{"last_updated":1728104916,"ttl":60,"version":"2.2","data":{"bikes":[{"bike_id":"8896e396-18ff-4f04-8947-ac2e58abc497","system_id":"levelo_inurba_marseille","lat":43.30803,"lon":5.4353,"is_reserved":false,"is_disabled":false,"rental_uris":{"android":"levelo://app?vid=8896e396-18ff-4f04-8947-ac2e58abc497","ios":"levelo://app?vid=8896e396-18ff-4f04-8947-ac2e58abc497"},"vehicle_type_id":"4","last_reported":1728104916,"current_range_meters":9200,"station_id":"ce4bhph2rcd13ifvqheg","pricing_plan_id":"cebpf4jnsgd1na2vs0mg"},{"bike_id":"e4b84675-a2ef-4a08-972b-c8ccf50cd9f9","system_id":"levelo_inurba_marseille","lat":43.23195,"lon":5.39999,"is_reserved":false,"is_disabled":false,"rental_uris":{"android":"levelo://app?vid=e4b84675-a2ef-4a08-972b-c8ccf50cd9f9","ios":"levelo://app?vid=e4b84675-a2ef-4a08-972b-c8ccf50cd9f9"},"vehicle_type_id":"4","last_reported":1728104916,"current_range_meters":24400,"station_id":"ce4bhn12rcd13ifvqgqg","pricing_plan_id":"cebpf4jnsgd1na2vs0mg"},{"bike_id":"047884f3-4a2f-401e-8bcc-08251e583521","system_id":"levelo_inurba_marseille","lat":43.30646,"lon":5.40072,"is_reserved":false,"is_disabled":false,"rental_uris":{"android":"levelo://app?vid=047884f3-4a2f-401e-8bcc-08251e583521","ios":"levelo://app?vid=047884f3-4a2f-401e-8bcc-08251e583521"},"vehicle_type_id":"4","last_reported":1728104916,"current_range_meters":12000,"station_id":"ce4bh112rcd13ifvqda0","pricing_plan_id":"cebpf4jnsgd1na2vs0mg"},{"bike_id":"7244a60b-bd29-46a8-b6b6-1ba592f74ded","system_id":"levelo_inurba_marseille","lat":43.25119,"lon":5.40319,"is_reserved":false,"is_disabled":false,"rental_uris":{"android":"levelo://app?vid=7244a60b-bd29-46a8-b6b6-1ba592f74ded","ios":"levelo://app?vid=7244a60b-bd29-46a8-b6b6-1ba592f74ded"},"vehicle_type_id":"4","last_reported":1728104916,"current_range_meters":21600,"station_id":"ce4bhlh2rcd13ifvqgig","pricing_plan_id":"cebpf4jnsgd1na2vs0mg"},{"bike_id":"f4595530-d232-414f-97eb-1f8005c70977","system_id":"levelo_inurba_marseille","lat":43.32363,"lon":5.38889,"is_reserved":false,"is_disabled":false,"rental_uris":{"android":"levelo://app?vid=f4595530-d232-414f-97eb-1f8005c70977","ios":"levelo://app?vid=f4595530-d232-414f-97eb-1f8005c70977"},"vehicle_type_id":"4","last_reported":1728104916,"current_range_meters":38800,"station_id":"ce4bhqp2rcd13ifvqhog","pricing_plan_id":"cebpf4jnsgd1na2vs0mg"},{"bike_id":"df5ae931-9c31-4c27-8581-ebc35444b428","system_id":"levelo_inurba_marseille","lat":43.31493,"lon":5.37297,"is_reserved":false,"is_disabled":false,"rental_uris":{"android":"levelo://app?vid=df5ae931-9c31-4c27-8581-ebc35444b428","ios":"levelo://app?vid=df5ae931-9c31-4c27-8581-ebc35444b428"},"vehicle_type_id":"4","last_reported":1728104916,"current_range_meters":24000,"station_id":"ce4bgt12rcd13ifvqcd0","pricing_plan_id":"cebpf4jnsgd1na2vs0mg"},{"bike_id":"fc4cd310-d92c-4df7-a20f-bde8894c63db","system_id":"levelo_inurba_marseille","lat":43.2512,"lon":5.40322,"is_reserved":false,"is_disabled":false,"rental_uris":{"android":"levelo://app?vid=fc4cd310-d92c-4df7-a20f-bde8894c63db","ios":"levelo://app?vid=fc4cd310-d92c-4df7-a20f-bde8894c63db"},"vehicle_type_id":"4","last_reported":1728104916,"current_range_meters":4400,"station_id":"ce4bhlh2rcd13ifvqgig","pricing_plan_id":"cebpf4jnsgd1na2vs0mg"},{"bike_id":"4286a9ee-5432-43ae-b74b-d2672a11fe7f","system_id":"levelo_inurba_marseille","lat":43.25864,"lon":5.39903,"is_reserved":false,"is_disabled":false,"rental_uris":{"android":"levelo://app?vid=4286a9ee-5432-43ae-b74b-d2672a11fe7f","ios":"levelo://app?vid=4286a9ee-5432-43ae-b74b-d2672a11fe7f"},"vehicle_type_id":"4","last_reported":1728104916,"current_range_meters":27600,"station_id":"ce4bhl92rcd13ifvqghg","pricing_plan_id":"cebpf4jnsgd1na2vs0mg"},{"bike_id":"a56c66a8-2c2c-450d-99ae-17d6eaa42433","system_id":"levelo_inurba_marseille","lat":43.2439,"lon":5.37062,"is_reserved":false,"is_disabled":false,"rental_uris":{"android":"levelo://app?vid=a56c66a8-2c2c-450d-99ae-17d6eaa42433","ios":"levelo://app?vid=a56c66a8-2c2c-450d-99ae-17d6eaa42433"},"vehicle_type_id":"4","last_reported":1728104916,"current_range_meters":38000,"station_id":"ce4bhhh2rcd13ifvqfk0","pricing_plan_id":"cebpf4jnsgd1na2vs0mg"},{"bike_id":"40fa03b7-66ea-4ec1-9bdc-41ec2b95b381","system_id":"levelo_inurba_marseille","lat":43.310844,"lon":5.42425,"is_reserved":false,"is_disabled":false,"rental_uris":{"android":"levelo://app?vid=40fa03b7-66ea-4ec1-9bdc-41ec2b95b381","ios":"levelo://app?vid=40fa03b7-66ea-4ec1-9bdc-41ec2b95b381"},"vehicle_type_id":"4","last_reported":1728104916,"current_range_meters":14400,"station_id":"ce4bhp92rcd13ifvqhag","pricing_plan_id":"cebpf4jnsgd1na2vs0mg"},{"bike_id":"0ab31a2b-100e-46ba-8518-e3de7fc7122e","system_id":"levelo_inurba_marseille","lat":43.3375,"lon":5.37445,"is_reserved":false,"is_disabled":false,"rental_uris":{"android":"levelo://app?vid=0ab31a2b-100e-46ba-8518-e3de7fc7122e","ios":"levelo://app?vid=0ab31a2b-100e-46ba-8518-e3de7fc7122e"},"vehicle_type_id":"4","last_reported":1728104916,"current_range_meters":33600,"station_id":"","pricing_plan_id":"cebpf4jnsgd1na2vs0mg"},{"bike_id":"4e5d55ab-5625-4878-b6f4-3a40ac8fe1fe","system_id":"levelo_inurba_marseille","lat":43.3032,"lon":5.40437,"is_reserved":false,"is_disabled":false,"rental_uris":{"android":"levelo://app?vid=4e5d55ab-5625-4878-b6f4-3a40ac8fe1fe","ios":"levelo://app?vid=4e5d55ab-5625-4878-b6f4-3a40ac8fe1fe"},"vehicle_type_id":"4","last_reported":1728104916,"current_range_meters":9600,"station_id":"ce4bh012rcd13ifvqd10","pricing_plan_id":"cebpf4jnsgd1na2vs0mg"},{"bike_id":"74c7d066-3397-4384-9159-7995f69e0cb0","system_id":"levelo_inurba_marseille","lat":43.258735,"lon":5.399021,"is_reserved":false,"is_disabled":false,"rental_uris":{"android":"levelo://app?vid=74c7d066-3397-4384-9159-7995f69e0cb0","ios":"levelo://app?vid=74c7d066-3397-4384-9159-7995f69e0cb0"},"vehicle_type_id":"4","last_reported":1728104916,"current_range_meters":8000,"station_id":"ce4bhl92rcd13ifvqghg","pricing_plan_id":"cebpf4jnsgd1na2vs0mg"},{"bike_id":"756088e4-bd38-4606-aa6f-cbbf1461af00","system_id":"levelo_inurba_marseille","lat":43.22936,"lon":5.35379,"is_reserved":false,"is_disabled":false,"rental_uris":{"android":"levelo://app?vid=756088e4-bd38-4606-aa6f-cbbf1461af00","ios":"levelo://app?vid=756088e4-bd38-4606-aa6f-cbbf1461af00"},"vehicle_type_id":"4","last_reported":1728104916,"current_range_meters":8800,"station_id":"cpo3532slgdg3j2ikp40","pricing_plan_id":"cebpf4jnsgd1na2vs0mg"},{"bike_id":"b8fd588e-62e7-45fd-a6b3-489e40bd5ea0","system_id":"levelo_inurba_marseille","lat":43.29044,"lon":5.3592,"is_reserved":false,"is_disabled":false,"rental_uris":{"android":"levelo://app?vid=b8fd588e-62e7-45fd-a6b3-489e40bd5ea0","ios":"levelo://app?vid=b8fd588e-62e7-45fd-a6b3-489e40bd5ea0"},"vehicle_type_id":"4","last_reported":1728104916,"current_range_meters":33600,"station_id":"ce4bha92rcd13ifvqeg0","pricing_plan_id":"cebpf4jnsgd1na2vs0mg"},{"bike_id":"a4aa62ee-7487-458b-b1e7-90a175527687","system_id":"levelo_inurba_marseille","lat":43.28853,"lon":5.35828,"is_reserved":false,"is_disabled":false,"rental_uris":{"android":"levelo://app?vid=a4aa62ee-7487-458b-b1e7-90a175527687","ios":"levelo://app?vid=a4aa62ee-7487-458b-b1e7-90a175527687"},"vehicle_type_id":"4","last_reported":1728104916,"current_range_meters":23200,"station_id":"ce4bhb12rcd13ifvqem0","pricing_plan_id":"cebpf4jnsgd1na2vs0mg"},{"bike_id":"b533c485-8de5-4435-9b8a-7bede3d5f21f","system_id":"levelo_inurba_marseille","lat":43.31121,"lon":5.37765,"is_reserved":false,"is_disabled":false,"rental_uris":{"android":"levelo://app?vid=b533c485-8de5-4435-9b8a-7bede3d5f21f","ios":"levelo://app?vid=b533c485-8de5-4435-9b8a-7bede3d5f21f"},"vehicle_type_id":"4","last_reported":1728104916,"current_range_meters":38400,"station_id":"ce4bgt92rcd13ifvqcg0","pricing_plan_id":"cebpf4jnsgd1na2vs0mg"},{"bike_id":"b781b559-2d2c-4659-9984-837493ba32e5","system_id":"levelo_inurba_marseille","lat":43.30157,"lon":5.38074,"is_reserved":false,"is_disabled":false,"rental_uris":{"android":"levelo://app?vid=b781b559-2d2c-4659-9984-837493ba32e5","ios":"levelo://app?vid=b781b559-2d2c-4659-9984-837493ba32e5"},"vehicle_type_id":"4","last_reported":1728104916,"current_range_meters":32400,"station_id":"ce4bgjp2rcd13ifvqbh0","pricing_plan_id":"cebpf4jnsgd1na2vs0mg"},{"bike_id":"4baa9b83-4430-4f18-814e-ddb2add7d50a","system_id":"levelo_inurba_marseille","lat":43.30934,"lon":5.40148,"is_reserved":false,"is_disabled":false,"rental_uris":{"android":"levelo://app?vid=4baa9b83-4430-4f18-814e-ddb2add7d50a","ios":"levelo://app?vid=4baa9b83-4430-4f18-814e-ddb2add7d50a"},"vehicle_type_id":"4","last_reported":1728104916,"current_range_meters":39200,"station_id":"ce4bgvp2rcd13ifvqct0","pricing_plan_id":"cebpf4jnsgd1na2vs0mg"},{"bike_id":"f8a64c18-a049-40cf-a08f-5fe79d758151","system_id":"levelo_inurba_marseille","lat":43.28942,"lon":5.39624,"is_reserved":false,"is_disabled":false,"rental_uris":{"android":"levelo://app?vid=f8a64c18-a049-40cf-a08f-5fe79d758151","ios":"levelo://app?vid=f8a64c18-a049-40cf-a08f-5fe79d758151"},"vehicle_type_id":"4","last_reported":1728104916,"current_range_meters":39200,"station_id":"ce4bh3h2rcd13ifvqdn0","pricing_plan_id":"cebpf4jnsgd1na2vs0mg"},{"bike_id":"9574f5d2-f63d-4bf5-96a5-38006b6b5402","system_id":"levelo_inurba_marseille","lat":43.27494,"lon":5.42451,"is_reserved":false,"is_disabled":false,"rental_uris":{"android":"levelo://app?vid=9574f5d2-f63d-4bf5-96a5-38006b6b5402","ios":"levelo://app?vid=9574f5d2-f63d-4bf5-96a5-38006b6b5402"},"vehicle_type_id":"4","last_reported":1728104916,"current_range_meters":38800,"station_id":"ce4bhn92rcd13ifvqgrg","pricing_plan_id":"cebpf4jnsgd1na2vs0mg"},{"bike_id":"cf7ed676-1e52-4ebc-ba1a-a57cfc8b465a","system_id":"levelo_inurba_marseille","lat":43.32338,"lon":5.40623,"is_reserved":false,"is_disabled":false,"rental_uris":{"android":"levelo://app?vid=cf7ed676-1e52-4ebc-ba1a-a57cfc8b465a","ios":"levelo://app?vid=cf7ed676-1e52-4ebc-ba1a-a57cfc8b465a"},"vehicle_type_id":"4","last_reported":1728104916,"current_range_meters":18000,"station_id":"ce4bhq92rcd13ifvqhjg","pricing_plan_id":"cebpf4jnsgd1na2vs0mg"},{"bike_id":"e5a282ac-f003-4b24-85f3-6a97a2c39269","system_id":"levelo_inurba_marseille","lat":43.31497,"lon":5.37301,"is_reserved":false,"is_disabled":false,"rental_uris":{"android":"levelo://app?vid=e5a282ac-f003-4b24-85f3-6a97a2c39269","ios":"levelo://app?vid=e5a282ac-f003-4b24-85f3-6a97a2c39269"},"vehicle_type_id":"4","last_reported":1728104916,"current_range_meters":38400,"station_id":"ce4bgt12rcd13ifvqcd0","pricing_plan_id":"cebpf4jnsgd1na2vs0mg"},{"bike_id":"37042c1b-99f0-4379-a7d0-0b6867cdb669","system_id":"levelo_inurba_marseille","lat":43.23194,"lon":5.39975,"is_reserved":false,"is_disabled":false,"rental_uris":{"android":"levelo://app?vid=37042c1b-99f0-4379-a7d0-0b6867cdb669","ios":"levelo://app?vid=37042c1b-99f0-4379-a7d0-0b6867cdb669"},"vehicle_type_id":"4","last_reported":1728104916,"current_range_meters":38000,"station_id":"ce4bhn12rcd13ifvqgqg","pricing_plan_id":"cebpf4jnsgd1na2vs0mg"},{"bike_id":"39e44b69-0534-46f1-87df-7862565c917d","system_id":"levelo_inurba_marseille","lat":43.25503,"lon":5.37653,"is_reserved":false,"is_disabled":false,"rental_uris":{"android":"levelo://app?vid=39e44b69-0534-46f1-87df-7862565c917d","ios":"levelo://app?vid=39e44b69-0534-46f1-87df-7862565c917d"},"vehicle_type_id":"4","last_reported":1728104916,"current_range_meters":35600,"station_id":"ce4bhh12rcd13ifvqff0","pricing_plan_id":"cebpf4jnsgd1na2vs0mg"},{"bike_id":"54bdf2b3-276c-4120-9669-e4f33b6b5914","system_id":"levelo_inurba_marseille","lat":43.28422,"lon":5.34982,"is_reserved":false,"is_disabled":false,"rental_uris":{"android":"levelo://app?vid=54bdf2b3-276c-4120-9669-e4f33b6b5914","ios":"levelo://app?vid=54bdf2b3-276c-4120-9669-e4f33b6b5914"},"vehicle_type_id":"4","last_reported":1728104916,"current_range_meters":38800,"station_id":"ce4bhbh2rcd13ifvqepg","pricing_plan_id":"cebpf4jnsgd1na2vs0mg"},{"bike_id":"2d896952-6ff6-494b-a49d-54b8317b93b6","system_id":"levelo_inurba_marseille","lat":43.27825,"lon":5.39215,"is_reserved":false,"is_disabled":false,"rental_uris":{"android":"levelo://app?vid=2d896952-6ff6-494b-a49d-54b8317b93b6","ios":"levelo://app?vid=2d896952-6ff6-494b-a49d-54b8317b93b6"},"vehicle_type_id":"4","last_reported":1728104916,"current_range_meters":18800,"station_id":"ce4bhjp2rcd13ifvqga0","pricing_plan_id":"cebpf4jnsgd1na2vs0mg"},{"bike_id":"0dc8198c-8784-429a-9654-bc3e6d0ff90b","system_id":"levelo_inurba_marseille","lat":43.23967,"lon":5.36633,"is_reserved":false,"is_disabled":false,"rental_uris":{"android":"levelo://app?vid=0dc8198c-8784-429a-9654-bc3e6d0ff90b","ios":"levelo://app?vid=0dc8198c-8784-429a-9654-bc3e6d0ff90b"},"vehicle_type_id":"4","last_reported":1728104916,"current_range_meters":18000,"station_id":"ce4bhi12rcd13ifvqfp0","pricing_plan_id":"cebpf4jnsgd1na2vs0mg"},{"bike_id":"63c8fa7d-6106-4fec-a19a-c06be543e12d","system_id":"levelo_inurba_marseille","lat":43.290483,"lon":5.359072,"is_reserved":false,"is_disabled":false,"rental_uris":{"android":"levelo://app?vid=63c8fa7d-6106-4fec-a19a-c06be543e12d","ios":"levelo://app?vid=63c8fa7d-6106-4fec-a19a-c06be543e12d"},"vehicle_type_id":"4","last_reported":1728104916,"current_range_meters":14400,"station_id":"ce4bha92rcd13ifvqeg0","pricing_plan_id":"cebpf4jnsgd1na2vs0mg"},{"bike_id":"c68cc33a-4a9b-4083-b265-cd063174559a","system_id":"levelo_inurba_marseille","lat":43.28466,"lon":5.35886,"is_reserved":false,"is_disabled":false,"rental_uris":{"android":"levelo://app?vid=c68cc33a-4a9b-4083-b265-cd063174559a","ios":"levelo://app?vid=c68cc33a-4a9b-4083-b265-cd063174559a"},"vehicle_type_id":"4","last_reported":1728104916,"current_range_meters":39200,"station_id":"ce4bhah2rcd13ifvqei0","pricing_plan_id":"cebpf4jnsgd1na2vs0mg"},{"bike_id":"5a484b9f-0ab5-40c4-af5c-dba35c9c07cb","system_id":"levelo_inurba_marseille","lat":43.30325,"lon":5.4044,"is_reserved":false,"is_disabled":false,"rental_uris":{"android":"levelo://app?vid=5a484b9f-0ab5-40c4-af5c-dba35c9c07cb","ios":"levelo://app?vid=5a484b9f-0ab5-40c4-af5c-dba35c9c07cb"},"vehicle_type_id":"4","last_reported":1728104916,"current_range_meters":7200,"station_id":"ce4bh012rcd13ifvqd10","pricing_plan_id":"cebpf4jnsgd1na2vs0mg"},{"bike_id":"b72060d9-cd85-444a-b428-60076db3e287","system_id":"levelo_inurba_marseille","lat":43.30312,"lon":5.36894,"is_reserved":false,"is_disabled":false,"rental_uris":{"android":"levelo://app?vid=b72060d9-cd85-444a-b428-60076db3e287","ios":"levelo://app?vid=b72060d9-cd85-444a-b428-60076db3e287"},"vehicle_type_id":"4","last_reported":1728104916,"current_range_meters":14000,"station_id":"ce4bgqh2rcd13ifvqc5g","pricing_plan_id":"cebpf4jnsgd1na2vs0mg"},{"bike_id":"69b2ab72-6eb7-403d-85c7-be72aa2ab82b","system_id":"levelo_inurba_marseille","lat":43.30084,"lon":5.40052,"is_reserved":false,"is_disabled":false,"rental_uris":{"android":"levelo://app?vid=69b2ab72-6eb7-403d-85c7-be72aa2ab82b","ios":"levelo://app?vid=69b2ab72-6eb7-403d-85c7-be72aa2ab82b"},"vehicle_type_id":"4","last_reported":1728104916,"current_range_meters":19200,"station_id":"","pricing_plan_id":"cebpf4jnsgd1na2vs0mg"},{"bike_id":"36f689f4-f0d5-41c0-991f-d288ea377e01","system_id":"levelo_inurba_marseille","lat":43.295746,"lon":5.375692,"is_reserved":false,"is_disabled":false,"rental_uris":{"android":"levelo://app?vid=36f689f4-f0d5-41c0-991f-d288ea377e01","ios":"levelo://app?vid=36f689f4-f0d5-41c0-991f-d288ea377e01"},"vehicle_type_id":"4","last_reported":1728104916,"current_range_meters":34000,"station_id":"","pricing_plan_id":"cebpf4jnsgd1na2vs0mg"},{"bike_id":"5cc398d2-ffa8-49fb-8317-67bec2f84642","system_id":"levelo_inurba_marseille","lat":43.26943,"lon":5.40252,"is_reserved":false,"is_disabled":false,"rental_uris":{"android":"levelo://app?vid=5cc398d2-ffa8-49fb-8317-67bec2f84642","ios":"levelo://app?vid=5cc398d2-ffa8-49fb-8317-67bec2f84642"},"vehicle_type_id":"4","last_reported":1728104916,"current_range_meters":38800,"station_id":"cjm6bp8fraef2m0cb0m0","pricing_plan_id":"cebpf4jnsgd1na2vs0mg"},{"bike_id":"4001110d-686e-4cb0-83db-9dc2b3f4c5e9","system_id":"levelo_inurba_marseille","lat":43.27939,"lon":5.41046,"is_reserved":false,"is_disabled":false,"rental_uris":{"android":"levelo://app?vid=4001110d-686e-4cb0-83db-9dc2b3f4c5e9","ios":"levelo://app?vid=4001110d-686e-4cb0-83db-9dc2b3f4c5e9"},"vehicle_type_id":"4","last_reported":1728104916,"current_range_meters":25600,"station_id":"ce4bhnp2rcd13ifvqh0g","pricing_plan_id":"cebpf4jnsgd1na2vs0mg"},{"bike_id":"3b5b5a7f-d2d7-43a6-b6f5-9af24c7d5b7a","system_id":"levelo_inurba_marseille","lat":43.26198,"lon":5.37932,"is_reserved":false,"is_disabled":false,"rental_uris":{"android":"levelo://app?vid=3b5b5a7f-d2d7-43a6-b6f5-9af24c7d5b7a","ios":"levelo://app?vid=3b5b5a7f-d2d7-43a6-b6f5-9af24c7d5b7a"},"vehicle_type_id":"4","last_reported":1728104916,"current_range_meters":38800,"station_id":"ce4bhjp2rcd13ifvqg90","pricing_plan_id":"cebpf4jnsgd1na2vs0mg"},{"bike_id":"2ee470a2-f6fc-41c4-9ed0-be15e787887a","system_id":"levelo_inurba_marseille","lat":43.23968,"lon":5.36637,"is_reserved":false,"is_disabled":false,"rental_uris":{"android":"levelo://app?vid=2ee470a2-f6fc-41c4-9ed0-be15e787887a","ios":"levelo://app?vid=2ee470a2-f6fc-41c4-9ed0-be15e787887a"},"vehicle_type_id":"4","last_reported":1728104916,"current_range_meters":39200,"station_id":"ce4bhi12rcd13ifvqfp0","pricing_plan_id":"cebpf4jnsgd1na2vs0mg"},{"bike_id":"a9cd8ef9-5de1-41de-9136-7414b29e70d3","system_id":"levelo_inurba_marseille","lat":43.30933,"lon":5.40142,"is_reserved":false,"is_disabled":false,"rental_uris":{"android":"levelo://app?vid=a9cd8ef9-5de1-41de-9136-7414b29e70d3","ios":"levelo://app?vid=a9cd8ef9-5de1-41de-9136-7414b29e70d3"},"vehicle_type_id":"4","last_reported":1728104916,"current_range_meters":38800,"station_id":"ce4bgvp2rcd13ifvqct0","pricing_plan_id":"cebpf4jnsgd1na2vs0mg"},{"bike_id":"4782596d-3e6e-4437-8d44-1e1923d90165","system_id":"levelo_inurba_marseille","lat":43.31117,"lon":5.37758,"is_reserved":false,"is_disabled":false,"rental_uris":{"android":"levelo://app?vid=4782596d-3e6e-4437-8d44-1e1923d90165","ios":"levelo://app?vid=4782596d-3e6e-4437-8d44-1e1923d90165"},"vehicle_type_id":"4","last_reported":1728104916,"current_range_meters":36800,"station_id":"ce4bgt92rcd13ifvqcg0","pricing_plan_id":"cebpf4jnsgd1na2vs0mg"},{"bike_id":"e6b2df58-b4a0-4aec-933d-a62e42f34d34","system_id":"levelo_inurba_marseille","lat":43.33725,"lon":5.39202,"is_reserved":false,"is_disabled":false,"rental_uris":{"android":"levelo://app?vid=e6b2df58-b4a0-4aec-933d-a62e42f34d34","ios":"levelo://app?vid=e6b2df58-b4a0-4aec-933d-a62e42f34d34"},"vehicle_type_id":"4","last_reported":1728104916,"current_range_meters":15200,"station_id":"ce4bhr92rcd13ifvqhsg","pricing_plan_id":"cebpf4jnsgd1na2vs0mg"},{"bike_id":"4bd5d3ee-7e90-4c04-9c10-0478043df15c","system_id":"levelo_inurba_marseille","lat":43.29093,"lon":5.38154,"is_reserved":false,"is_disabled":false,"rental_uris":{"android":"levelo://app?vid=4bd5d3ee-7e90-4c04-9c10-0478043df15c","ios":"levelo://app?vid=4bd5d3ee-7e90-4c04-9c10-0478043df15c"},"vehicle_type_id":"4","last_reported":1728104916,"current_range_meters":37600,"station_id":"ce4bh512rcd13ifvqe2g","pricing_plan_id":"cebpf4jnsgd1na2vs0mg"},{"bike_id":"d77938b7-ff1e-465c-a8b9-4b07085a5cc9","system_id":"levelo_inurba_marseille","lat":43.23069,"lon":5.35496,"is_reserved":false,"is_disabled":false,"rental_uris":{"android":"levelo://app?vid=d77938b7-ff1e-465c-a8b9-4b07085a5cc9","ios":"levelo://app?vid=d77938b7-ff1e-465c-a8b9-4b07085a5cc9"},"vehicle_type_id":"4","last_reported":1728104916,"current_range_meters":14800,"station_id":"cpo3342slgdg3j2ifvpg","pricing_plan_id":"cebpf4jnsgd1na2vs0mg"},{"bike_id":"852457a1-813f-46b8-bb13-232384e208e9","system_id":"levelo_inurba_marseille","lat":43.33773,"lon":5.37432,"is_reserved":false,"is_disabled":false,"rental_uris":{"android":"levelo://app?vid=852457a1-813f-46b8-bb13-232384e208e9","ios":"levelo://app?vid=852457a1-813f-46b8-bb13-232384e208e9"},"vehicle_type_id":"4","last_reported":1728104916,"current_range_meters":35600,"station_id":"","pricing_plan_id":"cebpf4jnsgd1na2vs0mg"},{"bike_id":"0d79ef91-e03a-4511-b960-a6f350f28d65","system_id":"levelo_inurba_marseille","lat":43.23069,"lon":5.35484,"is_reserved":false,"is_disabled":false,"rental_uris":{"android":"levelo://app?vid=0d79ef91-e03a-4511-b960-a6f350f28d65","ios":"levelo://app?vid=0d79ef91-e03a-4511-b960-a6f350f28d65"},"vehicle_type_id":"4","last_reported":1728104916,"current_range_meters":22000,"station_id":"cpo3342slgdg3j2ifvpg","pricing_plan_id":"cebpf4jnsgd1na2vs0mg"},{"bike_id":"1cb4a8d6-c871-4d09-bd39-77cd7e09191c","system_id":"levelo_inurba_marseille","lat":43.323352,"lon":5.406285,"is_reserved":false,"is_disabled":false,"rental_uris":{"android":"levelo://app?vid=1cb4a8d6-c871-4d09-bd39-77cd7e09191c","ios":"levelo://app?vid=1cb4a8d6-c871-4d09-bd39-77cd7e09191c"},"vehicle_type_id":"4","last_reported":1728104916,"current_range_meters":5600,"station_id":"ce4bhq92rcd13ifvqhjg","pricing_plan_id":"cebpf4jnsgd1na2vs0mg"},{"bike_id":"d0b8e853-bf3d-4921-86d5-59b8ddb13ba0","system_id":"levelo_inurba_marseille","lat":43.30253,"lon":5.40086,"is_reserved":false,"is_disabled":false,"rental_uris":{"android":"levelo://app?vid=d0b8e853-bf3d-4921-86d5-59b8ddb13ba0","ios":"levelo://app?vid=d0b8e853-bf3d-4921-86d5-59b8ddb13ba0"},"vehicle_type_id":"4","last_reported":1728104916,"current_range_meters":8800,"station_id":"ce4bgvh2rcd13ifvqcs0","pricing_plan_id":"cebpf4jnsgd1na2vs0mg"},{"bike_id":"2872d4cc-9922-4c18-8d4d-312fe4d7c35b","system_id":"levelo_inurba_marseille","lat":43.31533,"lon":5.38024,"is_reserved":false,"is_disabled":false,"rental_uris":{"android":"levelo://app?vid=2872d4cc-9922-4c18-8d4d-312fe4d7c35b","ios":"levelo://app?vid=2872d4cc-9922-4c18-8d4d-312fe4d7c35b"},"vehicle_type_id":"4","last_reported":1728104916,"current_range_meters":37600,"station_id":"ce4bhsp2rcd13ifvqi50","pricing_plan_id":"cebpf4jnsgd1na2vs0mg"},{"bike_id":"e5eec57e-9b0f-4559-b4c4-8a0dc3855cc7","system_id":"levelo_inurba_marseille","lat":43.27376,"lon":5.3626,"is_reserved":false,"is_disabled":false,"rental_uris":{"android":"levelo://app?vid=e5eec57e-9b0f-4559-b4c4-8a0dc3855cc7","ios":"levelo://app?vid=e5eec57e-9b0f-4559-b4c4-8a0dc3855cc7"},"vehicle_type_id":"4","last_reported":1728104916,"current_range_meters":26000,"station_id":"ce4bhbh2rcd13ifvqeo0","pricing_plan_id":"cebpf4jnsgd1na2vs0mg"},{"bike_id":"54d09a39-e79d-434c-8a05-a8f2660c6a94","system_id":"levelo_inurba_marseille","lat":43.29902,"lon":5.43673,"is_reserved":false,"is_disabled":false,"rental_uris":{"android":"levelo://app?vid=54d09a39-e79d-434c-8a05-a8f2660c6a94","ios":"levelo://app?vid=54d09a39-e79d-434c-8a05-a8f2660c6a94"},"vehicle_type_id":"4","last_reported":1728104916,"current_range_meters":12800,"station_id":"ce4bhpp2rcd13ifvqhfg","pricing_plan_id":"cebpf4jnsgd1na2vs0mg"},{"bike_id":"e88589c2-9daf-4f7c-9d5a-36ecf8f63f21","system_id":"levelo_inurba_marseille","lat":43.3266,"lon":5.40983,"is_reserved":false,"is_disabled":false,"rental_uris":{"android":"levelo://app?vid=e88589c2-9daf-4f7c-9d5a-36ecf8f63f21","ios":"levelo://app?vid=e88589c2-9daf-4f7c-9d5a-36ecf8f63f21"},"vehicle_type_id":"4","last_reported":1728104916,"current_range_meters":38400,"station_id":"ce4bhpp2rcd13ifvqhgg","pricing_plan_id":"cebpf4jnsgd1na2vs0mg"},{"bike_id":"2f6471d4-b16d-44e6-92e3-eb26e2526693","system_id":"levelo_inurba_marseille","lat":43.28411,"lon":5.37517,"is_reserved":false,"is_disabled":false,"rental_uris":{"android":"levelo://app?vid=2f6471d4-b16d-44e6-92e3-eb26e2526693","ios":"levelo://app?vid=2f6471d4-b16d-44e6-92e3-eb26e2526693"},"vehicle_type_id":"4","last_reported":1728104916,"current_range_meters":27600,"station_id":"ce4bh412rcd13ifvqds0","pricing_plan_id":"cebpf4jnsgd1na2vs0mg"},{"bike_id":"1b5570bc-0cd8-4e9b-8227-4974e5a1d5c5","system_id":"levelo_inurba_marseille","lat":43.257151,"lon":5.411168,"is_reserved":false,"is_disabled":false,"rental_uris":{"android":"levelo://app?vid=1b5570bc-0cd8-4e9b-8227-4974e5a1d5c5","ios":"levelo://app?vid=1b5570bc-0cd8-4e9b-8227-4974e5a1d5c5"},"vehicle_type_id":"4","last_reported":1728104916,"current_range_meters":33600,"station_id":"ce4bhkp2rcd13ifvqgd0","pricing_plan_id":"cebpf4jnsgd1na2vs0mg"},{"bike_id":"c6a4d201-b40f-4e73-bde2-eef6682d2234","system_id":"levelo_inurba_marseille","lat":43.30151,"lon":5.38077,"is_reserved":false,"is_disabled":false,"rental_uris":{"android":"levelo://app?vid=c6a4d201-b40f-4e73-bde2-eef6682d2234","ios":"levelo://app?vid=c6a4d201-b40f-4e73-bde2-eef6682d2234"},"vehicle_type_id":"4","last_reported":1728104916,"current_range_meters":36000,"station_id":"ce4bgjp2rcd13ifvqbh0","pricing_plan_id":"cebpf4jnsgd1na2vs0mg"},{"bike_id":"58da2d85-0a0f-4148-ab1e-457dd3339d52","system_id":"levelo_inurba_marseille","lat":43.28576,"lon":5.39495,"is_reserved":false,"is_disabled":false,"rental_uris":{"android":"levelo://app?vid=58da2d85-0a0f-4148-ab1e-457dd3339d52","ios":"levelo://app?vid=58da2d85-0a0f-4148-ab1e-457dd3339d52"},"vehicle_type_id":"4","last_reported":1728104916,"current_range_meters":39200,"station_id":"ce4bh292rcd13ifvqdg0","pricing_plan_id":"cebpf4jnsgd1na2vs0mg"},{"bike_id":"a2757abc-4224-428a-a673-690954ea5d2d","system_id":"levelo_inurba_marseille","lat":43.25005,"lon":5.38196,"is_reserved":false,"is_disabled":false,"rental_uris":{"android":"levelo://app?vid=a2757abc-4224-428a-a673-690954ea5d2d","ios":"levelo://app?vid=a2757abc-4224-428a-a673-690954ea5d2d"},"vehicle_type_id":"4","last_reported":1728104916,"current_range_meters":23200,"station_id":"","pricing_plan_id":"cebpf4jnsgd1na2vs0mg"},{"bike_id":"b7f0ea75-1d64-47c2-8da3-0fc132ba74f6","system_id":"levelo_inurba_marseille","lat":43.3133,"lon":5.39692,"is_reserved":false,"is_disabled":false,"rental_uris":{"android":"levelo://app?vid=b7f0ea75-1d64-47c2-8da3-0fc132ba74f6","ios":"levelo://app?vid=b7f0ea75-1d64-47c2-8da3-0fc132ba74f6"},"vehicle_type_id":"4","last_reported":1728104916,"current_range_meters":8000,"station_id":"ce4bgvp2rcd13ifvqcu0","pricing_plan_id":"cebpf4jnsgd1na2vs0mg"},{"bike_id":"308ae973-a71c-45c1-9a03-b73643f01e25","system_id":"levelo_inurba_marseille","lat":43.31719,"lon":5.43705,"is_reserved":false,"is_disabled":false,"rental_uris":{"android":"levelo://app?vid=308ae973-a71c-45c1-9a03-b73643f01e25","ios":"levelo://app?vid=308ae973-a71c-45c1-9a03-b73643f01e25"},"vehicle_type_id":"4","last_reported":1728104916,"current_range_meters":24800,"station_id":"ce4bhp92rcd13ifvqhcg","pricing_plan_id":"cebpf4jnsgd1na2vs0mg"},{"bike_id":"3ab35772-ab98-4e0e-bb77-b34f7802889b","system_id":"levelo_inurba_marseille","lat":43.25121,"lon":5.40324,"is_reserved":false,"is_disabled":false,"rental_uris":{"android":"levelo://app?vid=3ab35772-ab98-4e0e-bb77-b34f7802889b","ios":"levelo://app?vid=3ab35772-ab98-4e0e-bb77-b34f7802889b"},"vehicle_type_id":"4","last_reported":1728104916,"current_range_meters":25200,"station_id":"ce4bhlh2rcd13ifvqgig","pricing_plan_id":"cebpf4jnsgd1na2vs0mg"},{"bike_id":"a4721277-157e-42b9-87f0-290a3d401919","system_id":"levelo_inurba_marseille","lat":43.25941,"lon":5.40902,"is_reserved":false,"is_disabled":false,"rental_uris":{"android":"levelo://app?vid=a4721277-157e-42b9-87f0-290a3d401919","ios":"levelo://app?vid=a4721277-157e-42b9-87f0-290a3d401919"},"vehicle_type_id":"4","last_reported":1728104916,"current_range_meters":37600,"station_id":"ce4bhm92rcd13ifvqglg","pricing_plan_id":"cebpf4jnsgd1na2vs0mg"},{"bike_id":"0ba4bc15-e352-4dab-af47-0c05f9f898df","system_id":"levelo_inurba_marseille","lat":43.28152,"lon":5.4264,"is_reserved":false,"is_disabled":false,"rental_uris":{"android":"levelo://app?vid=0ba4bc15-e352-4dab-af47-0c05f9f898df","ios":"levelo://app?vid=0ba4bc15-e352-4dab-af47-0c05f9f898df"},"vehicle_type_id":"4","last_reported":1728104916,"current_range_meters":39200,"station_id":"ce4bhnh2rcd13ifvqgug","pricing_plan_id":"cebpf4jnsgd1na2vs0mg"},{"bike_id":"07eefe98-c43d-44fa-94fc-f276eab1ed35","system_id":"levelo_inurba_marseille","lat":43.28107,"lon":5.37838,"is_reserved":false,"is_disabled":false,"rental_uris":{"android":"levelo://app?vid=07eefe98-c43d-44fa-94fc-f276eab1ed35","ios":"levelo://app?vid=07eefe98-c43d-44fa-94fc-f276eab1ed35"},"vehicle_type_id":"4","last_reported":1728104916,"current_range_meters":9600,"station_id":"ce4bha12rcd13ifvqee0","pricing_plan_id":"cebpf4jnsgd1na2vs0mg"},{"bike_id":"e6bca4b3-499d-4074-a83e-a532736363d4","system_id":"levelo_inurba_marseille","lat":43.31173,"lon":5.38715,"is_reserved":false,"is_disabled":false,"rental_uris":{"android":"levelo://app?vid=e6bca4b3-499d-4074-a83e-a532736363d4","ios":"levelo://app?vid=e6bca4b3-499d-4074-a83e-a532736363d4"},"vehicle_type_id":"4","last_reported":1728104916,"current_range_meters":34000,"station_id":"ce4bgv12rcd13ifvqcp0","pricing_plan_id":"cebpf4jnsgd1na2vs0mg"},{"bike_id":"ac1312d6-a9b4-4549-b2a1-bf2faa5e309c","system_id":"levelo_inurba_marseille","lat":43.31116,"lon":5.37766,"is_reserved":false,"is_disabled":false,"rental_uris":{"android":"levelo://app?vid=ac1312d6-a9b4-4549-b2a1-bf2faa5e309c","ios":"levelo://app?vid=ac1312d6-a9b4-4549-b2a1-bf2faa5e309c"},"vehicle_type_id":"4","last_reported":1728104916,"current_range_meters":28000,"station_id":"ce4bgt92rcd13ifvqcg0","pricing_plan_id":"cebpf4jnsgd1na2vs0mg"},{"bike_id":"015abb97-0f96-4260-bfde-c551e4a1363b","system_id":"levelo_inurba_marseille","lat":43.31173,"lon":5.38702,"is_reserved":false,"is_disabled":false,"rental_uris":{"android":"levelo://app?vid=015abb97-0f96-4260-bfde-c551e4a1363b","ios":"levelo://app?vid=015abb97-0f96-4260-bfde-c551e4a1363b"},"vehicle_type_id":"4","last_reported":1728104916,"current_range_meters":39200,"station_id":"ce4bgv12rcd13ifvqcp0","pricing_plan_id":"cebpf4jnsgd1na2vs0mg"},{"bike_id":"bf214ee5-bcc3-48ed-b2c5-a945b0468078","system_id":"levelo_inurba_marseille","lat":43.24642,"lon":5.38898,"is_reserved":false,"is_disabled":false,"rental_uris":{"android":"levelo://app?vid=bf214ee5-bcc3-48ed-b2c5-a945b0468078","ios":"levelo://app?vid=bf214ee5-bcc3-48ed-b2c5-a945b0468078"},"vehicle_type_id":"4","last_reported":1728104916,"current_range_meters":19200,"station_id":"ce4bhg12rcd13ifvqf60","pricing_plan_id":"cebpf4jnsgd1na2vs0mg"},{"bike_id":"a093bdd9-36dc-4dbd-ab69-790a2d1301fe","system_id":"levelo_inurba_marseille","lat":43.31702,"lon":5.40468,"is_reserved":false,"is_disabled":false,"rental_uris":{"android":"levelo://app?vid=a093bdd9-36dc-4dbd-ab69-790a2d1301fe","ios":"levelo://app?vid=a093bdd9-36dc-4dbd-ab69-790a2d1301fe"},"vehicle_type_id":"4","last_reported":1728104916,"current_range_meters":38000,"station_id":"ce4bh012rcd13ifvqd00","pricing_plan_id":"cebpf4jnsgd1na2vs0mg"},{"bike_id":"6102bacc-0bb3-4c79-854a-2d4ec81b21c1","system_id":"levelo_inurba_marseille","lat":43.31723,"lon":5.42401,"is_reserved":false,"is_disabled":false,"rental_uris":{"android":"levelo://app?vid=6102bacc-0bb3-4c79-854a-2d4ec81b21c1","ios":"levelo://app?vid=6102bacc-0bb3-4c79-854a-2d4ec81b21c1"},"vehicle_type_id":"4","last_reported":1728104916,"current_range_meters":38800,"station_id":"ce4bhp92rcd13ifvqhbg","pricing_plan_id":"cebpf4jnsgd1na2vs0mg"},{"bike_id":"8677db91-5430-46c0-887e-c1c66de6b80a","system_id":"levelo_inurba_marseille","lat":43.27209,"lon":5.39185,"is_reserved":false,"is_disabled":false,"rental_uris":{"android":"levelo://app?vid=8677db91-5430-46c0-887e-c1c66de6b80a","ios":"levelo://app?vid=8677db91-5430-46c0-887e-c1c66de6b80a"},"vehicle_type_id":"4","last_reported":1728104916,"current_range_meters":7200,"station_id":"ce4bhhp2rcd13ifvqfm0","pricing_plan_id":"cebpf4jnsgd1na2vs0mg"},{"bike_id":"64135920-5938-4a79-9c58-1ca30316df2c","system_id":"levelo_inurba_marseille","lat":43.31364,"lon":5.38499,"is_reserved":false,"is_disabled":false,"rental_uris":{"android":"levelo://app?vid=64135920-5938-4a79-9c58-1ca30316df2c","ios":"levelo://app?vid=64135920-5938-4a79-9c58-1ca30316df2c"},"vehicle_type_id":"4","last_reported":1728104916,"current_range_meters":38400,"station_id":"ce4bgt92rcd13ifvqcf0","pricing_plan_id":"cebpf4jnsgd1na2vs0mg"},{"bike_id":"13a35d1a-1c21-4cdd-9282-17040c700716","system_id":"levelo_inurba_marseille","lat":43.32544,"lon":5.41449,"is_reserved":false,"is_disabled":false,"rental_uris":{"android":"levelo://app?vid=13a35d1a-1c21-4cdd-9282-17040c700716","ios":"levelo://app?vid=13a35d1a-1c21-4cdd-9282-17040c700716"},"vehicle_type_id":"4","last_reported":1728104916,"current_range_meters":38800,"station_id":"ce4bhq12rcd13ifvqhhg","pricing_plan_id":"cebpf4jnsgd1na2vs0mg"},{"bike_id":"5991f84f-21f0-4a7e-908b-cd019d1c55c9","system_id":"levelo_inurba_marseille","lat":43.2919,"lon":5.35799,"is_reserved":false,"is_disabled":false,"rental_uris":{"android":"levelo://app?vid=5991f84f-21f0-4a7e-908b-cd019d1c55c9","ios":"levelo://app?vid=5991f84f-21f0-4a7e-908b-cd019d1c55c9"},"vehicle_type_id":"4","last_reported":1728104916,"current_range_meters":38800,"station_id":"ce4bhb12rcd13ifvqel0","pricing_plan_id":"cebpf4jnsgd1na2vs0mg"},{"bike_id":"6069b2c9-bef2-4e62-bd0b-326d633c9d8f","system_id":"levelo_inurba_marseille","lat":43.26803,"lon":5.40262,"is_reserved":false,"is_disabled":false,"rental_uris":{"android":"levelo://app?vid=6069b2c9-bef2-4e62-bd0b-326d633c9d8f","ios":"levelo://app?vid=6069b2c9-bef2-4e62-bd0b-326d633c9d8f"},"vehicle_type_id":"4","last_reported":1728104916,"current_range_meters":5600,"station_id":"ce501612rcd8frsf0b60","pricing_plan_id":"cebpf4jnsgd1na2vs0mg"},{"bike_id":"265a7a9b-2f01-4738-b642-8a75440677b8","system_id":"levelo_inurba_marseille","lat":43.28577,"lon":5.39508,"is_reserved":false,"is_disabled":false,"rental_uris":{"android":"levelo://app?vid=265a7a9b-2f01-4738-b642-8a75440677b8","ios":"levelo://app?vid=265a7a9b-2f01-4738-b642-8a75440677b8"},"vehicle_type_id":"4","last_reported":1728104916,"current_range_meters":38400,"station_id":"ce4bh292rcd13ifvqdg0","pricing_plan_id":"cebpf4jnsgd1na2vs0mg"},{"bike_id":"696644f5-1423-4196-8c71-bccdf5f2a225","system_id":"levelo_inurba_marseille","lat":43.28431,"lon":5.34989,"is_reserved":false,"is_disabled":false,"rental_uris":{"android":"levelo://app?vid=696644f5-1423-4196-8c71-bccdf5f2a225","ios":"levelo://app?vid=696644f5-1423-4196-8c71-bccdf5f2a225"},"vehicle_type_id":"4","last_reported":1728104916,"current_range_meters":38800,"station_id":"ce4bhbh2rcd13ifvqepg","pricing_plan_id":"cebpf4jnsgd1na2vs0mg"},{"bike_id":"d5969c4c-98ec-4ce5-aaff-2beaafd1904f","system_id":"levelo_inurba_marseille","lat":43.27544,"lon":5.38941,"is_reserved":false,"is_disabled":false,"rental_uris":{"android":"levelo://app?vid=d5969c4c-98ec-4ce5-aaff-2beaafd1904f","ios":"levelo://app?vid=d5969c4c-98ec-4ce5-aaff-2beaafd1904f"},"vehicle_type_id":"4","last_reported":1728104916,"current_range_meters":38000,"station_id":"ce4bhgp2rcd13ifvqfe0","pricing_plan_id":"cebpf4jnsgd1na2vs0mg"},{"bike_id":"1677b5fa-03d6-4b3a-8db2-15450297f672","system_id":"levelo_inurba_marseille","lat":43.28732,"lon":5.36077,"is_reserved":false,"is_disabled":false,"rental_uris":{"android":"levelo://app?vid=1677b5fa-03d6-4b3a-8db2-15450297f672","ios":"levelo://app?vid=1677b5fa-03d6-4b3a-8db2-15450297f672"},"vehicle_type_id":"4","last_reported":1728104916,"current_range_meters":32000,"station_id":"cki0cbj6b192h4jlfktg","pricing_plan_id":"cebpf4jnsgd1na2vs0mg"},{"bike_id":"d9540bbe-54c4-43ad-ab34-e00280904e41","system_id":"levelo_inurba_marseille","lat":43.30888,"lon":5.37196,"is_reserved":false,"is_disabled":false,"rental_uris":{"android":"levelo://app?vid=d9540bbe-54c4-43ad-ab34-e00280904e41","ios":"levelo://app?vid=d9540bbe-54c4-43ad-ab34-e00280904e41"},"vehicle_type_id":"4","last_reported":1728104916,"current_range_meters":28800,"station_id":"ce4bguh2rcd13ifvqckg","pricing_plan_id":"cebpf4jnsgd1na2vs0mg"},{"bike_id":"ffc2f399-08e8-40c1-86d1-d728d8c4be5c","system_id":"levelo_inurba_marseille","lat":43.27841,"lon":5.3921,"is_reserved":false,"is_disabled":false,"rental_uris":{"android":"levelo://app?vid=ffc2f399-08e8-40c1-86d1-d728d8c4be5c","ios":"levelo://app?vid=ffc2f399-08e8-40c1-86d1-d728d8c4be5c"},"vehicle_type_id":"4","last_reported":1728104916,"current_range_meters":27200,"station_id":"ce4bhjp2rcd13ifvqga0","pricing_plan_id":"cebpf4jnsgd1na2vs0mg"},{"bike_id":"0bc4da86-c871-4c42-9afa-cbea77a620ca","system_id":"levelo_inurba_marseille","lat":43.28034,"lon":5.36944,"is_reserved":false,"is_disabled":false,"rental_uris":{"android":"levelo://app?vid=0bc4da86-c871-4c42-9afa-cbea77a620ca","ios":"levelo://app?vid=0bc4da86-c871-4c42-9afa-cbea77a620ca"},"vehicle_type_id":"4","last_reported":1728104916,"current_range_meters":38800,"station_id":"ce4bha12rcd13ifvqef0","pricing_plan_id":"cebpf4jnsgd1na2vs0mg"},{"bike_id":"e08c062f-61a2-493a-875d-6e296e2965d6","system_id":"levelo_inurba_marseille","lat":43.33747,"lon":5.37442,"is_reserved":false,"is_disabled":false,"rental_uris":{"android":"levelo://app?vid=e08c062f-61a2-493a-875d-6e296e2965d6","ios":"levelo://app?vid=e08c062f-61a2-493a-875d-6e296e2965d6"},"vehicle_type_id":"4","last_reported":1728104916,"current_range_meters":28800,"station_id":"","pricing_plan_id":"cebpf4jnsgd1na2vs0mg"},{"bike_id":"767b5572-7a96-45fd-9ea6-1b05056115f2","system_id":"levelo_inurba_marseille","lat":43.33021,"lon":5.39042,"is_reserved":false,"is_disabled":false,"rental_uris":{"android":"levelo://app?vid=767b5572-7a96-45fd-9ea6-1b05056115f2","ios":"levelo://app?vid=767b5572-7a96-45fd-9ea6-1b05056115f2"},"vehicle_type_id":"4","last_reported":1728104916,"current_range_meters":33200,"station_id":"ce4bhr92rcd13ifvqhrg","pricing_plan_id":"cebpf4jnsgd1na2vs0mg"},{"bike_id":"3a40b1ef-2155-46d5-873d-6b3d3b322f01","system_id":"levelo_inurba_marseille","lat":43.31538,"lon":5.38027,"is_reserved":false,"is_disabled":false,"rental_uris":{"android":"levelo://app?vid=3a40b1ef-2155-46d5-873d-6b3d3b322f01","ios":"levelo://app?vid=3a40b1ef-2155-46d5-873d-6b3d3b322f01"},"vehicle_type_id":"4","last_reported":1728104916,"current_range_meters":36800,"station_id":"ce4bhsp2rcd13ifvqi50","pricing_plan_id":"cebpf4jnsgd1na2vs0mg"},{"bike_id":"b871d3e1-c5d5-4d1f-8267-43a325f41cf2","system_id":"levelo_inurba_marseille","lat":43.25088,"lon":5.39513,"is_reserved":false,"is_disabled":false,"rental_uris":{"android":"levelo://app?vid=b871d3e1-c5d5-4d1f-8267-43a325f41cf2","ios":"levelo://app?vid=b871d3e1-c5d5-4d1f-8267-43a325f41cf2"},"vehicle_type_id":"4","last_reported":1728104916,"current_range_meters":37600,"station_id":"ce4bhm12rcd13ifvqgkg","pricing_plan_id":"cebpf4jnsgd1na2vs0mg"},{"bike_id":"9fd9ae4d-b0a8-4e67-8a22-2043de4dd180","system_id":"levelo_inurba_marseille","lat":43.25084,"lon":5.39521,"is_reserved":false,"is_disabled":false,"rental_uris":{"android":"levelo://app?vid=9fd9ae4d-b0a8-4e67-8a22-2043de4dd180","ios":"levelo://app?vid=9fd9ae4d-b0a8-4e67-8a22-2043de4dd180"},"vehicle_type_id":"4","last_reported":1728104916,"current_range_meters":24000,"station_id":"ce4bhm12rcd13ifvqgkg","pricing_plan_id":"cebpf4jnsgd1na2vs0mg"},{"bike_id":"bef8cb72-295a-4d6a-b764-8ae6e460a299","system_id":"levelo_inurba_marseille","lat":43.30532,"lon":5.36549,"is_reserved":false,"is_disabled":false,"rental_uris":{"android":"levelo://app?vid=bef8cb72-295a-4d6a-b764-8ae6e460a299","ios":"levelo://app?vid=bef8cb72-295a-4d6a-b764-8ae6e460a299"},"vehicle_type_id":"4","last_reported":1728104916,"current_range_meters":38400,"station_id":"ce4bgs12rcd13ifvqcag","pricing_plan_id":"cebpf4jnsgd1na2vs0mg"},{"bike_id":"bf4c4672-e9cc-4c0f-b11a-ad8c4add20a2","system_id":"levelo_inurba_marseille","lat":43.26938,"lon":5.3891,"is_reserved":false,"is_disabled":false,"rental_uris":{"android":"levelo://app?vid=bf4c4672-e9cc-4c0f-b11a-ad8c4add20a2","ios":"levelo://app?vid=bf4c4672-e9cc-4c0f-b11a-ad8c4add20a2"},"vehicle_type_id":"4","last_reported":1728104916,"current_range_meters":39200,"station_id":"ce4bhhh2rcd13ifvqfl0","pricing_plan_id":"cebpf4jnsgd1na2vs0mg"},{"bike_id":"8daf7790-baf0-4f0d-8956-529a09ec705b","system_id":"levelo_inurba_marseille","lat":43.28698,"lon":5.39978,"is_reserved":false,"is_disabled":false,"rental_uris":{"android":"levelo://app?vid=8daf7790-baf0-4f0d-8956-529a09ec705b","ios":"levelo://app?vid=8daf7790-baf0-4f0d-8956-529a09ec705b"},"vehicle_type_id":"4","last_reported":1728104916,"current_range_meters":31200,"station_id":"ce4bho92rcd13ifvqh3g","pricing_plan_id":"cebpf4jnsgd1na2vs0mg"},{"bike_id":"4fb3e50b-e8a2-4f4d-ac04-bfe37d711d3a","system_id":"levelo_inurba_marseille","lat":43.23961,"lon":5.36622,"is_reserved":false,"is_disabled":false,"rental_uris":{"android":"levelo://app?vid=4fb3e50b-e8a2-4f4d-ac04-bfe37d711d3a","ios":"levelo://app?vid=4fb3e50b-e8a2-4f4d-ac04-bfe37d711d3a"},"vehicle_type_id":"4","last_reported":1728104916,"current_range_meters":25200,"station_id":"ce4bhi12rcd13ifvqfp0","pricing_plan_id":"cebpf4jnsgd1na2vs0mg"},{"bike_id":"fcfb42de-cde1-4ec3-8e89-f197fdfcc1a8","system_id":"levelo_inurba_marseille","lat":43.23967,"lon":5.36638,"is_reserved":false,"is_disabled":false,"rental_uris":{"android":"levelo://app?vid=fcfb42de-cde1-4ec3-8e89-f197fdfcc1a8","ios":"levelo://app?vid=fcfb42de-cde1-4ec3-8e89-f197fdfcc1a8"},"vehicle_type_id":"4","last_reported":1728104916,"current_range_meters":39200,"station_id":"ce4bhi12rcd13ifvqfp0","pricing_plan_id":"cebpf4jnsgd1na2vs0mg"},{"bike_id":"7101b9db-d328-47cf-a085-f83e3e2a7f92","system_id":"levelo_inurba_marseille","lat":43.26805,"lon":5.40264,"is_reserved":false,"is_disabled":false,"rental_uris":{"android":"levelo://app?vid=7101b9db-d328-47cf-a085-f83e3e2a7f92","ios":"levelo://app?vid=7101b9db-d328-47cf-a085-f83e3e2a7f92"},"vehicle_type_id":"4","last_reported":1728104916,"current_range_meters":9200,"station_id":"ce501612rcd8frsf0b60","pricing_plan_id":"cebpf4jnsgd1na2vs0mg"},{"bike_id":"633d2344-d99e-4174-b6fb-920c3267e701","system_id":"levelo_inurba_marseille","lat":43.33719,"lon":5.39179,"is_reserved":false,"is_disabled":false,"rental_uris":{"android":"levelo://app?vid=633d2344-d99e-4174-b6fb-920c3267e701","ios":"levelo://app?vid=633d2344-d99e-4174-b6fb-920c3267e701"},"vehicle_type_id":"4","last_reported":1728104916,"current_range_meters":25600,"station_id":"ce4bhr92rcd13ifvqhsg","pricing_plan_id":"cebpf4jnsgd1na2vs0mg"},{"bike_id":"5f8d3d8f-1503-41ea-a148-3895c82e3ec7","system_id":"levelo_inurba_marseille","lat":43.28155,"lon":5.4264,"is_reserved":false,"is_disabled":false,"rental_uris":{"android":"levelo://app?vid=5f8d3d8f-1503-41ea-a148-3895c82e3ec7","ios":"levelo://app?vid=5f8d3d8f-1503-41ea-a148-3895c82e3ec7"},"vehicle_type_id":"4","last_reported":1728104916,"current_range_meters":12400,"station_id":"ce4bhnh2rcd13ifvqgug","pricing_plan_id":"cebpf4jnsgd1na2vs0mg"},{"bike_id":"5bb9570c-3c0f-4333-a6a5-c18ec6187253","system_id":"levelo_inurba_marseille","lat":43.24655,"lon":5.38882,"is_reserved":false,"is_disabled":false,"rental_uris":{"android":"levelo://app?vid=5bb9570c-3c0f-4333-a6a5-c18ec6187253","ios":"levelo://app?vid=5bb9570c-3c0f-4333-a6a5-c18ec6187253"},"vehicle_type_id":"4","last_reported":1728104916,"current_range_meters":23200,"station_id":"ce4bhg12rcd13ifvqf60","pricing_plan_id":"cebpf4jnsgd1na2vs0mg"},{"bike_id":"0bdcbbf1-b0e6-4a84-9257-91edf0e3108d","system_id":"levelo_inurba_marseille","lat":43.24074,"lon":5.37754,"is_reserved":false,"is_disabled":false,"rental_uris":{"android":"levelo://app?vid=0bdcbbf1-b0e6-4a84-9257-91edf0e3108d","ios":"levelo://app?vid=0bdcbbf1-b0e6-4a84-9257-91edf0e3108d"},"vehicle_type_id":"4","last_reported":1728104916,"current_range_meters":20800,"station_id":"ce4bhnp2rcd13ifvqgvg","pricing_plan_id":"cebpf4jnsgd1na2vs0mg"},{"bike_id":"fe248f13-295a-45af-9b83-f4f1503ce279","system_id":"levelo_inurba_marseille","lat":43.29802,"lon":5.37126,"is_reserved":false,"is_disabled":false,"rental_uris":{"android":"levelo://app?vid=fe248f13-295a-45af-9b83-f4f1503ce279","ios":"levelo://app?vid=fe248f13-295a-45af-9b83-f4f1503ce279"},"vehicle_type_id":"4","last_reported":1728104916,"current_range_meters":36000,"station_id":"ce4bgop2rcd13ifvqc1g","pricing_plan_id":"cebpf4jnsgd1na2vs0mg"},{"bike_id":"c64737d2-3f80-470f-90c0-efd4b209a1c7","system_id":"levelo_inurba_marseille","lat":43.28616,"lon":5.35104,"is_reserved":false,"is_disabled":false,"rental_uris":{"android":"levelo://app?vid=c64737d2-3f80-470f-90c0-efd4b209a1c7","ios":"levelo://app?vid=c64737d2-3f80-470f-90c0-efd4b209a1c7"},"vehicle_type_id":"4","last_reported":1728104916,"current_range_meters":38800,"station_id":"ce4bhch2rcd13ifvqeug","pricing_plan_id":"cebpf4jnsgd1na2vs0mg"},{"bike_id":"79b9780c-0672-46ff-af34-19be6dec4043","system_id":"levelo_inurba_marseille","lat":43.3171,"lon":5.43705,"is_reserved":false,"is_disabled":false,"rental_uris":{"android":"levelo://app?vid=79b9780c-0672-46ff-af34-19be6dec4043","ios":"levelo://app?vid=79b9780c-0672-46ff-af34-19be6dec4043"},"vehicle_type_id":"4","last_reported":1728104916,"current_range_meters":25200,"station_id":"ce4bhp92rcd13ifvqhcg","pricing_plan_id":"cebpf4jnsgd1na2vs0mg"},{"bike_id":"5e9f142c-8b8d-4d7e-b1da-86b8b8fda1ca","system_id":"levelo_inurba_marseille","lat":43.2901,"lon":5.35616,"is_reserved":false,"is_disabled":false,"rental_uris":{"android":"levelo://app?vid=5e9f142c-8b8d-4d7e-b1da-86b8b8fda1ca","ios":"levelo://app?vid=5e9f142c-8b8d-4d7e-b1da-86b8b8fda1ca"},"vehicle_type_id":"4","last_reported":1728104916,"current_range_meters":28000,"station_id":"ce4bhb92rcd13ifvqen0","pricing_plan_id":"cebpf4jnsgd1na2vs0mg"},{"bike_id":"88d763e9-254b-4f45-a733-903d4efd49e1","system_id":"levelo_inurba_marseille","lat":43.31072,"lon":5.38354,"is_reserved":false,"is_disabled":false,"rental_uris":{"android":"levelo://app?vid=88d763e9-254b-4f45-a733-903d4efd49e1","ios":"levelo://app?vid=88d763e9-254b-4f45-a733-903d4efd49e1"},"vehicle_type_id":"4","last_reported":1728104916,"current_range_meters":36000,"station_id":"ce4bgv92rcd13ifvqcr0","pricing_plan_id":"cebpf4jnsgd1na2vs0mg"},{"bike_id":"fd872ba7-9877-4e67-9269-d8995abba644","system_id":"levelo_inurba_marseille","lat":43.22936,"lon":5.35379,"is_reserved":false,"is_disabled":false,"rental_uris":{"android":"levelo://app?vid=fd872ba7-9877-4e67-9269-d8995abba644","ios":"levelo://app?vid=fd872ba7-9877-4e67-9269-d8995abba644"},"vehicle_type_id":"4","last_reported":1728104916,"current_range_meters":16400,"station_id":"cpo3532slgdg3j2ikp40","pricing_plan_id":"cebpf4jnsgd1na2vs0mg"},{"bike_id":"48a079d0-418c-455a-bcfe-edf03d542bf5","system_id":"levelo_inurba_marseille","lat":43.26974,"lon":5.38923,"is_reserved":false,"is_disabled":false,"rental_uris":{"android":"levelo://app?vid=48a079d0-418c-455a-bcfe-edf03d542bf5","ios":"levelo://app?vid=48a079d0-418c-455a-bcfe-edf03d542bf5"},"vehicle_type_id":"4","last_reported":1728104916,"current_range_meters":38000,"station_id":"ce4bhhh2rcd13ifvqfl0","pricing_plan_id":"cebpf4jnsgd1na2vs0mg"},{"bike_id":"fe069c0c-ab7e-4066-b369-24f70f595c37","system_id":"levelo_inurba_marseille","lat":43.32487,"lon":5.36552,"is_reserved":false,"is_disabled":false,"rental_uris":{"android":"levelo://app?vid=fe069c0c-ab7e-4066-b369-24f70f595c37","ios":"levelo://app?vid=fe069c0c-ab7e-4066-b369-24f70f595c37"},"vehicle_type_id":"4","last_reported":1728104916,"current_range_meters":38800,"station_id":"ce4bhs12rcd13ifvqhvg","pricing_plan_id":"cebpf4jnsgd1na2vs0mg"},{"bike_id":"2cfde8ca-341f-4330-863a-fa6449e2eb47","system_id":"levelo_inurba_marseille","lat":43.29517,"lon":5.39381,"is_reserved":false,"is_disabled":false,"rental_uris":{"android":"levelo://app?vid=2cfde8ca-341f-4330-863a-fa6449e2eb47","ios":"levelo://app?vid=2cfde8ca-341f-4330-863a-fa6449e2eb47"},"vehicle_type_id":"4","last_reported":1728104916,"current_range_meters":27200,"station_id":"ce4bh292rcd13ifvqdf0","pricing_plan_id":"cebpf4jnsgd1na2vs0mg"},{"bike_id":"f2f29c35-5cc6-4e62-bcc8-0e31c447ebff","system_id":"levelo_inurba_marseille","lat":43.28461,"lon":5.35887,"is_reserved":false,"is_disabled":false,"rental_uris":{"android":"levelo://app?vid=f2f29c35-5cc6-4e62-bcc8-0e31c447ebff","ios":"levelo://app?vid=f2f29c35-5cc6-4e62-bcc8-0e31c447ebff"},"vehicle_type_id":"4","last_reported":1728104916,"current_range_meters":38800,"station_id":"ce4bhah2rcd13ifvqei0","pricing_plan_id":"cebpf4jnsgd1na2vs0mg"},{"bike_id":"737fed70-0157-42cd-b1d0-c99f6a548a82","system_id":"levelo_inurba_marseille","lat":43.27992,"lon":5.4166,"is_reserved":false,"is_disabled":false,"rental_uris":{"android":"levelo://app?vid=737fed70-0157-42cd-b1d0-c99f6a548a82","ios":"levelo://app?vid=737fed70-0157-42cd-b1d0-c99f6a548a82"},"vehicle_type_id":"4","last_reported":1728104916,"current_range_meters":25200,"station_id":"ce4bho12rcd13ifvqh1g","pricing_plan_id":"cebpf4jnsgd1na2vs0mg"},{"bike_id":"bbf4d189-8b60-431e-85a8-b0aa62e4f5a1","system_id":"levelo_inurba_marseille","lat":43.307164,"lon":5.382407,"is_reserved":false,"is_disabled":false,"rental_uris":{"android":"levelo://app?vid=bbf4d189-8b60-431e-85a8-b0aa62e4f5a1","ios":"levelo://app?vid=bbf4d189-8b60-431e-85a8-b0aa62e4f5a1"},"vehicle_type_id":"4","last_reported":1728104916,"current_range_meters":4400,"station_id":"ce4bgt12rcd13ifvqce0","pricing_plan_id":"cebpf4jnsgd1na2vs0mg"},{"bike_id":"ffd2ef54-459a-425a-bbbd-15122bf2e93e","system_id":"levelo_inurba_marseille","lat":43.29556,"lon":5.42285,"is_reserved":false,"is_disabled":false,"rental_uris":{"android":"levelo://app?vid=ffd2ef54-459a-425a-bbbd-15122bf2e93e","ios":"levelo://app?vid=ffd2ef54-459a-425a-bbbd-15122bf2e93e"},"vehicle_type_id":"4","last_reported":1728104916,"current_range_meters":19200,"station_id":"ce4bhph2rcd13ifvqhdg","pricing_plan_id":"cebpf4jnsgd1na2vs0mg"},{"bike_id":"02287b3e-a2e5-4db9-badc-4f46622493bb","system_id":"levelo_inurba_marseille","lat":43.27071,"lon":5.42275,"is_reserved":false,"is_disabled":false,"rental_uris":{"android":"levelo://app?vid=02287b3e-a2e5-4db9-badc-4f46622493bb","ios":"levelo://app?vid=02287b3e-a2e5-4db9-badc-4f46622493bb"},"vehicle_type_id":"4","last_reported":1728104916,"current_range_meters":39200,"station_id":"ce4bhk92rcd13ifvqgb0","pricing_plan_id":"cebpf4jnsgd1na2vs0mg"},{"bike_id":"2dfa250e-fa81-43be-b763-8f49843284b7","system_id":"levelo_inurba_marseille","lat":43.23178,"lon":5.39966,"is_reserved":false,"is_disabled":false,"rental_uris":{"android":"levelo://app?vid=2dfa250e-fa81-43be-b763-8f49843284b7","ios":"levelo://app?vid=2dfa250e-fa81-43be-b763-8f49843284b7"},"vehicle_type_id":"4","last_reported":1728104916,"current_range_meters":38800,"station_id":"ce4bhn12rcd13ifvqgqg","pricing_plan_id":"cebpf4jnsgd1na2vs0mg"},{"bike_id":"2664d19f-333c-4813-9a04-76ab9f04646b","system_id":"levelo_inurba_marseille","lat":43.2795,"lon":5.4104,"is_reserved":false,"is_disabled":false,"rental_uris":{"android":"levelo://app?vid=2664d19f-333c-4813-9a04-76ab9f04646b","ios":"levelo://app?vid=2664d19f-333c-4813-9a04-76ab9f04646b"},"vehicle_type_id":"4","last_reported":1728104916,"current_range_meters":33600,"station_id":"ce4bhnp2rcd13ifvqh0g","pricing_plan_id":"cebpf4jnsgd1na2vs0mg"},{"bike_id":"56e290b8-baea-47bd-8cbe-7fd9ea0f5e8d","system_id":"levelo_inurba_marseille","lat":43.25872,"lon":5.39897,"is_reserved":false,"is_disabled":false,"rental_uris":{"android":"levelo://app?vid=56e290b8-baea-47bd-8cbe-7fd9ea0f5e8d","ios":"levelo://app?vid=56e290b8-baea-47bd-8cbe-7fd9ea0f5e8d"},"vehicle_type_id":"4","last_reported":1728104916,"current_range_meters":36800,"station_id":"ce4bhl92rcd13ifvqghg","pricing_plan_id":"cebpf4jnsgd1na2vs0mg"},{"bike_id":"a78fda36-cada-4a47-9104-4198396bc09e","system_id":"levelo_inurba_marseille","lat":43.30887,"lon":5.39628,"is_reserved":false,"is_disabled":false,"rental_uris":{"android":"levelo://app?vid=a78fda36-cada-4a47-9104-4198396bc09e","ios":"levelo://app?vid=a78fda36-cada-4a47-9104-4198396bc09e"},"vehicle_type_id":"4","last_reported":1728104916,"current_range_meters":38800,"station_id":"ce4bh012rcd13ifvqcv0","pricing_plan_id":"cebpf4jnsgd1na2vs0mg"},{"bike_id":"2127827a-03bd-4f9a-a0c5-31598fd2cadd","system_id":"levelo_inurba_marseille","lat":43.32657,"lon":5.41,"is_reserved":false,"is_disabled":false,"rental_uris":{"android":"levelo://app?vid=2127827a-03bd-4f9a-a0c5-31598fd2cadd","ios":"levelo://app?vid=2127827a-03bd-4f9a-a0c5-31598fd2cadd"},"vehicle_type_id":"4","last_reported":1728104916,"current_range_meters":6800,"station_id":"ce4bhpp2rcd13ifvqhgg","pricing_plan_id":"cebpf4jnsgd1na2vs0mg"},{"bike_id":"8f0da960-1b49-4f73-b0e6-073f32882857","system_id":"levelo_inurba_marseille","lat":43.30322,"lon":5.36899,"is_reserved":false,"is_disabled":false,"rental_uris":{"android":"levelo://app?vid=8f0da960-1b49-4f73-b0e6-073f32882857","ios":"levelo://app?vid=8f0da960-1b49-4f73-b0e6-073f32882857"},"vehicle_type_id":"4","last_reported":1728104916,"current_range_meters":38800,"station_id":"ce4bgqh2rcd13ifvqc5g","pricing_plan_id":"cebpf4jnsgd1na2vs0mg"},{"bike_id":"7ffe9289-3247-41d5-9101-b2fa83067f40","system_id":"levelo_inurba_marseille","lat":43.23966,"lon":5.36624,"is_reserved":false,"is_disabled":false,"rental_uris":{"android":"levelo://app?vid=7ffe9289-3247-41d5-9101-b2fa83067f40","ios":"levelo://app?vid=7ffe9289-3247-41d5-9101-b2fa83067f40"},"vehicle_type_id":"4","last_reported":1728104916,"current_range_meters":36800,"station_id":"ce4bhi12rcd13ifvqfp0","pricing_plan_id":"cebpf4jnsgd1na2vs0mg"},{"bike_id":"2124345a-a03d-4321-81f4-8ef1cf0cb940","system_id":"levelo_inurba_marseille","lat":43.2867,"lon":5.36337,"is_reserved":false,"is_disabled":false,"rental_uris":{"android":"levelo://app?vid=2124345a-a03d-4321-81f4-8ef1cf0cb940","ios":"levelo://app?vid=2124345a-a03d-4321-81f4-8ef1cf0cb940"},"vehicle_type_id":"4","last_reported":1728104916,"current_range_meters":38400,"station_id":"ce4bhah2rcd13ifvqej0","pricing_plan_id":"cebpf4jnsgd1na2vs0mg"},{"bike_id":"82fb1d9b-f78d-4572-93cd-c097376a885d","system_id":"levelo_inurba_marseille","lat":43.2315,"lon":5.43713,"is_reserved":false,"is_disabled":false,"rental_uris":{"android":"levelo://app?vid=82fb1d9b-f78d-4572-93cd-c097376a885d","ios":"levelo://app?vid=82fb1d9b-f78d-4572-93cd-c097376a885d"},"vehicle_type_id":"4","last_reported":1728104916,"current_range_meters":4400,"station_id":"ce4bhmp2rcd13ifvqgog","pricing_plan_id":"cebpf4jnsgd1na2vs0mg"},{"bike_id":"e04e5431-207d-4263-8b72-762e4c4878e5","system_id":"levelo_inurba_marseille","lat":43.23063,"lon":5.35494,"is_reserved":false,"is_disabled":false,"rental_uris":{"android":"levelo://app?vid=e04e5431-207d-4263-8b72-762e4c4878e5","ios":"levelo://app?vid=e04e5431-207d-4263-8b72-762e4c4878e5"},"vehicle_type_id":"4","last_reported":1728104916,"current_range_meters":17600,"station_id":"cpo3342slgdg3j2ifvpg","pricing_plan_id":"cebpf4jnsgd1na2vs0mg"},{"bike_id":"1a5410ba-9fbb-4266-a0fe-2364c4d5e366","system_id":"levelo_inurba_marseille","lat":43.31356,"lon":5.36717,"is_reserved":false,"is_disabled":false,"rental_uris":{"android":"levelo://app?vid=1a5410ba-9fbb-4266-a0fe-2364c4d5e366","ios":"levelo://app?vid=1a5410ba-9fbb-4266-a0fe-2364c4d5e366"},"vehicle_type_id":"4","last_reported":1728104916,"current_range_meters":17200,"station_id":"ce4bgr92rcd13ifvqc6g","pricing_plan_id":"cebpf4jnsgd1na2vs0mg"},{"bike_id":"50e6aeb8-7e25-4c09-9781-24c9f5d23dff","system_id":"levelo_inurba_marseille","lat":43.3375,"lon":5.37442,"is_reserved":false,"is_disabled":false,"rental_uris":{"android":"levelo://app?vid=50e6aeb8-7e25-4c09-9781-24c9f5d23dff","ios":"levelo://app?vid=50e6aeb8-7e25-4c09-9781-24c9f5d23dff"},"vehicle_type_id":"4","last_reported":1728104916,"current_range_meters":28400,"station_id":"","pricing_plan_id":"cebpf4jnsgd1na2vs0mg"},{"bike_id":"03ab3da6-0cf8-4367-b90e-0c5c5e8e2cae","system_id":"levelo_inurba_marseille","lat":43.298983,"lon":5.436711,"is_reserved":false,"is_disabled":false,"rental_uris":{"android":"levelo://app?vid=03ab3da6-0cf8-4367-b90e-0c5c5e8e2cae","ios":"levelo://app?vid=03ab3da6-0cf8-4367-b90e-0c5c5e8e2cae"},"vehicle_type_id":"4","last_reported":1728104916,"current_range_meters":37600,"station_id":"ce4bhpp2rcd13ifvqhfg","pricing_plan_id":"cebpf4jnsgd1na2vs0mg"},{"bike_id":"0ee33d65-8d49-455f-a7d5-59a7ba299972","system_id":"levelo_inurba_marseille","lat":43.30437,"lon":5.38889,"is_reserved":false,"is_disabled":false,"rental_uris":{"android":"levelo://app?vid=0ee33d65-8d49-455f-a7d5-59a7ba299972","ios":"levelo://app?vid=0ee33d65-8d49-455f-a7d5-59a7ba299972"},"vehicle_type_id":"4","last_reported":1728104916,"current_range_meters":39200,"station_id":"ce4bgk12rcd13ifvqbi0","pricing_plan_id":"cebpf4jnsgd1na2vs0mg"},{"bike_id":"309482ca-a4fa-4fd4-a6d0-9a365cdb6acb","system_id":"levelo_inurba_marseille","lat":43.295523,"lon":5.422837,"is_reserved":false,"is_disabled":false,"rental_uris":{"android":"levelo://app?vid=309482ca-a4fa-4fd4-a6d0-9a365cdb6acb","ios":"levelo://app?vid=309482ca-a4fa-4fd4-a6d0-9a365cdb6acb"},"vehicle_type_id":"4","last_reported":1728104916,"current_range_meters":4800,"station_id":"ce4bhph2rcd13ifvqhdg","pricing_plan_id":"cebpf4jnsgd1na2vs0mg"},{"bike_id":"f61323b5-5d59-4c99-b7f6-b09b1d6d2eca","system_id":"levelo_inurba_marseille","lat":43.23964,"lon":5.36637,"is_reserved":false,"is_disabled":false,"rental_uris":{"android":"levelo://app?vid=f61323b5-5d59-4c99-b7f6-b09b1d6d2eca","ios":"levelo://app?vid=f61323b5-5d59-4c99-b7f6-b09b1d6d2eca"},"vehicle_type_id":"4","last_reported":1728104916,"current_range_meters":35600,"station_id":"ce4bhi12rcd13ifvqfp0","pricing_plan_id":"cebpf4jnsgd1na2vs0mg"},{"bike_id":"094b268c-4cc2-43fc-862b-773d8ae92352","system_id":"levelo_inurba_marseille","lat":43.31126,"lon":5.37768,"is_reserved":false,"is_disabled":false,"rental_uris":{"android":"levelo://app?vid=094b268c-4cc2-43fc-862b-773d8ae92352","ios":"levelo://app?vid=094b268c-4cc2-43fc-862b-773d8ae92352"},"vehicle_type_id":"4","last_reported":1728104916,"current_range_meters":37600,"station_id":"ce4bgt92rcd13ifvqcg0","pricing_plan_id":"cebpf4jnsgd1na2vs0mg"},{"bike_id":"f5e93991-8630-4f47-9b21-ba3d107cb0ab","system_id":"levelo_inurba_marseille","lat":43.281091,"lon":5.378397,"is_reserved":false,"is_disabled":false,"rental_uris":{"android":"levelo://app?vid=f5e93991-8630-4f47-9b21-ba3d107cb0ab","ios":"levelo://app?vid=f5e93991-8630-4f47-9b21-ba3d107cb0ab"},"vehicle_type_id":"4","last_reported":1728104916,"current_range_meters":34000,"station_id":"ce4bha12rcd13ifvqee0","pricing_plan_id":"cebpf4jnsgd1na2vs0mg"},{"bike_id":"23916c89-585f-48bf-be27-3f0989556740","system_id":"levelo_inurba_marseille","lat":43.30154,"lon":5.38075,"is_reserved":false,"is_disabled":false,"rental_uris":{"android":"levelo://app?vid=23916c89-585f-48bf-be27-3f0989556740","ios":"levelo://app?vid=23916c89-585f-48bf-be27-3f0989556740"},"vehicle_type_id":"4","last_reported":1728104916,"current_range_meters":32400,"station_id":"ce4bgjp2rcd13ifvqbh0","pricing_plan_id":"cebpf4jnsgd1na2vs0mg"},{"bike_id":"279ce79a-85de-4a5c-9763-58c313d64593","system_id":"levelo_inurba_marseille","lat":43.28712,"lon":5.37944,"is_reserved":false,"is_disabled":false,"rental_uris":{"android":"levelo://app?vid=279ce79a-85de-4a5c-9763-58c313d64593","ios":"levelo://app?vid=279ce79a-85de-4a5c-9763-58c313d64593"},"vehicle_type_id":"4","last_reported":1728104916,"current_range_meters":24400,"station_id":"ce4bh9p2rcd13ifvqec0","pricing_plan_id":"cebpf4jnsgd1na2vs0mg"},{"bike_id":"be855d3f-aa37-4c69-9485-bcd30590fee9","system_id":"levelo_inurba_marseille","lat":43.310751,"lon":5.383495,"is_reserved":false,"is_disabled":false,"rental_uris":{"android":"levelo://app?vid=be855d3f-aa37-4c69-9485-bcd30590fee9","ios":"levelo://app?vid=be855d3f-aa37-4c69-9485-bcd30590fee9"},"vehicle_type_id":"4","last_reported":1728104916,"current_range_meters":38000,"station_id":"ce4bgv92rcd13ifvqcr0","pricing_plan_id":"cebpf4jnsgd1na2vs0mg"},{"bike_id":"98fe9666-1214-4d75-b1e8-91292b88bd3c","system_id":"levelo_inurba_marseille","lat":43.28855,"lon":5.35831,"is_reserved":false,"is_disabled":false,"rental_uris":{"android":"levelo://app?vid=98fe9666-1214-4d75-b1e8-91292b88bd3c","ios":"levelo://app?vid=98fe9666-1214-4d75-b1e8-91292b88bd3c"},"vehicle_type_id":"4","last_reported":1728104916,"current_range_meters":20800,"station_id":"ce4bhb12rcd13ifvqem0","pricing_plan_id":"cebpf4jnsgd1na2vs0mg"},{"bike_id":"058dfd6f-1596-4e58-be3e-e52faf3a5db8","system_id":"levelo_inurba_marseille","lat":43.27827,"lon":5.39203,"is_reserved":false,"is_disabled":false,"rental_uris":{"android":"levelo://app?vid=058dfd6f-1596-4e58-be3e-e52faf3a5db8","ios":"levelo://app?vid=058dfd6f-1596-4e58-be3e-e52faf3a5db8"},"vehicle_type_id":"4","last_reported":1728104916,"current_range_meters":36400,"station_id":"ce4bhjp2rcd13ifvqga0","pricing_plan_id":"cebpf4jnsgd1na2vs0mg"},{"bike_id":"26cd1949-4c97-42d3-9f76-c3bad83b2550","system_id":"levelo_inurba_marseille","lat":43.25717,"lon":5.41118,"is_reserved":false,"is_disabled":false,"rental_uris":{"android":"levelo://app?vid=26cd1949-4c97-42d3-9f76-c3bad83b2550","ios":"levelo://app?vid=26cd1949-4c97-42d3-9f76-c3bad83b2550"},"vehicle_type_id":"4","last_reported":1728104916,"current_range_meters":34000,"station_id":"ce4bhkp2rcd13ifvqgd0","pricing_plan_id":"cebpf4jnsgd1na2vs0mg"},{"bike_id":"764d6263-9186-4a2e-8569-f08474927f30","system_id":"levelo_inurba_marseille","lat":43.25118,"lon":5.40322,"is_reserved":false,"is_disabled":false,"rental_uris":{"android":"levelo://app?vid=764d6263-9186-4a2e-8569-f08474927f30","ios":"levelo://app?vid=764d6263-9186-4a2e-8569-f08474927f30"},"vehicle_type_id":"4","last_reported":1728104916,"current_range_meters":16400,"station_id":"ce4bhlh2rcd13ifvqgig","pricing_plan_id":"cebpf4jnsgd1na2vs0mg"},{"bike_id":"3cc4d07d-3eee-4b93-9fc0-d4f2d12e1e80","system_id":"levelo_inurba_marseille","lat":43.30326,"lon":5.40465,"is_reserved":false,"is_disabled":false,"rental_uris":{"android":"levelo://app?vid=3cc4d07d-3eee-4b93-9fc0-d4f2d12e1e80","ios":"levelo://app?vid=3cc4d07d-3eee-4b93-9fc0-d4f2d12e1e80"},"vehicle_type_id":"4","last_reported":1728104916,"current_range_meters":4800,"station_id":"ce4bh012rcd13ifvqd10","pricing_plan_id":"cebpf4jnsgd1na2vs0mg"},{"bike_id":"87ad9655-a1e8-4380-a321-e64facc3372a","system_id":"levelo_inurba_marseille","lat":43.28937,"lon":5.36637,"is_reserved":false,"is_disabled":false,"rental_uris":{"android":"levelo://app?vid=87ad9655-a1e8-4380-a321-e64facc3372a","ios":"levelo://app?vid=87ad9655-a1e8-4380-a321-e64facc3372a"},"vehicle_type_id":"4","last_reported":1728104916,"current_range_meters":38800,"station_id":"ce4bhap2rcd13ifvqek0","pricing_plan_id":"cebpf4jnsgd1na2vs0mg"},{"bike_id":"ad4e8f5a-894a-4c94-9f6d-c0d7dda88988","system_id":"levelo_inurba_marseille","lat":43.23967,"lon":5.36621,"is_reserved":false,"is_disabled":false,"rental_uris":{"android":"levelo://app?vid=ad4e8f5a-894a-4c94-9f6d-c0d7dda88988","ios":"levelo://app?vid=ad4e8f5a-894a-4c94-9f6d-c0d7dda88988"},"vehicle_type_id":"4","last_reported":1728104916,"current_range_meters":22000,"station_id":"ce4bhi12rcd13ifvqfp0","pricing_plan_id":"cebpf4jnsgd1na2vs0mg"},{"bike_id":"6f64a686-ad6f-4ce2-bcf4-09d2371d9624","system_id":"levelo_inurba_marseille","lat":43.24995,"lon":5.3893,"is_reserved":false,"is_disabled":false,"rental_uris":{"android":"levelo://app?vid=6f64a686-ad6f-4ce2-bcf4-09d2371d9624","ios":"levelo://app?vid=6f64a686-ad6f-4ce2-bcf4-09d2371d9624"},"vehicle_type_id":"4","last_reported":1728104916,"current_range_meters":6800,"station_id":"ce4bhgp2rcd13ifvqfd0","pricing_plan_id":"cebpf4jnsgd1na2vs0mg"},{"bike_id":"158d9d15-0b2f-47a2-a5c4-5236b836d26f","system_id":"levelo_inurba_marseille","lat":43.3064,"lon":5.40073,"is_reserved":false,"is_disabled":false,"rental_uris":{"android":"levelo://app?vid=158d9d15-0b2f-47a2-a5c4-5236b836d26f","ios":"levelo://app?vid=158d9d15-0b2f-47a2-a5c4-5236b836d26f"},"vehicle_type_id":"4","last_reported":1728104916,"current_range_meters":31200,"station_id":"ce4bh112rcd13ifvqda0","pricing_plan_id":"cebpf4jnsgd1na2vs0mg"},{"bike_id":"b15a883e-54e0-4352-b2a7-b044b5752d89","system_id":"levelo_inurba_marseille","lat":43.28462,"lon":5.35879,"is_reserved":false,"is_disabled":false,"rental_uris":{"android":"levelo://app?vid=b15a883e-54e0-4352-b2a7-b044b5752d89","ios":"levelo://app?vid=b15a883e-54e0-4352-b2a7-b044b5752d89"},"vehicle_type_id":"4","last_reported":1728104916,"current_range_meters":22800,"station_id":"ce4bhah2rcd13ifvqei0","pricing_plan_id":"cebpf4jnsgd1na2vs0mg"},{"bike_id":"f804678f-f648-4841-9a62-5e8ad493f990","system_id":"levelo_inurba_marseille","lat":43.30956,"lon":5.39037,"is_reserved":false,"is_disabled":false,"rental_uris":{"android":"levelo://app?vid=f804678f-f648-4841-9a62-5e8ad493f990","ios":"levelo://app?vid=f804678f-f648-4841-9a62-5e8ad493f990"},"vehicle_type_id":"4","last_reported":1728104916,"current_range_meters":37600,"station_id":"ce4bgup2rcd13ifvqco0","pricing_plan_id":"cebpf4jnsgd1na2vs0mg"},{"bike_id":"57d5d1f8-5acf-49ec-a460-f52cbdbdbef8","system_id":"levelo_inurba_marseille","lat":43.28419,"lon":5.34988,"is_reserved":false,"is_disabled":false,"rental_uris":{"android":"levelo://app?vid=57d5d1f8-5acf-49ec-a460-f52cbdbdbef8","ios":"levelo://app?vid=57d5d1f8-5acf-49ec-a460-f52cbdbdbef8"},"vehicle_type_id":"4","last_reported":1728104916,"current_range_meters":38400,"station_id":"ce4bhbh2rcd13ifvqepg","pricing_plan_id":"cebpf4jnsgd1na2vs0mg"},{"bike_id":"b539cef5-a0ee-4eb9-af10-1c3a300ff81c","system_id":"levelo_inurba_marseille","lat":43.32109,"lon":5.36775,"is_reserved":false,"is_disabled":false,"rental_uris":{"android":"levelo://app?vid=b539cef5-a0ee-4eb9-af10-1c3a300ff81c","ios":"levelo://app?vid=b539cef5-a0ee-4eb9-af10-1c3a300ff81c"},"vehicle_type_id":"4","last_reported":1728104916,"current_range_meters":35200,"station_id":"ce4bhrh2rcd13ifvqhug","pricing_plan_id":"cebpf4jnsgd1na2vs0mg"},{"bike_id":"095c8e4a-aa8e-42c3-8041-ee0b2f20cf9c","system_id":"levelo_inurba_marseille","lat":43.30473,"lon":5.37902,"is_reserved":false,"is_disabled":false,"rental_uris":{"android":"levelo://app?vid=095c8e4a-aa8e-42c3-8041-ee0b2f20cf9c","ios":"levelo://app?vid=095c8e4a-aa8e-42c3-8041-ee0b2f20cf9c"},"vehicle_type_id":"4","last_reported":1728104916,"current_range_meters":34800,"station_id":"ce4bgup2rcd13ifvqcn0","pricing_plan_id":"cebpf4jnsgd1na2vs0mg"},{"bike_id":"e4799af4-41eb-4d01-aef5-61968171aedc","system_id":"levelo_inurba_marseille","lat":43.28619,"lon":5.3511,"is_reserved":false,"is_disabled":false,"rental_uris":{"android":"levelo://app?vid=e4799af4-41eb-4d01-aef5-61968171aedc","ios":"levelo://app?vid=e4799af4-41eb-4d01-aef5-61968171aedc"},"vehicle_type_id":"4","last_reported":1728104916,"current_range_meters":38800,"station_id":"ce4bhch2rcd13ifvqeug","pricing_plan_id":"cebpf4jnsgd1na2vs0mg"},{"bike_id":"500956c9-eeb0-4c1a-8001-8490f6e76b14","system_id":"levelo_inurba_marseille","lat":43.23193,"lon":5.39983,"is_reserved":false,"is_disabled":false,"rental_uris":{"android":"levelo://app?vid=500956c9-eeb0-4c1a-8001-8490f6e76b14","ios":"levelo://app?vid=500956c9-eeb0-4c1a-8001-8490f6e76b14"},"vehicle_type_id":"4","last_reported":1728104916,"current_range_meters":16800,"station_id":"ce4bhn12rcd13ifvqgqg","pricing_plan_id":"cebpf4jnsgd1na2vs0mg"},{"bike_id":"a57357ff-3195-4b18-9583-de0233767d8a","system_id":"levelo_inurba_marseille","lat":43.306632,"lon":5.400864,"is_reserved":false,"is_disabled":false,"rental_uris":{"android":"levelo://app?vid=a57357ff-3195-4b18-9583-de0233767d8a","ios":"levelo://app?vid=a57357ff-3195-4b18-9583-de0233767d8a"},"vehicle_type_id":"4","last_reported":1728104916,"current_range_meters":29600,"station_id":"ce4bh112rcd13ifvqda0","pricing_plan_id":"cebpf4jnsgd1na2vs0mg"},{"bike_id":"64fe1c28-1b18-4fb7-a8d7-4f580675c153","system_id":"levelo_inurba_marseille","lat":43.28274,"lon":5.35068,"is_reserved":false,"is_disabled":false,"rental_uris":{"android":"levelo://app?vid=64fe1c28-1b18-4fb7-a8d7-4f580675c153","ios":"levelo://app?vid=64fe1c28-1b18-4fb7-a8d7-4f580675c153"},"vehicle_type_id":"4","last_reported":1728104916,"current_range_meters":38800,"station_id":"ce4bhbp2rcd13ifvqerg","pricing_plan_id":"cebpf4jnsgd1na2vs0mg"},{"bike_id":"206bf6bf-09ad-4763-85da-6f36c3ad29a0","system_id":"levelo_inurba_marseille","lat":43.2799,"lon":5.41661,"is_reserved":false,"is_disabled":false,"rental_uris":{"android":"levelo://app?vid=206bf6bf-09ad-4763-85da-6f36c3ad29a0","ios":"levelo://app?vid=206bf6bf-09ad-4763-85da-6f36c3ad29a0"},"vehicle_type_id":"4","last_reported":1728104916,"current_range_meters":23200,"station_id":"ce4bho12rcd13ifvqh1g","pricing_plan_id":"cebpf4jnsgd1na2vs0mg"},{"bike_id":"fa212c66-cc14-4341-83b1-fb8f18c70320","system_id":"levelo_inurba_marseille","lat":43.28706,"lon":5.39987,"is_reserved":false,"is_disabled":false,"rental_uris":{"android":"levelo://app?vid=fa212c66-cc14-4341-83b1-fb8f18c70320","ios":"levelo://app?vid=fa212c66-cc14-4341-83b1-fb8f18c70320"},"vehicle_type_id":"4","last_reported":1728104916,"current_range_meters":27200,"station_id":"ce4bho92rcd13ifvqh3g","pricing_plan_id":"cebpf4jnsgd1na2vs0mg"},{"bike_id":"cebe3c67-d41a-43e6-a853-969ec8b7b5da","system_id":"levelo_inurba_marseille","lat":43.28103,"lon":5.37839,"is_reserved":false,"is_disabled":false,"rental_uris":{"android":"levelo://app?vid=cebe3c67-d41a-43e6-a853-969ec8b7b5da","ios":"levelo://app?vid=cebe3c67-d41a-43e6-a853-969ec8b7b5da"},"vehicle_type_id":"4","last_reported":1728104916,"current_range_meters":34800,"station_id":"ce4bha12rcd13ifvqee0","pricing_plan_id":"cebpf4jnsgd1na2vs0mg"},{"bike_id":"bb5f5452-4b9b-417d-b148-b396a874f3d9","system_id":"levelo_inurba_marseille","lat":43.33769,"lon":5.37445,"is_reserved":false,"is_disabled":false,"rental_uris":{"android":"levelo://app?vid=bb5f5452-4b9b-417d-b148-b396a874f3d9","ios":"levelo://app?vid=bb5f5452-4b9b-417d-b148-b396a874f3d9"},"vehicle_type_id":"4","last_reported":1728104916,"current_range_meters":33200,"station_id":"","pricing_plan_id":"cebpf4jnsgd1na2vs0mg"},{"bike_id":"fad1351d-a7e1-48f8-84a0-8265b61372ad","system_id":"levelo_inurba_marseille","lat":43.31279,"lon":5.40165,"is_reserved":false,"is_disabled":false,"rental_uris":{"android":"levelo://app?vid=fad1351d-a7e1-48f8-84a0-8265b61372ad","ios":"levelo://app?vid=fad1351d-a7e1-48f8-84a0-8265b61372ad"},"vehicle_type_id":"4","last_reported":1728104916,"current_range_meters":32400,"station_id":"ce4bh092rcd13ifvqd30","pricing_plan_id":"cebpf4jnsgd1na2vs0mg"},{"bike_id":"82d2602c-a9f5-451e-8f2e-69c892008fa9","system_id":"levelo_inurba_marseille","lat":43.28944,"lon":5.36398,"is_reserved":false,"is_disabled":false,"rental_uris":{"android":"levelo://app?vid=82d2602c-a9f5-451e-8f2e-69c892008fa9","ios":"levelo://app?vid=82d2602c-a9f5-451e-8f2e-69c892008fa9"},"vehicle_type_id":"4","last_reported":1728104916,"current_range_meters":33600,"station_id":"ce4bhc92rcd13ifvqetg","pricing_plan_id":"cebpf4jnsgd1na2vs0mg"},{"bike_id":"745ed244-76cd-4c23-a987-6d60e3a4cb1b","system_id":"levelo_inurba_marseille","lat":43.29201,"lon":5.35796,"is_reserved":false,"is_disabled":false,"rental_uris":{"android":"levelo://app?vid=745ed244-76cd-4c23-a987-6d60e3a4cb1b","ios":"levelo://app?vid=745ed244-76cd-4c23-a987-6d60e3a4cb1b"},"vehicle_type_id":"4","last_reported":1728104916,"current_range_meters":38800,"station_id":"ce4bhb12rcd13ifvqel0","pricing_plan_id":"cebpf4jnsgd1na2vs0mg"},{"bike_id":"7ef1913c-d48c-4678-ae8a-9c4b35adec43","system_id":"levelo_inurba_marseille","lat":43.29352,"lon":5.37839,"is_reserved":false,"is_disabled":false,"rental_uris":{"android":"levelo://app?vid=7ef1913c-d48c-4678-ae8a-9c4b35adec43","ios":"levelo://app?vid=7ef1913c-d48c-4678-ae8a-9c4b35adec43"},"vehicle_type_id":"4","last_reported":1728104916,"current_range_meters":38800,"station_id":"ce4bgjh2rcd13ifvqbf0","pricing_plan_id":"cebpf4jnsgd1na2vs0mg"},{"bike_id":"f8c47091-254d-4304-a44e-f815dcfbd90e","system_id":"levelo_inurba_marseille","lat":43.29726,"lon":5.37686,"is_reserved":false,"is_disabled":false,"rental_uris":{"android":"levelo://app?vid=f8c47091-254d-4304-a44e-f815dcfbd90e","ios":"levelo://app?vid=f8c47091-254d-4304-a44e-f815dcfbd90e"},"vehicle_type_id":"4","last_reported":1728104916,"current_range_meters":12800,"station_id":"ce4bgkh2rcd13ifvqbl0","pricing_plan_id":"cebpf4jnsgd1na2vs0mg"},{"bike_id":"d7a0298f-5c2b-438d-ab05-5d6a7ac83160","system_id":"levelo_inurba_marseille","lat":43.30799,"lon":5.43521,"is_reserved":false,"is_disabled":false,"rental_uris":{"android":"levelo://app?vid=d7a0298f-5c2b-438d-ab05-5d6a7ac83160","ios":"levelo://app?vid=d7a0298f-5c2b-438d-ab05-5d6a7ac83160"},"vehicle_type_id":"4","last_reported":1728104916,"current_range_meters":37600,"station_id":"ce4bhph2rcd13ifvqheg","pricing_plan_id":"cebpf4jnsgd1na2vs0mg"},{"bike_id":"621d9c86-2034-44eb-ab16-1d18fab24db9","system_id":"levelo_inurba_marseille","lat":43.317,"lon":5.3776,"is_reserved":false,"is_disabled":false,"rental_uris":{"android":"levelo://app?vid=621d9c86-2034-44eb-ab16-1d18fab24db9","ios":"levelo://app?vid=621d9c86-2034-44eb-ab16-1d18fab24db9"},"vehicle_type_id":"4","last_reported":1728104916,"current_range_meters":40000,"station_id":"ce4bgth2rcd13ifvqch0","pricing_plan_id":"cebpf4jnsgd1na2vs0mg"},{"bike_id":"b8fcc49f-9739-4ac8-ab70-8e7941e0b2e7","system_id":"levelo_inurba_marseille","lat":43.31372,"lon":5.38493,"is_reserved":false,"is_disabled":false,"rental_uris":{"android":"levelo://app?vid=b8fcc49f-9739-4ac8-ab70-8e7941e0b2e7","ios":"levelo://app?vid=b8fcc49f-9739-4ac8-ab70-8e7941e0b2e7"},"vehicle_type_id":"4","last_reported":1728104916,"current_range_meters":38800,"station_id":"ce4bgt92rcd13ifvqcf0","pricing_plan_id":"cebpf4jnsgd1na2vs0mg"},{"bike_id":"7d4fe767-26d6-4782-a2ac-43d6d2ff8d94","system_id":"levelo_inurba_marseille","lat":43.30643,"lon":5.40073,"is_reserved":false,"is_disabled":false,"rental_uris":{"android":"levelo://app?vid=7d4fe767-26d6-4782-a2ac-43d6d2ff8d94","ios":"levelo://app?vid=7d4fe767-26d6-4782-a2ac-43d6d2ff8d94"},"vehicle_type_id":"4","last_reported":1728104916,"current_range_meters":28000,"station_id":"ce4bh112rcd13ifvqda0","pricing_plan_id":"cebpf4jnsgd1na2vs0mg"},{"bike_id":"0fdd9299-5f89-496d-8295-68d4a8435aaf","system_id":"levelo_inurba_marseille","lat":43.29621,"lon":5.37169,"is_reserved":false,"is_disabled":false,"rental_uris":{"android":"levelo://app?vid=0fdd9299-5f89-496d-8295-68d4a8435aaf","ios":"levelo://app?vid=0fdd9299-5f89-496d-8295-68d4a8435aaf"},"vehicle_type_id":"4","last_reported":1728104916,"current_range_meters":38000,"station_id":"ce4bgnh2rcd13ifvqc0g","pricing_plan_id":"cebpf4jnsgd1na2vs0mg"},{"bike_id":"d3d7a7fc-28da-4268-9109-ef9b8e7c61f6","system_id":"levelo_inurba_marseille","lat":43.30886,"lon":5.39622,"is_reserved":false,"is_disabled":false,"rental_uris":{"android":"levelo://app?vid=d3d7a7fc-28da-4268-9109-ef9b8e7c61f6","ios":"levelo://app?vid=d3d7a7fc-28da-4268-9109-ef9b8e7c61f6"},"vehicle_type_id":"4","last_reported":1728104916,"current_range_meters":24800,"station_id":"ce4bh012rcd13ifvqcv0","pricing_plan_id":"cebpf4jnsgd1na2vs0mg"},{"bike_id":"b0dc2897-cb6b-44e2-947a-9e1de3e6a940","system_id":"levelo_inurba_marseille","lat":43.28153,"lon":5.42642,"is_reserved":false,"is_disabled":false,"rental_uris":{"android":"levelo://app?vid=b0dc2897-cb6b-44e2-947a-9e1de3e6a940","ios":"levelo://app?vid=b0dc2897-cb6b-44e2-947a-9e1de3e6a940"},"vehicle_type_id":"4","last_reported":1728104916,"current_range_meters":6400,"station_id":"ce4bhnh2rcd13ifvqgug","pricing_plan_id":"cebpf4jnsgd1na2vs0mg"},{"bike_id":"69d22968-5985-4dc4-b82a-a054e66a9462","system_id":"levelo_inurba_marseille","lat":43.3361,"lon":5.4103,"is_reserved":false,"is_disabled":false,"rental_uris":{"android":"levelo://app?vid=69d22968-5985-4dc4-b82a-a054e66a9462","ios":"levelo://app?vid=69d22968-5985-4dc4-b82a-a054e66a9462"},"vehicle_type_id":"4","last_reported":1728104916,"current_range_meters":31200,"station_id":"ce4bhqh2rcd13ifvqhmg","pricing_plan_id":"cebpf4jnsgd1na2vs0mg"},{"bike_id":"43fc5487-6973-4fc7-a12f-6a97ffe8a3ce","system_id":"levelo_inurba_marseille","lat":43.25109,"lon":5.40328,"is_reserved":false,"is_disabled":false,"rental_uris":{"android":"levelo://app?vid=43fc5487-6973-4fc7-a12f-6a97ffe8a3ce","ios":"levelo://app?vid=43fc5487-6973-4fc7-a12f-6a97ffe8a3ce"},"vehicle_type_id":"4","last_reported":1728104916,"current_range_meters":38000,"station_id":"ce4bhlh2rcd13ifvqgig","pricing_plan_id":"cebpf4jnsgd1na2vs0mg"},{"bike_id":"2eaa0040-6ce1-4a14-a1ce-ca4c4f1a6624","system_id":"levelo_inurba_marseille","lat":43.2905,"lon":5.35898,"is_reserved":false,"is_disabled":false,"rental_uris":{"android":"levelo://app?vid=2eaa0040-6ce1-4a14-a1ce-ca4c4f1a6624","ios":"levelo://app?vid=2eaa0040-6ce1-4a14-a1ce-ca4c4f1a6624"},"vehicle_type_id":"4","last_reported":1728104916,"current_range_meters":39200,"station_id":"ce4bha92rcd13ifvqeg0","pricing_plan_id":"cebpf4jnsgd1na2vs0mg"},{"bike_id":"219df1b6-9d69-46f8-bdd5-caa50ce674cf","system_id":"levelo_inurba_marseille","lat":43.255493,"lon":5.37674,"is_reserved":false,"is_disabled":false,"rental_uris":{"android":"levelo://app?vid=219df1b6-9d69-46f8-bdd5-caa50ce674cf","ios":"levelo://app?vid=219df1b6-9d69-46f8-bdd5-caa50ce674cf"},"vehicle_type_id":"4","last_reported":1728104916,"current_range_meters":11200,"station_id":"","pricing_plan_id":"cebpf4jnsgd1na2vs0mg"},{"bike_id":"034e404b-7118-4ae3-866b-ddb41e09353f","system_id":"levelo_inurba_marseille","lat":43.28106,"lon":5.37839,"is_reserved":false,"is_disabled":false,"rental_uris":{"android":"levelo://app?vid=034e404b-7118-4ae3-866b-ddb41e09353f","ios":"levelo://app?vid=034e404b-7118-4ae3-866b-ddb41e09353f"},"vehicle_type_id":"4","last_reported":1728104916,"current_range_meters":26800,"station_id":"ce4bha12rcd13ifvqee0","pricing_plan_id":"cebpf4jnsgd1na2vs0mg"},{"bike_id":"65c1adf4-65bf-448d-a958-6397fad14bfa","system_id":"levelo_inurba_marseille","lat":43.28463,"lon":5.35886,"is_reserved":false,"is_disabled":false,"rental_uris":{"android":"levelo://app?vid=65c1adf4-65bf-448d-a958-6397fad14bfa","ios":"levelo://app?vid=65c1adf4-65bf-448d-a958-6397fad14bfa"},"vehicle_type_id":"4","last_reported":1728104916,"current_range_meters":36400,"station_id":"ce4bhah2rcd13ifvqei0","pricing_plan_id":"cebpf4jnsgd1na2vs0mg"},{"bike_id":"0841ff58-458b-4eec-8c10-241f816bdcc6","system_id":"levelo_inurba_marseille","lat":43.29974,"lon":5.38504,"is_reserved":false,"is_disabled":false,"rental_uris":{"android":"levelo://app?vid=0841ff58-458b-4eec-8c10-241f816bdcc6","ios":"levelo://app?vid=0841ff58-458b-4eec-8c10-241f816bdcc6"},"vehicle_type_id":"4","last_reported":1728104916,"current_range_meters":38000,"station_id":"ce4bgj92rcd13ifvqbd0","pricing_plan_id":"cebpf4jnsgd1na2vs0mg"},{"bike_id":"6a4b0bea-a36c-4e34-8edb-b3ea3c6da77f","system_id":"levelo_inurba_marseille","lat":43.2512,"lon":5.4032,"is_reserved":false,"is_disabled":false,"rental_uris":{"android":"levelo://app?vid=6a4b0bea-a36c-4e34-8edb-b3ea3c6da77f","ios":"levelo://app?vid=6a4b0bea-a36c-4e34-8edb-b3ea3c6da77f"},"vehicle_type_id":"4","last_reported":1728104916,"current_range_meters":24400,"station_id":"ce4bhlh2rcd13ifvqgig","pricing_plan_id":"cebpf4jnsgd1na2vs0mg"},{"bike_id":"83978652-caa8-4289-8441-4d850d7dd8ce","system_id":"levelo_inurba_marseille","lat":43.287006,"lon":5.37393,"is_reserved":false,"is_disabled":false,"rental_uris":{"android":"levelo://app?vid=83978652-caa8-4289-8441-4d850d7dd8ce","ios":"levelo://app?vid=83978652-caa8-4289-8441-4d850d7dd8ce"},"vehicle_type_id":"4","last_reported":1728104916,"current_range_meters":38000,"station_id":"ce4bh3p2rcd13ifvqdq0","pricing_plan_id":"cebpf4jnsgd1na2vs0mg"},{"bike_id":"57d7b7bf-9a1e-4c35-8388-96cc980f8410","system_id":"levelo_inurba_marseille","lat":43.22932,"lon":5.3538,"is_reserved":false,"is_disabled":false,"rental_uris":{"android":"levelo://app?vid=57d7b7bf-9a1e-4c35-8388-96cc980f8410","ios":"levelo://app?vid=57d7b7bf-9a1e-4c35-8388-96cc980f8410"},"vehicle_type_id":"4","last_reported":1728104916,"current_range_meters":16400,"station_id":"cpo3532slgdg3j2ikp40","pricing_plan_id":"cebpf4jnsgd1na2vs0mg"},{"bike_id":"4126ad05-15d5-4612-9353-81d1ad727b28","system_id":"levelo_inurba_marseille","lat":43.29406,"lon":5.39734,"is_reserved":false,"is_disabled":false,"rental_uris":{"android":"levelo://app?vid=4126ad05-15d5-4612-9353-81d1ad727b28","ios":"levelo://app?vid=4126ad05-15d5-4612-9353-81d1ad727b28"},"vehicle_type_id":"4","last_reported":1728104916,"current_range_meters":36800,"station_id":"ce4bh3h2rcd13ifvqdo0","pricing_plan_id":"cebpf4jnsgd1na2vs0mg"},{"bike_id":"82f49e4e-fcac-4087-aece-6f5af1299050","system_id":"levelo_inurba_marseille","lat":43.284184,"lon":5.349924,"is_reserved":false,"is_disabled":false,"rental_uris":{"android":"levelo://app?vid=82f49e4e-fcac-4087-aece-6f5af1299050","ios":"levelo://app?vid=82f49e4e-fcac-4087-aece-6f5af1299050"},"vehicle_type_id":"4","last_reported":1728104916,"current_range_meters":35200,"station_id":"ce4bhbh2rcd13ifvqepg","pricing_plan_id":"cebpf4jnsgd1na2vs0mg"},{"bike_id":"5fc984db-b780-48e8-a536-6bea4a98decd","system_id":"levelo_inurba_marseille","lat":43.299299,"lon":5.365425,"is_reserved":false,"is_disabled":false,"rental_uris":{"android":"levelo://app?vid=5fc984db-b780-48e8-a536-6bea4a98decd","ios":"levelo://app?vid=5fc984db-b780-48e8-a536-6bea4a98decd"},"vehicle_type_id":"4","last_reported":1728104916,"current_range_meters":34000,"station_id":"ce4bgm92rcd13ifvqbr0","pricing_plan_id":"cebpf4jnsgd1na2vs0mg"},{"bike_id":"6a90d349-25da-4e78-bc34-c6d79a8f8108","system_id":"levelo_inurba_marseille","lat":43.28415,"lon":5.37513,"is_reserved":false,"is_disabled":false,"rental_uris":{"android":"levelo://app?vid=6a90d349-25da-4e78-bc34-c6d79a8f8108","ios":"levelo://app?vid=6a90d349-25da-4e78-bc34-c6d79a8f8108"},"vehicle_type_id":"4","last_reported":1728104916,"current_range_meters":36800,"station_id":"ce4bh412rcd13ifvqds0","pricing_plan_id":"cebpf4jnsgd1na2vs0mg"},{"bike_id":"f7a2b6fe-c127-4082-8da3-f4ba6d46554b","system_id":"levelo_inurba_marseille","lat":43.26805,"lon":5.40265,"is_reserved":false,"is_disabled":false,"rental_uris":{"android":"levelo://app?vid=f7a2b6fe-c127-4082-8da3-f4ba6d46554b","ios":"levelo://app?vid=f7a2b6fe-c127-4082-8da3-f4ba6d46554b"},"vehicle_type_id":"4","last_reported":1728104916,"current_range_meters":19200,"station_id":"ce501612rcd8frsf0b60","pricing_plan_id":"cebpf4jnsgd1na2vs0mg"},{"bike_id":"e9fbfdc1-4b72-407f-8534-de81b6153f9f","system_id":"levelo_inurba_marseille","lat":43.25119,"lon":5.40319,"is_reserved":false,"is_disabled":false,"rental_uris":{"android":"levelo://app?vid=e9fbfdc1-4b72-407f-8534-de81b6153f9f","ios":"levelo://app?vid=e9fbfdc1-4b72-407f-8534-de81b6153f9f"},"vehicle_type_id":"4","last_reported":1728104916,"current_range_meters":27200,"station_id":"ce4bhlh2rcd13ifvqgig","pricing_plan_id":"cebpf4jnsgd1na2vs0mg"},{"bike_id":"ea0f2492-2138-468f-bd77-ebaca7a464f3","system_id":"levelo_inurba_marseille","lat":43.28426,"lon":5.3498,"is_reserved":false,"is_disabled":false,"rental_uris":{"android":"levelo://app?vid=ea0f2492-2138-468f-bd77-ebaca7a464f3","ios":"levelo://app?vid=ea0f2492-2138-468f-bd77-ebaca7a464f3"},"vehicle_type_id":"4","last_reported":1728104916,"current_range_meters":38800,"station_id":"ce4bhbh2rcd13ifvqepg","pricing_plan_id":"cebpf4jnsgd1na2vs0mg"},{"bike_id":"77c59eab-5250-44c4-be86-099c0defe9c4","system_id":"levelo_inurba_marseille","lat":43.33756,"lon":5.37457,"is_reserved":false,"is_disabled":false,"rental_uris":{"android":"levelo://app?vid=77c59eab-5250-44c4-be86-099c0defe9c4","ios":"levelo://app?vid=77c59eab-5250-44c4-be86-099c0defe9c4"},"vehicle_type_id":"4","last_reported":1728104916,"current_range_meters":26800,"station_id":"","pricing_plan_id":"cebpf4jnsgd1na2vs0mg"},{"bike_id":"449d415f-05ac-4b50-969e-a471643013e9","system_id":"levelo_inurba_marseille","lat":43.31359,"lon":5.3849,"is_reserved":false,"is_disabled":false,"rental_uris":{"android":"levelo://app?vid=449d415f-05ac-4b50-969e-a471643013e9","ios":"levelo://app?vid=449d415f-05ac-4b50-969e-a471643013e9"},"vehicle_type_id":"4","last_reported":1728104916,"current_range_meters":36800,"station_id":"ce4bgt92rcd13ifvqcf0","pricing_plan_id":"cebpf4jnsgd1na2vs0mg"},{"bike_id":"a3200287-bfcf-4e8e-9323-c29b70c2baf7","system_id":"levelo_inurba_marseille","lat":43.25083,"lon":5.39511,"is_reserved":false,"is_disabled":false,"rental_uris":{"android":"levelo://app?vid=a3200287-bfcf-4e8e-9323-c29b70c2baf7","ios":"levelo://app?vid=a3200287-bfcf-4e8e-9323-c29b70c2baf7"},"vehicle_type_id":"4","last_reported":1728104916,"current_range_meters":14000,"station_id":"ce4bhm12rcd13ifvqgkg","pricing_plan_id":"cebpf4jnsgd1na2vs0mg"},{"bike_id":"bb915d33-cf6f-4eb4-af8e-51267873ce7e","system_id":"levelo_inurba_marseille","lat":43.30811,"lon":5.38144,"is_reserved":false,"is_disabled":false,"rental_uris":{"android":"levelo://app?vid=bb915d33-cf6f-4eb4-af8e-51267873ce7e","ios":"levelo://app?vid=bb915d33-cf6f-4eb4-af8e-51267873ce7e"},"vehicle_type_id":"4","last_reported":1728104916,"current_range_meters":35600,"station_id":"ce4bgt12rcd13ifvqce0","pricing_plan_id":"cebpf4jnsgd1na2vs0mg"},{"bike_id":"655c7a70-a9e9-4bdb-90df-3dd326718d46","system_id":"levelo_inurba_marseille","lat":43.24664,"lon":5.38161,"is_reserved":false,"is_disabled":false,"rental_uris":{"android":"levelo://app?vid=655c7a70-a9e9-4bdb-90df-3dd326718d46","ios":"levelo://app?vid=655c7a70-a9e9-4bdb-90df-3dd326718d46"},"vehicle_type_id":"4","last_reported":1728104916,"current_range_meters":22800,"station_id":"ce4bhih2rcd13ifvqfr0","pricing_plan_id":"cebpf4jnsgd1na2vs0mg"},{"bike_id":"6e4404fe-9f2c-4094-b7ac-6438d3421190","system_id":"levelo_inurba_marseille","lat":43.25825,"lon":5.39434,"is_reserved":false,"is_disabled":false,"rental_uris":{"android":"levelo://app?vid=6e4404fe-9f2c-4094-b7ac-6438d3421190","ios":"levelo://app?vid=6e4404fe-9f2c-4094-b7ac-6438d3421190"},"vehicle_type_id":"4","last_reported":1728104916,"current_range_meters":39200,"station_id":"ce4bhip2rcd13ifvqft0","pricing_plan_id":"cebpf4jnsgd1na2vs0mg"},{"bike_id":"84b07b81-8a90-4e9c-96ec-461a75726f5b","system_id":"levelo_inurba_marseille","lat":43.32011,"lon":5.38167,"is_reserved":false,"is_disabled":false,"rental_uris":{"android":"levelo://app?vid=84b07b81-8a90-4e9c-96ec-461a75726f5b","ios":"levelo://app?vid=84b07b81-8a90-4e9c-96ec-461a75726f5b"},"vehicle_type_id":"4","last_reported":1728104916,"current_range_meters":8000,"station_id":"ce4bhr12rcd13ifvqhpg","pricing_plan_id":"cebpf4jnsgd1na2vs0mg"},{"bike_id":"d3831008-2e40-49ed-9feb-19f1d9f96d9c","system_id":"levelo_inurba_marseille","lat":43.3118,"lon":5.3871,"is_reserved":false,"is_disabled":false,"rental_uris":{"android":"levelo://app?vid=d3831008-2e40-49ed-9feb-19f1d9f96d9c","ios":"levelo://app?vid=d3831008-2e40-49ed-9feb-19f1d9f96d9c"},"vehicle_type_id":"4","last_reported":1728104916,"current_range_meters":19200,"station_id":"ce4bgv12rcd13ifvqcp0","pricing_plan_id":"cebpf4jnsgd1na2vs0mg"},{"bike_id":"adabf0b5-63fc-4095-abd4-50e77fc7ae6c","system_id":"levelo_inurba_marseille","lat":43.308,"lon":5.38144,"is_reserved":false,"is_disabled":false,"rental_uris":{"android":"levelo://app?vid=adabf0b5-63fc-4095-abd4-50e77fc7ae6c","ios":"levelo://app?vid=adabf0b5-63fc-4095-abd4-50e77fc7ae6c"},"vehicle_type_id":"4","last_reported":1728104916,"current_range_meters":38800,"station_id":"ce4bgt12rcd13ifvqce0","pricing_plan_id":"cebpf4jnsgd1na2vs0mg"},{"bike_id":"568eb040-baa3-45bd-ba3c-6dde9a47bd8b","system_id":"levelo_inurba_marseille","lat":43.30429,"lon":5.39751,"is_reserved":false,"is_disabled":false,"rental_uris":{"android":"levelo://app?vid=568eb040-baa3-45bd-ba3c-6dde9a47bd8b","ios":"levelo://app?vid=568eb040-baa3-45bd-ba3c-6dde9a47bd8b"},"vehicle_type_id":"4","last_reported":1728104916,"current_range_meters":38000,"station_id":"ce4bh092rcd13ifvqd20","pricing_plan_id":"cebpf4jnsgd1na2vs0mg"},{"bike_id":"32ceac28-dacd-4d4c-9c55-d75f7e6d1aa1","system_id":"levelo_inurba_marseille","lat":43.30806,"lon":5.43517,"is_reserved":false,"is_disabled":false,"rental_uris":{"android":"levelo://app?vid=32ceac28-dacd-4d4c-9c55-d75f7e6d1aa1","ios":"levelo://app?vid=32ceac28-dacd-4d4c-9c55-d75f7e6d1aa1"},"vehicle_type_id":"4","last_reported":1728104916,"current_range_meters":10800,"station_id":"ce4bhph2rcd13ifvqheg","pricing_plan_id":"cebpf4jnsgd1na2vs0mg"},{"bike_id":"616eabbd-a502-44cc-a18d-8feaa7f30ea9","system_id":"levelo_inurba_marseille","lat":43.2998,"lon":5.37178,"is_reserved":false,"is_disabled":false,"rental_uris":{"android":"levelo://app?vid=616eabbd-a502-44cc-a18d-8feaa7f30ea9","ios":"levelo://app?vid=616eabbd-a502-44cc-a18d-8feaa7f30ea9"},"vehicle_type_id":"4","last_reported":1728104916,"current_range_meters":32800,"station_id":"ce4bgr92rcd13ifvqc7g","pricing_plan_id":"cebpf4jnsgd1na2vs0mg"},{"bike_id":"87202d50-56a4-4166-9a81-4169883a8a13","system_id":"levelo_inurba_marseille","lat":43.306494,"lon":5.40079,"is_reserved":false,"is_disabled":false,"rental_uris":{"android":"levelo://app?vid=87202d50-56a4-4166-9a81-4169883a8a13","ios":"levelo://app?vid=87202d50-56a4-4166-9a81-4169883a8a13"},"vehicle_type_id":"4","last_reported":1728104916,"current_range_meters":32400,"station_id":"ce4bh112rcd13ifvqda0","pricing_plan_id":"cebpf4jnsgd1na2vs0mg"},{"bike_id":"f00942e1-532d-49fd-ad01-de6eea2e91e3","system_id":"levelo_inurba_marseille","lat":43.288441,"lon":5.358509,"is_reserved":false,"is_disabled":false,"rental_uris":{"android":"levelo://app?vid=f00942e1-532d-49fd-ad01-de6eea2e91e3","ios":"levelo://app?vid=f00942e1-532d-49fd-ad01-de6eea2e91e3"},"vehicle_type_id":"4","last_reported":1728104916,"current_range_meters":25600,"station_id":"ce4bhb12rcd13ifvqem0","pricing_plan_id":"cebpf4jnsgd1na2vs0mg"},{"bike_id":"3e0ada6c-630f-49c5-bd04-c47d3b9da6d5","system_id":"levelo_inurba_marseille","lat":43.27068,"lon":5.4228,"is_reserved":false,"is_disabled":false,"rental_uris":{"android":"levelo://app?vid=3e0ada6c-630f-49c5-bd04-c47d3b9da6d5","ios":"levelo://app?vid=3e0ada6c-630f-49c5-bd04-c47d3b9da6d5"},"vehicle_type_id":"4","last_reported":1728104916,"current_range_meters":35600,"station_id":"ce4bhk92rcd13ifvqgb0","pricing_plan_id":"cebpf4jnsgd1na2vs0mg"},{"bike_id":"99198af3-abe6-4f8c-82f0-757453242f24","system_id":"levelo_inurba_marseille","lat":43.30323,"lon":5.40441,"is_reserved":false,"is_disabled":false,"rental_uris":{"android":"levelo://app?vid=99198af3-abe6-4f8c-82f0-757453242f24","ios":"levelo://app?vid=99198af3-abe6-4f8c-82f0-757453242f24"},"vehicle_type_id":"4","last_reported":1728104916,"current_range_meters":6400,"station_id":"ce4bh012rcd13ifvqd10","pricing_plan_id":"cebpf4jnsgd1na2vs0mg"},{"bike_id":"b417a8d0-1fac-4a2b-9294-35cea48e57c1","system_id":"levelo_inurba_marseille","lat":43.33024,"lon":5.39044,"is_reserved":false,"is_disabled":false,"rental_uris":{"android":"levelo://app?vid=b417a8d0-1fac-4a2b-9294-35cea48e57c1","ios":"levelo://app?vid=b417a8d0-1fac-4a2b-9294-35cea48e57c1"},"vehicle_type_id":"4","last_reported":1728104916,"current_range_meters":28400,"station_id":"ce4bhr92rcd13ifvqhrg","pricing_plan_id":"cebpf4jnsgd1na2vs0mg"},{"bike_id":"51f2ebfd-690c-4263-a9c2-979b58fc077d","system_id":"levelo_inurba_marseille","lat":43.29551,"lon":5.42284,"is_reserved":false,"is_disabled":false,"rental_uris":{"android":"levelo://app?vid=51f2ebfd-690c-4263-a9c2-979b58fc077d","ios":"levelo://app?vid=51f2ebfd-690c-4263-a9c2-979b58fc077d"},"vehicle_type_id":"4","last_reported":1728104916,"current_range_meters":39200,"station_id":"ce4bhph2rcd13ifvqhdg","pricing_plan_id":"cebpf4jnsgd1na2vs0mg"},{"bike_id":"c715f5a3-f21d-48b4-9052-e8740cc7b828","system_id":"levelo_inurba_marseille","lat":43.27995,"lon":5.41656,"is_reserved":false,"is_disabled":false,"rental_uris":{"android":"levelo://app?vid=c715f5a3-f21d-48b4-9052-e8740cc7b828","ios":"levelo://app?vid=c715f5a3-f21d-48b4-9052-e8740cc7b828"},"vehicle_type_id":"4","last_reported":1728104916,"current_range_meters":24800,"station_id":"ce4bho12rcd13ifvqh1g","pricing_plan_id":"cebpf4jnsgd1na2vs0mg"},{"bike_id":"d5c43e4f-ec76-4579-b5d4-6acbbae67566","system_id":"levelo_inurba_marseille","lat":43.22928,"lon":5.3538,"is_reserved":false,"is_disabled":false,"rental_uris":{"android":"levelo://app?vid=d5c43e4f-ec76-4579-b5d4-6acbbae67566","ios":"levelo://app?vid=d5c43e4f-ec76-4579-b5d4-6acbbae67566"},"vehicle_type_id":"4","last_reported":1728104916,"current_range_meters":23200,"station_id":"cpo3532slgdg3j2ikp40","pricing_plan_id":"cebpf4jnsgd1na2vs0mg"},{"bike_id":"d217497d-1510-4778-9b96-28eea513fd88","system_id":"levelo_inurba_marseille","lat":43.24668,"lon":5.38166,"is_reserved":false,"is_disabled":false,"rental_uris":{"android":"levelo://app?vid=d217497d-1510-4778-9b96-28eea513fd88","ios":"levelo://app?vid=d217497d-1510-4778-9b96-28eea513fd88"},"vehicle_type_id":"4","last_reported":1728104916,"current_range_meters":20800,"station_id":"ce4bhih2rcd13ifvqfr0","pricing_plan_id":"cebpf4jnsgd1na2vs0mg"},{"bike_id":"d3404d93-b1d4-4785-a824-c0b9e1db9cc1","system_id":"levelo_inurba_marseille","lat":43.28734,"lon":5.36087,"is_reserved":false,"is_disabled":false,"rental_uris":{"android":"levelo://app?vid=d3404d93-b1d4-4785-a824-c0b9e1db9cc1","ios":"levelo://app?vid=d3404d93-b1d4-4785-a824-c0b9e1db9cc1"},"vehicle_type_id":"4","last_reported":1728104916,"current_range_meters":38400,"station_id":"cki0cbj6b192h4jlfktg","pricing_plan_id":"cebpf4jnsgd1na2vs0mg"},{"bike_id":"3a8473b5-11d9-48cf-b2cc-cb4f2c2828cf","system_id":"levelo_inurba_marseille","lat":43.33605,"lon":5.41034,"is_reserved":false,"is_disabled":false,"rental_uris":{"android":"levelo://app?vid=3a8473b5-11d9-48cf-b2cc-cb4f2c2828cf","ios":"levelo://app?vid=3a8473b5-11d9-48cf-b2cc-cb4f2c2828cf"},"vehicle_type_id":"4","last_reported":1728104916,"current_range_meters":36400,"station_id":"ce4bhqh2rcd13ifvqhmg","pricing_plan_id":"cebpf4jnsgd1na2vs0mg"},{"bike_id":"2652d87d-e51f-4777-97ca-7914dd0fe606","system_id":"levelo_inurba_marseille","lat":43.30469,"lon":5.37898,"is_reserved":false,"is_disabled":false,"rental_uris":{"android":"levelo://app?vid=2652d87d-e51f-4777-97ca-7914dd0fe606","ios":"levelo://app?vid=2652d87d-e51f-4777-97ca-7914dd0fe606"},"vehicle_type_id":"4","last_reported":1728104916,"current_range_meters":38800,"station_id":"ce4bgup2rcd13ifvqcn0","pricing_plan_id":"cebpf4jnsgd1na2vs0mg"},{"bike_id":"d925fb99-7f28-4465-be58-e6f249509109","system_id":"levelo_inurba_marseille","lat":43.2901,"lon":5.35607,"is_reserved":false,"is_disabled":false,"rental_uris":{"android":"levelo://app?vid=d925fb99-7f28-4465-be58-e6f249509109","ios":"levelo://app?vid=d925fb99-7f28-4465-be58-e6f249509109"},"vehicle_type_id":"4","last_reported":1728104916,"current_range_meters":38000,"station_id":"ce4bhb92rcd13ifvqen0","pricing_plan_id":"cebpf4jnsgd1na2vs0mg"},{"bike_id":"8e303be2-37fb-4902-a31e-04c22c3f9276","system_id":"levelo_inurba_marseille","lat":43.31334,"lon":5.39699,"is_reserved":false,"is_disabled":false,"rental_uris":{"android":"levelo://app?vid=8e303be2-37fb-4902-a31e-04c22c3f9276","ios":"levelo://app?vid=8e303be2-37fb-4902-a31e-04c22c3f9276"},"vehicle_type_id":"4","last_reported":1728104916,"current_range_meters":39200,"station_id":"ce4bgvp2rcd13ifvqcu0","pricing_plan_id":"cebpf4jnsgd1na2vs0mg"},{"bike_id":"8444ed0b-fdac-4648-a368-f82ca7e16cd9","system_id":"levelo_inurba_marseille","lat":43.25109,"lon":5.40325,"is_reserved":false,"is_disabled":false,"rental_uris":{"android":"levelo://app?vid=8444ed0b-fdac-4648-a368-f82ca7e16cd9","ios":"levelo://app?vid=8444ed0b-fdac-4648-a368-f82ca7e16cd9"},"vehicle_type_id":"4","last_reported":1728104916,"current_range_meters":4400,"station_id":"ce4bhlh2rcd13ifvqgig","pricing_plan_id":"cebpf4jnsgd1na2vs0mg"},{"bike_id":"435cbc9f-0e03-41eb-bacb-805de3676910","system_id":"levelo_inurba_marseille","lat":43.2885,"lon":5.39311,"is_reserved":false,"is_disabled":false,"rental_uris":{"android":"levelo://app?vid=435cbc9f-0e03-41eb-bacb-805de3676910","ios":"levelo://app?vid=435cbc9f-0e03-41eb-bacb-805de3676910"},"vehicle_type_id":"4","last_reported":1728104916,"current_range_meters":36800,"station_id":"ce4bh2p2rcd13ifvqdi0","pricing_plan_id":"cebpf4jnsgd1na2vs0mg"},{"bike_id":"9bde9074-b78c-4fcf-835b-02c90cd5f8a6","system_id":"levelo_inurba_marseille","lat":43.310794,"lon":5.383479,"is_reserved":false,"is_disabled":false,"rental_uris":{"android":"levelo://app?vid=9bde9074-b78c-4fcf-835b-02c90cd5f8a6","ios":"levelo://app?vid=9bde9074-b78c-4fcf-835b-02c90cd5f8a6"},"vehicle_type_id":"4","last_reported":1728104916,"current_range_meters":35600,"station_id":"ce4bgv92rcd13ifvqcr0","pricing_plan_id":"cebpf4jnsgd1na2vs0mg"},{"bike_id":"97c3ddce-4e7d-43dc-9cb9-dad625978cd8","system_id":"levelo_inurba_marseille","lat":43.31765,"lon":5.39008,"is_reserved":false,"is_disabled":false,"rental_uris":{"android":"levelo://app?vid=97c3ddce-4e7d-43dc-9cb9-dad625978cd8","ios":"levelo://app?vid=97c3ddce-4e7d-43dc-9cb9-dad625978cd8"},"vehicle_type_id":"4","last_reported":1728104916,"current_range_meters":38800,"station_id":"ce4bhqp2rcd13ifvqhng","pricing_plan_id":"cebpf4jnsgd1na2vs0mg"},{"bike_id":"f7993679-59ec-4684-8474-f23f1c970528","system_id":"levelo_inurba_marseille","lat":43.30152,"lon":5.38077,"is_reserved":false,"is_disabled":false,"rental_uris":{"android":"levelo://app?vid=f7993679-59ec-4684-8474-f23f1c970528","ios":"levelo://app?vid=f7993679-59ec-4684-8474-f23f1c970528"},"vehicle_type_id":"4","last_reported":1728104916,"current_range_meters":28400,"station_id":"ce4bgjp2rcd13ifvqbh0","pricing_plan_id":"cebpf4jnsgd1na2vs0mg"},{"bike_id":"4e9c938a-031c-4e72-8d0a-bcbf9531b10e","system_id":"levelo_inurba_marseille","lat":43.30888,"lon":5.39629,"is_reserved":false,"is_disabled":false,"rental_uris":{"android":"levelo://app?vid=4e9c938a-031c-4e72-8d0a-bcbf9531b10e","ios":"levelo://app?vid=4e9c938a-031c-4e72-8d0a-bcbf9531b10e"},"vehicle_type_id":"4","last_reported":1728104916,"current_range_meters":38800,"station_id":"ce4bh012rcd13ifvqcv0","pricing_plan_id":"cebpf4jnsgd1na2vs0mg"},{"bike_id":"21af6422-8f85-4c18-9237-da3ba75c0021","system_id":"levelo_inurba_marseille","lat":43.31179,"lon":5.38709,"is_reserved":false,"is_disabled":false,"rental_uris":{"android":"levelo://app?vid=21af6422-8f85-4c18-9237-da3ba75c0021","ios":"levelo://app?vid=21af6422-8f85-4c18-9237-da3ba75c0021"},"vehicle_type_id":"4","last_reported":1728104916,"current_range_meters":27600,"station_id":"ce4bgv12rcd13ifvqcp0","pricing_plan_id":"cebpf4jnsgd1na2vs0mg"},{"bike_id":"d2801287-9a07-410c-8860-548ca5010bd3","system_id":"levelo_inurba_marseille","lat":43.29237,"lon":5.36067,"is_reserved":false,"is_disabled":false,"rental_uris":{"android":"levelo://app?vid=d2801287-9a07-410c-8860-548ca5010bd3","ios":"levelo://app?vid=d2801287-9a07-410c-8860-548ca5010bd3"},"vehicle_type_id":"4","last_reported":1728104916,"current_range_meters":38000,"station_id":"ce4bhbh2rcd13ifvqeqg","pricing_plan_id":"cebpf4jnsgd1na2vs0mg"},{"bike_id":"d9513a24-3235-43a7-b9a5-1c5cfe37603f","system_id":"levelo_inurba_marseille","lat":43.2306,"lon":5.35492,"is_reserved":false,"is_disabled":false,"rental_uris":{"android":"levelo://app?vid=d9513a24-3235-43a7-b9a5-1c5cfe37603f","ios":"levelo://app?vid=d9513a24-3235-43a7-b9a5-1c5cfe37603f"},"vehicle_type_id":"4","last_reported":1728104916,"current_range_meters":21600,"station_id":"cpo3342slgdg3j2ifvpg","pricing_plan_id":"cebpf4jnsgd1na2vs0mg"},{"bike_id":"61b8e147-1e03-48bd-b16d-2fe479ee3990","system_id":"levelo_inurba_marseille","lat":43.32046,"lon":5.41553,"is_reserved":false,"is_disabled":false,"rental_uris":{"android":"levelo://app?vid=61b8e147-1e03-48bd-b16d-2fe479ee3990","ios":"levelo://app?vid=61b8e147-1e03-48bd-b16d-2fe479ee3990"},"vehicle_type_id":"4","last_reported":1728104916,"current_range_meters":8000,"station_id":"ce4bhq92rcd13ifvqhkg","pricing_plan_id":"cebpf4jnsgd1na2vs0mg"},{"bike_id":"009d6d0e-c1a8-4ddc-b330-ebf04e9c45b9","system_id":"levelo_inurba_marseille","lat":43.29901,"lon":5.43666,"is_reserved":false,"is_disabled":false,"rental_uris":{"android":"levelo://app?vid=009d6d0e-c1a8-4ddc-b330-ebf04e9c45b9","ios":"levelo://app?vid=009d6d0e-c1a8-4ddc-b330-ebf04e9c45b9"},"vehicle_type_id":"4","last_reported":1728104916,"current_range_meters":23200,"station_id":"ce4bhpp2rcd13ifvqhfg","pricing_plan_id":"cebpf4jnsgd1na2vs0mg"},{"bike_id":"495952fd-1e45-4f36-9416-0e7c0b6a1ef8","system_id":"levelo_inurba_marseille","lat":43.29572,"lon":5.39956,"is_reserved":false,"is_disabled":false,"rental_uris":{"android":"levelo://app?vid=495952fd-1e45-4f36-9416-0e7c0b6a1ef8","ios":"levelo://app?vid=495952fd-1e45-4f36-9416-0e7c0b6a1ef8"},"vehicle_type_id":"4","last_reported":1728104916,"current_range_meters":25200,"station_id":"ce4bh312rcd13ifvqdj0","pricing_plan_id":"cebpf4jnsgd1na2vs0mg"},