{"last_updated":1747056309,"ttl":60,"version":"2.2","data":{"bikes":[{"bike_id":"05590690-5a7c-4f74-b3fe-0d851a34d7dc","system_id":"levelo_inurba_marseille","lat":43.24168,"lon":5.364,"is_reserved":false,"is_disabled":false,"rental_uris":{"android":"levelo://app?vid=05590690-5a7c-4f74-b3fe-0d851a34d7dc","ios":"levelo://app?vid=05590690-5a7c-4f74-b3fe-0d851a34d7dc"},"vehicle_type_id":"4","last_reported":1747056309,"current_range_meters":2800,"station_id":"cpo36qri1sfpv3e86is0","pricing_plan_id":"cebpf4jnsgd1na2vs0mg"},{"bike_id":"5d131e89-0e16-4225-a8bf-4fb45c678b5c","system_id":"levelo_inurba_marseille","lat":43.28482,"lon":5.38419,"is_reserved":false,"is_disabled":false,"rental_uris":{"android":"levelo://app?vid=5d131e89-0e16-4225-a8bf-4fb45c678b5c","ios":"levelo://app?vid=5d131e89-0e16-4225-a8bf-4fb45c678b5c"},"vehicle_type_id":"4","last_reported":1747056309,"current_range_meters":2800,"station_id":"ce4bh512rcd13ifvqe3g","pricing_plan_id":"cebpf4jnsgd1na2vs0mg"},{"bike_id":"f2465ffe-6552-47f4-9c81-63aa2917380e","system_id":"levelo_inurba_marseille","lat":43.27496,"lon":5.42486,"is_reserved":false,"is_disabled":false,"rental_uris":{"android":"levelo://app?vid=f2465ffe-6552-47f4-9c81-63aa2917380e","ios":"levelo://app?vid=f2465ffe-6552-47f4-9c81-63aa2917380e"},"vehicle_type_id":"4","last_reported":1747056309,"current_range_meters":3200,"station_id":"ce4bhn92rcd13ifvqgrg","pricing_plan_id":"cebpf4jnsgd1na2vs0mg"},{"bike_id":"77fdc3da-f2f1-4371-89d6-6901ac2e8b64","system_id":"levelo_inurba_marseille","lat":43.24069,"lon":5.37763,"is_reserved":false,"is_disabled":false,"rental_uris":{"android":"levelo://app?vid=77fdc3da-f2f1-4371-89d6-6901ac2e8b64","ios":"levelo://app?vid=77fdc3da-f2f1-4371-89d6-6901ac2e8b64"},"vehicle_type_id":"4","last_reported":1747056309,"current_range_meters":3200,"station_id":"ce4bhnp2rcd13ifvqgvg","pricing_plan_id":"cebpf4jnsgd1na2vs0mg"},{"bike_id":"497460e0-dc13-40e5-b83f-1fcaf2db8dfb","system_id":"levelo_inurba_marseille","lat":43.28269,"lon":5.35067,"is_reserved":false,"is_disabled":false,"rental_uris":{"android":"levelo://app?vid=497460e0-dc13-40e5-b83f-1fcaf2db8dfb","ios":"levelo://app?vid=497460e0-dc13-40e5-b83f-1fcaf2db8dfb"},"vehicle_type_id":"4","last_reported":1747056309,"current_range_meters":3200,"station_id":"ce4bhbp2rcd13ifvqerg","pricing_plan_id":"cebpf4jnsgd1na2vs0mg"},{"bike_id":"885571ed-1431-4e57-b770-6dade3ddcf91","system_id":"levelo_inurba_marseille","lat":43.30282,"lon":5.36477,"is_reserved":false,"is_disabled":false,"rental_uris":{"android":"levelo://app?vid=885571ed-1431-4e57-b770-6dade3ddcf91","ios":"levelo://app?vid=885571ed-1431-4e57-b770-6dade3ddcf91"},"vehicle_type_id":"4","last_reported":1747056309,"current_range_meters":4000,"station_id":"","pricing_plan_id":"cebpf4jnsgd1na2vs0mg"},{"bike_id":"f4bef272-fe8f-4167-8c5c-d3bfe4104b7b","system_id":"levelo_inurba_marseille","lat":43.29576,"lon":5.39981,"is_reserved":false,"is_disabled":false,"rental_uris":{"android":"levelo://app?vid=f4bef272-fe8f-4167-8c5c-d3bfe4104b7b","ios":"levelo://app?vid=f4bef272-fe8f-4167-8c5c-d3bfe4104b7b"},"vehicle_type_id":"4","last_reported":1747056309,"current_range_meters":2800,"station_id":"ce4bh312rcd13ifvqdj0","pricing_plan_id":"cebpf4jnsgd1na2vs0mg"},{"bike_id":"848f42da-0e7b-4727-9e30-38f2003c8749","system_id":"levelo_inurba_marseille","lat":43.28268,"lon":5.35076,"is_reserved":false,"is_disabled":false,"rental_uris":{"android":"levelo://app?vid=848f42da-0e7b-4727-9e30-38f2003c8749","ios":"levelo://app?vid=848f42da-0e7b-4727-9e30-38f2003c8749"},"vehicle_type_id":"4","last_reported":1747056309,"current_range_meters":3600,"station_id":"ce4bhbp2rcd13ifvqerg","pricing_plan_id":"cebpf4jnsgd1na2vs0mg"},{"bike_id":"8b0f1122-1bbf-49cd-941b-953f4d26602c","system_id":"levelo_inurba_marseille","lat":43.26059,"lon":5.39398,"is_reserved":false,"is_disabled":false,"rental_uris":{"android":"levelo://app?vid=8b0f1122-1bbf-49cd-941b-953f4d26602c","ios":"levelo://app?vid=8b0f1122-1bbf-49cd-941b-953f4d26602c"},"vehicle_type_id":"4","last_reported":1747056309,"current_range_meters":3600,"station_id":"ce4bhh92rcd13ifvqfj0","pricing_plan_id":"cebpf4jnsgd1na2vs0mg"},{"bike_id":"ba5f50bb-44b2-4b65-9fdf-7dc5be4858a0","system_id":"levelo_inurba_marseille","lat":43.24078,"lon":5.37755,"is_reserved":false,"is_disabled":false,"rental_uris":{"android":"levelo://app?vid=ba5f50bb-44b2-4b65-9fdf-7dc5be4858a0","ios":"levelo://app?vid=ba5f50bb-44b2-4b65-9fdf-7dc5be4858a0"},"vehicle_type_id":"4","last_reported":1747056309,"current_range_meters":3600,"station_id":"ce4bhnp2rcd13ifvqgvg","pricing_plan_id":"cebpf4jnsgd1na2vs0mg"},{"bike_id":"31a3cd04-f142-4471-9a2c-7905d82f349b","system_id":"levelo_inurba_marseille","lat":43.26935,"lon":5.3892,"is_reserved":false,"is_disabled":false,"rental_uris":{"android":"levelo://app?vid=31a3cd04-f142-4471-9a2c-7905d82f349b","ios":"levelo://app?vid=31a3cd04-f142-4471-9a2c-7905d82f349b"},"vehicle_type_id":"4","last_reported":1747056309,"current_range_meters":3600,"station_id":"ce4bhhh2rcd13ifvqfl0","pricing_plan_id":"cebpf4jnsgd1na2vs0mg"},{"bike_id":"6367907c-f696-4d67-bf4b-6bb3ddfd5ec3","system_id":"levelo_inurba_marseille","lat":43.284559,"lon":5.358878,"is_reserved":false,"is_disabled":false,"rental_uris":{"android":"levelo://app?vid=6367907c-f696-4d67-bf4b-6bb3ddfd5ec3","ios":"levelo://app?vid=6367907c-f696-4d67-bf4b-6bb3ddfd5ec3"},"vehicle_type_id":"4","last_reported":1747056309,"current_range_meters":3600,"station_id":"ce4bhah2rcd13ifvqei0","pricing_plan_id":"cebpf4jnsgd1na2vs0mg"},{"bike_id":"d2b9db06-c161-4783-8279-1418aa92fe7c","system_id":"levelo_inurba_marseille","lat":43.27501,"lon":5.42448,"is_reserved":false,"is_disabled":false,"rental_uris":{"android":"levelo://app?vid=d2b9db06-c161-4783-8279-1418aa92fe7c","ios":"levelo://app?vid=d2b9db06-c161-4783-8279-1418aa92fe7c"},"vehicle_type_id":"4","last_reported":1747056309,"current_range_meters":3600,"station_id":"ce4bhn92rcd13ifvqgrg","pricing_plan_id":"cebpf4jnsgd1na2vs0mg"},{"bike_id":"3d4cd830-5a88-48e5-8bd5-b24f447bfe18","system_id":"levelo_inurba_marseille","lat":43.27492,"lon":5.42453,"is_reserved":false,"is_disabled":false,"rental_uris":{"android":"levelo://app?vid=3d4cd830-5a88-48e5-8bd5-b24f447bfe18","ios":"levelo://app?vid=3d4cd830-5a88-48e5-8bd5-b24f447bfe18"},"vehicle_type_id":"4","last_reported":1747056309,"current_range_meters":3600,"station_id":"ce4bhn92rcd13ifvqgrg","pricing_plan_id":"cebpf4jnsgd1na2vs0mg"},{"bike_id":"e75a84cd-56e3-4868-aeae-42fc5dd9c76e","system_id":"levelo_inurba_marseille","lat":43.27077,"lon":5.38968,"is_reserved":false,"is_disabled":false,"rental_uris":{"android":"levelo://app?vid=e75a84cd-56e3-4868-aeae-42fc5dd9c76e","ios":"levelo://app?vid=e75a84cd-56e3-4868-aeae-42fc5dd9c76e"},"vehicle_type_id":"4","last_reported":1747056309,"current_range_meters":3600,"station_id":"","pricing_plan_id":"cebpf4jnsgd1na2vs0mg"},{"bike_id":"99f2d1fd-cd77-4c50-b260-cd2ac75409dd","system_id":"levelo_inurba_marseille","lat":43.31079,"lon":5.38344,"is_reserved":false,"is_disabled":false,"rental_uris":{"android":"levelo://app?vid=99f2d1fd-cd77-4c50-b260-cd2ac75409dd","ios":"levelo://app?vid=99f2d1fd-cd77-4c50-b260-cd2ac75409dd"},"vehicle_type_id":"4","last_reported":1747056309,"current_range_meters":3600,"station_id":"ce4bgv92rcd13ifvqcr0","pricing_plan_id":"cebpf4jnsgd1na2vs0mg"},{"bike_id":"ebac0abe-a2e9-4060-818f-4f3b21eac4e9","system_id":"levelo_inurba_marseille","lat":43.28669,"lon":5.38669,"is_reserved":false,"is_disabled":false,"rental_uris":{"android":"levelo://app?vid=ebac0abe-a2e9-4060-818f-4f3b21eac4e9","ios":"levelo://app?vid=ebac0abe-a2e9-4060-818f-4f3b21eac4e9"},"vehicle_type_id":"4","last_reported":1747056309,"current_range_meters":3600,"station_id":"ce4bh492rcd13ifvqdug","pricing_plan_id":"cebpf4jnsgd1na2vs0mg"},{"bike_id":"f1c412b2-72a9-4ae9-9300-180b883f0c3d","system_id":"levelo_inurba_marseille","lat":43.2737,"lon":5.3626,"is_reserved":false,"is_disabled":false,"rental_uris":{"android":"levelo://app?vid=f1c412b2-72a9-4ae9-9300-180b883f0c3d","ios":"levelo://app?vid=f1c412b2-72a9-4ae9-9300-180b883f0c3d"},"vehicle_type_id":"4","last_reported":1747056309,"current_range_meters":4000,"station_id":"ce4bhbh2rcd13ifvqeo0","pricing_plan_id":"cebpf4jnsgd1na2vs0mg"},{"bike_id":"f93b745c-2114-4a07-8e3b-13478288ec60","system_id":"levelo_inurba_marseille","lat":43.284119,"lon":5.349701,"is_reserved":false,"is_disabled":false,"rental_uris":{"android":"levelo://app?vid=f93b745c-2114-4a07-8e3b-13478288ec60","ios":"levelo://app?vid=f93b745c-2114-4a07-8e3b-13478288ec60"},"vehicle_type_id":"4","last_reported":1747056309,"current_range_meters":4000,"station_id":"ce4bhbh2rcd13ifvqepg","pricing_plan_id":"cebpf4jnsgd1na2vs0mg"},{"bike_id":"e02662af-e5e0-47d3-b44e-2ff0c200b1c7","system_id":"levelo_inurba_marseille","lat":43.27941,"lon":5.38713,"is_reserved":false,"is_disabled":false,"rental_uris":{"android":"levelo://app?vid=e02662af-e5e0-47d3-b44e-2ff0c200b1c7","ios":"levelo://app?vid=e02662af-e5e0-47d3-b44e-2ff0c200b1c7"},"vehicle_type_id":"4","last_reported":1747056309,"current_range_meters":4000,"station_id":"ce4bhg12rcd13ifvqf80","pricing_plan_id":"cebpf4jnsgd1na2vs0mg"},{"bike_id":"6b7f578a-ae20-473a-b803-7acac76825de","system_id":"levelo_inurba_marseille","lat":43.29531,"lon":5.37505,"is_reserved":false,"is_disabled":false,"rental_uris":{"android":"levelo://app?vid=6b7f578a-ae20-473a-b803-7acac76825de","ios":"levelo://app?vid=6b7f578a-ae20-473a-b803-7acac76825de"},"vehicle_type_id":"4","last_reported":1747056309,"current_range_meters":4400,"station_id":"ce4bgkp2rcd13ifvqbmg","pricing_plan_id":"cebpf4jnsgd1na2vs0mg"},{"bike_id":"b4fca09d-6794-4b6a-af65-fb587e5307ab","system_id":"levelo_inurba_marseille","lat":43.31122,"lon":5.37754,"is_reserved":false,"is_disabled":false,"rental_uris":{"android":"levelo://app?vid=b4fca09d-6794-4b6a-af65-fb587e5307ab","ios":"levelo://app?vid=b4fca09d-6794-4b6a-af65-fb587e5307ab"},"vehicle_type_id":"4","last_reported":1747056309,"current_range_meters":4400,"station_id":"ce4bgt92rcd13ifvqcg0","pricing_plan_id":"cebpf4jnsgd1na2vs0mg"},{"bike_id":"83cb5b80-3304-4ca7-95d0-71a90297c74a","system_id":"levelo_inurba_marseille","lat":43.25005,"lon":5.38917,"is_reserved":false,"is_disabled":false,"rental_uris":{"android":"levelo://app?vid=83cb5b80-3304-4ca7-95d0-71a90297c74a","ios":"levelo://app?vid=83cb5b80-3304-4ca7-95d0-71a90297c74a"},"vehicle_type_id":"4","last_reported":1747056309,"current_range_meters":4000,"station_id":"ce4bhgp2rcd13ifvqfd0","pricing_plan_id":"cebpf4jnsgd1na2vs0mg"},{"bike_id":"471006f9-4697-4636-9aa9-182163cb5ccb","system_id":"levelo_inurba_marseille","lat":43.28263,"lon":5.35065,"is_reserved":false,"is_disabled":false,"rental_uris":{"android":"levelo://app?vid=471006f9-4697-4636-9aa9-182163cb5ccb","ios":"levelo://app?vid=471006f9-4697-4636-9aa9-182163cb5ccb"},"vehicle_type_id":"4","last_reported":1747056309,"current_range_meters":4400,"station_id":"ce4bhbp2rcd13ifvqerg","pricing_plan_id":"cebpf4jnsgd1na2vs0mg"},{"bike_id":"7b52222b-d51c-4220-93ab-b65a0261c035","system_id":"levelo_inurba_marseille","lat":43.24403,"lon":5.37052,"is_reserved":false,"is_disabled":false,"rental_uris":{"android":"levelo://app?vid=7b52222b-d51c-4220-93ab-b65a0261c035","ios":"levelo://app?vid=7b52222b-d51c-4220-93ab-b65a0261c035"},"vehicle_type_id":"4","last_reported":1747056309,"current_range_meters":4400,"station_id":"ce4bhhh2rcd13ifvqfk0","pricing_plan_id":"cebpf4jnsgd1na2vs0mg"},{"bike_id":"8fcecb2c-9448-4339-9a6a-19f79482cffb","system_id":"levelo_inurba_marseille","lat":43.24083,"lon":5.37743,"is_reserved":false,"is_disabled":false,"rental_uris":{"android":"levelo://app?vid=8fcecb2c-9448-4339-9a6a-19f79482cffb","ios":"levelo://app?vid=8fcecb2c-9448-4339-9a6a-19f79482cffb"},"vehicle_type_id":"4","last_reported":1747056309,"current_range_meters":4400,"station_id":"ce4bhnp2rcd13ifvqgvg","pricing_plan_id":"cebpf4jnsgd1na2vs0mg"},{"bike_id":"98be9123-117c-4709-8bce-adc13e53f487","system_id":"levelo_inurba_marseille","lat":43.28974,"lon":5.383066,"is_reserved":false,"is_disabled":false,"rental_uris":{"android":"levelo://app?vid=98be9123-117c-4709-8bce-adc13e53f487","ios":"levelo://app?vid=98be9123-117c-4709-8bce-adc13e53f487"},"vehicle_type_id":"4","last_reported":1747056309,"current_range_meters":4400,"station_id":"ce4bh4p2rcd13ifvqe0g","pricing_plan_id":"cebpf4jnsgd1na2vs0mg"},{"bike_id":"375d5e01-6436-4d52-a720-d5a3750c91ba","system_id":"levelo_inurba_marseille","lat":43.274233,"lon":5.39414,"is_reserved":false,"is_disabled":false,"rental_uris":{"android":"levelo://app?vid=375d5e01-6436-4d52-a720-d5a3750c91ba","ios":"levelo://app?vid=375d5e01-6436-4d52-a720-d5a3750c91ba"},"vehicle_type_id":"4","last_reported":1747056309,"current_range_meters":4400,"station_id":"ce4bhdp2rcd13ifvqf20","pricing_plan_id":"cebpf4jnsgd1na2vs0mg"},{"bike_id":"8b55bba5-551a-493a-a344-9748a902b597","system_id":"levelo_inurba_marseille","lat":43.23158,"lon":5.4369,"is_reserved":false,"is_disabled":false,"rental_uris":{"android":"levelo://app?vid=8b55bba5-551a-493a-a344-9748a902b597","ios":"levelo://app?vid=8b55bba5-551a-493a-a344-9748a902b597"},"vehicle_type_id":"4","last_reported":1747056309,"current_range_meters":4400,"station_id":"ce4bhmp2rcd13ifvqgog","pricing_plan_id":"cebpf4jnsgd1na2vs0mg"},{"bike_id":"92fdacfc-763b-4e80-a979-09ef5268bf4e","system_id":"levelo_inurba_marseille","lat":43.311767,"lon":5.37223,"is_reserved":false,"is_disabled":false,"rental_uris":{"android":"levelo://app?vid=92fdacfc-763b-4e80-a979-09ef5268bf4e","ios":"levelo://app?vid=92fdacfc-763b-4e80-a979-09ef5268bf4e"},"vehicle_type_id":"4","last_reported":1747056309,"current_range_meters":4800,"station_id":"ce4bgkh2rcd13ifvqbl0","pricing_plan_id":"cebpf4jnsgd1na2vs0mg"},{"bike_id":"fc2577e7-1497-425b-9d4f-ab8d7dc843c6","system_id":"levelo_inurba_marseille","lat":43.33771,"lon":5.37485,"is_reserved":false,"is_disabled":false,"rental_uris":{"android":"levelo://app?vid=fc2577e7-1497-425b-9d4f-ab8d7dc843c6","ios":"levelo://app?vid=fc2577e7-1497-425b-9d4f-ab8d7dc843c6"},"vehicle_type_id":"4","last_reported":1747056309,"current_range_meters":5600,"station_id":"","pricing_plan_id":"cebpf4jnsgd1na2vs0mg"},{"bike_id":"fbdd7b17-020c-43bd-b398-3e054b4ff4e5","system_id":"levelo_inurba_marseille","lat":43.27072,"lon":5.42282,"is_reserved":false,"is_disabled":false,"rental_uris":{"android":"levelo://app?vid=fbdd7b17-020c-43bd-b398-3e054b4ff4e5","ios":"levelo://app?vid=fbdd7b17-020c-43bd-b398-3e054b4ff4e5"},"vehicle_type_id":"4","last_reported":1747056309,"current_range_meters":5600,"station_id":"ce4bhk92rcd13ifvqgb0","pricing_plan_id":"cebpf4jnsgd1na2vs0mg"},{"bike_id":"d138f932-4ad5-44f7-9118-a7d1e2dcc38d","system_id":"levelo_inurba_marseille","lat":43.25111,"lon":5.40321,"is_reserved":false,"is_disabled":false,"rental_uris":{"android":"levelo://app?vid=d138f932-4ad5-44f7-9118-a7d1e2dcc38d","ios":"levelo://app?vid=d138f932-4ad5-44f7-9118-a7d1e2dcc38d"},"vehicle_type_id":"4","last_reported":1747056309,"current_range_meters":5600,"station_id":"ce4bhlh2rcd13ifvqgig","pricing_plan_id":"cebpf4jnsgd1na2vs0mg"},{"bike_id":"8a602afa-9ec6-4b50-84c9-a0bff4a30f2c","system_id":"levelo_inurba_marseille","lat":43.29262,"lon":5.3762,"is_reserved":false,"is_disabled":false,"rental_uris":{"android":"levelo://app?vid=8a602afa-9ec6-4b50-84c9-a0bff4a30f2c","ios":"levelo://app?vid=8a602afa-9ec6-4b50-84c9-a0bff4a30f2c"},"vehicle_type_id":"4","last_reported":1747056309,"current_range_meters":6000,"station_id":"ce4bgi12rcd13ifvqb80","pricing_plan_id":"cebpf4jnsgd1na2vs0mg"},{"bike_id":"ae0cc3e4-290f-46a6-8de8-4b3b3039f0f4","system_id":"levelo_inurba_marseille","lat":43.31523,"lon":5.37292,"is_reserved":false,"is_disabled":false,"rental_uris":{"android":"levelo://app?vid=ae0cc3e4-290f-46a6-8de8-4b3b3039f0f4","ios":"levelo://app?vid=ae0cc3e4-290f-46a6-8de8-4b3b3039f0f4"},"vehicle_type_id":"4","last_reported":1747056309,"current_range_meters":6000,"station_id":"ce4bgt12rcd13ifvqcd0","pricing_plan_id":"cebpf4jnsgd1na2vs0mg"},{"bike_id":"d578bf15-55a8-45eb-8928-0e36896514d8","system_id":"levelo_inurba_marseille","lat":43.29914,"lon":5.38138,"is_reserved":false,"is_disabled":false,"rental_uris":{"android":"levelo://app?vid=d578bf15-55a8-45eb-8928-0e36896514d8","ios":"levelo://app?vid=d578bf15-55a8-45eb-8928-0e36896514d8"},"vehicle_type_id":"4","last_reported":1747056309,"current_range_meters":6000,"station_id":"ce4bgj12rcd13ifvqbc0","pricing_plan_id":"cebpf4jnsgd1na2vs0mg"},{"bike_id":"992c49dc-5a6d-4dc3-9c7e-f096f4eae65f","system_id":"levelo_inurba_marseille","lat":43.30596,"lon":5.39356,"is_reserved":false,"is_disabled":false,"rental_uris":{"android":"levelo://app?vid=992c49dc-5a6d-4dc3-9c7e-f096f4eae65f","ios":"levelo://app?vid=992c49dc-5a6d-4dc3-9c7e-f096f4eae65f"},"vehicle_type_id":"4","last_reported":1747056309,"current_range_meters":6000,"station_id":"","pricing_plan_id":"cebpf4jnsgd1na2vs0mg"},{"bike_id":"0eca9522-89a8-4e9b-bc23-f3e16d0eef1e","system_id":"levelo_inurba_marseille","lat":43.31172,"lon":5.38711,"is_reserved":false,"is_disabled":false,"rental_uris":{"android":"levelo://app?vid=0eca9522-89a8-4e9b-bc23-f3e16d0eef1e","ios":"levelo://app?vid=0eca9522-89a8-4e9b-bc23-f3e16d0eef1e"},"vehicle_type_id":"4","last_reported":1747056309,"current_range_meters":6400,"station_id":"ce4bgv12rcd13ifvqcp0","pricing_plan_id":"cebpf4jnsgd1na2vs0mg"},{"bike_id":"c7adc0b5-c685-409c-a618-a8ec07c66dfa","system_id":"levelo_inurba_marseille","lat":43.26807,"lon":5.40272,"is_reserved":false,"is_disabled":false,"rental_uris":{"android":"levelo://app?vid=c7adc0b5-c685-409c-a618-a8ec07c66dfa","ios":"levelo://app?vid=c7adc0b5-c685-409c-a618-a8ec07c66dfa"},"vehicle_type_id":"4","last_reported":1747056309,"current_range_meters":6400,"station_id":"ce501612rcd8frsf0b60","pricing_plan_id":"cebpf4jnsgd1na2vs0mg"},{"bike_id":"25a331cc-b350-4d54-b9ab-f22d3c1d8f77","system_id":"levelo_inurba_marseille","lat":43.29976,"lon":5.37179,"is_reserved":false,"is_disabled":false,"rental_uris":{"android":"levelo://app?vid=25a331cc-b350-4d54-b9ab-f22d3c1d8f77","ios":"levelo://app?vid=25a331cc-b350-4d54-b9ab-f22d3c1d8f77"},"vehicle_type_id":"4","last_reported":1747056309,"current_range_meters":6400,"station_id":"ce4bgr92rcd13ifvqc7g","pricing_plan_id":"cebpf4jnsgd1na2vs0mg"},{"bike_id":"a5e5d069-c5d4-441b-baf5-a0fe2b279897","system_id":"levelo_inurba_marseille","lat":43.240809,"lon":5.377561,"is_reserved":false,"is_disabled":false,"rental_uris":{"android":"levelo://app?vid=a5e5d069-c5d4-441b-baf5-a0fe2b279897","ios":"levelo://app?vid=a5e5d069-c5d4-441b-baf5-a0fe2b279897"},"vehicle_type_id":"4","last_reported":1747056309,"current_range_meters":6400,"station_id":"ce4bhnp2rcd13ifvqgvg","pricing_plan_id":"cebpf4jnsgd1na2vs0mg"},{"bike_id":"b763c22f-0d31-481d-991d-bead16dbde3a","system_id":"levelo_inurba_marseille","lat":43.28673,"lon":5.36353,"is_reserved":false,"is_disabled":false,"rental_uris":{"android":"levelo://app?vid=b763c22f-0d31-481d-991d-bead16dbde3a","ios":"levelo://app?vid=b763c22f-0d31-481d-991d-bead16dbde3a"},"vehicle_type_id":"4","last_reported":1747056309,"current_range_meters":6000,"station_id":"ce4bhah2rcd13ifvqej0","pricing_plan_id":"cebpf4jnsgd1na2vs0mg"},{"bike_id":"8fe24a5e-c7ed-44b8-ab7e-c1b8f249e256","system_id":"levelo_inurba_marseille","lat":43.28427,"lon":5.34995,"is_reserved":false,"is_disabled":false,"rental_uris":{"android":"levelo://app?vid=8fe24a5e-c7ed-44b8-ab7e-c1b8f249e256","ios":"levelo://app?vid=8fe24a5e-c7ed-44b8-ab7e-c1b8f249e256"},"vehicle_type_id":"4","last_reported":1747056309,"current_range_meters":6400,"station_id":"ce4bhbh2rcd13ifvqepg","pricing_plan_id":"cebpf4jnsgd1na2vs0mg"},{"bike_id":"6f4f1eff-89e4-491b-8e26-dcc2da661074","system_id":"levelo_inurba_marseille","lat":43.28664,"lon":5.36349,"is_reserved":false,"is_disabled":false,"rental_uris":{"android":"levelo://app?vid=6f4f1eff-89e4-491b-8e26-dcc2da661074","ios":"levelo://app?vid=6f4f1eff-89e4-491b-8e26-dcc2da661074"},"vehicle_type_id":"4","last_reported":1747056309,"current_range_meters":6000,"station_id":"ce4bhah2rcd13ifvqej0","pricing_plan_id":"cebpf4jnsgd1na2vs0mg"},{"bike_id":"a1e882b6-da04-4872-9ba4-928945ea7a28","system_id":"levelo_inurba_marseille","lat":43.28562,"lon":5.39498,"is_reserved":false,"is_disabled":false,"rental_uris":{"android":"levelo://app?vid=a1e882b6-da04-4872-9ba4-928945ea7a28","ios":"levelo://app?vid=a1e882b6-da04-4872-9ba4-928945ea7a28"},"vehicle_type_id":"4","last_reported":1747056309,"current_range_meters":6400,"station_id":"ce4bh292rcd13ifvqdg0","pricing_plan_id":"cebpf4jnsgd1na2vs0mg"},{"bike_id":"cb4aa7f8-5e58-4103-827e-f5aa7f653469","system_id":"levelo_inurba_marseille","lat":43.23192,"lon":5.35553,"is_reserved":false,"is_disabled":false,"rental_uris":{"android":"levelo://app?vid=cb4aa7f8-5e58-4103-827e-f5aa7f653469","ios":"levelo://app?vid=cb4aa7f8-5e58-4103-827e-f5aa7f653469"},"vehicle_type_id":"4","last_reported":1747056309,"current_range_meters":6800,"station_id":"ce4bhu92rcd13ifvqi70","pricing_plan_id":"cebpf4jnsgd1na2vs0mg"},{"bike_id":"e9a18b87-b0df-4792-b1d9-b78e13b71886","system_id":"levelo_inurba_marseille","lat":43.27953,"lon":5.38732,"is_reserved":false,"is_disabled":false,"rental_uris":{"android":"levelo://app?vid=e9a18b87-b0df-4792-b1d9-b78e13b71886","ios":"levelo://app?vid=e9a18b87-b0df-4792-b1d9-b78e13b71886"},"vehicle_type_id":"4","last_reported":1747056309,"current_range_meters":6800,"station_id":"ce4bhg12rcd13ifvqf80","pricing_plan_id":"cebpf4jnsgd1na2vs0mg"},{"bike_id":"2f50b8d1-9b93-47d7-8d25-889ccdb3aef1","system_id":"levelo_inurba_marseille","lat":43.24084,"lon":5.37743,"is_reserved":false,"is_disabled":false,"rental_uris":{"android":"levelo://app?vid=2f50b8d1-9b93-47d7-8d25-889ccdb3aef1","ios":"levelo://app?vid=2f50b8d1-9b93-47d7-8d25-889ccdb3aef1"},"vehicle_type_id":"4","last_reported":1747056309,"current_range_meters":6800,"station_id":"ce4bhnp2rcd13ifvqgvg","pricing_plan_id":"cebpf4jnsgd1na2vs0mg"},{"bike_id":"76227205-24b2-4ed1-a2bb-30c71b9b6c74","system_id":"levelo_inurba_marseille","lat":43.3248,"lon":5.36554,"is_reserved":false,"is_disabled":false,"rental_uris":{"android":"levelo://app?vid=76227205-24b2-4ed1-a2bb-30c71b9b6c74","ios":"levelo://app?vid=76227205-24b2-4ed1-a2bb-30c71b9b6c74"},"vehicle_type_id":"4","last_reported":1747056309,"current_range_meters":7200,"station_id":"ce4bhs12rcd13ifvqhvg","pricing_plan_id":"cebpf4jnsgd1na2vs0mg"},{"bike_id":"29fb1bb8-15a4-4ea9-bb34-677c9fd215d2","system_id":"levelo_inurba_marseille","lat":43.30266,"lon":5.40074,"is_reserved":false,"is_disabled":false,"rental_uris":{"android":"levelo://app?vid=29fb1bb8-15a4-4ea9-bb34-677c9fd215d2","ios":"levelo://app?vid=29fb1bb8-15a4-4ea9-bb34-677c9fd215d2"},"vehicle_type_id":"4","last_reported":1747056309,"current_range_meters":6800,"station_id":"ce4bgvh2rcd13ifvqcs0","pricing_plan_id":"cebpf4jnsgd1na2vs0mg"},{"bike_id":"dbcb4f39-cffa-4a7d-9e1d-d2b1d61cdf74","system_id":"levelo_inurba_marseille","lat":43.27832,"lon":5.39211,"is_reserved":false,"is_disabled":false,"rental_uris":{"android":"levelo://app?vid=dbcb4f39-cffa-4a7d-9e1d-d2b1d61cdf74","ios":"levelo://app?vid=dbcb4f39-cffa-4a7d-9e1d-d2b1d61cdf74"},"vehicle_type_id":"4","last_reported":1747056309,"current_range_meters":7200,"station_id":"ce4bhjp2rcd13ifvqga0","pricing_plan_id":"cebpf4jnsgd1na2vs0mg"},{"bike_id":"b9dcc1d1-f51b-4c46-850e-5c60c8b7f5e6","system_id":"levelo_inurba_marseille","lat":43.3235,"lon":5.366,"is_reserved":false,"is_disabled":false,"rental_uris":{"android":"levelo://app?vid=b9dcc1d1-f51b-4c46-850e-5c60c8b7f5e6","ios":"levelo://app?vid=b9dcc1d1-f51b-4c46-850e-5c60c8b7f5e6"},"vehicle_type_id":"4","last_reported":1747056309,"current_range_meters":7200,"station_id":"ce4bhsh2rcd13ifvqi2g","pricing_plan_id":"cebpf4jnsgd1na2vs0mg"},{"bike_id":"c11f5370-b645-4ef2-8d4e-1408ee0786f1","system_id":"levelo_inurba_marseille","lat":43.31705,"lon":5.37742,"is_reserved":false,"is_disabled":false,"rental_uris":{"android":"levelo://app?vid=c11f5370-b645-4ef2-8d4e-1408ee0786f1","ios":"levelo://app?vid=c11f5370-b645-4ef2-8d4e-1408ee0786f1"},"vehicle_type_id":"4","last_reported":1747056309,"current_range_meters":7200,"station_id":"ce4bgth2rcd13ifvqch0","pricing_plan_id":"cebpf4jnsgd1na2vs0mg"},{"bike_id":"a8e588df-289d-484b-94e3-9ca578f9f0e2","system_id":"levelo_inurba_marseille","lat":43.28428,"lon":5.34976,"is_reserved":false,"is_disabled":false,"rental_uris":{"android":"levelo://app?vid=a8e588df-289d-484b-94e3-9ca578f9f0e2","ios":"levelo://app?vid=a8e588df-289d-484b-94e3-9ca578f9f0e2"},"vehicle_type_id":"4","last_reported":1747056309,"current_range_meters":7200,"station_id":"ce4bhbh2rcd13ifvqepg","pricing_plan_id":"cebpf4jnsgd1na2vs0mg"},{"bike_id":"c012bf18-964a-4b20-85ba-1e20a138ff9c","system_id":"levelo_inurba_marseille","lat":43.25938,"lon":5.40904,"is_reserved":false,"is_disabled":false,"rental_uris":{"android":"levelo://app?vid=c012bf18-964a-4b20-85ba-1e20a138ff9c","ios":"levelo://app?vid=c012bf18-964a-4b20-85ba-1e20a138ff9c"},"vehicle_type_id":"4","last_reported":1747056309,"current_range_meters":8000,"station_id":"ce4bhm92rcd13ifvqglg","pricing_plan_id":"cebpf4jnsgd1na2vs0mg"},{"bike_id":"aa4cbe41-5dff-4ef7-8dab-b261f610bce5","system_id":"levelo_inurba_marseille","lat":43.23151,"lon":5.43711,"is_reserved":false,"is_disabled":false,"rental_uris":{"android":"levelo://app?vid=aa4cbe41-5dff-4ef7-8dab-b261f610bce5","ios":"levelo://app?vid=aa4cbe41-5dff-4ef7-8dab-b261f610bce5"},"vehicle_type_id":"4","last_reported":1747056309,"current_range_meters":8000,"station_id":"ce4bhmp2rcd13ifvqgog","pricing_plan_id":"cebpf4jnsgd1na2vs0mg"},{"bike_id":"4f5dc0a9-a046-41f0-a35d-a4518bbc409f","system_id":"levelo_inurba_marseille","lat":43.240764,"lon":5.37756,"is_reserved":false,"is_disabled":false,"rental_uris":{"android":"levelo://app?vid=4f5dc0a9-a046-41f0-a35d-a4518bbc409f","ios":"levelo://app?vid=4f5dc0a9-a046-41f0-a35d-a4518bbc409f"},"vehicle_type_id":"4","last_reported":1747056309,"current_range_meters":8000,"station_id":"ce4bhnp2rcd13ifvqgvg","pricing_plan_id":"cebpf4jnsgd1na2vs0mg"},{"bike_id":"97ce1054-8620-4739-9a11-c80c9f373822","system_id":"levelo_inurba_marseille","lat":43.24391,"lon":5.3706,"is_reserved":false,"is_disabled":false,"rental_uris":{"android":"levelo://app?vid=97ce1054-8620-4739-9a11-c80c9f373822","ios":"levelo://app?vid=97ce1054-8620-4739-9a11-c80c9f373822"},"vehicle_type_id":"4","last_reported":1747056309,"current_range_meters":8000,"station_id":"ce4bhhh2rcd13ifvqfk0","pricing_plan_id":"cebpf4jnsgd1na2vs0mg"},{"bike_id":"3bb017b7-d70f-4c7f-8d5f-932fa83d36d9","system_id":"levelo_inurba_marseille","lat":43.32545,"lon":5.41484,"is_reserved":false,"is_disabled":false,"rental_uris":{"android":"levelo://app?vid=3bb017b7-d70f-4c7f-8d5f-932fa83d36d9","ios":"levelo://app?vid=3bb017b7-d70f-4c7f-8d5f-932fa83d36d9"},"vehicle_type_id":"4","last_reported":1747056309,"current_range_meters":8000,"station_id":"ce4bhq12rcd13ifvqhhg","pricing_plan_id":"cebpf4jnsgd1na2vs0mg"},{"bike_id":"c0ea7b5f-8e82-47ef-968b-b02736cb59af","system_id":"levelo_inurba_marseille","lat":43.24168,"lon":5.36406,"is_reserved":false,"is_disabled":false,"rental_uris":{"android":"levelo://app?vid=c0ea7b5f-8e82-47ef-968b-b02736cb59af","ios":"levelo://app?vid=c0ea7b5f-8e82-47ef-968b-b02736cb59af"},"vehicle_type_id":"4","last_reported":1747056309,"current_range_meters":8000,"station_id":"cpo36qri1sfpv3e86is0","pricing_plan_id":"cebpf4jnsgd1na2vs0mg"},{"bike_id":"32f607e3-86f4-4b83-a00e-3860ca594338","system_id":"levelo_inurba_marseille","lat":43.31729,"lon":5.42399,"is_reserved":false,"is_disabled":false,"rental_uris":{"android":"levelo://app?vid=32f607e3-86f4-4b83-a00e-3860ca594338","ios":"levelo://app?vid=32f607e3-86f4-4b83-a00e-3860ca594338"},"vehicle_type_id":"4","last_reported":1747056309,"current_range_meters":8400,"station_id":"ce4bhp92rcd13ifvqhbg","pricing_plan_id":"cebpf4jnsgd1na2vs0mg"},{"bike_id":"1743ad6b-691e-476b-9f15-ca01749f6c60","system_id":"levelo_inurba_marseille","lat":43.28001,"lon":5.38808,"is_reserved":false,"is_disabled":false,"rental_uris":{"android":"levelo://app?vid=1743ad6b-691e-476b-9f15-ca01749f6c60","ios":"levelo://app?vid=1743ad6b-691e-476b-9f15-ca01749f6c60"},"vehicle_type_id":"4","last_reported":1747056309,"current_range_meters":8800,"station_id":"ce4bhg12rcd13ifvqf80","pricing_plan_id":"cebpf4jnsgd1na2vs0mg"},{"bike_id":"e0372e11-e2d7-499e-bc01-d37180083c7d","system_id":"levelo_inurba_marseille","lat":43.32357,"lon":5.36755,"is_reserved":false,"is_disabled":false,"rental_uris":{"android":"levelo://app?vid=e0372e11-e2d7-499e-bc01-d37180083c7d","ios":"levelo://app?vid=e0372e11-e2d7-499e-bc01-d37180083c7d"},"vehicle_type_id":"4","last_reported":1747056309,"current_range_meters":8400,"station_id":"ce4bhsh2rcd13ifvqi2g","pricing_plan_id":"cebpf4jnsgd1na2vs0mg"},{"bike_id":"90c5543e-8fe5-4824-b916-0028333a96c0","system_id":"levelo_inurba_marseille","lat":43.30146,"lon":5.38091,"is_reserved":false,"is_disabled":false,"rental_uris":{"android":"levelo://app?vid=90c5543e-8fe5-4824-b916-0028333a96c0","ios":"levelo://app?vid=90c5543e-8fe5-4824-b916-0028333a96c0"},"vehicle_type_id":"4","last_reported":1747056309,"current_range_meters":8400,"station_id":"ce4bgjp2rcd13ifvqbh0","pricing_plan_id":"cebpf4jnsgd1na2vs0mg"},{"bike_id":"f5e1c9f5-a154-49f8-8534-f9af92664802","system_id":"levelo_inurba_marseille","lat":43.27077,"lon":5.42279,"is_reserved":false,"is_disabled":false,"rental_uris":{"android":"levelo://app?vid=f5e1c9f5-a154-49f8-8534-f9af92664802","ios":"levelo://app?vid=f5e1c9f5-a154-49f8-8534-f9af92664802"},"vehicle_type_id":"4","last_reported":1747056309,"current_range_meters":8400,"station_id":"ce4bhk92rcd13ifvqgb0","pricing_plan_id":"cebpf4jnsgd1na2vs0mg"},{"bike_id":"14974396-773a-4225-b2c9-f2fca04895a5","system_id":"levelo_inurba_marseille","lat":43.284512,"lon":5.358671,"is_reserved":false,"is_disabled":false,"rental_uris":{"android":"levelo://app?vid=14974396-773a-4225-b2c9-f2fca04895a5","ios":"levelo://app?vid=14974396-773a-4225-b2c9-f2fca04895a5"},"vehicle_type_id":"4","last_reported":1747056309,"current_range_meters":14800,"station_id":"","pricing_plan_id":"cebpf4jnsgd1na2vs0mg"},{"bike_id":"042b3dc3-c51a-4f23-941b-2ed058374260","system_id":"levelo_inurba_marseille","lat":43.24166,"lon":5.36394,"is_reserved":false,"is_disabled":false,"rental_uris":{"android":"levelo://app?vid=042b3dc3-c51a-4f23-941b-2ed058374260","ios":"levelo://app?vid=042b3dc3-c51a-4f23-941b-2ed058374260"},"vehicle_type_id":"4","last_reported":1747056309,"current_range_meters":8800,"station_id":"cpo36qri1sfpv3e86is0","pricing_plan_id":"cebpf4jnsgd1na2vs0mg"},{"bike_id":"4c3f186f-b77c-4249-a9be-a4f7efff514d","system_id":"levelo_inurba_marseille","lat":43.31169,"lon":5.38705,"is_reserved":false,"is_disabled":false,"rental_uris":{"android":"levelo://app?vid=4c3f186f-b77c-4249-a9be-a4f7efff514d","ios":"levelo://app?vid=4c3f186f-b77c-4249-a9be-a4f7efff514d"},"vehicle_type_id":"4","last_reported":1747056309,"current_range_meters":8800,"station_id":"ce4bgv12rcd13ifvqcp0","pricing_plan_id":"cebpf4jnsgd1na2vs0mg"},{"bike_id":"30dbe550-237c-40fe-b415-e791ee09eec9","system_id":"levelo_inurba_marseille","lat":43.30151,"lon":5.381,"is_reserved":false,"is_disabled":false,"rental_uris":{"android":"levelo://app?vid=30dbe550-237c-40fe-b415-e791ee09eec9","ios":"levelo://app?vid=30dbe550-237c-40fe-b415-e791ee09eec9"},"vehicle_type_id":"4","last_reported":1747056309,"current_range_meters":8800,"station_id":"ce4bgjp2rcd13ifvqbh0","pricing_plan_id":"cebpf4jnsgd1na2vs0mg"},{"bike_id":"afb87177-138b-4065-ade5-d5cf254d8c2f","system_id":"levelo_inurba_marseille","lat":43.28426,"lon":5.34999,"is_reserved":false,"is_disabled":false,"rental_uris":{"android":"levelo://app?vid=afb87177-138b-4065-ade5-d5cf254d8c2f","ios":"levelo://app?vid=afb87177-138b-4065-ade5-d5cf254d8c2f"},"vehicle_type_id":"4","last_reported":1747056309,"current_range_meters":8800,"station_id":"ce4bhbh2rcd13ifvqepg","pricing_plan_id":"cebpf4jnsgd1na2vs0mg"},{"bike_id":"0e041bd3-3666-4161-9a86-127cb4fabe4e","system_id":"levelo_inurba_marseille","lat":43.27965,"lon":5.38733,"is_reserved":false,"is_disabled":false,"rental_uris":{"android":"levelo://app?vid=0e041bd3-3666-4161-9a86-127cb4fabe4e","ios":"levelo://app?vid=0e041bd3-3666-4161-9a86-127cb4fabe4e"},"vehicle_type_id":"4","last_reported":1747056309,"current_range_meters":8800,"station_id":"ce4bhg12rcd13ifvqf80","pricing_plan_id":"cebpf4jnsgd1na2vs0mg"},{"bike_id":"304c3c44-2edf-42c8-8707-310cb825353a","system_id":"levelo_inurba_marseille","lat":43.25867,"lon":5.39895,"is_reserved":false,"is_disabled":false,"rental_uris":{"android":"levelo://app?vid=304c3c44-2edf-42c8-8707-310cb825353a","ios":"levelo://app?vid=304c3c44-2edf-42c8-8707-310cb825353a"},"vehicle_type_id":"4","last_reported":1747056309,"current_range_meters":9200,"station_id":"ce4bhl92rcd13ifvqghg","pricing_plan_id":"cebpf4jnsgd1na2vs0mg"},{"bike_id":"33c34b31-1434-4418-b758-28175ee9d5c7","system_id":"levelo_inurba_marseille","lat":43.24073,"lon":5.37753,"is_reserved":false,"is_disabled":false,"rental_uris":{"android":"levelo://app?vid=33c34b31-1434-4418-b758-28175ee9d5c7","ios":"levelo://app?vid=33c34b31-1434-4418-b758-28175ee9d5c7"},"vehicle_type_id":"4","last_reported":1747056309,"current_range_meters":9200,"station_id":"ce4bhnp2rcd13ifvqgvg","pricing_plan_id":"cebpf4jnsgd1na2vs0mg"},{"bike_id":"36686910-33f9-490e-9f5e-6329a2d27f3d","system_id":"levelo_inurba_marseille","lat":43.26199,"lon":5.37434,"is_reserved":false,"is_disabled":false,"rental_uris":{"android":"levelo://app?vid=36686910-33f9-490e-9f5e-6329a2d27f3d","ios":"levelo://app?vid=36686910-33f9-490e-9f5e-6329a2d27f3d"},"vehicle_type_id":"4","last_reported":1747056309,"current_range_meters":9200,"station_id":"ce4bhgp2rcd13ifvqfc0","pricing_plan_id":"cebpf4jnsgd1na2vs0mg"},{"bike_id":"a9c38557-5124-45c5-9ded-c5a68570db24","system_id":"levelo_inurba_marseille","lat":43.31364,"lon":5.38516,"is_reserved":false,"is_disabled":false,"rental_uris":{"android":"levelo://app?vid=a9c38557-5124-45c5-9ded-c5a68570db24","ios":"levelo://app?vid=a9c38557-5124-45c5-9ded-c5a68570db24"},"vehicle_type_id":"4","last_reported":1747056309,"current_range_meters":9200,"station_id":"ce4bgt92rcd13ifvqcf0","pricing_plan_id":"cebpf4jnsgd1na2vs0mg"},{"bike_id":"4c7a1768-1809-4059-9b90-de0b9df63138","system_id":"levelo_inurba_marseille","lat":43.27496,"lon":5.42449,"is_reserved":false,"is_disabled":false,"rental_uris":{"android":"levelo://app?vid=4c7a1768-1809-4059-9b90-de0b9df63138","ios":"levelo://app?vid=4c7a1768-1809-4059-9b90-de0b9df63138"},"vehicle_type_id":"4","last_reported":1747056309,"current_range_meters":9200,"station_id":"ce4bhn92rcd13ifvqgrg","pricing_plan_id":"cebpf4jnsgd1na2vs0mg"},{"bike_id":"715d8b42-b1bd-4aa4-8895-068be4561a16","system_id":"levelo_inurba_marseille","lat":43.27989,"lon":5.41647,"is_reserved":false,"is_disabled":false,"rental_uris":{"android":"levelo://app?vid=715d8b42-b1bd-4aa4-8895-068be4561a16","ios":"levelo://app?vid=715d8b42-b1bd-4aa4-8895-068be4561a16"},"vehicle_type_id":"4","last_reported":1747056309,"current_range_meters":9200,"station_id":"ce4bho12rcd13ifvqh1g","pricing_plan_id":"cebpf4jnsgd1na2vs0mg"},{"bike_id":"de4a530f-3b17-41b9-bd98-d22e64d46bdc","system_id":"levelo_inurba_marseille","lat":43.32105,"lon":5.36783,"is_reserved":false,"is_disabled":false,"rental_uris":{"android":"levelo://app?vid=de4a530f-3b17-41b9-bd98-d22e64d46bdc","ios":"levelo://app?vid=de4a530f-3b17-41b9-bd98-d22e64d46bdc"},"vehicle_type_id":"4","last_reported":1747056309,"current_range_meters":9200,"station_id":"ce4bhrh2rcd13ifvqhug","pricing_plan_id":"cebpf4jnsgd1na2vs0mg"},{"bike_id":"accff9b7-3358-4a49-969f-55bcc7ec0efc","system_id":"levelo_inurba_marseille","lat":43.26679,"lon":5.3827,"is_reserved":false,"is_disabled":false,"rental_uris":{"android":"levelo://app?vid=accff9b7-3358-4a49-969f-55bcc7ec0efc","ios":"levelo://app?vid=accff9b7-3358-4a49-969f-55bcc7ec0efc"},"vehicle_type_id":"4","last_reported":1747056309,"current_range_meters":9200,"station_id":"ce4bhg92rcd13ifvqf90","pricing_plan_id":"cebpf4jnsgd1na2vs0mg"},{"bike_id":"da28b554-8b5b-4ca6-9f3b-f087512d379f","system_id":"levelo_inurba_marseille","lat":43.31381,"lon":5.36715,"is_reserved":false,"is_disabled":false,"rental_uris":{"android":"levelo://app?vid=da28b554-8b5b-4ca6-9f3b-f087512d379f","ios":"levelo://app?vid=da28b554-8b5b-4ca6-9f3b-f087512d379f"},"vehicle_type_id":"4","last_reported":1747056309,"current_range_meters":9600,"station_id":"ce4bgr92rcd13ifvqc6g","pricing_plan_id":"cebpf4jnsgd1na2vs0mg"},{"bike_id":"b0b8e085-965b-4548-acef-24fa5f5e1bdd","system_id":"levelo_inurba_marseille","lat":43.29737,"lon":5.37679,"is_reserved":false,"is_disabled":false,"rental_uris":{"android":"levelo://app?vid=b0b8e085-965b-4548-acef-24fa5f5e1bdd","ios":"levelo://app?vid=b0b8e085-965b-4548-acef-24fa5f5e1bdd"},"vehicle_type_id":"4","last_reported":1747056309,"current_range_meters":9600,"station_id":"ce4bgkh2rcd13ifvqbl0","pricing_plan_id":"cebpf4jnsgd1na2vs0mg"},{"bike_id":"4a49a4b4-c638-4630-a340-8f4450f99870","system_id":"levelo_inurba_marseille","lat":43.25499,"lon":5.37647,"is_reserved":false,"is_disabled":false,"rental_uris":{"android":"levelo://app?vid=4a49a4b4-c638-4630-a340-8f4450f99870","ios":"levelo://app?vid=4a49a4b4-c638-4630-a340-8f4450f99870"},"vehicle_type_id":"4","last_reported":1747056309,"current_range_meters":9600,"station_id":"ce4bhh12rcd13ifvqff0","pricing_plan_id":"cebpf4jnsgd1na2vs0mg"},{"bike_id":"a060e219-6f99-4056-8590-142ab5c58cea","system_id":"levelo_inurba_marseille","lat":43.28483,"lon":5.35889,"is_reserved":false,"is_disabled":false,"rental_uris":{"android":"levelo://app?vid=a060e219-6f99-4056-8590-142ab5c58cea","ios":"levelo://app?vid=a060e219-6f99-4056-8590-142ab5c58cea"},"vehicle_type_id":"4","last_reported":1747056309,"current_range_meters":9600,"station_id":"ce4bhah2rcd13ifvqei0","pricing_plan_id":"cebpf4jnsgd1na2vs0mg"},{"bike_id":"35e3443c-2006-4774-87bc-1962e4441f4f","system_id":"levelo_inurba_marseille","lat":43.30312,"lon":5.36899,"is_reserved":false,"is_disabled":false,"rental_uris":{"android":"levelo://app?vid=35e3443c-2006-4774-87bc-1962e4441f4f","ios":"levelo://app?vid=35e3443c-2006-4774-87bc-1962e4441f4f"},"vehicle_type_id":"4","last_reported":1747056309,"current_range_meters":9600,"station_id":"ce4bgqh2rcd13ifvqc5g","pricing_plan_id":"cebpf4jnsgd1na2vs0mg"},{"bike_id":"abc0e04c-7f1e-4931-9b6f-74fc7bc29610","system_id":"levelo_inurba_marseille","lat":43.29018,"lon":5.3864,"is_reserved":false,"is_disabled":false,"rental_uris":{"android":"levelo://app?vid=abc0e04c-7f1e-4931-9b6f-74fc7bc29610","ios":"levelo://app?vid=abc0e04c-7f1e-4931-9b6f-74fc7bc29610"},"vehicle_type_id":"4","last_reported":1747056309,"current_range_meters":9600,"station_id":"ce4bh4p2rcd13ifvqe0g","pricing_plan_id":"cebpf4jnsgd1na2vs0mg"},{"bike_id":"ca189185-ade3-4e36-aca6-40c71d0d16f2","system_id":"levelo_inurba_marseille","lat":43.30913,"lon":5.36844,"is_reserved":false,"is_disabled":false,"rental_uris":{"android":"levelo://app?vid=ca189185-ade3-4e36-aca6-40c71d0d16f2","ios":"levelo://app?vid=ca189185-ade3-4e36-aca6-40c71d0d16f2"},"vehicle_type_id":"4","last_reported":1747056309,"current_range_meters":9200,"station_id":"ce4bgn92rcd13ifvqbvg","pricing_plan_id":"cebpf4jnsgd1na2vs0mg"},{"bike_id":"dd667cea-639a-47aa-bfb5-4ec6b7a8027f","system_id":"levelo_inurba_marseille","lat":43.27334,"lon":5.39115,"is_reserved":false,"is_disabled":false,"rental_uris":{"android":"levelo://app?vid=dd667cea-639a-47aa-bfb5-4ec6b7a8027f","ios":"levelo://app?vid=dd667cea-639a-47aa-bfb5-4ec6b7a8027f"},"vehicle_type_id":"4","last_reported":1747056309,"current_range_meters":10000,"station_id":"ce4bhgp2rcd13ifvqfe0","pricing_plan_id":"cebpf4jnsgd1na2vs0mg"},{"bike_id":"3bcd288c-7bd6-4bf9-9a35-1a4ba91d43c5","system_id":"levelo_inurba_marseille","lat":43.28694,"lon":5.39996,"is_reserved":false,"is_disabled":false,"rental_uris":{"android":"levelo://app?vid=3bcd288c-7bd6-4bf9-9a35-1a4ba91d43c5","ios":"levelo://app?vid=3bcd288c-7bd6-4bf9-9a35-1a4ba91d43c5"},"vehicle_type_id":"4","last_reported":1747056309,"current_range_meters":10000,"station_id":"ce4bho92rcd13ifvqh3g","pricing_plan_id":"cebpf4jnsgd1na2vs0mg"},{"bike_id":"bbba9b2a-8e9d-4a1d-a5f2-90d259e41385","system_id":"levelo_inurba_marseille","lat":43.3176,"lon":5.39023,"is_reserved":false,"is_disabled":false,"rental_uris":{"android":"levelo://app?vid=bbba9b2a-8e9d-4a1d-a5f2-90d259e41385","ios":"levelo://app?vid=bbba9b2a-8e9d-4a1d-a5f2-90d259e41385"},"vehicle_type_id":"4","last_reported":1747056309,"current_range_meters":10000,"station_id":"ce4bhqp2rcd13ifvqhng","pricing_plan_id":"cebpf4jnsgd1na2vs0mg"},{"bike_id":"200e82a0-e0b6-482c-8076-a49308f1bdc2","system_id":"levelo_inurba_marseille","lat":43.29789,"lon":5.38098,"is_reserved":false,"is_disabled":false,"rental_uris":{"android":"levelo://app?vid=200e82a0-e0b6-482c-8076-a49308f1bdc2","ios":"levelo://app?vid=200e82a0-e0b6-482c-8076-a49308f1bdc2"},"vehicle_type_id":"4","last_reported":1747056309,"current_range_meters":10800,"station_id":"ce4bgip2rcd13ifvqbb0","pricing_plan_id":"cebpf4jnsgd1na2vs0mg"},{"bike_id":"0b3fc1f2-b856-4f39-bb34-74fe5962893b","system_id":"levelo_inurba_marseille","lat":43.2594,"lon":5.40891,"is_reserved":false,"is_disabled":false,"rental_uris":{"android":"levelo://app?vid=0b3fc1f2-b856-4f39-bb34-74fe5962893b","ios":"levelo://app?vid=0b3fc1f2-b856-4f39-bb34-74fe5962893b"},"vehicle_type_id":"4","last_reported":1747056309,"current_range_meters":10800,"station_id":"ce4bhm92rcd13ifvqglg","pricing_plan_id":"cebpf4jnsgd1na2vs0mg"},{"bike_id":"7bfa17d8-0e00-477f-92f8-97c4edc943c9","system_id":"levelo_inurba_marseille","lat":43.28371,"lon":5.38632,"is_reserved":false,"is_disabled":false,"rental_uris":{"android":"levelo://app?vid=7bfa17d8-0e00-477f-92f8-97c4edc943c9","ios":"levelo://app?vid=7bfa17d8-0e00-477f-92f8-97c4edc943c9"},"vehicle_type_id":"4","last_reported":1747056309,"current_range_meters":10800,"station_id":"ce4bh492rcd13ifvqdvg","pricing_plan_id":"cebpf4jnsgd1na2vs0mg"},{"bike_id":"2ee4d910-0ee1-4bc5-86c8-c77afad12b4f","system_id":"levelo_inurba_marseille","lat":43.32089,"lon":5.36768,"is_reserved":false,"is_disabled":false,"rental_uris":{"android":"levelo://app?vid=2ee4d910-0ee1-4bc5-86c8-c77afad12b4f","ios":"levelo://app?vid=2ee4d910-0ee1-4bc5-86c8-c77afad12b4f"},"vehicle_type_id":"4","last_reported":1747056309,"current_range_meters":10800,"station_id":"ce4bhrh2rcd13ifvqhug","pricing_plan_id":"cebpf4jnsgd1na2vs0mg"},{"bike_id":"31e3040e-565f-47bd-b1a2-2ef7c3667175","system_id":"levelo_inurba_marseille","lat":43.27998,"lon":5.41664,"is_reserved":false,"is_disabled":false,"rental_uris":{"android":"levelo://app?vid=31e3040e-565f-47bd-b1a2-2ef7c3667175","ios":"levelo://app?vid=31e3040e-565f-47bd-b1a2-2ef7c3667175"},"vehicle_type_id":"4","last_reported":1747056309,"current_range_meters":11200,"station_id":"ce4bho12rcd13ifvqh1g","pricing_plan_id":"cebpf4jnsgd1na2vs0mg"},{"bike_id":"78d94658-5627-4da6-ad19-6cf8aa3d47c3","system_id":"levelo_inurba_marseille","lat":43.28676,"lon":5.38659,"is_reserved":false,"is_disabled":false,"rental_uris":{"android":"levelo://app?vid=78d94658-5627-4da6-ad19-6cf8aa3d47c3","ios":"levelo://app?vid=78d94658-5627-4da6-ad19-6cf8aa3d47c3"},"vehicle_type_id":"4","last_reported":1747056309,"current_range_meters":11200,"station_id":"ce4bh492rcd13ifvqdug","pricing_plan_id":"cebpf4jnsgd1na2vs0mg"},{"bike_id":"2e03d7d5-efaa-423c-ab00-3c7da783c031","system_id":"levelo_inurba_marseille","lat":43.27812,"lon":5.40683,"is_reserved":false,"is_disabled":false,"rental_uris":{"android":"levelo://app?vid=2e03d7d5-efaa-423c-ab00-3c7da783c031","ios":"levelo://app?vid=2e03d7d5-efaa-423c-ab00-3c7da783c031"},"vehicle_type_id":"4","last_reported":1747056309,"current_range_meters":11200,"station_id":"ce4bhnh2rcd13ifvqgtg","pricing_plan_id":"cebpf4jnsgd1na2vs0mg"},{"bike_id":"d93fd260-2372-4e0d-a90b-b3619552ed76","system_id":"levelo_inurba_marseille","lat":43.297886,"lon":5.371129,"is_reserved":false,"is_disabled":false,"rental_uris":{"android":"levelo://app?vid=d93fd260-2372-4e0d-a90b-b3619552ed76","ios":"levelo://app?vid=d93fd260-2372-4e0d-a90b-b3619552ed76"},"vehicle_type_id":"4","last_reported":1747056309,"current_range_meters":11200,"station_id":"ce4bgop2rcd13ifvqc1g","pricing_plan_id":"cebpf4jnsgd1na2vs0mg"},{"bike_id":"5311c93f-9ead-4d8c-b835-1d3c4c7c82d8","system_id":"levelo_inurba_marseille","lat":43.27969,"lon":5.3874,"is_reserved":false,"is_disabled":false,"rental_uris":{"android":"levelo://app?vid=5311c93f-9ead-4d8c-b835-1d3c4c7c82d8","ios":"levelo://app?vid=5311c93f-9ead-4d8c-b835-1d3c4c7c82d8"},"vehicle_type_id":"4","last_reported":1747056309,"current_range_meters":11200,"station_id":"ce4bhg12rcd13ifvqf80","pricing_plan_id":"cebpf4jnsgd1na2vs0mg"},{"bike_id":"834b81d6-a251-4db6-9c29-dcf3c446e73a","system_id":"levelo_inurba_marseille","lat":43.32666,"lon":5.40996,"is_reserved":false,"is_disabled":false,"rental_uris":{"android":"levelo://app?vid=834b81d6-a251-4db6-9c29-dcf3c446e73a","ios":"levelo://app?vid=834b81d6-a251-4db6-9c29-dcf3c446e73a"},"vehicle_type_id":"4","last_reported":1747056309,"current_range_meters":11200,"station_id":"ce4bhpp2rcd13ifvqhgg","pricing_plan_id":"cebpf4jnsgd1na2vs0mg"},{"bike_id":"0bf31d40-2ad2-494c-afdd-13acdb3f7f8d","system_id":"levelo_inurba_marseille","lat":43.29559,"lon":5.42285,"is_reserved":false,"is_disabled":false,"rental_uris":{"android":"levelo://app?vid=0bf31d40-2ad2-494c-afdd-13acdb3f7f8d","ios":"levelo://app?vid=0bf31d40-2ad2-494c-afdd-13acdb3f7f8d"},"vehicle_type_id":"4","last_reported":1747056309,"current_range_meters":11600,"station_id":"ce4bhph2rcd13ifvqhdg","pricing_plan_id":"cebpf4jnsgd1na2vs0mg"},{"bike_id":"11e4597e-c0da-4b11-b293-5b1f7659f2d6","system_id":"levelo_inurba_marseille","lat":43.31387,"lon":5.36686,"is_reserved":false,"is_disabled":false,"rental_uris":{"android":"levelo://app?vid=11e4597e-c0da-4b11-b293-5b1f7659f2d6","ios":"levelo://app?vid=11e4597e-c0da-4b11-b293-5b1f7659f2d6"},"vehicle_type_id":"4","last_reported":1747056309,"current_range_meters":11600,"station_id":"ce4bgr92rcd13ifvqc6g","pricing_plan_id":"cebpf4jnsgd1na2vs0mg"},{"bike_id":"bda21f01-9d7d-4938-b4ce-bf048092b508","system_id":"levelo_inurba_marseille","lat":43.28941,"lon":5.38381,"is_reserved":false,"is_disabled":false,"rental_uris":{"android":"levelo://app?vid=bda21f01-9d7d-4938-b4ce-bf048092b508","ios":"levelo://app?vid=bda21f01-9d7d-4938-b4ce-bf048092b508"},"vehicle_type_id":"4","last_reported":1747056309,"current_range_meters":11600,"station_id":"ce4bh612rcd13ifvqe6g","pricing_plan_id":"cebpf4jnsgd1na2vs0mg"},{"bike_id":"055bdd2b-8f21-44fb-978c-5bf431e02d1f","system_id":"levelo_inurba_marseille","lat":43.30793,"lon":5.37649,"is_reserved":false,"is_disabled":false,"rental_uris":{"android":"levelo://app?vid=055bdd2b-8f21-44fb-978c-5bf431e02d1f","ios":"levelo://app?vid=055bdd2b-8f21-44fb-978c-5bf431e02d1f"},"vehicle_type_id":"4","last_reported":1747056309,"current_range_meters":11200,"station_id":"ce4bgv92rcd13ifvqcq0","pricing_plan_id":"cebpf4jnsgd1na2vs0mg"},{"bike_id":"c80b297b-ce2e-42dc-bcae-678f2b2e12b1","system_id":"levelo_inurba_marseille","lat":43.30789,"lon":5.38162,"is_reserved":false,"is_disabled":false,"rental_uris":{"android":"levelo://app?vid=c80b297b-ce2e-42dc-bcae-678f2b2e12b1","ios":"levelo://app?vid=c80b297b-ce2e-42dc-bcae-678f2b2e12b1"},"vehicle_type_id":"4","last_reported":1747056309,"current_range_meters":11600,"station_id":"ce4bgt12rcd13ifvqce0","pricing_plan_id":"cebpf4jnsgd1na2vs0mg"},{"bike_id":"dca696d5-5f93-425f-a0d2-e72fd777d3e0","system_id":"levelo_inurba_marseille","lat":43.26232,"lon":5.40448,"is_reserved":false,"is_disabled":false,"rental_uris":{"android":"levelo://app?vid=dca696d5-5f93-425f-a0d2-e72fd777d3e0","ios":"levelo://app?vid=dca696d5-5f93-425f-a0d2-e72fd777d3e0"},"vehicle_type_id":"4","last_reported":1747056309,"current_range_meters":11600,"station_id":"ce4bhmh2rcd13ifvqgmg","pricing_plan_id":"cebpf4jnsgd1na2vs0mg"},{"bike_id":"c717b955-1d23-42a6-bf63-f39e0d9342dd","system_id":"levelo_inurba_marseille","lat":43.28286,"lon":5.4308,"is_reserved":false,"is_disabled":false,"rental_uris":{"android":"levelo://app?vid=c717b955-1d23-42a6-bf63-f39e0d9342dd","ios":"levelo://app?vid=c717b955-1d23-42a6-bf63-f39e0d9342dd"},"vehicle_type_id":"4","last_reported":1747056309,"current_range_meters":11600,"station_id":"","pricing_plan_id":"cebpf4jnsgd1na2vs0mg"},{"bike_id":"515bb9bf-628e-4241-bab8-f92638bfff4a","system_id":"levelo_inurba_marseille","lat":43.32537,"lon":5.41444,"is_reserved":false,"is_disabled":false,"rental_uris":{"android":"levelo://app?vid=515bb9bf-628e-4241-bab8-f92638bfff4a","ios":"levelo://app?vid=515bb9bf-628e-4241-bab8-f92638bfff4a"},"vehicle_type_id":"4","last_reported":1747056309,"current_range_meters":12000,"station_id":"ce4bhq12rcd13ifvqhhg","pricing_plan_id":"cebpf4jnsgd1na2vs0mg"},{"bike_id":"288448a0-ad80-49ee-be33-1af3c7f0a55f","system_id":"levelo_inurba_marseille","lat":43.29547,"lon":5.375,"is_reserved":false,"is_disabled":false,"rental_uris":{"android":"levelo://app?vid=288448a0-ad80-49ee-be33-1af3c7f0a55f","ios":"levelo://app?vid=288448a0-ad80-49ee-be33-1af3c7f0a55f"},"vehicle_type_id":"4","last_reported":1747056309,"current_range_meters":12000,"station_id":"ce4bgkp2rcd13ifvqbmg","pricing_plan_id":"cebpf4jnsgd1na2vs0mg"},{"bike_id":"d4740293-18c1-49e6-8b5f-a6b1e7cc01eb","system_id":"levelo_inurba_marseille","lat":43.29252,"lon":5.40912,"is_reserved":false,"is_disabled":false,"rental_uris":{"android":"levelo://app?vid=d4740293-18c1-49e6-8b5f-a6b1e7cc01eb","ios":"levelo://app?vid=d4740293-18c1-49e6-8b5f-a6b1e7cc01eb"},"vehicle_type_id":"4","last_reported":1747056309,"current_range_meters":12000,"station_id":"ce4bh192rcd13ifvqdc0","pricing_plan_id":"cebpf4jnsgd1na2vs0mg"},{"bike_id":"0a4dc782-e1df-48ff-81bf-b707284fe935","system_id":"levelo_inurba_marseille","lat":43.284119,"lon":5.349688,"is_reserved":false,"is_disabled":false,"rental_uris":{"android":"levelo://app?vid=0a4dc782-e1df-48ff-81bf-b707284fe935","ios":"levelo://app?vid=0a4dc782-e1df-48ff-81bf-b707284fe935"},"vehicle_type_id":"4","last_reported":1747056309,"current_range_meters":12400,"station_id":"ce4bhbh2rcd13ifvqepg","pricing_plan_id":"cebpf4jnsgd1na2vs0mg"},{"bike_id":"1ca19b12-6c81-4f88-ae4e-026cc2659981","system_id":"levelo_inurba_marseille","lat":43.29166,"lon":5.37168,"is_reserved":false,"is_disabled":false,"rental_uris":{"android":"levelo://app?vid=1ca19b12-6c81-4f88-ae4e-026cc2659981","ios":"levelo://app?vid=1ca19b12-6c81-4f88-ae4e-026cc2659981"},"vehicle_type_id":"4","last_reported":1747056309,"current_range_meters":12400,"station_id":"ce4bha92rcd13ifvqeh0","pricing_plan_id":"cebpf4jnsgd1na2vs0mg"},{"bike_id":"c58f5b4c-a81d-45cd-8932-533fb8088e65","system_id":"levelo_inurba_marseille","lat":43.28431,"lon":5.34988,"is_reserved":false,"is_disabled":false,"rental_uris":{"android":"levelo://app?vid=c58f5b4c-a81d-45cd-8932-533fb8088e65","ios":"levelo://app?vid=c58f5b4c-a81d-45cd-8932-533fb8088e65"},"vehicle_type_id":"4","last_reported":1747056309,"current_range_meters":12800,"station_id":"ce4bhbh2rcd13ifvqepg","pricing_plan_id":"cebpf4jnsgd1na2vs0mg"},{"bike_id":"a76f8dbc-36ae-4739-beda-389cad74c86f","system_id":"levelo_inurba_marseille","lat":43.24804,"lon":5.37451,"is_reserved":false,"is_disabled":false,"rental_uris":{"android":"levelo://app?vid=a76f8dbc-36ae-4739-beda-389cad74c86f","ios":"levelo://app?vid=a76f8dbc-36ae-4739-beda-389cad74c86f"},"vehicle_type_id":"4","last_reported":1747056309,"current_range_meters":12800,"station_id":"ce4bhgh2rcd13ifvqfb0","pricing_plan_id":"cebpf4jnsgd1na2vs0mg"},{"bike_id":"09667552-604c-472f-b05c-2be0e1fd2bf4","system_id":"levelo_inurba_marseille","lat":43.280327,"lon":5.369513,"is_reserved":false,"is_disabled":false,"rental_uris":{"android":"levelo://app?vid=09667552-604c-472f-b05c-2be0e1fd2bf4","ios":"levelo://app?vid=09667552-604c-472f-b05c-2be0e1fd2bf4"},"vehicle_type_id":"4","last_reported":1747056309,"current_range_meters":12800,"station_id":"ce4bha12rcd13ifvqef0","pricing_plan_id":"cebpf4jnsgd1na2vs0mg"},{"bike_id":"530d5204-1d9d-4f9b-93e3-bfc7e4273b62","system_id":"levelo_inurba_marseille","lat":43.27971,"lon":5.38723,"is_reserved":false,"is_disabled":false,"rental_uris":{"android":"levelo://app?vid=530d5204-1d9d-4f9b-93e3-bfc7e4273b62","ios":"levelo://app?vid=530d5204-1d9d-4f9b-93e3-bfc7e4273b62"},"vehicle_type_id":"4","last_reported":1747056309,"current_range_meters":12800,"station_id":"ce4bhg12rcd13ifvqf80","pricing_plan_id":"cebpf4jnsgd1na2vs0mg"},{"bike_id":"0237037e-fb13-4dc6-a82c-6c629fb0b734","system_id":"levelo_inurba_marseille","lat":43.24387,"lon":5.37055,"is_reserved":false,"is_disabled":false,"rental_uris":{"android":"levelo://app?vid=0237037e-fb13-4dc6-a82c-6c629fb0b734","ios":"levelo://app?vid=0237037e-fb13-4dc6-a82c-6c629fb0b734"},"vehicle_type_id":"4","last_reported":1747056309,"current_range_meters":12800,"station_id":"ce4bhhh2rcd13ifvqfk0","pricing_plan_id":"cebpf4jnsgd1na2vs0mg"},{"bike_id":"7784d5e1-1017-4788-92d9-09077da543ff","system_id":"levelo_inurba_marseille","lat":43.29937,"lon":5.41326,"is_reserved":false,"is_disabled":false,"rental_uris":{"android":"levelo://app?vid=7784d5e1-1017-4788-92d9-09077da543ff","ios":"levelo://app?vid=7784d5e1-1017-4788-92d9-09077da543ff"},"vehicle_type_id":"4","last_reported":1747056309,"current_range_meters":12400,"station_id":"ce4bhp12rcd13ifvqh9g","pricing_plan_id":"cebpf4jnsgd1na2vs0mg"},{"bike_id":"d8b5c627-39ea-4cad-bf47-c107441d6c99","system_id":"levelo_inurba_marseille","lat":43.28975,"lon":5.37835,"is_reserved":false,"is_disabled":false,"rental_uris":{"android":"levelo://app?vid=d8b5c627-39ea-4cad-bf47-c107441d6c99","ios":"levelo://app?vid=d8b5c627-39ea-4cad-bf47-c107441d6c99"},"vehicle_type_id":"4","last_reported":1747056309,"current_range_meters":13600,"station_id":"ce4bh9p2rcd13ifvqed0","pricing_plan_id":"cebpf4jnsgd1na2vs0mg"},{"bike_id":"2426c398-e9ff-4bc6-af2e-6b6e8459674c","system_id":"levelo_inurba_marseille","lat":43.284119,"lon":5.349752,"is_reserved":false,"is_disabled":false,"rental_uris":{"android":"levelo://app?vid=2426c398-e9ff-4bc6-af2e-6b6e8459674c","ios":"levelo://app?vid=2426c398-e9ff-4bc6-af2e-6b6e8459674c"},"vehicle_type_id":"4","last_reported":1747056309,"current_range_meters":13600,"station_id":"ce4bhbh2rcd13ifvqepg","pricing_plan_id":"cebpf4jnsgd1na2vs0mg"},{"bike_id":"884a25d6-d46c-4f59-9aa9-cdb93860a6c8","system_id":"levelo_inurba_marseille","lat":43.28362,"lon":5.38633,"is_reserved":false,"is_disabled":false,"rental_uris":{"android":"levelo://app?vid=884a25d6-d46c-4f59-9aa9-cdb93860a6c8","ios":"levelo://app?vid=884a25d6-d46c-4f59-9aa9-cdb93860a6c8"},"vehicle_type_id":"4","last_reported":1747056309,"current_range_meters":13600,"station_id":"ce4bh492rcd13ifvqdvg","pricing_plan_id":"cebpf4jnsgd1na2vs0mg"},{"bike_id":"ec2d1924-153c-4381-bd7a-d1274f2a248a","system_id":"levelo_inurba_marseille","lat":43.24168,"lon":5.36392,"is_reserved":false,"is_disabled":false,"rental_uris":{"android":"levelo://app?vid=ec2d1924-153c-4381-bd7a-d1274f2a248a","ios":"levelo://app?vid=ec2d1924-153c-4381-bd7a-d1274f2a248a"},"vehicle_type_id":"4","last_reported":1747056309,"current_range_meters":14000,"station_id":"cpo36qri1sfpv3e86is0","pricing_plan_id":"cebpf4jnsgd1na2vs0mg"},{"bike_id":"d181730f-abb7-4b30-ad1c-91103f2aca50","system_id":"levelo_inurba_marseille","lat":43.2465,"lon":5.38889,"is_reserved":false,"is_disabled":false,"rental_uris":{"android":"levelo://app?vid=d181730f-abb7-4b30-ad1c-91103f2aca50","ios":"levelo://app?vid=d181730f-abb7-4b30-ad1c-91103f2aca50"},"vehicle_type_id":"4","last_reported":1747056309,"current_range_meters":13600,"station_id":"ce4bhg12rcd13ifvqf60","pricing_plan_id":"cebpf4jnsgd1na2vs0mg"},{"bike_id":"ff18ac90-8ccf-4e4f-928c-aaabf696cb78","system_id":"levelo_inurba_marseille","lat":43.28412,"lon":5.34978,"is_reserved":false,"is_disabled":false,"rental_uris":{"android":"levelo://app?vid=ff18ac90-8ccf-4e4f-928c-aaabf696cb78","ios":"levelo://app?vid=ff18ac90-8ccf-4e4f-928c-aaabf696cb78"},"vehicle_type_id":"4","last_reported":1747056309,"current_range_meters":14000,"station_id":"ce4bhbh2rcd13ifvqepg","pricing_plan_id":"cebpf4jnsgd1na2vs0mg"},{"bike_id":"a000f736-8505-45d3-bbd2-3599fb51dbac","system_id":"levelo_inurba_marseille","lat":43.29903,"lon":5.38157,"is_reserved":false,"is_disabled":false,"rental_uris":{"android":"levelo://app?vid=a000f736-8505-45d3-bbd2-3599fb51dbac","ios":"levelo://app?vid=a000f736-8505-45d3-bbd2-3599fb51dbac"},"vehicle_type_id":"4","last_reported":1747056309,"current_range_meters":13600,"station_id":"ce4bgj12rcd13ifvqbc0","pricing_plan_id":"cebpf4jnsgd1na2vs0mg"},{"bike_id":"e84f945b-eb65-4a43-b861-2a61d3a5a3ef","system_id":"levelo_inurba_marseille","lat":43.24389,"lon":5.37061,"is_reserved":false,"is_disabled":false,"rental_uris":{"android":"levelo://app?vid=e84f945b-eb65-4a43-b861-2a61d3a5a3ef","ios":"levelo://app?vid=e84f945b-eb65-4a43-b861-2a61d3a5a3ef"},"vehicle_type_id":"4","last_reported":1747056309,"current_range_meters":14800,"station_id":"ce4bhhh2rcd13ifvqfk0","pricing_plan_id":"cebpf4jnsgd1na2vs0mg"},{"bike_id":"5734429c-2339-40fc-b1fd-59cf15866ef1","system_id":"levelo_inurba_marseille","lat":43.30304,"lon":5.36891,"is_reserved":false,"is_disabled":false,"rental_uris":{"android":"levelo://app?vid=5734429c-2339-40fc-b1fd-59cf15866ef1","ios":"levelo://app?vid=5734429c-2339-40fc-b1fd-59cf15866ef1"},"vehicle_type_id":"4","last_reported":1747056309,"current_range_meters":14000,"station_id":"ce4bgqh2rcd13ifvqc5g","pricing_plan_id":"cebpf4jnsgd1na2vs0mg"},{"bike_id":"edb4a904-1bc2-45eb-a149-5a6e188a207a","system_id":"levelo_inurba_marseille","lat":43.32373,"lon":5.36774,"is_reserved":false,"is_disabled":false,"rental_uris":{"android":"levelo://app?vid=edb4a904-1bc2-45eb-a149-5a6e188a207a","ios":"levelo://app?vid=edb4a904-1bc2-45eb-a149-5a6e188a207a"},"vehicle_type_id":"4","last_reported":1747056309,"current_range_meters":14400,"station_id":"ce4bhsh2rcd13ifvqi2g","pricing_plan_id":"cebpf4jnsgd1na2vs0mg"},{"bike_id":"fc8890f4-4388-45df-a327-ba03d14caef2","system_id":"levelo_inurba_marseille","lat":43.24167,"lon":5.36443,"is_reserved":false,"is_disabled":false,"rental_uris":{"android":"levelo://app?vid=fc8890f4-4388-45df-a327-ba03d14caef2","ios":"levelo://app?vid=fc8890f4-4388-45df-a327-ba03d14caef2"},"vehicle_type_id":"4","last_reported":1747056309,"current_range_meters":14400,"station_id":"cpo36qri1sfpv3e86is0","pricing_plan_id":"cebpf4jnsgd1na2vs0mg"},{"bike_id":"4b9c1b37-b51f-45ed-82ba-523e9795d338","system_id":"levelo_inurba_marseille","lat":43.33719,"lon":5.39193,"is_reserved":false,"is_disabled":false,"rental_uris":{"android":"levelo://app?vid=4b9c1b37-b51f-45ed-82ba-523e9795d338","ios":"levelo://app?vid=4b9c1b37-b51f-45ed-82ba-523e9795d338"},"vehicle_type_id":"4","last_reported":1747056309,"current_range_meters":14400,"station_id":"ce4bhr92rcd13ifvqhsg","pricing_plan_id":"cebpf4jnsgd1na2vs0mg"},{"bike_id":"a68ef539-b508-47fe-b9d5-e9bdcaf82503","system_id":"levelo_inurba_marseille","lat":43.23193,"lon":5.35547,"is_reserved":false,"is_disabled":false,"rental_uris":{"android":"levelo://app?vid=a68ef539-b508-47fe-b9d5-e9bdcaf82503","ios":"levelo://app?vid=a68ef539-b508-47fe-b9d5-e9bdcaf82503"},"vehicle_type_id":"4","last_reported":1747056309,"current_range_meters":14800,"station_id":"ce4bhu92rcd13ifvqi70","pricing_plan_id":"cebpf4jnsgd1na2vs0mg"},{"bike_id":"9e1c130e-bd68-43fe-b1ed-4cd994eb3570","system_id":"levelo_inurba_marseille","lat":43.30598,"lon":5.37237,"is_reserved":false,"is_disabled":false,"rental_uris":{"android":"levelo://app?vid=9e1c130e-bd68-43fe-b1ed-4cd994eb3570","ios":"levelo://app?vid=9e1c130e-bd68-43fe-b1ed-4cd994eb3570"},"vehicle_type_id":"4","last_reported":1747056309,"current_range_meters":15200,"station_id":"ce4bgqh2rcd13ifvqc4g","pricing_plan_id":"cebpf4jnsgd1na2vs0mg"},{"bike_id":"7a686af5-f746-4288-ba1d-56e97a7cbe4f","system_id":"levelo_inurba_marseille","lat":43.28473,"lon":5.38414,"is_reserved":false,"is_disabled":false,"rental_uris":{"android":"levelo://app?vid=7a686af5-f746-4288-ba1d-56e97a7cbe4f","ios":"levelo://app?vid=7a686af5-f746-4288-ba1d-56e97a7cbe4f"},"vehicle_type_id":"4","last_reported":1747056309,"current_range_meters":15200,"station_id":"ce4bh512rcd13ifvqe3g","pricing_plan_id":"cebpf4jnsgd1na2vs0mg"},{"bike_id":"c1b45b93-0a35-4113-9619-1cd6a90d8dd1","system_id":"levelo_inurba_marseille","lat":43.30769,"lon":5.36835,"is_reserved":false,"is_disabled":false,"rental_uris":{"android":"levelo://app?vid=c1b45b93-0a35-4113-9619-1cd6a90d8dd1","ios":"levelo://app?vid=c1b45b93-0a35-4113-9619-1cd6a90d8dd1"},"vehicle_type_id":"4","last_reported":1747056309,"current_range_meters":15200,"station_id":"","pricing_plan_id":"cebpf4jnsgd1na2vs0mg"},{"bike_id":"27ad4924-d31d-4164-96bb-590bc1e25b86","system_id":"levelo_inurba_marseille","lat":43.23964,"lon":5.36631,"is_reserved":false,"is_disabled":false,"rental_uris":{"android":"levelo://app?vid=27ad4924-d31d-4164-96bb-590bc1e25b86","ios":"levelo://app?vid=27ad4924-d31d-4164-96bb-590bc1e25b86"},"vehicle_type_id":"4","last_reported":1747056309,"current_range_meters":15200,"station_id":"ce4bhi12rcd13ifvqfp0","pricing_plan_id":"cebpf4jnsgd1na2vs0mg"},{"bike_id":"5d583850-9b53-449c-be7c-f8211fb898d0","system_id":"levelo_inurba_marseille","lat":43.28289,"lon":5.35096,"is_reserved":false,"is_disabled":false,"rental_uris":{"android":"levelo://app?vid=5d583850-9b53-449c-be7c-f8211fb898d0","ios":"levelo://app?vid=5d583850-9b53-449c-be7c-f8211fb898d0"},"vehicle_type_id":"4","last_reported":1747056309,"current_range_meters":15200,"station_id":"ce4bhbp2rcd13ifvqerg","pricing_plan_id":"cebpf4jnsgd1na2vs0mg"},{"bike_id":"df01cb60-1cd9-4b86-9856-b5cac2542eb4","system_id":"levelo_inurba_marseille","lat":43.31327,"lon":5.39689,"is_reserved":false,"is_disabled":false,"rental_uris":{"android":"levelo://app?vid=df01cb60-1cd9-4b86-9856-b5cac2542eb4","ios":"levelo://app?vid=df01cb60-1cd9-4b86-9856-b5cac2542eb4"},"vehicle_type_id":"4","last_reported":1747056309,"current_range_meters":15200,"station_id":"ce4bgvp2rcd13ifvqcu0","pricing_plan_id":"cebpf4jnsgd1na2vs0mg"},{"bike_id":"15a09f7b-553b-4787-b1f5-3af839031baf","system_id":"levelo_inurba_marseille","lat":43.299153,"lon":5.374597,"is_reserved":false,"is_disabled":false,"rental_uris":{"android":"levelo://app?vid=15a09f7b-553b-4787-b1f5-3af839031baf","ios":"levelo://app?vid=15a09f7b-553b-4787-b1f5-3af839031baf"},"vehicle_type_id":"4","last_reported":1747056309,"current_range_meters":15200,"station_id":"ce4bgjh2rcd13ifvqbg0","pricing_plan_id":"cebpf4jnsgd1na2vs0mg"},{"bike_id":"04b782bd-7fbd-4c6b-818f-54ad2a3e896e","system_id":"levelo_inurba_marseille","lat":43.31362,"lon":5.38502,"is_reserved":false,"is_disabled":false,"rental_uris":{"android":"levelo://app?vid=04b782bd-7fbd-4c6b-818f-54ad2a3e896e","ios":"levelo://app?vid=04b782bd-7fbd-4c6b-818f-54ad2a3e896e"},"vehicle_type_id":"4","last_reported":1747056309,"current_range_meters":16000,"station_id":"ce4bgt92rcd13ifvqcf0","pricing_plan_id":"cebpf4jnsgd1na2vs0mg"},{"bike_id":"f69257da-8878-41a7-b8f6-c7f02aa7ae1d","system_id":"levelo_inurba_marseille","lat":43.25923,"lon":5.40917,"is_reserved":false,"is_disabled":false,"rental_uris":{"android":"levelo://app?vid=f69257da-8878-41a7-b8f6-c7f02aa7ae1d","ios":"levelo://app?vid=f69257da-8878-41a7-b8f6-c7f02aa7ae1d"},"vehicle_type_id":"4","last_reported":1747056309,"current_range_meters":16400,"station_id":"ce4bhm92rcd13ifvqglg","pricing_plan_id":"cebpf4jnsgd1na2vs0mg"},{"bike_id":"eb767e88-6295-48d1-a97b-e16850f55f82","system_id":"levelo_inurba_marseille","lat":43.31123,"lon":5.37779,"is_reserved":false,"is_disabled":false,"rental_uris":{"android":"levelo://app?vid=eb767e88-6295-48d1-a97b-e16850f55f82","ios":"levelo://app?vid=eb767e88-6295-48d1-a97b-e16850f55f82"},"vehicle_type_id":"4","last_reported":1747056309,"current_range_meters":16000,"station_id":"ce4bgt92rcd13ifvqcg0","pricing_plan_id":"cebpf4jnsgd1na2vs0mg"},{"bike_id":"04be18fb-28f2-4aaa-a90a-6b195a3f55a8","system_id":"levelo_inurba_marseille","lat":43.284119,"lon":5.349696,"is_reserved":false,"is_disabled":false,"rental_uris":{"android":"levelo://app?vid=04be18fb-28f2-4aaa-a90a-6b195a3f55a8","ios":"levelo://app?vid=04be18fb-28f2-4aaa-a90a-6b195a3f55a8"},"vehicle_type_id":"4","last_reported":1747056309,"current_range_meters":16400,"station_id":"ce4bhbh2rcd13ifvqepg","pricing_plan_id":"cebpf4jnsgd1na2vs0mg"},{"bike_id":"a96725a9-2600-4506-8065-d1b9351247d3","system_id":"levelo_inurba_marseille","lat":43.29023,"lon":5.35591,"is_reserved":false,"is_disabled":false,"rental_uris":{"android":"levelo://app?vid=a96725a9-2600-4506-8065-d1b9351247d3","ios":"levelo://app?vid=a96725a9-2600-4506-8065-d1b9351247d3"},"vehicle_type_id":"4","last_reported":1747056309,"current_range_meters":16400,"station_id":"ce4bhb92rcd13ifvqen0","pricing_plan_id":"cebpf4jnsgd1na2vs0mg"},{"bike_id":"e5987bd1-0c5b-49f5-834a-5c953ba56a55","system_id":"levelo_inurba_marseille","lat":43.3015,"lon":5.38089,"is_reserved":false,"is_disabled":false,"rental_uris":{"android":"levelo://app?vid=e5987bd1-0c5b-49f5-834a-5c953ba56a55","ios":"levelo://app?vid=e5987bd1-0c5b-49f5-834a-5c953ba56a55"},"vehicle_type_id":"4","last_reported":1747056309,"current_range_meters":16400,"station_id":"ce4bgjp2rcd13ifvqbh0","pricing_plan_id":"cebpf4jnsgd1na2vs0mg"},{"bike_id":"7c824c81-856f-470d-8396-09c8096dc1a2","system_id":"levelo_inurba_marseille","lat":43.30428,"lon":5.38886,"is_reserved":false,"is_disabled":false,"rental_uris":{"android":"levelo://app?vid=7c824c81-856f-470d-8396-09c8096dc1a2","ios":"levelo://app?vid=7c824c81-856f-470d-8396-09c8096dc1a2"},"vehicle_type_id":"4","last_reported":1747056309,"current_range_meters":16800,"station_id":"ce4bgk12rcd13ifvqbi0","pricing_plan_id":"cebpf4jnsgd1na2vs0mg"},{"bike_id":"271c5912-31ce-4676-b35e-cdb23c727367","system_id":"levelo_inurba_marseille","lat":43.26802,"lon":5.40257,"is_reserved":false,"is_disabled":false,"rental_uris":{"android":"levelo://app?vid=271c5912-31ce-4676-b35e-cdb23c727367","ios":"levelo://app?vid=271c5912-31ce-4676-b35e-cdb23c727367"},"vehicle_type_id":"4","last_reported":1747056309,"current_range_meters":16800,"station_id":"ce501612rcd8frsf0b60","pricing_plan_id":"cebpf4jnsgd1na2vs0mg"},{"bike_id":"cc29baf0-d52f-47bb-b6d2-0571528c0842","system_id":"levelo_inurba_marseille","lat":43.295526,"lon":5.399565,"is_reserved":false,"is_disabled":false,"rental_uris":{"android":"levelo://app?vid=cc29baf0-d52f-47bb-b6d2-0571528c0842","ios":"levelo://app?vid=cc29baf0-d52f-47bb-b6d2-0571528c0842"},"vehicle_type_id":"4","last_reported":1747056309,"current_range_meters":16800,"station_id":"ce4bh312rcd13ifvqdj0","pricing_plan_id":"cebpf4jnsgd1na2vs0mg"},{"bike_id":"2aeca25e-88ec-49c3-a3e4-c4a8595ea415","system_id":"levelo_inurba_marseille","lat":43.3089,"lon":5.39621,"is_reserved":false,"is_disabled":true,"rental_uris":{"android":"levelo://app?vid=2aeca25e-88ec-49c3-a3e4-c4a8595ea415","ios":"levelo://app?vid=2aeca25e-88ec-49c3-a3e4-c4a8595ea415"},"vehicle_type_id":"4","last_reported":1747056309,"current_range_meters":17200,"station_id":"ce4bh012rcd13ifvqcv0","pricing_plan_id":"cebpf4jnsgd1na2vs0mg"},{"bike_id":"9070461e-8b6b-4090-ad90-e8030643a930","system_id":"levelo_inurba_marseille","lat":43.291988,"lon":5.358,"is_reserved":false,"is_disabled":false,"rental_uris":{"android":"levelo://app?vid=9070461e-8b6b-4090-ad90-e8030643a930","ios":"levelo://app?vid=9070461e-8b6b-4090-ad90-e8030643a930"},"vehicle_type_id":"4","last_reported":1747056309,"current_range_meters":17200,"station_id":"ce4bhb12rcd13ifvqel0","pricing_plan_id":"cebpf4jnsgd1na2vs0mg"},{"bike_id":"dcff86c8-70be-418a-877f-23036e34e8e6","system_id":"levelo_inurba_marseille","lat":43.245789,"lon":5.395183,"is_reserved":false,"is_disabled":false,"rental_uris":{"android":"levelo://app?vid=dcff86c8-70be-418a-877f-23036e34e8e6","ios":"levelo://app?vid=dcff86c8-70be-418a-877f-23036e34e8e6"},"vehicle_type_id":"4","last_reported":1747056309,"current_range_meters":17200,"station_id":"ce4bhu92rcd13ifvqi70","pricing_plan_id":"cebpf4jnsgd1na2vs0mg"},{"bike_id":"df595446-0233-46f1-a8a2-b83d8878b337","system_id":"levelo_inurba_marseille","lat":43.30421,"lon":5.39746,"is_reserved":false,"is_disabled":false,"rental_uris":{"android":"levelo://app?vid=df595446-0233-46f1-a8a2-b83d8878b337","ios":"levelo://app?vid=df595446-0233-46f1-a8a2-b83d8878b337"},"vehicle_type_id":"4","last_reported":1747056309,"current_range_meters":17200,"station_id":"ce4bh092rcd13ifvqd20","pricing_plan_id":"cebpf4jnsgd1na2vs0mg"},{"bike_id":"a28a91d3-f4d5-4e53-93f5-7e55e32016b9","system_id":"levelo_inurba_marseille","lat":43.29279,"lon":5.36844,"is_reserved":false,"is_disabled":false,"rental_uris":{"android":"levelo://app?vid=a28a91d3-f4d5-4e53-93f5-7e55e32016b9","ios":"levelo://app?vid=a28a91d3-f4d5-4e53-93f5-7e55e32016b9"},"vehicle_type_id":"4","last_reported":1747056309,"current_range_meters":17200,"station_id":"ce4bhbp2rcd13ifvqesg","pricing_plan_id":"cebpf4jnsgd1na2vs0mg"},{"bike_id":"fc6e693c-992c-41f9-b827-1151421c293f","system_id":"levelo_inurba_marseille","lat":43.25954,"lon":5.40909,"is_reserved":false,"is_disabled":false,"rental_uris":{"android":"levelo://app?vid=fc6e693c-992c-41f9-b827-1151421c293f","ios":"levelo://app?vid=fc6e693c-992c-41f9-b827-1151421c293f"},"vehicle_type_id":"4","last_reported":1747056309,"current_range_meters":17200,"station_id":"ce4bhm92rcd13ifvqglg","pricing_plan_id":"cebpf4jnsgd1na2vs0mg"},{"bike_id":"f8dc9e04-d2ee-4752-9e41-df75a435cdb1","system_id":"levelo_inurba_marseille","lat":43.32536,"lon":5.41463,"is_reserved":false,"is_disabled":false,"rental_uris":{"android":"levelo://app?vid=f8dc9e04-d2ee-4752-9e41-df75a435cdb1","ios":"levelo://app?vid=f8dc9e04-d2ee-4752-9e41-df75a435cdb1"},"vehicle_type_id":"4","last_reported":1747056309,"current_range_meters":17600,"station_id":"ce4bhq12rcd13ifvqhhg","pricing_plan_id":"cebpf4jnsgd1na2vs0mg"},{"bike_id":"1432255f-a008-4938-9e87-ee75ae7d0424","system_id":"levelo_inurba_marseille","lat":43.23965,"lon":5.36634,"is_reserved":false,"is_disabled":false,"rental_uris":{"android":"levelo://app?vid=1432255f-a008-4938-9e87-ee75ae7d0424","ios":"levelo://app?vid=1432255f-a008-4938-9e87-ee75ae7d0424"},"vehicle_type_id":"4","last_reported":1747056309,"current_range_meters":17600,"station_id":"ce4bhi12rcd13ifvqfp0","pricing_plan_id":"cebpf4jnsgd1na2vs0mg"},{"bike_id":"c978340a-5264-4247-9e69-0b8a6f5cc527","system_id":"levelo_inurba_marseille","lat":43.30162,"lon":5.3808,"is_reserved":false,"is_disabled":false,"rental_uris":{"android":"levelo://app?vid=c978340a-5264-4247-9e69-0b8a6f5cc527","ios":"levelo://app?vid=c978340a-5264-4247-9e69-0b8a6f5cc527"},"vehicle_type_id":"4","last_reported":1747056309,"current_range_meters":17200,"station_id":"ce4bgjp2rcd13ifvqbh0","pricing_plan_id":"cebpf4jnsgd1na2vs0mg"},{"bike_id":"111998c6-70e8-4823-85aa-cbe0eb12546b","system_id":"levelo_inurba_marseille","lat":43.284069,"lon":5.349649,"is_reserved":false,"is_disabled":false,"rental_uris":{"android":"levelo://app?vid=111998c6-70e8-4823-85aa-cbe0eb12546b","ios":"levelo://app?vid=111998c6-70e8-4823-85aa-cbe0eb12546b"},"vehicle_type_id":"4","last_reported":1747056309,"current_range_meters":17600,"station_id":"ce4bhch2rcd13ifvqeug","pricing_plan_id":"cebpf4jnsgd1na2vs0mg"},{"bike_id":"24e24aa5-8a37-4061-851c-5c74d2268ec3","system_id":"levelo_inurba_marseille","lat":43.3053,"lon":5.36549,"is_reserved":false,"is_disabled":false,"rental_uris":{"android":"levelo://app?vid=24e24aa5-8a37-4061-851c-5c74d2268ec3","ios":"levelo://app?vid=24e24aa5-8a37-4061-851c-5c74d2268ec3"},"vehicle_type_id":"4","last_reported":1747056309,"current_range_meters":17600,"station_id":"ce4bgs12rcd13ifvqcag","pricing_plan_id":"cebpf4jnsgd1na2vs0mg"},{"bike_id":"f76d5f8e-4ab6-436a-a7f9-60c3585bc8b0","system_id":"levelo_inurba_marseille","lat":43.30792,"lon":5.3816,"is_reserved":false,"is_disabled":false,"rental_uris":{"android":"levelo://app?vid=f76d5f8e-4ab6-436a-a7f9-60c3585bc8b0","ios":"levelo://app?vid=f76d5f8e-4ab6-436a-a7f9-60c3585bc8b0"},"vehicle_type_id":"4","last_reported":1747056309,"current_range_meters":17600,"station_id":"ce4bgt12rcd13ifvqce0","pricing_plan_id":"cebpf4jnsgd1na2vs0mg"},{"bike_id":"78a336b2-7d28-4a19-a82c-6806dcf329c6","system_id":"levelo_inurba_marseille","lat":43.286146,"lon":5.351084,"is_reserved":false,"is_disabled":false,"rental_uris":{"android":"levelo://app?vid=78a336b2-7d28-4a19-a82c-6806dcf329c6","ios":"levelo://app?vid=78a336b2-7d28-4a19-a82c-6806dcf329c6"},"vehicle_type_id":"4","last_reported":1747056309,"current_range_meters":18000,"station_id":"ce4bhch2rcd13ifvqeug","pricing_plan_id":"cebpf4jnsgd1na2vs0mg"},{"bike_id":"aceb6332-c3b1-41d6-9b67-b99a2b5c6055","system_id":"levelo_inurba_marseille","lat":43.337444,"lon":5.374475,"is_reserved":false,"is_disabled":false,"rental_uris":{"android":"levelo://app?vid=aceb6332-c3b1-41d6-9b67-b99a2b5c6055","ios":"levelo://app?vid=aceb6332-c3b1-41d6-9b67-b99a2b5c6055"},"vehicle_type_id":"4","last_reported":1747056309,"current_range_meters":18000,"station_id":"","pricing_plan_id":"cebpf4jnsgd1na2vs0mg"},{"bike_id":"4f5700e0-6de1-422d-a9f4-6b67403481de","system_id":"levelo_inurba_marseille","lat":43.25726,"lon":5.41108,"is_reserved":false,"is_disabled":false,"rental_uris":{"android":"levelo://app?vid=4f5700e0-6de1-422d-a9f4-6b67403481de","ios":"levelo://app?vid=4f5700e0-6de1-422d-a9f4-6b67403481de"},"vehicle_type_id":"4","last_reported":1747056309,"current_range_meters":18000,"station_id":"ce4bhkp2rcd13ifvqgd0","pricing_plan_id":"cebpf4jnsgd1na2vs0mg"},{"bike_id":"cc6105f9-6f7d-4848-9f36-916e401bfe26","system_id":"levelo_inurba_marseille","lat":43.313574,"lon":5.36708,"is_reserved":false,"is_disabled":false,"rental_uris":{"android":"levelo://app?vid=cc6105f9-6f7d-4848-9f36-916e401bfe26","ios":"levelo://app?vid=cc6105f9-6f7d-4848-9f36-916e401bfe26"},"vehicle_type_id":"4","last_reported":1747056309,"current_range_meters":18000,"station_id":"ce4bgr92rcd13ifvqc6g","pricing_plan_id":"cebpf4jnsgd1na2vs0mg"},{"bike_id":"d9ced790-526f-4a4b-8046-76ed359a515a","system_id":"levelo_inurba_marseille","lat":43.28413,"lon":5.3497,"is_reserved":false,"is_disabled":false,"rental_uris":{"android":"levelo://app?vid=d9ced790-526f-4a4b-8046-76ed359a515a","ios":"levelo://app?vid=d9ced790-526f-4a4b-8046-76ed359a515a"},"vehicle_type_id":"4","last_reported":1747056309,"current_range_meters":18000,"station_id":"ce4bhbh2rcd13ifvqepg","pricing_plan_id":"cebpf4jnsgd1na2vs0mg"},{"bike_id":"b7e880e1-52c9-4aa8-acb9-2a4869eb902f","system_id":"levelo_inurba_marseille","lat":43.26195,"lon":5.37449,"is_reserved":false,"is_disabled":false,"rental_uris":{"android":"levelo://app?vid=b7e880e1-52c9-4aa8-acb9-2a4869eb902f","ios":"levelo://app?vid=b7e880e1-52c9-4aa8-acb9-2a4869eb902f"},"vehicle_type_id":"4","last_reported":1747056309,"current_range_meters":18800,"station_id":"ce4bhgp2rcd13ifvqfc0","pricing_plan_id":"cebpf4jnsgd1na2vs0mg"},{"bike_id":"b1b6cc35-f7fd-4545-9353-fc07e96bd078","system_id":"levelo_inurba_marseille","lat":43.28625,"lon":5.35096,"is_reserved":false,"is_disabled":false,"rental_uris":{"android":"levelo://app?vid=b1b6cc35-f7fd-4545-9353-fc07e96bd078","ios":"levelo://app?vid=b1b6cc35-f7fd-4545-9353-fc07e96bd078"},"vehicle_type_id":"4","last_reported":1747056309,"current_range_meters":18800,"station_id":"ce4bhch2rcd13ifvqeug","pricing_plan_id":"cebpf4jnsgd1na2vs0mg"},{"bike_id":"cbc45bc1-ddab-4c0f-a2ab-f45a8b1b5f0e","system_id":"levelo_inurba_marseille","lat":43.28267,"lon":5.35061,"is_reserved":false,"is_disabled":false,"rental_uris":{"android":"levelo://app?vid=cbc45bc1-ddab-4c0f-a2ab-f45a8b1b5f0e","ios":"levelo://app?vid=cbc45bc1-ddab-4c0f-a2ab-f45a8b1b5f0e"},"vehicle_type_id":"4","last_reported":1747056309,"current_range_meters":18800,"station_id":"ce4bhbp2rcd13ifvqerg","pricing_plan_id":"cebpf4jnsgd1na2vs0mg"},{"bike_id":"86689108-8b6c-425a-98ae-946b288cf2c2","system_id":"levelo_inurba_marseille","lat":43.28418,"lon":5.3499,"is_reserved":false,"is_disabled":false,"rental_uris":{"android":"levelo://app?vid=86689108-8b6c-425a-98ae-946b288cf2c2","ios":"levelo://app?vid=86689108-8b6c-425a-98ae-946b288cf2c2"},"vehicle_type_id":"4","last_reported":1747056309,"current_range_meters":18800,"station_id":"ce4bhbh2rcd13ifvqepg","pricing_plan_id":"cebpf4jnsgd1na2vs0mg"},{"bike_id":"d79037ad-562e-4262-a844-16b8f8b67bfa","system_id":"levelo_inurba_marseille","lat":43.28277,"lon":5.35059,"is_reserved":false,"is_disabled":false,"rental_uris":{"android":"levelo://app?vid=d79037ad-562e-4262-a844-16b8f8b67bfa","ios":"levelo://app?vid=d79037ad-562e-4262-a844-16b8f8b67bfa"},"vehicle_type_id":"4","last_reported":1747056309,"current_range_meters":18800,"station_id":"ce4bhbp2rcd13ifvqerg","pricing_plan_id":"cebpf4jnsgd1na2vs0mg"},{"bike_id":"9f7f96a3-2181-4c50-9f47-77706ee769e4","system_id":"levelo_inurba_marseille","lat":43.28857,"lon":5.39333,"is_reserved":false,"is_disabled":false,"rental_uris":{"android":"levelo://app?vid=9f7f96a3-2181-4c50-9f47-77706ee769e4","ios":"levelo://app?vid=9f7f96a3-2181-4c50-9f47-77706ee769e4"},"vehicle_type_id":"4","last_reported":1747056309,"current_range_meters":18800,"station_id":"ce4bh2p2rcd13ifvqdi0","pricing_plan_id":"cebpf4jnsgd1na2vs0mg"},{"bike_id":"e2c80733-19b7-4d31-aee0-dc716a34092b","system_id":"levelo_inurba_marseille","lat":43.2841,"lon":5.34983,"is_reserved":false,"is_disabled":false,"rental_uris":{"android":"levelo://app?vid=e2c80733-19b7-4d31-aee0-dc716a34092b","ios":"levelo://app?vid=e2c80733-19b7-4d31-aee0-dc716a34092b"},"vehicle_type_id":"4","last_reported":1747056309,"current_range_meters":19200,"station_id":"ce4bhbh2rcd13ifvqepg","pricing_plan_id":"cebpf4jnsgd1na2vs0mg"},{"bike_id":"052e8be5-756e-40b8-bf8d-fe2bdca2d830","system_id":"levelo_inurba_marseille","lat":43.21196,"lon":5.35075,"is_reserved":false,"is_disabled":false,"rental_uris":{"android":"levelo://app?vid=052e8be5-756e-40b8-bf8d-fe2bdca2d830","ios":"levelo://app?vid=052e8be5-756e-40b8-bf8d-fe2bdca2d830"},"vehicle_type_id":"4","last_reported":1747056309,"current_range_meters":19200,"station_id":"st_cvj6sg6p6f1abm77japg","pricing_plan_id":"cebpf4jnsgd1na2vs0mg"},{"bike_id":"804143ab-c25a-4e4b-acc5-610b2d47d906","system_id":"levelo_inurba_marseille","lat":43.24064,"lon":5.37742,"is_reserved":false,"is_disabled":false,"rental_uris":{"android":"levelo://app?vid=804143ab-c25a-4e4b-acc5-610b2d47d906","ios":"levelo://app?vid=804143ab-c25a-4e4b-acc5-610b2d47d906"},"vehicle_type_id":"4","last_reported":1747056309,"current_range_meters":19200,"station_id":"ce4bhnp2rcd13ifvqgvg","pricing_plan_id":"cebpf4jnsgd1na2vs0mg"},{"bike_id":"691ad911-b1d0-47fc-a77d-e5e3db08d382","system_id":"levelo_inurba_marseille","lat":43.21754,"lon":5.34603,"is_reserved":false,"is_disabled":false,"rental_uris":{"android":"levelo://app?vid=691ad911-b1d0-47fc-a77d-e5e3db08d382","ios":"levelo://app?vid=691ad911-b1d0-47fc-a77d-e5e3db08d382"},"vehicle_type_id":"4","last_reported":1747056309,"current_range_meters":19200,"station_id":"st_cvj6r9ubvosntc0bgbag","pricing_plan_id":"cebpf4jnsgd1na2vs0mg"},{"bike_id":"8f898ea4-0b70-46db-b495-a08fd22223a4","system_id":"levelo_inurba_marseille","lat":43.22927,"lon":5.35374,"is_reserved":false,"is_disabled":false,"rental_uris":{"android":"levelo://app?vid=8f898ea4-0b70-46db-b495-a08fd22223a4","ios":"levelo://app?vid=8f898ea4-0b70-46db-b495-a08fd22223a4"},"vehicle_type_id":"4","last_reported":1747056309,"current_range_meters":19200,"station_id":"cpo3532slgdg3j2ikp40","pricing_plan_id":"cebpf4jnsgd1na2vs0mg"},{"bike_id":"a27e7e64-441e-4195-95cf-a017beed065c","system_id":"levelo_inurba_marseille","lat":43.29942,"lon":5.36555,"is_reserved":false,"is_disabled":false,"rental_uris":{"android":"levelo://app?vid=a27e7e64-441e-4195-95cf-a017beed065c","ios":"levelo://app?vid=a27e7e64-441e-4195-95cf-a017beed065c"},"vehicle_type_id":"4","last_reported":1747056309,"current_range_meters":19200,"station_id":"ce4bgm92rcd13ifvqbr0","pricing_plan_id":"cebpf4jnsgd1na2vs0mg"},{"bike_id":"ad318f3b-2a79-4060-98f6-ed32498cf202","system_id":"levelo_inurba_marseille","lat":43.25922,"lon":5.40908,"is_reserved":false,"is_disabled":false,"rental_uris":{"android":"levelo://app?vid=ad318f3b-2a79-4060-98f6-ed32498cf202","ios":"levelo://app?vid=ad318f3b-2a79-4060-98f6-ed32498cf202"},"vehicle_type_id":"4","last_reported":1747056309,"current_range_meters":19200,"station_id":"ce4bhm92rcd13ifvqglg","pricing_plan_id":"cebpf4jnsgd1na2vs0mg"},{"bike_id":"f3ec045a-47e2-4247-8265-708a5969471b","system_id":"levelo_inurba_marseille","lat":43.26232,"lon":5.37456,"is_reserved":false,"is_disabled":false,"rental_uris":{"android":"levelo://app?vid=f3ec045a-47e2-4247-8265-708a5969471b","ios":"levelo://app?vid=f3ec045a-47e2-4247-8265-708a5969471b"},"vehicle_type_id":"4","last_reported":1747056309,"current_range_meters":19200,"station_id":"ce4bhgp2rcd13ifvqfc0","pricing_plan_id":"cebpf4jnsgd1na2vs0mg"},{"bike_id":"2b16b124-35c8-4ad5-8c16-0863e0a1fea3","system_id":"levelo_inurba_marseille","lat":43.27497,"lon":5.42448,"is_reserved":false,"is_disabled":false,"rental_uris":{"android":"levelo://app?vid=2b16b124-35c8-4ad5-8c16-0863e0a1fea3","ios":"levelo://app?vid=2b16b124-35c8-4ad5-8c16-0863e0a1fea3"},"vehicle_type_id":"4","last_reported":1747056309,"current_range_meters":19200,"station_id":"ce4bhn92rcd13ifvqgrg","pricing_plan_id":"cebpf4jnsgd1na2vs0mg"},{"bike_id":"334b0b1f-2601-48d5-8331-d5463938422f","system_id":"levelo_inurba_marseille","lat":43.27942,"lon":5.4105,"is_reserved":false,"is_disabled":false,"rental_uris":{"android":"levelo://app?vid=334b0b1f-2601-48d5-8331-d5463938422f","ios":"levelo://app?vid=334b0b1f-2601-48d5-8331-d5463938422f"},"vehicle_type_id":"4","last_reported":1747056309,"current_range_meters":19200,"station_id":"ce4bhnp2rcd13ifvqh0g","pricing_plan_id":"cebpf4jnsgd1na2vs0mg"},{"bike_id":"38b7b9f0-4d03-4b6a-b846-b1a53fc87f21","system_id":"levelo_inurba_marseille","lat":43.262177,"lon":5.404333,"is_reserved":false,"is_disabled":false,"rental_uris":{"android":"levelo://app?vid=38b7b9f0-4d03-4b6a-b846-b1a53fc87f21","ios":"levelo://app?vid=38b7b9f0-4d03-4b6a-b846-b1a53fc87f21"},"vehicle_type_id":"4","last_reported":1747056309,"current_range_meters":19600,"station_id":"ce4bhmh2rcd13ifvqgmg","pricing_plan_id":"cebpf4jnsgd1na2vs0mg"},{"bike_id":"88549743-21fb-4f2d-acf2-33a74921125c","system_id":"levelo_inurba_marseille","lat":43.29533,"lon":5.37499,"is_reserved":false,"is_disabled":false,"rental_uris":{"android":"levelo://app?vid=88549743-21fb-4f2d-acf2-33a74921125c","ios":"levelo://app?vid=88549743-21fb-4f2d-acf2-33a74921125c"},"vehicle_type_id":"4","last_reported":1747056309,"current_range_meters":19600,"station_id":"ce4bgkp2rcd13ifvqbmg","pricing_plan_id":"cebpf4jnsgd1na2vs0mg"},{"bike_id":"68a1cf08-ee79-4887-a286-8edd49cf8d35","system_id":"levelo_inurba_marseille","lat":43.2984,"lon":5.38113,"is_reserved":false,"is_disabled":false,"rental_uris":{"android":"levelo://app?vid=68a1cf08-ee79-4887-a286-8edd49cf8d35","ios":"levelo://app?vid=68a1cf08-ee79-4887-a286-8edd49cf8d35"},"vehicle_type_id":"4","last_reported":1747056309,"current_range_meters":19600,"station_id":"ce4bgip2rcd13ifvqbb0","pricing_plan_id":"cebpf4jnsgd1na2vs0mg"},{"bike_id":"0cf2927c-beec-4714-bbab-813eabaab31c","system_id":"levelo_inurba_marseille","lat":43.284842,"lon":5.384155,"is_reserved":false,"is_disabled":false,"rental_uris":{"android":"levelo://app?vid=0cf2927c-beec-4714-bbab-813eabaab31c","ios":"levelo://app?vid=0cf2927c-beec-4714-bbab-813eabaab31c"},"vehicle_type_id":"4","last_reported":1747056309,"current_range_meters":19600,"station_id":"ce4bh512rcd13ifvqe3g","pricing_plan_id":"cebpf4jnsgd1na2vs0mg"},{"bike_id":"cc25aae6-3197-44f8-8471-8a0efb35cc4f","system_id":"levelo_inurba_marseille","lat":43.306166,"lon":5.365804,"is_reserved":false,"is_disabled":false,"rental_uris":{"android":"levelo://app?vid=cc25aae6-3197-44f8-8471-8a0efb35cc4f","ios":"levelo://app?vid=cc25aae6-3197-44f8-8471-8a0efb35cc4f"},"vehicle_type_id":"4","last_reported":1747056309,"current_range_meters":19600,"station_id":"","pricing_plan_id":"cebpf4jnsgd1na2vs0mg"},{"bike_id":"1966f97c-cd4e-4fe3-a193-750443ac0f03","system_id":"levelo_inurba_marseille","lat":43.27134,"lon":5.40983,"is_reserved":false,"is_disabled":false,"rental_uris":{"android":"levelo://app?vid=1966f97c-cd4e-4fe3-a193-750443ac0f03","ios":"levelo://app?vid=1966f97c-cd4e-4fe3-a193-750443ac0f03"},"vehicle_type_id":"4","last_reported":1747056309,"current_range_meters":19600,"station_id":"ce4bhl12rcd13ifvqgf0","pricing_plan_id":"cebpf4jnsgd1na2vs0mg"},{"bike_id":"c84cc980-38fe-4761-924e-99f94b7ce9c7","system_id":"levelo_inurba_marseille","lat":43.337444,"lon":5.374475,"is_reserved":false,"is_disabled":true,"rental_uris":{"android":"levelo://app?vid=c84cc980-38fe-4761-924e-99f94b7ce9c7","ios":"levelo://app?vid=c84cc980-38fe-4761-924e-99f94b7ce9c7"},"vehicle_type_id":"4","last_reported":1747056309,"current_range_meters":19600,"station_id":"","pricing_plan_id":"cebpf4jnsgd1na2vs0mg"},{"bike_id":"27b33ad7-2ffc-4129-abd7-4738039662aa","system_id":"levelo_inurba_marseille","lat":43.301265,"lon":5.387785,"is_reserved":false,"is_disabled":false,"rental_uris":{"android":"levelo://app?vid=27b33ad7-2ffc-4129-abd7-4738039662aa","ios":"levelo://app?vid=27b33ad7-2ffc-4129-abd7-4738039662aa"},"vehicle_type_id":"4","last_reported":1747056309,"current_range_meters":20000,"station_id":"ce4bghh2rcd13ifvqb60","pricing_plan_id":"cebpf4jnsgd1na2vs0mg"},{"bike_id":"8ef831d4-0dbc-4f70-892d-eef0645518c0","system_id":"levelo_inurba_marseille","lat":43.284285,"lon":5.349675,"is_reserved":false,"is_disabled":false,"rental_uris":{"android":"levelo://app?vid=8ef831d4-0dbc-4f70-892d-eef0645518c0","ios":"levelo://app?vid=8ef831d4-0dbc-4f70-892d-eef0645518c0"},"vehicle_type_id":"4","last_reported":1747056309,"current_range_meters":20000,"station_id":"ce4bhbh2rcd13ifvqepg","pricing_plan_id":"cebpf4jnsgd1na2vs0mg"},{"bike_id":"72ed30a8-6603-4a05-99c6-ba6cb7428d09","system_id":"levelo_inurba_marseille","lat":43.24669,"lon":5.38155,"is_reserved":false,"is_disabled":false,"rental_uris":{"android":"levelo://app?vid=72ed30a8-6603-4a05-99c6-ba6cb7428d09","ios":"levelo://app?vid=72ed30a8-6603-4a05-99c6-ba6cb7428d09"},"vehicle_type_id":"4","last_reported":1747056309,"current_range_meters":20000,"station_id":"ce4bhih2rcd13ifvqfr0","pricing_plan_id":"cebpf4jnsgd1na2vs0mg"},{"bike_id":"ee45146b-2714-4574-bbca-61a0198a2891","system_id":"levelo_inurba_marseille","lat":43.28422,"lon":5.34988,"is_reserved":false,"is_disabled":false,"rental_uris":{"android":"levelo://app?vid=ee45146b-2714-4574-bbca-61a0198a2891","ios":"levelo://app?vid=ee45146b-2714-4574-bbca-61a0198a2891"},"vehicle_type_id":"4","last_reported":1747056309,"current_range_meters":20000,"station_id":"ce4bhbh2rcd13ifvqepg","pricing_plan_id":"cebpf4jnsgd1na2vs0mg"},{"bike_id":"6751c3af-2785-42de-bc81-f466abd046af","system_id":"levelo_inurba_marseille","lat":43.28403,"lon":5.34982,"is_reserved":false,"is_disabled":false,"rental_uris":{"android":"levelo://app?vid=6751c3af-2785-42de-bc81-f466abd046af","ios":"levelo://app?vid=6751c3af-2785-42de-bc81-f466abd046af"},"vehicle_type_id":"4","last_reported":1747056309,"current_range_meters":20400,"station_id":"ce4bhbh2rcd13ifvqepg","pricing_plan_id":"cebpf4jnsgd1na2vs0mg"},{"bike_id":"efc88c3c-910a-4ce7-84b2-480af6d11f71","system_id":"levelo_inurba_marseille","lat":43.2828,"lon":5.35069,"is_reserved":false,"is_disabled":false,"rental_uris":{"android":"levelo://app?vid=efc88c3c-910a-4ce7-84b2-480af6d11f71","ios":"levelo://app?vid=efc88c3c-910a-4ce7-84b2-480af6d11f71"},"vehicle_type_id":"4","last_reported":1747056309,"current_range_meters":20400,"station_id":"ce4bhbp2rcd13ifvqerg","pricing_plan_id":"cebpf4jnsgd1na2vs0mg"},{"bike_id":"9f0f2cbc-2527-4948-8f53-7e57fa6eb53d","system_id":"levelo_inurba_marseille","lat":43.3022,"lon":5.39476,"is_reserved":false,"is_disabled":false,"rental_uris":{"android":"levelo://app?vid=9f0f2cbc-2527-4948-8f53-7e57fa6eb53d","ios":"levelo://app?vid=9f0f2cbc-2527-4948-8f53-7e57fa6eb53d"},"vehicle_type_id":"4","last_reported":1747056309,"current_range_meters":20400,"station_id":"ce4bh0p2rcd13ifvqd70","pricing_plan_id":"cebpf4jnsgd1na2vs0mg"},{"bike_id":"a932069e-597c-44bf-aa88-ed9d25836cd0","system_id":"levelo_inurba_marseille","lat":43.28419,"lon":5.34979,"is_reserved":false,"is_disabled":false,"rental_uris":{"android":"levelo://app?vid=a932069e-597c-44bf-aa88-ed9d25836cd0","ios":"levelo://app?vid=a932069e-597c-44bf-aa88-ed9d25836cd0"},"vehicle_type_id":"4","last_reported":1747056309,"current_range_meters":20400,"station_id":"ce4bhbh2rcd13ifvqepg","pricing_plan_id":"cebpf4jnsgd1na2vs0mg"},{"bike_id":"49c96fcf-2465-4fdc-bf30-4c24a3d614d2","system_id":"levelo_inurba_marseille","lat":43.25584,"lon":5.3825,"is_reserved":false,"is_disabled":false,"rental_uris":{"android":"levelo://app?vid=49c96fcf-2465-4fdc-bf30-4c24a3d614d2","ios":"levelo://app?vid=49c96fcf-2465-4fdc-bf30-4c24a3d614d2"},"vehicle_type_id":"4","last_reported":1747056309,"current_range_meters":20400,"station_id":"ce4bhih2rcd13ifvqfs0","pricing_plan_id":"cebpf4jnsgd1na2vs0mg"},{"bike_id":"82171c0d-e74b-441d-9785-ea5f1f55c2b9","system_id":"levelo_inurba_marseille","lat":43.284119,"lon":5.349718,"is_reserved":false,"is_disabled":false,"rental_uris":{"android":"levelo://app?vid=82171c0d-e74b-441d-9785-ea5f1f55c2b9","ios":"levelo://app?vid=82171c0d-e74b-441d-9785-ea5f1f55c2b9"},"vehicle_type_id":"4","last_reported":1747056309,"current_range_meters":20400,"station_id":"ce4bhbh2rcd13ifvqepg","pricing_plan_id":"cebpf4jnsgd1na2vs0mg"},{"bike_id":"1cbad096-db62-4404-b59f-c8a0c25f069c","system_id":"levelo_inurba_marseille","lat":43.284195,"lon":5.375085,"is_reserved":false,"is_disabled":false,"rental_uris":{"android":"levelo://app?vid=1cbad096-db62-4404-b59f-c8a0c25f069c","ios":"levelo://app?vid=1cbad096-db62-4404-b59f-c8a0c25f069c"},"vehicle_type_id":"4","last_reported":1747056309,"current_range_meters":20800,"station_id":"","pricing_plan_id":"cebpf4jnsgd1na2vs0mg"},{"bike_id":"ee9711bb-60b9-45e3-abe3-db1afee53a9f","system_id":"levelo_inurba_marseille","lat":43.21767,"lon":5.34605,"is_reserved":false,"is_disabled":false,"rental_uris":{"android":"levelo://app?vid=ee9711bb-60b9-45e3-abe3-db1afee53a9f","ios":"levelo://app?vid=ee9711bb-60b9-45e3-abe3-db1afee53a9f"},"vehicle_type_id":"4","last_reported":1747056309,"current_range_meters":20800,"station_id":"st_cvj6r9ubvosntc0bgbag","pricing_plan_id":"cebpf4jnsgd1na2vs0mg"},{"bike_id":"061fc34b-6ce8-4212-9448-cfe9bd1e1fb7","system_id":"levelo_inurba_marseille","lat":43.28266,"lon":5.35074,"is_reserved":false,"is_disabled":false,"rental_uris":{"android":"levelo://app?vid=061fc34b-6ce8-4212-9448-cfe9bd1e1fb7","ios":"levelo://app?vid=061fc34b-6ce8-4212-9448-cfe9bd1e1fb7"},"vehicle_type_id":"4","last_reported":1747056309,"current_range_meters":20800,"station_id":"ce4bhbp2rcd13ifvqerg","pricing_plan_id":"cebpf4jnsgd1na2vs0mg"},{"bike_id":"bde56e61-bf78-4b9a-a0ed-b9fd97661630","system_id":"levelo_inurba_marseille","lat":43.29531,"lon":5.39033,"is_reserved":false,"is_disabled":false,"rental_uris":{"android":"levelo://app?vid=bde56e61-bf78-4b9a-a0ed-b9fd97661630","ios":"levelo://app?vid=bde56e61-bf78-4b9a-a0ed-b9fd97661630"},"vehicle_type_id":"4","last_reported":1747056309,"current_range_meters":20400,"station_id":"ce4bh3p2rcd13ifvqdp0","pricing_plan_id":"cebpf4jnsgd1na2vs0mg"},{"bike_id":"369ed7ea-8837-499c-a412-cf0a603652c6","system_id":"levelo_inurba_marseille","lat":43.30904,"lon":5.36843,"is_reserved":false,"is_disabled":false,"rental_uris":{"android":"levelo://app?vid=369ed7ea-8837-499c-a412-cf0a603652c6","ios":"levelo://app?vid=369ed7ea-8837-499c-a412-cf0a603652c6"},"vehicle_type_id":"4","last_reported":1747056309,"current_range_meters":20400,"station_id":"ce4bgn92rcd13ifvqbvg","pricing_plan_id":"cebpf4jnsgd1na2vs0mg"},{"bike_id":"415af6c5-6090-4228-8031-6e5eb52b4d68","system_id":"levelo_inurba_marseille","lat":43.3176,"lon":5.3902,"is_reserved":false,"is_disabled":false,"rental_uris":{"android":"levelo://app?vid=415af6c5-6090-4228-8031-6e5eb52b4d68","ios":"levelo://app?vid=415af6c5-6090-4228-8031-6e5eb52b4d68"},"vehicle_type_id":"4","last_reported":1747056309,"current_range_meters":20800,"station_id":"ce4bhqp2rcd13ifvqhng","pricing_plan_id":"cebpf4jnsgd1na2vs0mg"},{"bike_id":"c1d35325-ee92-4d4a-9c90-6746abdac07c","system_id":"levelo_inurba_marseille","lat":43.24656,"lon":5.38893,"is_reserved":false,"is_disabled":false,"rental_uris":{"android":"levelo://app?vid=c1d35325-ee92-4d4a-9c90-6746abdac07c","ios":"levelo://app?vid=c1d35325-ee92-4d4a-9c90-6746abdac07c"},"vehicle_type_id":"4","last_reported":1747056309,"current_range_meters":21600,"station_id":"ce4bhg12rcd13ifvqf60","pricing_plan_id":"cebpf4jnsgd1na2vs0mg"},{"bike_id":"251dc8a3-302c-4677-9545-155eb0766bde","system_id":"levelo_inurba_marseille","lat":43.262,"lon":5.37935,"is_reserved":false,"is_disabled":true,"rental_uris":{"android":"levelo://app?vid=251dc8a3-302c-4677-9545-155eb0766bde","ios":"levelo://app?vid=251dc8a3-302c-4677-9545-155eb0766bde"},"vehicle_type_id":"4","last_reported":1747056309,"current_range_meters":21600,"station_id":"ce4bhjp2rcd13ifvqg90","pricing_plan_id":"cebpf4jnsgd1na2vs0mg"},{"bike_id":"c37d1f16-1458-493e-afda-35b8bd20cf07","system_id":"levelo_inurba_marseille","lat":43.28941,"lon":5.36363,"is_reserved":false,"is_disabled":false,"rental_uris":{"android":"levelo://app?vid=c37d1f16-1458-493e-afda-35b8bd20cf07","ios":"levelo://app?vid=c37d1f16-1458-493e-afda-35b8bd20cf07"},"vehicle_type_id":"4","last_reported":1747056309,"current_range_meters":21600,"station_id":"ce4bhc92rcd13ifvqetg","pricing_plan_id":"cebpf4jnsgd1na2vs0mg"},{"bike_id":"16d9ed36-909c-40cd-a169-2a851ed72e35","system_id":"levelo_inurba_marseille","lat":43.32477,"lon":5.36565,"is_reserved":false,"is_disabled":false,"rental_uris":{"android":"levelo://app?vid=16d9ed36-909c-40cd-a169-2a851ed72e35","ios":"levelo://app?vid=16d9ed36-909c-40cd-a169-2a851ed72e35"},"vehicle_type_id":"4","last_reported":1747056309,"current_range_meters":22000,"station_id":"ce4bhs12rcd13ifvqhvg","pricing_plan_id":"cebpf4jnsgd1na2vs0mg"},{"bike_id":"d897bee0-67d9-4a89-b792-f686ea4ba0f7","system_id":"levelo_inurba_marseille","lat":43.28409,"lon":5.3499,"is_reserved":false,"is_disabled":false,"rental_uris":{"android":"levelo://app?vid=d897bee0-67d9-4a89-b792-f686ea4ba0f7","ios":"levelo://app?vid=d897bee0-67d9-4a89-b792-f686ea4ba0f7"},"vehicle_type_id":"4","last_reported":1747056309,"current_range_meters":22000,"station_id":"","pricing_plan_id":"cebpf4jnsgd1na2vs0mg"},{"bike_id":"58b8021a-05cc-4dc0-bd7e-874b0720ac96","system_id":"levelo_inurba_marseille","lat":43.26207,"lon":5.37441,"is_reserved":false,"is_disabled":false,"rental_uris":{"android":"levelo://app?vid=58b8021a-05cc-4dc0-bd7e-874b0720ac96","ios":"levelo://app?vid=58b8021a-05cc-4dc0-bd7e-874b0720ac96"},"vehicle_type_id":"4","last_reported":1747056309,"current_range_meters":22000,"station_id":"ce4bhgp2rcd13ifvqfc0","pricing_plan_id":"cebpf4jnsgd1na2vs0mg"},{"bike_id":"4dbda9bb-ff89-44c3-b8ae-797e7aa6c12f","system_id":"levelo_inurba_marseille","lat":43.23964,"lon":5.36625,"is_reserved":false,"is_disabled":false,"rental_uris":{"android":"levelo://app?vid=4dbda9bb-ff89-44c3-b8ae-797e7aa6c12f","ios":"levelo://app?vid=4dbda9bb-ff89-44c3-b8ae-797e7aa6c12f"},"vehicle_type_id":"4","last_reported":1747056309,"current_range_meters":22000,"station_id":"ce4bhi12rcd13ifvqfp0","pricing_plan_id":"cebpf4jnsgd1na2vs0mg"},{"bike_id":"117511ce-602a-410f-86f4-b5ab85c5ffbb","system_id":"levelo_inurba_marseille","lat":43.28932,"lon":5.38382,"is_reserved":false,"is_disabled":false,"rental_uris":{"android":"levelo://app?vid=117511ce-602a-410f-86f4-b5ab85c5ffbb","ios":"levelo://app?vid=117511ce-602a-410f-86f4-b5ab85c5ffbb"},"vehicle_type_id":"4","last_reported":1747056309,"current_range_meters":22000,"station_id":"ce4bh612rcd13ifvqe6g","pricing_plan_id":"cebpf4jnsgd1na2vs0mg"},{"bike_id":"50bfafaa-d718-4e3d-b4a4-4b5c3b3cc9b5","system_id":"levelo_inurba_marseille","lat":43.28453,"lon":5.35889,"is_reserved":false,"is_disabled":false,"rental_uris":{"android":"levelo://app?vid=50bfafaa-d718-4e3d-b4a4-4b5c3b3cc9b5","ios":"levelo://app?vid=50bfafaa-d718-4e3d-b4a4-4b5c3b3cc9b5"},"vehicle_type_id":"4","last_reported":1747056309,"current_range_meters":22400,"station_id":"ce4bhah2rcd13ifvqei0","pricing_plan_id":"cebpf4jnsgd1na2vs0mg"},{"bike_id":"44cfcd68-25e6-437e-a2ae-bc8ba0fb74e3","system_id":"levelo_inurba_marseille","lat":43.25497,"lon":5.37648,"is_reserved":false,"is_disabled":false,"rental_uris":{"android":"levelo://app?vid=44cfcd68-25e6-437e-a2ae-bc8ba0fb74e3","ios":"levelo://app?vid=44cfcd68-25e6-437e-a2ae-bc8ba0fb74e3"},"vehicle_type_id":"4","last_reported":1747056309,"current_range_meters":22400,"station_id":"ce4bhh12rcd13ifvqff0","pricing_plan_id":"cebpf4jnsgd1na2vs0mg"},{"bike_id":"5728e68c-f162-4e22-b613-26d103e45857","system_id":"levelo_inurba_marseille","lat":43.25951,"lon":5.40901,"is_reserved":false,"is_disabled":false,"rental_uris":{"android":"levelo://app?vid=5728e68c-f162-4e22-b613-26d103e45857","ios":"levelo://app?vid=5728e68c-f162-4e22-b613-26d103e45857"},"vehicle_type_id":"4","last_reported":1747056309,"current_range_meters":22400,"station_id":"ce4bhm92rcd13ifvqglg","pricing_plan_id":"cebpf4jnsgd1na2vs0mg"},{"bike_id":"ef5ff6a6-0941-4194-a3ee-43ae0b7ba1c9","system_id":"levelo_inurba_marseille","lat":43.29648,"lon":5.36776,"is_reserved":false,"is_disabled":false,"rental_uris":{"android":"levelo://app?vid=ef5ff6a6-0941-4194-a3ee-43ae0b7ba1c9","ios":"levelo://app?vid=ef5ff6a6-0941-4194-a3ee-43ae0b7ba1c9"},"vehicle_type_id":"4","last_reported":1747056309,"current_range_meters":22400,"station_id":"","pricing_plan_id":"cebpf4jnsgd1na2vs0mg"},{"bike_id":"6a4c8b62-3491-44de-96c2-55a2432e77b5","system_id":"levelo_inurba_marseille","lat":43.302205,"lon":5.394699,"is_reserved":false,"is_disabled":false,"rental_uris":{"android":"levelo://app?vid=6a4c8b62-3491-44de-96c2-55a2432e77b5","ios":"levelo://app?vid=6a4c8b62-3491-44de-96c2-55a2432e77b5"},"vehicle_type_id":"4","last_reported":1747056309,"current_range_meters":23200,"station_id":"ce4bh0p2rcd13ifvqd70","pricing_plan_id":"cebpf4jnsgd1na2vs0mg"},{"bike_id":"c0eea3ce-41e1-458f-a316-87eca1841999","system_id":"levelo_inurba_marseille","lat":43.28705,"lon":5.37395,"is_reserved":false,"is_disabled":false,"rental_uris":{"android":"levelo://app?vid=c0eea3ce-41e1-458f-a316-87eca1841999","ios":"levelo://app?vid=c0eea3ce-41e1-458f-a316-87eca1841999"},"vehicle_type_id":"4","last_reported":1747056309,"current_range_meters":22400,"station_id":"ce4bh3p2rcd13ifvqdq0","pricing_plan_id":"cebpf4jnsgd1na2vs0mg"},{"bike_id":"54db4df2-d7a7-40c2-b741-2e8da57a89ea","system_id":"levelo_inurba_marseille","lat":43.31381,"lon":5.3667,"is_reserved":false,"is_disabled":false,"rental_uris":{"android":"levelo://app?vid=54db4df2-d7a7-40c2-b741-2e8da57a89ea","ios":"levelo://app?vid=54db4df2-d7a7-40c2-b741-2e8da57a89ea"},"vehicle_type_id":"4","last_reported":1747056309,"current_range_meters":22800,"station_id":"","pricing_plan_id":"cebpf4jnsgd1na2vs0mg"},{"bike_id":"00255cf9-ebf5-4609-bcc6-c36f8ce7fa39","system_id":"levelo_inurba_marseille","lat":43.299347,"lon":5.365593,"is_reserved":false,"is_disabled":false,"rental_uris":{"android":"levelo://app?vid=00255cf9-ebf5-4609-bcc6-c36f8ce7fa39","ios":"levelo://app?vid=00255cf9-ebf5-4609-bcc6-c36f8ce7fa39"},"vehicle_type_id":"4","last_reported":1747056309,"current_range_meters":22800,"station_id":"ce4bgm92rcd13ifvqbr0","pricing_plan_id":"cebpf4jnsgd1na2vs0mg"},{"bike_id":"349de4c5-95c4-4613-9a4e-ad2c10a79a0c","system_id":"levelo_inurba_marseille","lat":43.24665,"lon":5.38167,"is_reserved":false,"is_disabled":false,"rental_uris":{"android":"levelo://app?vid=349de4c5-95c4-4613-9a4e-ad2c10a79a0c","ios":"levelo://app?vid=349de4c5-95c4-4613-9a4e-ad2c10a79a0c"},"vehicle_type_id":"4","last_reported":1747056309,"current_range_meters":22800,"station_id":"ce4bhih2rcd13ifvqfr0","pricing_plan_id":"cebpf4jnsgd1na2vs0mg"},