{"last_updated":1678950445,"ttl":30,"version":"2.2","data":{"bikes":[{"bike_id":"4cf41e89-b1a6-4ec5-bf40-75cf3258d11a","system_id":"levelo_inurba_marseille","lat":43.309076,"lon":5.368465,"is_reserved":false,"is_disabled":false,"rental_uris":{"android":"levelo://app?vid=4cf41e89-b1a6-4ec5-bf40-75cf3258d11a","ios":"levelo://app?vid=4cf41e89-b1a6-4ec5-bf40-75cf3258d11a"},"vehicle_type_id":"4","last_reported":1678950446,"current_range_meters":25600,"station_id":"ce4bgn92rcd13ifvqbvg","pricing_plan_id":"free"},{"bike_id":"1254bf78-fc33-4932-90d7-5aac8e894ca7","system_id":"levelo_inurba_marseille","lat":43.309076,"lon":5.368465,"is_reserved":false,"is_disabled":false,"rental_uris":{"android":"levelo://app?vid=1254bf78-fc33-4932-90d7-5aac8e894ca7","ios":"levelo://app?vid=1254bf78-fc33-4932-90d7-5aac8e894ca7"},"vehicle_type_id":"4","last_reported":1678950446,"current_range_meters":21600,"station_id":"ce4bgn92rcd13ifvqbvg","pricing_plan_id":"free"},{"bike_id":"95e6049c-2605-47c4-b001-3baae7c54289","system_id":"levelo_inurba_marseille","lat":43.309076,"lon":5.368465,"is_reserved":false,"is_disabled":false,"rental_uris":{"android":"levelo://app?vid=95e6049c-2605-47c4-b001-3baae7c54289","ios":"levelo://app?vid=95e6049c-2605-47c4-b001-3baae7c54289"},"vehicle_type_id":"4","last_reported":1678950446,"current_range_meters":28000,"station_id":"ce4bgn92rcd13ifvqbvg","pricing_plan_id":"free"},{"bike_id":"5321a542-54a0-4760-82a3-51ec1a0c8eba","system_id":"levelo_inurba_marseille","lat":43.309076,"lon":5.368465,"is_reserved":false,"is_disabled":false,"rental_uris":{"android":"levelo://app?vid=5321a542-54a0-4760-82a3-51ec1a0c8eba","ios":"levelo://app?vid=5321a542-54a0-4760-82a3-51ec1a0c8eba"},"vehicle_type_id":"4","last_reported":1678950446,"current_range_meters":24400,"station_id":"ce4bgn92rcd13ifvqbvg","pricing_plan_id":"free"},{"bike_id":"c37ad831-46e2-4899-849c-a4438eed46df","system_id":"levelo_inurba_marseille","lat":43.309076,"lon":5.368465,"is_reserved":false,"is_disabled":false,"rental_uris":{"android":"levelo://app?vid=c37ad831-46e2-4899-849c-a4438eed46df","ios":"levelo://app?vid=c37ad831-46e2-4899-849c-a4438eed46df"},"vehicle_type_id":"4","last_reported":1678950446,"current_range_meters":24400,"station_id":"ce4bgn92rcd13ifvqbvg","pricing_plan_id":"free"},{"bike_id":"fc7b0183-8dbc-4d42-bfe1-dab4d2624f75","system_id":"levelo_inurba_marseille","lat":43.309076,"lon":5.368465,"is_reserved":false,"is_disabled":false,"rental_uris":{"android":"levelo://app?vid=fc7b0183-8dbc-4d42-bfe1-dab4d2624f75","ios":"levelo://app?vid=fc7b0183-8dbc-4d42-bfe1-dab4d2624f75"},"vehicle_type_id":"4","last_reported":1678950446,"current_range_meters":22400,"station_id":"ce4bgn92rcd13ifvqbvg","pricing_plan_id":"free"},{"bike_id":"04c83808-24a6-46b2-96f7-c922203a13e4","system_id":"levelo_inurba_marseille","lat":43.309076,"lon":5.368465,"is_reserved":false,"is_disabled":false,"rental_uris":{"android":"levelo://app?vid=04c83808-24a6-46b2-96f7-c922203a13e4","ios":"levelo://app?vid=04c83808-24a6-46b2-96f7-c922203a13e4"},"vehicle_type_id":"4","last_reported":1678950446,"current_range_meters":24800,"station_id":"ce4bgn92rcd13ifvqbvg","pricing_plan_id":"free"},{"bike_id":"47496908-0161-4cf5-9497-3f0d52381615","system_id":"levelo_inurba_marseille","lat":43.309076,"lon":5.368465,"is_reserved":false,"is_disabled":false,"rental_uris":{"android":"levelo://app?vid=47496908-0161-4cf5-9497-3f0d52381615","ios":"levelo://app?vid=47496908-0161-4cf5-9497-3f0d52381615"},"vehicle_type_id":"4","last_reported":1678950446,"current_range_meters":22000,"station_id":"ce4bgn92rcd13ifvqbvg","pricing_plan_id":"free"},{"bike_id":"5ac36d8a-2da5-4fba-8f60-c7fbd17db366","system_id":"levelo_inurba_marseille","lat":43.309076,"lon":5.368465,"is_reserved":false,"is_disabled":false,"rental_uris":{"android":"levelo://app?vid=5ac36d8a-2da5-4fba-8f60-c7fbd17db366","ios":"levelo://app?vid=5ac36d8a-2da5-4fba-8f60-c7fbd17db366"},"vehicle_type_id":"4","last_reported":1678950446,"current_range_meters":26000,"station_id":"ce4bgn92rcd13ifvqbvg","pricing_plan_id":"free"},{"bike_id":"72b51999-c1c4-4f8f-bb67-358ec1c1b629","system_id":"levelo_inurba_marseille","lat":43.309076,"lon":5.368465,"is_reserved":false,"is_disabled":false,"rental_uris":{"android":"levelo://app?vid=72b51999-c1c4-4f8f-bb67-358ec1c1b629","ios":"levelo://app?vid=72b51999-c1c4-4f8f-bb67-358ec1c1b629"},"vehicle_type_id":"4","last_reported":1678950446,"current_range_meters":25200,"station_id":"ce4bgn92rcd13ifvqbvg","pricing_plan_id":"free"},{"bike_id":"a12bc9da-26aa-4d73-885a-9b0fb35d9edd","system_id":"levelo_inurba_marseille","lat":43.309076,"lon":5.368465,"is_reserved":false,"is_disabled":false,"rental_uris":{"android":"levelo://app?vid=a12bc9da-26aa-4d73-885a-9b0fb35d9edd","ios":"levelo://app?vid=a12bc9da-26aa-4d73-885a-9b0fb35d9edd"},"vehicle_type_id":"4","last_reported":1678950446,"current_range_meters":28800,"station_id":"ce4bgn92rcd13ifvqbvg","pricing_plan_id":"free"},{"bike_id":"a68d8393-688d-431c-ac0a-2eed504fcf5c","system_id":"levelo_inurba_marseille","lat":43.309076,"lon":5.368465,"is_reserved":false,"is_disabled":false,"rental_uris":{"android":"levelo://app?vid=a68d8393-688d-431c-ac0a-2eed504fcf5c","ios":"levelo://app?vid=a68d8393-688d-431c-ac0a-2eed504fcf5c"},"vehicle_type_id":"4","last_reported":1678950446,"current_range_meters":27600,"station_id":"ce4bgn92rcd13ifvqbvg","pricing_plan_id":"free"},{"bike_id":"462870d1-0f08-4528-86b1-de28fc38b9f8","system_id":"levelo_inurba_marseille","lat":43.308614,"lon":5.372098,"is_reserved":false,"is_disabled":false,"rental_uris":{"android":"levelo://app?vid=462870d1-0f08-4528-86b1-de28fc38b9f8","ios":"levelo://app?vid=462870d1-0f08-4528-86b1-de28fc38b9f8"},"vehicle_type_id":"4","last_reported":1678950446,"current_range_meters":400,"station_id":"ce4bguh2rcd13ifvqckg","pricing_plan_id":"free"},{"bike_id":"e7b64e84-4a80-4ffa-bd85-b36d7400dbc1","system_id":"levelo_inurba_marseille","lat":43.308614,"lon":5.372098,"is_reserved":false,"is_disabled":false,"rental_uris":{"android":"levelo://app?vid=e7b64e84-4a80-4ffa-bd85-b36d7400dbc1","ios":"levelo://app?vid=e7b64e84-4a80-4ffa-bd85-b36d7400dbc1"},"vehicle_type_id":"4","last_reported":1678950446,"current_range_meters":26800,"station_id":"ce4bguh2rcd13ifvqckg","pricing_plan_id":"free"},{"bike_id":"78d8ab65-4c87-4b5f-a103-c1acef4691c0","system_id":"levelo_inurba_marseille","lat":43.308614,"lon":5.372098,"is_reserved":false,"is_disabled":false,"rental_uris":{"android":"levelo://app?vid=78d8ab65-4c87-4b5f-a103-c1acef4691c0","ios":"levelo://app?vid=78d8ab65-4c87-4b5f-a103-c1acef4691c0"},"vehicle_type_id":"4","last_reported":1678950446,"current_range_meters":7200,"station_id":"ce4bguh2rcd13ifvqckg","pricing_plan_id":"free"},{"bike_id":"a81c1170-f896-407e-85f0-df1348d8957d","system_id":"levelo_inurba_marseille","lat":43.305003,"lon":5.367087,"is_reserved":false,"is_disabled":false,"rental_uris":{"android":"levelo://app?vid=a81c1170-f896-407e-85f0-df1348d8957d","ios":"levelo://app?vid=a81c1170-f896-407e-85f0-df1348d8957d"},"vehicle_type_id":"4","last_reported":1678950446,"current_range_meters":0,"station_id":"","pricing_plan_id":"free"},{"bike_id":"dc89fab4-a5b0-45f9-a3bc-94cdb7cd16a0","system_id":"levelo_inurba_marseille","lat":43.317075,"lon":5.377367,"is_reserved":false,"is_disabled":false,"rental_uris":{"android":"levelo://app?vid=dc89fab4-a5b0-45f9-a3bc-94cdb7cd16a0","ios":"levelo://app?vid=dc89fab4-a5b0-45f9-a3bc-94cdb7cd16a0"},"vehicle_type_id":"4","last_reported":1678950446,"current_range_meters":28400,"station_id":"ce4bgth2rcd13ifvqch0","pricing_plan_id":"free"},{"bike_id":"89a80c89-d116-4648-b4df-7acf4c82df7b","system_id":"levelo_inurba_marseille","lat":43.301939,"lon":5.366286,"is_reserved":false,"is_disabled":false,"rental_uris":{"android":"levelo://app?vid=89a80c89-d116-4648-b4df-7acf4c82df7b","ios":"levelo://app?vid=89a80c89-d116-4648-b4df-7acf4c82df7b"},"vehicle_type_id":"4","last_reported":1678950446,"current_range_meters":24800,"station_id":"ce4bgrh2rcd13ifvqc8g","pricing_plan_id":"free"},{"bike_id":"7b6436ed-5d54-4a97-8165-8f97a2f22ac8","system_id":"levelo_inurba_marseille","lat":43.301813,"lon":5.366182,"is_reserved":false,"is_disabled":false,"rental_uris":{"android":"levelo://app?vid=7b6436ed-5d54-4a97-8165-8f97a2f22ac8","ios":"levelo://app?vid=7b6436ed-5d54-4a97-8165-8f97a2f22ac8"},"vehicle_type_id":"4","last_reported":1678950446,"current_range_meters":31200,"station_id":"ce4bgrh2rcd13ifvqc8g","pricing_plan_id":"free"},{"bike_id":"6aff741b-8cc7-4f43-90c0-dbb16f9a153d","system_id":"levelo_inurba_marseille","lat":43.304606,"lon":5.379026,"is_reserved":false,"is_disabled":false,"rental_uris":{"android":"levelo://app?vid=6aff741b-8cc7-4f43-90c0-dbb16f9a153d","ios":"levelo://app?vid=6aff741b-8cc7-4f43-90c0-dbb16f9a153d"},"vehicle_type_id":"4","last_reported":1678950446,"current_range_meters":13200,"station_id":"ce4bgup2rcd13ifvqcn0","pricing_plan_id":"free"},{"bike_id":"53fcca25-3dc0-4d1c-b87d-ab9ba9b366f8","system_id":"levelo_inurba_marseille","lat":43.30473,"lon":5.37912,"is_reserved":false,"is_disabled":false,"rental_uris":{"android":"levelo://app?vid=53fcca25-3dc0-4d1c-b87d-ab9ba9b366f8","ios":"levelo://app?vid=53fcca25-3dc0-4d1c-b87d-ab9ba9b366f8"},"vehicle_type_id":"4","last_reported":1678950446,"current_range_meters":9200,"station_id":"ce4bgup2rcd13ifvqcn0","pricing_plan_id":"free"},{"bike_id":"2b04ea3b-5cfe-4ff7-801a-5eb81d141547","system_id":"levelo_inurba_marseille","lat":43.304606,"lon":5.379026,"is_reserved":false,"is_disabled":false,"rental_uris":{"android":"levelo://app?vid=2b04ea3b-5cfe-4ff7-801a-5eb81d141547","ios":"levelo://app?vid=2b04ea3b-5cfe-4ff7-801a-5eb81d141547"},"vehicle_type_id":"4","last_reported":1678950446,"current_range_meters":21200,"station_id":"ce4bgup2rcd13ifvqcn0","pricing_plan_id":"free"},{"bike_id":"c66a4958-8bdb-4eee-87ea-581c0be10a41","system_id":"levelo_inurba_marseille","lat":43.304606,"lon":5.379026,"is_reserved":false,"is_disabled":false,"rental_uris":{"android":"levelo://app?vid=c66a4958-8bdb-4eee-87ea-581c0be10a41","ios":"levelo://app?vid=c66a4958-8bdb-4eee-87ea-581c0be10a41"},"vehicle_type_id":"4","last_reported":1678950446,"current_range_meters":28400,"station_id":"ce4bgup2rcd13ifvqcn0","pricing_plan_id":"free"},{"bike_id":"5909740d-a466-4108-a538-497e02a20943","system_id":"levelo_inurba_marseille","lat":43.304606,"lon":5.379026,"is_reserved":false,"is_disabled":false,"rental_uris":{"android":"levelo://app?vid=5909740d-a466-4108-a538-497e02a20943","ios":"levelo://app?vid=5909740d-a466-4108-a538-497e02a20943"},"vehicle_type_id":"4","last_reported":1678950446,"current_range_meters":10800,"station_id":"ce4bgup2rcd13ifvqcn0","pricing_plan_id":"free"},{"bike_id":"75d80507-69d2-4f65-b9a1-1bf8bc91486f","system_id":"levelo_inurba_marseille","lat":43.304606,"lon":5.379026,"is_reserved":false,"is_disabled":false,"rental_uris":{"android":"levelo://app?vid=75d80507-69d2-4f65-b9a1-1bf8bc91486f","ios":"levelo://app?vid=75d80507-69d2-4f65-b9a1-1bf8bc91486f"},"vehicle_type_id":"4","last_reported":1678950446,"current_range_meters":15600,"station_id":"ce4bgup2rcd13ifvqcn0","pricing_plan_id":"free"},{"bike_id":"f489bb03-3a82-47dc-885a-2906677fb08c","system_id":"levelo_inurba_marseille","lat":43.304606,"lon":5.379026,"is_reserved":false,"is_disabled":false,"rental_uris":{"android":"levelo://app?vid=f489bb03-3a82-47dc-885a-2906677fb08c","ios":"levelo://app?vid=f489bb03-3a82-47dc-885a-2906677fb08c"},"vehicle_type_id":"4","last_reported":1678950446,"current_range_meters":32000,"station_id":"ce4bgup2rcd13ifvqcn0","pricing_plan_id":"free"},{"bike_id":"6433e3a8-dc53-42f3-b8bb-d10a0cb55934","system_id":"levelo_inurba_marseille","lat":43.304606,"lon":5.379026,"is_reserved":false,"is_disabled":false,"rental_uris":{"android":"levelo://app?vid=6433e3a8-dc53-42f3-b8bb-d10a0cb55934","ios":"levelo://app?vid=6433e3a8-dc53-42f3-b8bb-d10a0cb55934"},"vehicle_type_id":"4","last_reported":1678950446,"current_range_meters":24800,"station_id":"ce4bgup2rcd13ifvqcn0","pricing_plan_id":"free"},{"bike_id":"2a3278f2-10f6-449c-8e02-d0194f1050ee","system_id":"levelo_inurba_marseille","lat":43.304606,"lon":5.379026,"is_reserved":false,"is_disabled":false,"rental_uris":{"android":"levelo://app?vid=2a3278f2-10f6-449c-8e02-d0194f1050ee","ios":"levelo://app?vid=2a3278f2-10f6-449c-8e02-d0194f1050ee"},"vehicle_type_id":"4","last_reported":1678950446,"current_range_meters":18800,"station_id":"ce4bgup2rcd13ifvqcn0","pricing_plan_id":"free"},{"bike_id":"c465eed8-80ae-4dfc-acc9-30ec30b4675f","system_id":"levelo_inurba_marseille","lat":43.304606,"lon":5.379026,"is_reserved":false,"is_disabled":false,"rental_uris":{"android":"levelo://app?vid=c465eed8-80ae-4dfc-acc9-30ec30b4675f","ios":"levelo://app?vid=c465eed8-80ae-4dfc-acc9-30ec30b4675f"},"vehicle_type_id":"4","last_reported":1678950446,"current_range_meters":29200,"station_id":"ce4bgup2rcd13ifvqcn0","pricing_plan_id":"free"},{"bike_id":"ec133dff-772c-46b6-a796-2973cb2c583f","system_id":"levelo_inurba_marseille","lat":43.304606,"lon":5.379026,"is_reserved":false,"is_disabled":false,"rental_uris":{"android":"levelo://app?vid=ec133dff-772c-46b6-a796-2973cb2c583f","ios":"levelo://app?vid=ec133dff-772c-46b6-a796-2973cb2c583f"},"vehicle_type_id":"4","last_reported":1678950446,"current_range_meters":21200,"station_id":"ce4bgup2rcd13ifvqcn0","pricing_plan_id":"free"},{"bike_id":"4ee2a28b-a6fe-4e3d-a9f3-8db3ea5f248a","system_id":"levelo_inurba_marseille","lat":43.30463,"lon":5.37906,"is_reserved":false,"is_disabled":false,"rental_uris":{"android":"levelo://app?vid=4ee2a28b-a6fe-4e3d-a9f3-8db3ea5f248a","ios":"levelo://app?vid=4ee2a28b-a6fe-4e3d-a9f3-8db3ea5f248a"},"vehicle_type_id":"4","last_reported":1678950446,"current_range_meters":11600,"station_id":"ce4bgup2rcd13ifvqcn0","pricing_plan_id":"free"},{"bike_id":"fe88112b-ba04-433c-91b6-4f6078ea3076","system_id":"levelo_inurba_marseille","lat":43.3047,"lon":5.379155,"is_reserved":false,"is_disabled":false,"rental_uris":{"android":"levelo://app?vid=fe88112b-ba04-433c-91b6-4f6078ea3076","ios":"levelo://app?vid=fe88112b-ba04-433c-91b6-4f6078ea3076"},"vehicle_type_id":"4","last_reported":1678950446,"current_range_meters":21200,"station_id":"ce4bgup2rcd13ifvqcn0","pricing_plan_id":"free"},{"bike_id":"f0958855-5e52-46ff-ab0f-83055c84a16f","system_id":"levelo_inurba_marseille","lat":43.304606,"lon":5.379026,"is_reserved":false,"is_disabled":false,"rental_uris":{"android":"levelo://app?vid=f0958855-5e52-46ff-ab0f-83055c84a16f","ios":"levelo://app?vid=f0958855-5e52-46ff-ab0f-83055c84a16f"},"vehicle_type_id":"4","last_reported":1678950446,"current_range_meters":20000,"station_id":"ce4bgup2rcd13ifvqcn0","pricing_plan_id":"free"},{"bike_id":"377ae3eb-b180-42b7-836b-789e5705b919","system_id":"levelo_inurba_marseille","lat":43.304606,"lon":5.379026,"is_reserved":false,"is_disabled":false,"rental_uris":{"android":"levelo://app?vid=377ae3eb-b180-42b7-836b-789e5705b919","ios":"levelo://app?vid=377ae3eb-b180-42b7-836b-789e5705b919"},"vehicle_type_id":"4","last_reported":1678950446,"current_range_meters":21600,"station_id":"ce4bgup2rcd13ifvqcn0","pricing_plan_id":"free"},{"bike_id":"f7020e9a-dbd0-40a1-a16f-6bf7ea29721c","system_id":"levelo_inurba_marseille","lat":43.30465,"lon":5.3791,"is_reserved":false,"is_disabled":false,"rental_uris":{"android":"levelo://app?vid=f7020e9a-dbd0-40a1-a16f-6bf7ea29721c","ios":"levelo://app?vid=f7020e9a-dbd0-40a1-a16f-6bf7ea29721c"},"vehicle_type_id":"4","last_reported":1678950446,"current_range_meters":2800,"station_id":"","pricing_plan_id":"free"},{"bike_id":"0dfdfdf5-b72f-4f28-b81f-83063a080449","system_id":"levelo_inurba_marseille","lat":43.30464,"lon":5.37909,"is_reserved":false,"is_disabled":false,"rental_uris":{"android":"levelo://app?vid=0dfdfdf5-b72f-4f28-b81f-83063a080449","ios":"levelo://app?vid=0dfdfdf5-b72f-4f28-b81f-83063a080449"},"vehicle_type_id":"4","last_reported":1678950446,"current_range_meters":23600,"station_id":"ce4bgup2rcd13ifvqcn0","pricing_plan_id":"free"},{"bike_id":"d78da0e4-5f8e-4091-9bde-6798075fd161","system_id":"levelo_inurba_marseille","lat":43.30463,"lon":5.37908,"is_reserved":false,"is_disabled":false,"rental_uris":{"android":"levelo://app?vid=d78da0e4-5f8e-4091-9bde-6798075fd161","ios":"levelo://app?vid=d78da0e4-5f8e-4091-9bde-6798075fd161"},"vehicle_type_id":"4","last_reported":1678950446,"current_range_meters":14000,"station_id":"ce4bgup2rcd13ifvqcn0","pricing_plan_id":"free"},{"bike_id":"7bf25025-966b-4e57-9c60-c4921201869a","system_id":"levelo_inurba_marseille","lat":43.304606,"lon":5.379026,"is_reserved":false,"is_disabled":false,"rental_uris":{"android":"levelo://app?vid=7bf25025-966b-4e57-9c60-c4921201869a","ios":"levelo://app?vid=7bf25025-966b-4e57-9c60-c4921201869a"},"vehicle_type_id":"4","last_reported":1678950446,"current_range_meters":22000,"station_id":"ce4bgup2rcd13ifvqcn0","pricing_plan_id":"free"},{"bike_id":"447217be-bf83-4e3d-a144-93067b07cc95","system_id":"levelo_inurba_marseille","lat":43.304606,"lon":5.379026,"is_reserved":false,"is_disabled":false,"rental_uris":{"android":"levelo://app?vid=447217be-bf83-4e3d-a144-93067b07cc95","ios":"levelo://app?vid=447217be-bf83-4e3d-a144-93067b07cc95"},"vehicle_type_id":"4","last_reported":1678950446,"current_range_meters":25600,"station_id":"ce4bgup2rcd13ifvqcn0","pricing_plan_id":"free"},{"bike_id":"cf7cceb2-62a6-4335-92a1-b2944041b35e","system_id":"levelo_inurba_marseille","lat":43.30466,"lon":5.37918,"is_reserved":false,"is_disabled":false,"rental_uris":{"android":"levelo://app?vid=cf7cceb2-62a6-4335-92a1-b2944041b35e","ios":"levelo://app?vid=cf7cceb2-62a6-4335-92a1-b2944041b35e"},"vehicle_type_id":"4","last_reported":1678950446,"current_range_meters":13600,"station_id":"ce4bgup2rcd13ifvqcn0","pricing_plan_id":"free"},{"bike_id":"623f35c0-d000-496c-b034-b1d8763921f5","system_id":"levelo_inurba_marseille","lat":43.30143,"lon":5.37413,"is_reserved":false,"is_disabled":false,"rental_uris":{"android":"levelo://app?vid=623f35c0-d000-496c-b034-b1d8763921f5","ios":"levelo://app?vid=623f35c0-d000-496c-b034-b1d8763921f5"},"vehicle_type_id":"4","last_reported":1678950446,"current_range_meters":12800,"station_id":"ce4bgs92rcd13ifvqcc0","pricing_plan_id":"free"},{"bike_id":"e94da7f7-f591-44d6-bd72-c90d0ed42705","system_id":"levelo_inurba_marseille","lat":43.306853,"lon":5.382654,"is_reserved":false,"is_disabled":false,"rental_uris":{"android":"levelo://app?vid=e94da7f7-f591-44d6-bd72-c90d0ed42705","ios":"levelo://app?vid=e94da7f7-f591-44d6-bd72-c90d0ed42705"},"vehicle_type_id":"4","last_reported":1678950446,"current_range_meters":0,"station_id":"","pricing_plan_id":"free"},{"bike_id":"d29cc535-5471-4a42-9238-9a9825bc55b1","system_id":"levelo_inurba_marseille","lat":43.313571,"lon":5.384829,"is_reserved":false,"is_disabled":false,"rental_uris":{"android":"levelo://app?vid=d29cc535-5471-4a42-9238-9a9825bc55b1","ios":"levelo://app?vid=d29cc535-5471-4a42-9238-9a9825bc55b1"},"vehicle_type_id":"4","last_reported":1678950446,"current_range_meters":9200,"station_id":"ce4bgt92rcd13ifvqcf0","pricing_plan_id":"free"},{"bike_id":"52f1f5f6-c514-4e54-9555-3518aad383f5","system_id":"levelo_inurba_marseille","lat":43.313571,"lon":5.384829,"is_reserved":false,"is_disabled":false,"rental_uris":{"android":"levelo://app?vid=52f1f5f6-c514-4e54-9555-3518aad383f5","ios":"levelo://app?vid=52f1f5f6-c514-4e54-9555-3518aad383f5"},"vehicle_type_id":"4","last_reported":1678950446,"current_range_meters":10800,"station_id":"ce4bgt92rcd13ifvqcf0","pricing_plan_id":"free"},{"bike_id":"812aee92-56dd-4892-af2e-66642d1e07ea","system_id":"levelo_inurba_marseille","lat":43.313571,"lon":5.384829,"is_reserved":false,"is_disabled":false,"rental_uris":{"android":"levelo://app?vid=812aee92-56dd-4892-af2e-66642d1e07ea","ios":"levelo://app?vid=812aee92-56dd-4892-af2e-66642d1e07ea"},"vehicle_type_id":"4","last_reported":1678950446,"current_range_meters":0,"station_id":"ce4bgt92rcd13ifvqcf0","pricing_plan_id":"free"},{"bike_id":"64e7cb40-33ea-4151-a9fc-010328251dab","system_id":"levelo_inurba_marseille","lat":43.313571,"lon":5.384829,"is_reserved":false,"is_disabled":false,"rental_uris":{"android":"levelo://app?vid=64e7cb40-33ea-4151-a9fc-010328251dab","ios":"levelo://app?vid=64e7cb40-33ea-4151-a9fc-010328251dab"},"vehicle_type_id":"4","last_reported":1678950446,"current_range_meters":400,"station_id":"ce4bgt92rcd13ifvqcf0","pricing_plan_id":"free"},{"bike_id":"68f6c15f-e983-4822-888e-ee1cd106c5e9","system_id":"levelo_inurba_marseille","lat":43.299094,"lon":5.365415,"is_reserved":false,"is_disabled":false,"rental_uris":{"android":"levelo://app?vid=68f6c15f-e983-4822-888e-ee1cd106c5e9","ios":"levelo://app?vid=68f6c15f-e983-4822-888e-ee1cd106c5e9"},"vehicle_type_id":"4","last_reported":1678950446,"current_range_meters":27600,"station_id":"ce4bgm92rcd13ifvqbr0","pricing_plan_id":"free"},{"bike_id":"3425c642-b1a9-4056-a9b4-6d16616193e1","system_id":"levelo_inurba_marseille","lat":43.305393,"lon":5.383699,"is_reserved":false,"is_disabled":false,"rental_uris":{"android":"levelo://app?vid=3425c642-b1a9-4056-a9b4-6d16616193e1","ios":"levelo://app?vid=3425c642-b1a9-4056-a9b4-6d16616193e1"},"vehicle_type_id":"4","last_reported":1678950446,"current_range_meters":0,"station_id":"","pricing_plan_id":"free"},{"bike_id":"a83ed77e-d0c6-479a-a03f-262b4eabf11b","system_id":"levelo_inurba_marseille","lat":43.305364,"lon":5.384119,"is_reserved":false,"is_disabled":false,"rental_uris":{"android":"levelo://app?vid=a83ed77e-d0c6-479a-a03f-262b4eabf11b","ios":"levelo://app?vid=a83ed77e-d0c6-479a-a03f-262b4eabf11b"},"vehicle_type_id":"4","last_reported":1678950446,"current_range_meters":20800,"station_id":"ce4bgg92rcd13ifvqb30","pricing_plan_id":"free"},{"bike_id":"28ca4cfd-5032-4484-b5da-fdd7549ac882","system_id":"levelo_inurba_marseille","lat":43.305364,"lon":5.384119,"is_reserved":false,"is_disabled":false,"rental_uris":{"android":"levelo://app?vid=28ca4cfd-5032-4484-b5da-fdd7549ac882","ios":"levelo://app?vid=28ca4cfd-5032-4484-b5da-fdd7549ac882"},"vehicle_type_id":"4","last_reported":1678950446,"current_range_meters":0,"station_id":"ce4bgg92rcd13ifvqb30","pricing_plan_id":"free"},{"bike_id":"d894811d-ad94-44b8-89ff-52a7d770de8e","system_id":"levelo_inurba_marseille","lat":43.328371,"lon":5.366909,"is_reserved":false,"is_disabled":false,"rental_uris":{"android":"levelo://app?vid=d894811d-ad94-44b8-89ff-52a7d770de8e","ios":"levelo://app?vid=d894811d-ad94-44b8-89ff-52a7d770de8e"},"vehicle_type_id":"4","last_reported":1678950446,"current_range_meters":0,"station_id":"ce4bhs92rcd13ifvqi0g","pricing_plan_id":"free"},{"bike_id":"8f740f03-d085-4bbb-ad5a-c4c0e5d62baf","system_id":"levelo_inurba_marseille","lat":43.328279,"lon":5.366896,"is_reserved":false,"is_disabled":false,"rental_uris":{"android":"levelo://app?vid=8f740f03-d085-4bbb-ad5a-c4c0e5d62baf","ios":"levelo://app?vid=8f740f03-d085-4bbb-ad5a-c4c0e5d62baf"},"vehicle_type_id":"4","last_reported":1678950446,"current_range_meters":31600,"station_id":"ce4bhs92rcd13ifvqi0g","pricing_plan_id":"free"},{"bike_id":"0ef17a3a-232d-4912-ace4-f96c0c7ecbfa","system_id":"levelo_inurba_marseille","lat":43.32828,"lon":5.36685,"is_reserved":false,"is_disabled":false,"rental_uris":{"android":"levelo://app?vid=0ef17a3a-232d-4912-ace4-f96c0c7ecbfa","ios":"levelo://app?vid=0ef17a3a-232d-4912-ace4-f96c0c7ecbfa"},"vehicle_type_id":"4","last_reported":1678950446,"current_range_meters":15600,"station_id":"ce4bhs92rcd13ifvqi0g","pricing_plan_id":"free"},{"bike_id":"aa1ab70f-6527-4c01-b8ba-c6a2ce3836c1","system_id":"levelo_inurba_marseille","lat":43.328371,"lon":5.366909,"is_reserved":false,"is_disabled":false,"rental_uris":{"android":"levelo://app?vid=aa1ab70f-6527-4c01-b8ba-c6a2ce3836c1","ios":"levelo://app?vid=aa1ab70f-6527-4c01-b8ba-c6a2ce3836c1"},"vehicle_type_id":"4","last_reported":1678950446,"current_range_meters":2400,"station_id":"ce4bhs92rcd13ifvqi0g","pricing_plan_id":"free"},{"bike_id":"a068649e-e639-48d5-b474-32fc330f3063","system_id":"levelo_inurba_marseille","lat":43.328371,"lon":5.366909,"is_reserved":false,"is_disabled":false,"rental_uris":{"android":"levelo://app?vid=a068649e-e639-48d5-b474-32fc330f3063","ios":"levelo://app?vid=a068649e-e639-48d5-b474-32fc330f3063"},"vehicle_type_id":"4","last_reported":1678950446,"current_range_meters":21200,"station_id":"ce4bhs92rcd13ifvqi0g","pricing_plan_id":"free"},{"bike_id":"b25b5cb8-1e30-4f2f-b49f-6ba07fc5ad7f","system_id":"levelo_inurba_marseille","lat":43.32831,"lon":5.36682,"is_reserved":false,"is_disabled":false,"rental_uris":{"android":"levelo://app?vid=b25b5cb8-1e30-4f2f-b49f-6ba07fc5ad7f","ios":"levelo://app?vid=b25b5cb8-1e30-4f2f-b49f-6ba07fc5ad7f"},"vehicle_type_id":"4","last_reported":1678950446,"current_range_meters":22000,"station_id":"ce4bhs92rcd13ifvqi0g","pricing_plan_id":"free"},{"bike_id":"825cab22-3c82-49d9-a16f-b10329cdef3d","system_id":"levelo_inurba_marseille","lat":43.296921,"lon":5.376579,"is_reserved":false,"is_disabled":false,"rental_uris":{"android":"levelo://app?vid=825cab22-3c82-49d9-a16f-b10329cdef3d","ios":"levelo://app?vid=825cab22-3c82-49d9-a16f-b10329cdef3d"},"vehicle_type_id":"4","last_reported":1678950446,"current_range_meters":22800,"station_id":"ce4bgkh2rcd13ifvqbl0","pricing_plan_id":"free"},{"bike_id":"b27d1691-8d3c-4596-a65f-136c0bc912bf","system_id":"levelo_inurba_marseille","lat":43.299028,"lon":5.381509,"is_reserved":false,"is_disabled":false,"rental_uris":{"android":"levelo://app?vid=b27d1691-8d3c-4596-a65f-136c0bc912bf","ios":"levelo://app?vid=b27d1691-8d3c-4596-a65f-136c0bc912bf"},"vehicle_type_id":"4","last_reported":1678950446,"current_range_meters":28400,"station_id":"ce4bgj12rcd13ifvqbc0","pricing_plan_id":"free"},{"bike_id":"55071056-8636-4cb6-b883-7b6a5147bc1f","system_id":"levelo_inurba_marseille","lat":43.309589,"lon":5.390258,"is_reserved":false,"is_disabled":false,"rental_uris":{"android":"levelo://app?vid=55071056-8636-4cb6-b883-7b6a5147bc1f","ios":"levelo://app?vid=55071056-8636-4cb6-b883-7b6a5147bc1f"},"vehicle_type_id":"4","last_reported":1678950446,"current_range_meters":31600,"station_id":"ce4bgup2rcd13ifvqco0","pricing_plan_id":"free"},{"bike_id":"fc05d698-f919-4226-9c54-a993b338118c","system_id":"levelo_inurba_marseille","lat":43.317557,"lon":5.390173,"is_reserved":false,"is_disabled":false,"rental_uris":{"android":"levelo://app?vid=fc05d698-f919-4226-9c54-a993b338118c","ios":"levelo://app?vid=fc05d698-f919-4226-9c54-a993b338118c"},"vehicle_type_id":"4","last_reported":1678950446,"current_range_meters":12000,"station_id":"ce4bhqp2rcd13ifvqhng","pricing_plan_id":"free"},{"bike_id":"71627590-b2d3-492e-98c4-2c13ebf3bf92","system_id":"levelo_inurba_marseille","lat":43.317557,"lon":5.390173,"is_reserved":false,"is_disabled":false,"rental_uris":{"android":"levelo://app?vid=71627590-b2d3-492e-98c4-2c13ebf3bf92","ios":"levelo://app?vid=71627590-b2d3-492e-98c4-2c13ebf3bf92"},"vehicle_type_id":"4","last_reported":1678950446,"current_range_meters":4800,"station_id":"ce4bhqp2rcd13ifvqhng","pricing_plan_id":"free"},{"bike_id":"becd7b7b-6094-42d9-94b0-49de3b0d5333","system_id":"levelo_inurba_marseille","lat":43.29805,"lon":5.381,"is_reserved":false,"is_disabled":false,"rental_uris":{"android":"levelo://app?vid=becd7b7b-6094-42d9-94b0-49de3b0d5333","ios":"levelo://app?vid=becd7b7b-6094-42d9-94b0-49de3b0d5333"},"vehicle_type_id":"4","last_reported":1678950446,"current_range_meters":30800,"station_id":"ce4bgip2rcd13ifvqbb0","pricing_plan_id":"free"},{"bike_id":"18125788-a213-43e1-b710-f91a7724c49a","system_id":"levelo_inurba_marseille","lat":43.298037,"lon":5.381066,"is_reserved":false,"is_disabled":false,"rental_uris":{"android":"levelo://app?vid=18125788-a213-43e1-b710-f91a7724c49a","ios":"levelo://app?vid=18125788-a213-43e1-b710-f91a7724c49a"},"vehicle_type_id":"4","last_reported":1678950446,"current_range_meters":0,"station_id":"ce4bgip2rcd13ifvqbb0","pricing_plan_id":"free"},{"bike_id":"7fd3e7d5-dcbb-44a7-95dd-24beb056c0c2","system_id":"levelo_inurba_marseille","lat":43.304278,"lon":5.388868,"is_reserved":false,"is_disabled":false,"rental_uris":{"android":"levelo://app?vid=7fd3e7d5-dcbb-44a7-95dd-24beb056c0c2","ios":"levelo://app?vid=7fd3e7d5-dcbb-44a7-95dd-24beb056c0c2"},"vehicle_type_id":"4","last_reported":1678950446,"current_range_meters":28400,"station_id":"ce4bgk12rcd13ifvqbi0","pricing_plan_id":"free"},{"bike_id":"89eea408-17f9-4bc0-877f-ecf4ba7d3e5d","system_id":"levelo_inurba_marseille","lat":43.29975,"lon":5.3849,"is_reserved":false,"is_disabled":false,"rental_uris":{"android":"levelo://app?vid=89eea408-17f9-4bc0-877f-ecf4ba7d3e5d","ios":"levelo://app?vid=89eea408-17f9-4bc0-877f-ecf4ba7d3e5d"},"vehicle_type_id":"4","last_reported":1678950446,"current_range_meters":27200,"station_id":"","pricing_plan_id":"free"},{"bike_id":"869ccc29-7a6f-4430-902f-356a43ec82ba","system_id":"levelo_inurba_marseille","lat":43.2943,"lon":5.37408,"is_reserved":false,"is_disabled":false,"rental_uris":{"android":"levelo://app?vid=869ccc29-7a6f-4430-902f-356a43ec82ba","ios":"levelo://app?vid=869ccc29-7a6f-4430-902f-356a43ec82ba"},"vehicle_type_id":"4","last_reported":1678950446,"current_range_meters":0,"station_id":"","pricing_plan_id":"free"},{"bike_id":"673e9078-e30d-4da4-b477-ca4d7c3f3464","system_id":"levelo_inurba_marseille","lat":43.293249,"lon":5.371578,"is_reserved":false,"is_disabled":false,"rental_uris":{"android":"levelo://app?vid=673e9078-e30d-4da4-b477-ca4d7c3f3464","ios":"levelo://app?vid=673e9078-e30d-4da4-b477-ca4d7c3f3464"},"vehicle_type_id":"4","last_reported":1678950446,"current_range_meters":11200,"station_id":"ce4bgh92rcd13ifvqb40","pricing_plan_id":"free"},{"bike_id":"5dc962b5-eb27-42c4-b9c2-27e1f20b5f22","system_id":"levelo_inurba_marseille","lat":43.305994,"lon":5.393687,"is_reserved":false,"is_disabled":false,"rental_uris":{"android":"levelo://app?vid=5dc962b5-eb27-42c4-b9c2-27e1f20b5f22","ios":"levelo://app?vid=5dc962b5-eb27-42c4-b9c2-27e1f20b5f22"},"vehicle_type_id":"4","last_reported":1678950446,"current_range_meters":29600,"station_id":"ce4bh0p2rcd13ifvqd80","pricing_plan_id":"free"},{"bike_id":"20f5b6fd-efa2-426c-84e0-ca272ba332fd","system_id":"levelo_inurba_marseille","lat":43.305994,"lon":5.393687,"is_reserved":false,"is_disabled":false,"rental_uris":{"android":"levelo://app?vid=20f5b6fd-efa2-426c-84e0-ca272ba332fd","ios":"levelo://app?vid=20f5b6fd-efa2-426c-84e0-ca272ba332fd"},"vehicle_type_id":"4","last_reported":1678950446,"current_range_meters":29600,"station_id":"ce4bh0p2rcd13ifvqd80","pricing_plan_id":"free"},{"bike_id":"690f4317-b8c6-4b12-9398-f33dbbcc8ccc","system_id":"levelo_inurba_marseille","lat":43.305994,"lon":5.393687,"is_reserved":false,"is_disabled":false,"rental_uris":{"android":"levelo://app?vid=690f4317-b8c6-4b12-9398-f33dbbcc8ccc","ios":"levelo://app?vid=690f4317-b8c6-4b12-9398-f33dbbcc8ccc"},"vehicle_type_id":"4","last_reported":1678950446,"current_range_meters":27600,"station_id":"ce4bh0p2rcd13ifvqd80","pricing_plan_id":"free"},{"bike_id":"8f805ca1-2879-41e7-9eac-5bc9b9a72c89","system_id":"levelo_inurba_marseille","lat":43.292699,"lon":5.359748,"is_reserved":false,"is_disabled":false,"rental_uris":{"android":"levelo://app?vid=8f805ca1-2879-41e7-9eac-5bc9b9a72c89","ios":"levelo://app?vid=8f805ca1-2879-41e7-9eac-5bc9b9a72c89"},"vehicle_type_id":"4","last_reported":1678950446,"current_range_meters":3600,"station_id":"","pricing_plan_id":"free"},{"bike_id":"4fd2ca82-176d-4610-b1da-f763481b6baa","system_id":"levelo_inurba_marseille","lat":43.292311,"lon":5.360731,"is_reserved":false,"is_disabled":false,"rental_uris":{"android":"levelo://app?vid=4fd2ca82-176d-4610-b1da-f763481b6baa","ios":"levelo://app?vid=4fd2ca82-176d-4610-b1da-f763481b6baa"},"vehicle_type_id":"4","last_reported":1678950446,"current_range_meters":27600,"station_id":"ce4bhbh2rcd13ifvqeqg","pricing_plan_id":"free"},{"bike_id":"a6583c48-3eed-4e4e-a6d3-3caad69996fc","system_id":"levelo_inurba_marseille","lat":43.291675,"lon":5.371583,"is_reserved":false,"is_disabled":false,"rental_uris":{"android":"levelo://app?vid=a6583c48-3eed-4e4e-a6d3-3caad69996fc","ios":"levelo://app?vid=a6583c48-3eed-4e4e-a6d3-3caad69996fc"},"vehicle_type_id":"4","last_reported":1678950446,"current_range_meters":31600,"station_id":"ce4bha92rcd13ifvqeh0","pricing_plan_id":"free"},{"bike_id":"a8c36af0-2c4a-428b-aabd-90b9099a9001","system_id":"levelo_inurba_marseille","lat":43.291671,"lon":5.371575,"is_reserved":false,"is_disabled":false,"rental_uris":{"android":"levelo://app?vid=a8c36af0-2c4a-428b-aabd-90b9099a9001","ios":"levelo://app?vid=a8c36af0-2c4a-428b-aabd-90b9099a9001"},"vehicle_type_id":"4","last_reported":1678950446,"current_range_meters":31600,"station_id":"ce4bha92rcd13ifvqeh0","pricing_plan_id":"free"},{"bike_id":"d4f3c899-df98-407e-9a5b-fabca170b040","system_id":"levelo_inurba_marseille","lat":43.313291,"lon":5.396838,"is_reserved":false,"is_disabled":false,"rental_uris":{"android":"levelo://app?vid=d4f3c899-df98-407e-9a5b-fabca170b040","ios":"levelo://app?vid=d4f3c899-df98-407e-9a5b-fabca170b040"},"vehicle_type_id":"4","last_reported":1678950446,"current_range_meters":31600,"station_id":"ce4bgvp2rcd13ifvqcu0","pricing_plan_id":"free"},{"bike_id":"1f4d941c-7aa4-4aba-a339-52a19c0e40aa","system_id":"levelo_inurba_marseille","lat":43.313291,"lon":5.396838,"is_reserved":false,"is_disabled":false,"rental_uris":{"android":"levelo://app?vid=1f4d941c-7aa4-4aba-a339-52a19c0e40aa","ios":"levelo://app?vid=1f4d941c-7aa4-4aba-a339-52a19c0e40aa"},"vehicle_type_id":"4","last_reported":1678950446,"current_range_meters":26000,"station_id":"ce4bgvp2rcd13ifvqcu0","pricing_plan_id":"free"},{"bike_id":"3186623c-9f8c-4bf6-ac73-b2650f71b565","system_id":"levelo_inurba_marseille","lat":43.31318,"lon":5.39692,"is_reserved":false,"is_disabled":false,"rental_uris":{"android":"levelo://app?vid=3186623c-9f8c-4bf6-ac73-b2650f71b565","ios":"levelo://app?vid=3186623c-9f8c-4bf6-ac73-b2650f71b565"},"vehicle_type_id":"4","last_reported":1678950446,"current_range_meters":14000,"station_id":"","pricing_plan_id":"free"},{"bike_id":"d05bd1f5-7ea8-4854-886e-3e928637fc1b","system_id":"levelo_inurba_marseille","lat":43.313291,"lon":5.396838,"is_reserved":false,"is_disabled":false,"rental_uris":{"android":"levelo://app?vid=d05bd1f5-7ea8-4854-886e-3e928637fc1b","ios":"levelo://app?vid=d05bd1f5-7ea8-4854-886e-3e928637fc1b"},"vehicle_type_id":"4","last_reported":1678950446,"current_range_meters":16400,"station_id":"ce4bgvp2rcd13ifvqcu0","pricing_plan_id":"free"},{"bike_id":"b340737d-01b7-4dd3-b133-6aecb47126a5","system_id":"levelo_inurba_marseille","lat":43.29529,"lon":5.385581,"is_reserved":false,"is_disabled":false,"rental_uris":{"android":"levelo://app?vid=b340737d-01b7-4dd3-b133-6aecb47126a5","ios":"levelo://app?vid=b340737d-01b7-4dd3-b133-6aecb47126a5"},"vehicle_type_id":"4","last_reported":1678950446,"current_range_meters":19200,"station_id":"ce4bgih2rcd13ifvqba0","pricing_plan_id":"free"},{"bike_id":"0bac726f-c1d4-4285-be91-f282ed97fca8","system_id":"levelo_inurba_marseille","lat":43.29529,"lon":5.385581,"is_reserved":false,"is_disabled":false,"rental_uris":{"android":"levelo://app?vid=0bac726f-c1d4-4285-be91-f282ed97fca8","ios":"levelo://app?vid=0bac726f-c1d4-4285-be91-f282ed97fca8"},"vehicle_type_id":"4","last_reported":1678950446,"current_range_meters":27200,"station_id":"ce4bgih2rcd13ifvqba0","pricing_plan_id":"free"},{"bike_id":"998194f0-dd0e-4de1-a7f1-c279c32ff7eb","system_id":"levelo_inurba_marseille","lat":43.290779,"lon":5.371482,"is_reserved":false,"is_disabled":false,"rental_uris":{"android":"levelo://app?vid=998194f0-dd0e-4de1-a7f1-c279c32ff7eb","ios":"levelo://app?vid=998194f0-dd0e-4de1-a7f1-c279c32ff7eb"},"vehicle_type_id":"4","last_reported":1678950446,"current_range_meters":31600,"station_id":"ce4bh5p2rcd13ifvqe4g","pricing_plan_id":"free"},{"bike_id":"97dc582a-e5ed-41cc-853b-f98241f15959","system_id":"levelo_inurba_marseille","lat":43.290779,"lon":5.371482,"is_reserved":false,"is_disabled":false,"rental_uris":{"android":"levelo://app?vid=97dc582a-e5ed-41cc-853b-f98241f15959","ios":"levelo://app?vid=97dc582a-e5ed-41cc-853b-f98241f15959"},"vehicle_type_id":"4","last_reported":1678950446,"current_range_meters":31600,"station_id":"ce4bh5p2rcd13ifvqe4g","pricing_plan_id":"free"},{"bike_id":"92d5a00f-ddb1-4af8-823b-7c1ee4a3b988","system_id":"levelo_inurba_marseille","lat":43.32251,"lon":5.39468,"is_reserved":false,"is_disabled":false,"rental_uris":{"android":"levelo://app?vid=92d5a00f-ddb1-4af8-823b-7c1ee4a3b988","ios":"levelo://app?vid=92d5a00f-ddb1-4af8-823b-7c1ee4a3b988"},"vehicle_type_id":"4","last_reported":1678950446,"current_range_meters":5200,"station_id":"","pricing_plan_id":"free"},{"bike_id":"8afcddad-5c6f-4e3a-b6db-5af580757e8e","system_id":"levelo_inurba_marseille","lat":43.302008,"lon":5.394694,"is_reserved":false,"is_disabled":false,"rental_uris":{"android":"levelo://app?vid=8afcddad-5c6f-4e3a-b6db-5af580757e8e","ios":"levelo://app?vid=8afcddad-5c6f-4e3a-b6db-5af580757e8e"},"vehicle_type_id":"4","last_reported":1678950446,"current_range_meters":14800,"station_id":"ce4bh0p2rcd13ifvqd70","pricing_plan_id":"free"},{"bike_id":"da6dfb7e-d20b-494b-af72-f911b94fe555","system_id":"levelo_inurba_marseille","lat":43.289184,"lon":5.366408,"is_reserved":false,"is_disabled":false,"rental_uris":{"android":"levelo://app?vid=da6dfb7e-d20b-494b-af72-f911b94fe555","ios":"levelo://app?vid=da6dfb7e-d20b-494b-af72-f911b94fe555"},"vehicle_type_id":"4","last_reported":1678950446,"current_range_meters":6000,"station_id":"ce4bhap2rcd13ifvqek0","pricing_plan_id":"free"},{"bike_id":"7c21d604-8374-4b2c-a2fe-a87589088fc7","system_id":"levelo_inurba_marseille","lat":43.289468,"lon":5.363719,"is_reserved":false,"is_disabled":false,"rental_uris":{"android":"levelo://app?vid=7c21d604-8374-4b2c-a2fe-a87589088fc7","ios":"levelo://app?vid=7c21d604-8374-4b2c-a2fe-a87589088fc7"},"vehicle_type_id":"4","last_reported":1678950446,"current_range_meters":27600,"station_id":"ce4bhc92rcd13ifvqetg","pricing_plan_id":"free"},{"bike_id":"da10bfd1-00f5-492c-a10c-a6895d0876c9","system_id":"levelo_inurba_marseille","lat":43.289184,"lon":5.366408,"is_reserved":false,"is_disabled":false,"rental_uris":{"android":"levelo://app?vid=da10bfd1-00f5-492c-a10c-a6895d0876c9","ios":"levelo://app?vid=da10bfd1-00f5-492c-a10c-a6895d0876c9"},"vehicle_type_id":"4","last_reported":1678950446,"current_range_meters":19600,"station_id":"ce4bhap2rcd13ifvqek0","pricing_plan_id":"free"},{"bike_id":"5bef4ad3-cf86-4b0a-992a-b02c01344db4","system_id":"levelo_inurba_marseille","lat":43.290319,"lon":5.375732,"is_reserved":false,"is_disabled":false,"rental_uris":{"android":"levelo://app?vid=5bef4ad3-cf86-4b0a-992a-b02c01344db4","ios":"levelo://app?vid=5bef4ad3-cf86-4b0a-992a-b02c01344db4"},"vehicle_type_id":"4","last_reported":1678950446,"current_range_meters":27600,"station_id":"ce4bh692rcd13ifvqe90","pricing_plan_id":"free"},{"bike_id":"f2b67455-d9ac-4c19-b5b0-137d16cc64e0","system_id":"levelo_inurba_marseille","lat":43.289184,"lon":5.366408,"is_reserved":false,"is_disabled":false,"rental_uris":{"android":"levelo://app?vid=f2b67455-d9ac-4c19-b5b0-137d16cc64e0","ios":"levelo://app?vid=f2b67455-d9ac-4c19-b5b0-137d16cc64e0"},"vehicle_type_id":"4","last_reported":1678950446,"current_range_meters":25200,"station_id":"ce4bhap2rcd13ifvqek0","pricing_plan_id":"free"},{"bike_id":"00a7b906-ccd3-477c-9cf8-4d79ba3c44f4","system_id":"levelo_inurba_marseille","lat":43.289468,"lon":5.363719,"is_reserved":false,"is_disabled":false,"rental_uris":{"android":"levelo://app?vid=00a7b906-ccd3-477c-9cf8-4d79ba3c44f4","ios":"levelo://app?vid=00a7b906-ccd3-477c-9cf8-4d79ba3c44f4"},"vehicle_type_id":"4","last_reported":1678950446,"current_range_meters":26400,"station_id":"ce4bhc92rcd13ifvqetg","pricing_plan_id":"free"},{"bike_id":"ab2af1f6-132f-4fc2-80a0-450982b87ac5","system_id":"levelo_inurba_marseille","lat":43.289184,"lon":5.366408,"is_reserved":false,"is_disabled":false,"rental_uris":{"android":"levelo://app?vid=ab2af1f6-132f-4fc2-80a0-450982b87ac5","ios":"levelo://app?vid=ab2af1f6-132f-4fc2-80a0-450982b87ac5"},"vehicle_type_id":"4","last_reported":1678950446,"current_range_meters":31600,"station_id":"ce4bhap2rcd13ifvqek0","pricing_plan_id":"free"},{"bike_id":"69009438-7bbd-4f39-8cb5-5905a643729c","system_id":"levelo_inurba_marseille","lat":43.289184,"lon":5.366408,"is_reserved":false,"is_disabled":false,"rental_uris":{"android":"levelo://app?vid=69009438-7bbd-4f39-8cb5-5905a643729c","ios":"levelo://app?vid=69009438-7bbd-4f39-8cb5-5905a643729c"},"vehicle_type_id":"4","last_reported":1678950446,"current_range_meters":24400,"station_id":"ce4bhap2rcd13ifvqek0","pricing_plan_id":"free"},{"bike_id":"713e1267-ff91-48ea-938c-6613ebbfb5c6","system_id":"levelo_inurba_marseille","lat":43.289468,"lon":5.363719,"is_reserved":false,"is_disabled":false,"rental_uris":{"android":"levelo://app?vid=713e1267-ff91-48ea-938c-6613ebbfb5c6","ios":"levelo://app?vid=713e1267-ff91-48ea-938c-6613ebbfb5c6"},"vehicle_type_id":"4","last_reported":1678950446,"current_range_meters":21200,"station_id":"ce4bhc92rcd13ifvqetg","pricing_plan_id":"free"},{"bike_id":"1882748f-5cdf-415c-9b08-bfcd612cddb7","system_id":"levelo_inurba_marseille","lat":43.289468,"lon":5.363719,"is_reserved":false,"is_disabled":false,"rental_uris":{"android":"levelo://app?vid=1882748f-5cdf-415c-9b08-bfcd612cddb7","ios":"levelo://app?vid=1882748f-5cdf-415c-9b08-bfcd612cddb7"},"vehicle_type_id":"4","last_reported":1678950446,"current_range_meters":3200,"station_id":"ce4bhc92rcd13ifvqetg","pricing_plan_id":"free"},{"bike_id":"52e2298c-b562-4cfd-bdbb-617f14e40d01","system_id":"levelo_inurba_marseille","lat":43.292644,"lon":5.384257,"is_reserved":false,"is_disabled":false,"rental_uris":{"android":"levelo://app?vid=52e2298c-b562-4cfd-bdbb-617f14e40d01","ios":"levelo://app?vid=52e2298c-b562-4cfd-bdbb-617f14e40d01"},"vehicle_type_id":"4","last_reported":1678950446,"current_range_meters":31600,"station_id":"ce4bh692rcd13ifvqea0","pricing_plan_id":"free"},{"bike_id":"1e24be2d-319f-4b02-aed0-91f616bf7066","system_id":"levelo_inurba_marseille","lat":43.292644,"lon":5.384257,"is_reserved":false,"is_disabled":false,"rental_uris":{"android":"levelo://app?vid=1e24be2d-319f-4b02-aed0-91f616bf7066","ios":"levelo://app?vid=1e24be2d-319f-4b02-aed0-91f616bf7066"},"vehicle_type_id":"4","last_reported":1678950446,"current_range_meters":29600,"station_id":"ce4bh692rcd13ifvqea0","pricing_plan_id":"free"},{"bike_id":"12107e20-6218-4564-b1c9-f60e2e06bf04","system_id":"levelo_inurba_marseille","lat":43.292644,"lon":5.384257,"is_reserved":false,"is_disabled":false,"rental_uris":{"android":"levelo://app?vid=12107e20-6218-4564-b1c9-f60e2e06bf04","ios":"levelo://app?vid=12107e20-6218-4564-b1c9-f60e2e06bf04"},"vehicle_type_id":"4","last_reported":1678950446,"current_range_meters":31600,"station_id":"ce4bh692rcd13ifvqea0","pricing_plan_id":"free"},{"bike_id":"38fc527a-98a4-4956-8a71-8598d5ac779a","system_id":"levelo_inurba_marseille","lat":43.292644,"lon":5.384257,"is_reserved":false,"is_disabled":false,"rental_uris":{"android":"levelo://app?vid=38fc527a-98a4-4956-8a71-8598d5ac779a","ios":"levelo://app?vid=38fc527a-98a4-4956-8a71-8598d5ac779a"},"vehicle_type_id":"4","last_reported":1678950446,"current_range_meters":25200,"station_id":"ce4bh692rcd13ifvqea0","pricing_plan_id":"free"},{"bike_id":"06440d0e-5088-40c2-8974-ade36e400fa6","system_id":"levelo_inurba_marseille","lat":43.292644,"lon":5.384257,"is_reserved":false,"is_disabled":false,"rental_uris":{"android":"levelo://app?vid=06440d0e-5088-40c2-8974-ade36e400fa6","ios":"levelo://app?vid=06440d0e-5088-40c2-8974-ade36e400fa6"},"vehicle_type_id":"4","last_reported":1678950446,"current_range_meters":30000,"station_id":"ce4bh692rcd13ifvqea0","pricing_plan_id":"free"},{"bike_id":"26c8f421-4a49-49ba-9ae2-df3f6688abaf","system_id":"levelo_inurba_marseille","lat":43.292642,"lon":5.384254,"is_reserved":false,"is_disabled":false,"rental_uris":{"android":"levelo://app?vid=26c8f421-4a49-49ba-9ae2-df3f6688abaf","ios":"levelo://app?vid=26c8f421-4a49-49ba-9ae2-df3f6688abaf"},"vehicle_type_id":"4","last_reported":1678950446,"current_range_meters":31600,"station_id":"ce4bh692rcd13ifvqea0","pricing_plan_id":"free"},{"bike_id":"92e6f6b1-39aa-49c7-8fb0-ba54a3b1215c","system_id":"levelo_inurba_marseille","lat":43.29261,"lon":5.38453,"is_reserved":false,"is_disabled":false,"rental_uris":{"android":"levelo://app?vid=92e6f6b1-39aa-49c7-8fb0-ba54a3b1215c","ios":"levelo://app?vid=92e6f6b1-39aa-49c7-8fb0-ba54a3b1215c"},"vehicle_type_id":"4","last_reported":1678950446,"current_range_meters":28800,"station_id":"ce4bh692rcd13ifvqea0","pricing_plan_id":"free"},{"bike_id":"2994907f-b7e5-4a4d-ba97-62c1fa359117","system_id":"levelo_inurba_marseille","lat":43.292644,"lon":5.384257,"is_reserved":false,"is_disabled":false,"rental_uris":{"android":"levelo://app?vid=2994907f-b7e5-4a4d-ba97-62c1fa359117","ios":"levelo://app?vid=2994907f-b7e5-4a4d-ba97-62c1fa359117"},"vehicle_type_id":"4","last_reported":1678950446,"current_range_meters":28800,"station_id":"ce4bh692rcd13ifvqea0","pricing_plan_id":"free"},{"bike_id":"af48839c-2b78-4e4f-a794-ecb4495edeb5","system_id":"levelo_inurba_marseille","lat":43.290995,"lon":5.381361,"is_reserved":false,"is_disabled":false,"rental_uris":{"android":"levelo://app?vid=af48839c-2b78-4e4f-a794-ecb4495edeb5","ios":"levelo://app?vid=af48839c-2b78-4e4f-a794-ecb4495edeb5"},"vehicle_type_id":"4","last_reported":1678950446,"current_range_meters":25600,"station_id":"ce4bh512rcd13ifvqe2g","pricing_plan_id":"free"},{"bike_id":"a407e97c-53aa-4463-a912-d3d50e7abd51","system_id":"levelo_inurba_marseille","lat":43.290995,"lon":5.381361,"is_reserved":false,"is_disabled":false,"rental_uris":{"android":"levelo://app?vid=a407e97c-53aa-4463-a912-d3d50e7abd51","ios":"levelo://app?vid=a407e97c-53aa-4463-a912-d3d50e7abd51"},"vehicle_type_id":"4","last_reported":1678950446,"current_range_meters":2000,"station_id":"ce4bh512rcd13ifvqe2g","pricing_plan_id":"free"},{"bike_id":"aad1291b-a5d6-40c3-b2f5-1bb3ab108063","system_id":"levelo_inurba_marseille","lat":43.290995,"lon":5.381361,"is_reserved":false,"is_disabled":false,"rental_uris":{"android":"levelo://app?vid=aad1291b-a5d6-40c3-b2f5-1bb3ab108063","ios":"levelo://app?vid=aad1291b-a5d6-40c3-b2f5-1bb3ab108063"},"vehicle_type_id":"4","last_reported":1678950446,"current_range_meters":23200,"station_id":"ce4bh512rcd13ifvqe2g","pricing_plan_id":"free"},{"bike_id":"e43c198f-92ca-4bb5-acd8-b8dc02a3459b","system_id":"levelo_inurba_marseille","lat":43.290995,"lon":5.381361,"is_reserved":false,"is_disabled":false,"rental_uris":{"android":"levelo://app?vid=e43c198f-92ca-4bb5-acd8-b8dc02a3459b","ios":"levelo://app?vid=e43c198f-92ca-4bb5-acd8-b8dc02a3459b"},"vehicle_type_id":"4","last_reported":1678950446,"current_range_meters":28800,"station_id":"ce4bh512rcd13ifvqe2g","pricing_plan_id":"free"},{"bike_id":"eb6356a5-1973-4822-b366-d5e76c4afa4a","system_id":"levelo_inurba_marseille","lat":43.290995,"lon":5.381361,"is_reserved":false,"is_disabled":false,"rental_uris":{"android":"levelo://app?vid=eb6356a5-1973-4822-b366-d5e76c4afa4a","ios":"levelo://app?vid=eb6356a5-1973-4822-b366-d5e76c4afa4a"},"vehicle_type_id":"4","last_reported":1678950446,"current_range_meters":23600,"station_id":"ce4bh512rcd13ifvqe2g","pricing_plan_id":"free"},{"bike_id":"51b5c88b-0053-4ec9-956e-890af92172a1","system_id":"levelo_inurba_marseille","lat":43.289741,"lon":5.378306,"is_reserved":false,"is_disabled":false,"rental_uris":{"android":"levelo://app?vid=51b5c88b-0053-4ec9-956e-890af92172a1","ios":"levelo://app?vid=51b5c88b-0053-4ec9-956e-890af92172a1"},"vehicle_type_id":"4","last_reported":1678950446,"current_range_meters":20800,"station_id":"ce4bh9p2rcd13ifvqed0","pricing_plan_id":"free"},{"bike_id":"7f6e1a0f-3d5a-4ed5-bd3e-8b7df9da4ede","system_id":"levelo_inurba_marseille","lat":43.290995,"lon":5.381361,"is_reserved":false,"is_disabled":false,"rental_uris":{"android":"levelo://app?vid=7f6e1a0f-3d5a-4ed5-bd3e-8b7df9da4ede","ios":"levelo://app?vid=7f6e1a0f-3d5a-4ed5-bd3e-8b7df9da4ede"},"vehicle_type_id":"4","last_reported":1678950446,"current_range_meters":15600,"station_id":"ce4bh512rcd13ifvqe2g","pricing_plan_id":"free"},{"bike_id":"8757e6e5-dd63-4971-90be-f0e8d97c19a3","system_id":"levelo_inurba_marseille","lat":43.289743,"lon":5.378304,"is_reserved":false,"is_disabled":false,"rental_uris":{"android":"levelo://app?vid=8757e6e5-dd63-4971-90be-f0e8d97c19a3","ios":"levelo://app?vid=8757e6e5-dd63-4971-90be-f0e8d97c19a3"},"vehicle_type_id":"4","last_reported":1678950446,"current_range_meters":13200,"station_id":"ce4bh9p2rcd13ifvqed0","pricing_plan_id":"free"},{"bike_id":"a5066231-9497-4c6d-8359-82b6963a5a35","system_id":"levelo_inurba_marseille","lat":43.289741,"lon":5.378306,"is_reserved":false,"is_disabled":false,"rental_uris":{"android":"levelo://app?vid=a5066231-9497-4c6d-8359-82b6963a5a35","ios":"levelo://app?vid=a5066231-9497-4c6d-8359-82b6963a5a35"},"vehicle_type_id":"4","last_reported":1678950446,"current_range_meters":30400,"station_id":"ce4bh9p2rcd13ifvqed0","pricing_plan_id":"free"},{"bike_id":"91537d61-f150-48c7-80df-3bbce18b07f5","system_id":"levelo_inurba_marseille","lat":43.28856,"lon":5.358371,"is_reserved":false,"is_disabled":false,"rental_uris":{"android":"levelo://app?vid=91537d61-f150-48c7-80df-3bbce18b07f5","ios":"levelo://app?vid=91537d61-f150-48c7-80df-3bbce18b07f5"},"vehicle_type_id":"4","last_reported":1678950446,"current_range_meters":28400,"station_id":"ce4bhb12rcd13ifvqem0","pricing_plan_id":"free"},{"bike_id":"644a2a64-04bc-4f02-80d5-7d4e1faf1f92","system_id":"levelo_inurba_marseille","lat":43.28856,"lon":5.358371,"is_reserved":false,"is_disabled":false,"rental_uris":{"android":"levelo://app?vid=644a2a64-04bc-4f02-80d5-7d4e1faf1f92","ios":"levelo://app?vid=644a2a64-04bc-4f02-80d5-7d4e1faf1f92"},"vehicle_type_id":"4","last_reported":1678950446,"current_range_meters":10400,"station_id":"ce4bhb12rcd13ifvqem0","pricing_plan_id":"free"},{"bike_id":"0caa08f8-9b71-4d24-83f6-8fd489d564e6","system_id":"levelo_inurba_marseille","lat":43.28856,"lon":5.358371,"is_reserved":false,"is_disabled":false,"rental_uris":{"android":"levelo://app?vid=0caa08f8-9b71-4d24-83f6-8fd489d564e6","ios":"levelo://app?vid=0caa08f8-9b71-4d24-83f6-8fd489d564e6"},"vehicle_type_id":"4","last_reported":1678950446,"current_range_meters":29200,"station_id":"ce4bhb12rcd13ifvqem0","pricing_plan_id":"free"},{"bike_id":"b37c9b88-5770-4d91-80e6-fcf5d1ca448f","system_id":"levelo_inurba_marseille","lat":43.337528,"lon":5.374436,"is_reserved":false,"is_disabled":false,"rental_uris":{"android":"levelo://app?vid=b37c9b88-5770-4d91-80e6-fcf5d1ca448f","ios":"levelo://app?vid=b37c9b88-5770-4d91-80e6-fcf5d1ca448f"},"vehicle_type_id":"4","last_reported":1678950446,"current_range_meters":29600,"station_id":"","pricing_plan_id":"free"},{"bike_id":"e38031a5-bbc7-4d84-9dac-86431e6ebaa8","system_id":"levelo_inurba_marseille","lat":43.302759,"lon":5.400793,"is_reserved":false,"is_disabled":false,"rental_uris":{"android":"levelo://app?vid=e38031a5-bbc7-4d84-9dac-86431e6ebaa8","ios":"levelo://app?vid=e38031a5-bbc7-4d84-9dac-86431e6ebaa8"},"vehicle_type_id":"4","last_reported":1678950446,"current_range_meters":0,"station_id":"ce4bgvh2rcd13ifvqcs0","pricing_plan_id":"free"},{"bike_id":"1a4e54b1-91ad-451d-8dd9-2be04be64c2e","system_id":"levelo_inurba_marseille","lat":43.287185,"lon":5.379373,"is_reserved":false,"is_disabled":false,"rental_uris":{"android":"levelo://app?vid=1a4e54b1-91ad-451d-8dd9-2be04be64c2e","ios":"levelo://app?vid=1a4e54b1-91ad-451d-8dd9-2be04be64c2e"},"vehicle_type_id":"4","last_reported":1678950446,"current_range_meters":28000,"station_id":"ce4bh9p2rcd13ifvqec0","pricing_plan_id":"free"},{"bike_id":"bc951291-50ce-4c0b-a7f8-f372ee33ac8d","system_id":"levelo_inurba_marseille","lat":43.287185,"lon":5.379373,"is_reserved":false,"is_disabled":false,"rental_uris":{"android":"levelo://app?vid=bc951291-50ce-4c0b-a7f8-f372ee33ac8d","ios":"levelo://app?vid=bc951291-50ce-4c0b-a7f8-f372ee33ac8d"},"vehicle_type_id":"4","last_reported":1678950446,"current_range_meters":26400,"station_id":"ce4bh9p2rcd13ifvqec0","pricing_plan_id":"free"},{"bike_id":"012a6106-e598-454d-8b0e-cae451213a95","system_id":"levelo_inurba_marseille","lat":43.284606,"lon":5.358928,"is_reserved":false,"is_disabled":false,"rental_uris":{"android":"levelo://app?vid=012a6106-e598-454d-8b0e-cae451213a95","ios":"levelo://app?vid=012a6106-e598-454d-8b0e-cae451213a95"},"vehicle_type_id":"4","last_reported":1678950446,"current_range_meters":19200,"station_id":"","pricing_plan_id":"free"},{"bike_id":"6ad02cbb-083c-401d-9fe2-62b99ca5356c","system_id":"levelo_inurba_marseille","lat":43.284588,"lon":5.358962,"is_reserved":false,"is_disabled":false,"rental_uris":{"android":"levelo://app?vid=6ad02cbb-083c-401d-9fe2-62b99ca5356c","ios":"levelo://app?vid=6ad02cbb-083c-401d-9fe2-62b99ca5356c"},"vehicle_type_id":"4","last_reported":1678950446,"current_range_meters":18000,"station_id":"ce4bhah2rcd13ifvqei0","pricing_plan_id":"free"},{"bike_id":"a3ffbefb-763e-47d8-866b-affd2cacc778","system_id":"levelo_inurba_marseille","lat":43.337175,"lon":5.391875,"is_reserved":false,"is_disabled":false,"rental_uris":{"android":"levelo://app?vid=a3ffbefb-763e-47d8-866b-affd2cacc778","ios":"levelo://app?vid=a3ffbefb-763e-47d8-866b-affd2cacc778"},"vehicle_type_id":"4","last_reported":1678950446,"current_range_meters":24000,"station_id":"","pricing_plan_id":"free"},{"bike_id":"42896b38-34ac-492d-ad87-9574b998f595","system_id":"levelo_inurba_marseille","lat":43.323379,"lon":5.406158,"is_reserved":false,"is_disabled":false,"rental_uris":{"android":"levelo://app?vid=42896b38-34ac-492d-ad87-9574b998f595","ios":"levelo://app?vid=42896b38-34ac-492d-ad87-9574b998f595"},"vehicle_type_id":"4","last_reported":1678950446,"current_range_meters":28800,"station_id":"","pricing_plan_id":"free"},{"bike_id":"34b7b8d0-079e-43aa-9abd-0106fac3b082","system_id":"levelo_inurba_marseille","lat":43.337238,"lon":5.391829,"is_reserved":false,"is_disabled":false,"rental_uris":{"android":"levelo://app?vid=34b7b8d0-079e-43aa-9abd-0106fac3b082","ios":"levelo://app?vid=34b7b8d0-079e-43aa-9abd-0106fac3b082"},"vehicle_type_id":"4","last_reported":1678950446,"current_range_meters":30400,"station_id":"ce4bhr92rcd13ifvqhsg","pricing_plan_id":"free"},{"bike_id":"239772d2-119e-4412-85dd-25078d160443","system_id":"levelo_inurba_marseille","lat":43.32339,"lon":5.40617,"is_reserved":false,"is_disabled":false,"rental_uris":{"android":"levelo://app?vid=239772d2-119e-4412-85dd-25078d160443","ios":"levelo://app?vid=239772d2-119e-4412-85dd-25078d160443"},"vehicle_type_id":"4","last_reported":1678950446,"current_range_meters":28800,"station_id":"","pricing_plan_id":"free"},{"bike_id":"4bd797f9-7454-4f80-aa0c-bf48d3a8d990","system_id":"levelo_inurba_marseille","lat":43.337275,"lon":5.391799,"is_reserved":false,"is_disabled":false,"rental_uris":{"android":"levelo://app?vid=4bd797f9-7454-4f80-aa0c-bf48d3a8d990","ios":"levelo://app?vid=4bd797f9-7454-4f80-aa0c-bf48d3a8d990"},"vehicle_type_id":"4","last_reported":1678950446,"current_range_meters":20000,"station_id":"ce4bhr92rcd13ifvqhsg","pricing_plan_id":"free"},{"bike_id":"dc36b888-c12e-496f-b05c-f1f98a68fb93","system_id":"levelo_inurba_marseille","lat":43.32337,"lon":5.40622,"is_reserved":false,"is_disabled":false,"rental_uris":{"android":"levelo://app?vid=dc36b888-c12e-496f-b05c-f1f98a68fb93","ios":"levelo://app?vid=dc36b888-c12e-496f-b05c-f1f98a68fb93"},"vehicle_type_id":"4","last_reported":1678950446,"current_range_meters":29600,"station_id":"","pricing_plan_id":"free"},{"bike_id":"41506c21-a673-452f-b8c0-be660706ae0a","system_id":"levelo_inurba_marseille","lat":43.32341,"lon":5.4062,"is_reserved":false,"is_disabled":false,"rental_uris":{"android":"levelo://app?vid=41506c21-a673-452f-b8c0-be660706ae0a","ios":"levelo://app?vid=41506c21-a673-452f-b8c0-be660706ae0a"},"vehicle_type_id":"4","last_reported":1678950446,"current_range_meters":24800,"station_id":"","pricing_plan_id":"free"},{"bike_id":"d0c7feb2-bfdc-4875-a862-7fe128d8ff4d","system_id":"levelo_inurba_marseille","lat":43.323407,"lon":5.406232,"is_reserved":false,"is_disabled":false,"rental_uris":{"android":"levelo://app?vid=d0c7feb2-bfdc-4875-a862-7fe128d8ff4d","ios":"levelo://app?vid=d0c7feb2-bfdc-4875-a862-7fe128d8ff4d"},"vehicle_type_id":"4","last_reported":1678950446,"current_range_meters":12000,"station_id":"","pricing_plan_id":"free"},{"bike_id":"64c24b14-cfe0-4be8-b0e8-9f40a1458e78","system_id":"levelo_inurba_marseille","lat":43.287154,"lon":5.399979,"is_reserved":false,"is_disabled":false,"rental_uris":{"android":"levelo://app?vid=64c24b14-cfe0-4be8-b0e8-9f40a1458e78","ios":"levelo://app?vid=64c24b14-cfe0-4be8-b0e8-9f40a1458e78"},"vehicle_type_id":"4","last_reported":1678950446,"current_range_meters":22800,"station_id":"ce4bho92rcd13ifvqh3g","pricing_plan_id":"free"},{"bike_id":"355236a6-d794-4ef3-b1a5-c760337d7ff9","system_id":"levelo_inurba_marseille","lat":43.284272,"lon":5.349855,"is_reserved":false,"is_disabled":false,"rental_uris":{"android":"levelo://app?vid=355236a6-d794-4ef3-b1a5-c760337d7ff9","ios":"levelo://app?vid=355236a6-d794-4ef3-b1a5-c760337d7ff9"},"vehicle_type_id":"4","last_reported":1678950446,"current_range_meters":24000,"station_id":"ce4bhbh2rcd13ifvqepg","pricing_plan_id":"free"},{"bike_id":"8579fdb6-246d-438a-b198-b051963e2622","system_id":"levelo_inurba_marseille","lat":43.284257,"lon":5.349828,"is_reserved":false,"is_disabled":false,"rental_uris":{"android":"levelo://app?vid=8579fdb6-246d-438a-b198-b051963e2622","ios":"levelo://app?vid=8579fdb6-246d-438a-b198-b051963e2622"},"vehicle_type_id":"4","last_reported":1678950446,"current_range_meters":29600,"station_id":"ce4bhbh2rcd13ifvqepg","pricing_plan_id":"free"},{"bike_id":"419f2412-30e8-4a75-8caa-a5b53c3bde39","system_id":"levelo_inurba_marseille","lat":43.28425,"lon":5.34985,"is_reserved":false,"is_disabled":false,"rental_uris":{"android":"levelo://app?vid=419f2412-30e8-4a75-8caa-a5b53c3bde39","ios":"levelo://app?vid=419f2412-30e8-4a75-8caa-a5b53c3bde39"},"vehicle_type_id":"4","last_reported":1678950446,"current_range_meters":29200,"station_id":"ce4bhbh2rcd13ifvqepg","pricing_plan_id":"free"},{"bike_id":"ec7514b7-e065-4a5d-9c11-01cc56054e07","system_id":"levelo_inurba_marseille","lat":43.28341,"lon":5.38108,"is_reserved":false,"is_disabled":false,"rental_uris":{"android":"levelo://app?vid=ec7514b7-e065-4a5d-9c11-01cc56054e07","ios":"levelo://app?vid=ec7514b7-e065-4a5d-9c11-01cc56054e07"},"vehicle_type_id":"4","last_reported":1678950446,"current_range_meters":10400,"station_id":"","pricing_plan_id":"free"},{"bike_id":"071830cb-e3a0-41d6-8528-cdaf0418b1ba","system_id":"levelo_inurba_marseille","lat":43.289363,"lon":5.396322,"is_reserved":false,"is_disabled":false,"rental_uris":{"android":"levelo://app?vid=071830cb-e3a0-41d6-8528-cdaf0418b1ba","ios":"levelo://app?vid=071830cb-e3a0-41d6-8528-cdaf0418b1ba"},"vehicle_type_id":"4","last_reported":1678950446,"current_range_meters":28400,"station_id":"ce4bh3h2rcd13ifvqdn0","pricing_plan_id":"free"},{"bike_id":"01161e67-8b45-44dd-a538-ec4dc3588dd5","system_id":"levelo_inurba_marseille","lat":43.289363,"lon":5.396322,"is_reserved":false,"is_disabled":false,"rental_uris":{"android":"levelo://app?vid=01161e67-8b45-44dd-a538-ec4dc3588dd5","ios":"levelo://app?vid=01161e67-8b45-44dd-a538-ec4dc3588dd5"},"vehicle_type_id":"4","last_reported":1678950446,"current_range_meters":4800,"station_id":"ce4bh3h2rcd13ifvqdn0","pricing_plan_id":"free"},{"bike_id":"38b88bf5-fe07-4135-bc17-2e52fbd94f60","system_id":"levelo_inurba_marseille","lat":43.292724,"lon":5.401131,"is_reserved":false,"is_disabled":false,"rental_uris":{"android":"levelo://app?vid=38b88bf5-fe07-4135-bc17-2e52fbd94f60","ios":"levelo://app?vid=38b88bf5-fe07-4135-bc17-2e52fbd94f60"},"vehicle_type_id":"4","last_reported":1678950446,"current_range_meters":27200,"station_id":"ce4bh312rcd13ifvqdk0","pricing_plan_id":"free"},{"bike_id":"e1d29941-f3de-400b-b61e-baaa0c7fe620","system_id":"levelo_inurba_marseille","lat":43.292724,"lon":5.401131,"is_reserved":false,"is_disabled":false,"rental_uris":{"android":"levelo://app?vid=e1d29941-f3de-400b-b61e-baaa0c7fe620","ios":"levelo://app?vid=e1d29941-f3de-400b-b61e-baaa0c7fe620"},"vehicle_type_id":"4","last_reported":1678950446,"current_range_meters":16800,"station_id":"ce4bh312rcd13ifvqdk0","pricing_plan_id":"free"},{"bike_id":"d9fd0121-425c-4951-b5b5-2859cf08aa74","system_id":"levelo_inurba_marseille","lat":43.29275,"lon":5.40111,"is_reserved":false,"is_disabled":false,"rental_uris":{"android":"levelo://app?vid=d9fd0121-425c-4951-b5b5-2859cf08aa74","ios":"levelo://app?vid=d9fd0121-425c-4951-b5b5-2859cf08aa74"},"vehicle_type_id":"4","last_reported":1678950446,"current_range_meters":0,"station_id":"ce4bh312rcd13ifvqdk0","pricing_plan_id":"free"},{"bike_id":"d4cf1d11-6cda-4f3a-a2f1-3959bc4fce26","system_id":"levelo_inurba_marseille","lat":43.29286,"lon":5.40126,"is_reserved":false,"is_disabled":false,"rental_uris":{"android":"levelo://app?vid=d4cf1d11-6cda-4f3a-a2f1-3959bc4fce26","ios":"levelo://app?vid=d4cf1d11-6cda-4f3a-a2f1-3959bc4fce26"},"vehicle_type_id":"4","last_reported":1678950446,"current_range_meters":28800,"station_id":"","pricing_plan_id":"free"},{"bike_id":"437b391e-c2f3-4a93-aef8-0cb66007627f","system_id":"levelo_inurba_marseille","lat":43.292724,"lon":5.401131,"is_reserved":false,"is_disabled":false,"rental_uris":{"android":"levelo://app?vid=437b391e-c2f3-4a93-aef8-0cb66007627f","ios":"levelo://app?vid=437b391e-c2f3-4a93-aef8-0cb66007627f"},"vehicle_type_id":"4","last_reported":1678950446,"current_range_meters":18800,"station_id":"ce4bh312rcd13ifvqdk0","pricing_plan_id":"free"},{"bike_id":"1d2610a0-39d2-4549-b3a8-c0bd1e2bc7c5","system_id":"levelo_inurba_marseille","lat":43.29267,"lon":5.40108,"is_reserved":false,"is_disabled":false,"rental_uris":{"android":"levelo://app?vid=1d2610a0-39d2-4549-b3a8-c0bd1e2bc7c5","ios":"levelo://app?vid=1d2610a0-39d2-4549-b3a8-c0bd1e2bc7c5"},"vehicle_type_id":"4","last_reported":1678950446,"current_range_meters":16800,"station_id":"ce4bh312rcd13ifvqdk0","pricing_plan_id":"free"},{"bike_id":"dc22176d-8fc3-41bd-9182-9e0682dbb3af","system_id":"levelo_inurba_marseille","lat":43.28039,"lon":5.369297,"is_reserved":false,"is_disabled":false,"rental_uris":{"android":"levelo://app?vid=dc22176d-8fc3-41bd-9182-9e0682dbb3af","ios":"levelo://app?vid=dc22176d-8fc3-41bd-9182-9e0682dbb3af"},"vehicle_type_id":"4","last_reported":1678950446,"current_range_meters":28800,"station_id":"ce4bha12rcd13ifvqef0","pricing_plan_id":"free"},{"bike_id":"97d46864-08bc-49d4-abad-253ef06da94b","system_id":"levelo_inurba_marseille","lat":43.281745,"lon":5.352762,"is_reserved":false,"is_disabled":false,"rental_uris":{"android":"levelo://app?vid=97d46864-08bc-49d4-abad-253ef06da94b","ios":"levelo://app?vid=97d46864-08bc-49d4-abad-253ef06da94b"},"vehicle_type_id":"4","last_reported":1678950446,"current_range_meters":2800,"station_id":"","pricing_plan_id":"free"},{"bike_id":"88c773d9-dc31-44ae-8a88-ce088366189b","system_id":"levelo_inurba_marseille","lat":43.29041,"lon":5.399634,"is_reserved":false,"is_disabled":false,"rental_uris":{"android":"levelo://app?vid=88c773d9-dc31-44ae-8a88-ce088366189b","ios":"levelo://app?vid=88c773d9-dc31-44ae-8a88-ce088366189b"},"vehicle_type_id":"4","last_reported":1678950446,"current_range_meters":15600,"station_id":"ce4bh392rcd13ifvqdm0","pricing_plan_id":"free"},{"bike_id":"6490b82d-9fc0-432a-8152-98f50e4621e2","system_id":"levelo_inurba_marseille","lat":43.281044,"lon":5.378308,"is_reserved":false,"is_disabled":false,"rental_uris":{"android":"levelo://app?vid=6490b82d-9fc0-432a-8152-98f50e4621e2","ios":"levelo://app?vid=6490b82d-9fc0-432a-8152-98f50e4621e2"},"vehicle_type_id":"4","last_reported":1678950446,"current_range_meters":5600,"station_id":"ce4bha12rcd13ifvqee0","pricing_plan_id":"free"},{"bike_id":"8f017e09-e7ff-4439-9213-272efc78e176","system_id":"levelo_inurba_marseille","lat":43.283304,"lon":5.389004,"is_reserved":false,"is_disabled":false,"rental_uris":{"android":"levelo://app?vid=8f017e09-e7ff-4439-9213-272efc78e176","ios":"levelo://app?vid=8f017e09-e7ff-4439-9213-272efc78e176"},"vehicle_type_id":"4","last_reported":1678950446,"current_range_meters":17200,"station_id":"","pricing_plan_id":"free"},{"bike_id":"35ea7f93-b0b7-45f9-b9e2-a66548424a58","system_id":"levelo_inurba_marseille","lat":43.32038,"lon":5.41544,"is_reserved":false,"is_disabled":false,"rental_uris":{"android":"levelo://app?vid=35ea7f93-b0b7-45f9-b9e2-a66548424a58","ios":"levelo://app?vid=35ea7f93-b0b7-45f9-b9e2-a66548424a58"},"vehicle_type_id":"4","last_reported":1678950446,"current_range_meters":0,"station_id":"","pricing_plan_id":"free"},{"bike_id":"9b2d5cac-2ac8-4361-9b08-8081ca3dcbe7","system_id":"levelo_inurba_marseille","lat":43.279742,"lon":5.38744,"is_reserved":false,"is_disabled":false,"rental_uris":{"android":"levelo://app?vid=9b2d5cac-2ac8-4361-9b08-8081ca3dcbe7","ios":"levelo://app?vid=9b2d5cac-2ac8-4361-9b08-8081ca3dcbe7"},"vehicle_type_id":"4","last_reported":1678950446,"current_range_meters":31600,"station_id":"ce4bhg12rcd13ifvqf80","pricing_plan_id":"free"},{"bike_id":"785c8b8b-4d5f-4045-8773-7853a179ffff","system_id":"levelo_inurba_marseille","lat":43.27966,"lon":5.38734,"is_reserved":false,"is_disabled":false,"rental_uris":{"android":"levelo://app?vid=785c8b8b-4d5f-4045-8773-7853a179ffff","ios":"levelo://app?vid=785c8b8b-4d5f-4045-8773-7853a179ffff"},"vehicle_type_id":"4","last_reported":1678950446,"current_range_meters":0,"station_id":"ce4bhg12rcd13ifvqf80","pricing_plan_id":"free"},{"bike_id":"5b31d115-51b2-4dd3-bf7c-afce08fb79cd","system_id":"levelo_inurba_marseille","lat":43.279742,"lon":5.38744,"is_reserved":false,"is_disabled":false,"rental_uris":{"android":"levelo://app?vid=5b31d115-51b2-4dd3-bf7c-afce08fb79cd","ios":"levelo://app?vid=5b31d115-51b2-4dd3-bf7c-afce08fb79cd"},"vehicle_type_id":"4","last_reported":1678950446,"current_range_meters":26800,"station_id":"ce4bhg12rcd13ifvqf80","pricing_plan_id":"free"},{"bike_id":"18748e66-c446-4b52-820e-c6c0a5239b64","system_id":"levelo_inurba_marseille","lat":43.29986,"lon":5.41361,"is_reserved":false,"is_disabled":false,"rental_uris":{"android":"levelo://app?vid=18748e66-c446-4b52-820e-c6c0a5239b64","ios":"levelo://app?vid=18748e66-c446-4b52-820e-c6c0a5239b64"},"vehicle_type_id":"4","last_reported":1678950446,"current_range_meters":21600,"station_id":"","pricing_plan_id":"free"},{"bike_id":"df19ce18-626a-440f-b7c7-05bc628d7240","system_id":"levelo_inurba_marseille","lat":43.325233,"lon":5.414318,"is_reserved":false,"is_disabled":false,"rental_uris":{"android":"levelo://app?vid=df19ce18-626a-440f-b7c7-05bc628d7240","ios":"levelo://app?vid=df19ce18-626a-440f-b7c7-05bc628d7240"},"vehicle_type_id":"4","last_reported":1678950446,"current_range_meters":23600,"station_id":"ce4bhq12rcd13ifvqhhg","pricing_plan_id":"free"},{"bike_id":"15219edf-f0de-45f8-acdf-8f297ff18db1","system_id":"levelo_inurba_marseille","lat":43.32539,"lon":5.41422,"is_reserved":false,"is_disabled":false,"rental_uris":{"android":"levelo://app?vid=15219edf-f0de-45f8-acdf-8f297ff18db1","ios":"levelo://app?vid=15219edf-f0de-45f8-acdf-8f297ff18db1"},"vehicle_type_id":"4","last_reported":1678950446,"current_range_meters":20400,"station_id":"","pricing_plan_id":"free"},{"bike_id":"233fa397-be77-4604-a988-683912fdba96","system_id":"levelo_inurba_marseille","lat":43.325233,"lon":5.414318,"is_reserved":false,"is_disabled":false,"rental_uris":{"android":"levelo://app?vid=233fa397-be77-4604-a988-683912fdba96","ios":"levelo://app?vid=233fa397-be77-4604-a988-683912fdba96"},"vehicle_type_id":"4","last_reported":1678950446,"current_range_meters":10800,"station_id":"ce4bhq12rcd13ifvqhhg","pricing_plan_id":"free"},{"bike_id":"f30c6429-e195-4105-954c-743a78e1fdaf","system_id":"levelo_inurba_marseille","lat":43.32536,"lon":5.41426,"is_reserved":false,"is_disabled":false,"rental_uris":{"android":"levelo://app?vid=f30c6429-e195-4105-954c-743a78e1fdaf","ios":"levelo://app?vid=f30c6429-e195-4105-954c-743a78e1fdaf"},"vehicle_type_id":"4","last_reported":1678950446,"current_range_meters":10400,"station_id":"","pricing_plan_id":"free"},{"bike_id":"89c67a49-e41b-493a-8e6c-cd30ca98d465","system_id":"levelo_inurba_marseille","lat":43.325243,"lon":5.414326,"is_reserved":false,"is_disabled":false,"rental_uris":{"android":"levelo://app?vid=89c67a49-e41b-493a-8e6c-cd30ca98d465","ios":"levelo://app?vid=89c67a49-e41b-493a-8e6c-cd30ca98d465"},"vehicle_type_id":"4","last_reported":1678950446,"current_range_meters":19600,"station_id":"ce4bhq12rcd13ifvqhhg","pricing_plan_id":"free"},{"bike_id":"d8466102-3147-4c82-81f9-49626317b4bf","system_id":"levelo_inurba_marseille","lat":43.3254,"lon":5.41425,"is_reserved":false,"is_disabled":false,"rental_uris":{"android":"levelo://app?vid=d8466102-3147-4c82-81f9-49626317b4bf","ios":"levelo://app?vid=d8466102-3147-4c82-81f9-49626317b4bf"},"vehicle_type_id":"4","last_reported":1678950446,"current_range_meters":0,"station_id":"","pricing_plan_id":"free"},{"bike_id":"417d0697-d334-4620-9119-0295b536ed14","system_id":"levelo_inurba_marseille","lat":43.32497,"lon":5.41465,"is_reserved":false,"is_disabled":false,"rental_uris":{"android":"levelo://app?vid=417d0697-d334-4620-9119-0295b536ed14","ios":"levelo://app?vid=417d0697-d334-4620-9119-0295b536ed14"},"vehicle_type_id":"4","last_reported":1678950446,"current_range_meters":5600,"station_id":"","pricing_plan_id":"free"},{"bike_id":"ba90f40d-133c-4f05-8f63-fc18dc680875","system_id":"levelo_inurba_marseille","lat":43.32498,"lon":5.41467,"is_reserved":false,"is_disabled":false,"rental_uris":{"android":"levelo://app?vid=ba90f40d-133c-4f05-8f63-fc18dc680875","ios":"levelo://app?vid=ba90f40d-133c-4f05-8f63-fc18dc680875"},"vehicle_type_id":"4","last_reported":1678950446,"current_range_meters":21600,"station_id":"","pricing_plan_id":"free"},{"bike_id":"99992138-152b-4a9d-ad3c-9c9a6c891f74","system_id":"levelo_inurba_marseille","lat":43.32493,"lon":5.4147,"is_reserved":false,"is_disabled":false,"rental_uris":{"android":"levelo://app?vid=99992138-152b-4a9d-ad3c-9c9a6c891f74","ios":"levelo://app?vid=99992138-152b-4a9d-ad3c-9c9a6c891f74"},"vehicle_type_id":"4","last_reported":1678950446,"current_range_meters":22400,"station_id":"ce4bhq12rcd13ifvqhhg","pricing_plan_id":"free"},{"bike_id":"4710e668-322b-4cc2-82ae-e24b8e70f886","system_id":"levelo_inurba_marseille","lat":43.32491,"lon":5.41471,"is_reserved":false,"is_disabled":false,"rental_uris":{"android":"levelo://app?vid=4710e668-322b-4cc2-82ae-e24b8e70f886","ios":"levelo://app?vid=4710e668-322b-4cc2-82ae-e24b8e70f886"},"vehicle_type_id":"4","last_reported":1678950446,"current_range_meters":27600,"station_id":"","pricing_plan_id":"free"},{"bike_id":"94b855f5-f81f-4142-a60e-698a2e0fa2d4","system_id":"levelo_inurba_marseille","lat":43.32498,"lon":5.41469,"is_reserved":false,"is_disabled":false,"rental_uris":{"android":"levelo://app?vid=94b855f5-f81f-4142-a60e-698a2e0fa2d4","ios":"levelo://app?vid=94b855f5-f81f-4142-a60e-698a2e0fa2d4"},"vehicle_type_id":"4","last_reported":1678950446,"current_range_meters":10800,"station_id":"","pricing_plan_id":"free"},{"bike_id":"c5980221-ecd8-4a7f-a26e-9cab91b14058","system_id":"levelo_inurba_marseille","lat":43.325243,"lon":5.414326,"is_reserved":false,"is_disabled":false,"rental_uris":{"android":"levelo://app?vid=c5980221-ecd8-4a7f-a26e-9cab91b14058","ios":"levelo://app?vid=c5980221-ecd8-4a7f-a26e-9cab91b14058"},"vehicle_type_id":"4","last_reported":1678950446,"current_range_meters":30400,"station_id":"ce4bhq12rcd13ifvqhhg","pricing_plan_id":"free"},{"bike_id":"f7dfeac4-f961-48fa-8de0-42431e6b2a37","system_id":"levelo_inurba_marseille","lat":43.276118,"lon":5.361109,"is_reserved":false,"is_disabled":false,"rental_uris":{"android":"levelo://app?vid=f7dfeac4-f961-48fa-8de0-42431e6b2a37","ios":"levelo://app?vid=f7dfeac4-f961-48fa-8de0-42431e6b2a37"},"vehicle_type_id":"4","last_reported":1678950446,"current_range_meters":0,"station_id":"ce4bgj92rcd13ifvqbe0","pricing_plan_id":"free"},{"bike_id":"c4ab4150-0b07-4684-a8dc-7ea0054b97ed","system_id":"levelo_inurba_marseille","lat":43.280823,"lon":5.396495,"is_reserved":false,"is_disabled":false,"rental_uris":{"android":"levelo://app?vid=c4ab4150-0b07-4684-a8dc-7ea0054b97ed","ios":"levelo://app?vid=c4ab4150-0b07-4684-a8dc-7ea0054b97ed"},"vehicle_type_id":"4","last_reported":1678950446,"current_range_meters":0,"station_id":"","pricing_plan_id":"free"},{"bike_id":"0d65cf68-9e3c-4f75-aa57-dd331cfc64fb","system_id":"levelo_inurba_marseille","lat":43.273613,"lon":5.362705,"is_reserved":false,"is_disabled":false,"rental_uris":{"android":"levelo://app?vid=0d65cf68-9e3c-4f75-aa57-dd331cfc64fb","ios":"levelo://app?vid=0d65cf68-9e3c-4f75-aa57-dd331cfc64fb"},"vehicle_type_id":"4","last_reported":1678950446,"current_range_meters":29600,"station_id":"ce4bhbh2rcd13ifvqeo0","pricing_plan_id":"free"},{"bike_id":"923d8507-12c3-40fd-b22f-c57feba2b4fe","system_id":"levelo_inurba_marseille","lat":43.273613,"lon":5.362705,"is_reserved":false,"is_disabled":false,"rental_uris":{"android":"levelo://app?vid=923d8507-12c3-40fd-b22f-c57feba2b4fe","ios":"levelo://app?vid=923d8507-12c3-40fd-b22f-c57feba2b4fe"},"vehicle_type_id":"4","last_reported":1678950446,"current_range_meters":26000,"station_id":"ce4bhbh2rcd13ifvqeo0","pricing_plan_id":"free"},{"bike_id":"0aa5fc87-3d2e-40bb-9e32-7b66c02088eb","system_id":"levelo_inurba_marseille","lat":43.273613,"lon":5.362705,"is_reserved":false,"is_disabled":false,"rental_uris":{"android":"levelo://app?vid=0aa5fc87-3d2e-40bb-9e32-7b66c02088eb","ios":"levelo://app?vid=0aa5fc87-3d2e-40bb-9e32-7b66c02088eb"},"vehicle_type_id":"4","last_reported":1678950446,"current_range_meters":17200,"station_id":"ce4bhbh2rcd13ifvqeo0","pricing_plan_id":"free"},{"bike_id":"80e6e7fc-2611-466a-bad7-099b0ef4c34d","system_id":"levelo_inurba_marseille","lat":43.336134,"lon":5.410341,"is_reserved":false,"is_disabled":false,"rental_uris":{"android":"levelo://app?vid=80e6e7fc-2611-466a-bad7-099b0ef4c34d","ios":"levelo://app?vid=80e6e7fc-2611-466a-bad7-099b0ef4c34d"},"vehicle_type_id":"4","last_reported":1678950446,"current_range_meters":4400,"station_id":"ce4bhqh2rcd13ifvqhmg","pricing_plan_id":"free"},{"bike_id":"536e0f45-325d-443f-bea7-4114006c3f94","system_id":"levelo_inurba_marseille","lat":43.273613,"lon":5.362705,"is_reserved":false,"is_disabled":false,"rental_uris":{"android":"levelo://app?vid=536e0f45-325d-443f-bea7-4114006c3f94","ios":"levelo://app?vid=536e0f45-325d-443f-bea7-4114006c3f94"},"vehicle_type_id":"4","last_reported":1678950446,"current_range_meters":28400,"station_id":"ce4bhbh2rcd13ifvqeo0","pricing_plan_id":"free"},{"bike_id":"c8d6dc36-f745-4c55-ad20-d0c751ac4a42","system_id":"levelo_inurba_marseille","lat":43.336134,"lon":5.410341,"is_reserved":false,"is_disabled":false,"rental_uris":{"android":"levelo://app?vid=c8d6dc36-f745-4c55-ad20-d0c751ac4a42","ios":"levelo://app?vid=c8d6dc36-f745-4c55-ad20-d0c751ac4a42"},"vehicle_type_id":"4","last_reported":1678950446,"current_range_meters":21600,"station_id":"ce4bhqh2rcd13ifvqhmg","pricing_plan_id":"free"},{"bike_id":"6ec05a53-8a13-4418-932e-ca3661ae3af4","system_id":"levelo_inurba_marseille","lat":43.273613,"lon":5.362705,"is_reserved":false,"is_disabled":false,"rental_uris":{"android":"levelo://app?vid=6ec05a53-8a13-4418-932e-ca3661ae3af4","ios":"levelo://app?vid=6ec05a53-8a13-4418-932e-ca3661ae3af4"},"vehicle_type_id":"4","last_reported":1678950446,"current_range_meters":27200,"station_id":"ce4bhbh2rcd13ifvqeo0","pricing_plan_id":"free"},{"bike_id":"c320380f-56e2-4cd8-a900-3ee550ab89ed","system_id":"levelo_inurba_marseille","lat":43.336134,"lon":5.410341,"is_reserved":false,"is_disabled":false,"rental_uris":{"android":"levelo://app?vid=c320380f-56e2-4cd8-a900-3ee550ab89ed","ios":"levelo://app?vid=c320380f-56e2-4cd8-a900-3ee550ab89ed"},"vehicle_type_id":"4","last_reported":1678950446,"current_range_meters":10400,"station_id":"ce4bhqh2rcd13ifvqhmg","pricing_plan_id":"free"},{"bike_id":"8d9be07a-6be3-4aff-be6e-cb563df5f0e8","system_id":"levelo_inurba_marseille","lat":43.273613,"lon":5.362705,"is_reserved":false,"is_disabled":false,"rental_uris":{"android":"levelo://app?vid=8d9be07a-6be3-4aff-be6e-cb563df5f0e8","ios":"levelo://app?vid=8d9be07a-6be3-4aff-be6e-cb563df5f0e8"},"vehicle_type_id":"4","last_reported":1678950446,"current_range_meters":21600,"station_id":"ce4bhbh2rcd13ifvqeo0","pricing_plan_id":"free"},{"bike_id":"860d50f8-02b6-4053-9315-6525b7182ed6","system_id":"levelo_inurba_marseille","lat":43.27372,"lon":5.36261,"is_reserved":false,"is_disabled":false,"rental_uris":{"android":"levelo://app?vid=860d50f8-02b6-4053-9315-6525b7182ed6","ios":"levelo://app?vid=860d50f8-02b6-4053-9315-6525b7182ed6"},"vehicle_type_id":"4","last_reported":1678950446,"current_range_meters":23600,"station_id":"ce4bhbh2rcd13ifvqeo0","pricing_plan_id":"free"},{"bike_id":"3cb0cf11-7213-47b0-b35e-15bb3d7e4a83","system_id":"levelo_inurba_marseille","lat":43.273613,"lon":5.362705,"is_reserved":false,"is_disabled":false,"rental_uris":{"android":"levelo://app?vid=3cb0cf11-7213-47b0-b35e-15bb3d7e4a83","ios":"levelo://app?vid=3cb0cf11-7213-47b0-b35e-15bb3d7e4a83"},"vehicle_type_id":"4","last_reported":1678950446,"current_range_meters":23600,"station_id":"ce4bhbh2rcd13ifvqeo0","pricing_plan_id":"free"},{"bike_id":"07585d5b-f490-4106-95ae-63d3ce04dd54","system_id":"levelo_inurba_marseille","lat":43.273613,"lon":5.362705,"is_reserved":false,"is_disabled":false,"rental_uris":{"android":"levelo://app?vid=07585d5b-f490-4106-95ae-63d3ce04dd54","ios":"levelo://app?vid=07585d5b-f490-4106-95ae-63d3ce04dd54"},"vehicle_type_id":"4","last_reported":1678950446,"current_range_meters":4000,"station_id":"ce4bhbh2rcd13ifvqeo0","pricing_plan_id":"free"},{"bike_id":"cc5fd69f-584a-47b4-a535-ce57865fa0d6","system_id":"levelo_inurba_marseille","lat":43.273613,"lon":5.362705,"is_reserved":false,"is_disabled":false,"rental_uris":{"android":"levelo://app?vid=cc5fd69f-584a-47b4-a535-ce57865fa0d6","ios":"levelo://app?vid=cc5fd69f-584a-47b4-a535-ce57865fa0d6"},"vehicle_type_id":"4","last_reported":1678950446,"current_range_meters":22000,"station_id":"ce4bhbh2rcd13ifvqeo0","pricing_plan_id":"free"},{"bike_id":"b4f4117f-976e-4860-9a18-3222cc308aa0","system_id":"levelo_inurba_marseille","lat":43.336043,"lon":5.410243,"is_reserved":false,"is_disabled":false,"rental_uris":{"android":"levelo://app?vid=b4f4117f-976e-4860-9a18-3222cc308aa0","ios":"levelo://app?vid=b4f4117f-976e-4860-9a18-3222cc308aa0"},"vehicle_type_id":"4","last_reported":1678950446,"current_range_meters":21200,"station_id":"","pricing_plan_id":"free"},{"bike_id":"5513ed1a-ebc2-4ed9-b020-843633d64c41","system_id":"levelo_inurba_marseille","lat":43.276769,"lon":5.388787,"is_reserved":false,"is_disabled":false,"rental_uris":{"android":"levelo://app?vid=5513ed1a-ebc2-4ed9-b020-843633d64c41","ios":"levelo://app?vid=5513ed1a-ebc2-4ed9-b020-843633d64c41"},"vehicle_type_id":"4","last_reported":1678950446,"current_range_meters":21200,"station_id":"ce4bhi12rcd13ifvqfo0","pricing_plan_id":"free"},{"bike_id":"bc10b753-e9d4-48eb-a2b3-8a48c5fb37bb","system_id":"levelo_inurba_marseille","lat":43.32805,"lon":5.4182,"is_reserved":false,"is_disabled":false,"rental_uris":{"android":"levelo://app?vid=bc10b753-e9d4-48eb-a2b3-8a48c5fb37bb","ios":"levelo://app?vid=bc10b753-e9d4-48eb-a2b3-8a48c5fb37bb"},"vehicle_type_id":"4","last_reported":1678950446,"current_range_meters":5200,"station_id":"","pricing_plan_id":"free"},{"bike_id":"1797ef97-c848-4e46-b65e-20eea7f80d62","system_id":"levelo_inurba_marseille","lat":43.310785,"lon":5.424305,"is_reserved":false,"is_disabled":false,"rental_uris":{"android":"levelo://app?vid=1797ef97-c848-4e46-b65e-20eea7f80d62","ios":"levelo://app?vid=1797ef97-c848-4e46-b65e-20eea7f80d62"},"vehicle_type_id":"4","last_reported":1678950446,"current_range_meters":12400,"station_id":"ce4bhp92rcd13ifvqhag","pricing_plan_id":"free"},{"bike_id":"4de02cdf-c69d-4ca6-a020-8ecb8e0dcffd","system_id":"levelo_inurba_marseille","lat":43.317121,"lon":5.423936,"is_reserved":false,"is_disabled":false,"rental_uris":{"android":"levelo://app?vid=4de02cdf-c69d-4ca6-a020-8ecb8e0dcffd","ios":"levelo://app?vid=4de02cdf-c69d-4ca6-a020-8ecb8e0dcffd"},"vehicle_type_id":"4","last_reported":1678950446,"current_range_meters":28000,"station_id":"ce4bhp92rcd13ifvqhbg","pricing_plan_id":"free"},{"bike_id":"63dee804-3724-4c91-8499-c6b93aaeb9df","system_id":"levelo_inurba_marseille","lat":43.310785,"lon":5.424305,"is_reserved":false,"is_disabled":false,"rental_uris":{"android":"levelo://app?vid=63dee804-3724-4c91-8499-c6b93aaeb9df","ios":"levelo://app?vid=63dee804-3724-4c91-8499-c6b93aaeb9df"},"vehicle_type_id":"4","last_reported":1678950446,"current_range_meters":28000,"station_id":"ce4bhp92rcd13ifvqhag","pricing_plan_id":"free"},{"bike_id":"9be34808-6dc0-42af-9394-dbecebd23ac7","system_id":"levelo_inurba_marseille","lat":43.304096,"lon":5.425385,"is_reserved":false,"is_disabled":false,"rental_uris":{"android":"levelo://app?vid=9be34808-6dc0-42af-9394-dbecebd23ac7","ios":"levelo://app?vid=9be34808-6dc0-42af-9394-dbecebd23ac7"},"vehicle_type_id":"4","last_reported":1678950446,"current_range_meters":13600,"station_id":"ce4bhoh2rcd13ifvqh6g","pricing_plan_id":"free"},{"bike_id":"652d54fd-d15c-479c-a5e1-2d3c6229e2e6","system_id":"levelo_inurba_marseille","lat":43.304096,"lon":5.425385,"is_reserved":false,"is_disabled":false,"rental_uris":{"android":"levelo://app?vid=652d54fd-d15c-479c-a5e1-2d3c6229e2e6","ios":"levelo://app?vid=652d54fd-d15c-479c-a5e1-2d3c6229e2e6"},"vehicle_type_id":"4","last_reported":1678950446,"current_range_meters":13200,"station_id":"ce4bhoh2rcd13ifvqh6g","pricing_plan_id":"free"},{"bike_id":"ec8baa6f-fe57-418a-9bb7-8191b5dd3c56","system_id":"levelo_inurba_marseille","lat":43.295568,"lon":5.422755,"is_reserved":false,"is_disabled":false,"rental_uris":{"android":"levelo://app?vid=ec8baa6f-fe57-418a-9bb7-8191b5dd3c56","ios":"levelo://app?vid=ec8baa6f-fe57-418a-9bb7-8191b5dd3c56"},"vehicle_type_id":"4","last_reported":1678950446,"current_range_meters":0,"station_id":"ce4bhph2rcd13ifvqhdg","pricing_plan_id":"free"},{"bike_id":"76a40d37-ceca-41f8-813d-edaddd72e90c","system_id":"levelo_inurba_marseille","lat":43.27208,"lon":5.39179,"is_reserved":false,"is_disabled":false,"rental_uris":{"android":"levelo://app?vid=76a40d37-ceca-41f8-813d-edaddd72e90c","ios":"levelo://app?vid=76a40d37-ceca-41f8-813d-edaddd72e90c"},"vehicle_type_id":"4","last_reported":1678950446,"current_range_meters":25600,"station_id":"","pricing_plan_id":"free"},{"bike_id":"55c648b2-9a7f-479b-a162-803b973ce8d1","system_id":"levelo_inurba_marseille","lat":43.272124,"lon":5.391768,"is_reserved":false,"is_disabled":false,"rental_uris":{"android":"levelo://app?vid=55c648b2-9a7f-479b-a162-803b973ce8d1","ios":"levelo://app?vid=55c648b2-9a7f-479b-a162-803b973ce8d1"},"vehicle_type_id":"4","last_reported":1678950446,"current_range_meters":22400,"station_id":"ce4bhhp2rcd13ifvqfm0","pricing_plan_id":"free"},{"bike_id":"8264302a-810d-4dcd-a153-6c437a0df009","system_id":"levelo_inurba_marseille","lat":43.27205,"lon":5.39175,"is_reserved":false,"is_disabled":false,"rental_uris":{"android":"levelo://app?vid=8264302a-810d-4dcd-a153-6c437a0df009","ios":"levelo://app?vid=8264302a-810d-4dcd-a153-6c437a0df009"},"vehicle_type_id":"4","last_reported":1678950446,"current_range_meters":31200,"station_id":"ce4bhhp2rcd13ifvqfm0","pricing_plan_id":"free"},{"bike_id":"196babd2-a781-4581-86a1-74a3c31d6447","system_id":"levelo_inurba_marseille","lat":43.27206,"lon":5.39181,"is_reserved":false,"is_disabled":false,"rental_uris":{"android":"levelo://app?vid=196babd2-a781-4581-86a1-74a3c31d6447","ios":"levelo://app?vid=196babd2-a781-4581-86a1-74a3c31d6447"},"vehicle_type_id":"4","last_reported":1678950446,"current_range_meters":25600,"station_id":"ce4bhhp2rcd13ifvqfm0","pricing_plan_id":"free"},{"bike_id":"fdb71761-25ba-4e3e-8075-19c7ff8e7190","system_id":"levelo_inurba_marseille","lat":43.272124,"lon":5.391768,"is_reserved":false,"is_disabled":false,"rental_uris":{"android":"levelo://app?vid=fdb71761-25ba-4e3e-8075-19c7ff8e7190","ios":"levelo://app?vid=fdb71761-25ba-4e3e-8075-19c7ff8e7190"},"vehicle_type_id":"4","last_reported":1678950446,"current_range_meters":5200,"station_id":"ce4bhhp2rcd13ifvqfm0","pricing_plan_id":"free"},{"bike_id":"6fec87e4-13e8-4201-a769-23165f234e33","system_id":"levelo_inurba_marseille","lat":43.27201,"lon":5.39191,"is_reserved":false,"is_disabled":false,"rental_uris":{"android":"levelo://app?vid=6fec87e4-13e8-4201-a769-23165f234e33","ios":"levelo://app?vid=6fec87e4-13e8-4201-a769-23165f234e33"},"vehicle_type_id":"4","last_reported":1678950446,"current_range_meters":28800,"station_id":"","pricing_plan_id":"free"},{"bike_id":"b7a966c9-d93f-48c4-b909-0e08ba968dac","system_id":"levelo_inurba_marseille","lat":43.278128,"lon":5.407195,"is_reserved":false,"is_disabled":false,"rental_uris":{"android":"levelo://app?vid=b7a966c9-d93f-48c4-b909-0e08ba968dac","ios":"levelo://app?vid=b7a966c9-d93f-48c4-b909-0e08ba968dac"},"vehicle_type_id":"4","last_reported":1678950446,"current_range_meters":31600,"station_id":"ce4bhnh2rcd13ifvqgtg","pricing_plan_id":"free"},{"bike_id":"7223ba35-870e-454a-b1b6-40a0abe8a350","system_id":"levelo_inurba_marseille","lat":43.26952,"lon":5.38633,"is_reserved":false,"is_disabled":false,"rental_uris":{"android":"levelo://app?vid=7223ba35-870e-454a-b1b6-40a0abe8a350","ios":"levelo://app?vid=7223ba35-870e-454a-b1b6-40a0abe8a350"},"vehicle_type_id":"4","last_reported":1678950446,"current_range_meters":20800,"station_id":"","pricing_plan_id":"free"},{"bike_id":"f8acd2c0-85b2-4628-bd0c-1c7f5b22ecde","system_id":"levelo_inurba_marseille","lat":43.26949,"lon":5.38626,"is_reserved":false,"is_disabled":false,"rental_uris":{"android":"levelo://app?vid=f8acd2c0-85b2-4628-bd0c-1c7f5b22ecde","ios":"levelo://app?vid=f8acd2c0-85b2-4628-bd0c-1c7f5b22ecde"},"vehicle_type_id":"4","last_reported":1678950446,"current_range_meters":26000,"station_id":"ce4bhh92rcd13ifvqfh0","pricing_plan_id":"free"},{"bike_id":"a2bfe793-3401-4e71-a985-0a1e1ebc24c0","system_id":"levelo_inurba_marseille","lat":43.2694,"lon":5.3864,"is_reserved":false,"is_disabled":false,"rental_uris":{"android":"levelo://app?vid=a2bfe793-3401-4e71-a985-0a1e1ebc24c0","ios":"levelo://app?vid=a2bfe793-3401-4e71-a985-0a1e1ebc24c0"},"vehicle_type_id":"4","last_reported":1678950446,"current_range_meters":30800,"station_id":"","pricing_plan_id":"free"},{"bike_id":"f35fd0f8-6e8b-4d51-af77-e6c27d8c7d03","system_id":"levelo_inurba_marseille","lat":43.269319,"lon":5.389397,"is_reserved":false,"is_disabled":false,"rental_uris":{"android":"levelo://app?vid=f35fd0f8-6e8b-4d51-af77-e6c27d8c7d03","ios":"levelo://app?vid=f35fd0f8-6e8b-4d51-af77-e6c27d8c7d03"},"vehicle_type_id":"4","last_reported":1678950446,"current_range_meters":25600,"station_id":"ce4bhhh2rcd13ifvqfl0","pricing_plan_id":"free"},{"bike_id":"57692078-5e0a-4b58-802e-59860d67900e","system_id":"levelo_inurba_marseille","lat":43.269319,"lon":5.389397,"is_reserved":false,"is_disabled":false,"rental_uris":{"android":"levelo://app?vid=57692078-5e0a-4b58-802e-59860d67900e","ios":"levelo://app?vid=57692078-5e0a-4b58-802e-59860d67900e"},"vehicle_type_id":"4","last_reported":1678950446,"current_range_meters":0,"station_id":"ce4bhhh2rcd13ifvqfl0","pricing_plan_id":"free"},{"bike_id":"cb625e7e-27b9-43cf-919e-d011f2fd21e7","system_id":"levelo_inurba_marseille","lat":43.283548,"lon":5.416611,"is_reserved":false,"is_disabled":false,"rental_uris":{"android":"levelo://app?vid=cb625e7e-27b9-43cf-919e-d011f2fd21e7","ios":"levelo://app?vid=cb625e7e-27b9-43cf-919e-d011f2fd21e7"},"vehicle_type_id":"4","last_reported":1678950446,"current_range_meters":0,"station_id":"","pricing_plan_id":"free"},{"bike_id":"0e235175-76a5-4315-98a7-be14662d4e23","system_id":"levelo_inurba_marseille","lat":43.265714,"lon":5.372891,"is_reserved":false,"is_disabled":false,"rental_uris":{"android":"levelo://app?vid=0e235175-76a5-4315-98a7-be14662d4e23","ios":"levelo://app?vid=0e235175-76a5-4315-98a7-be14662d4e23"},"vehicle_type_id":"4","last_reported":1678950446,"current_range_meters":24400,"station_id":"ce4bhg12rcd13ifvqf70","pricing_plan_id":"free"},{"bike_id":"937ea2c8-826d-4035-ac49-7f0b678da151","system_id":"levelo_inurba_marseille","lat":43.265714,"lon":5.372891,"is_reserved":false,"is_disabled":false,"rental_uris":{"android":"levelo://app?vid=937ea2c8-826d-4035-ac49-7f0b678da151","ios":"levelo://app?vid=937ea2c8-826d-4035-ac49-7f0b678da151"},"vehicle_type_id":"4","last_reported":1678950446,"current_range_meters":4000,"station_id":"ce4bhg12rcd13ifvqf70","pricing_plan_id":"free"},{"bike_id":"e51b5df0-a7f5-4e56-99be-598d1bd71743","system_id":"levelo_inurba_marseille","lat":43.265714,"lon":5.372891,"is_reserved":false,"is_disabled":false,"rental_uris":{"android":"levelo://app?vid=e51b5df0-a7f5-4e56-99be-598d1bd71743","ios":"levelo://app?vid=e51b5df0-a7f5-4e56-99be-598d1bd71743"},"vehicle_type_id":"4","last_reported":1678950446,"current_range_meters":21200,"station_id":"ce4bhg12rcd13ifvqf70","pricing_plan_id":"free"},{"bike_id":"4fdfe9ec-5a41-4391-a10c-0632b65b365f","system_id":"levelo_inurba_marseille","lat":43.26677,"lon":5.38266,"is_reserved":false,"is_disabled":false,"rental_uris":{"android":"levelo://app?vid=4fdfe9ec-5a41-4391-a10c-0632b65b365f","ios":"levelo://app?vid=4fdfe9ec-5a41-4391-a10c-0632b65b365f"},"vehicle_type_id":"4","last_reported":1678950446,"current_range_meters":27600,"station_id":"ce4bhg92rcd13ifvqf90","pricing_plan_id":"free"},{"bike_id":"0dbffd59-10b1-4138-ac0c-72af09a7eade","system_id":"levelo_inurba_marseille","lat":43.26681,"lon":5.382694,"is_reserved":false,"is_disabled":false,"rental_uris":{"android":"levelo://app?vid=0dbffd59-10b1-4138-ac0c-72af09a7eade","ios":"levelo://app?vid=0dbffd59-10b1-4138-ac0c-72af09a7eade"},"vehicle_type_id":"4","last_reported":1678950446,"current_range_meters":20000,"station_id":"ce4bhg92rcd13ifvqf90","pricing_plan_id":"free"},{"bike_id":"275ed0ba-db8c-47ed-a4dc-deeec6cc1896","system_id":"levelo_inurba_marseille","lat":43.279937,"lon":5.416555,"is_reserved":false,"is_disabled":false,"rental_uris":{"android":"levelo://app?vid=275ed0ba-db8c-47ed-a4dc-deeec6cc1896","ios":"levelo://app?vid=275ed0ba-db8c-47ed-a4dc-deeec6cc1896"},"vehicle_type_id":"4","last_reported":1678950446,"current_range_meters":0,"station_id":"ce4bho12rcd13ifvqh1g","pricing_plan_id":"free"},{"bike_id":"8070a314-060b-4b1d-91d8-4ed06074a3a7","system_id":"levelo_inurba_marseille","lat":43.267966,"lon":5.393976,"is_reserved":false,"is_disabled":false,"rental_uris":{"android":"levelo://app?vid=8070a314-060b-4b1d-91d8-4ed06074a3a7","ios":"levelo://app?vid=8070a314-060b-4b1d-91d8-4ed06074a3a7"},"vehicle_type_id":"4","last_reported":1678950446,"current_range_meters":25200,"station_id":"ce4bhh12rcd13ifvqfg0","pricing_plan_id":"free"},{"bike_id":"b42d0fb5-d1fc-4d11-9c4a-18ee3eb6846b","system_id":"levelo_inurba_marseille","lat":43.267966,"lon":5.393976,"is_reserved":false,"is_disabled":false,"rental_uris":{"android":"levelo://app?vid=b42d0fb5-d1fc-4d11-9c4a-18ee3eb6846b","ios":"levelo://app?vid=b42d0fb5-d1fc-4d11-9c4a-18ee3eb6846b"},"vehicle_type_id":"4","last_reported":1678950446,"current_range_meters":15200,"station_id":"ce4bhh12rcd13ifvqfg0","pricing_plan_id":"free"},{"bike_id":"144d4b6c-bb43-42b6-8996-7d5737fc0343","system_id":"levelo_inurba_marseille","lat":43.267966,"lon":5.393976,"is_reserved":false,"is_disabled":false,"rental_uris":{"android":"levelo://app?vid=144d4b6c-bb43-42b6-8996-7d5737fc0343","ios":"levelo://app?vid=144d4b6c-bb43-42b6-8996-7d5737fc0343"},"vehicle_type_id":"4","last_reported":1678950446,"current_range_meters":31600,"station_id":"ce4bhh12rcd13ifvqfg0","pricing_plan_id":"free"},{"bike_id":"05b0498e-2f2a-4516-8ea7-62228db15c46","system_id":"levelo_inurba_marseille","lat":43.267966,"lon":5.393976,"is_reserved":false,"is_disabled":false,"rental_uris":{"android":"levelo://app?vid=05b0498e-2f2a-4516-8ea7-62228db15c46","ios":"levelo://app?vid=05b0498e-2f2a-4516-8ea7-62228db15c46"},"vehicle_type_id":"4","last_reported":1678950446,"current_range_meters":22800,"station_id":"ce4bhh12rcd13ifvqfg0","pricing_plan_id":"free"},{"bike_id":"01214000-5f3f-4917-9b1d-6f0533288b84","system_id":"levelo_inurba_marseille","lat":43.270983,"lon":5.404602,"is_reserved":false,"is_disabled":false,"rental_uris":{"android":"levelo://app?vid=01214000-5f3f-4917-9b1d-6f0533288b84","ios":"levelo://app?vid=01214000-5f3f-4917-9b1d-6f0533288b84"},"vehicle_type_id":"4","last_reported":1678950446,"current_range_meters":2800,"station_id":"","pricing_plan_id":"free"},{"bike_id":"3408bbe1-4746-4068-993d-28cfd1f33a63","system_id":"levelo_inurba_marseille","lat":43.265569,"lon":5.390047,"is_reserved":false,"is_disabled":false,"rental_uris":{"android":"levelo://app?vid=3408bbe1-4746-4068-993d-28cfd1f33a63","ios":"levelo://app?vid=3408bbe1-4746-4068-993d-28cfd1f33a63"},"vehicle_type_id":"4","last_reported":1678950446,"current_range_meters":0,"station_id":"ce4bhe12rcd13ifvqf30","pricing_plan_id":"free"},{"bike_id":"e0ea5af9-997d-4c70-882e-cb752754bada","system_id":"levelo_inurba_marseille","lat":43.265569,"lon":5.390047,"is_reserved":false,"is_disabled":false,"rental_uris":{"android":"levelo://app?vid=e0ea5af9-997d-4c70-882e-cb752754bada","ios":"levelo://app?vid=e0ea5af9-997d-4c70-882e-cb752754bada"},"vehicle_type_id":"4","last_reported":1678950446,"current_range_meters":1200,"station_id":"ce4bhe12rcd13ifvqf30","pricing_plan_id":"free"},{"bike_id":"34f5faf1-215e-4fe2-9c43-9611e85ce25e","system_id":"levelo_inurba_marseille","lat":43.26202,"lon":5.379299,"is_reserved":false,"is_disabled":false,"rental_uris":{"android":"levelo://app?vid=34f5faf1-215e-4fe2-9c43-9611e85ce25e","ios":"levelo://app?vid=34f5faf1-215e-4fe2-9c43-9611e85ce25e"},"vehicle_type_id":"4","last_reported":1678950446,"current_range_meters":31600,"station_id":"ce4bhjp2rcd13ifvqg90","pricing_plan_id":"free"},{"bike_id":"32101b9f-c9d5-4a7a-aae6-fd496633ec0e","system_id":"levelo_inurba_marseille","lat":43.262012,"lon":5.379307,"is_reserved":false,"is_disabled":false,"rental_uris":{"android":"levelo://app?vid=32101b9f-c9d5-4a7a-aae6-fd496633ec0e","ios":"levelo://app?vid=32101b9f-c9d5-4a7a-aae6-fd496633ec0e"},"vehicle_type_id":"4","last_reported":1678950446,"current_range_meters":14000,"station_id":"ce4bhjp2rcd13ifvqg90","pricing_plan_id":"free"},{"bike_id":"ab960a18-09b3-4a79-8643-943dc4f20073","system_id":"levelo_inurba_marseille","lat":43.262012,"lon":5.379307,"is_reserved":false,"is_disabled":false,"rental_uris":{"android":"levelo://app?vid=ab960a18-09b3-4a79-8643-943dc4f20073","ios":"levelo://app?vid=ab960a18-09b3-4a79-8643-943dc4f20073"},"vehicle_type_id":"4","last_reported":1678950446,"current_range_meters":30400,"station_id":"ce4bhjp2rcd13ifvqg90","pricing_plan_id":"free"},{"bike_id":"536a00ec-3f56-4a65-b044-85d353aeb4f1","system_id":"levelo_inurba_marseille","lat":43.2607,"lon":5.393983,"is_reserved":false,"is_disabled":false,"rental_uris":{"android":"levelo://app?vid=536a00ec-3f56-4a65-b044-85d353aeb4f1","ios":"levelo://app?vid=536a00ec-3f56-4a65-b044-85d353aeb4f1"},"vehicle_type_id":"4","last_reported":1678950446,"current_range_meters":5200,"station_id":"ce4bhh92rcd13ifvqfj0","pricing_plan_id":"free"},{"bike_id":"6edcbfb0-5a8e-46e4-bced-4d4a9cccdfec","system_id":"levelo_inurba_marseille","lat":43.260637,"lon":5.393898,"is_reserved":false,"is_disabled":false,"rental_uris":{"android":"levelo://app?vid=6edcbfb0-5a8e-46e4-bced-4d4a9cccdfec","ios":"levelo://app?vid=6edcbfb0-5a8e-46e4-bced-4d4a9cccdfec"},"vehicle_type_id":"4","last_reported":1678950446,"current_range_meters":0,"station_id":"ce4bhh92rcd13ifvqfj0","pricing_plan_id":"free"},{"bike_id":"8cfc738e-2465-4ee4-b55a-37dc66c91ecc","system_id":"levelo_inurba_marseille","lat":43.2607,"lon":5.393983,"is_reserved":false,"is_disabled":false,"rental_uris":{"android":"levelo://app?vid=8cfc738e-2465-4ee4-b55a-37dc66c91ecc","ios":"levelo://app?vid=8cfc738e-2465-4ee4-b55a-37dc66c91ecc"},"vehicle_type_id":"4","last_reported":1678950446,"current_range_meters":10000,"station_id":"ce4bhh92rcd13ifvqfj0","pricing_plan_id":"free"},{"bike_id":"09c63edf-530a-4561-859d-966d76447d37","system_id":"levelo_inurba_marseille","lat":43.333417,"lon":5.43974,"is_reserved":false,"is_disabled":false,"rental_uris":{"android":"levelo://app?vid=09c63edf-530a-4561-859d-966d76447d37","ios":"levelo://app?vid=09c63edf-530a-4561-859d-966d76447d37"},"vehicle_type_id":"4","last_reported":1678950446,"current_range_meters":400,"station_id":"","pricing_plan_id":"free"},{"bike_id":"df9e3d8e-6ffd-4060-893a-1b562d70956a","system_id":"levelo_inurba_marseille","lat":43.255756,"lon":5.382303,"is_reserved":false,"is_disabled":false,"rental_uris":{"android":"levelo://app?vid=df9e3d8e-6ffd-4060-893a-1b562d70956a","ios":"levelo://app?vid=df9e3d8e-6ffd-4060-893a-1b562d70956a"},"vehicle_type_id":"4","last_reported":1678950446,"current_range_meters":27200,"station_id":"ce4bhih2rcd13ifvqfs0","pricing_plan_id":"free"},{"bike_id":"0949ae11-264b-408c-98c2-84f5c16f5c7a","system_id":"levelo_inurba_marseille","lat":43.255756,"lon":5.382303,"is_reserved":false,"is_disabled":false,"rental_uris":{"android":"levelo://app?vid=0949ae11-264b-408c-98c2-84f5c16f5c7a","ios":"levelo://app?vid=0949ae11-264b-408c-98c2-84f5c16f5c7a"},"vehicle_type_id":"4","last_reported":1678950446,"current_range_meters":18000,"station_id":"ce4bhih2rcd13ifvqfs0","pricing_plan_id":"free"},{"bike_id":"7ab2dbcb-4073-4e13-8382-992257d59e3a","system_id":"levelo_inurba_marseille","lat":43.255,"lon":5.37645,"is_reserved":false,"is_disabled":false,"rental_uris":{"android":"levelo://app?vid=7ab2dbcb-4073-4e13-8382-992257d59e3a","ios":"levelo://app?vid=7ab2dbcb-4073-4e13-8382-992257d59e3a"},"vehicle_type_id":"4","last_reported":1678950446,"current_range_meters":27600,"station_id":"ce4bhh12rcd13ifvqff0","pricing_plan_id":"free"},{"bike_id":"e8739b60-fc7e-4efe-aecf-87d599054e33","system_id":"levelo_inurba_marseille","lat":43.25495,"lon":5.37647,"is_reserved":false,"is_disabled":false,"rental_uris":{"android":"levelo://app?vid=e8739b60-fc7e-4efe-aecf-87d599054e33","ios":"levelo://app?vid=e8739b60-fc7e-4efe-aecf-87d599054e33"},"vehicle_type_id":"4","last_reported":1678950446,"current_range_meters":0,"station_id":"ce4bhh12rcd13ifvqff0","pricing_plan_id":"free"},{"bike_id":"182d1e16-24c1-46c3-b8f2-a26a9ada4093","system_id":"levelo_inurba_marseille","lat":43.270721,"lon":5.422764,"is_reserved":false,"is_disabled":false,"rental_uris":{"android":"levelo://app?vid=182d1e16-24c1-46c3-b8f2-a26a9ada4093","ios":"levelo://app?vid=182d1e16-24c1-46c3-b8f2-a26a9ada4093"},"vehicle_type_id":"4","last_reported":1678950446,"current_range_meters":27600,"station_id":"ce4bhk92rcd13ifvqgb0","pricing_plan_id":"free"},{"bike_id":"16ea9756-312c-4df1-9c88-f2e903dd8987","system_id":"levelo_inurba_marseille","lat":43.270721,"lon":5.422764,"is_reserved":false,"is_disabled":false,"rental_uris":{"android":"levelo://app?vid=16ea9756-312c-4df1-9c88-f2e903dd8987","ios":"levelo://app?vid=16ea9756-312c-4df1-9c88-f2e903dd8987"},"vehicle_type_id":"4","last_reported":1678950446,"current_range_meters":21600,"station_id":"ce4bhk92rcd13ifvqgb0","pricing_plan_id":"free"},{"bike_id":"d16ba753-59c6-4e81-9106-6db1450b0c3f","system_id":"levelo_inurba_marseille","lat":43.270721,"lon":5.422764,"is_reserved":false,"is_disabled":false,"rental_uris":{"android":"levelo://app?vid=d16ba753-59c6-4e81-9106-6db1450b0c3f","ios":"levelo://app?vid=d16ba753-59c6-4e81-9106-6db1450b0c3f"},"vehicle_type_id":"4","last_reported":1678950446,"current_range_meters":20800,"station_id":"ce4bhk92rcd13ifvqgb0","pricing_plan_id":"free"},{"bike_id":"172e33fe-829b-4fdd-8b00-22a073412ae2","system_id":"levelo_inurba_marseille","lat":43.2587,"lon":5.398987,"is_reserved":false,"is_disabled":false,"rental_uris":{"android":"levelo://app?vid=172e33fe-829b-4fdd-8b00-22a073412ae2","ios":"levelo://app?vid=172e33fe-829b-4fdd-8b00-22a073412ae2"},