{"last_updated":1679170017,"ttl":30,"version":"2.2","data":{"bikes":[{"bike_id":"9462b4d9-3fa4-44dd-a243-cfbd7c62d1b5","system_id":"levelo_inurba_marseille","lat":43.312239,"lon":5.368562,"is_reserved":false,"is_disabled":false,"rental_uris":{"android":"levelo://app?vid=9462b4d9-3fa4-44dd-a243-cfbd7c62d1b5","ios":"levelo://app?vid=9462b4d9-3fa4-44dd-a243-cfbd7c62d1b5"},"vehicle_type_id":"4","last_reported":1679170017,"current_range_meters":18800,"station_id":"ce4bgl92rcd13ifvqbq0","pricing_plan_id":"free"},{"bike_id":"581b3dd4-cef3-4b59-af65-5e142c032814","system_id":"levelo_inurba_marseille","lat":43.3122,"lon":5.36854,"is_reserved":false,"is_disabled":false,"rental_uris":{"android":"levelo://app?vid=581b3dd4-cef3-4b59-af65-5e142c032814","ios":"levelo://app?vid=581b3dd4-cef3-4b59-af65-5e142c032814"},"vehicle_type_id":"4","last_reported":1679170017,"current_range_meters":0,"station_id":"","pricing_plan_id":"free"},{"bike_id":"1fbef8fd-23da-4eda-af29-71ab910584c5","system_id":"levelo_inurba_marseille","lat":43.30547,"lon":5.36706,"is_reserved":false,"is_disabled":false,"rental_uris":{"android":"levelo://app?vid=1fbef8fd-23da-4eda-af29-71ab910584c5","ios":"levelo://app?vid=1fbef8fd-23da-4eda-af29-71ab910584c5"},"vehicle_type_id":"4","last_reported":1679170017,"current_range_meters":18000,"station_id":"","pricing_plan_id":"free"},{"bike_id":"03b1cbc3-1574-48ee-b0ff-beaaeadb5d84","system_id":"levelo_inurba_marseille","lat":43.301939,"lon":5.366286,"is_reserved":false,"is_disabled":false,"rental_uris":{"android":"levelo://app?vid=03b1cbc3-1574-48ee-b0ff-beaaeadb5d84","ios":"levelo://app?vid=03b1cbc3-1574-48ee-b0ff-beaaeadb5d84"},"vehicle_type_id":"4","last_reported":1679170017,"current_range_meters":14000,"station_id":"ce4bgrh2rcd13ifvqc8g","pricing_plan_id":"free"},{"bike_id":"505ce11b-fa47-41f5-bb7c-bc45b5550e0b","system_id":"levelo_inurba_marseille","lat":43.301939,"lon":5.366286,"is_reserved":false,"is_disabled":false,"rental_uris":{"android":"levelo://app?vid=505ce11b-fa47-41f5-bb7c-bc45b5550e0b","ios":"levelo://app?vid=505ce11b-fa47-41f5-bb7c-bc45b5550e0b"},"vehicle_type_id":"4","last_reported":1679170017,"current_range_meters":12400,"station_id":"ce4bgrh2rcd13ifvqc8g","pricing_plan_id":"free"},{"bike_id":"b97c3c97-b9ab-44bf-b627-942eb55c2ad2","system_id":"levelo_inurba_marseille","lat":43.316271,"lon":5.381957,"is_reserved":false,"is_disabled":false,"rental_uris":{"android":"levelo://app?vid=b97c3c97-b9ab-44bf-b627-942eb55c2ad2","ios":"levelo://app?vid=b97c3c97-b9ab-44bf-b627-942eb55c2ad2"},"vehicle_type_id":"4","last_reported":1679170017,"current_range_meters":0,"station_id":"","pricing_plan_id":"free"},{"bike_id":"bd0d10da-9cee-4f14-b86d-41442cb1c63c","system_id":"levelo_inurba_marseille","lat":43.308005,"lon":5.381515,"is_reserved":false,"is_disabled":false,"rental_uris":{"android":"levelo://app?vid=bd0d10da-9cee-4f14-b86d-41442cb1c63c","ios":"levelo://app?vid=bd0d10da-9cee-4f14-b86d-41442cb1c63c"},"vehicle_type_id":"4","last_reported":1679170017,"current_range_meters":9600,"station_id":"ce4bgt12rcd13ifvqce0","pricing_plan_id":"free"},{"bike_id":"0493afae-8912-4806-8c5b-dcb40ac3441f","system_id":"levelo_inurba_marseille","lat":43.304606,"lon":5.379026,"is_reserved":false,"is_disabled":false,"rental_uris":{"android":"levelo://app?vid=0493afae-8912-4806-8c5b-dcb40ac3441f","ios":"levelo://app?vid=0493afae-8912-4806-8c5b-dcb40ac3441f"},"vehicle_type_id":"4","last_reported":1679170017,"current_range_meters":26400,"station_id":"ce4bgup2rcd13ifvqcn0","pricing_plan_id":"free"},{"bike_id":"8261a407-4efa-418a-8915-96f097d35d6f","system_id":"levelo_inurba_marseille","lat":43.304606,"lon":5.379026,"is_reserved":false,"is_disabled":false,"rental_uris":{"android":"levelo://app?vid=8261a407-4efa-418a-8915-96f097d35d6f","ios":"levelo://app?vid=8261a407-4efa-418a-8915-96f097d35d6f"},"vehicle_type_id":"4","last_reported":1679170017,"current_range_meters":2400,"station_id":"ce4bgup2rcd13ifvqcn0","pricing_plan_id":"free"},{"bike_id":"a3a26f8a-52f1-484d-b06c-552e0f98d28c","system_id":"levelo_inurba_marseille","lat":43.301425,"lon":5.37409,"is_reserved":false,"is_disabled":false,"rental_uris":{"android":"levelo://app?vid=a3a26f8a-52f1-484d-b06c-552e0f98d28c","ios":"levelo://app?vid=a3a26f8a-52f1-484d-b06c-552e0f98d28c"},"vehicle_type_id":"4","last_reported":1679170017,"current_range_meters":0,"station_id":"ce4bgs92rcd13ifvqcc0","pricing_plan_id":"free"},{"bike_id":"8a2ba218-71cb-46b2-a1ac-0cef6daebd9e","system_id":"levelo_inurba_marseille","lat":43.313571,"lon":5.384829,"is_reserved":false,"is_disabled":false,"rental_uris":{"android":"levelo://app?vid=8a2ba218-71cb-46b2-a1ac-0cef6daebd9e","ios":"levelo://app?vid=8a2ba218-71cb-46b2-a1ac-0cef6daebd9e"},"vehicle_type_id":"4","last_reported":1679170017,"current_range_meters":1200,"station_id":"ce4bgt92rcd13ifvqcf0","pricing_plan_id":"free"},{"bike_id":"35fb90d3-77f8-49af-a342-22002749f0e8","system_id":"levelo_inurba_marseille","lat":43.29854,"lon":5.36287,"is_reserved":false,"is_disabled":false,"rental_uris":{"android":"levelo://app?vid=35fb90d3-77f8-49af-a342-22002749f0e8","ios":"levelo://app?vid=35fb90d3-77f8-49af-a342-22002749f0e8"},"vehicle_type_id":"4","last_reported":1679170017,"current_range_meters":1600,"station_id":"ce4bgpp2rcd13ifvqc3g","pricing_plan_id":"free"},{"bike_id":"bffdfa8e-20c8-40c4-b5e6-98dcf92cc9f8","system_id":"levelo_inurba_marseille","lat":43.2985,"lon":5.36289,"is_reserved":false,"is_disabled":false,"rental_uris":{"android":"levelo://app?vid=bffdfa8e-20c8-40c4-b5e6-98dcf92cc9f8","ios":"levelo://app?vid=bffdfa8e-20c8-40c4-b5e6-98dcf92cc9f8"},"vehicle_type_id":"4","last_reported":1679170017,"current_range_meters":22400,"station_id":"ce4bgpp2rcd13ifvqc3g","pricing_plan_id":"free"},{"bike_id":"3200cd75-1ed4-4d70-b082-4d1343de88cc","system_id":"levelo_inurba_marseille","lat":43.298433,"lon":5.362774,"is_reserved":false,"is_disabled":false,"rental_uris":{"android":"levelo://app?vid=3200cd75-1ed4-4d70-b082-4d1343de88cc","ios":"levelo://app?vid=3200cd75-1ed4-4d70-b082-4d1343de88cc"},"vehicle_type_id":"4","last_reported":1679170017,"current_range_meters":27200,"station_id":"ce4bgpp2rcd13ifvqc3g","pricing_plan_id":"free"},{"bike_id":"1fb0057b-192d-4ef8-8957-602b41fcd888","system_id":"levelo_inurba_marseille","lat":43.298433,"lon":5.362774,"is_reserved":false,"is_disabled":false,"rental_uris":{"android":"levelo://app?vid=1fb0057b-192d-4ef8-8957-602b41fcd888","ios":"levelo://app?vid=1fb0057b-192d-4ef8-8957-602b41fcd888"},"vehicle_type_id":"4","last_reported":1679170017,"current_range_meters":22800,"station_id":"ce4bgpp2rcd13ifvqc3g","pricing_plan_id":"free"},{"bike_id":"00f39d2f-24f5-4b7d-a1f2-e4f72d0a74a7","system_id":"levelo_inurba_marseille","lat":43.299243,"lon":5.374807,"is_reserved":false,"is_disabled":false,"rental_uris":{"android":"levelo://app?vid=00f39d2f-24f5-4b7d-a1f2-e4f72d0a74a7","ios":"levelo://app?vid=00f39d2f-24f5-4b7d-a1f2-e4f72d0a74a7"},"vehicle_type_id":"4","last_reported":1679170017,"current_range_meters":0,"station_id":"ce4bgjh2rcd13ifvqbg0","pricing_plan_id":"free"},{"bike_id":"f6c41f37-eae8-4b76-aa02-23c07dcc205f","system_id":"levelo_inurba_marseille","lat":43.299243,"lon":5.374807,"is_reserved":false,"is_disabled":false,"rental_uris":{"android":"levelo://app?vid=f6c41f37-eae8-4b76-aa02-23c07dcc205f","ios":"levelo://app?vid=f6c41f37-eae8-4b76-aa02-23c07dcc205f"},"vehicle_type_id":"4","last_reported":1679170017,"current_range_meters":6400,"station_id":"ce4bgjh2rcd13ifvqbg0","pricing_plan_id":"free"},{"bike_id":"2a8347ba-b35c-47b1-bd4c-67a307c80d25","system_id":"levelo_inurba_marseille","lat":43.296885,"lon":5.372945,"is_reserved":false,"is_disabled":false,"rental_uris":{"android":"levelo://app?vid=2a8347ba-b35c-47b1-bd4c-67a307c80d25","ios":"levelo://app?vid=2a8347ba-b35c-47b1-bd4c-67a307c80d25"},"vehicle_type_id":"4","last_reported":1679170017,"current_range_meters":22000,"station_id":"","pricing_plan_id":"free"},{"bike_id":"d6797757-c19d-4e78-97c1-bbb513e7798e","system_id":"levelo_inurba_marseille","lat":43.29685,"lon":5.372975,"is_reserved":false,"is_disabled":false,"rental_uris":{"android":"levelo://app?vid=d6797757-c19d-4e78-97c1-bbb513e7798e","ios":"levelo://app?vid=d6797757-c19d-4e78-97c1-bbb513e7798e"},"vehicle_type_id":"4","last_reported":1679170017,"current_range_meters":25200,"station_id":"","pricing_plan_id":"free"},{"bike_id":"ff133533-6b7b-4ed1-858e-be81365368d6","system_id":"levelo_inurba_marseille","lat":43.296829,"lon":5.372931,"is_reserved":false,"is_disabled":false,"rental_uris":{"android":"levelo://app?vid=ff133533-6b7b-4ed1-858e-be81365368d6","ios":"levelo://app?vid=ff133533-6b7b-4ed1-858e-be81365368d6"},"vehicle_type_id":"4","last_reported":1679170017,"current_range_meters":400,"station_id":"","pricing_plan_id":"free"},{"bike_id":"507e93c5-ccdb-4831-b48e-c2cc521373eb","system_id":"levelo_inurba_marseille","lat":43.29681,"lon":5.37288,"is_reserved":false,"is_disabled":false,"rental_uris":{"android":"levelo://app?vid=507e93c5-ccdb-4831-b48e-c2cc521373eb","ios":"levelo://app?vid=507e93c5-ccdb-4831-b48e-c2cc521373eb"},"vehicle_type_id":"4","last_reported":1679170017,"current_range_meters":26800,"station_id":"","pricing_plan_id":"free"},{"bike_id":"941049ff-36b9-453d-8156-e0f70a5c4a3b","system_id":"levelo_inurba_marseille","lat":43.2968,"lon":5.37294,"is_reserved":false,"is_disabled":false,"rental_uris":{"android":"levelo://app?vid=941049ff-36b9-453d-8156-e0f70a5c4a3b","ios":"levelo://app?vid=941049ff-36b9-453d-8156-e0f70a5c4a3b"},"vehicle_type_id":"4","last_reported":1679170017,"current_range_meters":0,"station_id":"","pricing_plan_id":"free"},{"bike_id":"50d37d70-5dfd-4f28-a1f7-c648a81744cf","system_id":"levelo_inurba_marseille","lat":43.29678,"lon":5.37291,"is_reserved":false,"is_disabled":false,"rental_uris":{"android":"levelo://app?vid=50d37d70-5dfd-4f28-a1f7-c648a81744cf","ios":"levelo://app?vid=50d37d70-5dfd-4f28-a1f7-c648a81744cf"},"vehicle_type_id":"4","last_reported":1679170017,"current_range_meters":24400,"station_id":"","pricing_plan_id":"free"},{"bike_id":"7dc29e2a-b905-4734-8586-068ba5b0954d","system_id":"levelo_inurba_marseille","lat":43.29678,"lon":5.37301,"is_reserved":false,"is_disabled":false,"rental_uris":{"android":"levelo://app?vid=7dc29e2a-b905-4734-8586-068ba5b0954d","ios":"levelo://app?vid=7dc29e2a-b905-4734-8586-068ba5b0954d"},"vehicle_type_id":"4","last_reported":1679170017,"current_range_meters":24000,"station_id":"","pricing_plan_id":"free"},{"bike_id":"51d5848e-824e-40da-b27f-af64ce8509ac","system_id":"levelo_inurba_marseille","lat":43.29739,"lon":5.376961,"is_reserved":false,"is_disabled":false,"rental_uris":{"android":"levelo://app?vid=51d5848e-824e-40da-b27f-af64ce8509ac","ios":"levelo://app?vid=51d5848e-824e-40da-b27f-af64ce8509ac"},"vehicle_type_id":"4","last_reported":1679170017,"current_range_meters":0,"station_id":"","pricing_plan_id":"free"},{"bike_id":"709e2dcc-393f-40af-8051-dccbb1646e53","system_id":"levelo_inurba_marseille","lat":43.309589,"lon":5.390258,"is_reserved":false,"is_disabled":false,"rental_uris":{"android":"levelo://app?vid=709e2dcc-393f-40af-8051-dccbb1646e53","ios":"levelo://app?vid=709e2dcc-393f-40af-8051-dccbb1646e53"},"vehicle_type_id":"4","last_reported":1679170017,"current_range_meters":400,"station_id":"ce4bgup2rcd13ifvqco0","pricing_plan_id":"free"},{"bike_id":"9c2ce933-3b33-4578-9078-f9845e52f278","system_id":"levelo_inurba_marseille","lat":43.299028,"lon":5.381509,"is_reserved":false,"is_disabled":false,"rental_uris":{"android":"levelo://app?vid=9c2ce933-3b33-4578-9078-f9845e52f278","ios":"levelo://app?vid=9c2ce933-3b33-4578-9078-f9845e52f278"},"vehicle_type_id":"4","last_reported":1679170017,"current_range_meters":14800,"station_id":"ce4bgj12rcd13ifvqbc0","pricing_plan_id":"free"},{"bike_id":"77038cd2-fc26-44cc-ad7e-e7a2e2c5c030","system_id":"levelo_inurba_marseille","lat":43.29677,"lon":5.37657,"is_reserved":false,"is_disabled":false,"rental_uris":{"android":"levelo://app?vid=77038cd2-fc26-44cc-ad7e-e7a2e2c5c030","ios":"levelo://app?vid=77038cd2-fc26-44cc-ad7e-e7a2e2c5c030"},"vehicle_type_id":"4","last_reported":1679170017,"current_range_meters":4800,"station_id":"ce4bgkh2rcd13ifvqbl0","pricing_plan_id":"free"},{"bike_id":"4dafff6b-9621-4e2b-86a4-abd86b4f6566","system_id":"levelo_inurba_marseille","lat":43.317585,"lon":5.39017,"is_reserved":false,"is_disabled":false,"rental_uris":{"android":"levelo://app?vid=4dafff6b-9621-4e2b-86a4-abd86b4f6566","ios":"levelo://app?vid=4dafff6b-9621-4e2b-86a4-abd86b4f6566"},"vehicle_type_id":"4","last_reported":1679170017,"current_range_meters":0,"station_id":"ce4bhqp2rcd13ifvqhng","pricing_plan_id":"free"},{"bike_id":"05027bbb-7cf9-4658-bee6-7f659a97b2d7","system_id":"levelo_inurba_marseille","lat":43.298037,"lon":5.381066,"is_reserved":false,"is_disabled":false,"rental_uris":{"android":"levelo://app?vid=05027bbb-7cf9-4658-bee6-7f659a97b2d7","ios":"levelo://app?vid=05027bbb-7cf9-4658-bee6-7f659a97b2d7"},"vehicle_type_id":"4","last_reported":1679170017,"current_range_meters":2800,"station_id":"ce4bgip2rcd13ifvqbb0","pricing_plan_id":"free"},{"bike_id":"543c29ca-ebbf-48df-8f38-4e69ad0f3161","system_id":"levelo_inurba_marseille","lat":43.296277,"lon":5.377108,"is_reserved":false,"is_disabled":false,"rental_uris":{"android":"levelo://app?vid=543c29ca-ebbf-48df-8f38-4e69ad0f3161","ios":"levelo://app?vid=543c29ca-ebbf-48df-8f38-4e69ad0f3161"},"vehicle_type_id":"4","last_reported":1679170017,"current_range_meters":0,"station_id":"ce4bgi92rcd13ifvqb90","pricing_plan_id":"free"},{"bike_id":"a428e556-e452-474c-92b4-654de1688339","system_id":"levelo_inurba_marseille","lat":43.29972,"lon":5.38488,"is_reserved":false,"is_disabled":false,"rental_uris":{"android":"levelo://app?vid=a428e556-e452-474c-92b4-654de1688339","ios":"levelo://app?vid=a428e556-e452-474c-92b4-654de1688339"},"vehicle_type_id":"4","last_reported":1679170017,"current_range_meters":13200,"station_id":"ce4bgj92rcd13ifvqbd0","pricing_plan_id":"free"},{"bike_id":"5971bedb-4e55-4cca-a827-15c1c85bce63","system_id":"levelo_inurba_marseille","lat":43.299735,"lon":5.384937,"is_reserved":false,"is_disabled":false,"rental_uris":{"android":"levelo://app?vid=5971bedb-4e55-4cca-a827-15c1c85bce63","ios":"levelo://app?vid=5971bedb-4e55-4cca-a827-15c1c85bce63"},"vehicle_type_id":"4","last_reported":1679170017,"current_range_meters":0,"station_id":"ce4bgj92rcd13ifvqbd0","pricing_plan_id":"free"},{"bike_id":"8ee722c3-cfd3-40d6-953f-42f233fdf582","system_id":"levelo_inurba_marseille","lat":43.32366,"lon":5.38878,"is_reserved":false,"is_disabled":false,"rental_uris":{"android":"levelo://app?vid=8ee722c3-cfd3-40d6-953f-42f233fdf582","ios":"levelo://app?vid=8ee722c3-cfd3-40d6-953f-42f233fdf582"},"vehicle_type_id":"4","last_reported":1679170017,"current_range_meters":20800,"station_id":"ce4bhqp2rcd13ifvqhog","pricing_plan_id":"free"},{"bike_id":"8578246a-b9d7-4e84-b638-9c643da79a2e","system_id":"levelo_inurba_marseille","lat":43.32367,"lon":5.388836,"is_reserved":false,"is_disabled":false,"rental_uris":{"android":"levelo://app?vid=8578246a-b9d7-4e84-b638-9c643da79a2e","ios":"levelo://app?vid=8578246a-b9d7-4e84-b638-9c643da79a2e"},"vehicle_type_id":"4","last_reported":1679170017,"current_range_meters":0,"station_id":"ce4bhqp2rcd13ifvqhog","pricing_plan_id":"free"},{"bike_id":"f649df6b-f94b-48b4-a0ed-597f859e398e","system_id":"levelo_inurba_marseille","lat":43.32363,"lon":5.38884,"is_reserved":false,"is_disabled":false,"rental_uris":{"android":"levelo://app?vid=f649df6b-f94b-48b4-a0ed-597f859e398e","ios":"levelo://app?vid=f649df6b-f94b-48b4-a0ed-597f859e398e"},"vehicle_type_id":"4","last_reported":1679170017,"current_range_meters":2400,"station_id":"ce4bhqp2rcd13ifvqhog","pricing_plan_id":"free"},{"bike_id":"77240e9b-3aee-4b33-b809-237ad1b97536","system_id":"levelo_inurba_marseille","lat":43.32367,"lon":5.388836,"is_reserved":false,"is_disabled":false,"rental_uris":{"android":"levelo://app?vid=77240e9b-3aee-4b33-b809-237ad1b97536","ios":"levelo://app?vid=77240e9b-3aee-4b33-b809-237ad1b97536"},"vehicle_type_id":"4","last_reported":1679170017,"current_range_meters":22400,"station_id":"ce4bhqp2rcd13ifvqhog","pricing_plan_id":"free"},{"bike_id":"deb37c96-3348-4d98-a426-72a96f26f7ee","system_id":"levelo_inurba_marseille","lat":43.32367,"lon":5.388836,"is_reserved":false,"is_disabled":false,"rental_uris":{"android":"levelo://app?vid=deb37c96-3348-4d98-a426-72a96f26f7ee","ios":"levelo://app?vid=deb37c96-3348-4d98-a426-72a96f26f7ee"},"vehicle_type_id":"4","last_reported":1679170017,"current_range_meters":1600,"station_id":"ce4bhqp2rcd13ifvqhog","pricing_plan_id":"free"},{"bike_id":"8d504424-72ea-46e3-ae8b-40ec30261133","system_id":"levelo_inurba_marseille","lat":43.32367,"lon":5.388836,"is_reserved":false,"is_disabled":false,"rental_uris":{"android":"levelo://app?vid=8d504424-72ea-46e3-ae8b-40ec30261133","ios":"levelo://app?vid=8d504424-72ea-46e3-ae8b-40ec30261133"},"vehicle_type_id":"4","last_reported":1679170017,"current_range_meters":30000,"station_id":"ce4bhqp2rcd13ifvqhog","pricing_plan_id":"free"},{"bike_id":"1f08611d-b9cc-4ced-a715-3664d2e19cff","system_id":"levelo_inurba_marseille","lat":43.32367,"lon":5.388836,"is_reserved":false,"is_disabled":false,"rental_uris":{"android":"levelo://app?vid=1f08611d-b9cc-4ced-a715-3664d2e19cff","ios":"levelo://app?vid=1f08611d-b9cc-4ced-a715-3664d2e19cff"},"vehicle_type_id":"4","last_reported":1679170017,"current_range_meters":24800,"station_id":"ce4bhqp2rcd13ifvqhog","pricing_plan_id":"free"},{"bike_id":"4b5c11b4-0e21-4020-b367-6fe66e4b8101","system_id":"levelo_inurba_marseille","lat":43.29315,"lon":5.37165,"is_reserved":false,"is_disabled":false,"rental_uris":{"android":"levelo://app?vid=4b5c11b4-0e21-4020-b367-6fe66e4b8101","ios":"levelo://app?vid=4b5c11b4-0e21-4020-b367-6fe66e4b8101"},"vehicle_type_id":"4","last_reported":1679170017,"current_range_meters":31600,"station_id":"ce4bgh92rcd13ifvqb40","pricing_plan_id":"free"},{"bike_id":"01406c60-a6da-4b87-9eab-ef8c05774b98","system_id":"levelo_inurba_marseille","lat":43.29312,"lon":5.3717,"is_reserved":false,"is_disabled":false,"rental_uris":{"android":"levelo://app?vid=01406c60-a6da-4b87-9eab-ef8c05774b98","ios":"levelo://app?vid=01406c60-a6da-4b87-9eab-ef8c05774b98"},"vehicle_type_id":"4","last_reported":1679170017,"current_range_meters":30800,"station_id":"","pricing_plan_id":"free"},{"bike_id":"96bd78b0-d33a-407e-a602-3e8e6019cce2","system_id":"levelo_inurba_marseille","lat":43.293022,"lon":5.371453,"is_reserved":false,"is_disabled":false,"rental_uris":{"android":"levelo://app?vid=96bd78b0-d33a-407e-a602-3e8e6019cce2","ios":"levelo://app?vid=96bd78b0-d33a-407e-a602-3e8e6019cce2"},"vehicle_type_id":"4","last_reported":1679170017,"current_range_meters":30400,"station_id":"","pricing_plan_id":"free"},{"bike_id":"f714cd3d-4645-4c0a-9434-8f3445ffdd37","system_id":"levelo_inurba_marseille","lat":43.293249,"lon":5.371578,"is_reserved":false,"is_disabled":false,"rental_uris":{"android":"levelo://app?vid=f714cd3d-4645-4c0a-9434-8f3445ffdd37","ios":"levelo://app?vid=f714cd3d-4645-4c0a-9434-8f3445ffdd37"},"vehicle_type_id":"4","last_reported":1679170017,"current_range_meters":3600,"station_id":"ce4bgh92rcd13ifvqb40","pricing_plan_id":"free"},{"bike_id":"af8e5f78-de2f-4e9a-b75b-ddc1b5154470","system_id":"levelo_inurba_marseille","lat":43.292954,"lon":5.374615,"is_reserved":false,"is_disabled":false,"rental_uris":{"android":"levelo://app?vid=af8e5f78-de2f-4e9a-b75b-ddc1b5154470","ios":"levelo://app?vid=af8e5f78-de2f-4e9a-b75b-ddc1b5154470"},"vehicle_type_id":"4","last_reported":1679170017,"current_range_meters":31600,"station_id":"ce4bgi12rcd13ifvqb70","pricing_plan_id":"free"},{"bike_id":"53b71bb5-14a8-4084-a4ea-4d1a20db4d13","system_id":"levelo_inurba_marseille","lat":43.293009,"lon":5.374584,"is_reserved":false,"is_disabled":false,"rental_uris":{"android":"levelo://app?vid=53b71bb5-14a8-4084-a4ea-4d1a20db4d13","ios":"levelo://app?vid=53b71bb5-14a8-4084-a4ea-4d1a20db4d13"},"vehicle_type_id":"4","last_reported":1679170017,"current_range_meters":24800,"station_id":"ce4bgi12rcd13ifvqb70","pricing_plan_id":"free"},{"bike_id":"c0a2a658-41d7-4335-9ab5-ee428580e2e7","system_id":"levelo_inurba_marseille","lat":43.31657,"lon":5.39472,"is_reserved":false,"is_disabled":false,"rental_uris":{"android":"levelo://app?vid=c0a2a658-41d7-4335-9ab5-ee428580e2e7","ios":"levelo://app?vid=c0a2a658-41d7-4335-9ab5-ee428580e2e7"},"vehicle_type_id":"4","last_reported":1679170017,"current_range_meters":24400,"station_id":"","pricing_plan_id":"free"},{"bike_id":"359976ae-df25-4150-ae7c-4dbdbad4c39c","system_id":"levelo_inurba_marseille","lat":43.293009,"lon":5.374584,"is_reserved":false,"is_disabled":false,"rental_uris":{"android":"levelo://app?vid=359976ae-df25-4150-ae7c-4dbdbad4c39c","ios":"levelo://app?vid=359976ae-df25-4150-ae7c-4dbdbad4c39c"},"vehicle_type_id":"4","last_reported":1679170017,"current_range_meters":31600,"station_id":"ce4bgi12rcd13ifvqb70","pricing_plan_id":"free"},{"bike_id":"0c447f3e-65b3-485d-9053-c6a61ed0e3c6","system_id":"levelo_inurba_marseille","lat":43.293009,"lon":5.374584,"is_reserved":false,"is_disabled":false,"rental_uris":{"android":"levelo://app?vid=0c447f3e-65b3-485d-9053-c6a61ed0e3c6","ios":"levelo://app?vid=0c447f3e-65b3-485d-9053-c6a61ed0e3c6"},"vehicle_type_id":"4","last_reported":1679170017,"current_range_meters":20000,"station_id":"ce4bgi12rcd13ifvqb70","pricing_plan_id":"free"},{"bike_id":"ea4d4d75-5468-43b3-b0ad-36fd0394d676","system_id":"levelo_inurba_marseille","lat":43.291704,"lon":5.371509,"is_reserved":false,"is_disabled":false,"rental_uris":{"android":"levelo://app?vid=ea4d4d75-5468-43b3-b0ad-36fd0394d676","ios":"levelo://app?vid=ea4d4d75-5468-43b3-b0ad-36fd0394d676"},"vehicle_type_id":"4","last_reported":1679170017,"current_range_meters":0,"station_id":"ce4bha92rcd13ifvqeh0","pricing_plan_id":"free"},{"bike_id":"fe58bdda-2fe0-478a-b085-30bbbe53fa40","system_id":"levelo_inurba_marseille","lat":43.295265,"lon":5.385475,"is_reserved":false,"is_disabled":false,"rental_uris":{"android":"levelo://app?vid=fe58bdda-2fe0-478a-b085-30bbbe53fa40","ios":"levelo://app?vid=fe58bdda-2fe0-478a-b085-30bbbe53fa40"},"vehicle_type_id":"4","last_reported":1679170017,"current_range_meters":17600,"station_id":"ce4bgih2rcd13ifvqba0","pricing_plan_id":"free"},{"bike_id":"a2ea142d-6b25-4c4d-905b-a7ef4e1690ac","system_id":"levelo_inurba_marseille","lat":43.295877,"lon":5.386574,"is_reserved":false,"is_disabled":false,"rental_uris":{"android":"levelo://app?vid=a2ea142d-6b25-4c4d-905b-a7ef4e1690ac","ios":"levelo://app?vid=a2ea142d-6b25-4c4d-905b-a7ef4e1690ac"},"vehicle_type_id":"4","last_reported":1679170017,"current_range_meters":0,"station_id":"","pricing_plan_id":"free"},{"bike_id":"ec0c2376-029e-4ad9-8753-4bec35a27a5f","system_id":"levelo_inurba_marseille","lat":43.29065,"lon":5.37175,"is_reserved":false,"is_disabled":false,"rental_uris":{"android":"levelo://app?vid=ec0c2376-029e-4ad9-8753-4bec35a27a5f","ios":"levelo://app?vid=ec0c2376-029e-4ad9-8753-4bec35a27a5f"},"vehicle_type_id":"4","last_reported":1679170017,"current_range_meters":0,"station_id":"ce4bh5p2rcd13ifvqe4g","pricing_plan_id":"free"},{"bike_id":"ecac682f-40a2-47f2-ba2b-7d2cb43a2773","system_id":"levelo_inurba_marseille","lat":43.290399,"lon":5.359177,"is_reserved":false,"is_disabled":false,"rental_uris":{"android":"levelo://app?vid=ecac682f-40a2-47f2-ba2b-7d2cb43a2773","ios":"levelo://app?vid=ecac682f-40a2-47f2-ba2b-7d2cb43a2773"},"vehicle_type_id":"4","last_reported":1679170017,"current_range_meters":0,"station_id":"ce4bha92rcd13ifvqeg0","pricing_plan_id":"free"},{"bike_id":"e3b6f988-291a-4635-aa8a-e241cc56a738","system_id":"levelo_inurba_marseille","lat":43.290624,"lon":5.359245,"is_reserved":false,"is_disabled":false,"rental_uris":{"android":"levelo://app?vid=e3b6f988-291a-4635-aa8a-e241cc56a738","ios":"levelo://app?vid=e3b6f988-291a-4635-aa8a-e241cc56a738"},"vehicle_type_id":"4","last_reported":1679170017,"current_range_meters":0,"station_id":"ce4bha92rcd13ifvqeg0","pricing_plan_id":"free"},{"bike_id":"e798ca32-6751-4c64-8b59-bec0a13367ba","system_id":"levelo_inurba_marseille","lat":43.289378,"lon":5.364001,"is_reserved":false,"is_disabled":false,"rental_uris":{"android":"levelo://app?vid=e798ca32-6751-4c64-8b59-bec0a13367ba","ios":"levelo://app?vid=e798ca32-6751-4c64-8b59-bec0a13367ba"},"vehicle_type_id":"4","last_reported":1679170017,"current_range_meters":22400,"station_id":"","pricing_plan_id":"free"},{"bike_id":"3eac1b18-fa9c-476a-bce3-d35997ffd118","system_id":"levelo_inurba_marseille","lat":43.292644,"lon":5.384257,"is_reserved":false,"is_disabled":false,"rental_uris":{"android":"levelo://app?vid=3eac1b18-fa9c-476a-bce3-d35997ffd118","ios":"levelo://app?vid=3eac1b18-fa9c-476a-bce3-d35997ffd118"},"vehicle_type_id":"4","last_reported":1679170017,"current_range_meters":26400,"station_id":"ce4bh692rcd13ifvqea0","pricing_plan_id":"free"},{"bike_id":"589a1c0e-312c-4d05-b0eb-f353be3f6554","system_id":"levelo_inurba_marseille","lat":43.29266,"lon":5.384401,"is_reserved":false,"is_disabled":false,"rental_uris":{"android":"levelo://app?vid=589a1c0e-312c-4d05-b0eb-f353be3f6554","ios":"levelo://app?vid=589a1c0e-312c-4d05-b0eb-f353be3f6554"},"vehicle_type_id":"4","last_reported":1679170017,"current_range_meters":15600,"station_id":"ce4bh692rcd13ifvqea0","pricing_plan_id":"free"},{"bike_id":"0931eee5-e1ed-4565-b7cf-0697246ede70","system_id":"levelo_inurba_marseille","lat":43.292644,"lon":5.384257,"is_reserved":false,"is_disabled":false,"rental_uris":{"android":"levelo://app?vid=0931eee5-e1ed-4565-b7cf-0697246ede70","ios":"levelo://app?vid=0931eee5-e1ed-4565-b7cf-0697246ede70"},"vehicle_type_id":"4","last_reported":1679170017,"current_range_meters":18400,"station_id":"ce4bh692rcd13ifvqea0","pricing_plan_id":"free"},{"bike_id":"29821d7f-3400-439f-ba1a-6a000a781502","system_id":"levelo_inurba_marseille","lat":43.292644,"lon":5.384257,"is_reserved":false,"is_disabled":false,"rental_uris":{"android":"levelo://app?vid=29821d7f-3400-439f-ba1a-6a000a781502","ios":"levelo://app?vid=29821d7f-3400-439f-ba1a-6a000a781502"},"vehicle_type_id":"4","last_reported":1679170017,"current_range_meters":8400,"station_id":"ce4bh692rcd13ifvqea0","pricing_plan_id":"free"},{"bike_id":"aee428d3-61ff-4805-8cd4-e13bbfc19869","system_id":"levelo_inurba_marseille","lat":43.330442,"lon":5.389148,"is_reserved":false,"is_disabled":false,"rental_uris":{"android":"levelo://app?vid=aee428d3-61ff-4805-8cd4-e13bbfc19869","ios":"levelo://app?vid=aee428d3-61ff-4805-8cd4-e13bbfc19869"},"vehicle_type_id":"4","last_reported":1679170017,"current_range_meters":2800,"station_id":"ce4bhr92rcd13ifvqhrg","pricing_plan_id":"free"},{"bike_id":"c8d8ad0e-c0f2-41b8-8f83-b2e70ef3265f","system_id":"levelo_inurba_marseille","lat":43.330442,"lon":5.389148,"is_reserved":false,"is_disabled":false,"rental_uris":{"android":"levelo://app?vid=c8d8ad0e-c0f2-41b8-8f83-b2e70ef3265f","ios":"levelo://app?vid=c8d8ad0e-c0f2-41b8-8f83-b2e70ef3265f"},"vehicle_type_id":"4","last_reported":1679170017,"current_range_meters":2000,"station_id":"ce4bhr92rcd13ifvqhrg","pricing_plan_id":"free"},{"bike_id":"aa5ea7a1-baf3-41f2-9450-dc5c232d6efb","system_id":"levelo_inurba_marseille","lat":43.330442,"lon":5.389148,"is_reserved":false,"is_disabled":false,"rental_uris":{"android":"levelo://app?vid=aa5ea7a1-baf3-41f2-9450-dc5c232d6efb","ios":"levelo://app?vid=aa5ea7a1-baf3-41f2-9450-dc5c232d6efb"},"vehicle_type_id":"4","last_reported":1679170017,"current_range_meters":12400,"station_id":"ce4bhr92rcd13ifvqhrg","pricing_plan_id":"free"},{"bike_id":"23ca008b-d2ce-4f25-875a-56b3d6d1ca33","system_id":"levelo_inurba_marseille","lat":43.290995,"lon":5.381361,"is_reserved":false,"is_disabled":false,"rental_uris":{"android":"levelo://app?vid=23ca008b-d2ce-4f25-875a-56b3d6d1ca33","ios":"levelo://app?vid=23ca008b-d2ce-4f25-875a-56b3d6d1ca33"},"vehicle_type_id":"4","last_reported":1679170017,"current_range_meters":23200,"station_id":"ce4bh512rcd13ifvqe2g","pricing_plan_id":"free"},{"bike_id":"109970ff-34cb-4ca1-bb7b-d0b1fcfdfd20","system_id":"levelo_inurba_marseille","lat":43.289743,"lon":5.378304,"is_reserved":false,"is_disabled":false,"rental_uris":{"android":"levelo://app?vid=109970ff-34cb-4ca1-bb7b-d0b1fcfdfd20","ios":"levelo://app?vid=109970ff-34cb-4ca1-bb7b-d0b1fcfdfd20"},"vehicle_type_id":"4","last_reported":1679170017,"current_range_meters":0,"station_id":"ce4bh9p2rcd13ifvqed0","pricing_plan_id":"free"},{"bike_id":"8b64d946-fcae-4ff9-be5b-8fdd6608eeae","system_id":"levelo_inurba_marseille","lat":43.295169,"lon":5.390426,"is_reserved":false,"is_disabled":false,"rental_uris":{"android":"levelo://app?vid=8b64d946-fcae-4ff9-be5b-8fdd6608eeae","ios":"levelo://app?vid=8b64d946-fcae-4ff9-be5b-8fdd6608eeae"},"vehicle_type_id":"4","last_reported":1679170017,"current_range_meters":0,"station_id":"ce4bh3p2rcd13ifvqdp0","pricing_plan_id":"free"},{"bike_id":"f0888a5d-8469-4a4a-aa32-e51183159fbe","system_id":"levelo_inurba_marseille","lat":43.337455,"lon":5.374605,"is_reserved":false,"is_disabled":false,"rental_uris":{"android":"levelo://app?vid=f0888a5d-8469-4a4a-aa32-e51183159fbe","ios":"levelo://app?vid=f0888a5d-8469-4a4a-aa32-e51183159fbe"},"vehicle_type_id":"4","last_reported":1679170017,"current_range_meters":11600,"station_id":"","pricing_plan_id":"free"},{"bike_id":"3691d997-1cad-46ed-b7e6-586680d35f2f","system_id":"levelo_inurba_marseille","lat":43.337462,"lon":5.374638,"is_reserved":false,"is_disabled":false,"rental_uris":{"android":"levelo://app?vid=3691d997-1cad-46ed-b7e6-586680d35f2f","ios":"levelo://app?vid=3691d997-1cad-46ed-b7e6-586680d35f2f"},"vehicle_type_id":"4","last_reported":1679170017,"current_range_meters":20400,"station_id":"ce4rr2p2rcd13i802rgg","pricing_plan_id":"free"},{"bike_id":"97a70748-85a2-4139-aa8d-3426ee2a5b86","system_id":"levelo_inurba_marseille","lat":43.337501,"lon":5.374448,"is_reserved":false,"is_disabled":false,"rental_uris":{"android":"levelo://app?vid=97a70748-85a2-4139-aa8d-3426ee2a5b86","ios":"levelo://app?vid=97a70748-85a2-4139-aa8d-3426ee2a5b86"},"vehicle_type_id":"4","last_reported":1679170017,"current_range_meters":0,"station_id":"","pricing_plan_id":"free"},{"bike_id":"40157e8c-7134-4897-bd46-9a552cc3e729","system_id":"levelo_inurba_marseille","lat":43.306412,"lon":5.401035,"is_reserved":false,"is_disabled":false,"rental_uris":{"android":"levelo://app?vid=40157e8c-7134-4897-bd46-9a552cc3e729","ios":"levelo://app?vid=40157e8c-7134-4897-bd46-9a552cc3e729"},"vehicle_type_id":"4","last_reported":1679170017,"current_range_meters":400,"station_id":"ce4bh112rcd13ifvqda0","pricing_plan_id":"free"},{"bike_id":"f3e60a9c-2b74-43cb-ac11-5dfafdbb73c0","system_id":"levelo_inurba_marseille","lat":43.337555,"lon":5.37467,"is_reserved":false,"is_disabled":false,"rental_uris":{"android":"levelo://app?vid=f3e60a9c-2b74-43cb-ac11-5dfafdbb73c0","ios":"levelo://app?vid=f3e60a9c-2b74-43cb-ac11-5dfafdbb73c0"},"vehicle_type_id":"4","last_reported":1679170017,"current_range_meters":25200,"station_id":"","pricing_plan_id":"free"},{"bike_id":"c3f605e7-8f57-4bd3-b482-c521f9a5039a","system_id":"levelo_inurba_marseille","lat":43.306412,"lon":5.401035,"is_reserved":false,"is_disabled":false,"rental_uris":{"android":"levelo://app?vid=c3f605e7-8f57-4bd3-b482-c521f9a5039a","ios":"levelo://app?vid=c3f605e7-8f57-4bd3-b482-c521f9a5039a"},"vehicle_type_id":"4","last_reported":1679170017,"current_range_meters":12800,"station_id":"ce4bh112rcd13ifvqda0","pricing_plan_id":"free"},{"bike_id":"f01ab743-ea8a-44a7-b388-3c33422f9134","system_id":"levelo_inurba_marseille","lat":43.306412,"lon":5.401035,"is_reserved":false,"is_disabled":false,"rental_uris":{"android":"levelo://app?vid=f01ab743-ea8a-44a7-b388-3c33422f9134","ios":"levelo://app?vid=f01ab743-ea8a-44a7-b388-3c33422f9134"},"vehicle_type_id":"4","last_reported":1679170017,"current_range_meters":20800,"station_id":"ce4bh112rcd13ifvqda0","pricing_plan_id":"free"},{"bike_id":"b62d0b03-240d-4a70-9ae0-eb890e018565","system_id":"levelo_inurba_marseille","lat":43.301117,"lon":5.398795,"is_reserved":false,"is_disabled":false,"rental_uris":{"android":"levelo://app?vid=b62d0b03-240d-4a70-9ae0-eb890e018565","ios":"levelo://app?vid=b62d0b03-240d-4a70-9ae0-eb890e018565"},"vehicle_type_id":"4","last_reported":1679170017,"current_range_meters":15200,"station_id":"ce4bh0h2rcd13ifvqd40","pricing_plan_id":"free"},{"bike_id":"396f35a0-16a8-40a1-b9ef-c258efeff22a","system_id":"levelo_inurba_marseille","lat":43.2952,"lon":5.39398,"is_reserved":false,"is_disabled":false,"rental_uris":{"android":"levelo://app?vid=396f35a0-16a8-40a1-b9ef-c258efeff22a","ios":"levelo://app?vid=396f35a0-16a8-40a1-b9ef-c258efeff22a"},"vehicle_type_id":"4","last_reported":1679170017,"current_range_meters":20400,"station_id":"ce4bh212rcd13ifvqde0","pricing_plan_id":"free"},{"bike_id":"bb074401-9b20-494a-9939-d64dff2e5a27","system_id":"levelo_inurba_marseille","lat":43.286477,"lon":5.363303,"is_reserved":false,"is_disabled":false,"rental_uris":{"android":"levelo://app?vid=bb074401-9b20-494a-9939-d64dff2e5a27","ios":"levelo://app?vid=bb074401-9b20-494a-9939-d64dff2e5a27"},"vehicle_type_id":"4","last_reported":1679170017,"current_range_meters":30800,"station_id":"ce4bhah2rcd13ifvqej0","pricing_plan_id":"free"},{"bike_id":"406471b7-9786-4da5-ba6a-249e258ad7fb","system_id":"levelo_inurba_marseille","lat":43.290318,"lon":5.386599,"is_reserved":false,"is_disabled":false,"rental_uris":{"android":"levelo://app?vid=406471b7-9786-4da5-ba6a-249e258ad7fb","ios":"levelo://app?vid=406471b7-9786-4da5-ba6a-249e258ad7fb"},"vehicle_type_id":"4","last_reported":1679170017,"current_range_meters":3600,"station_id":"ce4bh4p2rcd13ifvqe0g","pricing_plan_id":"free"},{"bike_id":"980d13ba-deec-49f4-93ad-623960c4fd9f","system_id":"levelo_inurba_marseille","lat":43.302759,"lon":5.400793,"is_reserved":false,"is_disabled":false,"rental_uris":{"android":"levelo://app?vid=980d13ba-deec-49f4-93ad-623960c4fd9f","ios":"levelo://app?vid=980d13ba-deec-49f4-93ad-623960c4fd9f"},"vehicle_type_id":"4","last_reported":1679170017,"current_range_meters":31200,"station_id":"ce4bgvh2rcd13ifvqcs0","pricing_plan_id":"free"},{"bike_id":"4529bff9-9a70-4068-b938-8fa5d3dbf801","system_id":"levelo_inurba_marseille","lat":43.302759,"lon":5.400793,"is_reserved":false,"is_disabled":false,"rental_uris":{"android":"levelo://app?vid=4529bff9-9a70-4068-b938-8fa5d3dbf801","ios":"levelo://app?vid=4529bff9-9a70-4068-b938-8fa5d3dbf801"},"vehicle_type_id":"4","last_reported":1679170017,"current_range_meters":12400,"station_id":"ce4bgvh2rcd13ifvqcs0","pricing_plan_id":"free"},{"bike_id":"1c7d729c-0c4d-48e9-bf8c-2dc26eb2807d","system_id":"levelo_inurba_marseille","lat":43.286039,"lon":5.370679,"is_reserved":false,"is_disabled":false,"rental_uris":{"android":"levelo://app?vid=1c7d729c-0c4d-48e9-bf8c-2dc26eb2807d","ios":"levelo://app?vid=1c7d729c-0c4d-48e9-bf8c-2dc26eb2807d"},"vehicle_type_id":"4","last_reported":1679170017,"current_range_meters":0,"station_id":"ce4bht12rcd13ifvqi60","pricing_plan_id":"free"},{"bike_id":"0f2689d4-db60-4eb1-b61e-ffbbc9b47c43","system_id":"levelo_inurba_marseille","lat":43.310966,"lon":5.40365,"is_reserved":false,"is_disabled":false,"rental_uris":{"android":"levelo://app?vid=0f2689d4-db60-4eb1-b61e-ffbbc9b47c43","ios":"levelo://app?vid=0f2689d4-db60-4eb1-b61e-ffbbc9b47c43"},"vehicle_type_id":"4","last_reported":1679170017,"current_range_meters":0,"station_id":"","pricing_plan_id":"free"},{"bike_id":"bbf0cba8-af07-4b88-9c6f-a331a4902dec","system_id":"levelo_inurba_marseille","lat":43.316517,"lon":5.404375,"is_reserved":false,"is_disabled":false,"rental_uris":{"android":"levelo://app?vid=bbf0cba8-af07-4b88-9c6f-a331a4902dec","ios":"levelo://app?vid=bbf0cba8-af07-4b88-9c6f-a331a4902dec"},"vehicle_type_id":"4","last_reported":1679170017,"current_range_meters":2400,"station_id":"ce4bh012rcd13ifvqd00","pricing_plan_id":"free"},{"bike_id":"29ec4ccd-ed6c-4552-af82-1c420ab65416","system_id":"levelo_inurba_marseille","lat":43.316517,"lon":5.404375,"is_reserved":false,"is_disabled":false,"rental_uris":{"android":"levelo://app?vid=29ec4ccd-ed6c-4552-af82-1c420ab65416","ios":"levelo://app?vid=29ec4ccd-ed6c-4552-af82-1c420ab65416"},"vehicle_type_id":"4","last_reported":1679170017,"current_range_meters":7600,"station_id":"ce4bh012rcd13ifvqd00","pricing_plan_id":"free"},{"bike_id":"3a322da1-a080-4ce5-8d0f-f3cd15629b95","system_id":"levelo_inurba_marseille","lat":43.284534,"lon":5.358662,"is_reserved":false,"is_disabled":false,"rental_uris":{"android":"levelo://app?vid=3a322da1-a080-4ce5-8d0f-f3cd15629b95","ios":"levelo://app?vid=3a322da1-a080-4ce5-8d0f-f3cd15629b95"},"vehicle_type_id":"4","last_reported":1679170017,"current_range_meters":26000,"station_id":"ce4bhah2rcd13ifvqei0","pricing_plan_id":"free"},{"bike_id":"1bfeb539-f112-4d93-b3b9-52abbeae7fc3","system_id":"levelo_inurba_marseille","lat":43.286595,"lon":5.386795,"is_reserved":false,"is_disabled":false,"rental_uris":{"android":"levelo://app?vid=1bfeb539-f112-4d93-b3b9-52abbeae7fc3","ios":"levelo://app?vid=1bfeb539-f112-4d93-b3b9-52abbeae7fc3"},"vehicle_type_id":"4","last_reported":1679170017,"current_range_meters":8400,"station_id":"ce4bh492rcd13ifvqdug","pricing_plan_id":"free"},{"bike_id":"89edc2a2-25d2-4dcd-a362-b7dfed9c07db","system_id":"levelo_inurba_marseille","lat":43.33717,"lon":5.391857,"is_reserved":false,"is_disabled":false,"rental_uris":{"android":"levelo://app?vid=89edc2a2-25d2-4dcd-a362-b7dfed9c07db","ios":"levelo://app?vid=89edc2a2-25d2-4dcd-a362-b7dfed9c07db"},"vehicle_type_id":"4","last_reported":1679170017,"current_range_meters":0,"station_id":"ce4bhr92rcd13ifvqhsg","pricing_plan_id":"free"},{"bike_id":"91765fb7-6a0a-4953-a29f-0aa2e8417e56","system_id":"levelo_inurba_marseille","lat":43.32332,"lon":5.40621,"is_reserved":false,"is_disabled":false,"rental_uris":{"android":"levelo://app?vid=91765fb7-6a0a-4953-a29f-0aa2e8417e56","ios":"levelo://app?vid=91765fb7-6a0a-4953-a29f-0aa2e8417e56"},"vehicle_type_id":"4","last_reported":1679170017,"current_range_meters":6800,"station_id":"","pricing_plan_id":"free"},{"bike_id":"2d121133-831d-4a8e-b1de-6e8f8fbbc8b1","system_id":"levelo_inurba_marseille","lat":43.32333,"lon":5.40621,"is_reserved":false,"is_disabled":false,"rental_uris":{"android":"levelo://app?vid=2d121133-831d-4a8e-b1de-6e8f8fbbc8b1","ios":"levelo://app?vid=2d121133-831d-4a8e-b1de-6e8f8fbbc8b1"},"vehicle_type_id":"4","last_reported":1679170017,"current_range_meters":6800,"station_id":"","pricing_plan_id":"free"},{"bike_id":"253b4ac8-1dbb-45c1-ac5f-4af576b73f28","system_id":"levelo_inurba_marseille","lat":43.284223,"lon":5.349855,"is_reserved":false,"is_disabled":false,"rental_uris":{"android":"levelo://app?vid=253b4ac8-1dbb-45c1-ac5f-4af576b73f28","ios":"levelo://app?vid=253b4ac8-1dbb-45c1-ac5f-4af576b73f28"},"vehicle_type_id":"4","last_reported":1679170017,"current_range_meters":31600,"station_id":"ce4bhbh2rcd13ifvqepg","pricing_plan_id":"free"},{"bike_id":"7e95636c-e3a6-4ce1-bb6b-b2c85967a76b","system_id":"levelo_inurba_marseille","lat":43.284219,"lon":5.3497,"is_reserved":false,"is_disabled":false,"rental_uris":{"android":"levelo://app?vid=7e95636c-e3a6-4ce1-bb6b-b2c85967a76b","ios":"levelo://app?vid=7e95636c-e3a6-4ce1-bb6b-b2c85967a76b"},"vehicle_type_id":"4","last_reported":1679170017,"current_range_meters":31600,"station_id":"ce4bhbh2rcd13ifvqepg","pricing_plan_id":"free"},{"bike_id":"b7d62797-092c-4151-ae7f-aed0517c6fc3","system_id":"levelo_inurba_marseille","lat":43.28419,"lon":5.34977,"is_reserved":false,"is_disabled":false,"rental_uris":{"android":"levelo://app?vid=b7d62797-092c-4151-ae7f-aed0517c6fc3","ios":"levelo://app?vid=b7d62797-092c-4151-ae7f-aed0517c6fc3"},"vehicle_type_id":"4","last_reported":1679170017,"current_range_meters":31600,"station_id":"ce4bhbh2rcd13ifvqepg","pricing_plan_id":"free"},{"bike_id":"dec8f7d2-8578-492e-973f-290f248f25b0","system_id":"levelo_inurba_marseille","lat":43.282687,"lon":5.350672,"is_reserved":false,"is_disabled":false,"rental_uris":{"android":"levelo://app?vid=dec8f7d2-8578-492e-973f-290f248f25b0","ios":"levelo://app?vid=dec8f7d2-8578-492e-973f-290f248f25b0"},"vehicle_type_id":"4","last_reported":1679170017,"current_range_meters":31600,"station_id":"","pricing_plan_id":"free"},{"bike_id":"cf28858c-8fe3-4fa4-ad0c-03c40ee8af9d","system_id":"levelo_inurba_marseille","lat":43.282754,"lon":5.350519,"is_reserved":false,"is_disabled":false,"rental_uris":{"android":"levelo://app?vid=cf28858c-8fe3-4fa4-ad0c-03c40ee8af9d","ios":"levelo://app?vid=cf28858c-8fe3-4fa4-ad0c-03c40ee8af9d"},"vehicle_type_id":"4","last_reported":1679170017,"current_range_meters":15600,"station_id":"ce4bhbp2rcd13ifvqerg","pricing_plan_id":"free"},{"bike_id":"48b0d3fa-dcbe-4f6f-aceb-38d722471f07","system_id":"levelo_inurba_marseille","lat":43.28373,"lon":5.38656,"is_reserved":false,"is_disabled":false,"rental_uris":{"android":"levelo://app?vid=48b0d3fa-dcbe-4f6f-aceb-38d722471f07","ios":"levelo://app?vid=48b0d3fa-dcbe-4f6f-aceb-38d722471f07"},"vehicle_type_id":"4","last_reported":1679170017,"current_range_meters":31600,"station_id":"ce4bh492rcd13ifvqdvg","pricing_plan_id":"free"},{"bike_id":"3a47d550-38bb-4243-ac2b-cadbe62311c1","system_id":"levelo_inurba_marseille","lat":43.282754,"lon":5.350519,"is_reserved":false,"is_disabled":false,"rental_uris":{"android":"levelo://app?vid=3a47d550-38bb-4243-ac2b-cadbe62311c1","ios":"levelo://app?vid=3a47d550-38bb-4243-ac2b-cadbe62311c1"},"vehicle_type_id":"4","last_reported":1679170017,"current_range_meters":31600,"station_id":"ce4bhbp2rcd13ifvqerg","pricing_plan_id":"free"},{"bike_id":"b10b60a5-7b72-41ed-bd83-b94fda7dda6b","system_id":"levelo_inurba_marseille","lat":43.280382,"lon":5.369291,"is_reserved":false,"is_disabled":false,"rental_uris":{"android":"levelo://app?vid=b10b60a5-7b72-41ed-bd83-b94fda7dda6b","ios":"levelo://app?vid=b10b60a5-7b72-41ed-bd83-b94fda7dda6b"},"vehicle_type_id":"4","last_reported":1679170017,"current_range_meters":11200,"station_id":"ce4bha12rcd13ifvqef0","pricing_plan_id":"free"},{"bike_id":"b1a11338-cd64-4ef9-b06f-b045c9a45b3d","system_id":"levelo_inurba_marseille","lat":43.296263,"lon":5.40601,"is_reserved":false,"is_disabled":false,"rental_uris":{"android":"levelo://app?vid=b1a11338-cd64-4ef9-b06f-b045c9a45b3d","ios":"levelo://app?vid=b1a11338-cd64-4ef9-b06f-b045c9a45b3d"},"vehicle_type_id":"4","last_reported":1679170017,"current_range_meters":0,"station_id":"ce4bh0h2rcd13ifvqd60","pricing_plan_id":"free"},{"bike_id":"9e78ffee-279b-47db-b55e-c656893c2f46","system_id":"levelo_inurba_marseille","lat":43.28443,"lon":5.391847,"is_reserved":false,"is_disabled":false,"rental_uris":{"android":"levelo://app?vid=9e78ffee-279b-47db-b55e-c656893c2f46","ios":"levelo://app?vid=9e78ffee-279b-47db-b55e-c656893c2f46"},"vehicle_type_id":"4","last_reported":1679170017,"current_range_meters":0,"station_id":"","pricing_plan_id":"free"},{"bike_id":"8d9c782f-4e47-44aa-8bbe-8e66fb95fb76","system_id":"levelo_inurba_marseille","lat":43.287154,"lon":5.399979,"is_reserved":false,"is_disabled":false,"rental_uris":{"android":"levelo://app?vid=8d9c782f-4e47-44aa-8bbe-8e66fb95fb76","ios":"levelo://app?vid=8d9c782f-4e47-44aa-8bbe-8e66fb95fb76"},"vehicle_type_id":"4","last_reported":1679170017,"current_range_meters":1600,"station_id":"ce4bho92rcd13ifvqh3g","pricing_plan_id":"free"},{"bike_id":"fae6f9ad-7395-4151-bab8-4ef2ea78b904","system_id":"levelo_inurba_marseille","lat":43.287154,"lon":5.399979,"is_reserved":false,"is_disabled":false,"rental_uris":{"android":"levelo://app?vid=fae6f9ad-7395-4151-bab8-4ef2ea78b904","ios":"levelo://app?vid=fae6f9ad-7395-4151-bab8-4ef2ea78b904"},"vehicle_type_id":"4","last_reported":1679170017,"current_range_meters":6400,"station_id":"ce4bho92rcd13ifvqh3g","pricing_plan_id":"free"},{"bike_id":"d178bd0f-a7aa-4c1f-8fe9-1bfd59079fb6","system_id":"levelo_inurba_marseille","lat":43.287154,"lon":5.399979,"is_reserved":false,"is_disabled":false,"rental_uris":{"android":"levelo://app?vid=d178bd0f-a7aa-4c1f-8fe9-1bfd59079fb6","ios":"levelo://app?vid=d178bd0f-a7aa-4c1f-8fe9-1bfd59079fb6"},"vehicle_type_id":"4","last_reported":1679170017,"current_range_meters":400,"station_id":"ce4bho92rcd13ifvqh3g","pricing_plan_id":"free"},{"bike_id":"44626523-b053-41d3-890f-79d1dc3852f5","system_id":"levelo_inurba_marseille","lat":43.320045,"lon":5.415048,"is_reserved":false,"is_disabled":false,"rental_uris":{"android":"levelo://app?vid=44626523-b053-41d3-890f-79d1dc3852f5","ios":"levelo://app?vid=44626523-b053-41d3-890f-79d1dc3852f5"},"vehicle_type_id":"4","last_reported":1679170017,"current_range_meters":4800,"station_id":"ce4bhq92rcd13ifvqhkg","pricing_plan_id":"free"},{"bike_id":"7a15bc19-fdab-4df8-8e2a-119ae306d96a","system_id":"levelo_inurba_marseille","lat":43.320045,"lon":5.415048,"is_reserved":false,"is_disabled":false,"rental_uris":{"android":"levelo://app?vid=7a15bc19-fdab-4df8-8e2a-119ae306d96a","ios":"levelo://app?vid=7a15bc19-fdab-4df8-8e2a-119ae306d96a"},"vehicle_type_id":"4","last_reported":1679170017,"current_range_meters":0,"station_id":"ce4bhq92rcd13ifvqhkg","pricing_plan_id":"free"},{"bike_id":"35456a32-53a4-47ea-a290-da3291e6aef1","system_id":"levelo_inurba_marseille","lat":43.320045,"lon":5.415048,"is_reserved":false,"is_disabled":false,"rental_uris":{"android":"levelo://app?vid=35456a32-53a4-47ea-a290-da3291e6aef1","ios":"levelo://app?vid=35456a32-53a4-47ea-a290-da3291e6aef1"},"vehicle_type_id":"4","last_reported":1679170017,"current_range_meters":21200,"station_id":"ce4bhq92rcd13ifvqhkg","pricing_plan_id":"free"},{"bike_id":"2f454740-0b4f-4abc-9d61-60c7eebac267","system_id":"levelo_inurba_marseille","lat":43.324812,"lon":5.4143,"is_reserved":false,"is_disabled":false,"rental_uris":{"android":"levelo://app?vid=2f454740-0b4f-4abc-9d61-60c7eebac267","ios":"levelo://app?vid=2f454740-0b4f-4abc-9d61-60c7eebac267"},"vehicle_type_id":"4","last_reported":1679170017,"current_range_meters":9200,"station_id":"","pricing_plan_id":"free"},{"bike_id":"1e75a43a-fe66-4568-8376-4726bfc8e6c5","system_id":"levelo_inurba_marseille","lat":43.325363,"lon":5.414313,"is_reserved":false,"is_disabled":false,"rental_uris":{"android":"levelo://app?vid=1e75a43a-fe66-4568-8376-4726bfc8e6c5","ios":"levelo://app?vid=1e75a43a-fe66-4568-8376-4726bfc8e6c5"},"vehicle_type_id":"4","last_reported":1679170017,"current_range_meters":0,"station_id":"","pricing_plan_id":"free"},{"bike_id":"723827fb-8bd7-429f-8250-b44b4c84fe20","system_id":"levelo_inurba_marseille","lat":43.27624,"lon":5.361145,"is_reserved":false,"is_disabled":false,"rental_uris":{"android":"levelo://app?vid=723827fb-8bd7-429f-8250-b44b4c84fe20","ios":"levelo://app?vid=723827fb-8bd7-429f-8250-b44b4c84fe20"},"vehicle_type_id":"4","last_reported":1679170017,"current_range_meters":0,"station_id":"","pricing_plan_id":"free"},{"bike_id":"5f11de16-2911-4b4f-b726-c59123cc1e79","system_id":"levelo_inurba_marseille","lat":43.325233,"lon":5.414318,"is_reserved":false,"is_disabled":false,"rental_uris":{"android":"levelo://app?vid=5f11de16-2911-4b4f-b726-c59123cc1e79","ios":"levelo://app?vid=5f11de16-2911-4b4f-b726-c59123cc1e79"},"vehicle_type_id":"4","last_reported":1679170017,"current_range_meters":7600,"station_id":"ce4bhq12rcd13ifvqhhg","pricing_plan_id":"free"},{"bike_id":"097f760a-9f89-4270-b6e1-3eb02640619d","system_id":"levelo_inurba_marseille","lat":43.32542,"lon":5.41441,"is_reserved":false,"is_disabled":false,"rental_uris":{"android":"levelo://app?vid=097f760a-9f89-4270-b6e1-3eb02640619d","ios":"levelo://app?vid=097f760a-9f89-4270-b6e1-3eb02640619d"},"vehicle_type_id":"4","last_reported":1679170017,"current_range_meters":25200,"station_id":"ce4bhq12rcd13ifvqhhg","pricing_plan_id":"free"},{"bike_id":"4e924825-18da-48fb-b5bc-28bbbc060640","system_id":"levelo_inurba_marseille","lat":43.325243,"lon":5.414326,"is_reserved":false,"is_disabled":false,"rental_uris":{"android":"levelo://app?vid=4e924825-18da-48fb-b5bc-28bbbc060640","ios":"levelo://app?vid=4e924825-18da-48fb-b5bc-28bbbc060640"},"vehicle_type_id":"4","last_reported":1679170017,"current_range_meters":11600,"station_id":"ce4bhq12rcd13ifvqhhg","pricing_plan_id":"free"},{"bike_id":"82c0197b-5828-4710-a88c-34b63d75cfda","system_id":"levelo_inurba_marseille","lat":43.325233,"lon":5.414318,"is_reserved":false,"is_disabled":false,"rental_uris":{"android":"levelo://app?vid=82c0197b-5828-4710-a88c-34b63d75cfda","ios":"levelo://app?vid=82c0197b-5828-4710-a88c-34b63d75cfda"},"vehicle_type_id":"4","last_reported":1679170017,"current_range_meters":9200,"station_id":"ce4bhq12rcd13ifvqhhg","pricing_plan_id":"free"},{"bike_id":"69d4dd91-dfcd-4995-966b-ec2f27d43f39","system_id":"levelo_inurba_marseille","lat":43.280784,"lon":5.396622,"is_reserved":false,"is_disabled":false,"rental_uris":{"android":"levelo://app?vid=69d4dd91-dfcd-4995-966b-ec2f27d43f39","ios":"levelo://app?vid=69d4dd91-dfcd-4995-966b-ec2f27d43f39"},"vehicle_type_id":"4","last_reported":1679170017,"current_range_meters":400,"station_id":"ce4bho12rcd13ifvqh2g","pricing_plan_id":"free"},{"bike_id":"eb462c0b-2666-46c8-b365-bcbf64fc0073","system_id":"levelo_inurba_marseille","lat":43.2738,"lon":5.36251,"is_reserved":false,"is_disabled":false,"rental_uris":{"android":"levelo://app?vid=eb462c0b-2666-46c8-b365-bcbf64fc0073","ios":"levelo://app?vid=eb462c0b-2666-46c8-b365-bcbf64fc0073"},"vehicle_type_id":"4","last_reported":1679170017,"current_range_meters":7200,"station_id":"ce4bhbh2rcd13ifvqeo0","pricing_plan_id":"free"},{"bike_id":"1efccaf8-4e77-4b89-810c-e8412551f2f0","system_id":"levelo_inurba_marseille","lat":43.33612,"lon":5.410321,"is_reserved":false,"is_disabled":false,"rental_uris":{"android":"levelo://app?vid=1efccaf8-4e77-4b89-810c-e8412551f2f0","ios":"levelo://app?vid=1efccaf8-4e77-4b89-810c-e8412551f2f0"},"vehicle_type_id":"4","last_reported":1679170017,"current_range_meters":8400,"station_id":"ce4bhqh2rcd13ifvqhmg","pricing_plan_id":"free"},{"bike_id":"2abcf298-3819-478b-95ea-54cc72544c00","system_id":"levelo_inurba_marseille","lat":43.336148,"lon":5.410349,"is_reserved":false,"is_disabled":false,"rental_uris":{"android":"levelo://app?vid=2abcf298-3819-478b-95ea-54cc72544c00","ios":"levelo://app?vid=2abcf298-3819-478b-95ea-54cc72544c00"},"vehicle_type_id":"4","last_reported":1679170017,"current_range_meters":5600,"station_id":"ce4bhqh2rcd13ifvqhmg","pricing_plan_id":"free"},{"bike_id":"dd6380c6-ab6e-48e5-b16c-edae89ef1a63","system_id":"levelo_inurba_marseille","lat":43.279997,"lon":5.399637,"is_reserved":false,"is_disabled":false,"rental_uris":{"android":"levelo://app?vid=dd6380c6-ab6e-48e5-b16c-edae89ef1a63","ios":"levelo://app?vid=dd6380c6-ab6e-48e5-b16c-edae89ef1a63"},"vehicle_type_id":"4","last_reported":1679170017,"current_range_meters":0,"station_id":"","pricing_plan_id":"free"},{"bike_id":"a5a27ce0-932f-4690-ada0-baef235932fa","system_id":"levelo_inurba_marseille","lat":43.295523,"lon":5.422926,"is_reserved":false,"is_disabled":false,"rental_uris":{"android":"levelo://app?vid=a5a27ce0-932f-4690-ada0-baef235932fa","ios":"levelo://app?vid=a5a27ce0-932f-4690-ada0-baef235932fa"},"vehicle_type_id":"4","last_reported":1679170017,"current_range_meters":5200,"station_id":"ce4bhph2rcd13ifvqhdg","pricing_plan_id":"free"},{"bike_id":"aff614cd-8d57-4790-a5d5-10e2ac65b335","system_id":"levelo_inurba_marseille","lat":43.295523,"lon":5.422926,"is_reserved":false,"is_disabled":false,"rental_uris":{"android":"levelo://app?vid=aff614cd-8d57-4790-a5d5-10e2ac65b335","ios":"levelo://app?vid=aff614cd-8d57-4790-a5d5-10e2ac65b335"},"vehicle_type_id":"4","last_reported":1679170017,"current_range_meters":8800,"station_id":"ce4bhph2rcd13ifvqhdg","pricing_plan_id":"free"},{"bike_id":"500ba279-d765-4469-a69f-fc786362a5b0","system_id":"levelo_inurba_marseille","lat":43.29551,"lon":5.42285,"is_reserved":false,"is_disabled":false,"rental_uris":{"android":"levelo://app?vid=500ba279-d765-4469-a69f-fc786362a5b0","ios":"levelo://app?vid=500ba279-d765-4469-a69f-fc786362a5b0"},"vehicle_type_id":"4","last_reported":1679170017,"current_range_meters":18000,"station_id":"ce4bhph2rcd13ifvqhdg","pricing_plan_id":"free"},{"bike_id":"c92b96a9-3c4c-4b3d-8f44-100209e9eec4","system_id":"levelo_inurba_marseille","lat":43.27205,"lon":5.39189,"is_reserved":false,"is_disabled":false,"rental_uris":{"android":"levelo://app?vid=c92b96a9-3c4c-4b3d-8f44-100209e9eec4","ios":"levelo://app?vid=c92b96a9-3c4c-4b3d-8f44-100209e9eec4"},"vehicle_type_id":"4","last_reported":1679170017,"current_range_meters":17600,"station_id":"ce4bhhp2rcd13ifvqfm0","pricing_plan_id":"free"},{"bike_id":"42bc8889-385f-4284-8b5c-e0646507f0b0","system_id":"levelo_inurba_marseille","lat":43.27806,"lon":5.40706,"is_reserved":false,"is_disabled":false,"rental_uris":{"android":"levelo://app?vid=42bc8889-385f-4284-8b5c-e0646507f0b0","ios":"levelo://app?vid=42bc8889-385f-4284-8b5c-e0646507f0b0"},"vehicle_type_id":"4","last_reported":1679170017,"current_range_meters":24800,"station_id":"","pricing_plan_id":"free"},{"bike_id":"324770e5-a6fa-4eb1-85e6-888ff29045ea","system_id":"levelo_inurba_marseille","lat":43.278053,"lon":5.407159,"is_reserved":false,"is_disabled":false,"rental_uris":{"android":"levelo://app?vid=324770e5-a6fa-4eb1-85e6-888ff29045ea","ios":"levelo://app?vid=324770e5-a6fa-4eb1-85e6-888ff29045ea"},"vehicle_type_id":"4","last_reported":1679170017,"current_range_meters":10800,"station_id":"ce4bhnh2rcd13ifvqgtg","pricing_plan_id":"free"},{"bike_id":"54a15210-214e-44bb-9e1e-c467b9d15bcf","system_id":"levelo_inurba_marseille","lat":43.265714,"lon":5.372891,"is_reserved":false,"is_disabled":false,"rental_uris":{"android":"levelo://app?vid=54a15210-214e-44bb-9e1e-c467b9d15bcf","ios":"levelo://app?vid=54a15210-214e-44bb-9e1e-c467b9d15bcf"},"vehicle_type_id":"4","last_reported":1679170017,"current_range_meters":5200,"station_id":"ce4bhg12rcd13ifvqf70","pricing_plan_id":"free"},{"bike_id":"e64489c4-592d-410b-ab06-d7f4db460c24","system_id":"levelo_inurba_marseille","lat":43.308051,"lon":5.43527,"is_reserved":false,"is_disabled":false,"rental_uris":{"android":"levelo://app?vid=e64489c4-592d-410b-ab06-d7f4db460c24","ios":"levelo://app?vid=e64489c4-592d-410b-ab06-d7f4db460c24"},"vehicle_type_id":"4","last_reported":1679170017,"current_range_meters":6000,"station_id":"ce4bhph2rcd13ifvqheg","pricing_plan_id":"free"},{"bike_id":"7c3e4dc0-a7e8-4178-b3c7-70ceb02652cc","system_id":"levelo_inurba_marseille","lat":43.308051,"lon":5.43527,"is_reserved":false,"is_disabled":false,"rental_uris":{"android":"levelo://app?vid=7c3e4dc0-a7e8-4178-b3c7-70ceb02652cc","ios":"levelo://app?vid=7c3e4dc0-a7e8-4178-b3c7-70ceb02652cc"},"vehicle_type_id":"4","last_reported":1679170017,"current_range_meters":10400,"station_id":"ce4bhph2rcd13ifvqheg","pricing_plan_id":"free"},{"bike_id":"e9f32fce-dc4a-4aea-b3c9-8b4727023e15","system_id":"levelo_inurba_marseille","lat":43.261782,"lon":5.374515,"is_reserved":false,"is_disabled":false,"rental_uris":{"android":"levelo://app?vid=e9f32fce-dc4a-4aea-b3c9-8b4727023e15","ios":"levelo://app?vid=e9f32fce-dc4a-4aea-b3c9-8b4727023e15"},"vehicle_type_id":"4","last_reported":1679170017,"current_range_meters":9200,"station_id":"ce4bhgp2rcd13ifvqfc0","pricing_plan_id":"free"},{"bike_id":"3eb975c7-4d78-4f07-a9ce-b9581e81754b","system_id":"levelo_inurba_marseille","lat":43.317165,"lon":5.43702,"is_reserved":false,"is_disabled":false,"rental_uris":{"android":"levelo://app?vid=3eb975c7-4d78-4f07-a9ce-b9581e81754b","ios":"levelo://app?vid=3eb975c7-4d78-4f07-a9ce-b9581e81754b"},"vehicle_type_id":"4","last_reported":1679170017,"current_range_meters":0,"station_id":"ce4bhp92rcd13ifvqhcg","pricing_plan_id":"free"},{"bike_id":"1ed7c305-7795-457d-a8ba-d86a287a4abc","system_id":"levelo_inurba_marseille","lat":43.267959,"lon":5.402687,"is_reserved":false,"is_disabled":false,"rental_uris":{"android":"levelo://app?vid=1ed7c305-7795-457d-a8ba-d86a287a4abc","ios":"levelo://app?vid=1ed7c305-7795-457d-a8ba-d86a287a4abc"},"vehicle_type_id":"4","last_reported":1679170017,"current_range_meters":10800,"station_id":"ce501612rcd8frsf0b60","pricing_plan_id":"free"},{"bike_id":"71d2d723-94e8-4a8d-91be-2d1ba73aee4c","system_id":"levelo_inurba_marseille","lat":43.267959,"lon":5.402687,"is_reserved":false,"is_disabled":false,"rental_uris":{"android":"levelo://app?vid=71d2d723-94e8-4a8d-91be-2d1ba73aee4c","ios":"levelo://app?vid=71d2d723-94e8-4a8d-91be-2d1ba73aee4c"},"vehicle_type_id":"4","last_reported":1679170017,"current_range_meters":6800,"station_id":"ce501612rcd8frsf0b60","pricing_plan_id":"free"},{"bike_id":"24b6a015-0c45-4136-83c1-b447c5d3208e","system_id":"levelo_inurba_marseille","lat":43.268,"lon":5.40262,"is_reserved":false,"is_disabled":false,"rental_uris":{"android":"levelo://app?vid=24b6a015-0c45-4136-83c1-b447c5d3208e","ios":"levelo://app?vid=24b6a015-0c45-4136-83c1-b447c5d3208e"},"vehicle_type_id":"4","last_reported":1679170017,"current_range_meters":18400,"station_id":"ce501612rcd8frsf0b60","pricing_plan_id":"free"},{"bike_id":"04265f94-89c3-4f95-bc25-a9eb74bfc86e","system_id":"levelo_inurba_marseille","lat":43.260225,"lon":5.375455,"is_reserved":false,"is_disabled":false,"rental_uris":{"android":"levelo://app?vid=04265f94-89c3-4f95-bc25-a9eb74bfc86e","ios":"levelo://app?vid=04265f94-89c3-4f95-bc25-a9eb74bfc86e"},"vehicle_type_id":"4","last_reported":1679170017,"current_range_meters":31600,"station_id":"ce4bhgh2rcd13ifvqfa0","pricing_plan_id":"free"},{"bike_id":"18c82cc5-e7d1-4455-b842-979bde8c1e6d","system_id":"levelo_inurba_marseille","lat":43.260225,"lon":5.375455,"is_reserved":false,"is_disabled":false,"rental_uris":{"android":"levelo://app?vid=18c82cc5-e7d1-4455-b842-979bde8c1e6d","ios":"levelo://app?vid=18c82cc5-e7d1-4455-b842-979bde8c1e6d"},"vehicle_type_id":"4","last_reported":1679170017,"current_range_meters":4800,"station_id":"ce4bhgh2rcd13ifvqfa0","pricing_plan_id":"free"},{"bike_id":"25ec3d9d-6d28-4126-a902-0dfb2151e7f7","system_id":"levelo_inurba_marseille","lat":43.26069,"lon":5.39395,"is_reserved":false,"is_disabled":false,"rental_uris":{"android":"levelo://app?vid=25ec3d9d-6d28-4126-a902-0dfb2151e7f7","ios":"levelo://app?vid=25ec3d9d-6d28-4126-a902-0dfb2151e7f7"},"vehicle_type_id":"4","last_reported":1679170017,"current_range_meters":28800,"station_id":"ce4bhh92rcd13ifvqfj0","pricing_plan_id":"free"},{"bike_id":"ab921685-20b8-48ea-8984-cb1c39827790","system_id":"levelo_inurba_marseille","lat":43.25577,"lon":5.38234,"is_reserved":false,"is_disabled":false,"rental_uris":{"android":"levelo://app?vid=ab921685-20b8-48ea-8984-cb1c39827790","ios":"levelo://app?vid=ab921685-20b8-48ea-8984-cb1c39827790"},"vehicle_type_id":"4","last_reported":1679170017,"current_range_meters":30400,"station_id":"ce4bhih2rcd13ifvqfs0","pricing_plan_id":"free"},{"bike_id":"d4df9c00-473d-4e7a-a56b-4450a9ad0489","system_id":"levelo_inurba_marseille","lat":43.258658,"lon":5.398935,"is_reserved":false,"is_disabled":false,"rental_uris":{"android":"levelo://app?vid=d4df9c00-473d-4e7a-a56b-4450a9ad0489","ios":"levelo://app?vid=d4df9c00-473d-4e7a-a56b-4450a9ad0489"},"vehicle_type_id":"4","last_reported":1679170017,"current_range_meters":8800,"station_id":"ce4bhl92rcd13ifvqghg","pricing_plan_id":"free"},{"bike_id":"0aa74b03-81fb-494e-b5d5-ec354cc7a585","system_id":"levelo_inurba_marseille","lat":43.262798,"lon":5.411884,"is_reserved":false,"is_disabled":false,"rental_uris":{"android":"levelo://app?vid=0aa74b03-81fb-494e-b5d5-ec354cc7a585","ios":"levelo://app?vid=0aa74b03-81fb-494e-b5d5-ec354cc7a585"},"vehicle_type_id":"4","last_reported":1679170017,"current_range_meters":0,"station_id":"","pricing_plan_id":"free"},{"bike_id":"8488dfb3-38fe-4038-9447-396864cc0b50","system_id":"levelo_inurba_marseille","lat":43.250023,"lon":5.38919,"is_reserved":false,"is_disabled":false,"rental_uris":{"android":"levelo://app?vid=8488dfb3-38fe-4038-9447-396864cc0b50","ios":"levelo://app?vid=8488dfb3-38fe-4038-9447-396864cc0b50"},"vehicle_type_id":"4","last_reported":1679170017,"current_range_meters":21200,"station_id":"ce4bhgp2rcd13ifvqfd0","pricing_plan_id":"free"},{"bike_id":"112b4819-5cc8-4eb5-a50a-f3f434a7d4ca","system_id":"levelo_inurba_marseille","lat":43.250023,"lon":5.38919,"is_reserved":false,"is_disabled":false,"rental_uris":{"android":"levelo://app?vid=112b4819-5cc8-4eb5-a50a-f3f434a7d4ca","ios":"levelo://app?vid=112b4819-5cc8-4eb5-a50a-f3f434a7d4ca"},"vehicle_type_id":"4","last_reported":1679170017,"current_range_meters":24400,"station_id":"ce4bhgp2rcd13ifvqfd0","pricing_plan_id":"free"},{"bike_id":"4a8dd6ba-3975-4639-930c-df9391fcfb97","system_id":"levelo_inurba_marseille","lat":43.250009,"lon":5.389195,"is_reserved":false,"is_disabled":false,"rental_uris":{"android":"levelo://app?vid=4a8dd6ba-3975-4639-930c-df9391fcfb97","ios":"levelo://app?vid=4a8dd6ba-3975-4639-930c-df9391fcfb97"},"vehicle_type_id":"4","last_reported":1679170017,"current_range_meters":23600,"station_id":"ce4bhgp2rcd13ifvqfd0","pricing_plan_id":"free"},{"bike_id":"b65f7eee-6c4a-4dee-a293-d5f64d92a082","system_id":"levelo_inurba_marseille","lat":43.2479,"lon":5.374457,"is_reserved":false,"is_disabled":false,"rental_uris":{"android":"levelo://app?vid=b65f7eee-6c4a-4dee-a293-d5f64d92a082","ios":"levelo://app?vid=b65f7eee-6c4a-4dee-a293-d5f64d92a082"},"vehicle_type_id":"4","last_reported":1679170017,"current_range_meters":2800,"station_id":"ce4bhgh2rcd13ifvqfb0","pricing_plan_id":"free"},{"bike_id":"5dc3ded0-6ff0-49ef-aed0-3f25793366a1","system_id":"levelo_inurba_marseille","lat":43.2479,"lon":5.374457,"is_reserved":false,"is_disabled":false,"rental_uris":{"android":"levelo://app?vid=5dc3ded0-6ff0-49ef-aed0-3f25793366a1","ios":"levelo://app?vid=5dc3ded0-6ff0-49ef-aed0-3f25793366a1"},"vehicle_type_id":"4","last_reported":1679170017,"current_range_meters":0,"station_id":"ce4bhgh2rcd13ifvqfb0","pricing_plan_id":"free"},{"bike_id":"32e6c169-7092-4e4c-b9fa-1a11dd06621c","system_id":"levelo_inurba_marseille","lat":43.250966,"lon":5.395186,"is_reserved":false,"is_disabled":false,"rental_uris":{"android":"levelo://app?vid=32e6c169-7092-4e4c-b9fa-1a11dd06621c","ios":"levelo://app?vid=32e6c169-7092-4e4c-b9fa-1a11dd06621c"},"vehicle_type_id":"4","last_reported":1679170017,"current_range_meters":29200,"station_id":"ce4bhm12rcd13ifvqgkg","pricing_plan_id":"free"},{"bike_id":"bbd94a6a-cb4a-4694-9147-c18d029fac4d","system_id":"levelo_inurba_marseille","lat":43.24693,"lon":5.382096,"is_reserved":false,"is_disabled":false,"rental_uris":{"android":"levelo://app?vid=bbd94a6a-cb4a-4694-9147-c18d029fac4d","ios":"levelo://app?vid=bbd94a6a-cb4a-4694-9147-c18d029fac4d"},"vehicle_type_id":"4","last_reported":1679170017,"current_range_meters":21200,"station_id":"ce4bhih2rcd13ifvqfr0","pricing_plan_id":"free"},{"bike_id":"cb880012-c3cb-4c51-a580-f7c1d13a54ff","system_id":"levelo_inurba_marseille","lat":43.24662,"lon":5.38159,"is_reserved":false,"is_disabled":false,"rental_uris":{"android":"levelo://app?vid=cb880012-c3cb-4c51-a580-f7c1d13a54ff","ios":"levelo://app?vid=cb880012-c3cb-4c51-a580-f7c1d13a54ff"},"vehicle_type_id":"4","last_reported":1679170017,"current_range_meters":0,"station_id":"","pricing_plan_id":"free"},{"bike_id":"79b7313b-62ba-4cf6-adb7-f60f82d47ac5","system_id":"levelo_inurba_marseille","lat":43.25102,"lon":5.403214,"is_reserved":false,"is_disabled":false,"rental_uris":{"android":"levelo://app?vid=79b7313b-62ba-4cf6-adb7-f60f82d47ac5","ios":"levelo://app?vid=79b7313b-62ba-4cf6-adb7-f60f82d47ac5"},"vehicle_type_id":"4","last_reported":1679170017,"current_range_meters":4800,"station_id":"ce4bhlh2rcd13ifvqgig","pricing_plan_id":"free"},{"bike_id":"a7aa3cfd-0818-478f-aaac-3109f9877811","system_id":"levelo_inurba_marseille","lat":43.243884,"lon":5.370736,"is_reserved":false,"is_disabled":false,"rental_uris":{"android":"levelo://app?vid=a7aa3cfd-0818-478f-aaac-3109f9877811","ios":"levelo://app?vid=a7aa3cfd-0818-478f-aaac-3109f9877811"},"vehicle_type_id":"4","last_reported":1679170017,"current_range_meters":10800,"station_id":"ce4bhhh2rcd13ifvqfk0","pricing_plan_id":"free"},{"bike_id":"088a25f1-4e71-4e12-b29e-c5b32ef46c65","system_id":"levelo_inurba_marseille","lat":43.245581,"lon":5.395069,"is_reserved":false,"is_disabled":false,"rental_uris":{"android":"levelo://app?vid=088a25f1-4e71-4e12-b29e-c5b32ef46c65","ios":"levelo://app?vid=088a25f1-4e71-4e12-b29e-c5b32ef46c65"},"vehicle_type_id":"4","last_reported":1679170017,"current_range_meters":3600,"station_id":"ce4bhlp2rcd13ifvqgjg","pricing_plan_id":"free"},{"bike_id":"65793428-686c-465a-8af9-b269f78f7602","system_id":"levelo_inurba_marseille","lat":43.240623,"lon":5.377642,"is_reserved":false,"is_disabled":false,"rental_uris":{"android":"levelo://app?vid=65793428-686c-465a-8af9-b269f78f7602","ios":"levelo://app?vid=65793428-686c-465a-8af9-b269f78f7602"},"vehicle_type_id":"4","last_reported":1679170017,"current_range_meters":10400,"station_id":"ce4bhnp2rcd13ifvqgvg","pricing_plan_id":"free"},{"bike_id":"b9eb7df5-4549-486d-acf3-adcd910c731d","system_id":"levelo_inurba_marseille","lat":43.2397,"lon":5.36627,"is_reserved":false,"is_disabled":false,"rental_uris":{"android":"levelo://app?vid=b9eb7df5-4549-486d-acf3-adcd910c731d","ios":"levelo://app?vid=b9eb7df5-4549-486d-acf3-adcd910c731d"},"vehicle_type_id":"4","last_reported":1679170017,"current_range_meters":7200,"station_id":"","pricing_plan_id":"free"},{"bike_id":"91895e72-70c3-4fff-8de2-9c7d84433031","system_id":"levelo_inurba_marseille","lat":43.23967,"lon":5.36634,"is_reserved":false,"is_disabled":false,"rental_uris":{"android":"levelo://app?vid=91895e72-70c3-4fff-8de2-9c7d84433031","ios":"levelo://app?vid=91895e72-70c3-4fff-8de2-9c7d84433031"},"vehicle_type_id":"4","last_reported":1679170017,"current_range_meters":14400,"station_id":"ce4bhi12rcd13ifvqfp0","pricing_plan_id":"free"},{"bike_id":"28b4964f-60c9-402d-9fe9-b71fae3541da","system_id":"levelo_inurba_marseille","lat":43.241782,"lon":5.397264,"is_reserved":false,"is_disabled":false,"rental_uris":{"android":"levelo://app?vid=28b4964f-60c9-402d-9fe9-b71fae3541da","ios":"levelo://app?vid=28b4964f-60c9-402d-9fe9-b71fae3541da"},"vehicle_type_id":"4","last_reported":1679170017,"current_range_meters":800,"station_id":"ce4bhn12rcd13ifvqgpg","pricing_plan_id":"free"},{"bike_id":"beaf722f-8cce-48cc-9f08-62b9af3ed634","system_id":"levelo_inurba_marseille","lat":43.23199,"lon":5.35554,"is_reserved":false,"is_disabled":false,"rental_uris":{"android":"levelo://app?vid=beaf722f-8cce-48cc-9f08-62b9af3ed634","ios":"levelo://app?vid=beaf722f-8cce-48cc-9f08-62b9af3ed634"},"vehicle_type_id":"4","last_reported":1679170017,"current_range_meters":24800,"station_id":"","pricing_plan_id":"free"},{"bike_id":"ff98316f-748f-4069-a942-b27635abd352","system_id":"levelo_inurba_marseille","lat":43.231923,"lon":5.355545,"is_reserved":false,"is_disabled":false,"rental_uris":{"android":"levelo://app?vid=ff98316f-748f-4069-a942-b27635abd352","ios":"levelo://app?vid=ff98316f-748f-4069-a942-b27635abd352"},"vehicle_type_id":"4","last_reported":1679170017,"current_range_meters":31600,"station_id":"ce4bhu92rcd13ifvqi70","pricing_plan_id":"free"},{"bike_id":"0510984e-f649-44d1-8242-9d987e2a499a","system_id":"levelo_inurba_marseille","lat":43.23198,"lon":5.35553,"is_reserved":false,"is_disabled":false,"rental_uris":{"android":"levelo://app?vid=0510984e-f649-44d1-8242-9d987e2a499a","ios":"levelo://app?vid=0510984e-f649-44d1-8242-9d987e2a499a"},"vehicle_type_id":"4","last_reported":1679170017,"current_range_meters":25600,"station_id":"ce4bhu92rcd13ifvqi70","pricing_plan_id":"free"},{"bike_id":"0010ebe6-0da4-49c8-96ff-1cfa6d1925a0","system_id":"levelo_inurba_marseille","lat":43.231964,"lon":5.355547,"is_reserved":false,"is_disabled":false,"rental_uris":{"android":"levelo://app?vid=0010ebe6-0da4-49c8-96ff-1cfa6d1925a0","ios":"levelo://app?vid=0010ebe6-0da4-49c8-96ff-1cfa6d1925a0"},"vehicle_type_id":"4","last_reported":1679170017,"current_range_meters":26800,"station_id":"ce4bhu92rcd13ifvqi70","pricing_plan_id":"free"},{"bike_id":"2f1e89bb-26de-4f28-9f9c-8145daa23f89","system_id":"levelo_inurba_marseille","lat":43.231942,"lon":5.35555,"is_reserved":false,"is_disabled":false,"rental_uris":{"android":"levelo://app?vid=2f1e89bb-26de-4f28-9f9c-8145daa23f89","ios":"levelo://app?vid=2f1e89bb-26de-4f28-9f9c-8145daa23f89"},"vehicle_type_id":"4","last_reported":1679170017,"current_range_meters":31600,"station_id":"","pricing_plan_id":"free"},{"bike_id":"b71d4bb3-9dd8-4f9d-8402-e3595c6b6b91","system_id":"levelo_inurba_marseille","lat":43.23194,"lon":5.35554,"is_reserved":false,"is_disabled":false,"rental_uris":{"android":"levelo://app?vid=b71d4bb3-9dd8-4f9d-8402-e3595c6b6b91","ios":"levelo://app?vid=b71d4bb3-9dd8-4f9d-8402-e3595c6b6b91"},"vehicle_type_id":"4","last_reported":1679170017,"current_range_meters":25600,"station_id":"","pricing_plan_id":"free"},{"bike_id":"b9f6f4f0-f36b-4f70-8715-1fede5862196","system_id":"levelo_inurba_marseille","lat":43.23193,"lon":5.35553,"is_reserved":false,"is_disabled":false,"rental_uris":{"android":"levelo://app?vid=b9f6f4f0-f36b-4f70-8715-1fede5862196","ios":"levelo://app?vid=b9f6f4f0-f36b-4f70-8715-1fede5862196"},"vehicle_type_id":"4","last_reported":1679170017,"current_range_meters":30000,"station_id":"ce4bhu92rcd13ifvqi70","pricing_plan_id":"free"},{"bike_id":"956fe110-a343-4414-91a1-6e3d50bfa094","system_id":"levelo_inurba_marseille","lat":43.231923,"lon":5.355545,"is_reserved":false,"is_disabled":false,"rental_uris":{"android":"levelo://app?vid=956fe110-a343-4414-91a1-6e3d50bfa094","ios":"levelo://app?vid=956fe110-a343-4414-91a1-6e3d50bfa094"},"vehicle_type_id":"4","last_reported":1679170017,"current_range_meters":31600,"station_id":"ce4bhu92rcd13ifvqi70","pricing_plan_id":"free"},{"bike_id":"c4a765e8-1981-4501-b559-fd423b924ef4","system_id":"levelo_inurba_marseille","lat":43.231923,"lon":5.355545,"is_reserved":false,"is_disabled":false,"rental_uris":{"android":"levelo://app?vid=c4a765e8-1981-4501-b559-fd423b924ef4","ios":"levelo://app?vid=c4a765e8-1981-4501-b559-fd423b924ef4"},"vehicle_type_id":"4","last_reported":1679170017,"current_range_meters":27200,"station_id":"ce4bhu92rcd13ifvqi70","pricing_plan_id":"free"},{"bike_id":"9396a642-8421-4ca9-b20d-a2492104caf9","system_id":"levelo_inurba_marseille","lat":43.23192,"lon":5.35556,"is_reserved":false,"is_disabled":false,"rental_uris":{"android":"levelo://app?vid=9396a642-8421-4ca9-b20d-a2492104caf9","ios":"levelo://app?vid=9396a642-8421-4ca9-b20d-a2492104caf9"},"vehicle_type_id":"4","last_reported":1679170017,"current_range_meters":31200,"station_id":"","pricing_plan_id":"free"},{"bike_id":"8057768e-761b-41d6-916d-02a9ceb83bc6","system_id":"levelo_inurba_marseille","lat":43.23192,"lon":5.355546,"is_reserved":false,"is_disabled":false,"rental_uris":{"android":"levelo://app?vid=8057768e-761b-41d6-916d-02a9ceb83bc6","ios":"levelo://app?vid=8057768e-761b-41d6-916d-02a9ceb83bc6"},"vehicle_type_id":"4","last_reported":1679170017,"current_range_meters":28400,"station_id":"ce4bhu92rcd13ifvqi70","pricing_plan_id":"free"},{"bike_id":"e8fea5b7-48a9-48c9-b449-fe6211bd9de6","system_id":"levelo_inurba_marseille","lat":43.231923,"lon":5.355545,"is_reserved":false,"is_disabled":false,"rental_uris":{"android":"levelo://app?vid=e8fea5b7-48a9-48c9-b449-fe6211bd9de6","ios":"levelo://app?vid=e8fea5b7-48a9-48c9-b449-fe6211bd9de6"},"vehicle_type_id":"4","last_reported":1679170017,"current_range_meters":26800,"station_id":"ce4bhu92rcd13ifvqi70","pricing_plan_id":"free"},{"bike_id":"aa784494-bcc8-4b38-921b-25d4252dc6ab","system_id":"levelo_inurba_marseille","lat":43.23191,"lon":5.35553,"is_reserved":false,"is_disabled":false,"rental_uris":{"android":"levelo://app?vid=aa784494-bcc8-4b38-921b-25d4252dc6ab","ios":"levelo://app?vid=aa784494-bcc8-4b38-921b-25d4252dc6ab"},"vehicle_type_id":"4","last_reported":1679170017,"current_range_meters":10000,"station_id":"ce4bhu92rcd13ifvqi70","pricing_plan_id":"free"}]}}