{"last_updated":1750137101,"ttl":60,"version":"2.2","data":{"bikes":[{"bike_id":"3da29fb8-fc97-44c6-b9ac-31dd456b2fd4","system_id":"levelo_inurba_marseille","lat":43.33771,"lon":5.37424,"is_reserved":false,"is_disabled":true,"rental_uris":{"android":"levelo://app?vid=3da29fb8-fc97-44c6-b9ac-31dd456b2fd4","ios":"levelo://app?vid=3da29fb8-fc97-44c6-b9ac-31dd456b2fd4"},"vehicle_type_id":"4","last_reported":1750137101,"current_range_meters":0,"station_id":"","pricing_plan_id":"cebpf4jnsgd1na2vs0mg"},{"bike_id":"01861ad8-a8d7-4be6-816e-651927c87584","system_id":"levelo_inurba_marseille","lat":43.33751,"lon":5.37456,"is_reserved":false,"is_disabled":true,"rental_uris":{"android":"levelo://app?vid=01861ad8-a8d7-4be6-816e-651927c87584","ios":"levelo://app?vid=01861ad8-a8d7-4be6-816e-651927c87584"},"vehicle_type_id":"4","last_reported":1750137101,"current_range_meters":0,"station_id":"","pricing_plan_id":"cebpf4jnsgd1na2vs0mg"},{"bike_id":"b81ba2bd-624d-43c3-b702-6c0cdad38ab2","system_id":"levelo_inurba_marseille","lat":43.31146,"lon":5.39319,"is_reserved":false,"is_disabled":true,"rental_uris":{"android":"levelo://app?vid=b81ba2bd-624d-43c3-b702-6c0cdad38ab2","ios":"levelo://app?vid=b81ba2bd-624d-43c3-b702-6c0cdad38ab2"},"vehicle_type_id":"4","last_reported":1750137101,"current_range_meters":0,"station_id":"","pricing_plan_id":"cebpf4jnsgd1na2vs0mg"},{"bike_id":"d2bd57c8-6b64-48db-ad24-5398eb3fd9d6","system_id":"levelo_inurba_marseille","lat":43.337444,"lon":5.374475,"is_reserved":false,"is_disabled":true,"rental_uris":{"android":"levelo://app?vid=d2bd57c8-6b64-48db-ad24-5398eb3fd9d6","ios":"levelo://app?vid=d2bd57c8-6b64-48db-ad24-5398eb3fd9d6"},"vehicle_type_id":"4","last_reported":1750137101,"current_range_meters":0,"station_id":"","pricing_plan_id":"cebpf4jnsgd1na2vs0mg"},{"bike_id":"62a493c7-4534-4419-ad43-0582de34a72a","system_id":"levelo_inurba_marseille","lat":43.21366,"lon":5.355183,"is_reserved":false,"is_disabled":true,"rental_uris":{"android":"levelo://app?vid=62a493c7-4534-4419-ad43-0582de34a72a","ios":"levelo://app?vid=62a493c7-4534-4419-ad43-0582de34a72a"},"vehicle_type_id":"4","last_reported":1750137101,"current_range_meters":0,"station_id":"","pricing_plan_id":"cebpf4jnsgd1na2vs0mg"},{"bike_id":"93af304b-67b5-47b8-a3fd-e0775f7cde8c","system_id":"levelo_inurba_marseille","lat":43.21538,"lon":5.3474,"is_reserved":false,"is_disabled":true,"rental_uris":{"android":"levelo://app?vid=93af304b-67b5-47b8-a3fd-e0775f7cde8c","ios":"levelo://app?vid=93af304b-67b5-47b8-a3fd-e0775f7cde8c"},"vehicle_type_id":"4","last_reported":1750137101,"current_range_meters":0,"station_id":"","pricing_plan_id":"cebpf4jnsgd1na2vs0mg"},{"bike_id":"d6609b4f-333b-43c1-9ebe-8726f5e76e88","system_id":"levelo_inurba_marseille","lat":43.337444,"lon":5.374475,"is_reserved":false,"is_disabled":true,"rental_uris":{"android":"levelo://app?vid=d6609b4f-333b-43c1-9ebe-8726f5e76e88","ios":"levelo://app?vid=d6609b4f-333b-43c1-9ebe-8726f5e76e88"},"vehicle_type_id":"4","last_reported":1750137101,"current_range_meters":0,"station_id":"","pricing_plan_id":"cebpf4jnsgd1na2vs0mg"},{"bike_id":"dddd8c07-8ca3-467c-b3b1-7dc2980251ca","system_id":"levelo_inurba_marseille","lat":43.25105,"lon":5.40328,"is_reserved":false,"is_disabled":true,"rental_uris":{"android":"levelo://app?vid=dddd8c07-8ca3-467c-b3b1-7dc2980251ca","ios":"levelo://app?vid=dddd8c07-8ca3-467c-b3b1-7dc2980251ca"},"vehicle_type_id":"4","last_reported":1750137101,"current_range_meters":0,"station_id":"ce4bhlh2rcd13ifvqgig","pricing_plan_id":"cebpf4jnsgd1na2vs0mg"},{"bike_id":"1827d622-e20d-4be6-99ac-0d1e0724dbb6","system_id":"levelo_inurba_marseille","lat":43.337444,"lon":5.374475,"is_reserved":false,"is_disabled":true,"rental_uris":{"android":"levelo://app?vid=1827d622-e20d-4be6-99ac-0d1e0724dbb6","ios":"levelo://app?vid=1827d622-e20d-4be6-99ac-0d1e0724dbb6"},"vehicle_type_id":"4","last_reported":1750137101,"current_range_meters":1200,"station_id":"","pricing_plan_id":"cebpf4jnsgd1na2vs0mg"},{"bike_id":"7b91309e-4786-4497-b369-e31f74c69a23","system_id":"levelo_inurba_marseille","lat":43.30878,"lon":5.39653,"is_reserved":false,"is_disabled":true,"rental_uris":{"android":"levelo://app?vid=7b91309e-4786-4497-b369-e31f74c69a23","ios":"levelo://app?vid=7b91309e-4786-4497-b369-e31f74c69a23"},"vehicle_type_id":"4","last_reported":1750137101,"current_range_meters":1200,"station_id":"ce4bh012rcd13ifvqcv0","pricing_plan_id":"cebpf4jnsgd1na2vs0mg"},{"bike_id":"dfb17319-1fc6-41c7-a5cf-8f1bb3307400","system_id":"levelo_inurba_marseille","lat":43.2926,"lon":5.40896,"is_reserved":false,"is_disabled":true,"rental_uris":{"android":"levelo://app?vid=dfb17319-1fc6-41c7-a5cf-8f1bb3307400","ios":"levelo://app?vid=dfb17319-1fc6-41c7-a5cf-8f1bb3307400"},"vehicle_type_id":"4","last_reported":1750137101,"current_range_meters":1200,"station_id":"ce4bh192rcd13ifvqdc0","pricing_plan_id":"cebpf4jnsgd1na2vs0mg"},{"bike_id":"db16bf96-25d9-4ac3-919f-a5052f86098e","system_id":"levelo_inurba_marseille","lat":43.32108,"lon":5.36767,"is_reserved":false,"is_disabled":true,"rental_uris":{"android":"levelo://app?vid=db16bf96-25d9-4ac3-919f-a5052f86098e","ios":"levelo://app?vid=db16bf96-25d9-4ac3-919f-a5052f86098e"},"vehicle_type_id":"4","last_reported":1750137101,"current_range_meters":1200,"station_id":"ce4bhrh2rcd13ifvqhug","pricing_plan_id":"cebpf4jnsgd1na2vs0mg"},{"bike_id":"04276415-42b1-4736-aa9f-2d33227b99de","system_id":"levelo_inurba_marseille","lat":43.30927,"lon":5.40133,"is_reserved":false,"is_disabled":true,"rental_uris":{"android":"levelo://app?vid=04276415-42b1-4736-aa9f-2d33227b99de","ios":"levelo://app?vid=04276415-42b1-4736-aa9f-2d33227b99de"},"vehicle_type_id":"4","last_reported":1750137101,"current_range_meters":1600,"station_id":"ce4bgvp2rcd13ifvqct0","pricing_plan_id":"cebpf4jnsgd1na2vs0mg"},{"bike_id":"1bdeab2b-8a5c-4d0a-a74c-8ffa3e6ce050","system_id":"levelo_inurba_marseille","lat":43.30726,"lon":5.4245,"is_reserved":false,"is_disabled":true,"rental_uris":{"android":"levelo://app?vid=1bdeab2b-8a5c-4d0a-a74c-8ffa3e6ce050","ios":"levelo://app?vid=1bdeab2b-8a5c-4d0a-a74c-8ffa3e6ce050"},"vehicle_type_id":"4","last_reported":1750137101,"current_range_meters":2000,"station_id":"st_cvj6ca6bvosntc0bfgr0","pricing_plan_id":"cebpf4jnsgd1na2vs0mg"},{"bike_id":"dbfce7a3-3423-4296-b193-a177dea644ac","system_id":"levelo_inurba_marseille","lat":43.272889,"lon":5.416295,"is_reserved":false,"is_disabled":false,"rental_uris":{"android":"levelo://app?vid=dbfce7a3-3423-4296-b193-a177dea644ac","ios":"levelo://app?vid=dbfce7a3-3423-4296-b193-a177dea644ac"},"vehicle_type_id":"4","last_reported":1750137101,"current_range_meters":2800,"station_id":"","pricing_plan_id":"cebpf4jnsgd1na2vs0mg"},{"bike_id":"f1f710f9-9932-4d6a-b758-2d58f1a6219a","system_id":"levelo_inurba_marseille","lat":43.28727,"lon":5.37943,"is_reserved":false,"is_disabled":false,"rental_uris":{"android":"levelo://app?vid=f1f710f9-9932-4d6a-b758-2d58f1a6219a","ios":"levelo://app?vid=f1f710f9-9932-4d6a-b758-2d58f1a6219a"},"vehicle_type_id":"4","last_reported":1750137101,"current_range_meters":2800,"station_id":"ce4bh9p2rcd13ifvqec0","pricing_plan_id":"cebpf4jnsgd1na2vs0mg"},{"bike_id":"e28878b7-eadd-4018-81a0-491b9d158dcc","system_id":"levelo_inurba_marseille","lat":43.27959,"lon":5.3872,"is_reserved":false,"is_disabled":false,"rental_uris":{"android":"levelo://app?vid=e28878b7-eadd-4018-81a0-491b9d158dcc","ios":"levelo://app?vid=e28878b7-eadd-4018-81a0-491b9d158dcc"},"vehicle_type_id":"4","last_reported":1750137101,"current_range_meters":2800,"station_id":"ce4bhg12rcd13ifvqf80","pricing_plan_id":"cebpf4jnsgd1na2vs0mg"},{"bike_id":"f16a5698-ddc2-4e59-97f5-5526424b5a60","system_id":"levelo_inurba_marseille","lat":43.21192,"lon":5.35107,"is_reserved":false,"is_disabled":false,"rental_uris":{"android":"levelo://app?vid=f16a5698-ddc2-4e59-97f5-5526424b5a60","ios":"levelo://app?vid=f16a5698-ddc2-4e59-97f5-5526424b5a60"},"vehicle_type_id":"4","last_reported":1750137101,"current_range_meters":2800,"station_id":"st_cvj6sg6p6f1abm77japg","pricing_plan_id":"cebpf4jnsgd1na2vs0mg"},{"bike_id":"c8d1b9c9-d48d-419c-9d8f-6dbe1e5d03e4","system_id":"levelo_inurba_marseille","lat":43.284396,"lon":5.391847,"is_reserved":false,"is_disabled":false,"rental_uris":{"android":"levelo://app?vid=c8d1b9c9-d48d-419c-9d8f-6dbe1e5d03e4","ios":"levelo://app?vid=c8d1b9c9-d48d-419c-9d8f-6dbe1e5d03e4"},"vehicle_type_id":"4","last_reported":1750137101,"current_range_meters":3600,"station_id":"ce4bhoh2rcd13ifvqh5g","pricing_plan_id":"cebpf4jnsgd1na2vs0mg"},{"bike_id":"b9e37238-9abe-4b8b-b932-edaee33a7e59","system_id":"levelo_inurba_marseille","lat":43.27472,"lon":5.39013,"is_reserved":false,"is_disabled":false,"rental_uris":{"android":"levelo://app?vid=b9e37238-9abe-4b8b-b932-edaee33a7e59","ios":"levelo://app?vid=b9e37238-9abe-4b8b-b932-edaee33a7e59"},"vehicle_type_id":"4","last_reported":1750137101,"current_range_meters":4000,"station_id":"","pricing_plan_id":"cebpf4jnsgd1na2vs0mg"},{"bike_id":"30d2478a-41bc-41df-805b-1ff1eef62078","system_id":"levelo_inurba_marseille","lat":43.325566,"lon":5.431081,"is_reserved":false,"is_disabled":false,"rental_uris":{"android":"levelo://app?vid=30d2478a-41bc-41df-805b-1ff1eef62078","ios":"levelo://app?vid=30d2478a-41bc-41df-805b-1ff1eef62078"},"vehicle_type_id":"4","last_reported":1750137101,"current_range_meters":4000,"station_id":"","pricing_plan_id":"cebpf4jnsgd1na2vs0mg"},{"bike_id":"cebc2cc3-117c-47bf-830f-51abfed1d6a6","system_id":"levelo_inurba_marseille","lat":43.295521,"lon":5.422764,"is_reserved":false,"is_disabled":false,"rental_uris":{"android":"levelo://app?vid=cebc2cc3-117c-47bf-830f-51abfed1d6a6","ios":"levelo://app?vid=cebc2cc3-117c-47bf-830f-51abfed1d6a6"},"vehicle_type_id":"4","last_reported":1750137101,"current_range_meters":4000,"station_id":"ce4bhph2rcd13ifvqhdg","pricing_plan_id":"cebpf4jnsgd1na2vs0mg"},{"bike_id":"650a0df7-5039-4f0e-b2cb-89836c693f5c","system_id":"levelo_inurba_marseille","lat":43.30158,"lon":5.37351,"is_reserved":false,"is_disabled":false,"rental_uris":{"android":"levelo://app?vid=650a0df7-5039-4f0e-b2cb-89836c693f5c","ios":"levelo://app?vid=650a0df7-5039-4f0e-b2cb-89836c693f5c"},"vehicle_type_id":"4","last_reported":1750137101,"current_range_meters":4400,"station_id":"","pricing_plan_id":"cebpf4jnsgd1na2vs0mg"},{"bike_id":"ce89d2de-f963-47d6-84a1-a57aa0d97fa0","system_id":"levelo_inurba_marseille","lat":43.266659,"lon":5.39573,"is_reserved":false,"is_disabled":false,"rental_uris":{"android":"levelo://app?vid=ce89d2de-f963-47d6-84a1-a57aa0d97fa0","ios":"levelo://app?vid=ce89d2de-f963-47d6-84a1-a57aa0d97fa0"},"vehicle_type_id":"4","last_reported":1750137101,"current_range_meters":4400,"station_id":"","pricing_plan_id":"cebpf4jnsgd1na2vs0mg"},{"bike_id":"ff5d8c8a-031c-410e-b614-d6bcbd187ba6","system_id":"levelo_inurba_marseille","lat":43.313541,"lon":5.385066,"is_reserved":false,"is_disabled":false,"rental_uris":{"android":"levelo://app?vid=ff5d8c8a-031c-410e-b614-d6bcbd187ba6","ios":"levelo://app?vid=ff5d8c8a-031c-410e-b614-d6bcbd187ba6"},"vehicle_type_id":"4","last_reported":1750137101,"current_range_meters":4400,"station_id":"ce4bgt92rcd13ifvqcf0","pricing_plan_id":"cebpf4jnsgd1na2vs0mg"},{"bike_id":"c52d24a2-ed40-43ee-bfdd-96d6f7b61d17","system_id":"levelo_inurba_marseille","lat":43.28416,"lon":5.37512,"is_reserved":false,"is_disabled":false,"rental_uris":{"android":"levelo://app?vid=c52d24a2-ed40-43ee-bfdd-96d6f7b61d17","ios":"levelo://app?vid=c52d24a2-ed40-43ee-bfdd-96d6f7b61d17"},"vehicle_type_id":"4","last_reported":1750137101,"current_range_meters":4800,"station_id":"ce4bh412rcd13ifvqds0","pricing_plan_id":"cebpf4jnsgd1na2vs0mg"},{"bike_id":"8d297b38-f666-4a46-9dee-0132f800019c","system_id":"levelo_inurba_marseille","lat":43.3221,"lon":5.38682,"is_reserved":false,"is_disabled":false,"rental_uris":{"android":"levelo://app?vid=8d297b38-f666-4a46-9dee-0132f800019c","ios":"levelo://app?vid=8d297b38-f666-4a46-9dee-0132f800019c"},"vehicle_type_id":"4","last_reported":1750137101,"current_range_meters":5600,"station_id":"","pricing_plan_id":"cebpf4jnsgd1na2vs0mg"},{"bike_id":"355d33db-d830-4abb-a2f9-34e06aea68bc","system_id":"levelo_inurba_marseille","lat":43.32246,"lon":5.38114,"is_reserved":false,"is_disabled":false,"rental_uris":{"android":"levelo://app?vid=355d33db-d830-4abb-a2f9-34e06aea68bc","ios":"levelo://app?vid=355d33db-d830-4abb-a2f9-34e06aea68bc"},"vehicle_type_id":"4","last_reported":1750137101,"current_range_meters":6000,"station_id":"","pricing_plan_id":"cebpf4jnsgd1na2vs0mg"},{"bike_id":"4b359fa2-9390-43e7-b30a-f385f4c7d06f","system_id":"levelo_inurba_marseille","lat":43.30149,"lon":5.38069,"is_reserved":false,"is_disabled":false,"rental_uris":{"android":"levelo://app?vid=4b359fa2-9390-43e7-b30a-f385f4c7d06f","ios":"levelo://app?vid=4b359fa2-9390-43e7-b30a-f385f4c7d06f"},"vehicle_type_id":"4","last_reported":1750137101,"current_range_meters":6400,"station_id":"ce4bgjp2rcd13ifvqbh0","pricing_plan_id":"cebpf4jnsgd1na2vs0mg"},{"bike_id":"0d53c7ef-3766-4c69-92f7-fa78cd70529f","system_id":"levelo_inurba_marseille","lat":43.314888,"lon":5.372941,"is_reserved":false,"is_disabled":false,"rental_uris":{"android":"levelo://app?vid=0d53c7ef-3766-4c69-92f7-fa78cd70529f","ios":"levelo://app?vid=0d53c7ef-3766-4c69-92f7-fa78cd70529f"},"vehicle_type_id":"4","last_reported":1750137101,"current_range_meters":6400,"station_id":"ce4bgt12rcd13ifvqcd0","pricing_plan_id":"cebpf4jnsgd1na2vs0mg"},{"bike_id":"1bc9f582-bb65-417d-990e-b90e6d3a3ec2","system_id":"levelo_inurba_marseille","lat":43.308401,"lon":5.375886,"is_reserved":false,"is_disabled":false,"rental_uris":{"android":"levelo://app?vid=1bc9f582-bb65-417d-990e-b90e6d3a3ec2","ios":"levelo://app?vid=1bc9f582-bb65-417d-990e-b90e6d3a3ec2"},"vehicle_type_id":"4","last_reported":1750137101,"current_range_meters":6800,"station_id":"","pricing_plan_id":"cebpf4jnsgd1na2vs0mg"},{"bike_id":"8c6e3f5c-fbd9-4abe-a7be-ece848b4fc54","system_id":"levelo_inurba_marseille","lat":43.32567,"lon":5.43067,"is_reserved":false,"is_disabled":false,"rental_uris":{"android":"levelo://app?vid=8c6e3f5c-fbd9-4abe-a7be-ece848b4fc54","ios":"levelo://app?vid=8c6e3f5c-fbd9-4abe-a7be-ece848b4fc54"},"vehicle_type_id":"4","last_reported":1750137101,"current_range_meters":6800,"station_id":"","pricing_plan_id":"cebpf4jnsgd1na2vs0mg"},{"bike_id":"35494ea5-8739-4b46-b695-7f4442efa98c","system_id":"levelo_inurba_marseille","lat":43.30464,"lon":5.37904,"is_reserved":false,"is_disabled":false,"rental_uris":{"android":"levelo://app?vid=35494ea5-8739-4b46-b695-7f4442efa98c","ios":"levelo://app?vid=35494ea5-8739-4b46-b695-7f4442efa98c"},"vehicle_type_id":"4","last_reported":1750137101,"current_range_meters":6800,"station_id":"ce4bgup2rcd13ifvqcn0","pricing_plan_id":"cebpf4jnsgd1na2vs0mg"},{"bike_id":"79eeb666-d8d8-469a-94d3-68222c812a1d","system_id":"levelo_inurba_marseille","lat":43.3179,"lon":5.37476,"is_reserved":false,"is_disabled":false,"rental_uris":{"android":"levelo://app?vid=79eeb666-d8d8-469a-94d3-68222c812a1d","ios":"levelo://app?vid=79eeb666-d8d8-469a-94d3-68222c812a1d"},"vehicle_type_id":"4","last_reported":1750137101,"current_range_meters":7200,"station_id":"","pricing_plan_id":"cebpf4jnsgd1na2vs0mg"},{"bike_id":"dcb87a9a-18f8-41c6-9134-949f31e21b42","system_id":"levelo_inurba_marseille","lat":43.26998,"lon":5.39944,"is_reserved":false,"is_disabled":false,"rental_uris":{"android":"levelo://app?vid=dcb87a9a-18f8-41c6-9134-949f31e21b42","ios":"levelo://app?vid=dcb87a9a-18f8-41c6-9134-949f31e21b42"},"vehicle_type_id":"4","last_reported":1750137101,"current_range_meters":7200,"station_id":"","pricing_plan_id":"cebpf4jnsgd1na2vs0mg"},{"bike_id":"10d8703f-8168-48d3-b44c-9eaaf686e239","system_id":"levelo_inurba_marseille","lat":43.30602,"lon":5.37175,"is_reserved":false,"is_disabled":false,"rental_uris":{"android":"levelo://app?vid=10d8703f-8168-48d3-b44c-9eaaf686e239","ios":"levelo://app?vid=10d8703f-8168-48d3-b44c-9eaaf686e239"},"vehicle_type_id":"4","last_reported":1750137101,"current_range_meters":7200,"station_id":"ce4bgqh2rcd13ifvqc4g","pricing_plan_id":"cebpf4jnsgd1na2vs0mg"},{"bike_id":"87a73488-390c-4e28-a3b3-5d6b7a9184c3","system_id":"levelo_inurba_marseille","lat":43.337444,"lon":5.374475,"is_reserved":false,"is_disabled":false,"rental_uris":{"android":"levelo://app?vid=87a73488-390c-4e28-a3b3-5d6b7a9184c3","ios":"levelo://app?vid=87a73488-390c-4e28-a3b3-5d6b7a9184c3"},"vehicle_type_id":"4","last_reported":1750137101,"current_range_meters":8000,"station_id":"","pricing_plan_id":"cebpf4jnsgd1na2vs0mg"},{"bike_id":"58548840-587e-4658-8250-038fa79f0222","system_id":"levelo_inurba_marseille","lat":43.30938,"lon":5.38993,"is_reserved":false,"is_disabled":false,"rental_uris":{"android":"levelo://app?vid=58548840-587e-4658-8250-038fa79f0222","ios":"levelo://app?vid=58548840-587e-4658-8250-038fa79f0222"},"vehicle_type_id":"4","last_reported":1750137101,"current_range_meters":8000,"station_id":"ce4bgup2rcd13ifvqco0","pricing_plan_id":"cebpf4jnsgd1na2vs0mg"},{"bike_id":"617e6a4a-5dbe-4815-865e-5f7e6183fa80","system_id":"levelo_inurba_marseille","lat":43.30885,"lon":5.39655,"is_reserved":false,"is_disabled":false,"rental_uris":{"android":"levelo://app?vid=617e6a4a-5dbe-4815-865e-5f7e6183fa80","ios":"levelo://app?vid=617e6a4a-5dbe-4815-865e-5f7e6183fa80"},"vehicle_type_id":"4","last_reported":1750137101,"current_range_meters":8000,"station_id":"ce4bh012rcd13ifvqcv0","pricing_plan_id":"cebpf4jnsgd1na2vs0mg"},{"bike_id":"3042c9e5-c5a5-4a11-94d1-8e536b5e25f7","system_id":"levelo_inurba_marseille","lat":43.21192,"lon":5.35063,"is_reserved":false,"is_disabled":false,"rental_uris":{"android":"levelo://app?vid=3042c9e5-c5a5-4a11-94d1-8e536b5e25f7","ios":"levelo://app?vid=3042c9e5-c5a5-4a11-94d1-8e536b5e25f7"},"vehicle_type_id":"4","last_reported":1750137101,"current_range_meters":8000,"station_id":"st_cvj6sg6p6f1abm77japg","pricing_plan_id":"cebpf4jnsgd1na2vs0mg"},{"bike_id":"6afc644c-08c3-42de-8619-3f94e2ba41cd","system_id":"levelo_inurba_marseille","lat":43.29913,"lon":5.43634,"is_reserved":false,"is_disabled":false,"rental_uris":{"android":"levelo://app?vid=6afc644c-08c3-42de-8619-3f94e2ba41cd","ios":"levelo://app?vid=6afc644c-08c3-42de-8619-3f94e2ba41cd"},"vehicle_type_id":"4","last_reported":1750137101,"current_range_meters":8400,"station_id":"ce4bhpp2rcd13ifvqhfg","pricing_plan_id":"cebpf4jnsgd1na2vs0mg"},{"bike_id":"609537b7-123c-46cf-8168-8df033f9ec3b","system_id":"levelo_inurba_marseille","lat":43.298702,"lon":5.397289,"is_reserved":false,"is_disabled":false,"rental_uris":{"android":"levelo://app?vid=609537b7-123c-46cf-8168-8df033f9ec3b","ios":"levelo://app?vid=609537b7-123c-46cf-8168-8df033f9ec3b"},"vehicle_type_id":"4","last_reported":1750137101,"current_range_meters":9200,"station_id":"ce4bh0h2rcd13ifvqd50","pricing_plan_id":"cebpf4jnsgd1na2vs0mg"},{"bike_id":"3abe8573-f5f6-444a-b79c-9d3b4909d5a2","system_id":"levelo_inurba_marseille","lat":43.29852,"lon":5.36286,"is_reserved":false,"is_disabled":false,"rental_uris":{"android":"levelo://app?vid=3abe8573-f5f6-444a-b79c-9d3b4909d5a2","ios":"levelo://app?vid=3abe8573-f5f6-444a-b79c-9d3b4909d5a2"},"vehicle_type_id":"4","last_reported":1750137101,"current_range_meters":9600,"station_id":"ce4bgpp2rcd13ifvqc3g","pricing_plan_id":"cebpf4jnsgd1na2vs0mg"},{"bike_id":"508fd1d5-464f-447c-b6cf-cfaa3ce05e3f","system_id":"levelo_inurba_marseille","lat":43.30374,"lon":5.42487,"is_reserved":false,"is_disabled":false,"rental_uris":{"android":"levelo://app?vid=508fd1d5-464f-447c-b6cf-cfaa3ce05e3f","ios":"levelo://app?vid=508fd1d5-464f-447c-b6cf-cfaa3ce05e3f"},"vehicle_type_id":"4","last_reported":1750137101,"current_range_meters":9600,"station_id":"ce4bhoh2rcd13ifvqh6g","pricing_plan_id":"cebpf4jnsgd1na2vs0mg"},{"bike_id":"a66728c4-f2e7-428e-b872-e7406fb70732","system_id":"levelo_inurba_marseille","lat":43.21189,"lon":5.35074,"is_reserved":false,"is_disabled":false,"rental_uris":{"android":"levelo://app?vid=a66728c4-f2e7-428e-b872-e7406fb70732","ios":"levelo://app?vid=a66728c4-f2e7-428e-b872-e7406fb70732"},"vehicle_type_id":"4","last_reported":1750137101,"current_range_meters":9600,"station_id":"st_cvj6sg6p6f1abm77japg","pricing_plan_id":"cebpf4jnsgd1na2vs0mg"},{"bike_id":"da3e1724-606c-4f9a-9130-d56dd48e22e0","system_id":"levelo_inurba_marseille","lat":43.3283,"lon":5.40505,"is_reserved":false,"is_disabled":false,"rental_uris":{"android":"levelo://app?vid=da3e1724-606c-4f9a-9130-d56dd48e22e0","ios":"levelo://app?vid=da3e1724-606c-4f9a-9130-d56dd48e22e0"},"vehicle_type_id":"4","last_reported":1750137101,"current_range_meters":10000,"station_id":"","pricing_plan_id":"cebpf4jnsgd1na2vs0mg"},{"bike_id":"64c6d212-acc6-47e3-9e04-fbaf04a7ed4e","system_id":"levelo_inurba_marseille","lat":43.26993,"lon":5.38762,"is_reserved":false,"is_disabled":false,"rental_uris":{"android":"levelo://app?vid=64c6d212-acc6-47e3-9e04-fbaf04a7ed4e","ios":"levelo://app?vid=64c6d212-acc6-47e3-9e04-fbaf04a7ed4e"},"vehicle_type_id":"4","last_reported":1750137101,"current_range_meters":10000,"station_id":"","pricing_plan_id":"cebpf4jnsgd1na2vs0mg"},{"bike_id":"d856e12a-62af-4292-a7ed-672d2c36623b","system_id":"levelo_inurba_marseille","lat":43.30645,"lon":5.40083,"is_reserved":false,"is_disabled":false,"rental_uris":{"android":"levelo://app?vid=d856e12a-62af-4292-a7ed-672d2c36623b","ios":"levelo://app?vid=d856e12a-62af-4292-a7ed-672d2c36623b"},"vehicle_type_id":"4","last_reported":1750137101,"current_range_meters":10000,"station_id":"ce4bh112rcd13ifvqda0","pricing_plan_id":"cebpf4jnsgd1na2vs0mg"},{"bike_id":"ab116dd0-cdf8-4359-8902-aa85441f7a5f","system_id":"levelo_inurba_marseille","lat":43.29266,"lon":5.40904,"is_reserved":false,"is_disabled":false,"rental_uris":{"android":"levelo://app?vid=ab116dd0-cdf8-4359-8902-aa85441f7a5f","ios":"levelo://app?vid=ab116dd0-cdf8-4359-8902-aa85441f7a5f"},"vehicle_type_id":"4","last_reported":1750137101,"current_range_meters":10000,"station_id":"ce4bh192rcd13ifvqdc0","pricing_plan_id":"cebpf4jnsgd1na2vs0mg"},{"bike_id":"b4d63fbc-28f7-4e9a-9e63-650858128a71","system_id":"levelo_inurba_marseille","lat":43.29515,"lon":5.39402,"is_reserved":false,"is_disabled":false,"rental_uris":{"android":"levelo://app?vid=b4d63fbc-28f7-4e9a-9e63-650858128a71","ios":"levelo://app?vid=b4d63fbc-28f7-4e9a-9e63-650858128a71"},"vehicle_type_id":"4","last_reported":1750137101,"current_range_meters":10000,"station_id":"ce4bh292rcd13ifvqdf0","pricing_plan_id":"cebpf4jnsgd1na2vs0mg"},{"bike_id":"2221e842-c8c1-4240-91f4-f68c3704f197","system_id":"levelo_inurba_marseille","lat":43.2944,"lon":5.39751,"is_reserved":false,"is_disabled":false,"rental_uris":{"android":"levelo://app?vid=2221e842-c8c1-4240-91f4-f68c3704f197","ios":"levelo://app?vid=2221e842-c8c1-4240-91f4-f68c3704f197"},"vehicle_type_id":"4","last_reported":1750137101,"current_range_meters":10000,"station_id":"ce4bh3h2rcd13ifvqdo0","pricing_plan_id":"cebpf4jnsgd1na2vs0mg"},{"bike_id":"36eeb858-56d7-415e-a056-5a92580a063d","system_id":"levelo_inurba_marseille","lat":43.2872,"lon":5.37397,"is_reserved":false,"is_disabled":false,"rental_uris":{"android":"levelo://app?vid=36eeb858-56d7-415e-a056-5a92580a063d","ios":"levelo://app?vid=36eeb858-56d7-415e-a056-5a92580a063d"},"vehicle_type_id":"4","last_reported":1750137101,"current_range_meters":10000,"station_id":"ce4bh3p2rcd13ifvqdq0","pricing_plan_id":"cebpf4jnsgd1na2vs0mg"},{"bike_id":"3fa126a0-fef7-43fb-9d0a-deb6cf8e7df7","system_id":"levelo_inurba_marseille","lat":43.279491,"lon":5.410436,"is_reserved":false,"is_disabled":false,"rental_uris":{"android":"levelo://app?vid=3fa126a0-fef7-43fb-9d0a-deb6cf8e7df7","ios":"levelo://app?vid=3fa126a0-fef7-43fb-9d0a-deb6cf8e7df7"},"vehicle_type_id":"4","last_reported":1750137101,"current_range_meters":10000,"station_id":"ce4bhnp2rcd13ifvqh0g","pricing_plan_id":"cebpf4jnsgd1na2vs0mg"},{"bike_id":"16d1eb4f-e479-477d-b2cb-5fd8838c33e7","system_id":"levelo_inurba_marseille","lat":43.22925,"lon":5.35366,"is_reserved":false,"is_disabled":false,"rental_uris":{"android":"levelo://app?vid=16d1eb4f-e479-477d-b2cb-5fd8838c33e7","ios":"levelo://app?vid=16d1eb4f-e479-477d-b2cb-5fd8838c33e7"},"vehicle_type_id":"4","last_reported":1750137101,"current_range_meters":10000,"station_id":"cpo3532slgdg3j2ikp40","pricing_plan_id":"cebpf4jnsgd1na2vs0mg"},{"bike_id":"356258c8-0ad6-493b-b5a4-77e865070f65","system_id":"levelo_inurba_marseille","lat":43.326002,"lon":5.419926,"is_reserved":false,"is_disabled":false,"rental_uris":{"android":"levelo://app?vid=356258c8-0ad6-493b-b5a4-77e865070f65","ios":"levelo://app?vid=356258c8-0ad6-493b-b5a4-77e865070f65"},"vehicle_type_id":"4","last_reported":1750137101,"current_range_meters":10800,"station_id":"","pricing_plan_id":"cebpf4jnsgd1na2vs0mg"},{"bike_id":"67abdc2e-d746-4ac9-881a-ac44425665df","system_id":"levelo_inurba_marseille","lat":43.3111,"lon":5.38319,"is_reserved":false,"is_disabled":false,"rental_uris":{"android":"levelo://app?vid=67abdc2e-d746-4ac9-881a-ac44425665df","ios":"levelo://app?vid=67abdc2e-d746-4ac9-881a-ac44425665df"},"vehicle_type_id":"4","last_reported":1750137101,"current_range_meters":10800,"station_id":"ce4bgv92rcd13ifvqcr0","pricing_plan_id":"cebpf4jnsgd1na2vs0mg"},{"bike_id":"2a7e6771-30d6-4b35-a375-586793c3a523","system_id":"levelo_inurba_marseille","lat":43.292784,"lon":5.401466,"is_reserved":false,"is_disabled":false,"rental_uris":{"android":"levelo://app?vid=2a7e6771-30d6-4b35-a375-586793c3a523","ios":"levelo://app?vid=2a7e6771-30d6-4b35-a375-586793c3a523"},"vehicle_type_id":"4","last_reported":1750137101,"current_range_meters":10800,"station_id":"ce4bh312rcd13ifvqdk0","pricing_plan_id":"cebpf4jnsgd1na2vs0mg"},{"bike_id":"d2868572-6fee-4690-8a81-283adbeec80c","system_id":"levelo_inurba_marseille","lat":43.21197,"lon":5.35062,"is_reserved":false,"is_disabled":false,"rental_uris":{"android":"levelo://app?vid=d2868572-6fee-4690-8a81-283adbeec80c","ios":"levelo://app?vid=d2868572-6fee-4690-8a81-283adbeec80c"},"vehicle_type_id":"4","last_reported":1750137101,"current_range_meters":10800,"station_id":"st_cvj6sg6p6f1abm77japg","pricing_plan_id":"cebpf4jnsgd1na2vs0mg"},{"bike_id":"b35914ae-da38-46fc-9230-b3564743afac","system_id":"levelo_inurba_marseille","lat":43.316991,"lon":5.404616,"is_reserved":false,"is_disabled":false,"rental_uris":{"android":"levelo://app?vid=b35914ae-da38-46fc-9230-b3564743afac","ios":"levelo://app?vid=b35914ae-da38-46fc-9230-b3564743afac"},"vehicle_type_id":"4","last_reported":1750137101,"current_range_meters":11200,"station_id":"ce4bh012rcd13ifvqd00","pricing_plan_id":"cebpf4jnsgd1na2vs0mg"},{"bike_id":"a9cd546d-0e13-48cf-a397-499f4976ea31","system_id":"levelo_inurba_marseille","lat":43.2925,"lon":5.4089,"is_reserved":false,"is_disabled":false,"rental_uris":{"android":"levelo://app?vid=a9cd546d-0e13-48cf-a397-499f4976ea31","ios":"levelo://app?vid=a9cd546d-0e13-48cf-a397-499f4976ea31"},"vehicle_type_id":"4","last_reported":1750137101,"current_range_meters":11200,"station_id":"ce4bh192rcd13ifvqdc0","pricing_plan_id":"cebpf4jnsgd1na2vs0mg"},{"bike_id":"3db24a24-682c-45f0-8ffa-8f5899dc1036","system_id":"levelo_inurba_marseille","lat":43.29005,"lon":5.35601,"is_reserved":false,"is_disabled":false,"rental_uris":{"android":"levelo://app?vid=3db24a24-682c-45f0-8ffa-8f5899dc1036","ios":"levelo://app?vid=3db24a24-682c-45f0-8ffa-8f5899dc1036"},"vehicle_type_id":"4","last_reported":1750137101,"current_range_meters":11200,"station_id":"ce4bhb92rcd13ifvqen0","pricing_plan_id":"cebpf4jnsgd1na2vs0mg"},{"bike_id":"7e5dd2b8-6c4b-46e8-88b8-afca826cad5c","system_id":"levelo_inurba_marseille","lat":43.25113,"lon":5.40328,"is_reserved":false,"is_disabled":false,"rental_uris":{"android":"levelo://app?vid=7e5dd2b8-6c4b-46e8-88b8-afca826cad5c","ios":"levelo://app?vid=7e5dd2b8-6c4b-46e8-88b8-afca826cad5c"},"vehicle_type_id":"4","last_reported":1750137101,"current_range_meters":11200,"station_id":"ce4bhlh2rcd13ifvqgig","pricing_plan_id":"cebpf4jnsgd1na2vs0mg"},{"bike_id":"6b75a80e-12fa-4bd0-b8db-b509b9abce19","system_id":"levelo_inurba_marseille","lat":43.21193,"lon":5.3507,"is_reserved":false,"is_disabled":false,"rental_uris":{"android":"levelo://app?vid=6b75a80e-12fa-4bd0-b8db-b509b9abce19","ios":"levelo://app?vid=6b75a80e-12fa-4bd0-b8db-b509b9abce19"},"vehicle_type_id":"4","last_reported":1750137101,"current_range_meters":11200,"station_id":"st_cvj6sg6p6f1abm77japg","pricing_plan_id":"cebpf4jnsgd1na2vs0mg"},{"bike_id":"412e6a5d-7568-4e80-ae3b-18be679b1a89","system_id":"levelo_inurba_marseille","lat":43.29255,"lon":5.40901,"is_reserved":false,"is_disabled":false,"rental_uris":{"android":"levelo://app?vid=412e6a5d-7568-4e80-ae3b-18be679b1a89","ios":"levelo://app?vid=412e6a5d-7568-4e80-ae3b-18be679b1a89"},"vehicle_type_id":"4","last_reported":1750137101,"current_range_meters":11600,"station_id":"ce4bh192rcd13ifvqdc0","pricing_plan_id":"cebpf4jnsgd1na2vs0mg"},{"bike_id":"ce681b13-33c2-42cd-8516-b72e3aaf1212","system_id":"levelo_inurba_marseille","lat":43.28426,"lon":5.37541,"is_reserved":false,"is_disabled":false,"rental_uris":{"android":"levelo://app?vid=ce681b13-33c2-42cd-8516-b72e3aaf1212","ios":"levelo://app?vid=ce681b13-33c2-42cd-8516-b72e3aaf1212"},"vehicle_type_id":"4","last_reported":1750137101,"current_range_meters":11600,"station_id":"ce4bh412rcd13ifvqds0","pricing_plan_id":"cebpf4jnsgd1na2vs0mg"},{"bike_id":"60aee3e5-ddf8-4600-a663-08cc0004499c","system_id":"levelo_inurba_marseille","lat":43.28039,"lon":5.36941,"is_reserved":false,"is_disabled":false,"rental_uris":{"android":"levelo://app?vid=60aee3e5-ddf8-4600-a663-08cc0004499c","ios":"levelo://app?vid=60aee3e5-ddf8-4600-a663-08cc0004499c"},"vehicle_type_id":"4","last_reported":1750137101,"current_range_meters":11600,"station_id":"ce4bha12rcd13ifvqef0","pricing_plan_id":"cebpf4jnsgd1na2vs0mg"},{"bike_id":"d247f4ab-211a-407b-9290-4f185f6cd66a","system_id":"levelo_inurba_marseille","lat":43.21183,"lon":5.35075,"is_reserved":false,"is_disabled":false,"rental_uris":{"android":"levelo://app?vid=d247f4ab-211a-407b-9290-4f185f6cd66a","ios":"levelo://app?vid=d247f4ab-211a-407b-9290-4f185f6cd66a"},"vehicle_type_id":"4","last_reported":1750137101,"current_range_meters":11600,"station_id":"st_cvj6sg6p6f1abm77japg","pricing_plan_id":"cebpf4jnsgd1na2vs0mg"},{"bike_id":"d23ff99d-dc68-4121-9728-f5c45e712135","system_id":"levelo_inurba_marseille","lat":43.31123,"lon":5.37757,"is_reserved":false,"is_disabled":false,"rental_uris":{"android":"levelo://app?vid=d23ff99d-dc68-4121-9728-f5c45e712135","ios":"levelo://app?vid=d23ff99d-dc68-4121-9728-f5c45e712135"},"vehicle_type_id":"4","last_reported":1750137101,"current_range_meters":12000,"station_id":"ce4bgt92rcd13ifvqcg0","pricing_plan_id":"cebpf4jnsgd1na2vs0mg"},{"bike_id":"e83485c9-6882-402f-b854-1902b875d9db","system_id":"levelo_inurba_marseille","lat":43.27067,"lon":5.42284,"is_reserved":false,"is_disabled":false,"rental_uris":{"android":"levelo://app?vid=e83485c9-6882-402f-b854-1902b875d9db","ios":"levelo://app?vid=e83485c9-6882-402f-b854-1902b875d9db"},"vehicle_type_id":"4","last_reported":1750137101,"current_range_meters":12000,"station_id":"ce4bhk92rcd13ifvqgb0","pricing_plan_id":"cebpf4jnsgd1na2vs0mg"},{"bike_id":"757906b4-eb86-4ed8-a0a5-7f582bcde75a","system_id":"levelo_inurba_marseille","lat":43.265332,"lon":5.395246,"is_reserved":false,"is_disabled":false,"rental_uris":{"android":"levelo://app?vid=757906b4-eb86-4ed8-a0a5-7f582bcde75a","ios":"levelo://app?vid=757906b4-eb86-4ed8-a0a5-7f582bcde75a"},"vehicle_type_id":"4","last_reported":1750137101,"current_range_meters":12400,"station_id":"","pricing_plan_id":"cebpf4jnsgd1na2vs0mg"},{"bike_id":"187908a5-e0ad-4d29-b512-50df5248184f","system_id":"levelo_inurba_marseille","lat":43.30164,"lon":5.38088,"is_reserved":false,"is_disabled":false,"rental_uris":{"android":"levelo://app?vid=187908a5-e0ad-4d29-b512-50df5248184f","ios":"levelo://app?vid=187908a5-e0ad-4d29-b512-50df5248184f"},"vehicle_type_id":"4","last_reported":1750137101,"current_range_meters":12400,"station_id":"ce4bgjp2rcd13ifvqbh0","pricing_plan_id":"cebpf4jnsgd1na2vs0mg"},{"bike_id":"6e8c4513-dee3-4d00-80c6-0c533e420a0d","system_id":"levelo_inurba_marseille","lat":43.309289,"lon":5.401569,"is_reserved":false,"is_disabled":false,"rental_uris":{"android":"levelo://app?vid=6e8c4513-dee3-4d00-80c6-0c533e420a0d","ios":"levelo://app?vid=6e8c4513-dee3-4d00-80c6-0c533e420a0d"},"vehicle_type_id":"4","last_reported":1750137101,"current_range_meters":12400,"station_id":"ce4bgvp2rcd13ifvqct0","pricing_plan_id":"cebpf4jnsgd1na2vs0mg"},{"bike_id":"3bf98321-3993-408d-bd7a-5b5ba6fc3b2d","system_id":"levelo_inurba_marseille","lat":43.27917,"lon":5.39592,"is_reserved":false,"is_disabled":false,"rental_uris":{"android":"levelo://app?vid=3bf98321-3993-408d-bd7a-5b5ba6fc3b2d","ios":"levelo://app?vid=3bf98321-3993-408d-bd7a-5b5ba6fc3b2d"},"vehicle_type_id":"4","last_reported":1750137101,"current_range_meters":12400,"station_id":"ce4bhf92rcd13ifvqf40","pricing_plan_id":"cebpf4jnsgd1na2vs0mg"},{"bike_id":"6086445f-8ec3-49b9-b98c-dc92ffaa7cdd","system_id":"levelo_inurba_marseille","lat":43.26213,"lon":5.37441,"is_reserved":false,"is_disabled":false,"rental_uris":{"android":"levelo://app?vid=6086445f-8ec3-49b9-b98c-dc92ffaa7cdd","ios":"levelo://app?vid=6086445f-8ec3-49b9-b98c-dc92ffaa7cdd"},"vehicle_type_id":"4","last_reported":1750137101,"current_range_meters":12400,"station_id":"ce4bhgp2rcd13ifvqfc0","pricing_plan_id":"cebpf4jnsgd1na2vs0mg"},{"bike_id":"022c1317-5249-45a3-8662-c658cf200c61","system_id":"levelo_inurba_marseille","lat":43.30802,"lon":5.43514,"is_reserved":false,"is_disabled":false,"rental_uris":{"android":"levelo://app?vid=022c1317-5249-45a3-8662-c658cf200c61","ios":"levelo://app?vid=022c1317-5249-45a3-8662-c658cf200c61"},"vehicle_type_id":"4","last_reported":1750137101,"current_range_meters":12400,"station_id":"ce4bhph2rcd13ifvqheg","pricing_plan_id":"cebpf4jnsgd1na2vs0mg"},{"bike_id":"23663541-fc1d-43aa-a6c8-93fefadf0589","system_id":"levelo_inurba_marseille","lat":43.26942,"lon":5.40256,"is_reserved":false,"is_disabled":false,"rental_uris":{"android":"levelo://app?vid=23663541-fc1d-43aa-a6c8-93fefadf0589","ios":"levelo://app?vid=23663541-fc1d-43aa-a6c8-93fefadf0589"},"vehicle_type_id":"4","last_reported":1750137101,"current_range_meters":12400,"station_id":"cjm6bp8fraef2m0cb0m0","pricing_plan_id":"cebpf4jnsgd1na2vs0mg"},{"bike_id":"496aa929-63db-4551-9c01-1f51a7882a83","system_id":"levelo_inurba_marseille","lat":43.27608,"lon":5.36107,"is_reserved":false,"is_disabled":false,"rental_uris":{"android":"levelo://app?vid=496aa929-63db-4551-9c01-1f51a7882a83","ios":"levelo://app?vid=496aa929-63db-4551-9c01-1f51a7882a83"},"vehicle_type_id":"4","last_reported":1750137101,"current_range_meters":12800,"station_id":"ce4bgj92rcd13ifvqbe0","pricing_plan_id":"cebpf4jnsgd1na2vs0mg"},{"bike_id":"25960fd9-8509-4555-9b23-fa4fae1e21d0","system_id":"levelo_inurba_marseille","lat":43.29014,"lon":5.38178,"is_reserved":false,"is_disabled":false,"rental_uris":{"android":"levelo://app?vid=25960fd9-8509-4555-9b23-fa4fae1e21d0","ios":"levelo://app?vid=25960fd9-8509-4555-9b23-fa4fae1e21d0"},"vehicle_type_id":"4","last_reported":1750137101,"current_range_meters":12800,"station_id":"ce4bh4p2rcd13ifvqe1g","pricing_plan_id":"cebpf4jnsgd1na2vs0mg"},{"bike_id":"fb9d9c4e-29d8-44a2-9ea0-138a3063ca6f","system_id":"levelo_inurba_marseille","lat":43.287089,"lon":5.379397,"is_reserved":false,"is_disabled":false,"rental_uris":{"android":"levelo://app?vid=fb9d9c4e-29d8-44a2-9ea0-138a3063ca6f","ios":"levelo://app?vid=fb9d9c4e-29d8-44a2-9ea0-138a3063ca6f"},"vehicle_type_id":"4","last_reported":1750137101,"current_range_meters":12800,"station_id":"ce4bh9p2rcd13ifvqec0","pricing_plan_id":"cebpf4jnsgd1na2vs0mg"},{"bike_id":"22bb4219-1113-4018-bc48-214e822df766","system_id":"levelo_inurba_marseille","lat":43.24077,"lon":5.37757,"is_reserved":false,"is_disabled":false,"rental_uris":{"android":"levelo://app?vid=22bb4219-1113-4018-bc48-214e822df766","ios":"levelo://app?vid=22bb4219-1113-4018-bc48-214e822df766"},"vehicle_type_id":"4","last_reported":1750137101,"current_range_meters":12800,"station_id":"ce4bhnp2rcd13ifvqgvg","pricing_plan_id":"cebpf4jnsgd1na2vs0mg"},{"bike_id":"1e373418-986e-4d3c-9ff7-c37dd7c7a214","system_id":"levelo_inurba_marseille","lat":43.29899,"lon":5.43658,"is_reserved":false,"is_disabled":false,"rental_uris":{"android":"levelo://app?vid=1e373418-986e-4d3c-9ff7-c37dd7c7a214","ios":"levelo://app?vid=1e373418-986e-4d3c-9ff7-c37dd7c7a214"},"vehicle_type_id":"4","last_reported":1750137101,"current_range_meters":12800,"station_id":"ce4bhpp2rcd13ifvqhfg","pricing_plan_id":"cebpf4jnsgd1na2vs0mg"},{"bike_id":"25be301b-e50b-4f31-a209-462aec1b4ce5","system_id":"levelo_inurba_marseille","lat":43.21182,"lon":5.35069,"is_reserved":false,"is_disabled":false,"rental_uris":{"android":"levelo://app?vid=25be301b-e50b-4f31-a209-462aec1b4ce5","ios":"levelo://app?vid=25be301b-e50b-4f31-a209-462aec1b4ce5"},"vehicle_type_id":"4","last_reported":1750137101,"current_range_meters":12800,"station_id":"st_cvj6sg6p6f1abm77japg","pricing_plan_id":"cebpf4jnsgd1na2vs0mg"},{"bike_id":"e1c3031a-cfe2-4224-9867-102b64096bd8","system_id":"levelo_inurba_marseille","lat":43.29475,"lon":5.38614,"is_reserved":false,"is_disabled":false,"rental_uris":{"android":"levelo://app?vid=e1c3031a-cfe2-4224-9867-102b64096bd8","ios":"levelo://app?vid=e1c3031a-cfe2-4224-9867-102b64096bd8"},"vehicle_type_id":"4","last_reported":1750137101,"current_range_meters":13600,"station_id":"","pricing_plan_id":"cebpf4jnsgd1na2vs0mg"},{"bike_id":"70679c75-37e6-4529-b994-888fd69d00bc","system_id":"levelo_inurba_marseille","lat":43.30141,"lon":5.38089,"is_reserved":false,"is_disabled":false,"rental_uris":{"android":"levelo://app?vid=70679c75-37e6-4529-b994-888fd69d00bc","ios":"levelo://app?vid=70679c75-37e6-4529-b994-888fd69d00bc"},"vehicle_type_id":"4","last_reported":1750137101,"current_range_meters":13600,"station_id":"ce4bgjp2rcd13ifvqbh0","pricing_plan_id":"cebpf4jnsgd1na2vs0mg"},{"bike_id":"0e27dafc-21df-4fb1-bd36-2450a7866702","system_id":"levelo_inurba_marseille","lat":43.27158,"lon":5.40015,"is_reserved":false,"is_disabled":false,"rental_uris":{"android":"levelo://app?vid=0e27dafc-21df-4fb1-bd36-2450a7866702","ios":"levelo://app?vid=0e27dafc-21df-4fb1-bd36-2450a7866702"},"vehicle_type_id":"4","last_reported":1750137101,"current_range_meters":14000,"station_id":"","pricing_plan_id":"cebpf4jnsgd1na2vs0mg"},{"bike_id":"0a01102c-d555-465c-90ef-5fc091581509","system_id":"levelo_inurba_marseille","lat":43.301335,"lon":5.398741,"is_reserved":false,"is_disabled":false,"rental_uris":{"android":"levelo://app?vid=0a01102c-d555-465c-90ef-5fc091581509","ios":"levelo://app?vid=0a01102c-d555-465c-90ef-5fc091581509"},"vehicle_type_id":"4","last_reported":1750137101,"current_range_meters":14000,"station_id":"ce4bh0h2rcd13ifvqd40","pricing_plan_id":"cebpf4jnsgd1na2vs0mg"},{"bike_id":"f1d6ce8d-fb91-4087-a096-913d54f689a6","system_id":"levelo_inurba_marseille","lat":43.29254,"lon":5.40895,"is_reserved":false,"is_disabled":false,"rental_uris":{"android":"levelo://app?vid=f1d6ce8d-fb91-4087-a096-913d54f689a6","ios":"levelo://app?vid=f1d6ce8d-fb91-4087-a096-913d54f689a6"},"vehicle_type_id":"4","last_reported":1750137101,"current_range_meters":14000,"station_id":"ce4bh192rcd13ifvqdc0","pricing_plan_id":"cebpf4jnsgd1na2vs0mg"},{"bike_id":"8c202762-8a3a-494c-9e60-c0242d3ee0a4","system_id":"levelo_inurba_marseille","lat":43.23137,"lon":5.43703,"is_reserved":false,"is_disabled":false,"rental_uris":{"android":"levelo://app?vid=8c202762-8a3a-494c-9e60-c0242d3ee0a4","ios":"levelo://app?vid=8c202762-8a3a-494c-9e60-c0242d3ee0a4"},"vehicle_type_id":"4","last_reported":1750137101,"current_range_meters":14000,"station_id":"ce4bhmp2rcd13ifvqgog","pricing_plan_id":"cebpf4jnsgd1na2vs0mg"},{"bike_id":"8d8216b7-70be-4e0e-b02f-ed276d5ecd5f","system_id":"levelo_inurba_marseille","lat":43.230665,"lon":5.355049,"is_reserved":false,"is_disabled":false,"rental_uris":{"android":"levelo://app?vid=8d8216b7-70be-4e0e-b02f-ed276d5ecd5f","ios":"levelo://app?vid=8d8216b7-70be-4e0e-b02f-ed276d5ecd5f"},"vehicle_type_id":"4","last_reported":1750137101,"current_range_meters":14000,"station_id":"cpo3342slgdg3j2ifvpg","pricing_plan_id":"cebpf4jnsgd1na2vs0mg"},{"bike_id":"50e8a011-627a-4234-8a5b-2f8ac1952916","system_id":"levelo_inurba_marseille","lat":43.3015,"lon":5.38104,"is_reserved":false,"is_disabled":false,"rental_uris":{"android":"levelo://app?vid=50e8a011-627a-4234-8a5b-2f8ac1952916","ios":"levelo://app?vid=50e8a011-627a-4234-8a5b-2f8ac1952916"},"vehicle_type_id":"4","last_reported":1750137101,"current_range_meters":14400,"station_id":"ce4bgjp2rcd13ifvqbh0","pricing_plan_id":"cebpf4jnsgd1na2vs0mg"},{"bike_id":"3be844da-350b-45fa-b12d-4dd2be126d17","system_id":"levelo_inurba_marseille","lat":43.2791,"lon":5.39603,"is_reserved":false,"is_disabled":false,"rental_uris":{"android":"levelo://app?vid=3be844da-350b-45fa-b12d-4dd2be126d17","ios":"levelo://app?vid=3be844da-350b-45fa-b12d-4dd2be126d17"},"vehicle_type_id":"4","last_reported":1750137101,"current_range_meters":14800,"station_id":"ce4bhf92rcd13ifvqf40","pricing_plan_id":"cebpf4jnsgd1na2vs0mg"},{"bike_id":"cad0b5c0-607d-4cfe-b847-6e28cd45a43d","system_id":"levelo_inurba_marseille","lat":43.335907,"lon":5.41039,"is_reserved":false,"is_disabled":false,"rental_uris":{"android":"levelo://app?vid=cad0b5c0-607d-4cfe-b847-6e28cd45a43d","ios":"levelo://app?vid=cad0b5c0-607d-4cfe-b847-6e28cd45a43d"},"vehicle_type_id":"4","last_reported":1750137101,"current_range_meters":14800,"station_id":"ce4bhqh2rcd13ifvqhmg","pricing_plan_id":"cebpf4jnsgd1na2vs0mg"},{"bike_id":"eca25bd6-1b44-4388-a7b0-074a85a4f502","system_id":"levelo_inurba_marseille","lat":43.31102,"lon":5.39728,"is_reserved":false,"is_disabled":false,"rental_uris":{"android":"levelo://app?vid=eca25bd6-1b44-4388-a7b0-074a85a4f502","ios":"levelo://app?vid=eca25bd6-1b44-4388-a7b0-074a85a4f502"},"vehicle_type_id":"4","last_reported":1750137101,"current_range_meters":15200,"station_id":"","pricing_plan_id":"cebpf4jnsgd1na2vs0mg"},{"bike_id":"63d8f8de-6fb5-461e-8196-70d15c64a587","system_id":"levelo_inurba_marseille","lat":43.21189,"lon":5.35059,"is_reserved":false,"is_disabled":false,"rental_uris":{"android":"levelo://app?vid=63d8f8de-6fb5-461e-8196-70d15c64a587","ios":"levelo://app?vid=63d8f8de-6fb5-461e-8196-70d15c64a587"},"vehicle_type_id":"4","last_reported":1750137101,"current_range_meters":15200,"station_id":"st_cvj6sg6p6f1abm77japg","pricing_plan_id":"cebpf4jnsgd1na2vs0mg"},{"bike_id":"83cfee7d-980d-496a-98c8-745c7e44c68d","system_id":"levelo_inurba_marseille","lat":43.32873,"lon":5.39075,"is_reserved":false,"is_disabled":false,"rental_uris":{"android":"levelo://app?vid=83cfee7d-980d-496a-98c8-745c7e44c68d","ios":"levelo://app?vid=83cfee7d-980d-496a-98c8-745c7e44c68d"},"vehicle_type_id":"4","last_reported":1750137101,"current_range_meters":16000,"station_id":"","pricing_plan_id":"cebpf4jnsgd1na2vs0mg"},{"bike_id":"e150441e-bc69-4619-9492-e5fd375524c1","system_id":"levelo_inurba_marseille","lat":43.28108,"lon":5.37829,"is_reserved":false,"is_disabled":false,"rental_uris":{"android":"levelo://app?vid=e150441e-bc69-4619-9492-e5fd375524c1","ios":"levelo://app?vid=e150441e-bc69-4619-9492-e5fd375524c1"},"vehicle_type_id":"4","last_reported":1750137101,"current_range_meters":16000,"station_id":"ce4bha12rcd13ifvqee0","pricing_plan_id":"cebpf4jnsgd1na2vs0mg"},{"bike_id":"381bd0ad-ce73-4a4f-b643-1e1c87957c84","system_id":"levelo_inurba_marseille","lat":43.24076,"lon":5.37781,"is_reserved":false,"is_disabled":false,"rental_uris":{"android":"levelo://app?vid=381bd0ad-ce73-4a4f-b643-1e1c87957c84","ios":"levelo://app?vid=381bd0ad-ce73-4a4f-b643-1e1c87957c84"},"vehicle_type_id":"4","last_reported":1750137101,"current_range_meters":16000,"station_id":"ce4bhnp2rcd13ifvqgvg","pricing_plan_id":"cebpf4jnsgd1na2vs0mg"},{"bike_id":"6d392914-420e-49a0-9a62-e1c19d840639","system_id":"levelo_inurba_marseille","lat":43.30395,"lon":5.42487,"is_reserved":false,"is_disabled":false,"rental_uris":{"android":"levelo://app?vid=6d392914-420e-49a0-9a62-e1c19d840639","ios":"levelo://app?vid=6d392914-420e-49a0-9a62-e1c19d840639"},"vehicle_type_id":"4","last_reported":1750137101,"current_range_meters":16000,"station_id":"ce4bhoh2rcd13ifvqh6g","pricing_plan_id":"cebpf4jnsgd1na2vs0mg"},{"bike_id":"f1c51b49-2723-4952-968b-ca0c8a907afc","system_id":"levelo_inurba_marseille","lat":43.28614,"lon":5.37062,"is_reserved":false,"is_disabled":false,"rental_uris":{"android":"levelo://app?vid=f1c51b49-2723-4952-968b-ca0c8a907afc","ios":"levelo://app?vid=f1c51b49-2723-4952-968b-ca0c8a907afc"},"vehicle_type_id":"4","last_reported":1750137101,"current_range_meters":16000,"station_id":"ce4bht12rcd13ifvqi60","pricing_plan_id":"cebpf4jnsgd1na2vs0mg"},{"bike_id":"203ce7ae-f28e-4055-a214-c37590a01e71","system_id":"levelo_inurba_marseille","lat":43.28728,"lon":5.37931,"is_reserved":false,"is_disabled":false,"rental_uris":{"android":"levelo://app?vid=203ce7ae-f28e-4055-a214-c37590a01e71","ios":"levelo://app?vid=203ce7ae-f28e-4055-a214-c37590a01e71"},"vehicle_type_id":"4","last_reported":1750137101,"current_range_meters":16400,"station_id":"ce4bh9p2rcd13ifvqec0","pricing_plan_id":"cebpf4jnsgd1na2vs0mg"},{"bike_id":"efef01c9-2907-4a72-a0c6-1415810e08d6","system_id":"levelo_inurba_marseille","lat":43.280279,"lon":5.369473,"is_reserved":false,"is_disabled":false,"rental_uris":{"android":"levelo://app?vid=efef01c9-2907-4a72-a0c6-1415810e08d6","ios":"levelo://app?vid=efef01c9-2907-4a72-a0c6-1415810e08d6"},"vehicle_type_id":"4","last_reported":1750137101,"current_range_meters":16400,"station_id":"ce4bha12rcd13ifvqef0","pricing_plan_id":"cebpf4jnsgd1na2vs0mg"},{"bike_id":"2c0577e4-98de-4f9e-ba39-d09945ab7f34","system_id":"levelo_inurba_marseille","lat":43.29235,"lon":5.39352,"is_reserved":false,"is_disabled":false,"rental_uris":{"android":"levelo://app?vid=2c0577e4-98de-4f9e-ba39-d09945ab7f34","ios":"levelo://app?vid=2c0577e4-98de-4f9e-ba39-d09945ab7f34"},"vehicle_type_id":"4","last_reported":1750137101,"current_range_meters":16800,"station_id":"","pricing_plan_id":"cebpf4jnsgd1na2vs0mg"},{"bike_id":"5025638e-63a1-4609-b022-b4bda8dc8035","system_id":"levelo_inurba_marseille","lat":43.30161,"lon":5.38087,"is_reserved":false,"is_disabled":false,"rental_uris":{"android":"levelo://app?vid=5025638e-63a1-4609-b022-b4bda8dc8035","ios":"levelo://app?vid=5025638e-63a1-4609-b022-b4bda8dc8035"},"vehicle_type_id":"4","last_reported":1750137101,"current_range_meters":16800,"station_id":"ce4bgjp2rcd13ifvqbh0","pricing_plan_id":"cebpf4jnsgd1na2vs0mg"},{"bike_id":"f9e01266-b967-4bfd-b75b-feefbe1a2bff","system_id":"levelo_inurba_marseille","lat":43.309221,"lon":5.401575,"is_reserved":false,"is_disabled":false,"rental_uris":{"android":"levelo://app?vid=f9e01266-b967-4bfd-b75b-feefbe1a2bff","ios":"levelo://app?vid=f9e01266-b967-4bfd-b75b-feefbe1a2bff"},"vehicle_type_id":"4","last_reported":1750137101,"current_range_meters":16800,"station_id":"ce4bgvp2rcd13ifvqct0","pricing_plan_id":"cebpf4jnsgd1na2vs0mg"},{"bike_id":"1d162c48-ae5d-4aa3-9e6b-76bab32738ad","system_id":"levelo_inurba_marseille","lat":43.28462,"lon":5.35895,"is_reserved":false,"is_disabled":false,"rental_uris":{"android":"levelo://app?vid=1d162c48-ae5d-4aa3-9e6b-76bab32738ad","ios":"levelo://app?vid=1d162c48-ae5d-4aa3-9e6b-76bab32738ad"},"vehicle_type_id":"4","last_reported":1750137101,"current_range_meters":16800,"station_id":"ce4bhah2rcd13ifvqei0","pricing_plan_id":"cebpf4jnsgd1na2vs0mg"},{"bike_id":"2090556a-ebe6-4fcd-b60b-df67d7c8e4f7","system_id":"levelo_inurba_marseille","lat":43.29901,"lon":5.4366,"is_reserved":false,"is_disabled":false,"rental_uris":{"android":"levelo://app?vid=2090556a-ebe6-4fcd-b60b-df67d7c8e4f7","ios":"levelo://app?vid=2090556a-ebe6-4fcd-b60b-df67d7c8e4f7"},"vehicle_type_id":"4","last_reported":1750137101,"current_range_meters":16800,"station_id":"ce4bhpp2rcd13ifvqhfg","pricing_plan_id":"cebpf4jnsgd1na2vs0mg"},{"bike_id":"e4545242-0d34-410b-9092-52e20d435c24","system_id":"levelo_inurba_marseille","lat":43.30864,"lon":5.36984,"is_reserved":false,"is_disabled":false,"rental_uris":{"android":"levelo://app?vid=e4545242-0d34-410b-9092-52e20d435c24","ios":"levelo://app?vid=e4545242-0d34-410b-9092-52e20d435c24"},"vehicle_type_id":"4","last_reported":1750137101,"current_range_meters":17200,"station_id":"","pricing_plan_id":"cebpf4jnsgd1na2vs0mg"},{"bike_id":"ebf1aee2-d7a0-4c82-bf86-8d5f6ea2391a","system_id":"levelo_inurba_marseille","lat":43.30146,"lon":5.38079,"is_reserved":false,"is_disabled":false,"rental_uris":{"android":"levelo://app?vid=ebf1aee2-d7a0-4c82-bf86-8d5f6ea2391a","ios":"levelo://app?vid=ebf1aee2-d7a0-4c82-bf86-8d5f6ea2391a"},"vehicle_type_id":"4","last_reported":1750137101,"current_range_meters":17200,"station_id":"ce4bgjp2rcd13ifvqbh0","pricing_plan_id":"cebpf4jnsgd1na2vs0mg"},{"bike_id":"2c9fd24f-423c-4551-b17e-7255ad4d028d","system_id":"levelo_inurba_marseille","lat":43.28938,"lon":5.36397,"is_reserved":false,"is_disabled":false,"rental_uris":{"android":"levelo://app?vid=2c9fd24f-423c-4551-b17e-7255ad4d028d","ios":"levelo://app?vid=2c9fd24f-423c-4551-b17e-7255ad4d028d"},"vehicle_type_id":"4","last_reported":1750137101,"current_range_meters":17200,"station_id":"ce4bhc92rcd13ifvqetg","pricing_plan_id":"cebpf4jnsgd1na2vs0mg"},{"bike_id":"d1e6ff1e-6595-4016-9fc7-f45804a361c8","system_id":"levelo_inurba_marseille","lat":43.32332,"lon":5.40624,"is_reserved":false,"is_disabled":false,"rental_uris":{"android":"levelo://app?vid=d1e6ff1e-6595-4016-9fc7-f45804a361c8","ios":"levelo://app?vid=d1e6ff1e-6595-4016-9fc7-f45804a361c8"},"vehicle_type_id":"4","last_reported":1750137101,"current_range_meters":17200,"station_id":"ce4bhq92rcd13ifvqhjg","pricing_plan_id":"cebpf4jnsgd1na2vs0mg"},{"bike_id":"7516c593-6640-4b00-96c9-31c1b5678a8a","system_id":"levelo_inurba_marseille","lat":43.32354,"lon":5.38871,"is_reserved":false,"is_disabled":false,"rental_uris":{"android":"levelo://app?vid=7516c593-6640-4b00-96c9-31c1b5678a8a","ios":"levelo://app?vid=7516c593-6640-4b00-96c9-31c1b5678a8a"},"vehicle_type_id":"4","last_reported":1750137101,"current_range_meters":17200,"station_id":"ce4bhqp2rcd13ifvqhog","pricing_plan_id":"cebpf4jnsgd1na2vs0mg"},{"bike_id":"03594947-d2bf-48d0-96be-87adc2213de1","system_id":"levelo_inurba_marseille","lat":43.29793,"lon":5.39371,"is_reserved":false,"is_disabled":false,"rental_uris":{"android":"levelo://app?vid=03594947-d2bf-48d0-96be-87adc2213de1","ios":"levelo://app?vid=03594947-d2bf-48d0-96be-87adc2213de1"},"vehicle_type_id":"4","last_reported":1750137101,"current_range_meters":17200,"station_id":"chh1huq6cuj3fo74tm60","pricing_plan_id":"cebpf4jnsgd1na2vs0mg"},{"bike_id":"3518210a-6d90-482f-a11b-11cb7c94acd1","system_id":"levelo_inurba_marseille","lat":43.26486,"lon":5.39215,"is_reserved":false,"is_disabled":false,"rental_uris":{"android":"levelo://app?vid=3518210a-6d90-482f-a11b-11cb7c94acd1","ios":"levelo://app?vid=3518210a-6d90-482f-a11b-11cb7c94acd1"},"vehicle_type_id":"4","last_reported":1750137101,"current_range_meters":17600,"station_id":"","pricing_plan_id":"cebpf4jnsgd1na2vs0mg"},{"bike_id":"de0f7c2b-5974-4035-a240-8ed367c0e3f3","system_id":"levelo_inurba_marseille","lat":43.319695,"lon":5.376198,"is_reserved":false,"is_disabled":false,"rental_uris":{"android":"levelo://app?vid=de0f7c2b-5974-4035-a240-8ed367c0e3f3","ios":"levelo://app?vid=de0f7c2b-5974-4035-a240-8ed367c0e3f3"},"vehicle_type_id":"4","last_reported":1750137101,"current_range_meters":17600,"station_id":"","pricing_plan_id":"cebpf4jnsgd1na2vs0mg"},{"bike_id":"e3977fb1-6092-4714-9d4c-8351cace434d","system_id":"levelo_inurba_marseille","lat":43.252568,"lon":5.375659,"is_reserved":false,"is_disabled":false,"rental_uris":{"android":"levelo://app?vid=e3977fb1-6092-4714-9d4c-8351cace434d","ios":"levelo://app?vid=e3977fb1-6092-4714-9d4c-8351cace434d"},"vehicle_type_id":"4","last_reported":1750137101,"current_range_meters":17600,"station_id":"","pricing_plan_id":"cebpf4jnsgd1na2vs0mg"},{"bike_id":"1d918d50-0b11-4f04-bf01-a94ac98a52d4","system_id":"levelo_inurba_marseille","lat":43.27202,"lon":5.39186,"is_reserved":false,"is_disabled":false,"rental_uris":{"android":"levelo://app?vid=1d918d50-0b11-4f04-bf01-a94ac98a52d4","ios":"levelo://app?vid=1d918d50-0b11-4f04-bf01-a94ac98a52d4"},"vehicle_type_id":"4","last_reported":1750137101,"current_range_meters":17600,"station_id":"ce4bhhp2rcd13ifvqfm0","pricing_plan_id":"cebpf4jnsgd1na2vs0mg"},{"bike_id":"dab6fb6d-3e6d-412b-a0e1-f672326dbd00","system_id":"levelo_inurba_marseille","lat":43.24171,"lon":5.39733,"is_reserved":false,"is_disabled":false,"rental_uris":{"android":"levelo://app?vid=dab6fb6d-3e6d-412b-a0e1-f672326dbd00","ios":"levelo://app?vid=dab6fb6d-3e6d-412b-a0e1-f672326dbd00"},"vehicle_type_id":"4","last_reported":1750137101,"current_range_meters":17600,"station_id":"ce4bhn12rcd13ifvqgpg","pricing_plan_id":"cebpf4jnsgd1na2vs0mg"},{"bike_id":"5b8a18e3-8b29-48dc-804f-df5ca303f004","system_id":"levelo_inurba_marseille","lat":43.2815,"lon":5.426569,"is_reserved":false,"is_disabled":false,"rental_uris":{"android":"levelo://app?vid=5b8a18e3-8b29-48dc-804f-df5ca303f004","ios":"levelo://app?vid=5b8a18e3-8b29-48dc-804f-df5ca303f004"},"vehicle_type_id":"4","last_reported":1750137101,"current_range_meters":17600,"station_id":"ce4bhnh2rcd13ifvqgug","pricing_plan_id":"cebpf4jnsgd1na2vs0mg"},{"bike_id":"24fc1e06-85ec-4e4d-88b6-592e1ed2a2e9","system_id":"levelo_inurba_marseille","lat":43.314773,"lon":5.384024,"is_reserved":false,"is_disabled":false,"rental_uris":{"android":"levelo://app?vid=24fc1e06-85ec-4e4d-88b6-592e1ed2a2e9","ios":"levelo://app?vid=24fc1e06-85ec-4e4d-88b6-592e1ed2a2e9"},"vehicle_type_id":"4","last_reported":1750137101,"current_range_meters":18000,"station_id":"","pricing_plan_id":"cebpf4jnsgd1na2vs0mg"},{"bike_id":"100683dd-b313-461e-990f-2c58a0f30859","system_id":"levelo_inurba_marseille","lat":43.30879,"lon":5.37208,"is_reserved":false,"is_disabled":false,"rental_uris":{"android":"levelo://app?vid=100683dd-b313-461e-990f-2c58a0f30859","ios":"levelo://app?vid=100683dd-b313-461e-990f-2c58a0f30859"},"vehicle_type_id":"4","last_reported":1750137101,"current_range_meters":18000,"station_id":"ce4bguh2rcd13ifvqckg","pricing_plan_id":"cebpf4jnsgd1na2vs0mg"},{"bike_id":"17a652bb-5d33-4aac-80f2-ac76f91930f4","system_id":"levelo_inurba_marseille","lat":43.29893,"lon":5.39744,"is_reserved":false,"is_disabled":false,"rental_uris":{"android":"levelo://app?vid=17a652bb-5d33-4aac-80f2-ac76f91930f4","ios":"levelo://app?vid=17a652bb-5d33-4aac-80f2-ac76f91930f4"},"vehicle_type_id":"4","last_reported":1750137101,"current_range_meters":18000,"station_id":"ce4bh0h2rcd13ifvqd50","pricing_plan_id":"cebpf4jnsgd1na2vs0mg"},{"bike_id":"6fb9eb53-4009-4a7d-afc2-085c87fcfb5b","system_id":"levelo_inurba_marseille","lat":43.28146,"lon":5.42664,"is_reserved":false,"is_disabled":false,"rental_uris":{"android":"levelo://app?vid=6fb9eb53-4009-4a7d-afc2-085c87fcfb5b","ios":"levelo://app?vid=6fb9eb53-4009-4a7d-afc2-085c87fcfb5b"},"vehicle_type_id":"4","last_reported":1750137101,"current_range_meters":18000,"station_id":"ce4bhnh2rcd13ifvqgug","pricing_plan_id":"cebpf4jnsgd1na2vs0mg"},{"bike_id":"2f0f7865-53e4-4955-8eb9-1bb98bf95595","system_id":"levelo_inurba_marseille","lat":43.317652,"lon":5.375769,"is_reserved":false,"is_disabled":false,"rental_uris":{"android":"levelo://app?vid=2f0f7865-53e4-4955-8eb9-1bb98bf95595","ios":"levelo://app?vid=2f0f7865-53e4-4955-8eb9-1bb98bf95595"},"vehicle_type_id":"4","last_reported":1750137101,"current_range_meters":18800,"station_id":"","pricing_plan_id":"cebpf4jnsgd1na2vs0mg"},{"bike_id":"28da8b92-f209-4378-9080-73750680ec6e","system_id":"levelo_inurba_marseille","lat":43.231262,"lon":5.355103,"is_reserved":false,"is_disabled":false,"rental_uris":{"android":"levelo://app?vid=28da8b92-f209-4378-9080-73750680ec6e","ios":"levelo://app?vid=28da8b92-f209-4378-9080-73750680ec6e"},"vehicle_type_id":"4","last_reported":1750137101,"current_range_meters":18800,"station_id":"","pricing_plan_id":"cebpf4jnsgd1na2vs0mg"},{"bike_id":"fb87a7f0-921e-48dd-b09b-f344c4c3d1fd","system_id":"levelo_inurba_marseille","lat":43.30934,"lon":5.40149,"is_reserved":false,"is_disabled":false,"rental_uris":{"android":"levelo://app?vid=fb87a7f0-921e-48dd-b09b-f344c4c3d1fd","ios":"levelo://app?vid=fb87a7f0-921e-48dd-b09b-f344c4c3d1fd"},"vehicle_type_id":"4","last_reported":1750137101,"current_range_meters":18800,"station_id":"ce4bgvp2rcd13ifvqct0","pricing_plan_id":"cebpf4jnsgd1na2vs0mg"},{"bike_id":"f64a08f0-ea27-4436-82c5-8cd4b809476a","system_id":"levelo_inurba_marseille","lat":43.30879,"lon":5.39629,"is_reserved":false,"is_disabled":false,"rental_uris":{"android":"levelo://app?vid=f64a08f0-ea27-4436-82c5-8cd4b809476a","ios":"levelo://app?vid=f64a08f0-ea27-4436-82c5-8cd4b809476a"},"vehicle_type_id":"4","last_reported":1750137101,"current_range_meters":18800,"station_id":"ce4bh012rcd13ifvqcv0","pricing_plan_id":"cebpf4jnsgd1na2vs0mg"},{"bike_id":"b852acf4-630f-4cbe-b615-906c499e36bf","system_id":"levelo_inurba_marseille","lat":43.28574,"lon":5.39485,"is_reserved":false,"is_disabled":false,"rental_uris":{"android":"levelo://app?vid=b852acf4-630f-4cbe-b615-906c499e36bf","ios":"levelo://app?vid=b852acf4-630f-4cbe-b615-906c499e36bf"},"vehicle_type_id":"4","last_reported":1750137101,"current_range_meters":18800,"station_id":"ce4bh292rcd13ifvqdg0","pricing_plan_id":"cebpf4jnsgd1na2vs0mg"},{"bike_id":"09f1a4b5-0afb-4b27-8012-3bdbd5422b02","system_id":"levelo_inurba_marseille","lat":43.29285,"lon":5.40142,"is_reserved":false,"is_disabled":false,"rental_uris":{"android":"levelo://app?vid=09f1a4b5-0afb-4b27-8012-3bdbd5422b02","ios":"levelo://app?vid=09f1a4b5-0afb-4b27-8012-3bdbd5422b02"},"vehicle_type_id":"4","last_reported":1750137101,"current_range_meters":18800,"station_id":"ce4bh312rcd13ifvqdk0","pricing_plan_id":"cebpf4jnsgd1na2vs0mg"},{"bike_id":"c0f9d178-7659-4450-945d-f2e239d96213","system_id":"levelo_inurba_marseille","lat":43.25706,"lon":5.41121,"is_reserved":false,"is_disabled":false,"rental_uris":{"android":"levelo://app?vid=c0f9d178-7659-4450-945d-f2e239d96213","ios":"levelo://app?vid=c0f9d178-7659-4450-945d-f2e239d96213"},"vehicle_type_id":"4","last_reported":1750137101,"current_range_meters":18800,"station_id":"ce4bhkp2rcd13ifvqgd0","pricing_plan_id":"cebpf4jnsgd1na2vs0mg"},{"bike_id":"cf96569c-8aed-4094-b5c5-fe00b8ebf061","system_id":"levelo_inurba_marseille","lat":43.23192,"lon":5.355625,"is_reserved":false,"is_disabled":false,"rental_uris":{"android":"levelo://app?vid=cf96569c-8aed-4094-b5c5-fe00b8ebf061","ios":"levelo://app?vid=cf96569c-8aed-4094-b5c5-fe00b8ebf061"},"vehicle_type_id":"4","last_reported":1750137101,"current_range_meters":18800,"station_id":"ce4bhu92rcd13ifvqi70","pricing_plan_id":"cebpf4jnsgd1na2vs0mg"},{"bike_id":"d07b1e20-0d78-4f0c-887a-08ea9924ddfc","system_id":"levelo_inurba_marseille","lat":43.297864,"lon":5.393471,"is_reserved":false,"is_disabled":false,"rental_uris":{"android":"levelo://app?vid=d07b1e20-0d78-4f0c-887a-08ea9924ddfc","ios":"levelo://app?vid=d07b1e20-0d78-4f0c-887a-08ea9924ddfc"},"vehicle_type_id":"4","last_reported":1750137101,"current_range_meters":18800,"station_id":"chh1huq6cuj3fo74tm60","pricing_plan_id":"cebpf4jnsgd1na2vs0mg"},{"bike_id":"a1b65cf3-a5c0-43d5-82e9-bc3fe8fe034a","system_id":"levelo_inurba_marseille","lat":43.30379,"lon":5.38921,"is_reserved":false,"is_disabled":false,"rental_uris":{"android":"levelo://app?vid=a1b65cf3-a5c0-43d5-82e9-bc3fe8fe034a","ios":"levelo://app?vid=a1b65cf3-a5c0-43d5-82e9-bc3fe8fe034a"},"vehicle_type_id":"4","last_reported":1750137101,"current_range_meters":19200,"station_id":"","pricing_plan_id":"cebpf4jnsgd1na2vs0mg"},{"bike_id":"716ea4ba-1b5d-4bba-a367-169341690a29","system_id":"levelo_inurba_marseille","lat":43.30803,"lon":5.38128,"is_reserved":false,"is_disabled":false,"rental_uris":{"android":"levelo://app?vid=716ea4ba-1b5d-4bba-a367-169341690a29","ios":"levelo://app?vid=716ea4ba-1b5d-4bba-a367-169341690a29"},"vehicle_type_id":"4","last_reported":1750137101,"current_range_meters":19200,"station_id":"ce4bgt12rcd13ifvqce0","pricing_plan_id":"cebpf4jnsgd1na2vs0mg"},{"bike_id":"e017f5c8-a67f-4209-b1cd-e12d507e54e5","system_id":"levelo_inurba_marseille","lat":43.28404,"lon":5.37516,"is_reserved":false,"is_disabled":false,"rental_uris":{"android":"levelo://app?vid=e017f5c8-a67f-4209-b1cd-e12d507e54e5","ios":"levelo://app?vid=e017f5c8-a67f-4209-b1cd-e12d507e54e5"},"vehicle_type_id":"4","last_reported":1750137101,"current_range_meters":19200,"station_id":"ce4bh412rcd13ifvqds0","pricing_plan_id":"cebpf4jnsgd1na2vs0mg"},{"bike_id":"c37c74d5-b316-4990-b2e5-47bd7a3cd617","system_id":"levelo_inurba_marseille","lat":43.2791,"lon":5.39581,"is_reserved":false,"is_disabled":false,"rental_uris":{"android":"levelo://app?vid=c37c74d5-b316-4990-b2e5-47bd7a3cd617","ios":"levelo://app?vid=c37c74d5-b316-4990-b2e5-47bd7a3cd617"},"vehicle_type_id":"4","last_reported":1750137101,"current_range_meters":19200,"station_id":"ce4bhf92rcd13ifvqf40","pricing_plan_id":"cebpf4jnsgd1na2vs0mg"},{"bike_id":"5cbdd979-131e-4b0a-a5c9-96ef156802c9","system_id":"levelo_inurba_marseille","lat":43.28433,"lon":5.39214,"is_reserved":false,"is_disabled":false,"rental_uris":{"android":"levelo://app?vid=5cbdd979-131e-4b0a-a5c9-96ef156802c9","ios":"levelo://app?vid=5cbdd979-131e-4b0a-a5c9-96ef156802c9"},"vehicle_type_id":"4","last_reported":1750137101,"current_range_meters":19200,"station_id":"ce4bhoh2rcd13ifvqh5g","pricing_plan_id":"cebpf4jnsgd1na2vs0mg"},{"bike_id":"cc8086c3-023b-4662-b7ba-91199240f1a1","system_id":"levelo_inurba_marseille","lat":43.23054,"lon":5.35498,"is_reserved":false,"is_disabled":false,"rental_uris":{"android":"levelo://app?vid=cc8086c3-023b-4662-b7ba-91199240f1a1","ios":"levelo://app?vid=cc8086c3-023b-4662-b7ba-91199240f1a1"},"vehicle_type_id":"4","last_reported":1750137101,"current_range_meters":19200,"station_id":"cpo3342slgdg3j2ifvpg","pricing_plan_id":"cebpf4jnsgd1na2vs0mg"},{"bike_id":"4cda9327-46c6-426e-87dd-c291d5dc5ff7","system_id":"levelo_inurba_marseille","lat":43.211935,"lon":5.350746,"is_reserved":false,"is_disabled":false,"rental_uris":{"android":"levelo://app?vid=4cda9327-46c6-426e-87dd-c291d5dc5ff7","ios":"levelo://app?vid=4cda9327-46c6-426e-87dd-c291d5dc5ff7"},"vehicle_type_id":"4","last_reported":1750137101,"current_range_meters":19200,"station_id":"st_cvj6sg6p6f1abm77japg","pricing_plan_id":"cebpf4jnsgd1na2vs0mg"},{"bike_id":"4ce5b165-f22d-40cf-abd3-1cb294861955","system_id":"levelo_inurba_marseille","lat":43.212119,"lon":5.350757,"is_reserved":false,"is_disabled":false,"rental_uris":{"android":"levelo://app?vid=4ce5b165-f22d-40cf-abd3-1cb294861955","ios":"levelo://app?vid=4ce5b165-f22d-40cf-abd3-1cb294861955"},"vehicle_type_id":"4","last_reported":1750137101,"current_range_meters":19600,"station_id":"","pricing_plan_id":"cebpf4jnsgd1na2vs0mg"},{"bike_id":"813d3762-241e-403b-abe2-c413a95e1526","system_id":"levelo_inurba_marseille","lat":43.29277,"lon":5.40123,"is_reserved":false,"is_disabled":false,"rental_uris":{"android":"levelo://app?vid=813d3762-241e-403b-abe2-c413a95e1526","ios":"levelo://app?vid=813d3762-241e-403b-abe2-c413a95e1526"},"vehicle_type_id":"4","last_reported":1750137101,"current_range_meters":19600,"station_id":"ce4bh312rcd13ifvqdk0","pricing_plan_id":"cebpf4jnsgd1na2vs0mg"},{"bike_id":"d399bea0-3b51-4ee2-9da7-b5b9d3f784e9","system_id":"levelo_inurba_marseille","lat":43.28387,"lon":5.37481,"is_reserved":false,"is_disabled":false,"rental_uris":{"android":"levelo://app?vid=d399bea0-3b51-4ee2-9da7-b5b9d3f784e9","ios":"levelo://app?vid=d399bea0-3b51-4ee2-9da7-b5b9d3f784e9"},"vehicle_type_id":"4","last_reported":1750137101,"current_range_meters":19600,"station_id":"ce4bh412rcd13ifvqds0","pricing_plan_id":"cebpf4jnsgd1na2vs0mg"},{"bike_id":"8bebee88-80dc-48af-b897-da21df684528","system_id":"levelo_inurba_marseille","lat":43.24802,"lon":5.37497,"is_reserved":false,"is_disabled":false,"rental_uris":{"android":"levelo://app?vid=8bebee88-80dc-48af-b897-da21df684528","ios":"levelo://app?vid=8bebee88-80dc-48af-b897-da21df684528"},"vehicle_type_id":"4","last_reported":1750137101,"current_range_meters":19600,"station_id":"ce4bhgh2rcd13ifvqfb0","pricing_plan_id":"cebpf4jnsgd1na2vs0mg"},{"bike_id":"5561678b-fddd-4943-82df-5b5ee2cb1e26","system_id":"levelo_inurba_marseille","lat":43.28727,"lon":5.40028,"is_reserved":false,"is_disabled":false,"rental_uris":{"android":"levelo://app?vid=5561678b-fddd-4943-82df-5b5ee2cb1e26","ios":"levelo://app?vid=5561678b-fddd-4943-82df-5b5ee2cb1e26"},"vehicle_type_id":"4","last_reported":1750137101,"current_range_meters":19600,"station_id":"ce4bho92rcd13ifvqh3g","pricing_plan_id":"cebpf4jnsgd1na2vs0mg"},{"bike_id":"66f2bb4f-c7bc-4352-8154-9dd7fb565a75","system_id":"levelo_inurba_marseille","lat":43.315282,"lon":5.380342,"is_reserved":false,"is_disabled":false,"rental_uris":{"android":"levelo://app?vid=66f2bb4f-c7bc-4352-8154-9dd7fb565a75","ios":"levelo://app?vid=66f2bb4f-c7bc-4352-8154-9dd7fb565a75"},"vehicle_type_id":"4","last_reported":1750137101,"current_range_meters":19600,"station_id":"ce4bhsp2rcd13ifvqi50","pricing_plan_id":"cebpf4jnsgd1na2vs0mg"},{"bike_id":"653a05d9-205d-420f-b0c9-a638667f0917","system_id":"levelo_inurba_marseille","lat":43.211841,"lon":5.350837,"is_reserved":false,"is_disabled":false,"rental_uris":{"android":"levelo://app?vid=653a05d9-205d-420f-b0c9-a638667f0917","ios":"levelo://app?vid=653a05d9-205d-420f-b0c9-a638667f0917"},"vehicle_type_id":"4","last_reported":1750137101,"current_range_meters":19600,"station_id":"st_cvj6sg6p6f1abm77japg","pricing_plan_id":"cebpf4jnsgd1na2vs0mg"},{"bike_id":"778bfcea-25e5-406c-8cbe-c80ec7c3b00f","system_id":"levelo_inurba_marseille","lat":43.33733,"lon":5.35582,"is_reserved":false,"is_disabled":false,"rental_uris":{"android":"levelo://app?vid=778bfcea-25e5-406c-8cbe-c80ec7c3b00f","ios":"levelo://app?vid=778bfcea-25e5-406c-8cbe-c80ec7c3b00f"},"vehicle_type_id":"4","last_reported":1750137101,"current_range_meters":20000,"station_id":"","pricing_plan_id":"cebpf4jnsgd1na2vs0mg"},{"bike_id":"3a3c0798-67af-41c2-8611-325c0b3cd12d","system_id":"levelo_inurba_marseille","lat":43.316951,"lon":5.40463,"is_reserved":false,"is_disabled":false,"rental_uris":{"android":"levelo://app?vid=3a3c0798-67af-41c2-8611-325c0b3cd12d","ios":"levelo://app?vid=3a3c0798-67af-41c2-8611-325c0b3cd12d"},"vehicle_type_id":"4","last_reported":1750137101,"current_range_meters":20000,"station_id":"ce4bh012rcd13ifvqd00","pricing_plan_id":"cebpf4jnsgd1na2vs0mg"},{"bike_id":"42182cad-b747-44dd-9120-a56f6d817eda","system_id":"levelo_inurba_marseille","lat":43.292476,"lon":5.409075,"is_reserved":false,"is_disabled":false,"rental_uris":{"android":"levelo://app?vid=42182cad-b747-44dd-9120-a56f6d817eda","ios":"levelo://app?vid=42182cad-b747-44dd-9120-a56f6d817eda"},"vehicle_type_id":"4","last_reported":1750137101,"current_range_meters":20000,"station_id":"ce4bh192rcd13ifvqdc0","pricing_plan_id":"cebpf4jnsgd1na2vs0mg"},{"bike_id":"f38e892a-0460-49d9-90a5-67ee9c8cf7ef","system_id":"levelo_inurba_marseille","lat":43.28934,"lon":5.3663,"is_reserved":false,"is_disabled":false,"rental_uris":{"android":"levelo://app?vid=f38e892a-0460-49d9-90a5-67ee9c8cf7ef","ios":"levelo://app?vid=f38e892a-0460-49d9-90a5-67ee9c8cf7ef"},"vehicle_type_id":"4","last_reported":1750137101,"current_range_meters":20000,"station_id":"ce4bhap2rcd13ifvqek0","pricing_plan_id":"cebpf4jnsgd1na2vs0mg"},{"bike_id":"56409d88-4244-4a08-b64b-270b9f2bfed2","system_id":"levelo_inurba_marseille","lat":43.25103,"lon":5.40329,"is_reserved":false,"is_disabled":false,"rental_uris":{"android":"levelo://app?vid=56409d88-4244-4a08-b64b-270b9f2bfed2","ios":"levelo://app?vid=56409d88-4244-4a08-b64b-270b9f2bfed2"},"vehicle_type_id":"4","last_reported":1750137101,"current_range_meters":20000,"station_id":"ce4bhlh2rcd13ifvqgig","pricing_plan_id":"cebpf4jnsgd1na2vs0mg"},{"bike_id":"aa2e19bd-615c-484b-868a-f5c12f1cd7d5","system_id":"levelo_inurba_marseille","lat":43.31991,"lon":5.38129,"is_reserved":false,"is_disabled":false,"rental_uris":{"android":"levelo://app?vid=aa2e19bd-615c-484b-868a-f5c12f1cd7d5","ios":"levelo://app?vid=aa2e19bd-615c-484b-868a-f5c12f1cd7d5"},"vehicle_type_id":"4","last_reported":1750137101,"current_range_meters":20000,"station_id":"ce4bhr12rcd13ifvqhpg","pricing_plan_id":"cebpf4jnsgd1na2vs0mg"},{"bike_id":"1780e693-8d7b-41c0-8c1d-65b6aecb08cd","system_id":"levelo_inurba_marseille","lat":43.30628,"lon":5.39215,"is_reserved":false,"is_disabled":false,"rental_uris":{"android":"levelo://app?vid=1780e693-8d7b-41c0-8c1d-65b6aecb08cd","ios":"levelo://app?vid=1780e693-8d7b-41c0-8c1d-65b6aecb08cd"},"vehicle_type_id":"4","last_reported":1750137101,"current_range_meters":20400,"station_id":"","pricing_plan_id":"cebpf4jnsgd1na2vs0mg"},{"bike_id":"268aafb4-1331-426c-97bc-a7d6564caeb6","system_id":"levelo_inurba_marseille","lat":43.32918,"lon":5.37923,"is_reserved":false,"is_disabled":false,"rental_uris":{"android":"levelo://app?vid=268aafb4-1331-426c-97bc-a7d6564caeb6","ios":"levelo://app?vid=268aafb4-1331-426c-97bc-a7d6564caeb6"},"vehicle_type_id":"4","last_reported":1750137101,"current_range_meters":20400,"station_id":"","pricing_plan_id":"cebpf4jnsgd1na2vs0mg"},{"bike_id":"9c094116-73b8-45db-84ca-72c6ef9f9b32","system_id":"levelo_inurba_marseille","lat":43.3018,"lon":5.36604,"is_reserved":false,"is_disabled":false,"rental_uris":{"android":"levelo://app?vid=9c094116-73b8-45db-84ca-72c6ef9f9b32","ios":"levelo://app?vid=9c094116-73b8-45db-84ca-72c6ef9f9b32"},"vehicle_type_id":"4","last_reported":1750137101,"current_range_meters":20400,"station_id":"ce4bgrh2rcd13ifvqc8g","pricing_plan_id":"cebpf4jnsgd1na2vs0mg"},{"bike_id":"3a488da2-3f8f-40a2-92dc-6e2b3760cc76","system_id":"levelo_inurba_marseille","lat":43.3089,"lon":5.39628,"is_reserved":false,"is_disabled":false,"rental_uris":{"android":"levelo://app?vid=3a488da2-3f8f-40a2-92dc-6e2b3760cc76","ios":"levelo://app?vid=3a488da2-3f8f-40a2-92dc-6e2b3760cc76"},"vehicle_type_id":"4","last_reported":1750137101,"current_range_meters":20400,"station_id":"ce4bh012rcd13ifvqcv0","pricing_plan_id":"cebpf4jnsgd1na2vs0mg"},{"bike_id":"b8d9af59-c8b9-4218-a8fd-7c52ba631e1d","system_id":"levelo_inurba_marseille","lat":43.28427,"lon":5.37539,"is_reserved":false,"is_disabled":false,"rental_uris":{"android":"levelo://app?vid=b8d9af59-c8b9-4218-a8fd-7c52ba631e1d","ios":"levelo://app?vid=b8d9af59-c8b9-4218-a8fd-7c52ba631e1d"},"vehicle_type_id":"4","last_reported":1750137101,"current_range_meters":20400,"station_id":"ce4bh412rcd13ifvqds0","pricing_plan_id":"cebpf4jnsgd1na2vs0mg"},{"bike_id":"0011ed49-6c5a-48f9-8e30-9e3464fa0f6d","system_id":"levelo_inurba_marseille","lat":43.272073,"lon":5.391979,"is_reserved":false,"is_disabled":false,"rental_uris":{"android":"levelo://app?vid=0011ed49-6c5a-48f9-8e30-9e3464fa0f6d","ios":"levelo://app?vid=0011ed49-6c5a-48f9-8e30-9e3464fa0f6d"},"vehicle_type_id":"4","last_reported":1750137101,"current_range_meters":20400,"station_id":"ce4bhhp2rcd13ifvqfm0","pricing_plan_id":"cebpf4jnsgd1na2vs0mg"},{"bike_id":"e9d27dbb-b472-49a3-90c0-df620dafc38c","system_id":"levelo_inurba_marseille","lat":43.27049,"lon":5.402657,"is_reserved":false,"is_disabled":false,"rental_uris":{"android":"levelo://app?vid=e9d27dbb-b472-49a3-90c0-df620dafc38c","ios":"levelo://app?vid=e9d27dbb-b472-49a3-90c0-df620dafc38c"},"vehicle_type_id":"4","last_reported":1750137101,"current_range_meters":20400,"station_id":"ce4bhk92rcd13ifvqgc0","pricing_plan_id":"cebpf4jnsgd1na2vs0mg"},{"bike_id":"166ed9da-7336-4c64-bd80-f40b80b64f44","system_id":"levelo_inurba_marseille","lat":43.27052,"lon":5.40264,"is_reserved":false,"is_disabled":false,"rental_uris":{"android":"levelo://app?vid=166ed9da-7336-4c64-bd80-f40b80b64f44","ios":"levelo://app?vid=166ed9da-7336-4c64-bd80-f40b80b64f44"},"vehicle_type_id":"4","last_reported":1750137101,"current_range_meters":20800,"station_id":"ce4bhk92rcd13ifvqgc0","pricing_plan_id":"cebpf4jnsgd1na2vs0mg"},{"bike_id":"d7987234-e762-4761-860c-4f795787f028","system_id":"levelo_inurba_marseille","lat":43.217513,"lon":5.346016,"is_reserved":false,"is_disabled":false,"rental_uris":{"android":"levelo://app?vid=d7987234-e762-4761-860c-4f795787f028","ios":"levelo://app?vid=d7987234-e762-4761-860c-4f795787f028"},"vehicle_type_id":"4","last_reported":1750137101,"current_range_meters":20800,"station_id":"st_cvj6r9ubvosntc0bgbag","pricing_plan_id":"cebpf4jnsgd1na2vs0mg"},{"bike_id":"fe889d36-78a3-4176-9a94-2c94c6faed7c","system_id":"levelo_inurba_marseille","lat":43.292789,"lon":5.401292,"is_reserved":false,"is_disabled":false,"rental_uris":{"android":"levelo://app?vid=fe889d36-78a3-4176-9a94-2c94c6faed7c","ios":"levelo://app?vid=fe889d36-78a3-4176-9a94-2c94c6faed7c"},"vehicle_type_id":"4","last_reported":1750137101,"current_range_meters":21600,"station_id":"ce4bh312rcd13ifvqdk0","pricing_plan_id":"cebpf4jnsgd1na2vs0mg"},{"bike_id":"7a0dc921-c48b-4862-93c1-8f13438a8551","system_id":"levelo_inurba_marseille","lat":43.28926,"lon":5.39622,"is_reserved":false,"is_disabled":false,"rental_uris":{"android":"levelo://app?vid=7a0dc921-c48b-4862-93c1-8f13438a8551","ios":"levelo://app?vid=7a0dc921-c48b-4862-93c1-8f13438a8551"},"vehicle_type_id":"4","last_reported":1750137101,"current_range_meters":21600,"station_id":"ce4bh3h2rcd13ifvqdn0","pricing_plan_id":"cebpf4jnsgd1na2vs0mg"},{"bike_id":"9470d43a-c0bf-4d78-ba38-11e86d2af9ca","system_id":"levelo_inurba_marseille","lat":43.323639,"lon":5.388867,"is_reserved":false,"is_disabled":false,"rental_uris":{"android":"levelo://app?vid=9470d43a-c0bf-4d78-ba38-11e86d2af9ca","ios":"levelo://app?vid=9470d43a-c0bf-4d78-ba38-11e86d2af9ca"},"vehicle_type_id":"4","last_reported":1750137101,"current_range_meters":21600,"station_id":"ce4bhqp2rcd13ifvqhog","pricing_plan_id":"cebpf4jnsgd1na2vs0mg"},{"bike_id":"a8f9e697-30cf-458f-bd47-e14782fac29b","system_id":"levelo_inurba_marseille","lat":43.309082,"lon":5.374394,"is_reserved":false,"is_disabled":false,"rental_uris":{"android":"levelo://app?vid=a8f9e697-30cf-458f-bd47-e14782fac29b","ios":"levelo://app?vid=a8f9e697-30cf-458f-bd47-e14782fac29b"},"vehicle_type_id":"4","last_reported":1750137101,"current_range_meters":22000,"station_id":"","pricing_plan_id":"cebpf4jnsgd1na2vs0mg"},{"bike_id":"eb2339e3-4629-4206-8a0b-9a8112c3a3c9","system_id":"levelo_inurba_marseille","lat":43.3013,"lon":5.387753,"is_reserved":false,"is_disabled":false,"rental_uris":{"android":"levelo://app?vid=eb2339e3-4629-4206-8a0b-9a8112c3a3c9","ios":"levelo://app?vid=eb2339e3-4629-4206-8a0b-9a8112c3a3c9"},"vehicle_type_id":"4","last_reported":1750137101,"current_range_meters":22000,"station_id":"ce4bghh2rcd13ifvqb60","pricing_plan_id":"cebpf4jnsgd1na2vs0mg"},{"bike_id":"8af507f7-5c51-4384-8831-dbdb29e58e4e","system_id":"levelo_inurba_marseille","lat":43.27922,"lon":5.39599,"is_reserved":false,"is_disabled":false,"rental_uris":{"android":"levelo://app?vid=8af507f7-5c51-4384-8831-dbdb29e58e4e","ios":"levelo://app?vid=8af507f7-5c51-4384-8831-dbdb29e58e4e"},"vehicle_type_id":"4","last_reported":1750137101,"current_range_meters":22000,"station_id":"ce4bhf92rcd13ifvqf40","pricing_plan_id":"cebpf4jnsgd1na2vs0mg"},{"bike_id":"456e3e01-d483-4af3-ad8c-fac20db5c110","system_id":"levelo_inurba_marseille","lat":43.24161,"lon":5.39694,"is_reserved":false,"is_disabled":false,"rental_uris":{"android":"levelo://app?vid=456e3e01-d483-4af3-ad8c-fac20db5c110","ios":"levelo://app?vid=456e3e01-d483-4af3-ad8c-fac20db5c110"},"vehicle_type_id":"4","last_reported":1750137101,"current_range_meters":22000,"station_id":"ce4bhn12rcd13ifvqgpg","pricing_plan_id":"cebpf4jnsgd1na2vs0mg"},{"bike_id":"76912262-c44d-47b8-94c3-e4d99c80dc3d","system_id":"levelo_inurba_marseille","lat":43.232,"lon":5.35551,"is_reserved":false,"is_disabled":false,"rental_uris":{"android":"levelo://app?vid=76912262-c44d-47b8-94c3-e4d99c80dc3d","ios":"levelo://app?vid=76912262-c44d-47b8-94c3-e4d99c80dc3d"},"vehicle_type_id":"4","last_reported":1750137101,"current_range_meters":22000,"station_id":"ce4bhu92rcd13ifvqi70","pricing_plan_id":"cebpf4jnsgd1na2vs0mg"},{"bike_id":"47f5aa7d-41fc-4e6d-8238-9595382505b0","system_id":"levelo_inurba_marseille","lat":43.24478,"lon":5.36939,"is_reserved":false,"is_disabled":false,"rental_uris":{"android":"levelo://app?vid=47f5aa7d-41fc-4e6d-8238-9595382505b0","ios":"levelo://app?vid=47f5aa7d-41fc-4e6d-8238-9595382505b0"},"vehicle_type_id":"4","last_reported":1750137101,"current_range_meters":22400,"station_id":"","pricing_plan_id":"cebpf4jnsgd1na2vs0mg"},{"bike_id":"61e5b247-4a6a-40ce-bee4-ccd2e39a1f4c","system_id":"levelo_inurba_marseille","lat":43.309297,"lon":5.401483,"is_reserved":false,"is_disabled":false,"rental_uris":{"android":"levelo://app?vid=61e5b247-4a6a-40ce-bee4-ccd2e39a1f4c","ios":"levelo://app?vid=61e5b247-4a6a-40ce-bee4-ccd2e39a1f4c"},"vehicle_type_id":"4","last_reported":1750137101,"current_range_meters":22400,"station_id":"ce4bgvp2rcd13ifvqct0","pricing_plan_id":"cebpf4jnsgd1na2vs0mg"},{"bike_id":"f2598f22-463f-4b92-9c7a-4b9cb09add73","system_id":"levelo_inurba_marseille","lat":43.28033,"lon":5.36938,"is_reserved":false,"is_disabled":false,"rental_uris":{"android":"levelo://app?vid=f2598f22-463f-4b92-9c7a-4b9cb09add73","ios":"levelo://app?vid=f2598f22-463f-4b92-9c7a-4b9cb09add73"},"vehicle_type_id":"4","last_reported":1750137101,"current_range_meters":22400,"station_id":"ce4bha12rcd13ifvqef0","pricing_plan_id":"cebpf4jnsgd1na2vs0mg"},{"bike_id":"dde7dbd4-3d1c-47f7-9bd0-614336f312de","system_id":"levelo_inurba_marseille","lat":43.28415,"lon":5.34976,"is_reserved":false,"is_disabled":false,"rental_uris":{"android":"levelo://app?vid=dde7dbd4-3d1c-47f7-9bd0-614336f312de","ios":"levelo://app?vid=dde7dbd4-3d1c-47f7-9bd0-614336f312de"},"vehicle_type_id":"4","last_reported":1750137101,"current_range_meters":22400,"station_id":"ce4bhbh2rcd13ifvqepg","pricing_plan_id":"cebpf4jnsgd1na2vs0mg"},{"bike_id":"5885bf1a-003e-439e-b91b-f9fa848e9187","system_id":"levelo_inurba_marseille","lat":43.24072,"lon":5.37747,"is_reserved":false,"is_disabled":false,"rental_uris":{"android":"levelo://app?vid=5885bf1a-003e-439e-b91b-f9fa848e9187","ios":"levelo://app?vid=5885bf1a-003e-439e-b91b-f9fa848e9187"},"vehicle_type_id":"4","last_reported":1750137101,"current_range_meters":22400,"station_id":"ce4bhnp2rcd13ifvqgvg","pricing_plan_id":"cebpf4jnsgd1na2vs0mg"},{"bike_id":"c15a171c-acd6-4943-9a40-d3e15b6b77ba","system_id":"levelo_inurba_marseille","lat":43.28725,"lon":5.40034,"is_reserved":false,"is_disabled":false,"rental_uris":{"android":"levelo://app?vid=c15a171c-acd6-4943-9a40-d3e15b6b77ba","ios":"levelo://app?vid=c15a171c-acd6-4943-9a40-d3e15b6b77ba"},"vehicle_type_id":"4","last_reported":1750137101,"current_range_meters":22400,"station_id":"ce4bho92rcd13ifvqh3g","pricing_plan_id":"cebpf4jnsgd1na2vs0mg"},{"bike_id":"dec2aafc-811c-4f0b-9708-ae041d3abcfb","system_id":"levelo_inurba_marseille","lat":43.3321,"lon":5.43033,"is_reserved":false,"is_disabled":false,"rental_uris":{"android":"levelo://app?vid=dec2aafc-811c-4f0b-9708-ae041d3abcfb","ios":"levelo://app?vid=dec2aafc-811c-4f0b-9708-ae041d3abcfb"},"vehicle_type_id":"4","last_reported":1750137101,"current_range_meters":22800,"station_id":"","pricing_plan_id":"cebpf4jnsgd1na2vs0mg"},{"bike_id":"bb0f5fcd-8224-47ec-9382-734e120e5bd9","system_id":"levelo_inurba_marseille","lat":43.30307,"lon":5.36896,"is_reserved":false,"is_disabled":false,"rental_uris":{"android":"levelo://app?vid=bb0f5fcd-8224-47ec-9382-734e120e5bd9","ios":"levelo://app?vid=bb0f5fcd-8224-47ec-9382-734e120e5bd9"},"vehicle_type_id":"4","last_reported":1750137101,"current_range_meters":22800,"station_id":"ce4bgqh2rcd13ifvqc5g","pricing_plan_id":"cebpf4jnsgd1na2vs0mg"},{"bike_id":"50f582e1-ccb0-4a09-8a4b-97224a6ee783","system_id":"levelo_inurba_marseille","lat":43.3063,"lon":5.40077,"is_reserved":false,"is_disabled":false,"rental_uris":{"android":"levelo://app?vid=50f582e1-ccb0-4a09-8a4b-97224a6ee783","ios":"levelo://app?vid=50f582e1-ccb0-4a09-8a4b-97224a6ee783"},"vehicle_type_id":"4","last_reported":1750137101,"current_range_meters":22800,"station_id":"ce4bh112rcd13ifvqda0","pricing_plan_id":"cebpf4jnsgd1na2vs0mg"},{"bike_id":"49e6495f-a78d-4cec-b6cf-1e535f00545a","system_id":"levelo_inurba_marseille","lat":43.248034,"lon":5.374624,"is_reserved":false,"is_disabled":false,"rental_uris":{"android":"levelo://app?vid=49e6495f-a78d-4cec-b6cf-1e535f00545a","ios":"levelo://app?vid=49e6495f-a78d-4cec-b6cf-1e535f00545a"},"vehicle_type_id":"4","last_reported":1750137101,"current_range_meters":22800,"station_id":"ce4bhgh2rcd13ifvqfb0","pricing_plan_id":"cebpf4jnsgd1na2vs0mg"},{"bike_id":"d390c927-876c-48c2-bf4e-c1a0554b1091","system_id":"levelo_inurba_marseille","lat":43.24548,"lon":5.39519,"is_reserved":false,"is_disabled":false,"rental_uris":{"android":"levelo://app?vid=d390c927-876c-48c2-bf4e-c1a0554b1091","ios":"levelo://app?vid=d390c927-876c-48c2-bf4e-c1a0554b1091"},"vehicle_type_id":"4","last_reported":1750137101,"current_range_meters":22800,"station_id":"ce4bhlp2rcd13ifvqgjg","pricing_plan_id":"cebpf4jnsgd1na2vs0mg"},{"bike_id":"61185e51-def2-4557-89b9-f06c340ff2e2","system_id":"levelo_inurba_marseille","lat":43.21177,"lon":5.3508,"is_reserved":false,"is_disabled":false,"rental_uris":{"android":"levelo://app?vid=61185e51-def2-4557-89b9-f06c340ff2e2","ios":"levelo://app?vid=61185e51-def2-4557-89b9-f06c340ff2e2"},"vehicle_type_id":"4","last_reported":1750137101,"current_range_meters":22800,"station_id":"st_cvj6sg6p6f1abm77japg","pricing_plan_id":"cebpf4jnsgd1na2vs0mg"},{"bike_id":"be70b461-b7f7-4763-9893-63d6c3c4aff4","system_id":"levelo_inurba_marseille","lat":43.30927,"lon":5.40138,"is_reserved":false,"is_disabled":false,"rental_uris":{"android":"levelo://app?vid=be70b461-b7f7-4763-9893-63d6c3c4aff4","ios":"levelo://app?vid=be70b461-b7f7-4763-9893-63d6c3c4aff4"},"vehicle_type_id":"4","last_reported":1750137101,"current_range_meters":23200,"station_id":"ce4bgvp2rcd13ifvqct0","pricing_plan_id":"cebpf4jnsgd1na2vs0mg"},{"bike_id":"d74df4cf-c79e-4994-b2a0-6d9610a9b099","system_id":"levelo_inurba_marseille","lat":43.31272,"lon":5.40163,"is_reserved":false,"is_disabled":false,"rental_uris":{"android":"levelo://app?vid=d74df4cf-c79e-4994-b2a0-6d9610a9b099","ios":"levelo://app?vid=d74df4cf-c79e-4994-b2a0-6d9610a9b099"},"vehicle_type_id":"4","last_reported":1750137101,"current_range_meters":23200,"station_id":"ce4bh092rcd13ifvqd30","pricing_plan_id":"cebpf4jnsgd1na2vs0mg"},{"bike_id":"c68ef335-f3ae-4dc8-b00f-4ee98db1f787","system_id":"levelo_inurba_marseille","lat":43.29261,"lon":5.38446,"is_reserved":false,"is_disabled":false,"rental_uris":{"android":"levelo://app?vid=c68ef335-f3ae-4dc8-b00f-4ee98db1f787","ios":"levelo://app?vid=c68ef335-f3ae-4dc8-b00f-4ee98db1f787"},"vehicle_type_id":"4","last_reported":1750137101,"current_range_meters":23200,"station_id":"ce4bh692rcd13ifvqea0","pricing_plan_id":"cebpf4jnsgd1na2vs0mg"},{"bike_id":"4599e6fe-5cf7-4fd9-acff-75d2139e3ff0","system_id":"levelo_inurba_marseille","lat":43.279149,"lon":5.395801,"is_reserved":false,"is_disabled":false,"rental_uris":{"android":"levelo://app?vid=4599e6fe-5cf7-4fd9-acff-75d2139e3ff0","ios":"levelo://app?vid=4599e6fe-5cf7-4fd9-acff-75d2139e3ff0"},"vehicle_type_id":"4","last_reported":1750137101,"current_range_meters":23200,"station_id":"ce4bhf92rcd13ifvqf40","pricing_plan_id":"cebpf4jnsgd1na2vs0mg"},{"bike_id":"c189e9ab-927a-4036-bda0-f1e05096b490","system_id":"levelo_inurba_marseille","lat":43.30695,"lon":5.42477,"is_reserved":false,"is_disabled":false,"rental_uris":{"android":"levelo://app?vid=c189e9ab-927a-4036-bda0-f1e05096b490","ios":"levelo://app?vid=c189e9ab-927a-4036-bda0-f1e05096b490"},"vehicle_type_id":"4","last_reported":1750137101,"current_range_meters":23200,"station_id":"st_cvj6ca6bvosntc0bfgr0","pricing_plan_id":"cebpf4jnsgd1na2vs0mg"},{"bike_id":"dc5eabff-d994-4946-ab2d-bbbe647d08d8","system_id":"levelo_inurba_marseille","lat":43.23963,"lon":5.36619,"is_reserved":false,"is_disabled":false,"rental_uris":{"android":"levelo://app?vid=dc5eabff-d994-4946-ab2d-bbbe647d08d8","ios":"levelo://app?vid=dc5eabff-d994-4946-ab2d-bbbe647d08d8"},"vehicle_type_id":"4","last_reported":1750137101,"current_range_meters":24000,"station_id":"ce4bhi12rcd13ifvqfp0","pricing_plan_id":"cebpf4jnsgd1na2vs0mg"},{"bike_id":"a530f248-191d-4037-95f1-64e5f5a56768","system_id":"levelo_inurba_marseille","lat":43.317239,"lon":5.423939,"is_reserved":false,"is_disabled":false,"rental_uris":{"android":"levelo://app?vid=a530f248-191d-4037-95f1-64e5f5a56768","ios":"levelo://app?vid=a530f248-191d-4037-95f1-64e5f5a56768"},"vehicle_type_id":"4","last_reported":1750137101,"current_range_meters":24000,"station_id":"ce4bhp92rcd13ifvqhbg","pricing_plan_id":"cebpf4jnsgd1na2vs0mg"},{"bike_id":"b1ef6d42-9c3f-4906-ae2b-31d5696e94be","system_id":"levelo_inurba_marseille","lat":43.258453,"lon":5.38868,"is_reserved":false,"is_disabled":false,"rental_uris":{"android":"levelo://app?vid=b1ef6d42-9c3f-4906-ae2b-31d5696e94be","ios":"levelo://app?vid=b1ef6d42-9c3f-4906-ae2b-31d5696e94be"},"vehicle_type_id":"4","last_reported":1750137101,"current_range_meters":24400,"station_id":"","pricing_plan_id":"cebpf4jnsgd1na2vs0mg"},{"bike_id":"e9484439-d020-4da0-b246-9540d7f8c174","system_id":"levelo_inurba_marseille","lat":43.29373,"lon":5.40697,"is_reserved":false,"is_disabled":false,"rental_uris":{"android":"levelo://app?vid=e9484439-d020-4da0-b246-9540d7f8c174","ios":"levelo://app?vid=e9484439-d020-4da0-b246-9540d7f8c174"},"vehicle_type_id":"4","last_reported":1750137101,"current_range_meters":24400,"station_id":"ce4bgvp2rcd13ifvqct0","pricing_plan_id":"cebpf4jnsgd1na2vs0mg"},{"bike_id":"1d300ca8-d864-432d-9c14-8e9ce168d948","system_id":"levelo_inurba_marseille","lat":43.30885,"lon":5.39647,"is_reserved":false,"is_disabled":false,"rental_uris":{"android":"levelo://app?vid=1d300ca8-d864-432d-9c14-8e9ce168d948","ios":"levelo://app?vid=1d300ca8-d864-432d-9c14-8e9ce168d948"},"vehicle_type_id":"4","last_reported":1750137101,"current_range_meters":24400,"station_id":"ce4bh012rcd13ifvqcv0","pricing_plan_id":"cebpf4jnsgd1na2vs0mg"},{"bike_id":"f8c6273c-cde3-4763-9ac0-66bd7601d277","system_id":"levelo_inurba_marseille","lat":43.30885,"lon":5.39653,"is_reserved":false,"is_disabled":false,"rental_uris":{"android":"levelo://app?vid=f8c6273c-cde3-4763-9ac0-66bd7601d277","ios":"levelo://app?vid=f8c6273c-cde3-4763-9ac0-66bd7601d277"},"vehicle_type_id":"4","last_reported":1750137101,"current_range_meters":24400,"station_id":"ce4bh012rcd13ifvqcv0","pricing_plan_id":"cebpf4jnsgd1na2vs0mg"},{"bike_id":"af189648-1119-4aa9-b985-ba18b49f72cb","system_id":"levelo_inurba_marseille","lat":43.286623,"lon":5.363537,"is_reserved":false,"is_disabled":false,"rental_uris":{"android":"levelo://app?vid=af189648-1119-4aa9-b985-ba18b49f72cb","ios":"levelo://app?vid=af189648-1119-4aa9-b985-ba18b49f72cb"},"vehicle_type_id":"4","last_reported":1750137101,"current_range_meters":24400,"station_id":"ce4bhah2rcd13ifvqej0","pricing_plan_id":"cebpf4jnsgd1na2vs0mg"},{"bike_id":"3a6826d7-a5de-455d-9e4d-8aaa32fa1e70","system_id":"levelo_inurba_marseille","lat":43.232004,"lon":5.35557,"is_reserved":false,"is_disabled":false,"rental_uris":{"android":"levelo://app?vid=3a6826d7-a5de-455d-9e4d-8aaa32fa1e70","ios":"levelo://app?vid=3a6826d7-a5de-455d-9e4d-8aaa32fa1e70"},"vehicle_type_id":"4","last_reported":1750137101,"current_range_meters":24400,"station_id":"ce4bhu92rcd13ifvqi70","pricing_plan_id":"cebpf4jnsgd1na2vs0mg"},{"bike_id":"9faf55fe-1e7f-43ab-8b2c-706b378e561c","system_id":"levelo_inurba_marseille","lat":43.211899,"lon":5.350689,"is_reserved":false,"is_disabled":false,"rental_uris":{"android":"levelo://app?vid=9faf55fe-1e7f-43ab-8b2c-706b378e561c","ios":"levelo://app?vid=9faf55fe-1e7f-43ab-8b2c-706b378e561c"},"vehicle_type_id":"4","last_reported":1750137101,"current_range_meters":24400,"station_id":"st_cvj6sg6p6f1abm77japg","pricing_plan_id":"cebpf4jnsgd1na2vs0mg"},{"bike_id":"543a4bbf-50b5-4481-891e-8196c16b5c68","system_id":"levelo_inurba_marseille","lat":43.24419,"lon":5.37135,"is_reserved":false,"is_disabled":false,"rental_uris":{"android":"levelo://app?vid=543a4bbf-50b5-4481-891e-8196c16b5c68","ios":"levelo://app?vid=543a4bbf-50b5-4481-891e-8196c16b5c68"},"vehicle_type_id":"4","last_reported":1750137101,"current_range_meters":24800,"station_id":"","pricing_plan_id":"cebpf4jnsgd1na2vs0mg"},{"bike_id":"27cd7138-8b58-4d27-b6bb-d957b614e63b","system_id":"levelo_inurba_marseille","lat":43.30158,"lon":5.3699,"is_reserved":false,"is_disabled":false,"rental_uris":{"android":"levelo://app?vid=27cd7138-8b58-4d27-b6bb-d957b614e63b","ios":"levelo://app?vid=27cd7138-8b58-4d27-b6bb-d957b614e63b"},"vehicle_type_id":"4","last_reported":1750137101,"current_range_meters":24800,"station_id":"","pricing_plan_id":"cebpf4jnsgd1na2vs0mg"},{"bike_id":"f1711418-bc1b-4963-a35a-035b8c601591","system_id":"levelo_inurba_marseille","lat":43.30544,"lon":5.38374,"is_reserved":false,"is_disabled":false,"rental_uris":{"android":"levelo://app?vid=f1711418-bc1b-4963-a35a-035b8c601591","ios":"levelo://app?vid=f1711418-bc1b-4963-a35a-035b8c601591"},"vehicle_type_id":"4","last_reported":1750137101,"current_range_meters":24800,"station_id":"ce4bgg92rcd13ifvqb30","pricing_plan_id":"cebpf4jnsgd1na2vs0mg"},{"bike_id":"d7999758-a44e-4c7d-8a48-2fa31343e03d","system_id":"levelo_inurba_marseille","lat":43.30489,"lon":5.37899,"is_reserved":false,"is_disabled":false,"rental_uris":{"android":"levelo://app?vid=d7999758-a44e-4c7d-8a48-2fa31343e03d","ios":"levelo://app?vid=d7999758-a44e-4c7d-8a48-2fa31343e03d"},"vehicle_type_id":"4","last_reported":1750137101,"current_range_meters":24800,"station_id":"ce4bgup2rcd13ifvqcn0","pricing_plan_id":"cebpf4jnsgd1na2vs0mg"},{"bike_id":"3876886e-dcbf-471a-a47e-21cc720e4768","system_id":"levelo_inurba_marseille","lat":43.30959,"lon":5.39032,"is_reserved":false,"is_disabled":false,"rental_uris":{"android":"levelo://app?vid=3876886e-dcbf-471a-a47e-21cc720e4768","ios":"levelo://app?vid=3876886e-dcbf-471a-a47e-21cc720e4768"},"vehicle_type_id":"4","last_reported":1750137101,"current_range_meters":24800,"station_id":"ce4bgup2rcd13ifvqco0","pricing_plan_id":"cebpf4jnsgd1na2vs0mg"},{"bike_id":"46e41d9c-2e1d-425c-ad8f-736b21e86fde","system_id":"levelo_inurba_marseille","lat":43.289321,"lon":5.366365,"is_reserved":false,"is_disabled":false,"rental_uris":{"android":"levelo://app?vid=46e41d9c-2e1d-425c-ad8f-736b21e86fde","ios":"levelo://app?vid=46e41d9c-2e1d-425c-ad8f-736b21e86fde"},"vehicle_type_id":"4","last_reported":1750137101,"current_range_meters":24800,"station_id":"ce4bhap2rcd13ifvqek0","pricing_plan_id":"cebpf4jnsgd1na2vs0mg"},{"bike_id":"6feb79f7-8c70-42b0-a002-5d5efa3b711d","system_id":"levelo_inurba_marseille","lat":43.231869,"lon":5.399884,"is_reserved":false,"is_disabled":false,"rental_uris":{"android":"levelo://app?vid=6feb79f7-8c70-42b0-a002-5d5efa3b711d","ios":"levelo://app?vid=6feb79f7-8c70-42b0-a002-5d5efa3b711d"},"vehicle_type_id":"4","last_reported":1750137101,"current_range_meters":24800,"station_id":"ce4bhn12rcd13ifvqgqg","pricing_plan_id":"cebpf4jnsgd1na2vs0mg"},{"bike_id":"7c9777ed-fb72-483c-b0e6-2621ff653be8","system_id":"levelo_inurba_marseille","lat":43.24066,"lon":5.37753,"is_reserved":false,"is_disabled":false,"rental_uris":{"android":"levelo://app?vid=7c9777ed-fb72-483c-b0e6-2621ff653be8","ios":"levelo://app?vid=7c9777ed-fb72-483c-b0e6-2621ff653be8"},"vehicle_type_id":"4","last_reported":1750137101,"current_range_meters":24800,"station_id":"ce4bhnp2rcd13ifvqgvg","pricing_plan_id":"cebpf4jnsgd1na2vs0mg"},{"bike_id":"11626033-0c59-451d-b68a-1cf2f9e0b607","system_id":"levelo_inurba_marseille","lat":43.28442,"lon":5.39196,"is_reserved":false,"is_disabled":false,"rental_uris":{"android":"levelo://app?vid=11626033-0c59-451d-b68a-1cf2f9e0b607","ios":"levelo://app?vid=11626033-0c59-451d-b68a-1cf2f9e0b607"},"vehicle_type_id":"4","last_reported":1750137101,"current_range_meters":24800,"station_id":"ce4bhoh2rcd13ifvqh5g","pricing_plan_id":"cebpf4jnsgd1na2vs0mg"},{"bike_id":"0e21630e-ce5d-4126-8347-9cb183fcbfac","system_id":"levelo_inurba_marseille","lat":43.31703,"lon":5.43699,"is_reserved":false,"is_disabled":false,"rental_uris":{"android":"levelo://app?vid=0e21630e-ce5d-4126-8347-9cb183fcbfac","ios":"levelo://app?vid=0e21630e-ce5d-4126-8347-9cb183fcbfac"},"vehicle_type_id":"4","last_reported":1750137101,"current_range_meters":24800,"station_id":"ce4bhp92rcd13ifvqhcg","pricing_plan_id":"cebpf4jnsgd1na2vs0mg"},{"bike_id":"52e65602-d022-4152-b258-a98a583db508","system_id":"levelo_inurba_marseille","lat":43.295178,"lon":5.375019,"is_reserved":false,"is_disabled":false,"rental_uris":{"android":"levelo://app?vid=52e65602-d022-4152-b258-a98a583db508","ios":"levelo://app?vid=52e65602-d022-4152-b258-a98a583db508"},"vehicle_type_id":"4","last_reported":1750137101,"current_range_meters":25200,"station_id":"","pricing_plan_id":"cebpf4jnsgd1na2vs0mg"},{"bike_id":"58a6d3de-dcb7-4727-83c6-7afe86e59e4d","system_id":"levelo_inurba_marseille","lat":43.28665,"lon":5.35456,"is_reserved":false,"is_disabled":false,"rental_uris":{"android":"levelo://app?vid=58a6d3de-dcb7-4727-83c6-7afe86e59e4d","ios":"levelo://app?vid=58a6d3de-dcb7-4727-83c6-7afe86e59e4d"},"vehicle_type_id":"4","last_reported":1750137101,"current_range_meters":25200,"station_id":"","pricing_plan_id":"cebpf4jnsgd1na2vs0mg"},{"bike_id":"e3575146-bf5c-4565-af13-4d19ee1d8e75","system_id":"levelo_inurba_marseille","lat":43.30935,"lon":5.40153,"is_reserved":false,"is_disabled":false,"rental_uris":{"android":"levelo://app?vid=e3575146-bf5c-4565-af13-4d19ee1d8e75","ios":"levelo://app?vid=e3575146-bf5c-4565-af13-4d19ee1d8e75"},"vehicle_type_id":"4","last_reported":1750137101,"current_range_meters":25200,"station_id":"ce4bgvp2rcd13ifvqct0","pricing_plan_id":"cebpf4jnsgd1na2vs0mg"},{"bike_id":"059f40fe-9efc-45dd-bdfa-44b2b8f610bd","system_id":"levelo_inurba_marseille","lat":43.303138,"lon":5.404478,"is_reserved":false,"is_disabled":false,"rental_uris":{"android":"levelo://app?vid=059f40fe-9efc-45dd-bdfa-44b2b8f610bd","ios":"levelo://app?vid=059f40fe-9efc-45dd-bdfa-44b2b8f610bd"},"vehicle_type_id":"4","last_reported":1750137101,"current_range_meters":25200,"station_id":"ce4bh012rcd13ifvqd10","pricing_plan_id":"cebpf4jnsgd1na2vs0mg"},{"bike_id":"d1824166-1363-4de4-9d59-856c376a5897","system_id":"levelo_inurba_marseille","lat":43.3081,"lon":5.43515,"is_reserved":false,"is_disabled":false,"rental_uris":{"android":"levelo://app?vid=d1824166-1363-4de4-9d59-856c376a5897","ios":"levelo://app?vid=d1824166-1363-4de4-9d59-856c376a5897"},"vehicle_type_id":"4","last_reported":1750137101,"current_range_meters":25200,"station_id":"ce4bhph2rcd13ifvqheg","pricing_plan_id":"cebpf4jnsgd1na2vs0mg"},{"bike_id":"672916b7-fc67-419b-841d-9db991dba8e5","system_id":"levelo_inurba_marseille","lat":43.29791,"lon":5.3936,"is_reserved":false,"is_disabled":false,"rental_uris":{"android":"levelo://app?vid=672916b7-fc67-419b-841d-9db991dba8e5","ios":"levelo://app?vid=672916b7-fc67-419b-841d-9db991dba8e5"},"vehicle_type_id":"4","last_reported":1750137101,"current_range_meters":25200,"station_id":"chh1huq6cuj3fo74tm60","pricing_plan_id":"cebpf4jnsgd1na2vs0mg"},{"bike_id":"19c45a62-87b2-4d61-86c5-a9e8b86945dc","system_id":"levelo_inurba_marseille","lat":43.21191,"lon":5.35052,"is_reserved":false,"is_disabled":false,"rental_uris":{"android":"levelo://app?vid=19c45a62-87b2-4d61-86c5-a9e8b86945dc","ios":"levelo://app?vid=19c45a62-87b2-4d61-86c5-a9e8b86945dc"},"vehicle_type_id":"4","last_reported":1750137101,"current_range_meters":25200,"station_id":"st_cvj6sg6p6f1abm77japg","pricing_plan_id":"cebpf4jnsgd1na2vs0mg"},{"bike_id":"041ec253-4def-442c-983c-76ab87d38512","system_id":"levelo_inurba_marseille","lat":43.29615,"lon":5.37725,"is_reserved":false,"is_disabled":false,"rental_uris":{"android":"levelo://app?vid=041ec253-4def-442c-983c-76ab87d38512","ios":"levelo://app?vid=041ec253-4def-442c-983c-76ab87d38512"},"vehicle_type_id":"4","last_reported":1750137101,"current_range_meters":25600,"station_id":"ce4bgi92rcd13ifvqb90","pricing_plan_id":"cebpf4jnsgd1na2vs0mg"},{"bike_id":"2ccfbe4f-d6b2-4c86-a852-5fc60f25e677","system_id":"levelo_inurba_marseille","lat":43.31166,"lon":5.38715,"is_reserved":false,"is_disabled":false,"rental_uris":{"android":"levelo://app?vid=2ccfbe4f-d6b2-4c86-a852-5fc60f25e677","ios":"levelo://app?vid=2ccfbe4f-d6b2-4c86-a852-5fc60f25e677"},"vehicle_type_id":"4","last_reported":1750137101,"current_range_meters":25600,"station_id":"ce4bgv12rcd13ifvqcp0","pricing_plan_id":"cebpf4jnsgd1na2vs0mg"},{"bike_id":"585fe2e7-bb02-4fa3-ba01-796614862e37","system_id":"levelo_inurba_marseille","lat":43.303182,"lon":5.404415,"is_reserved":false,"is_disabled":false,"rental_uris":{"android":"levelo://app?vid=585fe2e7-bb02-4fa3-ba01-796614862e37","ios":"levelo://app?vid=585fe2e7-bb02-4fa3-ba01-796614862e37"},"vehicle_type_id":"4","last_reported":1750137101,"current_range_meters":25600,"station_id":"ce4bh012rcd13ifvqd10","pricing_plan_id":"cebpf4jnsgd1na2vs0mg"},{"bike_id":"ff044d77-bf8b-4fbb-8c99-ca19c041ab02","system_id":"levelo_inurba_marseille","lat":43.292429,"lon":5.409278,"is_reserved":false,"is_disabled":false,"rental_uris":{"android":"levelo://app?vid=ff044d77-bf8b-4fbb-8c99-ca19c041ab02","ios":"levelo://app?vid=ff044d77-bf8b-4fbb-8c99-ca19c041ab02"},"vehicle_type_id":"4","last_reported":1750137101,"current_range_meters":25600,"station_id":"ce4bh192rcd13ifvqdc0","pricing_plan_id":"cebpf4jnsgd1na2vs0mg"},{"bike_id":"42cce7e4-ed3d-4219-9032-fe48456c2ea5","system_id":"levelo_inurba_marseille","lat":43.24683,"lon":5.38159,"is_reserved":false,"is_disabled":false,"rental_uris":{"android":"levelo://app?vid=42cce7e4-ed3d-4219-9032-fe48456c2ea5","ios":"levelo://app?vid=42cce7e4-ed3d-4219-9032-fe48456c2ea5"},"vehicle_type_id":"4","last_reported":1750137101,"current_range_meters":25600,"station_id":"ce4bhih2rcd13ifvqfr0","pricing_plan_id":"cebpf4jnsgd1na2vs0mg"},{"bike_id":"57b934d4-787e-4e51-92a3-cd074fb58b27","system_id":"levelo_inurba_marseille","lat":43.2705,"lon":5.40261,"is_reserved":false,"is_disabled":false,"rental_uris":{"android":"levelo://app?vid=57b934d4-787e-4e51-92a3-cd074fb58b27","ios":"levelo://app?vid=57b934d4-787e-4e51-92a3-cd074fb58b27"},"vehicle_type_id":"4","last_reported":1750137101,"current_range_meters":25600,"station_id":"ce4bhk92rcd13ifvqgc0","pricing_plan_id":"cebpf4jnsgd1na2vs0mg"},{"bike_id":"0fc3235d-d8df-4178-b9fa-7570976390e0","system_id":"levelo_inurba_marseille","lat":43.24551,"lon":5.39551,"is_reserved":false,"is_disabled":false,"rental_uris":{"android":"levelo://app?vid=0fc3235d-d8df-4178-b9fa-7570976390e0","ios":"levelo://app?vid=0fc3235d-d8df-4178-b9fa-7570976390e0"},"vehicle_type_id":"4","last_reported":1750137101,"current_range_meters":25600,"station_id":"ce4bhlp2rcd13ifvqgjg","pricing_plan_id":"cebpf4jnsgd1na2vs0mg"},{"bike_id":"7560b5ff-b37b-421a-acc9-4426dda1a56e","system_id":"levelo_inurba_marseille","lat":43.30458,"lon":5.37899,"is_reserved":false,"is_disabled":false,"rental_uris":{"android":"levelo://app?vid=7560b5ff-b37b-421a-acc9-4426dda1a56e","ios":"levelo://app?vid=7560b5ff-b37b-421a-acc9-4426dda1a56e"},"vehicle_type_id":"4","last_reported":1750137101,"current_range_meters":26000,"station_id":"ce4bgup2rcd13ifvqcn0","pricing_plan_id":"cebpf4jnsgd1na2vs0mg"},{"bike_id":"0121539c-e3b3-4e46-95ab-96fc5b340bc5","system_id":"levelo_inurba_marseille","lat":43.30891,"lon":5.39663,"is_reserved":false,"is_disabled":false,"rental_uris":{"android":"levelo://app?vid=0121539c-e3b3-4e46-95ab-96fc5b340bc5","ios":"levelo://app?vid=0121539c-e3b3-4e46-95ab-96fc5b340bc5"},"vehicle_type_id":"4","last_reported":1750137101,"current_range_meters":26000,"station_id":"ce4bh012rcd13ifvqcv0","pricing_plan_id":"cebpf4jnsgd1na2vs0mg"},{"bike_id":"8ba7a173-977b-455b-84d0-ed2b4947225f","system_id":"levelo_inurba_marseille","lat":43.263534,"lon":5.404252,"is_reserved":false,"is_disabled":false,"rental_uris":{"android":"levelo://app?vid=8ba7a173-977b-455b-84d0-ed2b4947225f","ios":"levelo://app?vid=8ba7a173-977b-455b-84d0-ed2b4947225f"},