{"last_updated":1753683591,"ttl":60,"version":"2.2","data":{"bikes":[{"bike_id":"e68a62d8-ceba-4c40-a6c6-0b328be0c2ae","system_id":"levelo_inurba_marseille","lat":43.31283,"lon":5.36946,"is_reserved":false,"is_disabled":false,"rental_uris":{"android":"levelo://app?vid=e68a62d8-ceba-4c40-a6c6-0b328be0c2ae","ios":"levelo://app?vid=e68a62d8-ceba-4c40-a6c6-0b328be0c2ae"},"vehicle_type_id":"4","last_reported":1753683592,"current_range_meters":2800,"station_id":"ce4bgl92rcd13ifvqbq0","pricing_plan_id":"cebpf4jnsgd1na2vs0mg"},{"bike_id":"0ed53f46-29e9-4af6-be43-1bb7fa322a9b","system_id":"levelo_inurba_marseille","lat":43.30938,"lon":5.40118,"is_reserved":false,"is_disabled":true,"rental_uris":{"android":"levelo://app?vid=0ed53f46-29e9-4af6-be43-1bb7fa322a9b","ios":"levelo://app?vid=0ed53f46-29e9-4af6-be43-1bb7fa322a9b"},"vehicle_type_id":"4","last_reported":1753683592,"current_range_meters":2800,"station_id":"ce4bgvp2rcd13ifvqct0","pricing_plan_id":"cebpf4jnsgd1na2vs0mg"},{"bike_id":"e32db107-dbe3-4a3c-8a85-4e5ca8ed8356","system_id":"levelo_inurba_marseille","lat":43.25937,"lon":5.40902,"is_reserved":false,"is_disabled":false,"rental_uris":{"android":"levelo://app?vid=e32db107-dbe3-4a3c-8a85-4e5ca8ed8356","ios":"levelo://app?vid=e32db107-dbe3-4a3c-8a85-4e5ca8ed8356"},"vehicle_type_id":"4","last_reported":1753683592,"current_range_meters":2800,"station_id":"ce4bhm92rcd13ifvqglg","pricing_plan_id":"cebpf4jnsgd1na2vs0mg"},{"bike_id":"d11fd2f3-e7fc-45f2-ac94-99d33c0bd2ac","system_id":"levelo_inurba_marseille","lat":43.27321,"lon":5.39075,"is_reserved":false,"is_disabled":false,"rental_uris":{"android":"levelo://app?vid=d11fd2f3-e7fc-45f2-ac94-99d33c0bd2ac","ios":"levelo://app?vid=d11fd2f3-e7fc-45f2-ac94-99d33c0bd2ac"},"vehicle_type_id":"4","last_reported":1753683592,"current_range_meters":2800,"station_id":"ce4bhgp2rcd13ifvqfe0","pricing_plan_id":"cebpf4jnsgd1na2vs0mg"},{"bike_id":"b12dbb31-5c75-4551-bc03-29f3c4082217","system_id":"levelo_inurba_marseille","lat":43.21177,"lon":5.35085,"is_reserved":false,"is_disabled":false,"rental_uris":{"android":"levelo://app?vid=b12dbb31-5c75-4551-bc03-29f3c4082217","ios":"levelo://app?vid=b12dbb31-5c75-4551-bc03-29f3c4082217"},"vehicle_type_id":"4","last_reported":1753683592,"current_range_meters":3200,"station_id":"st_cvj6sg6p6f1abm77japg","pricing_plan_id":"cebpf4jnsgd1na2vs0mg"},{"bike_id":"83a67c65-7f9b-4a81-a80c-c007cd448d24","system_id":"levelo_inurba_marseille","lat":43.292531,"lon":5.384314,"is_reserved":false,"is_disabled":false,"rental_uris":{"android":"levelo://app?vid=83a67c65-7f9b-4a81-a80c-c007cd448d24","ios":"levelo://app?vid=83a67c65-7f9b-4a81-a80c-c007cd448d24"},"vehicle_type_id":"4","last_reported":1753683592,"current_range_meters":3200,"station_id":"","pricing_plan_id":"cebpf4jnsgd1na2vs0mg"},{"bike_id":"d76eac38-bdee-4fbc-9f55-b7e92da06aee","system_id":"levelo_inurba_marseille","lat":43.26213,"lon":5.37438,"is_reserved":false,"is_disabled":false,"rental_uris":{"android":"levelo://app?vid=d76eac38-bdee-4fbc-9f55-b7e92da06aee","ios":"levelo://app?vid=d76eac38-bdee-4fbc-9f55-b7e92da06aee"},"vehicle_type_id":"4","last_reported":1753683592,"current_range_meters":3600,"station_id":"ce4bhgp2rcd13ifvqfc0","pricing_plan_id":"cebpf4jnsgd1na2vs0mg"},{"bike_id":"22dca147-1260-44d8-822d-d9d1d50cce31","system_id":"levelo_inurba_marseille","lat":43.27482,"lon":5.39571,"is_reserved":false,"is_disabled":true,"rental_uris":{"android":"levelo://app?vid=22dca147-1260-44d8-822d-d9d1d50cce31","ios":"levelo://app?vid=22dca147-1260-44d8-822d-d9d1d50cce31"},"vehicle_type_id":"4","last_reported":1753683592,"current_range_meters":3600,"station_id":"","pricing_plan_id":"cebpf4jnsgd1na2vs0mg"},{"bike_id":"a3faec4a-ba2f-4420-b826-0d3a2c04b96e","system_id":"levelo_inurba_marseille","lat":43.310927,"lon":5.403522,"is_reserved":false,"is_disabled":false,"rental_uris":{"android":"levelo://app?vid=a3faec4a-ba2f-4420-b826-0d3a2c04b96e","ios":"levelo://app?vid=a3faec4a-ba2f-4420-b826-0d3a2c04b96e"},"vehicle_type_id":"4","last_reported":1753683592,"current_range_meters":3600,"station_id":"ce4bh012rcd13ifvqd00","pricing_plan_id":"cebpf4jnsgd1na2vs0mg"},{"bike_id":"1e555c6b-044c-4bd1-a690-5b7bdd1ff5ab","system_id":"levelo_inurba_marseille","lat":43.30952,"lon":5.39023,"is_reserved":false,"is_disabled":false,"rental_uris":{"android":"levelo://app?vid=1e555c6b-044c-4bd1-a690-5b7bdd1ff5ab","ios":"levelo://app?vid=1e555c6b-044c-4bd1-a690-5b7bdd1ff5ab"},"vehicle_type_id":"4","last_reported":1753683592,"current_range_meters":4000,"station_id":"ce4bgup2rcd13ifvqco0","pricing_plan_id":"cebpf4jnsgd1na2vs0mg"},{"bike_id":"cb8ff681-e6e7-4ce1-b9b2-f7dd207d53e1","system_id":"levelo_inurba_marseille","lat":43.28456,"lon":5.35889,"is_reserved":false,"is_disabled":false,"rental_uris":{"android":"levelo://app?vid=cb8ff681-e6e7-4ce1-b9b2-f7dd207d53e1","ios":"levelo://app?vid=cb8ff681-e6e7-4ce1-b9b2-f7dd207d53e1"},"vehicle_type_id":"4","last_reported":1753683592,"current_range_meters":4000,"station_id":"ce4bhah2rcd13ifvqei0","pricing_plan_id":"cebpf4jnsgd1na2vs0mg"},{"bike_id":"990eb3e5-15e9-44a1-85d5-1f979e53a5bd","system_id":"levelo_inurba_marseille","lat":43.239703,"lon":5.366117,"is_reserved":false,"is_disabled":false,"rental_uris":{"android":"levelo://app?vid=990eb3e5-15e9-44a1-85d5-1f979e53a5bd","ios":"levelo://app?vid=990eb3e5-15e9-44a1-85d5-1f979e53a5bd"},"vehicle_type_id":"4","last_reported":1753683592,"current_range_meters":4000,"station_id":"ce4bhi12rcd13ifvqfp0","pricing_plan_id":"cebpf4jnsgd1na2vs0mg"},{"bike_id":"dd37dd76-8efb-40d5-94e0-23ab0dbe5b64","system_id":"levelo_inurba_marseille","lat":43.29038,"lon":5.39962,"is_reserved":false,"is_disabled":false,"rental_uris":{"android":"levelo://app?vid=dd37dd76-8efb-40d5-94e0-23ab0dbe5b64","ios":"levelo://app?vid=dd37dd76-8efb-40d5-94e0-23ab0dbe5b64"},"vehicle_type_id":"4","last_reported":1753683592,"current_range_meters":4000,"station_id":"ce4bh392rcd13ifvqdm0","pricing_plan_id":"cebpf4jnsgd1na2vs0mg"},{"bike_id":"a3fe9995-2e3e-423b-9540-429a92fa997e","system_id":"levelo_inurba_marseille","lat":43.301976,"lon":5.371675,"is_reserved":false,"is_disabled":false,"rental_uris":{"android":"levelo://app?vid=a3fe9995-2e3e-423b-9540-429a92fa997e","ios":"levelo://app?vid=a3fe9995-2e3e-423b-9540-429a92fa997e"},"vehicle_type_id":"4","last_reported":1753683592,"current_range_meters":4000,"station_id":"","pricing_plan_id":"cebpf4jnsgd1na2vs0mg"},{"bike_id":"8e878e8f-5d80-490d-b86c-324c23d42717","system_id":"levelo_inurba_marseille","lat":43.29203,"lon":5.40757,"is_reserved":false,"is_disabled":false,"rental_uris":{"android":"levelo://app?vid=8e878e8f-5d80-490d-b86c-324c23d42717","ios":"levelo://app?vid=8e878e8f-5d80-490d-b86c-324c23d42717"},"vehicle_type_id":"4","last_reported":1753683592,"current_range_meters":4400,"station_id":"","pricing_plan_id":"cebpf4jnsgd1na2vs0mg"},{"bike_id":"de99b14c-9afd-4bdd-bc56-50354c110c3d","system_id":"levelo_inurba_marseille","lat":43.25467,"lon":5.37687,"is_reserved":false,"is_disabled":false,"rental_uris":{"android":"levelo://app?vid=de99b14c-9afd-4bdd-bc56-50354c110c3d","ios":"levelo://app?vid=de99b14c-9afd-4bdd-bc56-50354c110c3d"},"vehicle_type_id":"4","last_reported":1753683592,"current_range_meters":4400,"station_id":"","pricing_plan_id":"cebpf4jnsgd1na2vs0mg"},{"bike_id":"57755280-973c-4ff3-9c25-8f15e2c5b510","system_id":"levelo_inurba_marseille","lat":43.31872,"lon":5.37373,"is_reserved":false,"is_disabled":true,"rental_uris":{"android":"levelo://app?vid=57755280-973c-4ff3-9c25-8f15e2c5b510","ios":"levelo://app?vid=57755280-973c-4ff3-9c25-8f15e2c5b510"},"vehicle_type_id":"4","last_reported":1753683592,"current_range_meters":4400,"station_id":"","pricing_plan_id":"cebpf4jnsgd1na2vs0mg"},{"bike_id":"9188366a-c6a3-4354-b558-553177316347","system_id":"levelo_inurba_marseille","lat":43.26219,"lon":5.37444,"is_reserved":false,"is_disabled":true,"rental_uris":{"android":"levelo://app?vid=9188366a-c6a3-4354-b558-553177316347","ios":"levelo://app?vid=9188366a-c6a3-4354-b558-553177316347"},"vehicle_type_id":"4","last_reported":1753683592,"current_range_meters":4800,"station_id":"ce4bhgp2rcd13ifvqfc0","pricing_plan_id":"cebpf4jnsgd1na2vs0mg"},{"bike_id":"537a1ef6-a877-4699-a33a-ce679f7090d6","system_id":"levelo_inurba_marseille","lat":43.28477,"lon":5.38413,"is_reserved":false,"is_disabled":false,"rental_uris":{"android":"levelo://app?vid=537a1ef6-a877-4699-a33a-ce679f7090d6","ios":"levelo://app?vid=537a1ef6-a877-4699-a33a-ce679f7090d6"},"vehicle_type_id":"4","last_reported":1753683592,"current_range_meters":5600,"station_id":"ce4bh512rcd13ifvqe3g","pricing_plan_id":"cebpf4jnsgd1na2vs0mg"},{"bike_id":"495ce505-fe21-484e-b250-32794578b32c","system_id":"levelo_inurba_marseille","lat":43.30645,"lon":5.38506,"is_reserved":false,"is_disabled":false,"rental_uris":{"android":"levelo://app?vid=495ce505-fe21-484e-b250-32794578b32c","ios":"levelo://app?vid=495ce505-fe21-484e-b250-32794578b32c"},"vehicle_type_id":"4","last_reported":1753683592,"current_range_meters":5600,"station_id":"","pricing_plan_id":"cebpf4jnsgd1na2vs0mg"},{"bike_id":"43295f22-e4c9-4668-9619-c2071238b949","system_id":"levelo_inurba_marseille","lat":43.307488,"lon":5.372659,"is_reserved":false,"is_disabled":false,"rental_uris":{"android":"levelo://app?vid=43295f22-e4c9-4668-9619-c2071238b949","ios":"levelo://app?vid=43295f22-e4c9-4668-9619-c2071238b949"},"vehicle_type_id":"4","last_reported":1753683592,"current_range_meters":6000,"station_id":"ce4bguh2rcd13ifvqckg","pricing_plan_id":"cebpf4jnsgd1na2vs0mg"},{"bike_id":"7a70bfb7-375d-4b4d-81de-8e894d8133b9","system_id":"levelo_inurba_marseille","lat":43.28459,"lon":5.37521,"is_reserved":false,"is_disabled":false,"rental_uris":{"android":"levelo://app?vid=7a70bfb7-375d-4b4d-81de-8e894d8133b9","ios":"levelo://app?vid=7a70bfb7-375d-4b4d-81de-8e894d8133b9"},"vehicle_type_id":"4","last_reported":1753683592,"current_range_meters":6000,"station_id":"","pricing_plan_id":"cebpf4jnsgd1na2vs0mg"},{"bike_id":"83ef3caf-8fc9-4a3a-be99-4533a554322f","system_id":"levelo_inurba_marseille","lat":43.29909,"lon":5.39736,"is_reserved":false,"is_disabled":false,"rental_uris":{"android":"levelo://app?vid=83ef3caf-8fc9-4a3a-be99-4533a554322f","ios":"levelo://app?vid=83ef3caf-8fc9-4a3a-be99-4533a554322f"},"vehicle_type_id":"4","last_reported":1753683592,"current_range_meters":6400,"station_id":"ce4bh0h2rcd13ifvqd50","pricing_plan_id":"cebpf4jnsgd1na2vs0mg"},{"bike_id":"4a4bbfcd-1aae-4463-9aff-1f76d43cb171","system_id":"levelo_inurba_marseille","lat":43.28579,"lon":5.39482,"is_reserved":false,"is_disabled":false,"rental_uris":{"android":"levelo://app?vid=4a4bbfcd-1aae-4463-9aff-1f76d43cb171","ios":"levelo://app?vid=4a4bbfcd-1aae-4463-9aff-1f76d43cb171"},"vehicle_type_id":"4","last_reported":1753683592,"current_range_meters":6400,"station_id":"ce4bh292rcd13ifvqdg0","pricing_plan_id":"cebpf4jnsgd1na2vs0mg"},{"bike_id":"ae63ae48-1755-434e-97d6-877f81ad1700","system_id":"levelo_inurba_marseille","lat":43.29695,"lon":5.37677,"is_reserved":false,"is_disabled":true,"rental_uris":{"android":"levelo://app?vid=ae63ae48-1755-434e-97d6-877f81ad1700","ios":"levelo://app?vid=ae63ae48-1755-434e-97d6-877f81ad1700"},"vehicle_type_id":"4","last_reported":1753683592,"current_range_meters":6400,"station_id":"ce4bgkh2rcd13ifvqbl0","pricing_plan_id":"cebpf4jnsgd1na2vs0mg"},{"bike_id":"f363830d-7cc6-49f5-bb3a-b1c6fd52a12a","system_id":"levelo_inurba_marseille","lat":43.30156,"lon":5.38082,"is_reserved":false,"is_disabled":false,"rental_uris":{"android":"levelo://app?vid=f363830d-7cc6-49f5-bb3a-b1c6fd52a12a","ios":"levelo://app?vid=f363830d-7cc6-49f5-bb3a-b1c6fd52a12a"},"vehicle_type_id":"4","last_reported":1753683592,"current_range_meters":6400,"station_id":"ce4bgjp2rcd13ifvqbh0","pricing_plan_id":"cebpf4jnsgd1na2vs0mg"},{"bike_id":"cd0d4afa-9de1-4afb-923d-b45a4942c9a1","system_id":"levelo_inurba_marseille","lat":43.22494,"lon":5.34786,"is_reserved":false,"is_disabled":false,"rental_uris":{"android":"levelo://app?vid=cd0d4afa-9de1-4afb-923d-b45a4942c9a1","ios":"levelo://app?vid=cd0d4afa-9de1-4afb-923d-b45a4942c9a1"},"vehicle_type_id":"4","last_reported":1753683592,"current_range_meters":6400,"station_id":"st_cvj5dfep6f1abm77gieg","pricing_plan_id":"cebpf4jnsgd1na2vs0mg"},{"bike_id":"f2c0d178-a474-46a0-b002-379a7a30c411","system_id":"levelo_inurba_marseille","lat":43.29417,"lon":5.37561,"is_reserved":false,"is_disabled":false,"rental_uris":{"android":"levelo://app?vid=f2c0d178-a474-46a0-b002-379a7a30c411","ios":"levelo://app?vid=f2c0d178-a474-46a0-b002-379a7a30c411"},"vehicle_type_id":"4","last_reported":1753683592,"current_range_meters":6800,"station_id":"","pricing_plan_id":"cebpf4jnsgd1na2vs0mg"},{"bike_id":"eb61ee0d-3863-41f7-9478-740bbaeb7b8c","system_id":"levelo_inurba_marseille","lat":43.30664,"lon":5.40079,"is_reserved":false,"is_disabled":true,"rental_uris":{"android":"levelo://app?vid=eb61ee0d-3863-41f7-9478-740bbaeb7b8c","ios":"levelo://app?vid=eb61ee0d-3863-41f7-9478-740bbaeb7b8c"},"vehicle_type_id":"4","last_reported":1753683592,"current_range_meters":6800,"station_id":"ce4bh112rcd13ifvqda0","pricing_plan_id":"cebpf4jnsgd1na2vs0mg"},{"bike_id":"c3c2652b-f2d7-4ed4-89ec-9559feb01451","system_id":"levelo_inurba_marseille","lat":43.29226,"lon":5.360481,"is_reserved":false,"is_disabled":true,"rental_uris":{"android":"levelo://app?vid=c3c2652b-f2d7-4ed4-89ec-9559feb01451","ios":"levelo://app?vid=c3c2652b-f2d7-4ed4-89ec-9559feb01451"},"vehicle_type_id":"4","last_reported":1753683592,"current_range_meters":6800,"station_id":"ce4bhbh2rcd13ifvqeqg","pricing_plan_id":"cebpf4jnsgd1na2vs0mg"},{"bike_id":"2c086406-feba-4a77-8888-0896de73cb26","system_id":"levelo_inurba_marseille","lat":43.27424,"lon":5.39412,"is_reserved":false,"is_disabled":false,"rental_uris":{"android":"levelo://app?vid=2c086406-feba-4a77-8888-0896de73cb26","ios":"levelo://app?vid=2c086406-feba-4a77-8888-0896de73cb26"},"vehicle_type_id":"4","last_reported":1753683592,"current_range_meters":6800,"station_id":"ce4bhdp2rcd13ifvqf20","pricing_plan_id":"cebpf4jnsgd1na2vs0mg"},{"bike_id":"878e43ee-a4d4-4fa1-9d58-5fcd6616d664","system_id":"levelo_inurba_marseille","lat":43.31408,"lon":5.36644,"is_reserved":false,"is_disabled":false,"rental_uris":{"android":"levelo://app?vid=878e43ee-a4d4-4fa1-9d58-5fcd6616d664","ios":"levelo://app?vid=878e43ee-a4d4-4fa1-9d58-5fcd6616d664"},"vehicle_type_id":"4","last_reported":1753683592,"current_range_meters":6400,"station_id":"ce4bgr92rcd13ifvqc6g","pricing_plan_id":"cebpf4jnsgd1na2vs0mg"},{"bike_id":"042a8476-d3c4-476b-9557-f32c03e9d625","system_id":"levelo_inurba_marseille","lat":43.33952,"lon":5.35696,"is_reserved":false,"is_disabled":false,"rental_uris":{"android":"levelo://app?vid=042a8476-d3c4-476b-9557-f32c03e9d625","ios":"levelo://app?vid=042a8476-d3c4-476b-9557-f32c03e9d625"},"vehicle_type_id":"4","last_reported":1753683592,"current_range_meters":6800,"station_id":"","pricing_plan_id":"cebpf4jnsgd1na2vs0mg"},{"bike_id":"9377d52d-7c04-4205-81e5-05265b3eabff","system_id":"levelo_inurba_marseille","lat":43.287186,"lon":5.379501,"is_reserved":false,"is_disabled":false,"rental_uris":{"android":"levelo://app?vid=9377d52d-7c04-4205-81e5-05265b3eabff","ios":"levelo://app?vid=9377d52d-7c04-4205-81e5-05265b3eabff"},"vehicle_type_id":"4","last_reported":1753683592,"current_range_meters":7200,"station_id":"ce4bh9p2rcd13ifvqec0","pricing_plan_id":"cebpf4jnsgd1na2vs0mg"},{"bike_id":"d5a63dee-a415-40f6-88a8-f1d25d6ddaa1","system_id":"levelo_inurba_marseille","lat":43.290311,"lon":5.399895,"is_reserved":false,"is_disabled":false,"rental_uris":{"android":"levelo://app?vid=d5a63dee-a415-40f6-88a8-f1d25d6ddaa1","ios":"levelo://app?vid=d5a63dee-a415-40f6-88a8-f1d25d6ddaa1"},"vehicle_type_id":"4","last_reported":1753683592,"current_range_meters":7200,"station_id":"ce4bh392rcd13ifvqdm0","pricing_plan_id":"cebpf4jnsgd1na2vs0mg"},{"bike_id":"f4b0f83e-afe9-4659-9ee3-0316163efc05","system_id":"levelo_inurba_marseille","lat":43.23149,"lon":5.43723,"is_reserved":false,"is_disabled":false,"rental_uris":{"android":"levelo://app?vid=f4b0f83e-afe9-4659-9ee3-0316163efc05","ios":"levelo://app?vid=f4b0f83e-afe9-4659-9ee3-0316163efc05"},"vehicle_type_id":"4","last_reported":1753683592,"current_range_meters":7200,"station_id":"ce4bhmp2rcd13ifvqgog","pricing_plan_id":"cebpf4jnsgd1na2vs0mg"},{"bike_id":"0b6e37e1-db39-4d64-9941-7e484c9ea038","system_id":"levelo_inurba_marseille","lat":43.30156,"lon":5.38077,"is_reserved":false,"is_disabled":true,"rental_uris":{"android":"levelo://app?vid=0b6e37e1-db39-4d64-9941-7e484c9ea038","ios":"levelo://app?vid=0b6e37e1-db39-4d64-9941-7e484c9ea038"},"vehicle_type_id":"4","last_reported":1753683592,"current_range_meters":7200,"station_id":"","pricing_plan_id":"cebpf4jnsgd1na2vs0mg"},{"bike_id":"7e65c5ea-0429-45f5-a396-bd32e67f0744","system_id":"levelo_inurba_marseille","lat":43.334688,"lon":5.400497,"is_reserved":false,"is_disabled":false,"rental_uris":{"android":"levelo://app?vid=7e65c5ea-0429-45f5-a396-bd32e67f0744","ios":"levelo://app?vid=7e65c5ea-0429-45f5-a396-bd32e67f0744"},"vehicle_type_id":"4","last_reported":1753683592,"current_range_meters":7200,"station_id":"","pricing_plan_id":"cebpf4jnsgd1na2vs0mg"},{"bike_id":"465af1c6-94fa-401b-ad2c-153493985e44","system_id":"levelo_inurba_marseille","lat":43.314986,"lon":5.375131,"is_reserved":false,"is_disabled":false,"rental_uris":{"android":"levelo://app?vid=465af1c6-94fa-401b-ad2c-153493985e44","ios":"levelo://app?vid=465af1c6-94fa-401b-ad2c-153493985e44"},"vehicle_type_id":"4","last_reported":1753683592,"current_range_meters":7200,"station_id":"ce4bgth2rcd13ifvqch0","pricing_plan_id":"cebpf4jnsgd1na2vs0mg"},{"bike_id":"ff6db71b-a463-4685-b650-05756d79427c","system_id":"levelo_inurba_marseille","lat":43.28608,"lon":5.37063,"is_reserved":false,"is_disabled":false,"rental_uris":{"android":"levelo://app?vid=ff6db71b-a463-4685-b650-05756d79427c","ios":"levelo://app?vid=ff6db71b-a463-4685-b650-05756d79427c"},"vehicle_type_id":"4","last_reported":1753683592,"current_range_meters":8000,"station_id":"ce4bht12rcd13ifvqi60","pricing_plan_id":"cebpf4jnsgd1na2vs0mg"},{"bike_id":"a82a25ce-329a-4a23-af94-fd85e7088e44","system_id":"levelo_inurba_marseille","lat":43.27064,"lon":5.40254,"is_reserved":false,"is_disabled":false,"rental_uris":{"android":"levelo://app?vid=a82a25ce-329a-4a23-af94-fd85e7088e44","ios":"levelo://app?vid=a82a25ce-329a-4a23-af94-fd85e7088e44"},"vehicle_type_id":"4","last_reported":1753683592,"current_range_meters":8000,"station_id":"ce4bhk92rcd13ifvqgc0","pricing_plan_id":"cebpf4jnsgd1na2vs0mg"},{"bike_id":"a05343f6-5345-451e-92c9-8d14b4ec04eb","system_id":"levelo_inurba_marseille","lat":43.314919,"lon":5.373082,"is_reserved":false,"is_disabled":true,"rental_uris":{"android":"levelo://app?vid=a05343f6-5345-451e-92c9-8d14b4ec04eb","ios":"levelo://app?vid=a05343f6-5345-451e-92c9-8d14b4ec04eb"},"vehicle_type_id":"4","last_reported":1753683592,"current_range_meters":8400,"station_id":"","pricing_plan_id":"cebpf4jnsgd1na2vs0mg"},{"bike_id":"3fb3ceda-3c87-487e-95e6-3f067daa02b0","system_id":"levelo_inurba_marseille","lat":43.31357,"lon":5.36759,"is_reserved":false,"is_disabled":false,"rental_uris":{"android":"levelo://app?vid=3fb3ceda-3c87-487e-95e6-3f067daa02b0","ios":"levelo://app?vid=3fb3ceda-3c87-487e-95e6-3f067daa02b0"},"vehicle_type_id":"4","last_reported":1753683592,"current_range_meters":8000,"station_id":"ce4bgr92rcd13ifvqc6g","pricing_plan_id":"cebpf4jnsgd1na2vs0mg"},{"bike_id":"f2876902-0402-4dca-8fa2-0ffba379c9ac","system_id":"levelo_inurba_marseille","lat":43.29049,"lon":5.37538,"is_reserved":false,"is_disabled":false,"rental_uris":{"android":"levelo://app?vid=f2876902-0402-4dca-8fa2-0ffba379c9ac","ios":"levelo://app?vid=f2876902-0402-4dca-8fa2-0ffba379c9ac"},"vehicle_type_id":"4","last_reported":1753683592,"current_range_meters":8000,"station_id":"ce4bh692rcd13ifvqe90","pricing_plan_id":"cebpf4jnsgd1na2vs0mg"},{"bike_id":"ee8f2aa2-023b-4685-a9e4-a8b3b8c06d6b","system_id":"levelo_inurba_marseille","lat":43.250075,"lon":5.38931,"is_reserved":false,"is_disabled":false,"rental_uris":{"android":"levelo://app?vid=ee8f2aa2-023b-4685-a9e4-a8b3b8c06d6b","ios":"levelo://app?vid=ee8f2aa2-023b-4685-a9e4-a8b3b8c06d6b"},"vehicle_type_id":"4","last_reported":1753683592,"current_range_meters":8000,"station_id":"ce4bhgp2rcd13ifvqfd0","pricing_plan_id":"cebpf4jnsgd1na2vs0mg"},{"bike_id":"156e744b-94c9-4be0-9dfd-d007398890ce","system_id":"levelo_inurba_marseille","lat":43.32355,"lon":5.36754,"is_reserved":false,"is_disabled":false,"rental_uris":{"android":"levelo://app?vid=156e744b-94c9-4be0-9dfd-d007398890ce","ios":"levelo://app?vid=156e744b-94c9-4be0-9dfd-d007398890ce"},"vehicle_type_id":"4","last_reported":1753683592,"current_range_meters":8400,"station_id":"ce4bhsh2rcd13ifvqi2g","pricing_plan_id":"cebpf4jnsgd1na2vs0mg"},{"bike_id":"7fe8107c-aa92-49b9-a3d4-b0180595b13e","system_id":"levelo_inurba_marseille","lat":43.298235,"lon":5.376573,"is_reserved":false,"is_disabled":false,"rental_uris":{"android":"levelo://app?vid=7fe8107c-aa92-49b9-a3d4-b0180595b13e","ios":"levelo://app?vid=7fe8107c-aa92-49b9-a3d4-b0180595b13e"},"vehicle_type_id":"4","last_reported":1753683592,"current_range_meters":8400,"station_id":"","pricing_plan_id":"cebpf4jnsgd1na2vs0mg"},{"bike_id":"dc04e206-05d2-4c8a-be28-5f738cdafedd","system_id":"levelo_inurba_marseille","lat":43.291186,"lon":5.355707,"is_reserved":false,"is_disabled":false,"rental_uris":{"android":"levelo://app?vid=dc04e206-05d2-4c8a-be28-5f738cdafedd","ios":"levelo://app?vid=dc04e206-05d2-4c8a-be28-5f738cdafedd"},"vehicle_type_id":"4","last_reported":1753683592,"current_range_meters":8800,"station_id":"","pricing_plan_id":"cebpf4jnsgd1na2vs0mg"},{"bike_id":"898d1f8e-e261-4f25-9386-a6825028d102","system_id":"levelo_inurba_marseille","lat":43.29084,"lon":5.47358,"is_reserved":false,"is_disabled":false,"rental_uris":{"android":"levelo://app?vid=898d1f8e-e261-4f25-9386-a6825028d102","ios":"levelo://app?vid=898d1f8e-e261-4f25-9386-a6825028d102"},"vehicle_type_id":"4","last_reported":1753683592,"current_range_meters":8800,"station_id":"","pricing_plan_id":"cebpf4jnsgd1na2vs0mg"},{"bike_id":"9dfdeb8a-ee13-4931-94b4-ad2b5f23aa4b","system_id":"levelo_inurba_marseille","lat":43.231848,"lon":5.399954,"is_reserved":false,"is_disabled":true,"rental_uris":{"android":"levelo://app?vid=9dfdeb8a-ee13-4931-94b4-ad2b5f23aa4b","ios":"levelo://app?vid=9dfdeb8a-ee13-4931-94b4-ad2b5f23aa4b"},"vehicle_type_id":"4","last_reported":1753683592,"current_range_meters":8800,"station_id":"ce4bhn12rcd13ifvqgqg","pricing_plan_id":"cebpf4jnsgd1na2vs0mg"},{"bike_id":"43dbc09e-d0e4-4ddb-bafe-4f55874d23a9","system_id":"levelo_inurba_marseille","lat":43.30225,"lon":5.38251,"is_reserved":false,"is_disabled":false,"rental_uris":{"android":"levelo://app?vid=43dbc09e-d0e4-4ddb-bafe-4f55874d23a9","ios":"levelo://app?vid=43dbc09e-d0e4-4ddb-bafe-4f55874d23a9"},"vehicle_type_id":"4","last_reported":1753683592,"current_range_meters":8800,"station_id":"","pricing_plan_id":"cebpf4jnsgd1na2vs0mg"},{"bike_id":"198a8a48-9082-408a-ac7c-20dca32fbf4e","system_id":"levelo_inurba_marseille","lat":43.32066,"lon":5.40901,"is_reserved":false,"is_disabled":false,"rental_uris":{"android":"levelo://app?vid=198a8a48-9082-408a-ac7c-20dca32fbf4e","ios":"levelo://app?vid=198a8a48-9082-408a-ac7c-20dca32fbf4e"},"vehicle_type_id":"4","last_reported":1753683592,"current_range_meters":8800,"station_id":"","pricing_plan_id":"cebpf4jnsgd1na2vs0mg"},{"bike_id":"98b57ac4-75b1-431f-9349-66ba7f2cfc67","system_id":"levelo_inurba_marseille","lat":43.28932,"lon":5.36621,"is_reserved":false,"is_disabled":false,"rental_uris":{"android":"levelo://app?vid=98b57ac4-75b1-431f-9349-66ba7f2cfc67","ios":"levelo://app?vid=98b57ac4-75b1-431f-9349-66ba7f2cfc67"},"vehicle_type_id":"4","last_reported":1753683592,"current_range_meters":8800,"station_id":"ce4bhap2rcd13ifvqek0","pricing_plan_id":"cebpf4jnsgd1na2vs0mg"},{"bike_id":"9102cabb-989f-4379-b74a-7ec7bf2a44b3","system_id":"levelo_inurba_marseille","lat":43.21752,"lon":5.34595,"is_reserved":false,"is_disabled":true,"rental_uris":{"android":"levelo://app?vid=9102cabb-989f-4379-b74a-7ec7bf2a44b3","ios":"levelo://app?vid=9102cabb-989f-4379-b74a-7ec7bf2a44b3"},"vehicle_type_id":"4","last_reported":1753683592,"current_range_meters":9200,"station_id":"","pricing_plan_id":"cebpf4jnsgd1na2vs0mg"},{"bike_id":"57d2148b-4900-48dc-9253-f8ca7d2e9d8a","system_id":"levelo_inurba_marseille","lat":43.303122,"lon":5.405017,"is_reserved":false,"is_disabled":false,"rental_uris":{"android":"levelo://app?vid=57d2148b-4900-48dc-9253-f8ca7d2e9d8a","ios":"levelo://app?vid=57d2148b-4900-48dc-9253-f8ca7d2e9d8a"},"vehicle_type_id":"4","last_reported":1753683592,"current_range_meters":9200,"station_id":"","pricing_plan_id":"cebpf4jnsgd1na2vs0mg"},{"bike_id":"96e8f9e2-5ed4-4a64-abed-b574666ba88d","system_id":"levelo_inurba_marseille","lat":43.21191,"lon":5.35129,"is_reserved":false,"is_disabled":false,"rental_uris":{"android":"levelo://app?vid=96e8f9e2-5ed4-4a64-abed-b574666ba88d","ios":"levelo://app?vid=96e8f9e2-5ed4-4a64-abed-b574666ba88d"},"vehicle_type_id":"4","last_reported":1753683592,"current_range_meters":9200,"station_id":"st_cvj6sg6p6f1abm77japg","pricing_plan_id":"cebpf4jnsgd1na2vs0mg"},{"bike_id":"6a38ad86-92b8-4aed-98d7-3569ef9cc105","system_id":"levelo_inurba_marseille","lat":43.21739,"lon":5.34607,"is_reserved":false,"is_disabled":true,"rental_uris":{"android":"levelo://app?vid=6a38ad86-92b8-4aed-98d7-3569ef9cc105","ios":"levelo://app?vid=6a38ad86-92b8-4aed-98d7-3569ef9cc105"},"vehicle_type_id":"4","last_reported":1753683592,"current_range_meters":9200,"station_id":"st_cvj6r9ubvosntc0bgbag","pricing_plan_id":"cebpf4jnsgd1na2vs0mg"},{"bike_id":"d25570e3-87c9-4356-ba9f-96a9aa944e99","system_id":"levelo_inurba_marseille","lat":43.28335,"lon":5.38104,"is_reserved":false,"is_disabled":false,"rental_uris":{"android":"levelo://app?vid=d25570e3-87c9-4356-ba9f-96a9aa944e99","ios":"levelo://app?vid=d25570e3-87c9-4356-ba9f-96a9aa944e99"},"vehicle_type_id":"4","last_reported":1753683592,"current_range_meters":9200,"station_id":"ce4bh412rcd13ifvqdr0","pricing_plan_id":"cebpf4jnsgd1na2vs0mg"},{"bike_id":"cc824405-3e19-444e-b89f-36e9bb46bda9","system_id":"levelo_inurba_marseille","lat":43.28938,"lon":5.36641,"is_reserved":false,"is_disabled":false,"rental_uris":{"android":"levelo://app?vid=cc824405-3e19-444e-b89f-36e9bb46bda9","ios":"levelo://app?vid=cc824405-3e19-444e-b89f-36e9bb46bda9"},"vehicle_type_id":"4","last_reported":1753683592,"current_range_meters":9600,"station_id":"ce4bhap2rcd13ifvqek0","pricing_plan_id":"cebpf4jnsgd1na2vs0mg"},{"bike_id":"905576ef-66ce-426e-9600-566828c3b671","system_id":"levelo_inurba_marseille","lat":43.2178,"lon":5.34707,"is_reserved":false,"is_disabled":true,"rental_uris":{"android":"levelo://app?vid=905576ef-66ce-426e-9600-566828c3b671","ios":"levelo://app?vid=905576ef-66ce-426e-9600-566828c3b671"},"vehicle_type_id":"4","last_reported":1753683592,"current_range_meters":9600,"station_id":"","pricing_plan_id":"cebpf4jnsgd1na2vs0mg"},{"bike_id":"11a04115-300b-44f5-9781-9e5fa3f7aeed","system_id":"levelo_inurba_marseille","lat":43.31229,"lon":5.36875,"is_reserved":false,"is_disabled":false,"rental_uris":{"android":"levelo://app?vid=11a04115-300b-44f5-9781-9e5fa3f7aeed","ios":"levelo://app?vid=11a04115-300b-44f5-9781-9e5fa3f7aeed"},"vehicle_type_id":"4","last_reported":1753683592,"current_range_meters":9600,"station_id":"ce4bgl92rcd13ifvqbq0","pricing_plan_id":"cebpf4jnsgd1na2vs0mg"},{"bike_id":"f4e125e3-60d1-4c56-ac34-d719cc3cdc8c","system_id":"levelo_inurba_marseille","lat":43.292666,"lon":5.384355,"is_reserved":false,"is_disabled":false,"rental_uris":{"android":"levelo://app?vid=f4e125e3-60d1-4c56-ac34-d719cc3cdc8c","ios":"levelo://app?vid=f4e125e3-60d1-4c56-ac34-d719cc3cdc8c"},"vehicle_type_id":"4","last_reported":1753683592,"current_range_meters":9600,"station_id":"","pricing_plan_id":"cebpf4jnsgd1na2vs0mg"},{"bike_id":"3dac6e7a-6727-4547-a162-4acf06c4c2f5","system_id":"levelo_inurba_marseille","lat":43.24658,"lon":5.38868,"is_reserved":false,"is_disabled":false,"rental_uris":{"android":"levelo://app?vid=3dac6e7a-6727-4547-a162-4acf06c4c2f5","ios":"levelo://app?vid=3dac6e7a-6727-4547-a162-4acf06c4c2f5"},"vehicle_type_id":"4","last_reported":1753683592,"current_range_meters":9600,"station_id":"ce4bhg12rcd13ifvqf60","pricing_plan_id":"cebpf4jnsgd1na2vs0mg"},{"bike_id":"416acd6b-072a-494f-b869-b2b61f9cc9d7","system_id":"levelo_inurba_marseille","lat":43.22488,"lon":5.34765,"is_reserved":false,"is_disabled":false,"rental_uris":{"android":"levelo://app?vid=416acd6b-072a-494f-b869-b2b61f9cc9d7","ios":"levelo://app?vid=416acd6b-072a-494f-b869-b2b61f9cc9d7"},"vehicle_type_id":"4","last_reported":1753683592,"current_range_meters":9600,"station_id":"st_cvj5dfep6f1abm77gieg","pricing_plan_id":"cebpf4jnsgd1na2vs0mg"},{"bike_id":"da0dea9a-07a2-4249-aa7c-2489e28d40de","system_id":"levelo_inurba_marseille","lat":43.2968,"lon":5.36222,"is_reserved":false,"is_disabled":false,"rental_uris":{"android":"levelo://app?vid=da0dea9a-07a2-4249-aa7c-2489e28d40de","ios":"levelo://app?vid=da0dea9a-07a2-4249-aa7c-2489e28d40de"},"vehicle_type_id":"4","last_reported":1753683592,"current_range_meters":10000,"station_id":"","pricing_plan_id":"cebpf4jnsgd1na2vs0mg"},{"bike_id":"463e03fe-b9b0-4212-a764-9bd6d78e3c2e","system_id":"levelo_inurba_marseille","lat":43.31014,"lon":5.38137,"is_reserved":false,"is_disabled":false,"rental_uris":{"android":"levelo://app?vid=463e03fe-b9b0-4212-a764-9bd6d78e3c2e","ios":"levelo://app?vid=463e03fe-b9b0-4212-a764-9bd6d78e3c2e"},"vehicle_type_id":"4","last_reported":1753683592,"current_range_meters":10000,"station_id":"","pricing_plan_id":"cebpf4jnsgd1na2vs0mg"},{"bike_id":"4dc37a2d-2ac4-4fe1-b1e8-9f39fe28021a","system_id":"levelo_inurba_marseille","lat":43.3019,"lon":5.38087,"is_reserved":false,"is_disabled":false,"rental_uris":{"android":"levelo://app?vid=4dc37a2d-2ac4-4fe1-b1e8-9f39fe28021a","ios":"levelo://app?vid=4dc37a2d-2ac4-4fe1-b1e8-9f39fe28021a"},"vehicle_type_id":"4","last_reported":1753683592,"current_range_meters":10000,"station_id":"","pricing_plan_id":"cebpf4jnsgd1na2vs0mg"},{"bike_id":"9d67e77e-66ea-4c7d-81a0-aa6cffa0e52e","system_id":"levelo_inurba_marseille","lat":43.2927,"lon":5.40128,"is_reserved":false,"is_disabled":false,"rental_uris":{"android":"levelo://app?vid=9d67e77e-66ea-4c7d-81a0-aa6cffa0e52e","ios":"levelo://app?vid=9d67e77e-66ea-4c7d-81a0-aa6cffa0e52e"},"vehicle_type_id":"4","last_reported":1753683592,"current_range_meters":10000,"station_id":"ce4bh312rcd13ifvqdk0","pricing_plan_id":"cebpf4jnsgd1na2vs0mg"},{"bike_id":"8512b265-75e1-49d7-bb7d-bd988c357d7c","system_id":"levelo_inurba_marseille","lat":43.28715,"lon":5.39972,"is_reserved":false,"is_disabled":true,"rental_uris":{"android":"levelo://app?vid=8512b265-75e1-49d7-bb7d-bd988c357d7c","ios":"levelo://app?vid=8512b265-75e1-49d7-bb7d-bd988c357d7c"},"vehicle_type_id":"4","last_reported":1753683592,"current_range_meters":10000,"station_id":"ce4bho92rcd13ifvqh3g","pricing_plan_id":"cebpf4jnsgd1na2vs0mg"},{"bike_id":"70dd8cb2-faab-470d-9873-ed2a76b918cf","system_id":"levelo_inurba_marseille","lat":43.286851,"lon":5.386365,"is_reserved":false,"is_disabled":false,"rental_uris":{"android":"levelo://app?vid=70dd8cb2-faab-470d-9873-ed2a76b918cf","ios":"levelo://app?vid=70dd8cb2-faab-470d-9873-ed2a76b918cf"},"vehicle_type_id":"4","last_reported":1753683592,"current_range_meters":10000,"station_id":"ce4bh492rcd13ifvqdug","pricing_plan_id":"cebpf4jnsgd1na2vs0mg"},{"bike_id":"9d9cf603-e9f2-4cd8-96c8-1c6ec949cc1a","system_id":"levelo_inurba_marseille","lat":43.28716,"lon":5.39976,"is_reserved":false,"is_disabled":false,"rental_uris":{"android":"levelo://app?vid=9d9cf603-e9f2-4cd8-96c8-1c6ec949cc1a","ios":"levelo://app?vid=9d9cf603-e9f2-4cd8-96c8-1c6ec949cc1a"},"vehicle_type_id":"4","last_reported":1753683592,"current_range_meters":10000,"station_id":"ce4bho92rcd13ifvqh3g","pricing_plan_id":"cebpf4jnsgd1na2vs0mg"},{"bike_id":"f0beafc6-4f1d-406d-9b81-bf9ae37556b7","system_id":"levelo_inurba_marseille","lat":43.229264,"lon":5.353791,"is_reserved":false,"is_disabled":false,"rental_uris":{"android":"levelo://app?vid=f0beafc6-4f1d-406d-9b81-bf9ae37556b7","ios":"levelo://app?vid=f0beafc6-4f1d-406d-9b81-bf9ae37556b7"},"vehicle_type_id":"4","last_reported":1753683592,"current_range_meters":10800,"station_id":"cpo3532slgdg3j2ikp40","pricing_plan_id":"cebpf4jnsgd1na2vs0mg"},{"bike_id":"8b091c87-00a4-4e64-a058-ca35b401f679","system_id":"levelo_inurba_marseille","lat":43.248109,"lon":5.374554,"is_reserved":false,"is_disabled":true,"rental_uris":{"android":"levelo://app?vid=8b091c87-00a4-4e64-a058-ca35b401f679","ios":"levelo://app?vid=8b091c87-00a4-4e64-a058-ca35b401f679"},"vehicle_type_id":"4","last_reported":1753683592,"current_range_meters":10800,"station_id":"ce4bhgh2rcd13ifvqfb0","pricing_plan_id":"cebpf4jnsgd1na2vs0mg"},{"bike_id":"00ed14a9-7d08-4cc9-9b42-41f67139c4ac","system_id":"levelo_inurba_marseille","lat":43.26953,"lon":5.38604,"is_reserved":false,"is_disabled":true,"rental_uris":{"android":"levelo://app?vid=00ed14a9-7d08-4cc9-9b42-41f67139c4ac","ios":"levelo://app?vid=00ed14a9-7d08-4cc9-9b42-41f67139c4ac"},"vehicle_type_id":"4","last_reported":1753683592,"current_range_meters":10800,"station_id":"ce4bhh92rcd13ifvqfh0","pricing_plan_id":"cebpf4jnsgd1na2vs0mg"},{"bike_id":"5bec5b3a-012b-4f28-8546-255407ea1b69","system_id":"levelo_inurba_marseille","lat":43.29027,"lon":5.38634,"is_reserved":false,"is_disabled":false,"rental_uris":{"android":"levelo://app?vid=5bec5b3a-012b-4f28-8546-255407ea1b69","ios":"levelo://app?vid=5bec5b3a-012b-4f28-8546-255407ea1b69"},"vehicle_type_id":"4","last_reported":1753683592,"current_range_meters":10800,"station_id":"ce4bh4p2rcd13ifvqe0g","pricing_plan_id":"cebpf4jnsgd1na2vs0mg"},{"bike_id":"e14158b4-541c-43ba-ac57-b0aeef30344c","system_id":"levelo_inurba_marseille","lat":43.231858,"lon":5.399814,"is_reserved":false,"is_disabled":false,"rental_uris":{"android":"levelo://app?vid=e14158b4-541c-43ba-ac57-b0aeef30344c","ios":"levelo://app?vid=e14158b4-541c-43ba-ac57-b0aeef30344c"},"vehicle_type_id":"4","last_reported":1753683592,"current_range_meters":10800,"station_id":"ce4bhn12rcd13ifvqgqg","pricing_plan_id":"cebpf4jnsgd1na2vs0mg"},{"bike_id":"9306cb98-ff63-47ed-9064-9c9a8b611a79","system_id":"levelo_inurba_marseille","lat":43.29627,"lon":5.37308,"is_reserved":false,"is_disabled":false,"rental_uris":{"android":"levelo://app?vid=9306cb98-ff63-47ed-9064-9c9a8b611a79","ios":"levelo://app?vid=9306cb98-ff63-47ed-9064-9c9a8b611a79"},"vehicle_type_id":"4","last_reported":1753683592,"current_range_meters":10800,"station_id":"","pricing_plan_id":"cebpf4jnsgd1na2vs0mg"},{"bike_id":"2b969e23-e02a-4efb-9575-88177b40c59b","system_id":"levelo_inurba_marseille","lat":43.32482,"lon":5.36565,"is_reserved":false,"is_disabled":false,"rental_uris":{"android":"levelo://app?vid=2b969e23-e02a-4efb-9575-88177b40c59b","ios":"levelo://app?vid=2b969e23-e02a-4efb-9575-88177b40c59b"},"vehicle_type_id":"4","last_reported":1753683592,"current_range_meters":10800,"station_id":"ce4bhs12rcd13ifvqhvg","pricing_plan_id":"cebpf4jnsgd1na2vs0mg"},{"bike_id":"1ba4e672-3f06-46c3-97c1-fa9fc69feaf0","system_id":"levelo_inurba_marseille","lat":43.25724,"lon":5.41107,"is_reserved":false,"is_disabled":false,"rental_uris":{"android":"levelo://app?vid=1ba4e672-3f06-46c3-97c1-fa9fc69feaf0","ios":"levelo://app?vid=1ba4e672-3f06-46c3-97c1-fa9fc69feaf0"},"vehicle_type_id":"4","last_reported":1753683592,"current_range_meters":10800,"station_id":"ce4bhkp2rcd13ifvqgd0","pricing_plan_id":"cebpf4jnsgd1na2vs0mg"},{"bike_id":"ef0499ef-de4c-4ac3-9106-f4b4e47cbe5b","system_id":"levelo_inurba_marseille","lat":43.31359,"lon":5.3671,"is_reserved":false,"is_disabled":false,"rental_uris":{"android":"levelo://app?vid=ef0499ef-de4c-4ac3-9106-f4b4e47cbe5b","ios":"levelo://app?vid=ef0499ef-de4c-4ac3-9106-f4b4e47cbe5b"},"vehicle_type_id":"4","last_reported":1753683592,"current_range_meters":10000,"station_id":"ce4bgr92rcd13ifvqc6g","pricing_plan_id":"cebpf4jnsgd1na2vs0mg"},{"bike_id":"710e528c-f5e2-4f10-8f2c-efcdc4d27379","system_id":"levelo_inurba_marseille","lat":43.279934,"lon":5.40007,"is_reserved":false,"is_disabled":true,"rental_uris":{"android":"levelo://app?vid=710e528c-f5e2-4f10-8f2c-efcdc4d27379","ios":"levelo://app?vid=710e528c-f5e2-4f10-8f2c-efcdc4d27379"},"vehicle_type_id":"4","last_reported":1753683592,"current_range_meters":11200,"station_id":"ce4bho92rcd13ifvqh4g","pricing_plan_id":"cebpf4jnsgd1na2vs0mg"},{"bike_id":"bf3b53b2-3e96-407b-b4d4-d797204ff8bd","system_id":"levelo_inurba_marseille","lat":43.29891,"lon":5.39733,"is_reserved":false,"is_disabled":false,"rental_uris":{"android":"levelo://app?vid=bf3b53b2-3e96-407b-b4d4-d797204ff8bd","ios":"levelo://app?vid=bf3b53b2-3e96-407b-b4d4-d797204ff8bd"},"vehicle_type_id":"4","last_reported":1753683592,"current_range_meters":11200,"station_id":"ce4bh0h2rcd13ifvqd50","pricing_plan_id":"cebpf4jnsgd1na2vs0mg"},{"bike_id":"264fbea3-2c7f-4636-bd2b-32e60faed0d5","system_id":"levelo_inurba_marseille","lat":43.22508,"lon":5.34758,"is_reserved":false,"is_disabled":false,"rental_uris":{"android":"levelo://app?vid=264fbea3-2c7f-4636-bd2b-32e60faed0d5","ios":"levelo://app?vid=264fbea3-2c7f-4636-bd2b-32e60faed0d5"},"vehicle_type_id":"4","last_reported":1753683592,"current_range_meters":11200,"station_id":"st_cvj5dfep6f1abm77gieg","pricing_plan_id":"cebpf4jnsgd1na2vs0mg"},{"bike_id":"2675420e-931f-4f28-b71c-8d75405675a7","system_id":"levelo_inurba_marseille","lat":43.31367,"lon":5.38487,"is_reserved":false,"is_disabled":false,"rental_uris":{"android":"levelo://app?vid=2675420e-931f-4f28-b71c-8d75405675a7","ios":"levelo://app?vid=2675420e-931f-4f28-b71c-8d75405675a7"},"vehicle_type_id":"4","last_reported":1753683592,"current_range_meters":11200,"station_id":"ce4bgt92rcd13ifvqcf0","pricing_plan_id":"cebpf4jnsgd1na2vs0mg"},{"bike_id":"388bc238-fad7-406c-9d22-fb5bb71926c0","system_id":"levelo_inurba_marseille","lat":43.28436,"lon":5.37536,"is_reserved":false,"is_disabled":false,"rental_uris":{"android":"levelo://app?vid=388bc238-fad7-406c-9d22-fb5bb71926c0","ios":"levelo://app?vid=388bc238-fad7-406c-9d22-fb5bb71926c0"},"vehicle_type_id":"4","last_reported":1753683592,"current_range_meters":11200,"station_id":"ce4bh412rcd13ifvqds0","pricing_plan_id":"cebpf4jnsgd1na2vs0mg"},{"bike_id":"d1ee7493-1c8a-469d-8c3c-eed7b0a6afe5","system_id":"levelo_inurba_marseille","lat":43.299683,"lon":5.386239,"is_reserved":false,"is_disabled":false,"rental_uris":{"android":"levelo://app?vid=d1ee7493-1c8a-469d-8c3c-eed7b0a6afe5","ios":"levelo://app?vid=d1ee7493-1c8a-469d-8c3c-eed7b0a6afe5"},"vehicle_type_id":"4","last_reported":1753683592,"current_range_meters":11600,"station_id":"","pricing_plan_id":"cebpf4jnsgd1na2vs0mg"},{"bike_id":"31dd8732-6772-4494-9245-541c930aed04","system_id":"levelo_inurba_marseille","lat":43.24179,"lon":5.36372,"is_reserved":false,"is_disabled":false,"rental_uris":{"android":"levelo://app?vid=31dd8732-6772-4494-9245-541c930aed04","ios":"levelo://app?vid=31dd8732-6772-4494-9245-541c930aed04"},"vehicle_type_id":"4","last_reported":1753683592,"current_range_meters":11600,"station_id":"cpo36qri1sfpv3e86is0","pricing_plan_id":"cebpf4jnsgd1na2vs0mg"},{"bike_id":"2d1a4998-1b9a-44e1-b2e6-d26cde2cec57","system_id":"levelo_inurba_marseille","lat":43.29314,"lon":5.37035,"is_reserved":false,"is_disabled":false,"rental_uris":{"android":"levelo://app?vid=2d1a4998-1b9a-44e1-b2e6-d26cde2cec57","ios":"levelo://app?vid=2d1a4998-1b9a-44e1-b2e6-d26cde2cec57"},"vehicle_type_id":"4","last_reported":1753683592,"current_range_meters":11600,"station_id":"","pricing_plan_id":"cebpf4jnsgd1na2vs0mg"},{"bike_id":"fb45cff3-08fa-4cc9-bf53-0d8295f6b8d1","system_id":"levelo_inurba_marseille","lat":43.27882,"lon":5.42806,"is_reserved":false,"is_disabled":false,"rental_uris":{"android":"levelo://app?vid=fb45cff3-08fa-4cc9-bf53-0d8295f6b8d1","ios":"levelo://app?vid=fb45cff3-08fa-4cc9-bf53-0d8295f6b8d1"},"vehicle_type_id":"4","last_reported":1753683592,"current_range_meters":11600,"station_id":"","pricing_plan_id":"cebpf4jnsgd1na2vs0mg"},{"bike_id":"d8cd6055-23c8-4622-a5bf-68f9b9ebfe53","system_id":"levelo_inurba_marseille","lat":43.2707,"lon":5.42281,"is_reserved":false,"is_disabled":true,"rental_uris":{"android":"levelo://app?vid=d8cd6055-23c8-4622-a5bf-68f9b9ebfe53","ios":"levelo://app?vid=d8cd6055-23c8-4622-a5bf-68f9b9ebfe53"},"vehicle_type_id":"4","last_reported":1753683592,"current_range_meters":11600,"station_id":"ce4bhk92rcd13ifvqgb0","pricing_plan_id":"cebpf4jnsgd1na2vs0mg"},{"bike_id":"688a04e1-05b6-4fc7-b03c-b784b8613797","system_id":"levelo_inurba_marseille","lat":43.292166,"lon":5.393145,"is_reserved":false,"is_disabled":false,"rental_uris":{"android":"levelo://app?vid=688a04e1-05b6-4fc7-b03c-b784b8613797","ios":"levelo://app?vid=688a04e1-05b6-4fc7-b03c-b784b8613797"},"vehicle_type_id":"4","last_reported":1753683592,"current_range_meters":11600,"station_id":"ce4bh192rcd13ifvqdd0","pricing_plan_id":"cebpf4jnsgd1na2vs0mg"},{"bike_id":"56ec8761-dee0-49c1-aba7-a69ac65d386f","system_id":"levelo_inurba_marseille","lat":43.22935,"lon":5.35366,"is_reserved":false,"is_disabled":false,"rental_uris":{"android":"levelo://app?vid=56ec8761-dee0-49c1-aba7-a69ac65d386f","ios":"levelo://app?vid=56ec8761-dee0-49c1-aba7-a69ac65d386f"},"vehicle_type_id":"4","last_reported":1753683592,"current_range_meters":11600,"station_id":"cpo3532slgdg3j2ikp40","pricing_plan_id":"cebpf4jnsgd1na2vs0mg"},{"bike_id":"655f979a-ada1-49bf-aca4-3875df2f9a8a","system_id":"levelo_inurba_marseille","lat":43.24078,"lon":5.37773,"is_reserved":false,"is_disabled":false,"rental_uris":{"android":"levelo://app?vid=655f979a-ada1-49bf-aca4-3875df2f9a8a","ios":"levelo://app?vid=655f979a-ada1-49bf-aca4-3875df2f9a8a"},"vehicle_type_id":"4","last_reported":1753683592,"current_range_meters":11600,"station_id":"ce4bhnp2rcd13ifvqgvg","pricing_plan_id":"cebpf4jnsgd1na2vs0mg"},{"bike_id":"78a8a8f6-1cbe-48a7-afd7-d8db96ba8c71","system_id":"levelo_inurba_marseille","lat":43.30193,"lon":5.36596,"is_reserved":false,"is_disabled":true,"rental_uris":{"android":"levelo://app?vid=78a8a8f6-1cbe-48a7-afd7-d8db96ba8c71","ios":"levelo://app?vid=78a8a8f6-1cbe-48a7-afd7-d8db96ba8c71"},"vehicle_type_id":"4","last_reported":1753683592,"current_range_meters":12000,"station_id":"ce4bgrh2rcd13ifvqc8g","pricing_plan_id":"cebpf4jnsgd1na2vs0mg"},{"bike_id":"1e09161e-3a73-4066-b81a-0698be49e5b4","system_id":"levelo_inurba_marseille","lat":43.2407,"lon":5.37762,"is_reserved":false,"is_disabled":false,"rental_uris":{"android":"levelo://app?vid=1e09161e-3a73-4066-b81a-0698be49e5b4","ios":"levelo://app?vid=1e09161e-3a73-4066-b81a-0698be49e5b4"},"vehicle_type_id":"4","last_reported":1753683592,"current_range_meters":12000,"station_id":"ce4bhnp2rcd13ifvqgvg","pricing_plan_id":"cebpf4jnsgd1na2vs0mg"},{"bike_id":"3152576e-d602-4c3f-980e-717f41aed773","system_id":"levelo_inurba_marseille","lat":43.33737,"lon":5.37465,"is_reserved":false,"is_disabled":false,"rental_uris":{"android":"levelo://app?vid=3152576e-d602-4c3f-980e-717f41aed773","ios":"levelo://app?vid=3152576e-d602-4c3f-980e-717f41aed773"},"vehicle_type_id":"4","last_reported":1753683592,"current_range_meters":12000,"station_id":"","pricing_plan_id":"cebpf4jnsgd1na2vs0mg"},{"bike_id":"5f3b4fd1-eae6-41fc-8eb7-bc8b29b63214","system_id":"levelo_inurba_marseille","lat":43.323628,"lon":5.367464,"is_reserved":false,"is_disabled":false,"rental_uris":{"android":"levelo://app?vid=5f3b4fd1-eae6-41fc-8eb7-bc8b29b63214","ios":"levelo://app?vid=5f3b4fd1-eae6-41fc-8eb7-bc8b29b63214"},"vehicle_type_id":"4","last_reported":1753683592,"current_range_meters":12400,"station_id":"ce4bhsh2rcd13ifvqi2g","pricing_plan_id":"cebpf4jnsgd1na2vs0mg"},{"bike_id":"b30d2e1a-5293-443b-8819-90074cbc1e40","system_id":"levelo_inurba_marseille","lat":43.32351,"lon":5.36744,"is_reserved":false,"is_disabled":false,"rental_uris":{"android":"levelo://app?vid=b30d2e1a-5293-443b-8819-90074cbc1e40","ios":"levelo://app?vid=b30d2e1a-5293-443b-8819-90074cbc1e40"},"vehicle_type_id":"4","last_reported":1753683592,"current_range_meters":12400,"station_id":"ce4bhsh2rcd13ifvqi2g","pricing_plan_id":"cebpf4jnsgd1na2vs0mg"},{"bike_id":"3b29f7cd-4629-4d8d-99b4-8d6b4918d179","system_id":"levelo_inurba_marseille","lat":43.2593,"lon":5.40908,"is_reserved":false,"is_disabled":false,"rental_uris":{"android":"levelo://app?vid=3b29f7cd-4629-4d8d-99b4-8d6b4918d179","ios":"levelo://app?vid=3b29f7cd-4629-4d8d-99b4-8d6b4918d179"},"vehicle_type_id":"4","last_reported":1753683592,"current_range_meters":12400,"station_id":"ce4bhm92rcd13ifvqglg","pricing_plan_id":"cebpf4jnsgd1na2vs0mg"},{"bike_id":"2edf8151-cb92-46cc-9321-24e397aeed28","system_id":"levelo_inurba_marseille","lat":43.230507,"lon":5.35493,"is_reserved":false,"is_disabled":false,"rental_uris":{"android":"levelo://app?vid=2edf8151-cb92-46cc-9321-24e397aeed28","ios":"levelo://app?vid=2edf8151-cb92-46cc-9321-24e397aeed28"},"vehicle_type_id":"4","last_reported":1753683592,"current_range_meters":12800,"station_id":"cpo3342slgdg3j2ifvpg","pricing_plan_id":"cebpf4jnsgd1na2vs0mg"},{"bike_id":"064dddab-c5f7-4516-ace6-92603a4acb94","system_id":"levelo_inurba_marseille","lat":43.26212,"lon":5.37444,"is_reserved":false,"is_disabled":false,"rental_uris":{"android":"levelo://app?vid=064dddab-c5f7-4516-ace6-92603a4acb94","ios":"levelo://app?vid=064dddab-c5f7-4516-ace6-92603a4acb94"},"vehicle_type_id":"4","last_reported":1753683592,"current_range_meters":12800,"station_id":"ce4bhgp2rcd13ifvqfc0","pricing_plan_id":"cebpf4jnsgd1na2vs0mg"},{"bike_id":"5137e5c8-fae9-4531-85b9-df7423feb303","system_id":"levelo_inurba_marseille","lat":43.33157,"lon":5.38916,"is_reserved":false,"is_disabled":false,"rental_uris":{"android":"levelo://app?vid=5137e5c8-fae9-4531-85b9-df7423feb303","ios":"levelo://app?vid=5137e5c8-fae9-4531-85b9-df7423feb303"},"vehicle_type_id":"4","last_reported":1753683592,"current_range_meters":12800,"station_id":"","pricing_plan_id":"cebpf4jnsgd1na2vs0mg"},{"bike_id":"feb40379-0815-4a68-aadb-305942f11d04","system_id":"levelo_inurba_marseille","lat":43.24958,"lon":5.38984,"is_reserved":false,"is_disabled":false,"rental_uris":{"android":"levelo://app?vid=feb40379-0815-4a68-aadb-305942f11d04","ios":"levelo://app?vid=feb40379-0815-4a68-aadb-305942f11d04"},"vehicle_type_id":"4","last_reported":1753683592,"current_range_meters":12800,"station_id":"","pricing_plan_id":"cebpf4jnsgd1na2vs0mg"},{"bike_id":"87a4d710-c859-4883-a056-db27db09862e","system_id":"levelo_inurba_marseille","lat":43.277585,"lon":5.355971,"is_reserved":false,"is_disabled":false,"rental_uris":{"android":"levelo://app?vid=87a4d710-c859-4883-a056-db27db09862e","ios":"levelo://app?vid=87a4d710-c859-4883-a056-db27db09862e"},"vehicle_type_id":"4","last_reported":1753683592,"current_range_meters":13600,"station_id":"","pricing_plan_id":"cebpf4jnsgd1na2vs0mg"},{"bike_id":"4d89b85d-6ffb-469b-9baf-9ceee8840d3c","system_id":"levelo_inurba_marseille","lat":43.272,"lon":5.39188,"is_reserved":false,"is_disabled":false,"rental_uris":{"android":"levelo://app?vid=4d89b85d-6ffb-469b-9baf-9ceee8840d3c","ios":"levelo://app?vid=4d89b85d-6ffb-469b-9baf-9ceee8840d3c"},"vehicle_type_id":"4","last_reported":1753683592,"current_range_meters":13600,"station_id":"ce4bhhp2rcd13ifvqfm0","pricing_plan_id":"cebpf4jnsgd1na2vs0mg"},{"bike_id":"21119b74-9092-450b-a780-dc3f5e5aa101","system_id":"levelo_inurba_marseille","lat":43.24059,"lon":5.3777,"is_reserved":false,"is_disabled":false,"rental_uris":{"android":"levelo://app?vid=21119b74-9092-450b-a780-dc3f5e5aa101","ios":"levelo://app?vid=21119b74-9092-450b-a780-dc3f5e5aa101"},"vehicle_type_id":"4","last_reported":1753683592,"current_range_meters":13600,"station_id":"ce4bhnp2rcd13ifvqgvg","pricing_plan_id":"cebpf4jnsgd1na2vs0mg"},{"bike_id":"b1ce726d-f66e-4a21-9e58-bcc99e079d39","system_id":"levelo_inurba_marseille","lat":43.27616,"lon":5.36111,"is_reserved":false,"is_disabled":false,"rental_uris":{"android":"levelo://app?vid=b1ce726d-f66e-4a21-9e58-bcc99e079d39","ios":"levelo://app?vid=b1ce726d-f66e-4a21-9e58-bcc99e079d39"},"vehicle_type_id":"4","last_reported":1753683592,"current_range_meters":13600,"station_id":"ce4bgj92rcd13ifvqbe0","pricing_plan_id":"cebpf4jnsgd1na2vs0mg"},{"bike_id":"181169c9-db39-4940-ad52-867921332b7e","system_id":"levelo_inurba_marseille","lat":43.22512,"lon":5.34777,"is_reserved":false,"is_disabled":false,"rental_uris":{"android":"levelo://app?vid=181169c9-db39-4940-ad52-867921332b7e","ios":"levelo://app?vid=181169c9-db39-4940-ad52-867921332b7e"},"vehicle_type_id":"4","last_reported":1753683592,"current_range_meters":13600,"station_id":"st_cvj5dfep6f1abm77gieg","pricing_plan_id":"cebpf4jnsgd1na2vs0mg"},{"bike_id":"098b018e-2607-4af2-bc10-8758893e88ea","system_id":"levelo_inurba_marseille","lat":43.24079,"lon":5.37769,"is_reserved":false,"is_disabled":false,"rental_uris":{"android":"levelo://app?vid=098b018e-2607-4af2-bc10-8758893e88ea","ios":"levelo://app?vid=098b018e-2607-4af2-bc10-8758893e88ea"},"vehicle_type_id":"4","last_reported":1753683592,"current_range_meters":13600,"station_id":"ce4bhnp2rcd13ifvqgvg","pricing_plan_id":"cebpf4jnsgd1na2vs0mg"},{"bike_id":"1ec4c634-4175-4ec6-990f-0eb9cca444ec","system_id":"levelo_inurba_marseille","lat":43.3048,"lon":5.37928,"is_reserved":false,"is_disabled":false,"rental_uris":{"android":"levelo://app?vid=1ec4c634-4175-4ec6-990f-0eb9cca444ec","ios":"levelo://app?vid=1ec4c634-4175-4ec6-990f-0eb9cca444ec"},"vehicle_type_id":"4","last_reported":1753683592,"current_range_meters":14000,"station_id":"ce4bgup2rcd13ifvqcn0","pricing_plan_id":"cebpf4jnsgd1na2vs0mg"},{"bike_id":"edb9fa8d-c676-48e0-b7a5-d0d3a19a7558","system_id":"levelo_inurba_marseille","lat":43.30517,"lon":5.36718,"is_reserved":false,"is_disabled":false,"rental_uris":{"android":"levelo://app?vid=edb9fa8d-c676-48e0-b7a5-d0d3a19a7558","ios":"levelo://app?vid=edb9fa8d-c676-48e0-b7a5-d0d3a19a7558"},"vehicle_type_id":"4","last_reported":1753683592,"current_range_meters":14000,"station_id":"ce4bgrp2rcd13ifvqc9g","pricing_plan_id":"cebpf4jnsgd1na2vs0mg"},{"bike_id":"11fe2cc2-6e20-468e-9842-81212715582a","system_id":"levelo_inurba_marseille","lat":43.29284,"lon":5.40117,"is_reserved":false,"is_disabled":false,"rental_uris":{"android":"levelo://app?vid=11fe2cc2-6e20-468e-9842-81212715582a","ios":"levelo://app?vid=11fe2cc2-6e20-468e-9842-81212715582a"},"vehicle_type_id":"4","last_reported":1753683592,"current_range_meters":14000,"station_id":"ce4bh312rcd13ifvqdk0","pricing_plan_id":"cebpf4jnsgd1na2vs0mg"},{"bike_id":"c7cf243a-7c39-4dde-b215-d7ee8c6b7e48","system_id":"levelo_inurba_marseille","lat":43.31724,"lon":5.40438,"is_reserved":false,"is_disabled":false,"rental_uris":{"android":"levelo://app?vid=c7cf243a-7c39-4dde-b215-d7ee8c6b7e48","ios":"levelo://app?vid=c7cf243a-7c39-4dde-b215-d7ee8c6b7e48"},"vehicle_type_id":"4","last_reported":1753683592,"current_range_meters":14000,"station_id":"","pricing_plan_id":"cebpf4jnsgd1na2vs0mg"},{"bike_id":"363860ed-6d0c-40e8-91e3-2c5053026ca7","system_id":"levelo_inurba_marseille","lat":43.22938,"lon":5.35356,"is_reserved":false,"is_disabled":false,"rental_uris":{"android":"levelo://app?vid=363860ed-6d0c-40e8-91e3-2c5053026ca7","ios":"levelo://app?vid=363860ed-6d0c-40e8-91e3-2c5053026ca7"},"vehicle_type_id":"4","last_reported":1753683592,"current_range_meters":14000,"station_id":"cpo3532slgdg3j2ikp40","pricing_plan_id":"cebpf4jnsgd1na2vs0mg"},{"bike_id":"8d801f83-3686-49fa-a7fd-3701c57be20d","system_id":"levelo_inurba_marseille","lat":43.240802,"lon":5.377407,"is_reserved":false,"is_disabled":false,"rental_uris":{"android":"levelo://app?vid=8d801f83-3686-49fa-a7fd-3701c57be20d","ios":"levelo://app?vid=8d801f83-3686-49fa-a7fd-3701c57be20d"},"vehicle_type_id":"4","last_reported":1753683592,"current_range_meters":14000,"station_id":"ce4bhnp2rcd13ifvqgvg","pricing_plan_id":"cebpf4jnsgd1na2vs0mg"},{"bike_id":"31a00701-3b72-4c38-bf1a-6cc628d56044","system_id":"levelo_inurba_marseille","lat":43.29028,"lon":5.39983,"is_reserved":false,"is_disabled":false,"rental_uris":{"android":"levelo://app?vid=31a00701-3b72-4c38-bf1a-6cc628d56044","ios":"levelo://app?vid=31a00701-3b72-4c38-bf1a-6cc628d56044"},"vehicle_type_id":"4","last_reported":1753683592,"current_range_meters":14000,"station_id":"ce4bh392rcd13ifvqdm0","pricing_plan_id":"cebpf4jnsgd1na2vs0mg"},{"bike_id":"da049fac-3e24-435e-a3f7-f4b220c2f063","system_id":"levelo_inurba_marseille","lat":43.28938,"lon":5.36631,"is_reserved":false,"is_disabled":false,"rental_uris":{"android":"levelo://app?vid=da049fac-3e24-435e-a3f7-f4b220c2f063","ios":"levelo://app?vid=da049fac-3e24-435e-a3f7-f4b220c2f063"},"vehicle_type_id":"4","last_reported":1753683592,"current_range_meters":14400,"station_id":"ce4bhap2rcd13ifvqek0","pricing_plan_id":"cebpf4jnsgd1na2vs0mg"},{"bike_id":"8e37ef79-bd01-46c2-9d9e-3d3f7741a07a","system_id":"levelo_inurba_marseille","lat":43.297302,"lon":5.374166,"is_reserved":false,"is_disabled":false,"rental_uris":{"android":"levelo://app?vid=8e37ef79-bd01-46c2-9d9e-3d3f7741a07a","ios":"levelo://app?vid=8e37ef79-bd01-46c2-9d9e-3d3f7741a07a"},"vehicle_type_id":"4","last_reported":1753683592,"current_range_meters":14400,"station_id":"","pricing_plan_id":"cebpf4jnsgd1na2vs0mg"},{"bike_id":"95dd70e4-879c-49e7-b318-a6c71b22a43e","system_id":"levelo_inurba_marseille","lat":43.2703,"lon":5.39295,"is_reserved":false,"is_disabled":false,"rental_uris":{"android":"levelo://app?vid=95dd70e4-879c-49e7-b318-a6c71b22a43e","ios":"levelo://app?vid=95dd70e4-879c-49e7-b318-a6c71b22a43e"},"vehicle_type_id":"4","last_reported":1753683592,"current_range_meters":14400,"station_id":"","pricing_plan_id":"cebpf4jnsgd1na2vs0mg"},{"bike_id":"baa049fa-c3e2-4c1a-8082-0c6c10cd9a92","system_id":"levelo_inurba_marseille","lat":43.23063,"lon":5.354813,"is_reserved":false,"is_disabled":false,"rental_uris":{"android":"levelo://app?vid=baa049fa-c3e2-4c1a-8082-0c6c10cd9a92","ios":"levelo://app?vid=baa049fa-c3e2-4c1a-8082-0c6c10cd9a92"},"vehicle_type_id":"4","last_reported":1753683592,"current_range_meters":14400,"station_id":"cpo3342slgdg3j2ifvpg","pricing_plan_id":"cebpf4jnsgd1na2vs0mg"},{"bike_id":"536dd0a6-7f1b-40ed-af5a-c920c69aac4b","system_id":"levelo_inurba_marseille","lat":43.27627,"lon":5.36138,"is_reserved":false,"is_disabled":false,"rental_uris":{"android":"levelo://app?vid=536dd0a6-7f1b-40ed-af5a-c920c69aac4b","ios":"levelo://app?vid=536dd0a6-7f1b-40ed-af5a-c920c69aac4b"},"vehicle_type_id":"4","last_reported":1753683592,"current_range_meters":14400,"station_id":"ce4bgj92rcd13ifvqbe0","pricing_plan_id":"cebpf4jnsgd1na2vs0mg"},{"bike_id":"9d6f4d9f-a761-4ae2-9e4b-00f8fda461c4","system_id":"levelo_inurba_marseille","lat":43.28561,"lon":5.39497,"is_reserved":false,"is_disabled":true,"rental_uris":{"android":"levelo://app?vid=9d6f4d9f-a761-4ae2-9e4b-00f8fda461c4","ios":"levelo://app?vid=9d6f4d9f-a761-4ae2-9e4b-00f8fda461c4"},"vehicle_type_id":"4","last_reported":1753683592,"current_range_meters":14400,"station_id":"ce4bh292rcd13ifvqdg0","pricing_plan_id":"cebpf4jnsgd1na2vs0mg"},{"bike_id":"6238abb3-baac-4bb2-91fc-857b53675b1d","system_id":"levelo_inurba_marseille","lat":43.29386,"lon":5.3783,"is_reserved":false,"is_disabled":false,"rental_uris":{"android":"levelo://app?vid=6238abb3-baac-4bb2-91fc-857b53675b1d","ios":"levelo://app?vid=6238abb3-baac-4bb2-91fc-857b53675b1d"},"vehicle_type_id":"4","last_reported":1753683592,"current_range_meters":14400,"station_id":"ce4bgjh2rcd13ifvqbf0","pricing_plan_id":"cebpf4jnsgd1na2vs0mg"},{"bike_id":"209c73e6-1f69-4d13-9fed-77cb46eecd05","system_id":"levelo_inurba_marseille","lat":43.34681,"lon":5.38065,"is_reserved":false,"is_disabled":false,"rental_uris":{"android":"levelo://app?vid=209c73e6-1f69-4d13-9fed-77cb46eecd05","ios":"levelo://app?vid=209c73e6-1f69-4d13-9fed-77cb46eecd05"},"vehicle_type_id":"4","last_reported":1753683592,"current_range_meters":14400,"station_id":"","pricing_plan_id":"cebpf4jnsgd1na2vs0mg"},{"bike_id":"8142408b-84ea-4577-9728-f52c3a5f16f1","system_id":"levelo_inurba_marseille","lat":43.24157,"lon":5.36428,"is_reserved":false,"is_disabled":true,"rental_uris":{"android":"levelo://app?vid=8142408b-84ea-4577-9728-f52c3a5f16f1","ios":"levelo://app?vid=8142408b-84ea-4577-9728-f52c3a5f16f1"},"vehicle_type_id":"4","last_reported":1753683592,"current_range_meters":14800,"station_id":"cpo36qri1sfpv3e86is0","pricing_plan_id":"cebpf4jnsgd1na2vs0mg"},{"bike_id":"f0b9ae88-2c8c-49d1-a054-7f8fd132667c","system_id":"levelo_inurba_marseille","lat":43.29204,"lon":5.35774,"is_reserved":false,"is_disabled":false,"rental_uris":{"android":"levelo://app?vid=f0b9ae88-2c8c-49d1-a054-7f8fd132667c","ios":"levelo://app?vid=f0b9ae88-2c8c-49d1-a054-7f8fd132667c"},"vehicle_type_id":"4","last_reported":1753683592,"current_range_meters":14800,"station_id":"ce4bhb12rcd13ifvqel0","pricing_plan_id":"cebpf4jnsgd1na2vs0mg"},{"bike_id":"fc176c11-4ec3-4fc2-a782-4c5a7074732b","system_id":"levelo_inurba_marseille","lat":43.30164,"lon":5.3739,"is_reserved":false,"is_disabled":true,"rental_uris":{"android":"levelo://app?vid=fc176c11-4ec3-4fc2-a782-4c5a7074732b","ios":"levelo://app?vid=fc176c11-4ec3-4fc2-a782-4c5a7074732b"},"vehicle_type_id":"4","last_reported":1753683592,"current_range_meters":14800,"station_id":"ce4bgs92rcd13ifvqcc0","pricing_plan_id":"cebpf4jnsgd1na2vs0mg"},{"bike_id":"e8cc8994-42cf-4e76-b1d9-7614b70d4459","system_id":"levelo_inurba_marseille","lat":43.241764,"lon":5.397285,"is_reserved":false,"is_disabled":false,"rental_uris":{"android":"levelo://app?vid=e8cc8994-42cf-4e76-b1d9-7614b70d4459","ios":"levelo://app?vid=e8cc8994-42cf-4e76-b1d9-7614b70d4459"},"vehicle_type_id":"4","last_reported":1753683592,"current_range_meters":14800,"station_id":"ce4bhn12rcd13ifvqgpg","pricing_plan_id":"cebpf4jnsgd1na2vs0mg"},{"bike_id":"65e3db07-f188-422b-b687-3d06cfe2bcf8","system_id":"levelo_inurba_marseille","lat":43.280395,"lon":5.350098,"is_reserved":false,"is_disabled":false,"rental_uris":{"android":"levelo://app?vid=65e3db07-f188-422b-b687-3d06cfe2bcf8","ios":"levelo://app?vid=65e3db07-f188-422b-b687-3d06cfe2bcf8"},"vehicle_type_id":"4","last_reported":1753683592,"current_range_meters":14800,"station_id":"","pricing_plan_id":"cebpf4jnsgd1na2vs0mg"},{"bike_id":"2b6cf374-ab08-41b5-a0ab-81c6d4da50a4","system_id":"levelo_inurba_marseille","lat":43.28408,"lon":5.37516,"is_reserved":false,"is_disabled":false,"rental_uris":{"android":"levelo://app?vid=2b6cf374-ab08-41b5-a0ab-81c6d4da50a4","ios":"levelo://app?vid=2b6cf374-ab08-41b5-a0ab-81c6d4da50a4"},"vehicle_type_id":"4","last_reported":1753683592,"current_range_meters":14800,"station_id":"ce4bh412rcd13ifvqds0","pricing_plan_id":"cebpf4jnsgd1na2vs0mg"},{"bike_id":"da8a121b-dd93-4a31-8254-38a795a66238","system_id":"levelo_inurba_marseille","lat":43.24081,"lon":5.37754,"is_reserved":false,"is_disabled":false,"rental_uris":{"android":"levelo://app?vid=da8a121b-dd93-4a31-8254-38a795a66238","ios":"levelo://app?vid=da8a121b-dd93-4a31-8254-38a795a66238"},"vehicle_type_id":"4","last_reported":1753683592,"current_range_meters":14800,"station_id":"ce4bhnp2rcd13ifvqgvg","pricing_plan_id":"cebpf4jnsgd1na2vs0mg"},{"bike_id":"149fbe11-3bce-47a0-b584-c7c7bd6bb12f","system_id":"levelo_inurba_marseille","lat":43.216167,"lon":5.344403,"is_reserved":false,"is_disabled":false,"rental_uris":{"android":"levelo://app?vid=149fbe11-3bce-47a0-b584-c7c7bd6bb12f","ios":"levelo://app?vid=149fbe11-3bce-47a0-b584-c7c7bd6bb12f"},"vehicle_type_id":"4","last_reported":1753683592,"current_range_meters":14800,"station_id":"","pricing_plan_id":"cebpf4jnsgd1na2vs0mg"},{"bike_id":"26d69215-edb4-4917-b3fc-22f62f7da34a","system_id":"levelo_inurba_marseille","lat":43.22503,"lon":5.34777,"is_reserved":false,"is_disabled":false,"rental_uris":{"android":"levelo://app?vid=26d69215-edb4-4917-b3fc-22f62f7da34a","ios":"levelo://app?vid=26d69215-edb4-4917-b3fc-22f62f7da34a"},"vehicle_type_id":"4","last_reported":1753683592,"current_range_meters":14800,"station_id":"st_cvj5dfep6f1abm77gieg","pricing_plan_id":"cebpf4jnsgd1na2vs0mg"},{"bike_id":"f6b77dd7-2798-47a0-8119-cd1bbc549fe6","system_id":"levelo_inurba_marseille","lat":43.29927,"lon":5.37482,"is_reserved":false,"is_disabled":false,"rental_uris":{"android":"levelo://app?vid=f6b77dd7-2798-47a0-8119-cd1bbc549fe6","ios":"levelo://app?vid=f6b77dd7-2798-47a0-8119-cd1bbc549fe6"},"vehicle_type_id":"4","last_reported":1753683592,"current_range_meters":14400,"station_id":"ce4bgjh2rcd13ifvqbg0","pricing_plan_id":"cebpf4jnsgd1na2vs0mg"},{"bike_id":"e1b8cacf-7f67-4490-93b1-ee4795d08ba9","system_id":"levelo_inurba_marseille","lat":43.284047,"lon":5.375124,"is_reserved":false,"is_disabled":false,"rental_uris":{"android":"levelo://app?vid=e1b8cacf-7f67-4490-93b1-ee4795d08ba9","ios":"levelo://app?vid=e1b8cacf-7f67-4490-93b1-ee4795d08ba9"},"vehicle_type_id":"4","last_reported":1753683592,"current_range_meters":15200,"station_id":"ce4bh412rcd13ifvqds0","pricing_plan_id":"cebpf4jnsgd1na2vs0mg"},{"bike_id":"5bf3ed1a-1969-409f-8d81-292c7d10a407","system_id":"levelo_inurba_marseille","lat":43.321088,"lon":5.367729,"is_reserved":false,"is_disabled":false,"rental_uris":{"android":"levelo://app?vid=5bf3ed1a-1969-409f-8d81-292c7d10a407","ios":"levelo://app?vid=5bf3ed1a-1969-409f-8d81-292c7d10a407"},"vehicle_type_id":"4","last_reported":1753683592,"current_range_meters":15200,"station_id":"ce4bhrh2rcd13ifvqhug","pricing_plan_id":"cebpf4jnsgd1na2vs0mg"},{"bike_id":"fc4efa6c-d667-446f-bdb1-3c041a9dcc22","system_id":"levelo_inurba_marseille","lat":43.26829,"lon":5.40233,"is_reserved":false,"is_disabled":false,"rental_uris":{"android":"levelo://app?vid=fc4efa6c-d667-446f-bdb1-3c041a9dcc22","ios":"levelo://app?vid=fc4efa6c-d667-446f-bdb1-3c041a9dcc22"},"vehicle_type_id":"4","last_reported":1753683592,"current_range_meters":15200,"station_id":"ce501612rcd8frsf0b60","pricing_plan_id":"cebpf4jnsgd1na2vs0mg"},{"bike_id":"1848e763-c1e7-437f-8ea0-328c3886bf28","system_id":"levelo_inurba_marseille","lat":43.22963,"lon":5.35351,"is_reserved":false,"is_disabled":false,"rental_uris":{"android":"levelo://app?vid=1848e763-c1e7-437f-8ea0-328c3886bf28","ios":"levelo://app?vid=1848e763-c1e7-437f-8ea0-328c3886bf28"},"vehicle_type_id":"4","last_reported":1753683592,"current_range_meters":15200,"station_id":"cpo3532slgdg3j2ikp40","pricing_plan_id":"cebpf4jnsgd1na2vs0mg"},{"bike_id":"b5bc7c4f-42ca-4f57-a975-008ed1c9ade5","system_id":"levelo_inurba_marseille","lat":43.292272,"lon":5.360526,"is_reserved":false,"is_disabled":false,"rental_uris":{"android":"levelo://app?vid=b5bc7c4f-42ca-4f57-a975-008ed1c9ade5","ios":"levelo://app?vid=b5bc7c4f-42ca-4f57-a975-008ed1c9ade5"},"vehicle_type_id":"4","last_reported":1753683592,"current_range_meters":16000,"station_id":"","pricing_plan_id":"cebpf4jnsgd1na2vs0mg"},{"bike_id":"f104e79e-8727-4ccc-8a35-a020cc2fb0ec","system_id":"levelo_inurba_marseille","lat":43.29176,"lon":5.35796,"is_reserved":false,"is_disabled":true,"rental_uris":{"android":"levelo://app?vid=f104e79e-8727-4ccc-8a35-a020cc2fb0ec","ios":"levelo://app?vid=f104e79e-8727-4ccc-8a35-a020cc2fb0ec"},"vehicle_type_id":"4","last_reported":1753683592,"current_range_meters":16000,"station_id":"ce4bhb12rcd13ifvqel0","pricing_plan_id":"cebpf4jnsgd1na2vs0mg"},{"bike_id":"a9df78d2-277c-4ca0-ba02-79b14cf1c87f","system_id":"levelo_inurba_marseille","lat":43.30928,"lon":5.40136,"is_reserved":false,"is_disabled":false,"rental_uris":{"android":"levelo://app?vid=a9df78d2-277c-4ca0-ba02-79b14cf1c87f","ios":"levelo://app?vid=a9df78d2-277c-4ca0-ba02-79b14cf1c87f"},"vehicle_type_id":"4","last_reported":1753683592,"current_range_meters":16000,"station_id":"ce4bgvp2rcd13ifvqct0","pricing_plan_id":"cebpf4jnsgd1na2vs0mg"},{"bike_id":"935f6261-c2eb-4b05-b3a2-8aad98de7932","system_id":"levelo_inurba_marseille","lat":43.30884,"lon":5.37184,"is_reserved":false,"is_disabled":false,"rental_uris":{"android":"levelo://app?vid=935f6261-c2eb-4b05-b3a2-8aad98de7932","ios":"levelo://app?vid=935f6261-c2eb-4b05-b3a2-8aad98de7932"},"vehicle_type_id":"4","last_reported":1753683592,"current_range_meters":15200,"station_id":"ce4bguh2rcd13ifvqckg","pricing_plan_id":"cebpf4jnsgd1na2vs0mg"},{"bike_id":"72e9581e-243c-489b-ac72-946b1381353f","system_id":"levelo_inurba_marseille","lat":43.306407,"lon":5.375522,"is_reserved":false,"is_disabled":false,"rental_uris":{"android":"levelo://app?vid=72e9581e-243c-489b-ac72-946b1381353f","ios":"levelo://app?vid=72e9581e-243c-489b-ac72-946b1381353f"},"vehicle_type_id":"4","last_reported":1753683592,"current_range_meters":16000,"station_id":"","pricing_plan_id":"cebpf4jnsgd1na2vs0mg"},{"bike_id":"d70613a2-027e-4ce6-8023-62349a7a4277","system_id":"levelo_inurba_marseille","lat":43.22498,"lon":5.34782,"is_reserved":false,"is_disabled":false,"rental_uris":{"android":"levelo://app?vid=d70613a2-027e-4ce6-8023-62349a7a4277","ios":"levelo://app?vid=d70613a2-027e-4ce6-8023-62349a7a4277"},"vehicle_type_id":"4","last_reported":1753683592,"current_range_meters":16000,"station_id":"st_cvj5dfep6f1abm77gieg","pricing_plan_id":"cebpf4jnsgd1na2vs0mg"},{"bike_id":"eb7f2bd6-c8ea-49b0-b305-f228cce9f186","system_id":"levelo_inurba_marseille","lat":43.286711,"lon":5.363465,"is_reserved":false,"is_disabled":false,"rental_uris":{"android":"levelo://app?vid=eb7f2bd6-c8ea-49b0-b305-f228cce9f186","ios":"levelo://app?vid=eb7f2bd6-c8ea-49b0-b305-f228cce9f186"},"vehicle_type_id":"4","last_reported":1753683592,"current_range_meters":16000,"station_id":"ce4bhah2rcd13ifvqej0","pricing_plan_id":"cebpf4jnsgd1na2vs0mg"},{"bike_id":"fcf9ae50-a27d-44f9-b88e-4240b9eaae7c","system_id":"levelo_inurba_marseille","lat":43.26562,"lon":5.390119,"is_reserved":false,"is_disabled":false,"rental_uris":{"android":"levelo://app?vid=fcf9ae50-a27d-44f9-b88e-4240b9eaae7c","ios":"levelo://app?vid=fcf9ae50-a27d-44f9-b88e-4240b9eaae7c"},"vehicle_type_id":"4","last_reported":1753683592,"current_range_meters":16000,"station_id":"ce4bhe12rcd13ifvqf30","pricing_plan_id":"cebpf4jnsgd1na2vs0mg"},{"bike_id":"8156ba1c-79d1-400d-96a0-33669bb7caeb","system_id":"levelo_inurba_marseille","lat":43.325942,"lon":5.411442,"is_reserved":false,"is_disabled":false,"rental_uris":{"android":"levelo://app?vid=8156ba1c-79d1-400d-96a0-33669bb7caeb","ios":"levelo://app?vid=8156ba1c-79d1-400d-96a0-33669bb7caeb"},"vehicle_type_id":"4","last_reported":1753683592,"current_range_meters":16000,"station_id":"","pricing_plan_id":"cebpf4jnsgd1na2vs0mg"},{"bike_id":"2807d12a-8c8a-4209-a9c0-8d1cf55dce5e","system_id":"levelo_inurba_marseille","lat":43.252031,"lon":5.382134,"is_reserved":false,"is_disabled":true,"rental_uris":{"android":"levelo://app?vid=2807d12a-8c8a-4209-a9c0-8d1cf55dce5e","ios":"levelo://app?vid=2807d12a-8c8a-4209-a9c0-8d1cf55dce5e"},"vehicle_type_id":"4","last_reported":1753683592,"current_range_meters":16000,"station_id":"","pricing_plan_id":"cebpf4jnsgd1na2vs0mg"},{"bike_id":"07eb427f-275a-4480-989e-bc71fc6025ec","system_id":"levelo_inurba_marseille","lat":43.29892,"lon":5.39734,"is_reserved":false,"is_disabled":false,"rental_uris":{"android":"levelo://app?vid=07eb427f-275a-4480-989e-bc71fc6025ec","ios":"levelo://app?vid=07eb427f-275a-4480-989e-bc71fc6025ec"},"vehicle_type_id":"4","last_reported":1753683592,"current_range_meters":16000,"station_id":"ce4bh0h2rcd13ifvqd50","pricing_plan_id":"cebpf4jnsgd1na2vs0mg"},{"bike_id":"8078f45a-25b7-42fe-9f2f-63a22e3d5bec","system_id":"levelo_inurba_marseille","lat":43.31993,"lon":5.381584,"is_reserved":false,"is_disabled":false,"rental_uris":{"android":"levelo://app?vid=8078f45a-25b7-42fe-9f2f-63a22e3d5bec","ios":"levelo://app?vid=8078f45a-25b7-42fe-9f2f-63a22e3d5bec"},"vehicle_type_id":"4","last_reported":1753683592,"current_range_meters":16000,"station_id":"ce4bhr12rcd13ifvqhpg","pricing_plan_id":"cebpf4jnsgd1na2vs0mg"},{"bike_id":"947cf9dd-0905-42a3-aafb-8e1c05b7ea7a","system_id":"levelo_inurba_marseille","lat":43.30835,"lon":5.38209,"is_reserved":false,"is_disabled":false,"rental_uris":{"android":"levelo://app?vid=947cf9dd-0905-42a3-aafb-8e1c05b7ea7a","ios":"levelo://app?vid=947cf9dd-0905-42a3-aafb-8e1c05b7ea7a"},"vehicle_type_id":"4","last_reported":1753683592,"current_range_meters":16000,"station_id":"","pricing_plan_id":"cebpf4jnsgd1na2vs0mg"},{"bike_id":"30db7039-e49e-4da0-b98a-6b24e071ce06","system_id":"levelo_inurba_marseille","lat":43.30793,"lon":5.38139,"is_reserved":false,"is_disabled":false,"rental_uris":{"android":"levelo://app?vid=30db7039-e49e-4da0-b98a-6b24e071ce06","ios":"levelo://app?vid=30db7039-e49e-4da0-b98a-6b24e071ce06"},"vehicle_type_id":"4","last_reported":1753683592,"current_range_meters":15200,"station_id":"ce4bgt12rcd13ifvqce0","pricing_plan_id":"cebpf4jnsgd1na2vs0mg"},{"bike_id":"c38609b3-259e-4860-a0b7-40eb025d032a","system_id":"levelo_inurba_marseille","lat":43.28704,"lon":5.39978,"is_reserved":false,"is_disabled":false,"rental_uris":{"android":"levelo://app?vid=c38609b3-259e-4860-a0b7-40eb025d032a","ios":"levelo://app?vid=c38609b3-259e-4860-a0b7-40eb025d032a"},"vehicle_type_id":"4","last_reported":1753683592,"current_range_meters":16400,"station_id":"ce4bho92rcd13ifvqh3g","pricing_plan_id":"cebpf4jnsgd1na2vs0mg"},{"bike_id":"7e2e7429-6a1d-4bcf-8458-892dad4cf914","system_id":"levelo_inurba_marseille","lat":43.30153,"lon":5.38073,"is_reserved":false,"is_disabled":false,"rental_uris":{"android":"levelo://app?vid=7e2e7429-6a1d-4bcf-8458-892dad4cf914","ios":"levelo://app?vid=7e2e7429-6a1d-4bcf-8458-892dad4cf914"},"vehicle_type_id":"4","last_reported":1753683592,"current_range_meters":16400,"station_id":"ce4bgjp2rcd13ifvqbh0","pricing_plan_id":"cebpf4jnsgd1na2vs0mg"},{"bike_id":"47eb4bcd-34cb-4441-8fc0-2fa8b9a9f4b2","system_id":"levelo_inurba_marseille","lat":43.24555,"lon":5.40231,"is_reserved":false,"is_disabled":false,"rental_uris":{"android":"levelo://app?vid=47eb4bcd-34cb-4441-8fc0-2fa8b9a9f4b2","ios":"levelo://app?vid=47eb4bcd-34cb-4441-8fc0-2fa8b9a9f4b2"},"vehicle_type_id":"4","last_reported":1753683592,"current_range_meters":16400,"station_id":"","pricing_plan_id":"cebpf4jnsgd1na2vs0mg"},{"bike_id":"71f6d478-2cc3-4b15-a6d2-228ae1738f49","system_id":"levelo_inurba_marseille","lat":43.251164,"lon":5.403233,"is_reserved":false,"is_disabled":false,"rental_uris":{"android":"levelo://app?vid=71f6d478-2cc3-4b15-a6d2-228ae1738f49","ios":"levelo://app?vid=71f6d478-2cc3-4b15-a6d2-228ae1738f49"},"vehicle_type_id":"4","last_reported":1753683592,"current_range_meters":16400,"station_id":"ce4bhlh2rcd13ifvqgig","pricing_plan_id":"cebpf4jnsgd1na2vs0mg"},{"bike_id":"d03ebcd2-83e7-4ffd-bb1d-18fbff069a76","system_id":"levelo_inurba_marseille","lat":43.32556,"lon":5.41419,"is_reserved":false,"is_disabled":false,"rental_uris":{"android":"levelo://app?vid=d03ebcd2-83e7-4ffd-bb1d-18fbff069a76","ios":"levelo://app?vid=d03ebcd2-83e7-4ffd-bb1d-18fbff069a76"},"vehicle_type_id":"4","last_reported":1753683592,"current_range_meters":16400,"station_id":"ce4bhq12rcd13ifvqhhg","pricing_plan_id":"cebpf4jnsgd1na2vs0mg"},{"bike_id":"3dd2b2f9-64bc-4f1c-ad06-386f2ab19894","system_id":"levelo_inurba_marseille","lat":43.29741,"lon":5.36435,"is_reserved":false,"is_disabled":false,"rental_uris":{"android":"levelo://app?vid=3dd2b2f9-64bc-4f1c-ad06-386f2ab19894","ios":"levelo://app?vid=3dd2b2f9-64bc-4f1c-ad06-386f2ab19894"},"vehicle_type_id":"4","last_reported":1753683592,"current_range_meters":16400,"station_id":"","pricing_plan_id":"cebpf4jnsgd1na2vs0mg"},{"bike_id":"c5d6c16c-667e-4c61-9e09-b5efae6e86bc","system_id":"levelo_inurba_marseille","lat":43.298991,"lon":5.436795,"is_reserved":false,"is_disabled":false,"rental_uris":{"android":"levelo://app?vid=c5d6c16c-667e-4c61-9e09-b5efae6e86bc","ios":"levelo://app?vid=c5d6c16c-667e-4c61-9e09-b5efae6e86bc"},"vehicle_type_id":"4","last_reported":1753683592,"current_range_meters":16400,"station_id":"ce4bhpp2rcd13ifvqhfg","pricing_plan_id":"cebpf4jnsgd1na2vs0mg"},{"bike_id":"3cc35ae4-9f14-400a-9331-a058fb7c5443","system_id":"levelo_inurba_marseille","lat":43.31748,"lon":5.39028,"is_reserved":false,"is_disabled":true,"rental_uris":{"android":"levelo://app?vid=3cc35ae4-9f14-400a-9331-a058fb7c5443","ios":"levelo://app?vid=3cc35ae4-9f14-400a-9331-a058fb7c5443"},"vehicle_type_id":"4","last_reported":1753683592,"current_range_meters":16400,"station_id":"ce4bhqp2rcd13ifvqhng","pricing_plan_id":"cebpf4jnsgd1na2vs0mg"},{"bike_id":"27f89503-7d7a-4139-bcf3-d684eefc4ee4","system_id":"levelo_inurba_marseille","lat":43.31353,"lon":5.36714,"is_reserved":false,"is_disabled":false,"rental_uris":{"android":"levelo://app?vid=27f89503-7d7a-4139-bcf3-d684eefc4ee4","ios":"levelo://app?vid=27f89503-7d7a-4139-bcf3-d684eefc4ee4"},"vehicle_type_id":"4","last_reported":1753683592,"current_range_meters":16800,"station_id":"ce4bgr92rcd13ifvqc6g","pricing_plan_id":"cebpf4jnsgd1na2vs0mg"},{"bike_id":"210819d5-430f-4c83-b2e1-7faaa704d681","system_id":"levelo_inurba_marseille","lat":43.23152,"lon":5.43705,"is_reserved":false,"is_disabled":false,"rental_uris":{"android":"levelo://app?vid=210819d5-430f-4c83-b2e1-7faaa704d681","ios":"levelo://app?vid=210819d5-430f-4c83-b2e1-7faaa704d681"},"vehicle_type_id":"4","last_reported":1753683592,"current_range_meters":16400,"station_id":"ce4bhmp2rcd13ifvqgog","pricing_plan_id":"cebpf4jnsgd1na2vs0mg"},{"bike_id":"885c91ff-b037-4785-8c47-553694422f95","system_id":"levelo_inurba_marseille","lat":43.29639,"lon":5.37211,"is_reserved":false,"is_disabled":false,"rental_uris":{"android":"levelo://app?vid=885c91ff-b037-4785-8c47-553694422f95","ios":"levelo://app?vid=885c91ff-b037-4785-8c47-553694422f95"},"vehicle_type_id":"4","last_reported":1753683592,"current_range_meters":16800,"station_id":"","pricing_plan_id":"cebpf4jnsgd1na2vs0mg"},{"bike_id":"3c54519c-2ac7-4afd-b5f2-ef8293620ed7","system_id":"levelo_inurba_marseille","lat":43.28419,"lon":5.37481,"is_reserved":false,"is_disabled":false,"rental_uris":{"android":"levelo://app?vid=3c54519c-2ac7-4afd-b5f2-ef8293620ed7","ios":"levelo://app?vid=3c54519c-2ac7-4afd-b5f2-ef8293620ed7"},"vehicle_type_id":"4","last_reported":1753683592,"current_range_meters":16800,"station_id":"ce4bh412rcd13ifvqds0","pricing_plan_id":"cebpf4jnsgd1na2vs0mg"},{"bike_id":"d917bd68-be2e-43ff-96c0-7fb698f8b9ab","system_id":"levelo_inurba_marseille","lat":43.27604,"lon":5.36109,"is_reserved":false,"is_disabled":false,"rental_uris":{"android":"levelo://app?vid=d917bd68-be2e-43ff-96c0-7fb698f8b9ab","ios":"levelo://app?vid=d917bd68-be2e-43ff-96c0-7fb698f8b9ab"},"vehicle_type_id":"4","last_reported":1753683592,"current_range_meters":16800,"station_id":"ce4bgj92rcd13ifvqbe0","pricing_plan_id":"cebpf4jnsgd1na2vs0mg"},{"bike_id":"ae43b4ec-64bc-4eb6-ae20-a2f81ea93017","system_id":"levelo_inurba_marseille","lat":43.2318,"lon":5.35546,"is_reserved":false,"is_disabled":false,"rental_uris":{"android":"levelo://app?vid=ae43b4ec-64bc-4eb6-ae20-a2f81ea93017","ios":"levelo://app?vid=ae43b4ec-64bc-4eb6-ae20-a2f81ea93017"},"vehicle_type_id":"4","last_reported":1753683592,"current_range_meters":16800,"station_id":"ce4bhu92rcd13ifvqi70","pricing_plan_id":"cebpf4jnsgd1na2vs0mg"},{"bike_id":"2a3a9f20-00d1-4c95-a093-ba8e28724bc0","system_id":"levelo_inurba_marseille","lat":43.30639,"lon":5.37593,"is_reserved":false,"is_disabled":false,"rental_uris":{"android":"levelo://app?vid=2a3a9f20-00d1-4c95-a093-ba8e28724bc0","ios":"levelo://app?vid=2a3a9f20-00d1-4c95-a093-ba8e28724bc0"},"vehicle_type_id":"4","last_reported":1753683592,"current_range_meters":16800,"station_id":"","pricing_plan_id":"cebpf4jnsgd1na2vs0mg"},{"bike_id":"1e0660c7-a23c-48bd-8bff-364dddd369d6","system_id":"levelo_inurba_marseille","lat":43.28181,"lon":5.42605,"is_reserved":false,"is_disabled":false,"rental_uris":{"android":"levelo://app?vid=1e0660c7-a23c-48bd-8bff-364dddd369d6","ios":"levelo://app?vid=1e0660c7-a23c-48bd-8bff-364dddd369d6"},"vehicle_type_id":"4","last_reported":1753683592,"current_range_meters":16800,"station_id":"ce4bhnh2rcd13ifvqgug","pricing_plan_id":"cebpf4jnsgd1na2vs0mg"},{"bike_id":"74086b04-0dd6-46a7-9d00-59be29e56777","system_id":"levelo_inurba_marseille","lat":43.29899,"lon":5.39714,"is_reserved":false,"is_disabled":false,"rental_uris":{"android":"levelo://app?vid=74086b04-0dd6-46a7-9d00-59be29e56777","ios":"levelo://app?vid=74086b04-0dd6-46a7-9d00-59be29e56777"},"vehicle_type_id":"4","last_reported":1753683592,"current_range_meters":17200,"station_id":"ce4bh0h2rcd13ifvqd50","pricing_plan_id":"cebpf4jnsgd1na2vs0mg"},{"bike_id":"0d7c85f5-c17f-4588-92f6-8a96011cddea","system_id":"levelo_inurba_marseille","lat":43.2293,"lon":5.353886,"is_reserved":false,"is_disabled":false,"rental_uris":{"android":"levelo://app?vid=0d7c85f5-c17f-4588-92f6-8a96011cddea","ios":"levelo://app?vid=0d7c85f5-c17f-4588-92f6-8a96011cddea"},"vehicle_type_id":"4","last_reported":1753683592,"current_range_meters":17200,"station_id":"cpo3532slgdg3j2ikp40","pricing_plan_id":"cebpf4jnsgd1na2vs0mg"},{"bike_id":"d4b0442d-37e3-4887-8827-87b59f4e9086","system_id":"levelo_inurba_marseille","lat":43.2977,"lon":5.38108,"is_reserved":false,"is_disabled":false,"rental_uris":{"android":"levelo://app?vid=d4b0442d-37e3-4887-8827-87b59f4e9086","ios":"levelo://app?vid=d4b0442d-37e3-4887-8827-87b59f4e9086"},"vehicle_type_id":"4","last_reported":1753683592,"current_range_meters":17200,"station_id":"","pricing_plan_id":"cebpf4jnsgd1na2vs0mg"},{"bike_id":"e8484238-01bb-4df5-aead-84974bb798ab","system_id":"levelo_inurba_marseille","lat":43.26573,"lon":5.37288,"is_reserved":false,"is_disabled":false,"rental_uris":{"android":"levelo://app?vid=e8484238-01bb-4df5-aead-84974bb798ab","ios":"levelo://app?vid=e8484238-01bb-4df5-aead-84974bb798ab"},"vehicle_type_id":"4","last_reported":1753683592,"current_range_meters":17200,"station_id":"ce4bhg12rcd13ifvqf70","pricing_plan_id":"cebpf4jnsgd1na2vs0mg"},{"bike_id":"00bfdcd9-2af7-47d2-b953-fc883db8b693","system_id":"levelo_inurba_marseille","lat":43.229267,"lon":5.353708,"is_reserved":false,"is_disabled":false,"rental_uris":{"android":"levelo://app?vid=00bfdcd9-2af7-47d2-b953-fc883db8b693","ios":"levelo://app?vid=00bfdcd9-2af7-47d2-b953-fc883db8b693"},"vehicle_type_id":"4","last_reported":1753683592,"current_range_meters":17200,"station_id":"cpo3532slgdg3j2ikp40","pricing_plan_id":"cebpf4jnsgd1na2vs0mg"},{"bike_id":"b97ffecd-6455-4c53-ac00-08f3870ed1f7","system_id":"levelo_inurba_marseille","lat":43.30025,"lon":5.37621,"is_reserved":false,"is_disabled":false,"rental_uris":{"android":"levelo://app?vid=b97ffecd-6455-4c53-ac00-08f3870ed1f7","ios":"levelo://app?vid=b97ffecd-6455-4c53-ac00-08f3870ed1f7"},"vehicle_type_id":"4","last_reported":1753683592,"current_range_meters":17200,"station_id":"","pricing_plan_id":"cebpf4jnsgd1na2vs0mg"},{"bike_id":"f297ecb0-f504-4ce2-a698-235b8f25b26b","system_id":"levelo_inurba_marseille","lat":43.241652,"lon":5.363889,"is_reserved":false,"is_disabled":true,"rental_uris":{"android":"levelo://app?vid=f297ecb0-f504-4ce2-a698-235b8f25b26b","ios":"levelo://app?vid=f297ecb0-f504-4ce2-a698-235b8f25b26b"},"vehicle_type_id":"4","last_reported":1753683592,"current_range_meters":17200,"station_id":"cpo36qri1sfpv3e86is0","pricing_plan_id":"cebpf4jnsgd1na2vs0mg"},{"bike_id":"aafba76e-3da3-4ebb-9332-0bac111897c0","system_id":"levelo_inurba_marseille","lat":43.229222,"lon":5.353764,"is_reserved":false,"is_disabled":false,"rental_uris":{"android":"levelo://app?vid=aafba76e-3da3-4ebb-9332-0bac111897c0","ios":"levelo://app?vid=aafba76e-3da3-4ebb-9332-0bac111897c0"},"vehicle_type_id":"4","last_reported":1753683592,"current_range_meters":17200,"station_id":"cpo3532slgdg3j2ikp40","pricing_plan_id":"cebpf4jnsgd1na2vs0mg"},{"bike_id":"225672e7-e80a-40e4-a235-b2b29fa834a7","system_id":"levelo_inurba_marseille","lat":43.293117,"lon":5.371874,"is_reserved":false,"is_disabled":true,"rental_uris":{"android":"levelo://app?vid=225672e7-e80a-40e4-a235-b2b29fa834a7","ios":"levelo://app?vid=225672e7-e80a-40e4-a235-b2b29fa834a7"},"vehicle_type_id":"4","last_reported":1753683592,"current_range_meters":17200,"station_id":"ce4bgh92rcd13ifvqb40","pricing_plan_id":"cebpf4jnsgd1na2vs0mg"},{"bike_id":"0938e41e-f961-425a-8c0f-36baf4215fb9","system_id":"levelo_inurba_marseille","lat":43.270787,"lon":5.422592,"is_reserved":false,"is_disabled":false,"rental_uris":{"android":"levelo://app?vid=0938e41e-f961-425a-8c0f-36baf4215fb9","ios":"levelo://app?vid=0938e41e-f961-425a-8c0f-36baf4215fb9"},"vehicle_type_id":"4","last_reported":1753683592,"current_range_meters":17200,"station_id":"ce4bhk92rcd13ifvqgb0","pricing_plan_id":"cebpf4jnsgd1na2vs0mg"},{"bike_id":"0e1237ef-37bc-4107-9dee-51aef505e7fb","system_id":"levelo_inurba_marseille","lat":43.299145,"lon":5.380864,"is_reserved":false,"is_disabled":false,"rental_uris":{"android":"levelo://app?vid=0e1237ef-37bc-4107-9dee-51aef505e7fb","ios":"levelo://app?vid=0e1237ef-37bc-4107-9dee-51aef505e7fb"},"vehicle_type_id":"4","last_reported":1753683592,"current_range_meters":17600,"station_id":"","pricing_plan_id":"cebpf4jnsgd1na2vs0mg"},{"bike_id":"b1eacd8d-2f03-49e9-ba92-30d9b53bc7d7","system_id":"levelo_inurba_marseille","lat":43.22522,"lon":5.34792,"is_reserved":false,"is_disabled":false,"rental_uris":{"android":"levelo://app?vid=b1eacd8d-2f03-49e9-ba92-30d9b53bc7d7","ios":"levelo://app?vid=b1eacd8d-2f03-49e9-ba92-30d9b53bc7d7"},"vehicle_type_id":"4","last_reported":1753683592,"current_range_meters":17600,"station_id":"st_cvj5dfep6f1abm77gieg","pricing_plan_id":"cebpf4jnsgd1na2vs0mg"},{"bike_id":"1d599ca9-96fe-4939-8af9-7954ed58ad38","system_id":"levelo_inurba_marseille","lat":43.235466,"lon":5.360165,"is_reserved":false,"is_disabled":false,"rental_uris":{"android":"levelo://app?vid=1d599ca9-96fe-4939-8af9-7954ed58ad38","ios":"levelo://app?vid=1d599ca9-96fe-4939-8af9-7954ed58ad38"},"vehicle_type_id":"4","last_reported":1753683592,"current_range_meters":17600,"station_id":"","pricing_plan_id":"cebpf4jnsgd1na2vs0mg"},{"bike_id":"d83c4d0a-f4a7-4c3c-b198-f78a8d9102c3","system_id":"levelo_inurba_marseille","lat":43.24795,"lon":5.37462,"is_reserved":false,"is_disabled":false,"rental_uris":{"android":"levelo://app?vid=d83c4d0a-f4a7-4c3c-b198-f78a8d9102c3","ios":"levelo://app?vid=d83c4d0a-f4a7-4c3c-b198-f78a8d9102c3"},"vehicle_type_id":"4","last_reported":1753683592,"current_range_meters":17600,"station_id":"ce4bhgh2rcd13ifvqfb0","pricing_plan_id":"cebpf4jnsgd1na2vs0mg"},{"bike_id":"32826f34-8228-4d4b-815c-cc490d99eb72","system_id":"levelo_inurba_marseille","lat":43.22514,"lon":5.34752,"is_reserved":false,"is_disabled":false,"rental_uris":{"android":"levelo://app?vid=32826f34-8228-4d4b-815c-cc490d99eb72","ios":"levelo://app?vid=32826f34-8228-4d4b-815c-cc490d99eb72"},"vehicle_type_id":"4","last_reported":1753683592,"current_range_meters":17600,"station_id":"st_cvj5dfep6f1abm77gieg","pricing_plan_id":"cebpf4jnsgd1na2vs0mg"},{"bike_id":"c54fbd5a-e3ff-48e1-891f-0213d8b031da","system_id":"levelo_inurba_marseille","lat":43.30551,"lon":5.38429,"is_reserved":false,"is_disabled":true,"rental_uris":{"android":"levelo://app?vid=c54fbd5a-e3ff-48e1-891f-0213d8b031da","ios":"levelo://app?vid=c54fbd5a-e3ff-48e1-891f-0213d8b031da"},"vehicle_type_id":"4","last_reported":1753683592,"current_range_meters":17600,"station_id":"ce4bgg92rcd13ifvqb30","pricing_plan_id":"cebpf4jnsgd1na2vs0mg"},{"bike_id":"95444c0e-267e-4da4-afb4-564387f9099b","system_id":"levelo_inurba_marseille","lat":43.31152,"lon":5.37199,"is_reserved":false,"is_disabled":false,"rental_uris":{"android":"levelo://app?vid=95444c0e-267e-4da4-afb4-564387f9099b","ios":"levelo://app?vid=95444c0e-267e-4da4-afb4-564387f9099b"},"vehicle_type_id":"4","last_reported":1753683592,"current_range_meters":17600,"station_id":"","pricing_plan_id":"cebpf4jnsgd1na2vs0mg"},{"bike_id":"26b687e4-f020-464e-a0a2-61bd002465a3","system_id":"levelo_inurba_marseille","lat":43.31691,"lon":5.40419,"is_reserved":false,"is_disabled":false,"rental_uris":{"android":"levelo://app?vid=26b687e4-f020-464e-a0a2-61bd002465a3","ios":"levelo://app?vid=26b687e4-f020-464e-a0a2-61bd002465a3"},"vehicle_type_id":"4","last_reported":1753683592,"current_range_meters":17600,"station_id":"ce4bh012rcd13ifvqd00","pricing_plan_id":"cebpf4jnsgd1na2vs0mg"},{"bike_id":"9a6ce9e2-7827-4bd3-9d0b-8ae2b5a2fffc","system_id":"levelo_inurba_marseille","lat":43.30464,"lon":5.37912,"is_reserved":false,"is_disabled":false,"rental_uris":{"android":"levelo://app?vid=9a6ce9e2-7827-4bd3-9d0b-8ae2b5a2fffc","ios":"levelo://app?vid=9a6ce9e2-7827-4bd3-9d0b-8ae2b5a2fffc"},"vehicle_type_id":"4","last_reported":1753683592,"current_range_meters":17600,"station_id":"ce4bgup2rcd13ifvqcn0","pricing_plan_id":"cebpf4jnsgd1na2vs0mg"},{"bike_id":"7d0bc366-7472-4dec-a2f3-a1ab117a465c","system_id":"levelo_inurba_marseille","lat":43.32291,"lon":5.38278,"is_reserved":false,"is_disabled":false,"rental_uris":{"android":"levelo://app?vid=7d0bc366-7472-4dec-a2f3-a1ab117a465c","ios":"levelo://app?vid=7d0bc366-7472-4dec-a2f3-a1ab117a465c"},"vehicle_type_id":"4","last_reported":1753683592,"current_range_meters":17600,"station_id":"ce4bhr12rcd13ifvqhqg","pricing_plan_id":"cebpf4jnsgd1na2vs0mg"},{"bike_id":"52fa2f88-6678-4b0d-bdeb-77d5e9331688","system_id":"levelo_inurba_marseille","lat":43.21187,"lon":5.35076,"is_reserved":false,"is_disabled":false,"rental_uris":{"android":"levelo://app?vid=52fa2f88-6678-4b0d-bdeb-77d5e9331688","ios":"levelo://app?vid=52fa2f88-6678-4b0d-bdeb-77d5e9331688"},"vehicle_type_id":"4","last_reported":1753683592,"current_range_meters":17600,"station_id":"st_cvj6sg6p6f1abm77japg","pricing_plan_id":"cebpf4jnsgd1na2vs0mg"},{"bike_id":"19687629-77e7-45e7-89d3-794744d37e38","system_id":"levelo_inurba_marseille","lat":43.22502,"lon":5.34774,"is_reserved":false,"is_disabled":false,"rental_uris":{"android":"levelo://app?vid=19687629-77e7-45e7-89d3-794744d37e38","ios":"levelo://app?vid=19687629-77e7-45e7-89d3-794744d37e38"},"vehicle_type_id":"4","last_reported":1753683592,"current_range_meters":17600,"station_id":"st_cvj5dfep6f1abm77gieg","pricing_plan_id":"cebpf4jnsgd1na2vs0mg"},{"bike_id":"0cc2bd63-431a-4974-8906-4b56273f9bc6","system_id":"levelo_inurba_marseille","lat":43.274942,"lon":5.42449,"is_reserved":false,"is_disabled":true,"rental_uris":{"android":"levelo://app?vid=0cc2bd63-431a-4974-8906-4b56273f9bc6","ios":"levelo://app?vid=0cc2bd63-431a-4974-8906-4b56273f9bc6"},"vehicle_type_id":"4","last_reported":1753683592,"current_range_meters":18000,"station_id":"ce4bhn92rcd13ifvqgrg","pricing_plan_id":"cebpf4jnsgd1na2vs0mg"},{"bike_id":"e297a297-2b88-4838-9156-699906454526","system_id":"levelo_inurba_marseille","lat":43.269517,"lon":5.405331,"is_reserved":false,"is_disabled":false,"rental_uris":{"android":"levelo://app?vid=e297a297-2b88-4838-9156-699906454526","ios":"levelo://app?vid=e297a297-2b88-4838-9156-699906454526"},"vehicle_type_id":"4","last_reported":1753683592,"current_range_meters":18000,"station_id":"","pricing_plan_id":"cebpf4jnsgd1na2vs0mg"},{"bike_id":"7ed0b753-8fbb-4f6a-be82-d685cea8964a","system_id":"levelo_inurba_marseille","lat":43.28937,"lon":5.38412,"is_reserved":false,"is_disabled":false,"rental_uris":{"android":"levelo://app?vid=7ed0b753-8fbb-4f6a-be82-d685cea8964a","ios":"levelo://app?vid=7ed0b753-8fbb-4f6a-be82-d685cea8964a"},"vehicle_type_id":"4","last_reported":1753683592,"current_range_meters":18000,"station_id":"ce4bh612rcd13ifvqe6g","pricing_plan_id":"cebpf4jnsgd1na2vs0mg"},{"bike_id":"63b47b95-ca57-400a-b286-f6c34c3b9d46","system_id":"levelo_inurba_marseille","lat":43.23961,"lon":5.36633,"is_reserved":false,"is_disabled":false,"rental_uris":{"android":"levelo://app?vid=63b47b95-ca57-400a-b286-f6c34c3b9d46","ios":"levelo://app?vid=63b47b95-ca57-400a-b286-f6c34c3b9d46"},"vehicle_type_id":"4","last_reported":1753683592,"current_range_meters":18800,"station_id":"ce4bhi12rcd13ifvqfp0","pricing_plan_id":"cebpf4jnsgd1na2vs0mg"},{"bike_id":"84e40d1d-fbce-42d3-858b-571a4ec2b3c7","system_id":"levelo_inurba_marseille","lat":43.24662,"lon":5.38163,"is_reserved":false,"is_disabled":false,"rental_uris":{"android":"levelo://app?vid=84e40d1d-fbce-42d3-858b-571a4ec2b3c7","ios":"levelo://app?vid=84e40d1d-fbce-42d3-858b-571a4ec2b3c7"},"vehicle_type_id":"4","last_reported":1753683592,"current_range_meters":18000,"station_id":"ce4bhih2rcd13ifvqfr0","pricing_plan_id":"cebpf4jnsgd1na2vs0mg"},{"bike_id":"622ac4cb-8a67-42ec-8d95-9791a69464dd","system_id":"levelo_inurba_marseille","lat":43.28968,"lon":5.37838,"is_reserved":false,"is_disabled":false,"rental_uris":{"android":"levelo://app?vid=622ac4cb-8a67-42ec-8d95-9791a69464dd","ios":"levelo://app?vid=622ac4cb-8a67-42ec-8d95-9791a69464dd"},"vehicle_type_id":"4","last_reported":1753683592,"current_range_meters":17600,"station_id":"ce4bh9p2rcd13ifvqed0","pricing_plan_id":"cebpf4jnsgd1na2vs0mg"},{"bike_id":"becbdd54-aedd-4424-9436-abad72e9c771","system_id":"levelo_inurba_marseille","lat":43.28708,"lon":5.39987,"is_reserved":false,"is_disabled":false,"rental_uris":{"android":"levelo://app?vid=becbdd54-aedd-4424-9436-abad72e9c771","ios":"levelo://app?vid=becbdd54-aedd-4424-9436-abad72e9c771"},"vehicle_type_id":"4","last_reported":1753683592,"current_range_meters":18000,"station_id":"ce4bho92rcd13ifvqh3g","pricing_plan_id":"cebpf4jnsgd1na2vs0mg"},{"bike_id":"c6f2fc29-a9f9-4da2-b40f-9336b7527f76","system_id":"levelo_inurba_marseille","lat":43.276723,"lon":5.388908,"is_reserved":false,"is_disabled":false,"rental_uris":{"android":"levelo://app?vid=c6f2fc29-a9f9-4da2-b40f-9336b7527f76","ios":"levelo://app?vid=c6f2fc29-a9f9-4da2-b40f-9336b7527f76"},"vehicle_type_id":"4","last_reported":1753683592,"current_range_meters":18800,"station_id":"ce4bhi12rcd13ifvqfo0","pricing_plan_id":"cebpf4jnsgd1na2vs0mg"},{"bike_id":"c1ea8c27-ebd2-4d7f-81c9-ce783e28db7f","system_id":"levelo_inurba_marseille","lat":43.28355,"lon":5.38107,"is_reserved":false,"is_disabled":false,"rental_uris":{"android":"levelo://app?vid=c1ea8c27-ebd2-4d7f-81c9-ce783e28db7f","ios":"levelo://app?vid=c1ea8c27-ebd2-4d7f-81c9-ce783e28db7f"},"vehicle_type_id":"4","last_reported":1753683592,"current_range_meters":18800,"station_id":"ce4bh412rcd13ifvqdr0","pricing_plan_id":"cebpf4jnsgd1na2vs0mg"},{"bike_id":"41f5be94-2230-4c49-9aa0-41530cecfe99","system_id":"levelo_inurba_marseille","lat":43.299415,"lon":5.365498,"is_reserved":false,"is_disabled":false,"rental_uris":{"android":"levelo://app?vid=41f5be94-2230-4c49-9aa0-41530cecfe99","ios":"levelo://app?vid=41f5be94-2230-4c49-9aa0-41530cecfe99"},"vehicle_type_id":"4","last_reported":1753683592,"current_range_meters":18800,"station_id":"ce4bgm92rcd13ifvqbr0","pricing_plan_id":"cebpf4jnsgd1na2vs0mg"},{"bike_id":"a9d660bc-d338-46f2-a5de-d3195c07e40d","system_id":"levelo_inurba_marseille","lat":43.240534,"lon":5.377373,"is_reserved":false,"is_disabled":false,"rental_uris":{"android":"levelo://app?vid=a9d660bc-d338-46f2-a5de-d3195c07e40d","ios":"levelo://app?vid=a9d660bc-d338-46f2-a5de-d3195c07e40d"},"vehicle_type_id":"4","last_reported":1753683592,"current_range_meters":18800,"station_id":"ce4bhnp2rcd13ifvqgvg","pricing_plan_id":"cebpf4jnsgd1na2vs0mg"},{"bike_id":"67b5cd53-992d-41ae-a413-a993585de71f","system_id":"levelo_inurba_marseille","lat":43.25729,"lon":5.41094,"is_reserved":false,"is_disabled":false,"rental_uris":{"android":"levelo://app?vid=67b5cd53-992d-41ae-a413-a993585de71f","ios":"levelo://app?vid=67b5cd53-992d-41ae-a413-a993585de71f"},"vehicle_type_id":"4","last_reported":1753683592,"current_range_meters":18800,"station_id":"ce4bhkp2rcd13ifvqgd0","pricing_plan_id":"cebpf4jnsgd1na2vs0mg"},{"bike_id":"18d9d1bb-3481-4fe6-8e41-40913fa9f69c","system_id":"levelo_inurba_marseille","lat":43.248115,"lon":5.374601,"is_reserved":false,"is_disabled":true,"rental_uris":{"android":"levelo://app?vid=18d9d1bb-3481-4fe6-8e41-40913fa9f69c","ios":"levelo://app?vid=18d9d1bb-3481-4fe6-8e41-40913fa9f69c"},"vehicle_type_id":"4","last_reported":1753683592,"current_range_meters":18800,"station_id":"ce4bhgh2rcd13ifvqfb0","pricing_plan_id":"cebpf4jnsgd1na2vs0mg"},{"bike_id":"1c578d96-6915-4ab9-b885-c41c07cbf15f","system_id":"levelo_inurba_marseille","lat":43.32108,"lon":5.36762,"is_reserved":false,"is_disabled":false,"rental_uris":{"android":"levelo://app?vid=1c578d96-6915-4ab9-b885-c41c07cbf15f","ios":"levelo://app?vid=1c578d96-6915-4ab9-b885-c41c07cbf15f"},"vehicle_type_id":"4","last_reported":1753683592,"current_range_meters":18800,"station_id":"ce4bhrh2rcd13ifvqhug","pricing_plan_id":"cebpf4jnsgd1na2vs0mg"},{"bike_id":"397f1b1a-b168-47c8-ba4c-3955d2c6b4b3","system_id":"levelo_inurba_marseille","lat":43.29197,"lon":5.39297,"is_reserved":false,"is_disabled":true,"rental_uris":{"android":"levelo://app?vid=397f1b1a-b168-47c8-ba4c-3955d2c6b4b3","ios":"levelo://app?vid=397f1b1a-b168-47c8-ba4c-3955d2c6b4b3"},"vehicle_type_id":"4","last_reported":1753683592,"current_range_meters":19200,"station_id":"ce4bh192rcd13ifvqdd0","pricing_plan_id":"cebpf4jnsgd1na2vs0mg"},{"bike_id":"fd248408-3b2b-465e-833f-4b886afbaa3e","system_id":"levelo_inurba_marseille","lat":43.2319,"lon":5.3555,"is_reserved":false,"is_disabled":false,"rental_uris":{"android":"levelo://app?vid=fd248408-3b2b-465e-833f-4b886afbaa3e","ios":"levelo://app?vid=fd248408-3b2b-465e-833f-4b886afbaa3e"},"vehicle_type_id":"4","last_reported":1753683592,"current_range_meters":19200,"station_id":"ce4bhu92rcd13ifvqi70","pricing_plan_id":"cebpf4jnsgd1na2vs0mg"},{"bike_id":"0429f703-0dbd-480e-8dec-a1494d5cc695","system_id":"levelo_inurba_marseille","lat":43.28655,"lon":5.37059,"is_reserved":false,"is_disabled":false,"rental_uris":{"android":"levelo://app?vid=0429f703-0dbd-480e-8dec-a1494d5cc695","ios":"levelo://app?vid=0429f703-0dbd-480e-8dec-a1494d5cc695"},"vehicle_type_id":"4","last_reported":1753683592,"current_range_meters":19200,"station_id":"","pricing_plan_id":"cebpf4jnsgd1na2vs0mg"},{"bike_id":"d9994a40-4e43-42c7-94c7-297c15452c35","system_id":"levelo_inurba_marseille","lat":43.27385,"lon":5.36251,"is_reserved":false,"is_disabled":true,"rental_uris":{"android":"levelo://app?vid=d9994a40-4e43-42c7-94c7-297c15452c35","ios":"levelo://app?vid=d9994a40-4e43-42c7-94c7-297c15452c35"},"vehicle_type_id":"4","last_reported":1753683592,"current_range_meters":19200,"station_id":"ce4bhbh2rcd13ifvqeo0","pricing_plan_id":"cebpf4jnsgd1na2vs0mg"},{"bike_id":"a6b8e8a8-5ea4-4ead-b0bd-99b24e9d82cc","system_id":"levelo_inurba_marseille","lat":43.31402,"lon":5.37636,"is_reserved":false,"is_disabled":false,"rental_uris":{"android":"levelo://app?vid=a6b8e8a8-5ea4-4ead-b0bd-99b24e9d82cc","ios":"levelo://app?vid=a6b8e8a8-5ea4-4ead-b0bd-99b24e9d82cc"},"vehicle_type_id":"4","last_reported":1753683592,"current_range_meters":19200,"station_id":"","pricing_plan_id":"cebpf4jnsgd1na2vs0mg"},{"bike_id":"89ab8d10-79e7-44e3-9c2b-0f9a6fbbe938","system_id":"levelo_inurba_marseille","lat":43.24164,"lon":5.39724,"is_reserved":false,"is_disabled":false,"rental_uris":{"android":"levelo://app?vid=89ab8d10-79e7-44e3-9c2b-0f9a6fbbe938","ios":"levelo://app?vid=89ab8d10-79e7-44e3-9c2b-0f9a6fbbe938"},"vehicle_type_id":"4","last_reported":1753683592,"current_range_meters":19200,"station_id":"ce4bhn12rcd13ifvqgpg","pricing_plan_id":"cebpf4jnsgd1na2vs0mg"},{"bike_id":"4bfaa48f-84dd-4da8-8f81-81b4a794ffc8","system_id":"levelo_inurba_marseille","lat":43.243989,"lon":5.370597,"is_reserved":false,"is_disabled":false,"rental_uris":{"android":"levelo://app?vid=4bfaa48f-84dd-4da8-8f81-81b4a794ffc8","ios":"levelo://app?vid=4bfaa48f-84dd-4da8-8f81-81b4a794ffc8"},"vehicle_type_id":"4","last_reported":1753683592,"current_range_meters":19200,"station_id":"ce4bhhh2rcd13ifvqfk0","pricing_plan_id":"cebpf4jnsgd1na2vs0mg"},{"bike_id":"a2654721-11fb-4869-b059-83a8ea4f51e7","system_id":"levelo_inurba_marseille","lat":43.3137,"lon":5.384883,"is_reserved":false,"is_disabled":false,"rental_uris":{"android":"levelo://app?vid=a2654721-11fb-4869-b059-83a8ea4f51e7","ios":"levelo://app?vid=a2654721-11fb-4869-b059-83a8ea4f51e7"},"vehicle_type_id":"4","last_reported":1753683592,"current_range_meters":19600,"station_id":"ce4bgt92rcd13ifvqcf0","pricing_plan_id":"cebpf4jnsgd1na2vs0mg"},{"bike_id":"76b8b2b8-795e-41bc-9137-fc321c4ea389","system_id":"levelo_inurba_marseille","lat":43.292517,"lon":5.409155,"is_reserved":false,"is_disabled":false,"rental_uris":{"android":"levelo://app?vid=76b8b2b8-795e-41bc-9137-fc321c4ea389","ios":"levelo://app?vid=76b8b2b8-795e-41bc-9137-fc321c4ea389"},"vehicle_type_id":"4","last_reported":1753683592,"current_range_meters":19600,"station_id":"ce4bh192rcd13ifvqdc0","pricing_plan_id":"cebpf4jnsgd1na2vs0mg"},{"bike_id":"8c187fd7-8f84-4ce4-a9bb-3bf4a96c5856","system_id":"levelo_inurba_marseille","lat":43.23192,"lon":5.355484,"is_reserved":false,"is_disabled":false,"rental_uris":{"android":"levelo://app?vid=8c187fd7-8f84-4ce4-a9bb-3bf4a96c5856","ios":"levelo://app?vid=8c187fd7-8f84-4ce4-a9bb-3bf4a96c5856"},"vehicle_type_id":"4","last_reported":1753683592,"current_range_meters":19600,"station_id":"ce4bhu92rcd13ifvqi70","pricing_plan_id":"cebpf4jnsgd1na2vs0mg"},{"bike_id":"16554627-4900-4ea0-a270-217a9a6c79d3","system_id":"levelo_inurba_marseille","lat":43.23061,"lon":5.35492,"is_reserved":false,"is_disabled":false,"rental_uris":{"android":"levelo://app?vid=16554627-4900-4ea0-a270-217a9a6c79d3","ios":"levelo://app?vid=16554627-4900-4ea0-a270-217a9a6c79d3"},"vehicle_type_id":"4","last_reported":1753683592,"current_range_meters":19600,"station_id":"cpo3342slgdg3j2ifvpg","pricing_plan_id":"cebpf4jnsgd1na2vs0mg"},{"bike_id":"9828c164-3d28-4d41-aaf3-6f268caab68a","system_id":"levelo_inurba_marseille","lat":43.29799,"lon":5.40069,"is_reserved":false,"is_disabled":false,"rental_uris":{"android":"levelo://app?vid=9828c164-3d28-4d41-aaf3-6f268caab68a","ios":"levelo://app?vid=9828c164-3d28-4d41-aaf3-6f268caab68a"},"vehicle_type_id":"4","last_reported":1753683592,"current_range_meters":19600,"station_id":"","pricing_plan_id":"cebpf4jnsgd1na2vs0mg"},{"bike_id":"775a77b0-2a4c-4b39-876f-e33c73df5c0a","system_id":"levelo_inurba_marseille","lat":43.286648,"lon":5.36353,"is_reserved":false,"is_disabled":false,"rental_uris":{"android":"levelo://app?vid=775a77b0-2a4c-4b39-876f-e33c73df5c0a","ios":"levelo://app?vid=775a77b0-2a4c-4b39-876f-e33c73df5c0a"},"vehicle_type_id":"4","last_reported":1753683592,"current_range_meters":19600,"station_id":"ce4bhah2rcd13ifvqej0","pricing_plan_id":"cebpf4jnsgd1na2vs0mg"},{"bike_id":"023b587d-9b14-4d6d-94e6-779154421a8f","system_id":"levelo_inurba_marseille","lat":43.28339,"lon":5.38666,"is_reserved":false,"is_disabled":false,"rental_uris":{"android":"levelo://app?vid=023b587d-9b14-4d6d-94e6-779154421a8f","ios":"levelo://app?vid=023b587d-9b14-4d6d-94e6-779154421a8f"},"vehicle_type_id":"4","last_reported":1753683592,"current_range_meters":19600,"station_id":"","pricing_plan_id":"cebpf4jnsgd1na2vs0mg"},{"bike_id":"5bf9d4f6-e5f2-467f-8b41-dac01b1b688d","system_id":"levelo_inurba_marseille","lat":43.28161,"lon":5.42622,"is_reserved":false,"is_disabled":true,"rental_uris":{"android":"levelo://app?vid=5bf9d4f6-e5f2-467f-8b41-dac01b1b688d","ios":"levelo://app?vid=5bf9d4f6-e5f2-467f-8b41-dac01b1b688d"},"vehicle_type_id":"4","last_reported":1753683592,"current_range_meters":19600,"station_id":"ce4bhnh2rcd13ifvqgug","pricing_plan_id":"cebpf4jnsgd1na2vs0mg"},{"bike_id":"57927d23-89e7-4ddd-a64f-277b3ded0af3","system_id":"levelo_inurba_marseille","lat":43.24076,"lon":5.37706,"is_reserved":false,"is_disabled":false,"rental_uris":{"android":"levelo://app?vid=57927d23-89e7-4ddd-a64f-277b3ded0af3","ios":"levelo://app?vid=57927d23-89e7-4ddd-a64f-277b3ded0af3"},"vehicle_type_id":"4","last_reported":1753683592,"current_range_meters":20000,"station_id":"ce4bhnp2rcd13ifvqgvg","pricing_plan_id":"cebpf4jnsgd1na2vs0mg"},{"bike_id":"e2167c5a-5bc7-43f7-ad50-18048b494c65","system_id":"levelo_inurba_marseille","lat":43.27064,"lon":5.42267,"is_reserved":false,"is_disabled":false,"rental_uris":{"android":"levelo://app?vid=e2167c5a-5bc7-43f7-ad50-18048b494c65","ios":"levelo://app?vid=e2167c5a-5bc7-43f7-ad50-18048b494c65"},"vehicle_type_id":"4","last_reported":1753683592,"current_range_meters":20000,"station_id":"ce4bhk92rcd13ifvqgb0","pricing_plan_id":"cebpf4jnsgd1na2vs0mg"},