{"last_updated":1744758567,"ttl":60,"version":"2.2","data":{"bikes":[{"bike_id":"55263ff0-2485-48c3-b1df-4cd52196f528","system_id":"levelo_inurba_marseille","lat":43.28842,"lon":5.39306,"is_reserved":false,"is_disabled":false,"rental_uris":{"android":"levelo://app?vid=55263ff0-2485-48c3-b1df-4cd52196f528","ios":"levelo://app?vid=55263ff0-2485-48c3-b1df-4cd52196f528"},"vehicle_type_id":"4","last_reported":1744758567,"current_range_meters":3200,"station_id":"ce4bh2p2rcd13ifvqdi0","pricing_plan_id":"cebpf4jnsgd1na2vs0mg"},{"bike_id":"28ff8656-7728-4e21-b5d8-6ed84f74d9e9","system_id":"levelo_inurba_marseille","lat":43.28715,"lon":5.39986,"is_reserved":false,"is_disabled":false,"rental_uris":{"android":"levelo://app?vid=28ff8656-7728-4e21-b5d8-6ed84f74d9e9","ios":"levelo://app?vid=28ff8656-7728-4e21-b5d8-6ed84f74d9e9"},"vehicle_type_id":"4","last_reported":1744758567,"current_range_meters":3200,"station_id":"ce4bho92rcd13ifvqh3g","pricing_plan_id":"cebpf4jnsgd1na2vs0mg"},{"bike_id":"eebbc590-266e-426a-ba98-da81647884d9","system_id":"levelo_inurba_marseille","lat":43.29268,"lon":5.40898,"is_reserved":false,"is_disabled":false,"rental_uris":{"android":"levelo://app?vid=eebbc590-266e-426a-ba98-da81647884d9","ios":"levelo://app?vid=eebbc590-266e-426a-ba98-da81647884d9"},"vehicle_type_id":"4","last_reported":1744758567,"current_range_meters":3200,"station_id":"ce4bh192rcd13ifvqdc0","pricing_plan_id":"cebpf4jnsgd1na2vs0mg"},{"bike_id":"b58536d4-96e2-4a89-a614-4be70986066c","system_id":"levelo_inurba_marseille","lat":43.30254,"lon":5.40076,"is_reserved":false,"is_disabled":false,"rental_uris":{"android":"levelo://app?vid=b58536d4-96e2-4a89-a614-4be70986066c","ios":"levelo://app?vid=b58536d4-96e2-4a89-a614-4be70986066c"},"vehicle_type_id":"4","last_reported":1744758567,"current_range_meters":3600,"station_id":"ce4bgvh2rcd13ifvqcs0","pricing_plan_id":"cebpf4jnsgd1na2vs0mg"},{"bike_id":"bc3fd44b-2907-4e62-8367-edb92667421b","system_id":"levelo_inurba_marseille","lat":43.27987,"lon":5.40017,"is_reserved":false,"is_disabled":false,"rental_uris":{"android":"levelo://app?vid=bc3fd44b-2907-4e62-8367-edb92667421b","ios":"levelo://app?vid=bc3fd44b-2907-4e62-8367-edb92667421b"},"vehicle_type_id":"4","last_reported":1744758567,"current_range_meters":3600,"station_id":"ce4bho92rcd13ifvqh4g","pricing_plan_id":"cebpf4jnsgd1na2vs0mg"},{"bike_id":"c8d5c35f-b304-4a4a-b283-9920c3076e87","system_id":"levelo_inurba_marseille","lat":43.28706,"lon":5.39985,"is_reserved":false,"is_disabled":false,"rental_uris":{"android":"levelo://app?vid=c8d5c35f-b304-4a4a-b283-9920c3076e87","ios":"levelo://app?vid=c8d5c35f-b304-4a4a-b283-9920c3076e87"},"vehicle_type_id":"4","last_reported":1744758567,"current_range_meters":3600,"station_id":"ce4bho92rcd13ifvqh3g","pricing_plan_id":"cebpf4jnsgd1na2vs0mg"},{"bike_id":"66d9901e-dd09-493e-abc0-647b0a2cb05d","system_id":"levelo_inurba_marseille","lat":43.217572,"lon":5.346134,"is_reserved":false,"is_disabled":false,"rental_uris":{"android":"levelo://app?vid=66d9901e-dd09-493e-abc0-647b0a2cb05d","ios":"levelo://app?vid=66d9901e-dd09-493e-abc0-647b0a2cb05d"},"vehicle_type_id":"4","last_reported":1744758567,"current_range_meters":3600,"station_id":"st_cvj6r9ubvosntc0bgbag","pricing_plan_id":"cebpf4jnsgd1na2vs0mg"},{"bike_id":"1064b9a7-5947-42b0-b3ab-02b74ee64902","system_id":"levelo_inurba_marseille","lat":43.25016,"lon":5.38923,"is_reserved":false,"is_disabled":true,"rental_uris":{"android":"levelo://app?vid=1064b9a7-5947-42b0-b3ab-02b74ee64902","ios":"levelo://app?vid=1064b9a7-5947-42b0-b3ab-02b74ee64902"},"vehicle_type_id":"4","last_reported":1744758567,"current_range_meters":4000,"station_id":"ce4bhgp2rcd13ifvqfd0","pricing_plan_id":"cebpf4jnsgd1na2vs0mg"},{"bike_id":"f8205049-59cf-4c67-95d9-2ae60dd41d42","system_id":"levelo_inurba_marseille","lat":43.26063,"lon":5.39396,"is_reserved":false,"is_disabled":false,"rental_uris":{"android":"levelo://app?vid=f8205049-59cf-4c67-95d9-2ae60dd41d42","ios":"levelo://app?vid=f8205049-59cf-4c67-95d9-2ae60dd41d42"},"vehicle_type_id":"4","last_reported":1744758567,"current_range_meters":4000,"station_id":"ce4bhh92rcd13ifvqfj0","pricing_plan_id":"cebpf4jnsgd1na2vs0mg"},{"bike_id":"5264f0f6-b729-497c-ad36-c7b66b48d1db","system_id":"levelo_inurba_marseille","lat":43.27946,"lon":5.41037,"is_reserved":false,"is_disabled":false,"rental_uris":{"android":"levelo://app?vid=5264f0f6-b729-497c-ad36-c7b66b48d1db","ios":"levelo://app?vid=5264f0f6-b729-497c-ad36-c7b66b48d1db"},"vehicle_type_id":"4","last_reported":1744758567,"current_range_meters":5600,"station_id":"ce4bhnp2rcd13ifvqh0g","pricing_plan_id":"cebpf4jnsgd1na2vs0mg"},{"bike_id":"c77fbd76-ea5e-4e26-99ca-5645ff1fe5cc","system_id":"levelo_inurba_marseille","lat":43.24081,"lon":5.37733,"is_reserved":false,"is_disabled":false,"rental_uris":{"android":"levelo://app?vid=c77fbd76-ea5e-4e26-99ca-5645ff1fe5cc","ios":"levelo://app?vid=c77fbd76-ea5e-4e26-99ca-5645ff1fe5cc"},"vehicle_type_id":"4","last_reported":1744758567,"current_range_meters":5600,"station_id":"ce4bhnp2rcd13ifvqgvg","pricing_plan_id":"cebpf4jnsgd1na2vs0mg"},{"bike_id":"6c2183c8-2c82-4f49-a172-976394f61a0c","system_id":"levelo_inurba_marseille","lat":43.23189,"lon":5.39987,"is_reserved":false,"is_disabled":false,"rental_uris":{"android":"levelo://app?vid=6c2183c8-2c82-4f49-a172-976394f61a0c","ios":"levelo://app?vid=6c2183c8-2c82-4f49-a172-976394f61a0c"},"vehicle_type_id":"4","last_reported":1744758567,"current_range_meters":5600,"station_id":"ce4bhn12rcd13ifvqgqg","pricing_plan_id":"cebpf4jnsgd1na2vs0mg"},{"bike_id":"6e813554-554a-49dd-9009-02d95efd3de7","system_id":"levelo_inurba_marseille","lat":43.32427,"lon":5.3911,"is_reserved":false,"is_disabled":true,"rental_uris":{"android":"levelo://app?vid=6e813554-554a-49dd-9009-02d95efd3de7","ios":"levelo://app?vid=6e813554-554a-49dd-9009-02d95efd3de7"},"vehicle_type_id":"4","last_reported":1744758567,"current_range_meters":5600,"station_id":"","pricing_plan_id":"cebpf4jnsgd1na2vs0mg"},{"bike_id":"199910c8-c965-4472-894a-547fa8667c6b","system_id":"levelo_inurba_marseille","lat":43.2844,"lon":5.35899,"is_reserved":false,"is_disabled":false,"rental_uris":{"android":"levelo://app?vid=199910c8-c965-4472-894a-547fa8667c6b","ios":"levelo://app?vid=199910c8-c965-4472-894a-547fa8667c6b"},"vehicle_type_id":"4","last_reported":1744758567,"current_range_meters":5600,"station_id":"ce4bhah2rcd13ifvqei0","pricing_plan_id":"cebpf4jnsgd1na2vs0mg"},{"bike_id":"8fb9e7bc-8a04-4f5d-9440-892df4b1b295","system_id":"levelo_inurba_marseille","lat":43.3097,"lon":5.39054,"is_reserved":false,"is_disabled":true,"rental_uris":{"android":"levelo://app?vid=8fb9e7bc-8a04-4f5d-9440-892df4b1b295","ios":"levelo://app?vid=8fb9e7bc-8a04-4f5d-9440-892df4b1b295"},"vehicle_type_id":"4","last_reported":1744758567,"current_range_meters":6000,"station_id":"ce4bgup2rcd13ifvqco0","pricing_plan_id":"cebpf4jnsgd1na2vs0mg"},{"bike_id":"a8bce765-48d7-4f94-907d-9b3fef87e2cf","system_id":"levelo_inurba_marseille","lat":43.27834,"lon":5.39207,"is_reserved":false,"is_disabled":false,"rental_uris":{"android":"levelo://app?vid=a8bce765-48d7-4f94-907d-9b3fef87e2cf","ios":"levelo://app?vid=a8bce765-48d7-4f94-907d-9b3fef87e2cf"},"vehicle_type_id":"4","last_reported":1744758567,"current_range_meters":6000,"station_id":"ce4bhjp2rcd13ifvqga0","pricing_plan_id":"cebpf4jnsgd1na2vs0mg"},{"bike_id":"cbc427fb-38a2-4977-bce5-5c0b23cf8f99","system_id":"levelo_inurba_marseille","lat":43.28276,"lon":5.35064,"is_reserved":false,"is_disabled":false,"rental_uris":{"android":"levelo://app?vid=cbc427fb-38a2-4977-bce5-5c0b23cf8f99","ios":"levelo://app?vid=cbc427fb-38a2-4977-bce5-5c0b23cf8f99"},"vehicle_type_id":"4","last_reported":1744758567,"current_range_meters":6400,"station_id":"ce4bhbp2rcd13ifvqerg","pricing_plan_id":"cebpf4jnsgd1na2vs0mg"},{"bike_id":"0e262e1d-d85f-4b85-9573-166962666f8f","system_id":"levelo_inurba_marseille","lat":43.27071,"lon":5.42289,"is_reserved":false,"is_disabled":false,"rental_uris":{"android":"levelo://app?vid=0e262e1d-d85f-4b85-9573-166962666f8f","ios":"levelo://app?vid=0e262e1d-d85f-4b85-9573-166962666f8f"},"vehicle_type_id":"4","last_reported":1744758567,"current_range_meters":6400,"station_id":"ce4bhk92rcd13ifvqgb0","pricing_plan_id":"cebpf4jnsgd1na2vs0mg"},{"bike_id":"918228cd-ca01-472a-adbc-1551313c608c","system_id":"levelo_inurba_marseille","lat":43.27175,"lon":5.40991,"is_reserved":false,"is_disabled":false,"rental_uris":{"android":"levelo://app?vid=918228cd-ca01-472a-adbc-1551313c608c","ios":"levelo://app?vid=918228cd-ca01-472a-adbc-1551313c608c"},"vehicle_type_id":"4","last_reported":1744758567,"current_range_meters":6400,"station_id":"ce4bhl12rcd13ifvqgf0","pricing_plan_id":"cebpf4jnsgd1na2vs0mg"},{"bike_id":"d64aa8f0-0884-41cf-84e6-ae25f8a6ae2a","system_id":"levelo_inurba_marseille","lat":43.28556,"lon":5.37766,"is_reserved":false,"is_disabled":false,"rental_uris":{"android":"levelo://app?vid=d64aa8f0-0884-41cf-84e6-ae25f8a6ae2a","ios":"levelo://app?vid=d64aa8f0-0884-41cf-84e6-ae25f8a6ae2a"},"vehicle_type_id":"4","last_reported":1744758567,"current_range_meters":6400,"station_id":"","pricing_plan_id":"cebpf4jnsgd1na2vs0mg"},{"bike_id":"ee50bdcc-cd01-4a0e-85b9-729774a400c8","system_id":"levelo_inurba_marseille","lat":43.29796,"lon":5.39341,"is_reserved":false,"is_disabled":true,"rental_uris":{"android":"levelo://app?vid=ee50bdcc-cd01-4a0e-85b9-729774a400c8","ios":"levelo://app?vid=ee50bdcc-cd01-4a0e-85b9-729774a400c8"},"vehicle_type_id":"4","last_reported":1744758567,"current_range_meters":6800,"station_id":"chh1huq6cuj3fo74tm60","pricing_plan_id":"cebpf4jnsgd1na2vs0mg"},{"bike_id":"4e6524b6-5132-41d3-a759-888a060ccf51","system_id":"levelo_inurba_marseille","lat":43.300531,"lon":5.364999,"is_reserved":false,"is_disabled":false,"rental_uris":{"android":"levelo://app?vid=4e6524b6-5132-41d3-a759-888a060ccf51","ios":"levelo://app?vid=4e6524b6-5132-41d3-a759-888a060ccf51"},"vehicle_type_id":"4","last_reported":1744758567,"current_range_meters":6800,"station_id":"","pricing_plan_id":"cebpf4jnsgd1na2vs0mg"},{"bike_id":"1c41dae5-02d2-4367-8a5c-5ff8a0ae456b","system_id":"levelo_inurba_marseille","lat":43.21746,"lon":5.34597,"is_reserved":false,"is_disabled":false,"rental_uris":{"android":"levelo://app?vid=1c41dae5-02d2-4367-8a5c-5ff8a0ae456b","ios":"levelo://app?vid=1c41dae5-02d2-4367-8a5c-5ff8a0ae456b"},"vehicle_type_id":"4","last_reported":1744758567,"current_range_meters":6800,"station_id":"st_cvj6r9ubvosntc0bgbag","pricing_plan_id":"cebpf4jnsgd1na2vs0mg"},{"bike_id":"d6ffacd9-9757-4d4a-8799-556c4b71e592","system_id":"levelo_inurba_marseille","lat":43.30693,"lon":5.38091,"is_reserved":false,"is_disabled":false,"rental_uris":{"android":"levelo://app?vid=d6ffacd9-9757-4d4a-8799-556c4b71e592","ios":"levelo://app?vid=d6ffacd9-9757-4d4a-8799-556c4b71e592"},"vehicle_type_id":"4","last_reported":1744758567,"current_range_meters":6800,"station_id":"","pricing_plan_id":"cebpf4jnsgd1na2vs0mg"},{"bike_id":"100dcd2c-76e4-4483-9125-69d45d059493","system_id":"levelo_inurba_marseille","lat":43.292596,"lon":5.384385,"is_reserved":false,"is_disabled":false,"rental_uris":{"android":"levelo://app?vid=100dcd2c-76e4-4483-9125-69d45d059493","ios":"levelo://app?vid=100dcd2c-76e4-4483-9125-69d45d059493"},"vehicle_type_id":"4","last_reported":1744758567,"current_range_meters":7200,"station_id":"ce4bgv92rcd13ifvqcq0","pricing_plan_id":"cebpf4jnsgd1na2vs0mg"},{"bike_id":"8c93a66f-eee6-4616-84de-78f9a52408ff","system_id":"levelo_inurba_marseille","lat":43.265705,"lon":5.390297,"is_reserved":false,"is_disabled":false,"rental_uris":{"android":"levelo://app?vid=8c93a66f-eee6-4616-84de-78f9a52408ff","ios":"levelo://app?vid=8c93a66f-eee6-4616-84de-78f9a52408ff"},"vehicle_type_id":"4","last_reported":1744758567,"current_range_meters":7200,"station_id":"ce4bhdp2rcd13ifvqf20","pricing_plan_id":"cebpf4jnsgd1na2vs0mg"},{"bike_id":"2aa60530-acd9-4f16-bd61-40754a4a77d3","system_id":"levelo_inurba_marseille","lat":43.29708,"lon":5.36619,"is_reserved":false,"is_disabled":false,"rental_uris":{"android":"levelo://app?vid=2aa60530-acd9-4f16-bd61-40754a4a77d3","ios":"levelo://app?vid=2aa60530-acd9-4f16-bd61-40754a4a77d3"},"vehicle_type_id":"4","last_reported":1744758567,"current_range_meters":7200,"station_id":"ce4bgn12rcd13ifvqbt0","pricing_plan_id":"cebpf4jnsgd1na2vs0mg"},{"bike_id":"207b15a7-69f1-4c4a-a29d-f91df1564475","system_id":"levelo_inurba_marseille","lat":43.24081,"lon":5.37761,"is_reserved":false,"is_disabled":false,"rental_uris":{"android":"levelo://app?vid=207b15a7-69f1-4c4a-a29d-f91df1564475","ios":"levelo://app?vid=207b15a7-69f1-4c4a-a29d-f91df1564475"},"vehicle_type_id":"4","last_reported":1744758567,"current_range_meters":7200,"station_id":"ce4bhnp2rcd13ifvqgvg","pricing_plan_id":"cebpf4jnsgd1na2vs0mg"},{"bike_id":"a7594010-3ec1-4854-a6f4-f340e1636661","system_id":"levelo_inurba_marseille","lat":43.27963,"lon":5.38745,"is_reserved":false,"is_disabled":false,"rental_uris":{"android":"levelo://app?vid=a7594010-3ec1-4854-a6f4-f340e1636661","ios":"levelo://app?vid=a7594010-3ec1-4854-a6f4-f340e1636661"},"vehicle_type_id":"4","last_reported":1744758567,"current_range_meters":8000,"station_id":"ce4bhg12rcd13ifvqf80","pricing_plan_id":"cebpf4jnsgd1na2vs0mg"},{"bike_id":"c273cedc-5337-4dec-91b4-1636fd7d09ad","system_id":"levelo_inurba_marseille","lat":43.31469,"lon":5.3757,"is_reserved":false,"is_disabled":false,"rental_uris":{"android":"levelo://app?vid=c273cedc-5337-4dec-91b4-1636fd7d09ad","ios":"levelo://app?vid=c273cedc-5337-4dec-91b4-1636fd7d09ad"},"vehicle_type_id":"4","last_reported":1744758567,"current_range_meters":8000,"station_id":"","pricing_plan_id":"cebpf4jnsgd1na2vs0mg"},{"bike_id":"bb3fa259-4909-465e-99f8-7d363c8fd144","system_id":"levelo_inurba_marseille","lat":43.306713,"lon":5.400647,"is_reserved":false,"is_disabled":false,"rental_uris":{"android":"levelo://app?vid=bb3fa259-4909-465e-99f8-7d363c8fd144","ios":"levelo://app?vid=bb3fa259-4909-465e-99f8-7d363c8fd144"},"vehicle_type_id":"4","last_reported":1744758567,"current_range_meters":8000,"station_id":"","pricing_plan_id":"cebpf4jnsgd1na2vs0mg"},{"bike_id":"cae589eb-10af-4a8f-8ef6-1f6b43e97ea4","system_id":"levelo_inurba_marseille","lat":43.31082,"lon":5.3834,"is_reserved":false,"is_disabled":false,"rental_uris":{"android":"levelo://app?vid=cae589eb-10af-4a8f-8ef6-1f6b43e97ea4","ios":"levelo://app?vid=cae589eb-10af-4a8f-8ef6-1f6b43e97ea4"},"vehicle_type_id":"4","last_reported":1744758567,"current_range_meters":8000,"station_id":"ce4bgv92rcd13ifvqcr0","pricing_plan_id":"cebpf4jnsgd1na2vs0mg"},{"bike_id":"bf5fb104-e0d1-42f4-a3c8-7474c5fc8cb5","system_id":"levelo_inurba_marseille","lat":43.28418,"lon":5.37527,"is_reserved":false,"is_disabled":false,"rental_uris":{"android":"levelo://app?vid=bf5fb104-e0d1-42f4-a3c8-7474c5fc8cb5","ios":"levelo://app?vid=bf5fb104-e0d1-42f4-a3c8-7474c5fc8cb5"},"vehicle_type_id":"4","last_reported":1744758567,"current_range_meters":8000,"station_id":"ce4bh412rcd13ifvqds0","pricing_plan_id":"cebpf4jnsgd1na2vs0mg"},{"bike_id":"427689a9-0cd4-4119-82a4-9e9bd7ecd185","system_id":"levelo_inurba_marseille","lat":43.28608,"lon":5.37087,"is_reserved":false,"is_disabled":false,"rental_uris":{"android":"levelo://app?vid=427689a9-0cd4-4119-82a4-9e9bd7ecd185","ios":"levelo://app?vid=427689a9-0cd4-4119-82a4-9e9bd7ecd185"},"vehicle_type_id":"4","last_reported":1744758567,"current_range_meters":8000,"station_id":"ce4bht12rcd13ifvqi60","pricing_plan_id":"cebpf4jnsgd1na2vs0mg"},{"bike_id":"a668abbc-a092-49f5-9124-b0b71b0d2e46","system_id":"levelo_inurba_marseille","lat":43.229355,"lon":5.353847,"is_reserved":false,"is_disabled":false,"rental_uris":{"android":"levelo://app?vid=a668abbc-a092-49f5-9124-b0b71b0d2e46","ios":"levelo://app?vid=a668abbc-a092-49f5-9124-b0b71b0d2e46"},"vehicle_type_id":"4","last_reported":1744758567,"current_range_meters":8000,"station_id":"cpo3532slgdg3j2ikp40","pricing_plan_id":"cebpf4jnsgd1na2vs0mg"},{"bike_id":"1395488a-de73-4c0c-99f8-ead07ddbb67d","system_id":"levelo_inurba_marseille","lat":43.2401,"lon":5.36692,"is_reserved":false,"is_disabled":false,"rental_uris":{"android":"levelo://app?vid=1395488a-de73-4c0c-99f8-ead07ddbb67d","ios":"levelo://app?vid=1395488a-de73-4c0c-99f8-ead07ddbb67d"},"vehicle_type_id":"4","last_reported":1744758567,"current_range_meters":8000,"station_id":"","pricing_plan_id":"cebpf4jnsgd1na2vs0mg"},{"bike_id":"82fd650c-b9f4-4d1b-ab4d-3add9e8fd7d4","system_id":"levelo_inurba_marseille","lat":43.27814,"lon":5.39222,"is_reserved":false,"is_disabled":false,"rental_uris":{"android":"levelo://app?vid=82fd650c-b9f4-4d1b-ab4d-3add9e8fd7d4","ios":"levelo://app?vid=82fd650c-b9f4-4d1b-ab4d-3add9e8fd7d4"},"vehicle_type_id":"4","last_reported":1744758567,"current_range_meters":8000,"station_id":"ce4bhjp2rcd13ifvqga0","pricing_plan_id":"cebpf4jnsgd1na2vs0mg"},{"bike_id":"2931a643-dda5-4fc3-95c6-414da5432646","system_id":"levelo_inurba_marseille","lat":43.30636,"lon":5.40068,"is_reserved":false,"is_disabled":false,"rental_uris":{"android":"levelo://app?vid=2931a643-dda5-4fc3-95c6-414da5432646","ios":"levelo://app?vid=2931a643-dda5-4fc3-95c6-414da5432646"},"vehicle_type_id":"4","last_reported":1744758567,"current_range_meters":8400,"station_id":"ce4bh112rcd13ifvqda0","pricing_plan_id":"cebpf4jnsgd1na2vs0mg"},{"bike_id":"347598f2-7636-431d-aa2a-ee922a6e92de","system_id":"levelo_inurba_marseille","lat":43.289421,"lon":5.363923,"is_reserved":false,"is_disabled":false,"rental_uris":{"android":"levelo://app?vid=347598f2-7636-431d-aa2a-ee922a6e92de","ios":"levelo://app?vid=347598f2-7636-431d-aa2a-ee922a6e92de"},"vehicle_type_id":"4","last_reported":1744758567,"current_range_meters":8400,"station_id":"ce4bhc92rcd13ifvqetg","pricing_plan_id":"cebpf4jnsgd1na2vs0mg"},{"bike_id":"93848785-82d0-4143-a030-37d589e660ea","system_id":"levelo_inurba_marseille","lat":43.292551,"lon":5.409029,"is_reserved":false,"is_disabled":false,"rental_uris":{"android":"levelo://app?vid=93848785-82d0-4143-a030-37d589e660ea","ios":"levelo://app?vid=93848785-82d0-4143-a030-37d589e660ea"},"vehicle_type_id":"4","last_reported":1744758567,"current_range_meters":8400,"station_id":"ce4bh192rcd13ifvqdc0","pricing_plan_id":"cebpf4jnsgd1na2vs0mg"},{"bike_id":"3f6e6fd0-fab9-4f68-a6ca-15289375554f","system_id":"levelo_inurba_marseille","lat":43.27594,"lon":5.38406,"is_reserved":false,"is_disabled":false,"rental_uris":{"android":"levelo://app?vid=3f6e6fd0-fab9-4f68-a6ca-15289375554f","ios":"levelo://app?vid=3f6e6fd0-fab9-4f68-a6ca-15289375554f"},"vehicle_type_id":"4","last_reported":1744758567,"current_range_meters":8400,"station_id":"ce4bhh92rcd13ifvqfi0","pricing_plan_id":"cebpf4jnsgd1na2vs0mg"},{"bike_id":"98864900-9929-4876-b962-fb80b57b0071","system_id":"levelo_inurba_marseille","lat":43.30333,"lon":5.40431,"is_reserved":false,"is_disabled":false,"rental_uris":{"android":"levelo://app?vid=98864900-9929-4876-b962-fb80b57b0071","ios":"levelo://app?vid=98864900-9929-4876-b962-fb80b57b0071"},"vehicle_type_id":"4","last_reported":1744758567,"current_range_meters":8400,"station_id":"ce4bh012rcd13ifvqd10","pricing_plan_id":"cebpf4jnsgd1na2vs0mg"},{"bike_id":"3b74ab54-5151-41f4-a56c-2041acf8a2e0","system_id":"levelo_inurba_marseille","lat":43.31985,"lon":5.38275,"is_reserved":false,"is_disabled":false,"rental_uris":{"android":"levelo://app?vid=3b74ab54-5151-41f4-a56c-2041acf8a2e0","ios":"levelo://app?vid=3b74ab54-5151-41f4-a56c-2041acf8a2e0"},"vehicle_type_id":"4","last_reported":1744758567,"current_range_meters":8400,"station_id":"","pricing_plan_id":"cebpf4jnsgd1na2vs0mg"},{"bike_id":"27a55245-8dd2-4f1a-af63-95a9d7b71690","system_id":"levelo_inurba_marseille","lat":43.31111,"lon":5.37887,"is_reserved":false,"is_disabled":false,"rental_uris":{"android":"levelo://app?vid=27a55245-8dd2-4f1a-af63-95a9d7b71690","ios":"levelo://app?vid=27a55245-8dd2-4f1a-af63-95a9d7b71690"},"vehicle_type_id":"4","last_reported":1744758567,"current_range_meters":8400,"station_id":"","pricing_plan_id":"cebpf4jnsgd1na2vs0mg"},{"bike_id":"fedf7c4f-c9e3-4ffc-8526-d46d99681b89","system_id":"levelo_inurba_marseille","lat":43.28614,"lon":5.38946,"is_reserved":false,"is_disabled":true,"rental_uris":{"android":"levelo://app?vid=fedf7c4f-c9e3-4ffc-8526-d46d99681b89","ios":"levelo://app?vid=fedf7c4f-c9e3-4ffc-8526-d46d99681b89"},"vehicle_type_id":"4","last_reported":1744758567,"current_range_meters":8400,"station_id":"","pricing_plan_id":"cebpf4jnsgd1na2vs0mg"},{"bike_id":"019aebdb-ca21-4835-a2d5-7cb30e9a1a5c","system_id":"levelo_inurba_marseille","lat":43.21758,"lon":5.34594,"is_reserved":false,"is_disabled":false,"rental_uris":{"android":"levelo://app?vid=019aebdb-ca21-4835-a2d5-7cb30e9a1a5c","ios":"levelo://app?vid=019aebdb-ca21-4835-a2d5-7cb30e9a1a5c"},"vehicle_type_id":"4","last_reported":1744758567,"current_range_meters":8800,"station_id":"st_cvj6r9ubvosntc0bgbag","pricing_plan_id":"cebpf4jnsgd1na2vs0mg"},{"bike_id":"b581feea-aa29-40bf-a575-cf6f4778b1d4","system_id":"levelo_inurba_marseille","lat":43.26542,"lon":5.37242,"is_reserved":false,"is_disabled":false,"rental_uris":{"android":"levelo://app?vid=b581feea-aa29-40bf-a575-cf6f4778b1d4","ios":"levelo://app?vid=b581feea-aa29-40bf-a575-cf6f4778b1d4"},"vehicle_type_id":"4","last_reported":1744758567,"current_range_meters":8800,"station_id":"ce4bhg12rcd13ifvqf70","pricing_plan_id":"cebpf4jnsgd1na2vs0mg"},{"bike_id":"e1103876-639d-4bb4-8300-d22110ae76d3","system_id":"levelo_inurba_marseille","lat":43.272962,"lon":5.41087,"is_reserved":false,"is_disabled":false,"rental_uris":{"android":"levelo://app?vid=e1103876-639d-4bb4-8300-d22110ae76d3","ios":"levelo://app?vid=e1103876-639d-4bb4-8300-d22110ae76d3"},"vehicle_type_id":"4","last_reported":1744758567,"current_range_meters":8800,"station_id":"","pricing_plan_id":"cebpf4jnsgd1na2vs0mg"},{"bike_id":"a0636e31-c89e-4ae1-aea4-880988d0da0e","system_id":"levelo_inurba_marseille","lat":43.29576,"lon":5.42283,"is_reserved":false,"is_disabled":false,"rental_uris":{"android":"levelo://app?vid=a0636e31-c89e-4ae1-aea4-880988d0da0e","ios":"levelo://app?vid=a0636e31-c89e-4ae1-aea4-880988d0da0e"},"vehicle_type_id":"4","last_reported":1744758567,"current_range_meters":8800,"station_id":"ce4bhph2rcd13ifvqhdg","pricing_plan_id":"cebpf4jnsgd1na2vs0mg"},{"bike_id":"4ca1fc76-01c8-4686-94a5-a46dd951837f","system_id":"levelo_inurba_marseille","lat":43.278191,"lon":5.407143,"is_reserved":false,"is_disabled":false,"rental_uris":{"android":"levelo://app?vid=4ca1fc76-01c8-4686-94a5-a46dd951837f","ios":"levelo://app?vid=4ca1fc76-01c8-4686-94a5-a46dd951837f"},"vehicle_type_id":"4","last_reported":1744758567,"current_range_meters":8800,"station_id":"ce4bhnh2rcd13ifvqgtg","pricing_plan_id":"cebpf4jnsgd1na2vs0mg"},{"bike_id":"e9ea4020-1e98-44a3-8789-412fa57cd95c","system_id":"levelo_inurba_marseille","lat":43.28858,"lon":5.393189,"is_reserved":false,"is_disabled":false,"rental_uris":{"android":"levelo://app?vid=e9ea4020-1e98-44a3-8789-412fa57cd95c","ios":"levelo://app?vid=e9ea4020-1e98-44a3-8789-412fa57cd95c"},"vehicle_type_id":"4","last_reported":1744758567,"current_range_meters":8800,"station_id":"ce4bh2p2rcd13ifvqdi0","pricing_plan_id":"cebpf4jnsgd1na2vs0mg"},{"bike_id":"45152fd8-c07c-4d52-b7a7-6670add35e00","system_id":"levelo_inurba_marseille","lat":43.2614,"lon":5.4205,"is_reserved":false,"is_disabled":false,"rental_uris":{"android":"levelo://app?vid=45152fd8-c07c-4d52-b7a7-6670add35e00","ios":"levelo://app?vid=45152fd8-c07c-4d52-b7a7-6670add35e00"},"vehicle_type_id":"4","last_reported":1744758567,"current_range_meters":8800,"station_id":"","pricing_plan_id":"cebpf4jnsgd1na2vs0mg"},{"bike_id":"0ee6e897-9651-4b0c-92a1-8a45e96d9917","system_id":"levelo_inurba_marseille","lat":43.31328,"lon":5.39693,"is_reserved":false,"is_disabled":false,"rental_uris":{"android":"levelo://app?vid=0ee6e897-9651-4b0c-92a1-8a45e96d9917","ios":"levelo://app?vid=0ee6e897-9651-4b0c-92a1-8a45e96d9917"},"vehicle_type_id":"4","last_reported":1744758567,"current_range_meters":8800,"station_id":"ce4bgvp2rcd13ifvqcu0","pricing_plan_id":"cebpf4jnsgd1na2vs0mg"},{"bike_id":"a8d16af5-df6d-48a7-b828-343fa8aeee2c","system_id":"levelo_inurba_marseille","lat":43.27174,"lon":5.40991,"is_reserved":false,"is_disabled":false,"rental_uris":{"android":"levelo://app?vid=a8d16af5-df6d-48a7-b828-343fa8aeee2c","ios":"levelo://app?vid=a8d16af5-df6d-48a7-b828-343fa8aeee2c"},"vehicle_type_id":"4","last_reported":1744758567,"current_range_meters":8800,"station_id":"ce4bhl12rcd13ifvqgf0","pricing_plan_id":"cebpf4jnsgd1na2vs0mg"},{"bike_id":"8ad01582-139e-4521-af2b-dd4aedd66d09","system_id":"levelo_inurba_marseille","lat":43.25129,"lon":5.39482,"is_reserved":false,"is_disabled":false,"rental_uris":{"android":"levelo://app?vid=8ad01582-139e-4521-af2b-dd4aedd66d09","ios":"levelo://app?vid=8ad01582-139e-4521-af2b-dd4aedd66d09"},"vehicle_type_id":"4","last_reported":1744758567,"current_range_meters":9200,"station_id":"ce4bhm12rcd13ifvqgkg","pricing_plan_id":"cebpf4jnsgd1na2vs0mg"},{"bike_id":"b7ab99ba-94bb-4274-aca7-e6131d0e5ab1","system_id":"levelo_inurba_marseille","lat":43.24199,"lon":5.36371,"is_reserved":false,"is_disabled":false,"rental_uris":{"android":"levelo://app?vid=b7ab99ba-94bb-4274-aca7-e6131d0e5ab1","ios":"levelo://app?vid=b7ab99ba-94bb-4274-aca7-e6131d0e5ab1"},"vehicle_type_id":"4","last_reported":1744758567,"current_range_meters":9200,"station_id":"cpo36qri1sfpv3e86is0","pricing_plan_id":"cebpf4jnsgd1na2vs0mg"},{"bike_id":"ecc26774-7f80-4834-883f-3a8990a5fcbe","system_id":"levelo_inurba_marseille","lat":43.239334,"lon":5.366009,"is_reserved":false,"is_disabled":false,"rental_uris":{"android":"levelo://app?vid=ecc26774-7f80-4834-883f-3a8990a5fcbe","ios":"levelo://app?vid=ecc26774-7f80-4834-883f-3a8990a5fcbe"},"vehicle_type_id":"4","last_reported":1744758567,"current_range_meters":9200,"station_id":"ce4bhi12rcd13ifvqfp0","pricing_plan_id":"cebpf4jnsgd1na2vs0mg"},{"bike_id":"803ce35a-c634-48c2-a8a2-643b90ca630c","system_id":"levelo_inurba_marseille","lat":43.3107,"lon":5.38353,"is_reserved":false,"is_disabled":false,"rental_uris":{"android":"levelo://app?vid=803ce35a-c634-48c2-a8a2-643b90ca630c","ios":"levelo://app?vid=803ce35a-c634-48c2-a8a2-643b90ca630c"},"vehicle_type_id":"4","last_reported":1744758567,"current_range_meters":9200,"station_id":"ce4bgv92rcd13ifvqcr0","pricing_plan_id":"cebpf4jnsgd1na2vs0mg"},{"bike_id":"d0ded8d0-29b8-42f0-8e27-b304f7842b78","system_id":"levelo_inurba_marseille","lat":43.28564,"lon":5.39486,"is_reserved":false,"is_disabled":false,"rental_uris":{"android":"levelo://app?vid=d0ded8d0-29b8-42f0-8e27-b304f7842b78","ios":"levelo://app?vid=d0ded8d0-29b8-42f0-8e27-b304f7842b78"},"vehicle_type_id":"4","last_reported":1744758567,"current_range_meters":9200,"station_id":"ce4bh292rcd13ifvqdg0","pricing_plan_id":"cebpf4jnsgd1na2vs0mg"},{"bike_id":"fff32265-22cc-4219-94ae-3895e4b9f733","system_id":"levelo_inurba_marseille","lat":43.311614,"lon":5.387234,"is_reserved":false,"is_disabled":false,"rental_uris":{"android":"levelo://app?vid=fff32265-22cc-4219-94ae-3895e4b9f733","ios":"levelo://app?vid=fff32265-22cc-4219-94ae-3895e4b9f733"},"vehicle_type_id":"4","last_reported":1744758567,"current_range_meters":9200,"station_id":"ce4bh512rcd13ifvqe2g","pricing_plan_id":"cebpf4jnsgd1na2vs0mg"},{"bike_id":"f9e5186e-c8c6-4c32-a6e4-fada6cb1325e","system_id":"levelo_inurba_marseille","lat":43.29267,"lon":5.40884,"is_reserved":false,"is_disabled":false,"rental_uris":{"android":"levelo://app?vid=f9e5186e-c8c6-4c32-a6e4-fada6cb1325e","ios":"levelo://app?vid=f9e5186e-c8c6-4c32-a6e4-fada6cb1325e"},"vehicle_type_id":"4","last_reported":1744758567,"current_range_meters":9600,"station_id":"ce4bh192rcd13ifvqdc0","pricing_plan_id":"cebpf4jnsgd1na2vs0mg"},{"bike_id":"cc019aaa-33a8-42d2-a2d4-ef26fcdd651f","system_id":"levelo_inurba_marseille","lat":43.30817,"lon":5.37308,"is_reserved":false,"is_disabled":false,"rental_uris":{"android":"levelo://app?vid=cc019aaa-33a8-42d2-a2d4-ef26fcdd651f","ios":"levelo://app?vid=cc019aaa-33a8-42d2-a2d4-ef26fcdd651f"},"vehicle_type_id":"4","last_reported":1744758567,"current_range_meters":9600,"station_id":"","pricing_plan_id":"cebpf4jnsgd1na2vs0mg"},{"bike_id":"48e042da-bf8d-49ad-9806-28ffd897dbce","system_id":"levelo_inurba_marseille","lat":43.3132,"lon":5.39689,"is_reserved":false,"is_disabled":false,"rental_uris":{"android":"levelo://app?vid=48e042da-bf8d-49ad-9806-28ffd897dbce","ios":"levelo://app?vid=48e042da-bf8d-49ad-9806-28ffd897dbce"},"vehicle_type_id":"4","last_reported":1744758567,"current_range_meters":9600,"station_id":"ce4bgvp2rcd13ifvqcu0","pricing_plan_id":"cebpf4jnsgd1na2vs0mg"},{"bike_id":"9f190578-2d0c-46d2-8d6a-3c71598f51e8","system_id":"levelo_inurba_marseille","lat":43.29016,"lon":5.3727,"is_reserved":false,"is_disabled":false,"rental_uris":{"android":"levelo://app?vid=9f190578-2d0c-46d2-8d6a-3c71598f51e8","ios":"levelo://app?vid=9f190578-2d0c-46d2-8d6a-3c71598f51e8"},"vehicle_type_id":"4","last_reported":1744758567,"current_range_meters":9600,"station_id":"","pricing_plan_id":"cebpf4jnsgd1na2vs0mg"},{"bike_id":"4a2fdfe9-5135-4bdb-800a-463a15252b7b","system_id":"levelo_inurba_marseille","lat":43.28151,"lon":5.42632,"is_reserved":false,"is_disabled":false,"rental_uris":{"android":"levelo://app?vid=4a2fdfe9-5135-4bdb-800a-463a15252b7b","ios":"levelo://app?vid=4a2fdfe9-5135-4bdb-800a-463a15252b7b"},"vehicle_type_id":"4","last_reported":1744758567,"current_range_meters":9600,"station_id":"ce4bhnh2rcd13ifvqgug","pricing_plan_id":"cebpf4jnsgd1na2vs0mg"},{"bike_id":"37342bdf-d586-43ba-a25b-da22b3393da6","system_id":"levelo_inurba_marseille","lat":43.29144,"lon":5.37513,"is_reserved":false,"is_disabled":false,"rental_uris":{"android":"levelo://app?vid=37342bdf-d586-43ba-a25b-da22b3393da6","ios":"levelo://app?vid=37342bdf-d586-43ba-a25b-da22b3393da6"},"vehicle_type_id":"4","last_reported":1744758567,"current_range_meters":9600,"station_id":"","pricing_plan_id":"cebpf4jnsgd1na2vs0mg"},{"bike_id":"45c77ecd-980e-4383-ab9a-31be7a98a675","system_id":"levelo_inurba_marseille","lat":43.240807,"lon":5.377487,"is_reserved":false,"is_disabled":false,"rental_uris":{"android":"levelo://app?vid=45c77ecd-980e-4383-ab9a-31be7a98a675","ios":"levelo://app?vid=45c77ecd-980e-4383-ab9a-31be7a98a675"},"vehicle_type_id":"4","last_reported":1744758567,"current_range_meters":9600,"station_id":"ce4bhnp2rcd13ifvqgvg","pricing_plan_id":"cebpf4jnsgd1na2vs0mg"},{"bike_id":"4c22d308-9236-442a-b4cb-a99690cb45a2","system_id":"levelo_inurba_marseille","lat":43.23181,"lon":5.39982,"is_reserved":false,"is_disabled":false,"rental_uris":{"android":"levelo://app?vid=4c22d308-9236-442a-b4cb-a99690cb45a2","ios":"levelo://app?vid=4c22d308-9236-442a-b4cb-a99690cb45a2"},"vehicle_type_id":"4","last_reported":1744758567,"current_range_meters":9600,"station_id":"ce4bhn12rcd13ifvqgqg","pricing_plan_id":"cebpf4jnsgd1na2vs0mg"},{"bike_id":"e5a8463a-5b3f-4a43-961e-7322a50c6233","system_id":"levelo_inurba_marseille","lat":43.30411,"lon":5.4128,"is_reserved":false,"is_disabled":false,"rental_uris":{"android":"levelo://app?vid=e5a8463a-5b3f-4a43-961e-7322a50c6233","ios":"levelo://app?vid=e5a8463a-5b3f-4a43-961e-7322a50c6233"},"vehicle_type_id":"4","last_reported":1744758567,"current_range_meters":10000,"station_id":"ce4bhop2rcd13ifvqh8g","pricing_plan_id":"cebpf4jnsgd1na2vs0mg"},{"bike_id":"3379db3a-75e2-44d4-92d8-b6438c2dd129","system_id":"levelo_inurba_marseille","lat":43.30542,"lon":5.38431,"is_reserved":false,"is_disabled":false,"rental_uris":{"android":"levelo://app?vid=3379db3a-75e2-44d4-92d8-b6438c2dd129","ios":"levelo://app?vid=3379db3a-75e2-44d4-92d8-b6438c2dd129"},"vehicle_type_id":"4","last_reported":1744758567,"current_range_meters":10000,"station_id":"ce4bgg92rcd13ifvqb30","pricing_plan_id":"cebpf4jnsgd1na2vs0mg"},{"bike_id":"216d3497-6990-4841-8120-cedd33bcf19b","system_id":"levelo_inurba_marseille","lat":43.29435,"lon":5.39742,"is_reserved":false,"is_disabled":false,"rental_uris":{"android":"levelo://app?vid=216d3497-6990-4841-8120-cedd33bcf19b","ios":"levelo://app?vid=216d3497-6990-4841-8120-cedd33bcf19b"},"vehicle_type_id":"4","last_reported":1744758567,"current_range_meters":10000,"station_id":"ce4bh3h2rcd13ifvqdo0","pricing_plan_id":"cebpf4jnsgd1na2vs0mg"},{"bike_id":"9b7bfb98-1f84-4509-997d-aefaffb81ce7","system_id":"levelo_inurba_marseille","lat":43.29784,"lon":5.39324,"is_reserved":false,"is_disabled":false,"rental_uris":{"android":"levelo://app?vid=9b7bfb98-1f84-4509-997d-aefaffb81ce7","ios":"levelo://app?vid=9b7bfb98-1f84-4509-997d-aefaffb81ce7"},"vehicle_type_id":"4","last_reported":1744758567,"current_range_meters":9600,"station_id":"chh1huq6cuj3fo74tm60","pricing_plan_id":"cebpf4jnsgd1na2vs0mg"},{"bike_id":"7a2e094b-19fc-4112-8f78-d6e65b66137c","system_id":"levelo_inurba_marseille","lat":43.30333,"lon":5.40429,"is_reserved":false,"is_disabled":false,"rental_uris":{"android":"levelo://app?vid=7a2e094b-19fc-4112-8f78-d6e65b66137c","ios":"levelo://app?vid=7a2e094b-19fc-4112-8f78-d6e65b66137c"},"vehicle_type_id":"4","last_reported":1744758567,"current_range_meters":10800,"station_id":"ce4bh012rcd13ifvqd10","pricing_plan_id":"cebpf4jnsgd1na2vs0mg"},{"bike_id":"a9714c3a-a1bc-45f5-bbe5-486695d9aded","system_id":"levelo_inurba_marseille","lat":43.28738,"lon":5.3608,"is_reserved":false,"is_disabled":false,"rental_uris":{"android":"levelo://app?vid=a9714c3a-a1bc-45f5-bbe5-486695d9aded","ios":"levelo://app?vid=a9714c3a-a1bc-45f5-bbe5-486695d9aded"},"vehicle_type_id":"4","last_reported":1744758567,"current_range_meters":10800,"station_id":"cki0cbj6b192h4jlfktg","pricing_plan_id":"cebpf4jnsgd1na2vs0mg"},{"bike_id":"b8fc41cd-41c8-4b48-bacc-bbafb8e021c1","system_id":"levelo_inurba_marseille","lat":43.31355,"lon":5.3968,"is_reserved":false,"is_disabled":false,"rental_uris":{"android":"levelo://app?vid=b8fc41cd-41c8-4b48-bacc-bbafb8e021c1","ios":"levelo://app?vid=b8fc41cd-41c8-4b48-bacc-bbafb8e021c1"},"vehicle_type_id":"4","last_reported":1744758567,"current_range_meters":10800,"station_id":"ce4bgvp2rcd13ifvqcu0","pricing_plan_id":"cebpf4jnsgd1na2vs0mg"},{"bike_id":"d2d37f01-fa46-4fbc-a721-7789f4003663","system_id":"levelo_inurba_marseille","lat":43.25002,"lon":5.38977,"is_reserved":false,"is_disabled":false,"rental_uris":{"android":"levelo://app?vid=d2d37f01-fa46-4fbc-a721-7789f4003663","ios":"levelo://app?vid=d2d37f01-fa46-4fbc-a721-7789f4003663"},"vehicle_type_id":"4","last_reported":1744758567,"current_range_meters":10800,"station_id":"","pricing_plan_id":"cebpf4jnsgd1na2vs0mg"},{"bike_id":"376f754b-7bba-4962-babe-b49b1468281c","system_id":"levelo_inurba_marseille","lat":43.309299,"lon":5.401544,"is_reserved":false,"is_disabled":true,"rental_uris":{"android":"levelo://app?vid=376f754b-7bba-4962-babe-b49b1468281c","ios":"levelo://app?vid=376f754b-7bba-4962-babe-b49b1468281c"},"vehicle_type_id":"4","last_reported":1744758567,"current_range_meters":10800,"station_id":"ce4bgvp2rcd13ifvqct0","pricing_plan_id":"cebpf4jnsgd1na2vs0mg"},{"bike_id":"ac1263f5-6403-4fb6-8bef-37a40f501a25","system_id":"levelo_inurba_marseille","lat":43.30643,"lon":5.40081,"is_reserved":false,"is_disabled":false,"rental_uris":{"android":"levelo://app?vid=ac1263f5-6403-4fb6-8bef-37a40f501a25","ios":"levelo://app?vid=ac1263f5-6403-4fb6-8bef-37a40f501a25"},"vehicle_type_id":"4","last_reported":1744758567,"current_range_meters":10800,"station_id":"ce4bh112rcd13ifvqda0","pricing_plan_id":"cebpf4jnsgd1na2vs0mg"},{"bike_id":"d299f058-e812-4ac1-8e7b-ab1dce50ec0c","system_id":"levelo_inurba_marseille","lat":43.27991,"lon":5.40012,"is_reserved":false,"is_disabled":false,"rental_uris":{"android":"levelo://app?vid=d299f058-e812-4ac1-8e7b-ab1dce50ec0c","ios":"levelo://app?vid=d299f058-e812-4ac1-8e7b-ab1dce50ec0c"},"vehicle_type_id":"4","last_reported":1744758567,"current_range_meters":11200,"station_id":"ce4bho92rcd13ifvqh4g","pricing_plan_id":"cebpf4jnsgd1na2vs0mg"},{"bike_id":"2797dcdb-c4e1-48b2-82d6-5677d371fa39","system_id":"levelo_inurba_marseille","lat":43.241668,"lon":5.363946,"is_reserved":false,"is_disabled":false,"rental_uris":{"android":"levelo://app?vid=2797dcdb-c4e1-48b2-82d6-5677d371fa39","ios":"levelo://app?vid=2797dcdb-c4e1-48b2-82d6-5677d371fa39"},"vehicle_type_id":"4","last_reported":1744758567,"current_range_meters":11200,"station_id":"cpo36qri1sfpv3e86is0","pricing_plan_id":"cebpf4jnsgd1na2vs0mg"},{"bike_id":"03c8cee0-a6a5-48f4-b783-f14451736b24","system_id":"levelo_inurba_marseille","lat":43.27167,"lon":5.40994,"is_reserved":false,"is_disabled":false,"rental_uris":{"android":"levelo://app?vid=03c8cee0-a6a5-48f4-b783-f14451736b24","ios":"levelo://app?vid=03c8cee0-a6a5-48f4-b783-f14451736b24"},"vehicle_type_id":"4","last_reported":1744758567,"current_range_meters":11200,"station_id":"ce4bhl12rcd13ifvqgf0","pricing_plan_id":"cebpf4jnsgd1na2vs0mg"},{"bike_id":"04ccf5cd-5294-4bef-91b5-b07c993b6d28","system_id":"levelo_inurba_marseille","lat":43.24687,"lon":5.4119,"is_reserved":false,"is_disabled":false,"rental_uris":{"android":"levelo://app?vid=04ccf5cd-5294-4bef-91b5-b07c993b6d28","ios":"levelo://app?vid=04ccf5cd-5294-4bef-91b5-b07c993b6d28"},"vehicle_type_id":"4","last_reported":1744758567,"current_range_meters":11200,"station_id":"","pricing_plan_id":"cebpf4jnsgd1na2vs0mg"},{"bike_id":"797dd5e2-da39-473a-b854-cceac2c9f546","system_id":"levelo_inurba_marseille","lat":43.28738,"lon":5.36079,"is_reserved":false,"is_disabled":false,"rental_uris":{"android":"levelo://app?vid=797dd5e2-da39-473a-b854-cceac2c9f546","ios":"levelo://app?vid=797dd5e2-da39-473a-b854-cceac2c9f546"},"vehicle_type_id":"4","last_reported":1744758567,"current_range_meters":11200,"station_id":"cki0cbj6b192h4jlfktg","pricing_plan_id":"cebpf4jnsgd1na2vs0mg"},{"bike_id":"50068623-f958-469c-b0e7-488af0bf83ad","system_id":"levelo_inurba_marseille","lat":43.28491,"lon":5.38563,"is_reserved":false,"is_disabled":false,"rental_uris":{"android":"levelo://app?vid=50068623-f958-469c-b0e7-488af0bf83ad","ios":"levelo://app?vid=50068623-f958-469c-b0e7-488af0bf83ad"},"vehicle_type_id":"4","last_reported":1744758567,"current_range_meters":11200,"station_id":"ce4bh8p2rcd13ifvqeb0","pricing_plan_id":"cebpf4jnsgd1na2vs0mg"},{"bike_id":"b5d978c8-0bb0-45d7-be49-b92cba244dc5","system_id":"levelo_inurba_marseille","lat":43.292768,"lon":5.374745,"is_reserved":false,"is_disabled":true,"rental_uris":{"android":"levelo://app?vid=b5d978c8-0bb0-45d7-be49-b92cba244dc5","ios":"levelo://app?vid=b5d978c8-0bb0-45d7-be49-b92cba244dc5"},"vehicle_type_id":"4","last_reported":1744758567,"current_range_meters":11200,"station_id":"ce4bgi12rcd13ifvqb70","pricing_plan_id":"cebpf4jnsgd1na2vs0mg"},{"bike_id":"f8d7f4dc-52ba-4442-ad7a-69218560bc30","system_id":"levelo_inurba_marseille","lat":43.29286,"lon":5.401168,"is_reserved":false,"is_disabled":false,"rental_uris":{"android":"levelo://app?vid=f8d7f4dc-52ba-4442-ad7a-69218560bc30","ios":"levelo://app?vid=f8d7f4dc-52ba-4442-ad7a-69218560bc30"},"vehicle_type_id":"4","last_reported":1744758567,"current_range_meters":11600,"station_id":"ce4bh312rcd13ifvqdk0","pricing_plan_id":"cebpf4jnsgd1na2vs0mg"},{"bike_id":"68bb5c2f-fd19-492d-b0bb-5841e6724b4a","system_id":"levelo_inurba_marseille","lat":43.22929,"lon":5.35384,"is_reserved":false,"is_disabled":false,"rental_uris":{"android":"levelo://app?vid=68bb5c2f-fd19-492d-b0bb-5841e6724b4a","ios":"levelo://app?vid=68bb5c2f-fd19-492d-b0bb-5841e6724b4a"},"vehicle_type_id":"4","last_reported":1744758567,"current_range_meters":11600,"station_id":"cpo3532slgdg3j2ikp40","pricing_plan_id":"cebpf4jnsgd1na2vs0mg"},{"bike_id":"4bf95762-f540-4a84-9062-209f02f6ed6a","system_id":"levelo_inurba_marseille","lat":43.29256,"lon":5.38414,"is_reserved":false,"is_disabled":true,"rental_uris":{"android":"levelo://app?vid=4bf95762-f540-4a84-9062-209f02f6ed6a","ios":"levelo://app?vid=4bf95762-f540-4a84-9062-209f02f6ed6a"},"vehicle_type_id":"4","last_reported":1744758567,"current_range_meters":11600,"station_id":"ce4bh692rcd13ifvqea0","pricing_plan_id":"cebpf4jnsgd1na2vs0mg"},{"bike_id":"31ec0d9b-2863-4f99-981c-cc4e7c4c68bd","system_id":"levelo_inurba_marseille","lat":43.29251,"lon":5.38433,"is_reserved":false,"is_disabled":true,"rental_uris":{"android":"levelo://app?vid=31ec0d9b-2863-4f99-981c-cc4e7c4c68bd","ios":"levelo://app?vid=31ec0d9b-2863-4f99-981c-cc4e7c4c68bd"},"vehicle_type_id":"4","last_reported":1744758567,"current_range_meters":11600,"station_id":"ce4bh692rcd13ifvqea0","pricing_plan_id":"cebpf4jnsgd1na2vs0mg"},{"bike_id":"dd8f0ff9-117f-4fd9-bc7c-ef5d85c7f322","system_id":"levelo_inurba_marseille","lat":43.320029,"lon":5.381474,"is_reserved":false,"is_disabled":false,"rental_uris":{"android":"levelo://app?vid=dd8f0ff9-117f-4fd9-bc7c-ef5d85c7f322","ios":"levelo://app?vid=dd8f0ff9-117f-4fd9-bc7c-ef5d85c7f322"},"vehicle_type_id":"4","last_reported":1744758567,"current_range_meters":11600,"station_id":"ce4bhr12rcd13ifvqhpg","pricing_plan_id":"cebpf4jnsgd1na2vs0mg"},{"bike_id":"982b1a86-cd40-472c-8020-39a4110d0e44","system_id":"levelo_inurba_marseille","lat":43.31061,"lon":5.38372,"is_reserved":false,"is_disabled":false,"rental_uris":{"android":"levelo://app?vid=982b1a86-cd40-472c-8020-39a4110d0e44","ios":"levelo://app?vid=982b1a86-cd40-472c-8020-39a4110d0e44"},"vehicle_type_id":"4","last_reported":1744758567,"current_range_meters":11600,"station_id":"ce4bgv92rcd13ifvqcr0","pricing_plan_id":"cebpf4jnsgd1na2vs0mg"},{"bike_id":"1e0984b1-c3fd-414e-9ac8-77e32f786839","system_id":"levelo_inurba_marseille","lat":43.28476,"lon":5.3587,"is_reserved":false,"is_disabled":false,"rental_uris":{"android":"levelo://app?vid=1e0984b1-c3fd-414e-9ac8-77e32f786839","ios":"levelo://app?vid=1e0984b1-c3fd-414e-9ac8-77e32f786839"},"vehicle_type_id":"4","last_reported":1744758567,"current_range_meters":12000,"station_id":"ce4bhah2rcd13ifvqei0","pricing_plan_id":"cebpf4jnsgd1na2vs0mg"},{"bike_id":"8a5929f6-d19f-4a8e-97f1-5dec0e7ea5f9","system_id":"levelo_inurba_marseille","lat":43.31169,"lon":5.38719,"is_reserved":false,"is_disabled":false,"rental_uris":{"android":"levelo://app?vid=8a5929f6-d19f-4a8e-97f1-5dec0e7ea5f9","ios":"levelo://app?vid=8a5929f6-d19f-4a8e-97f1-5dec0e7ea5f9"},"vehicle_type_id":"4","last_reported":1744758567,"current_range_meters":12000,"station_id":"ce4bgv12rcd13ifvqcp0","pricing_plan_id":"cebpf4jnsgd1na2vs0mg"},{"bike_id":"075fcdf5-b249-40b2-bc7e-7ad517887fb8","system_id":"levelo_inurba_marseille","lat":43.27519,"lon":5.42426,"is_reserved":false,"is_disabled":false,"rental_uris":{"android":"levelo://app?vid=075fcdf5-b249-40b2-bc7e-7ad517887fb8","ios":"levelo://app?vid=075fcdf5-b249-40b2-bc7e-7ad517887fb8"},"vehicle_type_id":"4","last_reported":1744758567,"current_range_meters":12000,"station_id":"ce4bhn92rcd13ifvqgrg","pricing_plan_id":"cebpf4jnsgd1na2vs0mg"},{"bike_id":"ac93b782-2c24-4c21-8bf5-8e2a67f7cc1b","system_id":"levelo_inurba_marseille","lat":43.27582,"lon":5.38421,"is_reserved":false,"is_disabled":false,"rental_uris":{"android":"levelo://app?vid=ac93b782-2c24-4c21-8bf5-8e2a67f7cc1b","ios":"levelo://app?vid=ac93b782-2c24-4c21-8bf5-8e2a67f7cc1b"},"vehicle_type_id":"4","last_reported":1744758567,"current_range_meters":12000,"station_id":"ce4bhh92rcd13ifvqfi0","pricing_plan_id":"cebpf4jnsgd1na2vs0mg"},{"bike_id":"70b4bb03-b9bb-4db5-9d2b-6ab921c838cf","system_id":"levelo_inurba_marseille","lat":43.28719,"lon":5.36103,"is_reserved":false,"is_disabled":false,"rental_uris":{"android":"levelo://app?vid=70b4bb03-b9bb-4db5-9d2b-6ab921c838cf","ios":"levelo://app?vid=70b4bb03-b9bb-4db5-9d2b-6ab921c838cf"},"vehicle_type_id":"4","last_reported":1744758567,"current_range_meters":12400,"station_id":"cki0cbj6b192h4jlfktg","pricing_plan_id":"cebpf4jnsgd1na2vs0mg"},{"bike_id":"a8132d22-4ce6-4e24-9e2c-e02042e4181b","system_id":"levelo_inurba_marseille","lat":43.21747,"lon":5.34587,"is_reserved":false,"is_disabled":false,"rental_uris":{"android":"levelo://app?vid=a8132d22-4ce6-4e24-9e2c-e02042e4181b","ios":"levelo://app?vid=a8132d22-4ce6-4e24-9e2c-e02042e4181b"},"vehicle_type_id":"4","last_reported":1744758567,"current_range_meters":12400,"station_id":"st_cvj6r9ubvosntc0bgbag","pricing_plan_id":"cebpf4jnsgd1na2vs0mg"},{"bike_id":"45c6b552-68fd-454d-84d3-cf79221aaee4","system_id":"levelo_inurba_marseille","lat":43.298637,"lon":5.408741,"is_reserved":false,"is_disabled":false,"rental_uris":{"android":"levelo://app?vid=45c6b552-68fd-454d-84d3-cf79221aaee4","ios":"levelo://app?vid=45c6b552-68fd-454d-84d3-cf79221aaee4"},"vehicle_type_id":"4","last_reported":1744758567,"current_range_meters":12400,"station_id":"","pricing_plan_id":"cebpf4jnsgd1na2vs0mg"},{"bike_id":"b2a36e0e-0c9c-4052-8111-cd98e3a699e3","system_id":"levelo_inurba_marseille","lat":43.2708,"lon":5.4227,"is_reserved":false,"is_disabled":false,"rental_uris":{"android":"levelo://app?vid=b2a36e0e-0c9c-4052-8111-cd98e3a699e3","ios":"levelo://app?vid=b2a36e0e-0c9c-4052-8111-cd98e3a699e3"},"vehicle_type_id":"4","last_reported":1744758567,"current_range_meters":12400,"station_id":"ce4bhk92rcd13ifvqgb0","pricing_plan_id":"cebpf4jnsgd1na2vs0mg"},{"bike_id":"cc456307-4e57-4741-8544-99c65b3016d0","system_id":"levelo_inurba_marseille","lat":43.26542,"lon":5.39012,"is_reserved":false,"is_disabled":false,"rental_uris":{"android":"levelo://app?vid=cc456307-4e57-4741-8544-99c65b3016d0","ios":"levelo://app?vid=cc456307-4e57-4741-8544-99c65b3016d0"},"vehicle_type_id":"4","last_reported":1744758567,"current_range_meters":12800,"station_id":"ce4bhe12rcd13ifvqf30","pricing_plan_id":"cebpf4jnsgd1na2vs0mg"},{"bike_id":"b04d8da2-4e58-4f17-ae53-0cc1d89b7f48","system_id":"levelo_inurba_marseille","lat":43.30225,"lon":5.39475,"is_reserved":false,"is_disabled":false,"rental_uris":{"android":"levelo://app?vid=b04d8da2-4e58-4f17-ae53-0cc1d89b7f48","ios":"levelo://app?vid=b04d8da2-4e58-4f17-ae53-0cc1d89b7f48"},"vehicle_type_id":"4","last_reported":1744758567,"current_range_meters":12800,"station_id":"ce4bh0p2rcd13ifvqd70","pricing_plan_id":"cebpf4jnsgd1na2vs0mg"},{"bike_id":"4261d09f-8741-47a2-b22b-74e1da141df7","system_id":"levelo_inurba_marseille","lat":43.28353,"lon":5.38109,"is_reserved":false,"is_disabled":false,"rental_uris":{"android":"levelo://app?vid=4261d09f-8741-47a2-b22b-74e1da141df7","ios":"levelo://app?vid=4261d09f-8741-47a2-b22b-74e1da141df7"},"vehicle_type_id":"4","last_reported":1744758567,"current_range_meters":12800,"station_id":"ce4bh412rcd13ifvqdr0","pricing_plan_id":"cebpf4jnsgd1na2vs0mg"},{"bike_id":"7eacb872-0584-4b06-8fad-feb612d3799a","system_id":"levelo_inurba_marseille","lat":43.29727,"lon":5.38086,"is_reserved":false,"is_disabled":false,"rental_uris":{"android":"levelo://app?vid=7eacb872-0584-4b06-8fad-feb612d3799a","ios":"levelo://app?vid=7eacb872-0584-4b06-8fad-feb612d3799a"},"vehicle_type_id":"4","last_reported":1744758567,"current_range_meters":13600,"station_id":"","pricing_plan_id":"cebpf4jnsgd1na2vs0mg"},{"bike_id":"46b9d12b-d4e5-481e-8406-452fd0e34662","system_id":"levelo_inurba_marseille","lat":43.31322,"lon":5.39708,"is_reserved":false,"is_disabled":false,"rental_uris":{"android":"levelo://app?vid=46b9d12b-d4e5-481e-8406-452fd0e34662","ios":"levelo://app?vid=46b9d12b-d4e5-481e-8406-452fd0e34662"},"vehicle_type_id":"4","last_reported":1744758567,"current_range_meters":13600,"station_id":"ce4bgvp2rcd13ifvqcu0","pricing_plan_id":"cebpf4jnsgd1na2vs0mg"},{"bike_id":"65939060-bb8f-4a23-b34c-33e31f1b6027","system_id":"levelo_inurba_marseille","lat":43.27183,"lon":5.40979,"is_reserved":false,"is_disabled":false,"rental_uris":{"android":"levelo://app?vid=65939060-bb8f-4a23-b34c-33e31f1b6027","ios":"levelo://app?vid=65939060-bb8f-4a23-b34c-33e31f1b6027"},"vehicle_type_id":"4","last_reported":1744758567,"current_range_meters":13600,"station_id":"ce4bhl12rcd13ifvqgf0","pricing_plan_id":"cebpf4jnsgd1na2vs0mg"},{"bike_id":"e89fd8a2-ee10-4531-b10b-99142320dd96","system_id":"levelo_inurba_marseille","lat":43.29885,"lon":5.38908,"is_reserved":false,"is_disabled":false,"rental_uris":{"android":"levelo://app?vid=e89fd8a2-ee10-4531-b10b-99142320dd96","ios":"levelo://app?vid=e89fd8a2-ee10-4531-b10b-99142320dd96"},"vehicle_type_id":"4","last_reported":1744758567,"current_range_meters":14000,"station_id":"ce4bh392rcd13ifvqdl0","pricing_plan_id":"cebpf4jnsgd1na2vs0mg"},{"bike_id":"e4257eb6-3279-499f-8a4a-e01750851d1b","system_id":"levelo_inurba_marseille","lat":43.279883,"lon":5.416597,"is_reserved":false,"is_disabled":false,"rental_uris":{"android":"levelo://app?vid=e4257eb6-3279-499f-8a4a-e01750851d1b","ios":"levelo://app?vid=e4257eb6-3279-499f-8a4a-e01750851d1b"},"vehicle_type_id":"4","last_reported":1744758567,"current_range_meters":14000,"station_id":"ce4bho12rcd13ifvqh1g","pricing_plan_id":"cebpf4jnsgd1na2vs0mg"},{"bike_id":"a64c1bf8-86bc-4c11-9879-81cd45d3d031","system_id":"levelo_inurba_marseille","lat":43.31327,"lon":5.39699,"is_reserved":false,"is_disabled":true,"rental_uris":{"android":"levelo://app?vid=a64c1bf8-86bc-4c11-9879-81cd45d3d031","ios":"levelo://app?vid=a64c1bf8-86bc-4c11-9879-81cd45d3d031"},"vehicle_type_id":"4","last_reported":1744758567,"current_range_meters":14000,"station_id":"ce4bgvp2rcd13ifvqcu0","pricing_plan_id":"cebpf4jnsgd1na2vs0mg"},{"bike_id":"4aef0fa6-a0da-4fa2-9099-9fa1ba81c16a","system_id":"levelo_inurba_marseille","lat":43.28195,"lon":5.404893,"is_reserved":false,"is_disabled":false,"rental_uris":{"android":"levelo://app?vid=4aef0fa6-a0da-4fa2-9099-9fa1ba81c16a","ios":"levelo://app?vid=4aef0fa6-a0da-4fa2-9099-9fa1ba81c16a"},"vehicle_type_id":"4","last_reported":1744758567,"current_range_meters":14400,"station_id":"","pricing_plan_id":"cebpf4jnsgd1na2vs0mg"},{"bike_id":"9df4d04c-49c0-4cc9-90fb-8c204c2453c2","system_id":"levelo_inurba_marseille","lat":43.25949,"lon":5.40904,"is_reserved":false,"is_disabled":false,"rental_uris":{"android":"levelo://app?vid=9df4d04c-49c0-4cc9-90fb-8c204c2453c2","ios":"levelo://app?vid=9df4d04c-49c0-4cc9-90fb-8c204c2453c2"},"vehicle_type_id":"4","last_reported":1744758567,"current_range_meters":14400,"station_id":"ce4bhm92rcd13ifvqglg","pricing_plan_id":"cebpf4jnsgd1na2vs0mg"},{"bike_id":"ee465a00-80df-4308-a2c3-b5ea33f92667","system_id":"levelo_inurba_marseille","lat":43.299286,"lon":5.373319,"is_reserved":false,"is_disabled":false,"rental_uris":{"android":"levelo://app?vid=ee465a00-80df-4308-a2c3-b5ea33f92667","ios":"levelo://app?vid=ee465a00-80df-4308-a2c3-b5ea33f92667"},"vehicle_type_id":"4","last_reported":1744758567,"current_range_meters":14400,"station_id":"ce4bhrh2rcd13ifvqhug","pricing_plan_id":"cebpf4jnsgd1na2vs0mg"},{"bike_id":"cfc8eb5a-28ff-4121-8aac-7a3aaa8f1073","system_id":"levelo_inurba_marseille","lat":43.305384,"lon":5.384322,"is_reserved":false,"is_disabled":false,"rental_uris":{"android":"levelo://app?vid=cfc8eb5a-28ff-4121-8aac-7a3aaa8f1073","ios":"levelo://app?vid=cfc8eb5a-28ff-4121-8aac-7a3aaa8f1073"},"vehicle_type_id":"4","last_reported":1744758567,"current_range_meters":14800,"station_id":"ce4bgg92rcd13ifvqb30","pricing_plan_id":"cebpf4jnsgd1na2vs0mg"},{"bike_id":"67c5df41-b8f9-479f-8eb4-01212bb809db","system_id":"levelo_inurba_marseille","lat":43.293025,"lon":5.371798,"is_reserved":false,"is_disabled":true,"rental_uris":{"android":"levelo://app?vid=67c5df41-b8f9-479f-8eb4-01212bb809db","ios":"levelo://app?vid=67c5df41-b8f9-479f-8eb4-01212bb809db"},"vehicle_type_id":"4","last_reported":1744758567,"current_range_meters":14800,"station_id":"ce4bgh92rcd13ifvqb40","pricing_plan_id":"cebpf4jnsgd1na2vs0mg"},{"bike_id":"561936ef-54e4-4d15-b2a7-dfd018b9e12e","system_id":"levelo_inurba_marseille","lat":43.29821,"lon":5.4026,"is_reserved":false,"is_disabled":false,"rental_uris":{"android":"levelo://app?vid=561936ef-54e4-4d15-b2a7-dfd018b9e12e","ios":"levelo://app?vid=561936ef-54e4-4d15-b2a7-dfd018b9e12e"},"vehicle_type_id":"4","last_reported":1744758567,"current_range_meters":14800,"station_id":"","pricing_plan_id":"cebpf4jnsgd1na2vs0mg"},{"bike_id":"f14bce7a-b864-41f9-b089-fed11ce290ed","system_id":"levelo_inurba_marseille","lat":43.24123,"lon":5.37703,"is_reserved":false,"is_disabled":false,"rental_uris":{"android":"levelo://app?vid=f14bce7a-b864-41f9-b089-fed11ce290ed","ios":"levelo://app?vid=f14bce7a-b864-41f9-b089-fed11ce290ed"},"vehicle_type_id":"4","last_reported":1744758567,"current_range_meters":15200,"station_id":"ce4bhnp2rcd13ifvqgvg","pricing_plan_id":"cebpf4jnsgd1na2vs0mg"},{"bike_id":"4b633b43-ad99-4074-9a25-c62b5b95c6c5","system_id":"levelo_inurba_marseille","lat":43.28126,"lon":5.37839,"is_reserved":false,"is_disabled":false,"rental_uris":{"android":"levelo://app?vid=4b633b43-ad99-4074-9a25-c62b5b95c6c5","ios":"levelo://app?vid=4b633b43-ad99-4074-9a25-c62b5b95c6c5"},"vehicle_type_id":"4","last_reported":1744758567,"current_range_meters":16000,"station_id":"ce4bha12rcd13ifvqee0","pricing_plan_id":"cebpf4jnsgd1na2vs0mg"},{"bike_id":"a11d43e3-084b-4391-bd00-108d456f2642","system_id":"levelo_inurba_marseille","lat":43.26682,"lon":5.38264,"is_reserved":false,"is_disabled":false,"rental_uris":{"android":"levelo://app?vid=a11d43e3-084b-4391-bd00-108d456f2642","ios":"levelo://app?vid=a11d43e3-084b-4391-bd00-108d456f2642"},"vehicle_type_id":"4","last_reported":1744758567,"current_range_meters":16000,"station_id":"ce4bhg92rcd13ifvqf90","pricing_plan_id":"cebpf4jnsgd1na2vs0mg"},{"bike_id":"61b57769-948d-48ed-a18d-2d89f43787b0","system_id":"levelo_inurba_marseille","lat":43.28065,"lon":5.39634,"is_reserved":false,"is_disabled":false,"rental_uris":{"android":"levelo://app?vid=61b57769-948d-48ed-a18d-2d89f43787b0","ios":"levelo://app?vid=61b57769-948d-48ed-a18d-2d89f43787b0"},"vehicle_type_id":"4","last_reported":1744758567,"current_range_meters":16000,"station_id":"ce4bho12rcd13ifvqh2g","pricing_plan_id":"cebpf4jnsgd1na2vs0mg"},{"bike_id":"98b073a9-6f8e-4345-ad47-65369c5611d5","system_id":"levelo_inurba_marseille","lat":43.28709,"lon":5.3736,"is_reserved":false,"is_disabled":false,"rental_uris":{"android":"levelo://app?vid=98b073a9-6f8e-4345-ad47-65369c5611d5","ios":"levelo://app?vid=98b073a9-6f8e-4345-ad47-65369c5611d5"},"vehicle_type_id":"4","last_reported":1744758567,"current_range_meters":16000,"station_id":"ce4bh3p2rcd13ifvqdq0","pricing_plan_id":"cebpf4jnsgd1na2vs0mg"},{"bike_id":"09651454-ba98-489f-84d4-7c0b820526b4","system_id":"levelo_inurba_marseille","lat":43.31255,"lon":5.36813,"is_reserved":false,"is_disabled":true,"rental_uris":{"android":"levelo://app?vid=09651454-ba98-489f-84d4-7c0b820526b4","ios":"levelo://app?vid=09651454-ba98-489f-84d4-7c0b820526b4"},"vehicle_type_id":"4","last_reported":1744758567,"current_range_meters":16000,"station_id":"ce4bgl92rcd13ifvqbq0","pricing_plan_id":"cebpf4jnsgd1na2vs0mg"},{"bike_id":"ef9a3c6b-98ce-42f1-93a1-07ec5fc6435d","system_id":"levelo_inurba_marseille","lat":43.292652,"lon":5.376185,"is_reserved":false,"is_disabled":false,"rental_uris":{"android":"levelo://app?vid=ef9a3c6b-98ce-42f1-93a1-07ec5fc6435d","ios":"levelo://app?vid=ef9a3c6b-98ce-42f1-93a1-07ec5fc6435d"},"vehicle_type_id":"4","last_reported":1744758567,"current_range_meters":16000,"station_id":"ce4bgi12rcd13ifvqb80","pricing_plan_id":"cebpf4jnsgd1na2vs0mg"},{"bike_id":"ce86423c-7fda-4347-b51e-6014b639a5a1","system_id":"levelo_inurba_marseille","lat":43.31079,"lon":5.38328,"is_reserved":false,"is_disabled":false,"rental_uris":{"android":"levelo://app?vid=ce86423c-7fda-4347-b51e-6014b639a5a1","ios":"levelo://app?vid=ce86423c-7fda-4347-b51e-6014b639a5a1"},"vehicle_type_id":"4","last_reported":1744758567,"current_range_meters":16000,"station_id":"ce4bgv92rcd13ifvqcr0","pricing_plan_id":"cebpf4jnsgd1na2vs0mg"},{"bike_id":"45155c3e-d9dd-443f-9db5-3129e2339708","system_id":"levelo_inurba_marseille","lat":43.232,"lon":5.39983,"is_reserved":false,"is_disabled":false,"rental_uris":{"android":"levelo://app?vid=45155c3e-d9dd-443f-9db5-3129e2339708","ios":"levelo://app?vid=45155c3e-d9dd-443f-9db5-3129e2339708"},"vehicle_type_id":"4","last_reported":1744758567,"current_range_meters":16000,"station_id":"ce4bhn12rcd13ifvqgqg","pricing_plan_id":"cebpf4jnsgd1na2vs0mg"},{"bike_id":"748c0125-ff9b-4b35-acd3-2e929dc08f15","system_id":"levelo_inurba_marseille","lat":43.30591,"lon":5.39356,"is_reserved":false,"is_disabled":false,"rental_uris":{"android":"levelo://app?vid=748c0125-ff9b-4b35-acd3-2e929dc08f15","ios":"levelo://app?vid=748c0125-ff9b-4b35-acd3-2e929dc08f15"},"vehicle_type_id":"4","last_reported":1744758567,"current_range_meters":16400,"station_id":"ce4bh0p2rcd13ifvqd80","pricing_plan_id":"cebpf4jnsgd1na2vs0mg"},{"bike_id":"834ec9e1-9d50-4bee-85ae-d1db335c55e5","system_id":"levelo_inurba_marseille","lat":43.31801,"lon":5.36833,"is_reserved":false,"is_disabled":false,"rental_uris":{"android":"levelo://app?vid=834ec9e1-9d50-4bee-85ae-d1db335c55e5","ios":"levelo://app?vid=834ec9e1-9d50-4bee-85ae-d1db335c55e5"},"vehicle_type_id":"4","last_reported":1744758567,"current_range_meters":16400,"station_id":"","pricing_plan_id":"cebpf4jnsgd1na2vs0mg"},{"bike_id":"4c470df7-4cbb-413f-b587-893637313088","system_id":"levelo_inurba_marseille","lat":43.25144,"lon":5.40308,"is_reserved":false,"is_disabled":false,"rental_uris":{"android":"levelo://app?vid=4c470df7-4cbb-413f-b587-893637313088","ios":"levelo://app?vid=4c470df7-4cbb-413f-b587-893637313088"},"vehicle_type_id":"4","last_reported":1744758567,"current_range_meters":16400,"station_id":"ce4bhlh2rcd13ifvqgig","pricing_plan_id":"cebpf4jnsgd1na2vs0mg"},{"bike_id":"609171d6-86ca-4aab-86ce-57cec29a9ff0","system_id":"levelo_inurba_marseille","lat":43.28709,"lon":5.39968,"is_reserved":false,"is_disabled":false,"rental_uris":{"android":"levelo://app?vid=609171d6-86ca-4aab-86ce-57cec29a9ff0","ios":"levelo://app?vid=609171d6-86ca-4aab-86ce-57cec29a9ff0"},"vehicle_type_id":"4","last_reported":1744758567,"current_range_meters":16400,"station_id":"ce4bho92rcd13ifvqh3g","pricing_plan_id":"cebpf4jnsgd1na2vs0mg"},{"bike_id":"749d68ab-d999-4213-8b50-f5963d394e38","system_id":"levelo_inurba_marseille","lat":43.30795,"lon":5.37654,"is_reserved":false,"is_disabled":false,"rental_uris":{"android":"levelo://app?vid=749d68ab-d999-4213-8b50-f5963d394e38","ios":"levelo://app?vid=749d68ab-d999-4213-8b50-f5963d394e38"},"vehicle_type_id":"4","last_reported":1744758567,"current_range_meters":16400,"station_id":"ce4bgv92rcd13ifvqcq0","pricing_plan_id":"cebpf4jnsgd1na2vs0mg"},{"bike_id":"22360d30-36b9-4e98-8651-f94b98f596d4","system_id":"levelo_inurba_marseille","lat":43.30356,"lon":5.41867,"is_reserved":false,"is_disabled":false,"rental_uris":{"android":"levelo://app?vid=22360d30-36b9-4e98-8651-f94b98f596d4","ios":"levelo://app?vid=22360d30-36b9-4e98-8651-f94b98f596d4"},"vehicle_type_id":"4","last_reported":1744758567,"current_range_meters":16400,"station_id":"ce4bhop2rcd13ifvqh7g","pricing_plan_id":"cebpf4jnsgd1na2vs0mg"},{"bike_id":"62c6c739-f04a-4496-be5e-ce38b6345be1","system_id":"levelo_inurba_marseille","lat":43.28116,"lon":5.37848,"is_reserved":false,"is_disabled":false,"rental_uris":{"android":"levelo://app?vid=62c6c739-f04a-4496-be5e-ce38b6345be1","ios":"levelo://app?vid=62c6c739-f04a-4496-be5e-ce38b6345be1"},"vehicle_type_id":"4","last_reported":1744758567,"current_range_meters":16400,"station_id":"ce4bha12rcd13ifvqee0","pricing_plan_id":"cebpf4jnsgd1na2vs0mg"},{"bike_id":"502fb1d8-5a20-4c00-a944-381427d3e9bb","system_id":"levelo_inurba_marseille","lat":43.288533,"lon":5.3585,"is_reserved":false,"is_disabled":false,"rental_uris":{"android":"levelo://app?vid=502fb1d8-5a20-4c00-a944-381427d3e9bb","ios":"levelo://app?vid=502fb1d8-5a20-4c00-a944-381427d3e9bb"},"vehicle_type_id":"4","last_reported":1744758567,"current_range_meters":16400,"station_id":"ce4bhb12rcd13ifvqem0","pricing_plan_id":"cebpf4jnsgd1na2vs0mg"},{"bike_id":"e4154f87-139b-42c5-a1cb-cf085dd45b65","system_id":"levelo_inurba_marseille","lat":43.23185,"lon":5.39991,"is_reserved":false,"is_disabled":false,"rental_uris":{"android":"levelo://app?vid=e4154f87-139b-42c5-a1cb-cf085dd45b65","ios":"levelo://app?vid=e4154f87-139b-42c5-a1cb-cf085dd45b65"},"vehicle_type_id":"4","last_reported":1744758567,"current_range_meters":16400,"station_id":"ce4bhn12rcd13ifvqgqg","pricing_plan_id":"cebpf4jnsgd1na2vs0mg"},{"bike_id":"6f23923f-fc67-460a-b0b8-5119c016d5b0","system_id":"levelo_inurba_marseille","lat":43.26926,"lon":5.3892,"is_reserved":false,"is_disabled":true,"rental_uris":{"android":"levelo://app?vid=6f23923f-fc67-460a-b0b8-5119c016d5b0","ios":"levelo://app?vid=6f23923f-fc67-460a-b0b8-5119c016d5b0"},"vehicle_type_id":"4","last_reported":1744758567,"current_range_meters":16400,"station_id":"ce4bhhh2rcd13ifvqfl0","pricing_plan_id":"cebpf4jnsgd1na2vs0mg"},{"bike_id":"a0ddb0a5-f7f0-4281-aa27-9e82747cc573","system_id":"levelo_inurba_marseille","lat":43.337619,"lon":5.374908,"is_reserved":false,"is_disabled":false,"rental_uris":{"android":"levelo://app?vid=a0ddb0a5-f7f0-4281-aa27-9e82747cc573","ios":"levelo://app?vid=a0ddb0a5-f7f0-4281-aa27-9e82747cc573"},"vehicle_type_id":"4","last_reported":1744758567,"current_range_meters":16400,"station_id":"","pricing_plan_id":"cebpf4jnsgd1na2vs0mg"},{"bike_id":"15839d76-0879-42d7-9bf8-b60f30413855","system_id":"levelo_inurba_marseille","lat":43.29283,"lon":5.36835,"is_reserved":false,"is_disabled":true,"rental_uris":{"android":"levelo://app?vid=15839d76-0879-42d7-9bf8-b60f30413855","ios":"levelo://app?vid=15839d76-0879-42d7-9bf8-b60f30413855"},"vehicle_type_id":"4","last_reported":1744758567,"current_range_meters":16400,"station_id":"ce4bhbp2rcd13ifvqesg","pricing_plan_id":"cebpf4jnsgd1na2vs0mg"},{"bike_id":"e98619ae-1cbf-4312-993a-cf2e62ab486c","system_id":"levelo_inurba_marseille","lat":43.279152,"lon":5.395771,"is_reserved":false,"is_disabled":false,"rental_uris":{"android":"levelo://app?vid=e98619ae-1cbf-4312-993a-cf2e62ab486c","ios":"levelo://app?vid=e98619ae-1cbf-4312-993a-cf2e62ab486c"},"vehicle_type_id":"4","last_reported":1744758567,"current_range_meters":16800,"station_id":"ce4bhf92rcd13ifvqf40","pricing_plan_id":"cebpf4jnsgd1na2vs0mg"},{"bike_id":"828b0227-ee3e-45fc-93b6-a6d6438b4fc9","system_id":"levelo_inurba_marseille","lat":43.31073,"lon":5.38359,"is_reserved":false,"is_disabled":false,"rental_uris":{"android":"levelo://app?vid=828b0227-ee3e-45fc-93b6-a6d6438b4fc9","ios":"levelo://app?vid=828b0227-ee3e-45fc-93b6-a6d6438b4fc9"},"vehicle_type_id":"4","last_reported":1744758567,"current_range_meters":16800,"station_id":"ce4bgv92rcd13ifvqcr0","pricing_plan_id":"cebpf4jnsgd1na2vs0mg"},{"bike_id":"d34693e3-4b7f-4ed5-8929-fa8011f280b8","system_id":"levelo_inurba_marseille","lat":43.28425,"lon":5.37518,"is_reserved":false,"is_disabled":false,"rental_uris":{"android":"levelo://app?vid=d34693e3-4b7f-4ed5-8929-fa8011f280b8","ios":"levelo://app?vid=d34693e3-4b7f-4ed5-8929-fa8011f280b8"},"vehicle_type_id":"4","last_reported":1744758567,"current_range_meters":16800,"station_id":"ce4bh412rcd13ifvqds0","pricing_plan_id":"cebpf4jnsgd1na2vs0mg"},{"bike_id":"f857a1c1-bb3e-4b5f-9983-e2bc86a7fce2","system_id":"levelo_inurba_marseille","lat":43.28467,"lon":5.35898,"is_reserved":false,"is_disabled":false,"rental_uris":{"android":"levelo://app?vid=f857a1c1-bb3e-4b5f-9983-e2bc86a7fce2","ios":"levelo://app?vid=f857a1c1-bb3e-4b5f-9983-e2bc86a7fce2"},"vehicle_type_id":"4","last_reported":1744758567,"current_range_meters":16800,"station_id":"ce4bhah2rcd13ifvqei0","pricing_plan_id":"cebpf4jnsgd1na2vs0mg"},{"bike_id":"f36a89da-e334-486b-b78c-51613ddfd1a5","system_id":"levelo_inurba_marseille","lat":43.31174,"lon":5.38717,"is_reserved":false,"is_disabled":false,"rental_uris":{"android":"levelo://app?vid=f36a89da-e334-486b-b78c-51613ddfd1a5","ios":"levelo://app?vid=f36a89da-e334-486b-b78c-51613ddfd1a5"},"vehicle_type_id":"4","last_reported":1744758567,"current_range_meters":16800,"station_id":"ce4bgv12rcd13ifvqcp0","pricing_plan_id":"cebpf4jnsgd1na2vs0mg"},{"bike_id":"17fdb649-f6ae-4510-a9ab-cf69023390db","system_id":"levelo_inurba_marseille","lat":43.25719,"lon":5.41112,"is_reserved":false,"is_disabled":false,"rental_uris":{"android":"levelo://app?vid=17fdb649-f6ae-4510-a9ab-cf69023390db","ios":"levelo://app?vid=17fdb649-f6ae-4510-a9ab-cf69023390db"},"vehicle_type_id":"4","last_reported":1744758567,"current_range_meters":16800,"station_id":"ce4bhkp2rcd13ifvqgd0","pricing_plan_id":"cebpf4jnsgd1na2vs0mg"},{"bike_id":"74ec87ab-fa5e-44d2-83e9-d18666eb1af3","system_id":"levelo_inurba_marseille","lat":43.28412,"lon":5.3752,"is_reserved":false,"is_disabled":false,"rental_uris":{"android":"levelo://app?vid=74ec87ab-fa5e-44d2-83e9-d18666eb1af3","ios":"levelo://app?vid=74ec87ab-fa5e-44d2-83e9-d18666eb1af3"},"vehicle_type_id":"4","last_reported":1744758567,"current_range_meters":17200,"station_id":"ce4bh412rcd13ifvqds0","pricing_plan_id":"cebpf4jnsgd1na2vs0mg"},{"bike_id":"315d06f0-d76f-4f6a-a1fe-6a7774a94e54","system_id":"levelo_inurba_marseille","lat":43.23961,"lon":5.36626,"is_reserved":false,"is_disabled":false,"rental_uris":{"android":"levelo://app?vid=315d06f0-d76f-4f6a-a1fe-6a7774a94e54","ios":"levelo://app?vid=315d06f0-d76f-4f6a-a1fe-6a7774a94e54"},"vehicle_type_id":"4","last_reported":1744758567,"current_range_meters":17200,"station_id":"ce4bhi12rcd13ifvqfp0","pricing_plan_id":"cebpf4jnsgd1na2vs0mg"},{"bike_id":"4c0ede51-6b22-44f8-8575-b86906a20779","system_id":"levelo_inurba_marseille","lat":43.21759,"lon":5.34597,"is_reserved":false,"is_disabled":false,"rental_uris":{"android":"levelo://app?vid=4c0ede51-6b22-44f8-8575-b86906a20779","ios":"levelo://app?vid=4c0ede51-6b22-44f8-8575-b86906a20779"},"vehicle_type_id":"4","last_reported":1744758567,"current_range_meters":17200,"station_id":"st_cvj6r9ubvosntc0bgbag","pricing_plan_id":"cebpf4jnsgd1na2vs0mg"},{"bike_id":"c8d69a1f-c74e-4299-8f35-b9dbcc282e24","system_id":"levelo_inurba_marseille","lat":43.31077,"lon":5.38354,"is_reserved":false,"is_disabled":false,"rental_uris":{"android":"levelo://app?vid=c8d69a1f-c74e-4299-8f35-b9dbcc282e24","ios":"levelo://app?vid=c8d69a1f-c74e-4299-8f35-b9dbcc282e24"},"vehicle_type_id":"4","last_reported":1744758567,"current_range_meters":17200,"station_id":"ce4bgv92rcd13ifvqcr0","pricing_plan_id":"cebpf4jnsgd1na2vs0mg"},{"bike_id":"f556879c-5c9c-404c-bfda-1bbcb0880b98","system_id":"levelo_inurba_marseille","lat":43.29521,"lon":5.37489,"is_reserved":false,"is_disabled":true,"rental_uris":{"android":"levelo://app?vid=f556879c-5c9c-404c-bfda-1bbcb0880b98","ios":"levelo://app?vid=f556879c-5c9c-404c-bfda-1bbcb0880b98"},"vehicle_type_id":"4","last_reported":1744758567,"current_range_meters":17600,"station_id":"ce4bgkp2rcd13ifvqbmg","pricing_plan_id":"cebpf4jnsgd1na2vs0mg"},{"bike_id":"0a6c041b-868a-4549-9a50-84517ccfe562","system_id":"levelo_inurba_marseille","lat":43.25824,"lon":5.39433,"is_reserved":false,"is_disabled":false,"rental_uris":{"android":"levelo://app?vid=0a6c041b-868a-4549-9a50-84517ccfe562","ios":"levelo://app?vid=0a6c041b-868a-4549-9a50-84517ccfe562"},"vehicle_type_id":"4","last_reported":1744758567,"current_range_meters":17200,"station_id":"ce4bhip2rcd13ifvqft0","pricing_plan_id":"cebpf4jnsgd1na2vs0mg"},{"bike_id":"18bafe66-1810-42b6-8e32-ddd492f80f61","system_id":"levelo_inurba_marseille","lat":43.29508,"lon":5.39404,"is_reserved":false,"is_disabled":false,"rental_uris":{"android":"levelo://app?vid=18bafe66-1810-42b6-8e32-ddd492f80f61","ios":"levelo://app?vid=18bafe66-1810-42b6-8e32-ddd492f80f61"},"vehicle_type_id":"4","last_reported":1744758567,"current_range_meters":17600,"station_id":"ce4bh292rcd13ifvqdf0","pricing_plan_id":"cebpf4jnsgd1na2vs0mg"},{"bike_id":"3de426c9-05f1-467d-9020-cc2b6b85afd7","system_id":"levelo_inurba_marseille","lat":43.283426,"lon":5.38116,"is_reserved":false,"is_disabled":true,"rental_uris":{"android":"levelo://app?vid=3de426c9-05f1-467d-9020-cc2b6b85afd7","ios":"levelo://app?vid=3de426c9-05f1-467d-9020-cc2b6b85afd7"},"vehicle_type_id":"4","last_reported":1744758567,"current_range_meters":17600,"station_id":"ce4bh412rcd13ifvqdr0","pricing_plan_id":"cebpf4jnsgd1na2vs0mg"},{"bike_id":"fa8b5d88-c56b-4501-99c1-1b5a6dfd1f66","system_id":"levelo_inurba_marseille","lat":43.21197,"lon":5.35074,"is_reserved":false,"is_disabled":false,"rental_uris":{"android":"levelo://app?vid=fa8b5d88-c56b-4501-99c1-1b5a6dfd1f66","ios":"levelo://app?vid=fa8b5d88-c56b-4501-99c1-1b5a6dfd1f66"},"vehicle_type_id":"4","last_reported":1744758567,"current_range_meters":17600,"station_id":"st_cvj6sg6p6f1abm77japg","pricing_plan_id":"cebpf4jnsgd1na2vs0mg"},{"bike_id":"4cc60183-f086-4946-9e35-7a75728daa73","system_id":"levelo_inurba_marseille","lat":43.25716,"lon":5.38671,"is_reserved":false,"is_disabled":false,"rental_uris":{"android":"levelo://app?vid=4cc60183-f086-4946-9e35-7a75728daa73","ios":"levelo://app?vid=4cc60183-f086-4946-9e35-7a75728daa73"},"vehicle_type_id":"4","last_reported":1744758567,"current_range_meters":17600,"station_id":"","pricing_plan_id":"cebpf4jnsgd1na2vs0mg"},{"bike_id":"51dbdec9-3ce9-4cd3-a4ae-7e153df54e8c","system_id":"levelo_inurba_marseille","lat":43.28102,"lon":5.37843,"is_reserved":false,"is_disabled":false,"rental_uris":{"android":"levelo://app?vid=51dbdec9-3ce9-4cd3-a4ae-7e153df54e8c","ios":"levelo://app?vid=51dbdec9-3ce9-4cd3-a4ae-7e153df54e8c"},"vehicle_type_id":"4","last_reported":1744758567,"current_range_meters":18000,"station_id":"ce4bha12rcd13ifvqee0","pricing_plan_id":"cebpf4jnsgd1na2vs0mg"},{"bike_id":"6bf5a380-400e-4cd6-bc1e-356afac9ee45","system_id":"levelo_inurba_marseille","lat":43.24171,"lon":5.36389,"is_reserved":false,"is_disabled":false,"rental_uris":{"android":"levelo://app?vid=6bf5a380-400e-4cd6-bc1e-356afac9ee45","ios":"levelo://app?vid=6bf5a380-400e-4cd6-bc1e-356afac9ee45"},"vehicle_type_id":"4","last_reported":1744758567,"current_range_meters":18000,"station_id":"cpo36qri1sfpv3e86is0","pricing_plan_id":"cebpf4jnsgd1na2vs0mg"},{"bike_id":"ad954633-cbff-4cf3-b46c-9190d1a5c3ba","system_id":"levelo_inurba_marseille","lat":43.2872,"lon":5.37411,"is_reserved":false,"is_disabled":false,"rental_uris":{"android":"levelo://app?vid=ad954633-cbff-4cf3-b46c-9190d1a5c3ba","ios":"levelo://app?vid=ad954633-cbff-4cf3-b46c-9190d1a5c3ba"},"vehicle_type_id":"4","last_reported":1744758567,"current_range_meters":18000,"station_id":"ce4bh3p2rcd13ifvqdq0","pricing_plan_id":"cebpf4jnsgd1na2vs0mg"},{"bike_id":"37af77cd-da0b-4d48-87c4-b37ee2687136","system_id":"levelo_inurba_marseille","lat":43.28855,"lon":5.3593,"is_reserved":false,"is_disabled":false,"rental_uris":{"android":"levelo://app?vid=37af77cd-da0b-4d48-87c4-b37ee2687136","ios":"levelo://app?vid=37af77cd-da0b-4d48-87c4-b37ee2687136"},"vehicle_type_id":"4","last_reported":1744758567,"current_range_meters":18000,"station_id":"","pricing_plan_id":"cebpf4jnsgd1na2vs0mg"},{"bike_id":"3f43a50c-05da-4e00-b1e1-be54458029bc","system_id":"levelo_inurba_marseille","lat":43.28275,"lon":5.35085,"is_reserved":false,"is_disabled":false,"rental_uris":{"android":"levelo://app?vid=3f43a50c-05da-4e00-b1e1-be54458029bc","ios":"levelo://app?vid=3f43a50c-05da-4e00-b1e1-be54458029bc"},"vehicle_type_id":"4","last_reported":1744758567,"current_range_meters":18000,"station_id":"ce4bhbp2rcd13ifvqerg","pricing_plan_id":"cebpf4jnsgd1na2vs0mg"},{"bike_id":"83684b35-53c8-4547-8e1c-ab7220fd9d28","system_id":"levelo_inurba_marseille","lat":43.30539,"lon":5.38428,"is_reserved":false,"is_disabled":false,"rental_uris":{"android":"levelo://app?vid=83684b35-53c8-4547-8e1c-ab7220fd9d28","ios":"levelo://app?vid=83684b35-53c8-4547-8e1c-ab7220fd9d28"},"vehicle_type_id":"4","last_reported":1744758567,"current_range_meters":18000,"station_id":"ce4bgg92rcd13ifvqb30","pricing_plan_id":"cebpf4jnsgd1na2vs0mg"},{"bike_id":"e3670510-219d-4ce8-90e9-deef08906868","system_id":"levelo_inurba_marseille","lat":43.32003,"lon":5.38157,"is_reserved":false,"is_disabled":false,"rental_uris":{"android":"levelo://app?vid=e3670510-219d-4ce8-90e9-deef08906868","ios":"levelo://app?vid=e3670510-219d-4ce8-90e9-deef08906868"},"vehicle_type_id":"4","last_reported":1744758567,"current_range_meters":18800,"station_id":"ce4bhr12rcd13ifvqhpg","pricing_plan_id":"cebpf4jnsgd1na2vs0mg"},{"bike_id":"20574aa9-213c-4d7c-853e-18430449b58a","system_id":"levelo_inurba_marseille","lat":43.29193,"lon":5.3934,"is_reserved":false,"is_disabled":false,"rental_uris":{"android":"levelo://app?vid=20574aa9-213c-4d7c-853e-18430449b58a","ios":"levelo://app?vid=20574aa9-213c-4d7c-853e-18430449b58a"},"vehicle_type_id":"4","last_reported":1744758567,"current_range_meters":18800,"station_id":"ce4bh192rcd13ifvqdd0","pricing_plan_id":"cebpf4jnsgd1na2vs0mg"},{"bike_id":"1d42bf00-ac3d-4bcd-b058-d356740cab40","system_id":"levelo_inurba_marseille","lat":43.30778,"lon":5.37655,"is_reserved":false,"is_disabled":false,"rental_uris":{"android":"levelo://app?vid=1d42bf00-ac3d-4bcd-b058-d356740cab40","ios":"levelo://app?vid=1d42bf00-ac3d-4bcd-b058-d356740cab40"},"vehicle_type_id":"4","last_reported":1744758567,"current_range_meters":18800,"station_id":"ce4bgv92rcd13ifvqcq0","pricing_plan_id":"cebpf4jnsgd1na2vs0mg"},{"bike_id":"b5e608ec-54ff-4088-bdf2-41d55ef5547f","system_id":"levelo_inurba_marseille","lat":43.24388,"lon":5.37065,"is_reserved":false,"is_disabled":false,"rental_uris":{"android":"levelo://app?vid=b5e608ec-54ff-4088-bdf2-41d55ef5547f","ios":"levelo://app?vid=b5e608ec-54ff-4088-bdf2-41d55ef5547f"},"vehicle_type_id":"4","last_reported":1744758567,"current_range_meters":18800,"station_id":"ce4bhhh2rcd13ifvqfk0","pricing_plan_id":"cebpf4jnsgd1na2vs0mg"},{"bike_id":"9e8c6a96-f88a-4ccf-9f29-87395d945d74","system_id":"levelo_inurba_marseille","lat":43.26956,"lon":5.38629,"is_reserved":false,"is_disabled":false,"rental_uris":{"android":"levelo://app?vid=9e8c6a96-f88a-4ccf-9f29-87395d945d74","ios":"levelo://app?vid=9e8c6a96-f88a-4ccf-9f29-87395d945d74"},"vehicle_type_id":"4","last_reported":1744758567,"current_range_meters":18800,"station_id":"ce4bhh92rcd13ifvqfh0","pricing_plan_id":"cebpf4jnsgd1na2vs0mg"},{"bike_id":"2be2e8c5-ff49-4a5a-963a-4bbeabb11512","system_id":"levelo_inurba_marseille","lat":43.30735,"lon":5.4244,"is_reserved":false,"is_disabled":false,"rental_uris":{"android":"levelo://app?vid=2be2e8c5-ff49-4a5a-963a-4bbeabb11512","ios":"levelo://app?vid=2be2e8c5-ff49-4a5a-963a-4bbeabb11512"},"vehicle_type_id":"4","last_reported":1744758567,"current_range_meters":18800,"station_id":"st_cvj6ca6bvosntc0bfgr0","pricing_plan_id":"cebpf4jnsgd1na2vs0mg"},{"bike_id":"054cc8aa-ad34-4801-88ff-c2462d463343","system_id":"levelo_inurba_marseille","lat":43.279663,"lon":5.387298,"is_reserved":false,"is_disabled":false,"rental_uris":{"android":"levelo://app?vid=054cc8aa-ad34-4801-88ff-c2462d463343","ios":"levelo://app?vid=054cc8aa-ad34-4801-88ff-c2462d463343"},"vehicle_type_id":"4","last_reported":1744758567,"current_range_meters":18800,"station_id":"ce4bhg12rcd13ifvqf80","pricing_plan_id":"cebpf4jnsgd1na2vs0mg"},{"bike_id":"b082caf9-1aa9-41e8-8081-4da72e64e8e4","system_id":"levelo_inurba_marseille","lat":43.30926,"lon":5.40147,"is_reserved":false,"is_disabled":true,"rental_uris":{"android":"levelo://app?vid=b082caf9-1aa9-41e8-8081-4da72e64e8e4","ios":"levelo://app?vid=b082caf9-1aa9-41e8-8081-4da72e64e8e4"},"vehicle_type_id":"4","last_reported":1744758567,"current_range_meters":18800,"station_id":"ce4bgvp2rcd13ifvqct0","pricing_plan_id":"cebpf4jnsgd1na2vs0mg"},{"bike_id":"ed97a721-7aee-47b1-b49b-a65ade99fd09","system_id":"levelo_inurba_marseille","lat":43.34308,"lon":5.37792,"is_reserved":false,"is_disabled":false,"rental_uris":{"android":"levelo://app?vid=ed97a721-7aee-47b1-b49b-a65ade99fd09","ios":"levelo://app?vid=ed97a721-7aee-47b1-b49b-a65ade99fd09"},"vehicle_type_id":"4","last_reported":1744758567,"current_range_meters":19200,"station_id":"","pricing_plan_id":"cebpf4jnsgd1na2vs0mg"},{"bike_id":"4c6745eb-406f-446c-a220-2c154e104cdb","system_id":"levelo_inurba_marseille","lat":43.2852,"lon":5.38563,"is_reserved":false,"is_disabled":false,"rental_uris":{"android":"levelo://app?vid=4c6745eb-406f-446c-a220-2c154e104cdb","ios":"levelo://app?vid=4c6745eb-406f-446c-a220-2c154e104cdb"},"vehicle_type_id":"4","last_reported":1744758567,"current_range_meters":19200,"station_id":"ce4bh8p2rcd13ifvqeb0","pricing_plan_id":"cebpf4jnsgd1na2vs0mg"},{"bike_id":"dfa14ff5-fc26-438e-80fe-e1b77a87f64d","system_id":"levelo_inurba_marseille","lat":43.31696,"lon":5.40462,"is_reserved":false,"is_disabled":false,"rental_uris":{"android":"levelo://app?vid=dfa14ff5-fc26-438e-80fe-e1b77a87f64d","ios":"levelo://app?vid=dfa14ff5-fc26-438e-80fe-e1b77a87f64d"},"vehicle_type_id":"4","last_reported":1744758567,"current_range_meters":19200,"station_id":"ce4bh012rcd13ifvqd00","pricing_plan_id":"cebpf4jnsgd1na2vs0mg"},{"bike_id":"a0b0d7c6-80d8-4c69-8345-fa98b53d655c","system_id":"levelo_inurba_marseille","lat":43.24069,"lon":5.37764,"is_reserved":false,"is_disabled":false,"rental_uris":{"android":"levelo://app?vid=a0b0d7c6-80d8-4c69-8345-fa98b53d655c","ios":"levelo://app?vid=a0b0d7c6-80d8-4c69-8345-fa98b53d655c"},"vehicle_type_id":"4","last_reported":1744758567,"current_range_meters":19200,"station_id":"ce4bhnp2rcd13ifvqgvg","pricing_plan_id":"cebpf4jnsgd1na2vs0mg"},{"bike_id":"d6fee597-3293-47ae-914e-c48760e9f772","system_id":"levelo_inurba_marseille","lat":43.24063,"lon":5.37784,"is_reserved":false,"is_disabled":false,"rental_uris":{"android":"levelo://app?vid=d6fee597-3293-47ae-914e-c48760e9f772","ios":"levelo://app?vid=d6fee597-3293-47ae-914e-c48760e9f772"},"vehicle_type_id":"4","last_reported":1744758567,"current_range_meters":19200,"station_id":"ce4bhnp2rcd13ifvqgvg","pricing_plan_id":"cebpf4jnsgd1na2vs0mg"},{"bike_id":"3dfbd23c-bec8-48b9-ab57-4cf9e8491e6f","system_id":"levelo_inurba_marseille","lat":43.29515,"lon":5.39406,"is_reserved":false,"is_disabled":false,"rental_uris":{"android":"levelo://app?vid=3dfbd23c-bec8-48b9-ab57-4cf9e8491e6f","ios":"levelo://app?vid=3dfbd23c-bec8-48b9-ab57-4cf9e8491e6f"},"vehicle_type_id":"4","last_reported":1744758567,"current_range_meters":19600,"station_id":"ce4bh292rcd13ifvqdf0","pricing_plan_id":"cebpf4jnsgd1na2vs0mg"},{"bike_id":"b76a366b-6464-49b8-8aea-9aa46635f1d1","system_id":"levelo_inurba_marseille","lat":43.2841,"lon":5.3751,"is_reserved":false,"is_disabled":false,"rental_uris":{"android":"levelo://app?vid=b76a366b-6464-49b8-8aea-9aa46635f1d1","ios":"levelo://app?vid=b76a366b-6464-49b8-8aea-9aa46635f1d1"},"vehicle_type_id":"4","last_reported":1744758567,"current_range_meters":19600,"station_id":"ce4bh412rcd13ifvqds0","pricing_plan_id":"cebpf4jnsgd1na2vs0mg"},{"bike_id":"e563cec3-5ef6-4520-be15-e8848a75180a","system_id":"levelo_inurba_marseille","lat":43.28579,"lon":5.39498,"is_reserved":false,"is_disabled":false,"rental_uris":{"android":"levelo://app?vid=e563cec3-5ef6-4520-be15-e8848a75180a","ios":"levelo://app?vid=e563cec3-5ef6-4520-be15-e8848a75180a"},"vehicle_type_id":"4","last_reported":1744758567,"current_range_meters":19600,"station_id":"ce4bh292rcd13ifvqdg0","pricing_plan_id":"cebpf4jnsgd1na2vs0mg"},{"bike_id":"10a05b79-c3d5-4be7-a18b-8140be240501","system_id":"levelo_inurba_marseille","lat":43.29582,"lon":5.38092,"is_reserved":false,"is_disabled":true,"rental_uris":{"android":"levelo://app?vid=10a05b79-c3d5-4be7-a18b-8140be240501","ios":"levelo://app?vid=10a05b79-c3d5-4be7-a18b-8140be240501"},"vehicle_type_id":"4","last_reported":1744758567,"current_range_meters":19600,"station_id":"ce4bgl12rcd13ifvqbo0","pricing_plan_id":"cebpf4jnsgd1na2vs0mg"},{"bike_id":"6c103f9f-c959-46ad-a2e8-e44f9660c68e","system_id":"levelo_inurba_marseille","lat":43.21193,"lon":5.35079,"is_reserved":false,"is_disabled":false,"rental_uris":{"android":"levelo://app?vid=6c103f9f-c959-46ad-a2e8-e44f9660c68e","ios":"levelo://app?vid=6c103f9f-c959-46ad-a2e8-e44f9660c68e"},"vehicle_type_id":"4","last_reported":1744758567,"current_range_meters":19600,"station_id":"st_cvj6sg6p6f1abm77japg","pricing_plan_id":"cebpf4jnsgd1na2vs0mg"},{"bike_id":"f3a17301-f4cd-4211-8c74-a7b1a492d742","system_id":"levelo_inurba_marseille","lat":43.280769,"lon":5.407747,"is_reserved":false,"is_disabled":false,"rental_uris":{"android":"levelo://app?vid=f3a17301-f4cd-4211-8c74-a7b1a492d742","ios":"levelo://app?vid=f3a17301-f4cd-4211-8c74-a7b1a492d742"},"vehicle_type_id":"4","last_reported":1744758567,"current_range_meters":19600,"station_id":"","pricing_plan_id":"cebpf4jnsgd1na2vs0mg"},{"bike_id":"c31c0ecc-e896-4522-8f59-f94ab8194ac3","system_id":"levelo_inurba_marseille","lat":43.31684,"lon":5.40458,"is_reserved":false,"is_disabled":false,"rental_uris":{"android":"levelo://app?vid=c31c0ecc-e896-4522-8f59-f94ab8194ac3","ios":"levelo://app?vid=c31c0ecc-e896-4522-8f59-f94ab8194ac3"},"vehicle_type_id":"4","last_reported":1744758567,"current_range_meters":19600,"station_id":"ce4bh012rcd13ifvqd00","pricing_plan_id":"cebpf4jnsgd1na2vs0mg"},{"bike_id":"90a27645-a5f6-487a-a1a8-67ca08ff4b5c","system_id":"levelo_inurba_marseille","lat":43.243889,"lon":5.370587,"is_reserved":false,"is_disabled":false,"rental_uris":{"android":"levelo://app?vid=90a27645-a5f6-487a-a1a8-67ca08ff4b5c","ios":"levelo://app?vid=90a27645-a5f6-487a-a1a8-67ca08ff4b5c"},"vehicle_type_id":"4","last_reported":1744758567,"current_range_meters":19600,"station_id":"ce4bhhh2rcd13ifvqfk0","pricing_plan_id":"cebpf4jnsgd1na2vs0mg"},{"bike_id":"7fcc1271-7200-4fda-a838-060f83266864","system_id":"levelo_inurba_marseille","lat":43.24646,"lon":5.38159,"is_reserved":false,"is_disabled":false,"rental_uris":{"android":"levelo://app?vid=7fcc1271-7200-4fda-a838-060f83266864","ios":"levelo://app?vid=7fcc1271-7200-4fda-a838-060f83266864"},"vehicle_type_id":"4","last_reported":1744758567,"current_range_meters":19600,"station_id":"ce4bhih2rcd13ifvqfr0","pricing_plan_id":"cebpf4jnsgd1na2vs0mg"},{"bike_id":"f0bbe08d-492c-4777-9d72-aaddc37850b8","system_id":"levelo_inurba_marseille","lat":43.286939,"lon":5.399797,"is_reserved":false,"is_disabled":false,"rental_uris":{"android":"levelo://app?vid=f0bbe08d-492c-4777-9d72-aaddc37850b8","ios":"levelo://app?vid=f0bbe08d-492c-4777-9d72-aaddc37850b8"},"vehicle_type_id":"4","last_reported":1744758567,"current_range_meters":19600,"station_id":"ce4bho92rcd13ifvqh3g","pricing_plan_id":"cebpf4jnsgd1na2vs0mg"},{"bike_id":"fba2878e-7402-4d72-8270-526e40d485c8","system_id":"levelo_inurba_marseille","lat":43.31561,"lon":5.3802,"is_reserved":false,"is_disabled":false,"rental_uris":{"android":"levelo://app?vid=fba2878e-7402-4d72-8270-526e40d485c8","ios":"levelo://app?vid=fba2878e-7402-4d72-8270-526e40d485c8"},"vehicle_type_id":"4","last_reported":1744758567,"current_range_meters":19600,"station_id":"ce4bhsp2rcd13ifvqi50","pricing_plan_id":"cebpf4jnsgd1na2vs0mg"},{"bike_id":"6a8e9068-2a8d-4c93-8c2d-e30f03079545","system_id":"levelo_inurba_marseille","lat":43.25709,"lon":5.411154,"is_reserved":false,"is_disabled":true,"rental_uris":{"android":"levelo://app?vid=6a8e9068-2a8d-4c93-8c2d-e30f03079545","ios":"levelo://app?vid=6a8e9068-2a8d-4c93-8c2d-e30f03079545"},"vehicle_type_id":"4","last_reported":1744758567,"current_range_meters":19600,"station_id":"ce4bhkp2rcd13ifvqgd0","pricing_plan_id":"cebpf4jnsgd1na2vs0mg"},{"bike_id":"38a7297d-e2a7-4269-a073-28abab9d75ec","system_id":"levelo_inurba_marseille","lat":43.31315,"lon":5.40125,"is_reserved":false,"is_disabled":false,"rental_uris":{"android":"levelo://app?vid=38a7297d-e2a7-4269-a073-28abab9d75ec","ios":"levelo://app?vid=38a7297d-e2a7-4269-a073-28abab9d75ec"},"vehicle_type_id":"4","last_reported":1744758567,"current_range_meters":20000,"station_id":"ce4bh092rcd13ifvqd30","pricing_plan_id":"cebpf4jnsgd1na2vs0mg"},{"bike_id":"ab863a17-a8a2-4073-b516-607cb08fc41a","system_id":"levelo_inurba_marseille","lat":43.27501,"lon":5.42471,"is_reserved":false,"is_disabled":false,"rental_uris":{"android":"levelo://app?vid=ab863a17-a8a2-4073-b516-607cb08fc41a","ios":"levelo://app?vid=ab863a17-a8a2-4073-b516-607cb08fc41a"},"vehicle_type_id":"4","last_reported":1744758567,"current_range_meters":20000,"station_id":"ce4bhn92rcd13ifvqgrg","pricing_plan_id":"cebpf4jnsgd1na2vs0mg"},{"bike_id":"4ed3888b-00b4-4e1d-887b-3a81ccba2fad","system_id":"levelo_inurba_marseille","lat":43.26232,"lon":5.40456,"is_reserved":false,"is_disabled":false,"rental_uris":{"android":"levelo://app?vid=4ed3888b-00b4-4e1d-887b-3a81ccba2fad","ios":"levelo://app?vid=4ed3888b-00b4-4e1d-887b-3a81ccba2fad"},"vehicle_type_id":"4","last_reported":1744758567,"current_range_meters":20000,"station_id":"ce4bhmh2rcd13ifvqgmg","pricing_plan_id":"cebpf4jnsgd1na2vs0mg"},{"bike_id":"9143c022-120a-403e-b34b-d115778e0e77","system_id":"levelo_inurba_marseille","lat":43.30312,"lon":5.39216,"is_reserved":false,"is_disabled":false,"rental_uris":{"android":"levelo://app?vid=9143c022-120a-403e-b34b-d115778e0e77","ios":"levelo://app?vid=9143c022-120a-403e-b34b-d115778e0e77"},"vehicle_type_id":"4","last_reported":1744758567,"current_range_meters":20000,"station_id":"ce4bgkh2rcd13ifvqbk0","pricing_plan_id":"cebpf4jnsgd1na2vs0mg"},{"bike_id":"bf5b1fd2-4b80-40f8-91bb-bbff3b3627cb","system_id":"levelo_inurba_marseille","lat":43.27382,"lon":5.36296,"is_reserved":false,"is_disabled":false,"rental_uris":{"android":"levelo://app?vid=bf5b1fd2-4b80-40f8-91bb-bbff3b3627cb","ios":"levelo://app?vid=bf5b1fd2-4b80-40f8-91bb-bbff3b3627cb"},"vehicle_type_id":"4","last_reported":1744758567,"current_range_meters":20000,"station_id":"ce4bhbh2rcd13ifvqeo0","pricing_plan_id":"cebpf4jnsgd1na2vs0mg"},{"bike_id":"0e0d4028-40e0-486f-89d8-0761eb5453b3","system_id":"levelo_inurba_marseille","lat":43.29249,"lon":5.40871,"is_reserved":false,"is_disabled":false,"rental_uris":{"android":"levelo://app?vid=0e0d4028-40e0-486f-89d8-0761eb5453b3","ios":"levelo://app?vid=0e0d4028-40e0-486f-89d8-0761eb5453b3"},"vehicle_type_id":"4","last_reported":1744758567,"current_range_meters":20000,"station_id":"ce4bh192rcd13ifvqdc0","pricing_plan_id":"cebpf4jnsgd1na2vs0mg"},{"bike_id":"5b5d6779-3b49-4f97-b4f0-2cf71b671d0c","system_id":"levelo_inurba_marseille","lat":43.292001,"lon":5.393289,"is_reserved":false,"is_disabled":false,"rental_uris":{"android":"levelo://app?vid=5b5d6779-3b49-4f97-b4f0-2cf71b671d0c","ios":"levelo://app?vid=5b5d6779-3b49-4f97-b4f0-2cf71b671d0c"},"vehicle_type_id":"4","last_reported":1744758567,"current_range_meters":20000,"station_id":"ce4bh192rcd13ifvqdd0","pricing_plan_id":"cebpf4jnsgd1na2vs0mg"},{"bike_id":"73c748f5-d34c-4696-bbd1-e96fdf17278a","system_id":"levelo_inurba_marseille","lat":43.29139,"lon":5.37943,"is_reserved":false,"is_disabled":false,"rental_uris":{"android":"levelo://app?vid=73c748f5-d34c-4696-bbd1-e96fdf17278a","ios":"levelo://app?vid=73c748f5-d34c-4696-bbd1-e96fdf17278a"},"vehicle_type_id":"4","last_reported":1744758567,"current_range_meters":20000,"station_id":"","pricing_plan_id":"cebpf4jnsgd1na2vs0mg"},{"bike_id":"bac8cada-45d8-42a0-871d-8bfddf55dd77","system_id":"levelo_inurba_marseille","lat":43.28485,"lon":5.3589,"is_reserved":false,"is_disabled":true,"rental_uris":{"android":"levelo://app?vid=bac8cada-45d8-42a0-871d-8bfddf55dd77","ios":"levelo://app?vid=bac8cada-45d8-42a0-871d-8bfddf55dd77"},"vehicle_type_id":"4","last_reported":1744758567,"current_range_meters":20400,"station_id":"ce4bhah2rcd13ifvqei0","pricing_plan_id":"cebpf4jnsgd1na2vs0mg"},{"bike_id":"e715080d-7551-48be-b67f-9e6e0df94a81","system_id":"levelo_inurba_marseille","lat":43.25722,"lon":5.41109,"is_reserved":false,"is_disabled":false,"rental_uris":{"android":"levelo://app?vid=e715080d-7551-48be-b67f-9e6e0df94a81","ios":"levelo://app?vid=e715080d-7551-48be-b67f-9e6e0df94a81"},"vehicle_type_id":"4","last_reported":1744758567,"current_range_meters":20400,"station_id":"ce4bhkp2rcd13ifvqgd0","pricing_plan_id":"cebpf4jnsgd1na2vs0mg"},{"bike_id":"08464e20-6f64-4166-a804-0d552b492dde","system_id":"levelo_inurba_marseille","lat":43.268033,"lon":5.402749,"is_reserved":false,"is_disabled":false,"rental_uris":{"android":"levelo://app?vid=08464e20-6f64-4166-a804-0d552b492dde","ios":"levelo://app?vid=08464e20-6f64-4166-a804-0d552b492dde"},"vehicle_type_id":"4","last_reported":1744758567,"current_range_meters":20400,"station_id":"ce4bh492rcd13ifvqdug","pricing_plan_id":"cebpf4jnsgd1na2vs0mg"},{"bike_id":"7e2d6ae3-4500-43dc-adae-950a95df595b","system_id":"levelo_inurba_marseille","lat":43.28852,"lon":5.35843,"is_reserved":false,"is_disabled":false,"rental_uris":{"android":"levelo://app?vid=7e2d6ae3-4500-43dc-adae-950a95df595b","ios":"levelo://app?vid=7e2d6ae3-4500-43dc-adae-950a95df595b"},"vehicle_type_id":"4","last_reported":1744758567,"current_range_meters":20400,"station_id":"ce4bhb12rcd13ifvqem0","pricing_plan_id":"cebpf4jnsgd1na2vs0mg"},{"bike_id":"8cabb42d-a9a3-4bdb-96af-e708fa3e3b59","system_id":"levelo_inurba_marseille","lat":43.26567,"lon":5.39019,"is_reserved":false,"is_disabled":false,"rental_uris":{"android":"levelo://app?vid=8cabb42d-a9a3-4bdb-96af-e708fa3e3b59","ios":"levelo://app?vid=8cabb42d-a9a3-4bdb-96af-e708fa3e3b59"},"vehicle_type_id":"4","last_reported":1744758567,"current_range_meters":20400,"station_id":"ce4bhe12rcd13ifvqf30","pricing_plan_id":"cebpf4jnsgd1na2vs0mg"},{"bike_id":"5b281439-17c3-4bb4-81ae-b72e7c1c314a","system_id":"levelo_inurba_marseille","lat":43.30295,"lon":5.39213,"is_reserved":false,"is_disabled":false,"rental_uris":{"android":"levelo://app?vid=5b281439-17c3-4bb4-81ae-b72e7c1c314a","ios":"levelo://app?vid=5b281439-17c3-4bb4-81ae-b72e7c1c314a"},"vehicle_type_id":"4","last_reported":1744758567,"current_range_meters":20400,"station_id":"ce4bgkh2rcd13ifvqbk0","pricing_plan_id":"cebpf4jnsgd1na2vs0mg"},{"bike_id":"253cb408-1292-4456-8381-70bdc9615886","system_id":"levelo_inurba_marseille","lat":43.25009,"lon":5.38918,"is_reserved":false,"is_disabled":false,"rental_uris":{"android":"levelo://app?vid=253cb408-1292-4456-8381-70bdc9615886","ios":"levelo://app?vid=253cb408-1292-4456-8381-70bdc9615886"},"vehicle_type_id":"4","last_reported":1744758567,"current_range_meters":20400,"station_id":"ce4bhgp2rcd13ifvqfd0","pricing_plan_id":"cebpf4jnsgd1na2vs0mg"},{"bike_id":"c749e214-1a58-4daa-8f2f-3e7d98436ae6","system_id":"levelo_inurba_marseille","lat":43.28042,"lon":5.36948,"is_reserved":false,"is_disabled":false,"rental_uris":{"android":"levelo://app?vid=c749e214-1a58-4daa-8f2f-3e7d98436ae6","ios":"levelo://app?vid=c749e214-1a58-4daa-8f2f-3e7d98436ae6"},"vehicle_type_id":"4","last_reported":1744758567,"current_range_meters":20800,"station_id":"ce4bh412rcd13ifvqds0","pricing_plan_id":"cebpf4jnsgd1na2vs0mg"},{"bike_id":"71e94148-75c9-4d56-b41d-f80df28d87b0","system_id":"levelo_inurba_marseille","lat":43.31995,"lon":5.38149,"is_reserved":false,"is_disabled":false,"rental_uris":{"android":"levelo://app?vid=71e94148-75c9-4d56-b41d-f80df28d87b0","ios":"levelo://app?vid=71e94148-75c9-4d56-b41d-f80df28d87b0"},"vehicle_type_id":"4","last_reported":1744758567,"current_range_meters":20800,"station_id":"ce4bhr12rcd13ifvqhpg","pricing_plan_id":"cebpf4jnsgd1na2vs0mg"},{"bike_id":"8eb34cd0-0c23-43cb-9b28-0c713fc2bf0d","system_id":"levelo_inurba_marseille","lat":43.31263,"lon":5.40178,"is_reserved":false,"is_disabled":false,"rental_uris":{"android":"levelo://app?vid=8eb34cd0-0c23-43cb-9b28-0c713fc2bf0d","ios":"levelo://app?vid=8eb34cd0-0c23-43cb-9b28-0c713fc2bf0d"},"vehicle_type_id":"4","last_reported":1744758567,"current_range_meters":20800,"station_id":"ce4bh092rcd13ifvqd30","pricing_plan_id":"cebpf4jnsgd1na2vs0mg"},{"bike_id":"079c5db0-9572-43f9-88fb-45f3f852c0fc","system_id":"levelo_inurba_marseille","lat":43.28424,"lon":5.37516,"is_reserved":false,"is_disabled":false,"rental_uris":{"android":"levelo://app?vid=079c5db0-9572-43f9-88fb-45f3f852c0fc","ios":"levelo://app?vid=079c5db0-9572-43f9-88fb-45f3f852c0fc"},"vehicle_type_id":"4","last_reported":1744758567,"current_range_meters":20800,"station_id":"ce4bh412rcd13ifvqds0","pricing_plan_id":"cebpf4jnsgd1na2vs0mg"},{"bike_id":"007ea789-37cd-4aaa-8c30-eec534b70e07","system_id":"levelo_inurba_marseille","lat":43.28858,"lon":5.38552,"is_reserved":false,"is_disabled":false,"rental_uris":{"android":"levelo://app?vid=007ea789-37cd-4aaa-8c30-eec534b70e07","ios":"levelo://app?vid=007ea789-37cd-4aaa-8c30-eec534b70e07"},"vehicle_type_id":"4","last_reported":1744758567,"current_range_meters":20800,"station_id":"","pricing_plan_id":"cebpf4jnsgd1na2vs0mg"},{"bike_id":"57406be6-c0b4-4691-8abf-3f6842e4ec81","system_id":"levelo_inurba_marseille","lat":43.28448,"lon":5.39202,"is_reserved":false,"is_disabled":true,"rental_uris":{"android":"levelo://app?vid=57406be6-c0b4-4691-8abf-3f6842e4ec81","ios":"levelo://app?vid=57406be6-c0b4-4691-8abf-3f6842e4ec81"},"vehicle_type_id":"4","last_reported":1744758567,"current_range_meters":20800,"station_id":"ce4bhoh2rcd13ifvqh5g","pricing_plan_id":"cebpf4jnsgd1na2vs0mg"},{"bike_id":"62a67d9a-9871-48b8-9be6-355a276e890d","system_id":"levelo_inurba_marseille","lat":43.30806,"lon":5.38149,"is_reserved":false,"is_disabled":false,"rental_uris":{"android":"levelo://app?vid=62a67d9a-9871-48b8-9be6-355a276e890d","ios":"levelo://app?vid=62a67d9a-9871-48b8-9be6-355a276e890d"},"vehicle_type_id":"4","last_reported":1744758567,"current_range_meters":20800,"station_id":"ce4bgt12rcd13ifvqce0","pricing_plan_id":"cebpf4jnsgd1na2vs0mg"},{"bike_id":"ae39d54f-e088-4213-a4c6-0de6fc8676db","system_id":"levelo_inurba_marseille","lat":43.27172,"lon":5.40992,"is_reserved":false,"is_disabled":false,"rental_uris":{"android":"levelo://app?vid=ae39d54f-e088-4213-a4c6-0de6fc8676db","ios":"levelo://app?vid=ae39d54f-e088-4213-a4c6-0de6fc8676db"},"vehicle_type_id":"4","last_reported":1744758567,"current_range_meters":21600,"station_id":"ce4bhl12rcd13ifvqgf0","pricing_plan_id":"cebpf4jnsgd1na2vs0mg"},{"bike_id":"04f2c050-9bf8-433b-aac4-02ccbaf0626f","system_id":"levelo_inurba_marseille","lat":43.24671,"lon":5.38155,"is_reserved":false,"is_disabled":false,"rental_uris":{"android":"levelo://app?vid=04f2c050-9bf8-433b-aac4-02ccbaf0626f","ios":"levelo://app?vid=04f2c050-9bf8-433b-aac4-02ccbaf0626f"},"vehicle_type_id":"4","last_reported":1744758567,"current_range_meters":21600,"station_id":"ce4bhih2rcd13ifvqfr0","pricing_plan_id":"cebpf4jnsgd1na2vs0mg"},{"bike_id":"bf12d5b3-9161-4567-a243-b60d8ede4227","system_id":"levelo_inurba_marseille","lat":43.25735,"lon":5.41102,"is_reserved":false,"is_disabled":false,"rental_uris":{"android":"levelo://app?vid=bf12d5b3-9161-4567-a243-b60d8ede4227","ios":"levelo://app?vid=bf12d5b3-9161-4567-a243-b60d8ede4227"},"vehicle_type_id":"4","last_reported":1744758567,"current_range_meters":21600,"station_id":"ce4bhkp2rcd13ifvqgd0","pricing_plan_id":"cebpf4jnsgd1na2vs0mg"},{"bike_id":"c80783c4-74e7-4e97-a878-2faf80caaddb","system_id":"levelo_inurba_marseille","lat":43.28418,"lon":5.37515,"is_reserved":false,"is_disabled":false,"rental_uris":{"android":"levelo://app?vid=c80783c4-74e7-4e97-a878-2faf80caaddb","ios":"levelo://app?vid=c80783c4-74e7-4e97-a878-2faf80caaddb"},"vehicle_type_id":"4","last_reported":1744758567,"current_range_meters":21600,"station_id":"ce4bh412rcd13ifvqds0","pricing_plan_id":"cebpf4jnsgd1na2vs0mg"},{"bike_id":"05f60c41-fbd6-40d4-a670-add39f12f554","system_id":"levelo_inurba_marseille","lat":43.30879,"lon":5.39653,"is_reserved":false,"is_disabled":false,"rental_uris":{"android":"levelo://app?vid=05f60c41-fbd6-40d4-a670-add39f12f554","ios":"levelo://app?vid=05f60c41-fbd6-40d4-a670-add39f12f554"},"vehicle_type_id":"4","last_reported":1744758567,"current_range_meters":21600,"station_id":"ce4bh012rcd13ifvqcv0","pricing_plan_id":"cebpf4jnsgd1na2vs0mg"},{"bike_id":"58422983-0d94-4112-993a-86a4c1f94262","system_id":"levelo_inurba_marseille","lat":43.28721,"lon":5.36099,"is_reserved":false,"is_disabled":false,"rental_uris":{"android":"levelo://app?vid=58422983-0d94-4112-993a-86a4c1f94262","ios":"levelo://app?vid=58422983-0d94-4112-993a-86a4c1f94262"},"vehicle_type_id":"4","last_reported":1744758567,"current_range_meters":22000,"station_id":"cki0cbj6b192h4jlfktg","pricing_plan_id":"cebpf4jnsgd1na2vs0mg"},{"bike_id":"3d3e85b3-b957-4512-ade2-580297bfc019","system_id":"levelo_inurba_marseille","lat":43.27228,"lon":5.39183,"is_reserved":false,"is_disabled":true,"rental_uris":{"android":"levelo://app?vid=3d3e85b3-b957-4512-ade2-580297bfc019","ios":"levelo://app?vid=3d3e85b3-b957-4512-ade2-580297bfc019"},"vehicle_type_id":"4","last_reported":1744758567,"current_range_meters":22000,"station_id":"ce4bhhp2rcd13ifvqfm0","pricing_plan_id":"cebpf4jnsgd1na2vs0mg"},{"bike_id":"2d03e3c2-09e4-4978-8dbc-31228f7e9fd5","system_id":"levelo_inurba_marseille","lat":43.25577,"lon":5.38223,"is_reserved":false,"is_disabled":false,"rental_uris":{"android":"levelo://app?vid=2d03e3c2-09e4-4978-8dbc-31228f7e9fd5","ios":"levelo://app?vid=2d03e3c2-09e4-4978-8dbc-31228f7e9fd5"},"vehicle_type_id":"4","last_reported":1744758567,"current_range_meters":22000,"station_id":"ce4bhih2rcd13ifvqfs0","pricing_plan_id":"cebpf4jnsgd1na2vs0mg"},{"bike_id":"3e60995b-eda7-45e6-afdd-eb03fa30fe85","system_id":"levelo_inurba_marseille","lat":43.28714,"lon":5.3998,"is_reserved":false,"is_disabled":false,"rental_uris":{"android":"levelo://app?vid=3e60995b-eda7-45e6-afdd-eb03fa30fe85","ios":"levelo://app?vid=3e60995b-eda7-45e6-afdd-eb03fa30fe85"},"vehicle_type_id":"4","last_reported":1744758567,"current_range_meters":22000,"station_id":"ce4bho92rcd13ifvqh3g","pricing_plan_id":"cebpf4jnsgd1na2vs0mg"},{"bike_id":"85446e80-0708-4d1f-974e-6070ef90d078","system_id":"levelo_inurba_marseille","lat":43.304185,"lon":5.41281,"is_reserved":false,"is_disabled":true,"rental_uris":{"android":"levelo://app?vid=85446e80-0708-4d1f-974e-6070ef90d078","ios":"levelo://app?vid=85446e80-0708-4d1f-974e-6070ef90d078"},"vehicle_type_id":"4","last_reported":1744758567,"current_range_meters":22000,"station_id":"ce4bhop2rcd13ifvqh8g","pricing_plan_id":"cebpf4jnsgd1na2vs0mg"},{"bike_id":"607d0f63-df06-4263-aecf-bfbe4fd9429b","system_id":"levelo_inurba_marseille","lat":43.26847,"lon":5.40233,"is_reserved":false,"is_disabled":false,"rental_uris":{"android":"levelo://app?vid=607d0f63-df06-4263-aecf-bfbe4fd9429b","ios":"levelo://app?vid=607d0f63-df06-4263-aecf-bfbe4fd9429b"},"vehicle_type_id":"4","last_reported":1744758567,"current_range_meters":22000,"station_id":"ce501612rcd8frsf0b60","pricing_plan_id":"cebpf4jnsgd1na2vs0mg"},{"bike_id":"d07f3575-c570-4366-9138-201949d4b627","system_id":"levelo_inurba_marseille","lat":43.22921,"lon":5.35388,"is_reserved":false,"is_disabled":false,"rental_uris":{"android":"levelo://app?vid=d07f3575-c570-4366-9138-201949d4b627","ios":"levelo://app?vid=d07f3575-c570-4366-9138-201949d4b627"},"vehicle_type_id":"4","last_reported":1744758567,"current_range_meters":22400,"station_id":"cpo3532slgdg3j2ikp40","pricing_plan_id":"cebpf4jnsgd1na2vs0mg"},{"bike_id":"c71f1e32-e092-485c-bf9b-790fd7c42b5d","system_id":"levelo_inurba_marseille","lat":43.2508,"lon":5.39527,"is_reserved":false,"is_disabled":false,"rental_uris":{"android":"levelo://app?vid=c71f1e32-e092-485c-bf9b-790fd7c42b5d","ios":"levelo://app?vid=c71f1e32-e092-485c-bf9b-790fd7c42b5d"},"vehicle_type_id":"4","last_reported":1744758567,"current_range_meters":22400,"station_id":"ce4bhm12rcd13ifvqgkg","pricing_plan_id":"cebpf4jnsgd1na2vs0mg"},{"bike_id":"bf4659ae-1e1e-46e0-aae0-87527cd1ccd6","system_id":"levelo_inurba_marseille","lat":43.28149,"lon":5.42668,"is_reserved":false,"is_disabled":false,"rental_uris":{"android":"levelo://app?vid=bf4659ae-1e1e-46e0-aae0-87527cd1ccd6","ios":"levelo://app?vid=bf4659ae-1e1e-46e0-aae0-87527cd1ccd6"},"vehicle_type_id":"4","last_reported":1744758567,"current_range_meters":22400,"station_id":"ce4bhnh2rcd13ifvqgug","pricing_plan_id":"cebpf4jnsgd1na2vs0mg"},{"bike_id":"3b4b9b36-5bbf-4ad4-9885-f3d331a09d6f","system_id":"levelo_inurba_marseille","lat":43.28844,"lon":5.3584,"is_reserved":false,"is_disabled":false,"rental_uris":{"android":"levelo://app?vid=3b4b9b36-5bbf-4ad4-9885-f3d331a09d6f","ios":"levelo://app?vid=3b4b9b36-5bbf-4ad4-9885-f3d331a09d6f"},"vehicle_type_id":"4","last_reported":1744758567,"current_range_meters":22400,"station_id":"ce4bhb12rcd13ifvqem0","pricing_plan_id":"cebpf4jnsgd1na2vs0mg"},{"bike_id":"f4f2a3c2-2e88-42f2-a842-4b821963dedc","system_id":"levelo_inurba_marseille","lat":43.229309,"lon":5.353919,"is_reserved":false,"is_disabled":false,"rental_uris":{"android":"levelo://app?vid=f4f2a3c2-2e88-42f2-a842-4b821963dedc","ios":"levelo://app?vid=f4f2a3c2-2e88-42f2-a842-4b821963dedc"},"vehicle_type_id":"4","last_reported":1744758567,"current_range_meters":22400,"station_id":"cpo3532slgdg3j2ikp40","pricing_plan_id":"cebpf4jnsgd1na2vs0mg"},