{"last_updated":1746699109,"ttl":60,"version":"2.2","data":{"bikes":[{"bike_id":"66b646b3-6352-44bb-9bfb-21570512e3e5","system_id":"levelo_inurba_marseille","lat":43.281191,"lon":5.403964,"is_reserved":false,"is_disabled":true,"rental_uris":{"android":"levelo://app?vid=66b646b3-6352-44bb-9bfb-21570512e3e5","ios":"levelo://app?vid=66b646b3-6352-44bb-9bfb-21570512e3e5"},"vehicle_type_id":"4","last_reported":1746699109,"current_range_meters":0,"station_id":"","pricing_plan_id":"cebpf4jnsgd1na2vs0mg"},{"bike_id":"b56eeeb9-9ded-4dd2-9efa-c8d4f8a5e387","system_id":"levelo_inurba_marseille","lat":43.273863,"lon":5.422426,"is_reserved":false,"is_disabled":true,"rental_uris":{"android":"levelo://app?vid=b56eeeb9-9ded-4dd2-9efa-c8d4f8a5e387","ios":"levelo://app?vid=b56eeeb9-9ded-4dd2-9efa-c8d4f8a5e387"},"vehicle_type_id":"4","last_reported":1746699109,"current_range_meters":0,"station_id":"","pricing_plan_id":"cebpf4jnsgd1na2vs0mg"},{"bike_id":"88c3c6c1-a33a-48ed-b2a4-48c16332184c","system_id":"levelo_inurba_marseille","lat":43.27947,"lon":5.37393,"is_reserved":false,"is_disabled":true,"rental_uris":{"android":"levelo://app?vid=88c3c6c1-a33a-48ed-b2a4-48c16332184c","ios":"levelo://app?vid=88c3c6c1-a33a-48ed-b2a4-48c16332184c"},"vehicle_type_id":"4","last_reported":1746699109,"current_range_meters":0,"station_id":"","pricing_plan_id":"cebpf4jnsgd1na2vs0mg"},{"bike_id":"2d251c8d-e9d0-476f-8622-cb88831f30c3","system_id":"levelo_inurba_marseille","lat":43.27015,"lon":5.38773,"is_reserved":false,"is_disabled":true,"rental_uris":{"android":"levelo://app?vid=2d251c8d-e9d0-476f-8622-cb88831f30c3","ios":"levelo://app?vid=2d251c8d-e9d0-476f-8622-cb88831f30c3"},"vehicle_type_id":"4","last_reported":1746699109,"current_range_meters":0,"station_id":"","pricing_plan_id":"cebpf4jnsgd1na2vs0mg"},{"bike_id":"718447f3-b6d2-4455-9edd-b1cf56662f96","system_id":"levelo_inurba_marseille","lat":43.31975,"lon":5.43887,"is_reserved":false,"is_disabled":true,"rental_uris":{"android":"levelo://app?vid=718447f3-b6d2-4455-9edd-b1cf56662f96","ios":"levelo://app?vid=718447f3-b6d2-4455-9edd-b1cf56662f96"},"vehicle_type_id":"4","last_reported":1746699109,"current_range_meters":0,"station_id":"","pricing_plan_id":"cebpf4jnsgd1na2vs0mg"},{"bike_id":"658acdfc-f2a7-4604-81dc-2496290c6dec","system_id":"levelo_inurba_marseille","lat":43.29509,"lon":5.37501,"is_reserved":false,"is_disabled":true,"rental_uris":{"android":"levelo://app?vid=658acdfc-f2a7-4604-81dc-2496290c6dec","ios":"levelo://app?vid=658acdfc-f2a7-4604-81dc-2496290c6dec"},"vehicle_type_id":"4","last_reported":1746699109,"current_range_meters":0,"station_id":"ce4bgkp2rcd13ifvqbmg","pricing_plan_id":"cebpf4jnsgd1na2vs0mg"},{"bike_id":"16d82653-e2e5-4531-a384-7902e244f0cf","system_id":"levelo_inurba_marseille","lat":43.2985,"lon":5.36284,"is_reserved":false,"is_disabled":true,"rental_uris":{"android":"levelo://app?vid=16d82653-e2e5-4531-a384-7902e244f0cf","ios":"levelo://app?vid=16d82653-e2e5-4531-a384-7902e244f0cf"},"vehicle_type_id":"4","last_reported":1746699109,"current_range_meters":0,"station_id":"ce4bgpp2rcd13ifvqc3g","pricing_plan_id":"cebpf4jnsgd1na2vs0mg"},{"bike_id":"02cbafdc-7312-4741-a383-854fa52b395e","system_id":"levelo_inurba_marseille","lat":43.29241,"lon":5.38443,"is_reserved":false,"is_disabled":true,"rental_uris":{"android":"levelo://app?vid=02cbafdc-7312-4741-a383-854fa52b395e","ios":"levelo://app?vid=02cbafdc-7312-4741-a383-854fa52b395e"},"vehicle_type_id":"4","last_reported":1746699109,"current_range_meters":0,"station_id":"ce4bh692rcd13ifvqea0","pricing_plan_id":"cebpf4jnsgd1na2vs0mg"},{"bike_id":"568f7ab5-7959-4fe1-a3a6-3d865932450e","system_id":"levelo_inurba_marseille","lat":43.23171,"lon":5.43733,"is_reserved":false,"is_disabled":true,"rental_uris":{"android":"levelo://app?vid=568f7ab5-7959-4fe1-a3a6-3d865932450e","ios":"levelo://app?vid=568f7ab5-7959-4fe1-a3a6-3d865932450e"},"vehicle_type_id":"4","last_reported":1746699109,"current_range_meters":0,"station_id":"ce4bhmp2rcd13ifvqgog","pricing_plan_id":"cebpf4jnsgd1na2vs0mg"},{"bike_id":"49bb95ae-5998-4f46-97d0-829f8b2b9e32","system_id":"levelo_inurba_marseille","lat":43.23198,"lon":5.35552,"is_reserved":false,"is_disabled":true,"rental_uris":{"android":"levelo://app?vid=49bb95ae-5998-4f46-97d0-829f8b2b9e32","ios":"levelo://app?vid=49bb95ae-5998-4f46-97d0-829f8b2b9e32"},"vehicle_type_id":"4","last_reported":1746699109,"current_range_meters":400,"station_id":"ce4bhu92rcd13ifvqi70","pricing_plan_id":"cebpf4jnsgd1na2vs0mg"},{"bike_id":"b08b6ec9-6dd5-4cac-b8b3-825420f0df5f","system_id":"levelo_inurba_marseille","lat":43.26553,"lon":5.37323,"is_reserved":false,"is_disabled":true,"rental_uris":{"android":"levelo://app?vid=b08b6ec9-6dd5-4cac-b8b3-825420f0df5f","ios":"levelo://app?vid=b08b6ec9-6dd5-4cac-b8b3-825420f0df5f"},"vehicle_type_id":"4","last_reported":1746699109,"current_range_meters":800,"station_id":"ce4bhg12rcd13ifvqf70","pricing_plan_id":"cebpf4jnsgd1na2vs0mg"},{"bike_id":"498332a6-aad7-4e8a-8090-1d7139cb6bb6","system_id":"levelo_inurba_marseille","lat":43.25697,"lon":5.41081,"is_reserved":false,"is_disabled":true,"rental_uris":{"android":"levelo://app?vid=498332a6-aad7-4e8a-8090-1d7139cb6bb6","ios":"levelo://app?vid=498332a6-aad7-4e8a-8090-1d7139cb6bb6"},"vehicle_type_id":"4","last_reported":1746699109,"current_range_meters":800,"station_id":"ce4bhkp2rcd13ifvqgd0","pricing_plan_id":"cebpf4jnsgd1na2vs0mg"},{"bike_id":"762a7db1-f8bb-4b0f-939a-90e3e8241bbe","system_id":"levelo_inurba_marseille","lat":43.27378,"lon":5.36258,"is_reserved":false,"is_disabled":true,"rental_uris":{"android":"levelo://app?vid=762a7db1-f8bb-4b0f-939a-90e3e8241bbe","ios":"levelo://app?vid=762a7db1-f8bb-4b0f-939a-90e3e8241bbe"},"vehicle_type_id":"4","last_reported":1746699109,"current_range_meters":1200,"station_id":"ce4bhbh2rcd13ifvqeo0","pricing_plan_id":"cebpf4jnsgd1na2vs0mg"},{"bike_id":"4f1643e3-c853-4c91-97a3-beb1cb1c64ce","system_id":"levelo_inurba_marseille","lat":43.25501,"lon":5.37651,"is_reserved":false,"is_disabled":true,"rental_uris":{"android":"levelo://app?vid=4f1643e3-c853-4c91-97a3-beb1cb1c64ce","ios":"levelo://app?vid=4f1643e3-c853-4c91-97a3-beb1cb1c64ce"},"vehicle_type_id":"4","last_reported":1746699109,"current_range_meters":1600,"station_id":"ce4bhh12rcd13ifvqff0","pricing_plan_id":"cebpf4jnsgd1na2vs0mg"},{"bike_id":"c9592205-9409-4f74-aed1-7c4141a58caa","system_id":"levelo_inurba_marseille","lat":43.27143,"lon":5.36377,"is_reserved":false,"is_disabled":true,"rental_uris":{"android":"levelo://app?vid=c9592205-9409-4f74-aed1-7c4141a58caa","ios":"levelo://app?vid=c9592205-9409-4f74-aed1-7c4141a58caa"},"vehicle_type_id":"4","last_reported":1746699109,"current_range_meters":2000,"station_id":"","pricing_plan_id":"cebpf4jnsgd1na2vs0mg"},{"bike_id":"705f1f6f-d92c-4df1-a512-943b0bf79900","system_id":"levelo_inurba_marseille","lat":43.225043,"lon":5.347862,"is_reserved":false,"is_disabled":false,"rental_uris":{"android":"levelo://app?vid=705f1f6f-d92c-4df1-a512-943b0bf79900","ios":"levelo://app?vid=705f1f6f-d92c-4df1-a512-943b0bf79900"},"vehicle_type_id":"4","last_reported":1746699109,"current_range_meters":2800,"station_id":"st_cvj5dfep6f1abm77gieg","pricing_plan_id":"cebpf4jnsgd1na2vs0mg"},{"bike_id":"79f0d323-7403-4393-834c-6ae965324f26","system_id":"levelo_inurba_marseille","lat":43.25447,"lon":5.38251,"is_reserved":false,"is_disabled":false,"rental_uris":{"android":"levelo://app?vid=79f0d323-7403-4393-834c-6ae965324f26","ios":"levelo://app?vid=79f0d323-7403-4393-834c-6ae965324f26"},"vehicle_type_id":"4","last_reported":1746699109,"current_range_meters":3200,"station_id":"","pricing_plan_id":"cebpf4jnsgd1na2vs0mg"},{"bike_id":"30376fa5-90b7-403e-ad69-c574af85b583","system_id":"levelo_inurba_marseille","lat":43.26954,"lon":5.40245,"is_reserved":false,"is_disabled":false,"rental_uris":{"android":"levelo://app?vid=30376fa5-90b7-403e-ad69-c574af85b583","ios":"levelo://app?vid=30376fa5-90b7-403e-ad69-c574af85b583"},"vehicle_type_id":"4","last_reported":1746699109,"current_range_meters":3600,"station_id":"cjm6bp8fraef2m0cb0m0","pricing_plan_id":"cebpf4jnsgd1na2vs0mg"},{"bike_id":"2a31388e-c395-416a-8a7c-644427ccb285","system_id":"levelo_inurba_marseille","lat":43.253901,"lon":5.379459,"is_reserved":false,"is_disabled":false,"rental_uris":{"android":"levelo://app?vid=2a31388e-c395-416a-8a7c-644427ccb285","ios":"levelo://app?vid=2a31388e-c395-416a-8a7c-644427ccb285"},"vehicle_type_id":"4","last_reported":1746699109,"current_range_meters":3600,"station_id":"cpo36qri1sfpv3e86is0","pricing_plan_id":"cebpf4jnsgd1na2vs0mg"},{"bike_id":"88f90c5c-6128-4b9d-bb34-6e1b40933e50","system_id":"levelo_inurba_marseille","lat":43.28187,"lon":5.42635,"is_reserved":false,"is_disabled":false,"rental_uris":{"android":"levelo://app?vid=88f90c5c-6128-4b9d-bb34-6e1b40933e50","ios":"levelo://app?vid=88f90c5c-6128-4b9d-bb34-6e1b40933e50"},"vehicle_type_id":"4","last_reported":1746699109,"current_range_meters":4000,"station_id":"ce4bhnh2rcd13ifvqgug","pricing_plan_id":"cebpf4jnsgd1na2vs0mg"},{"bike_id":"b56d5ade-0de2-44f1-90b1-fb52a39fc442","system_id":"levelo_inurba_marseille","lat":43.29285,"lon":5.37607,"is_reserved":false,"is_disabled":false,"rental_uris":{"android":"levelo://app?vid=b56d5ade-0de2-44f1-90b1-fb52a39fc442","ios":"levelo://app?vid=b56d5ade-0de2-44f1-90b1-fb52a39fc442"},"vehicle_type_id":"4","last_reported":1746699109,"current_range_meters":4800,"station_id":"ce4bgi12rcd13ifvqb80","pricing_plan_id":"cebpf4jnsgd1na2vs0mg"},{"bike_id":"15627664-6881-4bce-a4c0-dff5a438a35c","system_id":"levelo_inurba_marseille","lat":43.307972,"lon":5.435274,"is_reserved":false,"is_disabled":false,"rental_uris":{"android":"levelo://app?vid=15627664-6881-4bce-a4c0-dff5a438a35c","ios":"levelo://app?vid=15627664-6881-4bce-a4c0-dff5a438a35c"},"vehicle_type_id":"4","last_reported":1746699109,"current_range_meters":5600,"station_id":"ce4bhph2rcd13ifvqheg","pricing_plan_id":"cebpf4jnsgd1na2vs0mg"},{"bike_id":"082b5772-10bb-4282-bdbf-aa00094bbf28","system_id":"levelo_inurba_marseille","lat":43.27056,"lon":5.40262,"is_reserved":false,"is_disabled":false,"rental_uris":{"android":"levelo://app?vid=082b5772-10bb-4282-bdbf-aa00094bbf28","ios":"levelo://app?vid=082b5772-10bb-4282-bdbf-aa00094bbf28"},"vehicle_type_id":"4","last_reported":1746699109,"current_range_meters":6000,"station_id":"ce4bhk92rcd13ifvqgc0","pricing_plan_id":"cebpf4jnsgd1na2vs0mg"},{"bike_id":"c72e9ab1-a289-41a0-a26c-6ae657643ab4","system_id":"levelo_inurba_marseille","lat":43.23156,"lon":5.43724,"is_reserved":false,"is_disabled":false,"rental_uris":{"android":"levelo://app?vid=c72e9ab1-a289-41a0-a26c-6ae657643ab4","ios":"levelo://app?vid=c72e9ab1-a289-41a0-a26c-6ae657643ab4"},"vehicle_type_id":"4","last_reported":1746699109,"current_range_meters":6000,"station_id":"ce4bhmp2rcd13ifvqgog","pricing_plan_id":"cebpf4jnsgd1na2vs0mg"},{"bike_id":"00c74c59-98b8-4917-8d36-3021337670e8","system_id":"levelo_inurba_marseille","lat":43.32119,"lon":5.36742,"is_reserved":false,"is_disabled":false,"rental_uris":{"android":"levelo://app?vid=00c74c59-98b8-4917-8d36-3021337670e8","ios":"levelo://app?vid=00c74c59-98b8-4917-8d36-3021337670e8"},"vehicle_type_id":"4","last_reported":1746699109,"current_range_meters":6000,"station_id":"ce4bhrh2rcd13ifvqhug","pricing_plan_id":"cebpf4jnsgd1na2vs0mg"},{"bike_id":"1c7991ab-637c-4c8f-90e0-51080924fddc","system_id":"levelo_inurba_marseille","lat":43.26562,"lon":5.37303,"is_reserved":false,"is_disabled":false,"rental_uris":{"android":"levelo://app?vid=1c7991ab-637c-4c8f-90e0-51080924fddc","ios":"levelo://app?vid=1c7991ab-637c-4c8f-90e0-51080924fddc"},"vehicle_type_id":"4","last_reported":1746699109,"current_range_meters":6400,"station_id":"ce4bhg12rcd13ifvqf70","pricing_plan_id":"cebpf4jnsgd1na2vs0mg"},{"bike_id":"9d03e3b9-cc02-47cb-8220-42e752a6ad34","system_id":"levelo_inurba_marseille","lat":43.28149,"lon":5.4264,"is_reserved":false,"is_disabled":false,"rental_uris":{"android":"levelo://app?vid=9d03e3b9-cc02-47cb-8220-42e752a6ad34","ios":"levelo://app?vid=9d03e3b9-cc02-47cb-8220-42e752a6ad34"},"vehicle_type_id":"4","last_reported":1746699109,"current_range_meters":6400,"station_id":"ce4bhnh2rcd13ifvqgug","pricing_plan_id":"cebpf4jnsgd1na2vs0mg"},{"bike_id":"a5df2331-54c5-45f0-9363-1809d4ba78c2","system_id":"levelo_inurba_marseille","lat":43.24158,"lon":5.36398,"is_reserved":false,"is_disabled":false,"rental_uris":{"android":"levelo://app?vid=a5df2331-54c5-45f0-9363-1809d4ba78c2","ios":"levelo://app?vid=a5df2331-54c5-45f0-9363-1809d4ba78c2"},"vehicle_type_id":"4","last_reported":1746699109,"current_range_meters":6400,"station_id":"cpo36qri1sfpv3e86is0","pricing_plan_id":"cebpf4jnsgd1na2vs0mg"},{"bike_id":"8e1c47cd-7eff-4c73-9162-0183f6eb9146","system_id":"levelo_inurba_marseille","lat":43.27368,"lon":5.36251,"is_reserved":false,"is_disabled":false,"rental_uris":{"android":"levelo://app?vid=8e1c47cd-7eff-4c73-9162-0183f6eb9146","ios":"levelo://app?vid=8e1c47cd-7eff-4c73-9162-0183f6eb9146"},"vehicle_type_id":"4","last_reported":1746699109,"current_range_meters":6800,"station_id":"ce4bhbh2rcd13ifvqeo0","pricing_plan_id":"cebpf4jnsgd1na2vs0mg"},{"bike_id":"a96833c3-7aad-4769-953e-d8192a324355","system_id":"levelo_inurba_marseille","lat":43.22503,"lon":5.34787,"is_reserved":false,"is_disabled":false,"rental_uris":{"android":"levelo://app?vid=a96833c3-7aad-4769-953e-d8192a324355","ios":"levelo://app?vid=a96833c3-7aad-4769-953e-d8192a324355"},"vehicle_type_id":"4","last_reported":1746699109,"current_range_meters":6800,"station_id":"st_cvj5dfep6f1abm77gieg","pricing_plan_id":"cebpf4jnsgd1na2vs0mg"},{"bike_id":"b7bdbe3a-b7ec-4256-908f-dfa71835a5d1","system_id":"levelo_inurba_marseille","lat":43.288768,"lon":5.371373,"is_reserved":false,"is_disabled":false,"rental_uris":{"android":"levelo://app?vid=b7bdbe3a-b7ec-4256-908f-dfa71835a5d1","ios":"levelo://app?vid=b7bdbe3a-b7ec-4256-908f-dfa71835a5d1"},"vehicle_type_id":"4","last_reported":1746699109,"current_range_meters":7200,"station_id":"","pricing_plan_id":"cebpf4jnsgd1na2vs0mg"},{"bike_id":"ab61ab17-8429-45d6-a9dd-e2f32b2b0f0b","system_id":"levelo_inurba_marseille","lat":43.27964,"lon":5.38752,"is_reserved":false,"is_disabled":false,"rental_uris":{"android":"levelo://app?vid=ab61ab17-8429-45d6-a9dd-e2f32b2b0f0b","ios":"levelo://app?vid=ab61ab17-8429-45d6-a9dd-e2f32b2b0f0b"},"vehicle_type_id":"4","last_reported":1746699109,"current_range_meters":7200,"station_id":"ce4bhg12rcd13ifvqf80","pricing_plan_id":"cebpf4jnsgd1na2vs0mg"},{"bike_id":"ddda1e7e-2780-4187-b2fe-c09599a440f7","system_id":"levelo_inurba_marseille","lat":43.2315,"lon":5.43716,"is_reserved":false,"is_disabled":false,"rental_uris":{"android":"levelo://app?vid=ddda1e7e-2780-4187-b2fe-c09599a440f7","ios":"levelo://app?vid=ddda1e7e-2780-4187-b2fe-c09599a440f7"},"vehicle_type_id":"4","last_reported":1746699109,"current_range_meters":7200,"station_id":"ce4bhmp2rcd13ifvqgog","pricing_plan_id":"cebpf4jnsgd1na2vs0mg"},{"bike_id":"be3a2ed9-e107-46dc-8066-89cfcff50847","system_id":"levelo_inurba_marseille","lat":43.29234,"lon":5.371283,"is_reserved":false,"is_disabled":false,"rental_uris":{"android":"levelo://app?vid=be3a2ed9-e107-46dc-8066-89cfcff50847","ios":"levelo://app?vid=be3a2ed9-e107-46dc-8066-89cfcff50847"},"vehicle_type_id":"4","last_reported":1746699109,"current_range_meters":8000,"station_id":"","pricing_plan_id":"cebpf4jnsgd1na2vs0mg"},{"bike_id":"390aa0d2-9c92-434c-a013-adc31ef68eee","system_id":"levelo_inurba_marseille","lat":43.27053,"lon":5.40262,"is_reserved":false,"is_disabled":false,"rental_uris":{"android":"levelo://app?vid=390aa0d2-9c92-434c-a013-adc31ef68eee","ios":"levelo://app?vid=390aa0d2-9c92-434c-a013-adc31ef68eee"},"vehicle_type_id":"4","last_reported":1746699109,"current_range_meters":8000,"station_id":"ce4bhk92rcd13ifvqgc0","pricing_plan_id":"cebpf4jnsgd1na2vs0mg"},{"bike_id":"59c33e24-ed10-43de-a5fe-4acedf31c899","system_id":"levelo_inurba_marseille","lat":43.29525,"lon":5.37509,"is_reserved":false,"is_disabled":false,"rental_uris":{"android":"levelo://app?vid=59c33e24-ed10-43de-a5fe-4acedf31c899","ios":"levelo://app?vid=59c33e24-ed10-43de-a5fe-4acedf31c899"},"vehicle_type_id":"4","last_reported":1746699109,"current_range_meters":8800,"station_id":"ce4bgkp2rcd13ifvqbmg","pricing_plan_id":"cebpf4jnsgd1na2vs0mg"},{"bike_id":"bd693538-e5af-4a64-a6a3-8ea72659f68c","system_id":"levelo_inurba_marseille","lat":43.27683,"lon":5.38876,"is_reserved":false,"is_disabled":false,"rental_uris":{"android":"levelo://app?vid=bd693538-e5af-4a64-a6a3-8ea72659f68c","ios":"levelo://app?vid=bd693538-e5af-4a64-a6a3-8ea72659f68c"},"vehicle_type_id":"4","last_reported":1746699109,"current_range_meters":8800,"station_id":"ce4bhi12rcd13ifvqfo0","pricing_plan_id":"cebpf4jnsgd1na2vs0mg"},{"bike_id":"e979d26c-f817-4942-b61e-42cdec57f0e2","system_id":"levelo_inurba_marseille","lat":43.24672,"lon":5.3816,"is_reserved":false,"is_disabled":false,"rental_uris":{"android":"levelo://app?vid=e979d26c-f817-4942-b61e-42cdec57f0e2","ios":"levelo://app?vid=e979d26c-f817-4942-b61e-42cdec57f0e2"},"vehicle_type_id":"4","last_reported":1746699109,"current_range_meters":8800,"station_id":"ce4bhih2rcd13ifvqfr0","pricing_plan_id":"cebpf4jnsgd1na2vs0mg"},{"bike_id":"ee318183-c8ae-46a5-820a-0a9ed663e17a","system_id":"levelo_inurba_marseille","lat":43.2174,"lon":5.34607,"is_reserved":false,"is_disabled":false,"rental_uris":{"android":"levelo://app?vid=ee318183-c8ae-46a5-820a-0a9ed663e17a","ios":"levelo://app?vid=ee318183-c8ae-46a5-820a-0a9ed663e17a"},"vehicle_type_id":"4","last_reported":1746699109,"current_range_meters":8800,"station_id":"st_cvj6r9ubvosntc0bgbag","pricing_plan_id":"cebpf4jnsgd1na2vs0mg"},{"bike_id":"edc14644-b89f-4204-b3b6-7edbbb1f0191","system_id":"levelo_inurba_marseille","lat":43.33112,"lon":5.38633,"is_reserved":false,"is_disabled":false,"rental_uris":{"android":"levelo://app?vid=edc14644-b89f-4204-b3b6-7edbbb1f0191","ios":"levelo://app?vid=edc14644-b89f-4204-b3b6-7edbbb1f0191"},"vehicle_type_id":"4","last_reported":1746699109,"current_range_meters":9200,"station_id":"","pricing_plan_id":"cebpf4jnsgd1na2vs0mg"},{"bike_id":"b15fe93b-1059-4d75-abd3-040e349ce402","system_id":"levelo_inurba_marseille","lat":43.30108,"lon":5.37007,"is_reserved":false,"is_disabled":false,"rental_uris":{"android":"levelo://app?vid=b15fe93b-1059-4d75-abd3-040e349ce402","ios":"levelo://app?vid=b15fe93b-1059-4d75-abd3-040e349ce402"},"vehicle_type_id":"4","last_reported":1746699109,"current_range_meters":9200,"station_id":"","pricing_plan_id":"cebpf4jnsgd1na2vs0mg"},{"bike_id":"dcc56f7b-7e79-42fa-8aa2-e9c1fff2e9fb","system_id":"levelo_inurba_marseille","lat":43.25914,"lon":5.40892,"is_reserved":false,"is_disabled":false,"rental_uris":{"android":"levelo://app?vid=dcc56f7b-7e79-42fa-8aa2-e9c1fff2e9fb","ios":"levelo://app?vid=dcc56f7b-7e79-42fa-8aa2-e9c1fff2e9fb"},"vehicle_type_id":"4","last_reported":1746699109,"current_range_meters":9200,"station_id":"ce4bhm92rcd13ifvqglg","pricing_plan_id":"cebpf4jnsgd1na2vs0mg"},{"bike_id":"d1d21c83-9033-4720-aeec-d3880dfbf0dd","system_id":"levelo_inurba_marseille","lat":43.31759,"lon":5.390067,"is_reserved":false,"is_disabled":false,"rental_uris":{"android":"levelo://app?vid=d1d21c83-9033-4720-aeec-d3880dfbf0dd","ios":"levelo://app?vid=d1d21c83-9033-4720-aeec-d3880dfbf0dd"},"vehicle_type_id":"4","last_reported":1746699109,"current_range_meters":9600,"station_id":"ce4bhqp2rcd13ifvqhng","pricing_plan_id":"cebpf4jnsgd1na2vs0mg"},{"bike_id":"7aa2b20c-c8e3-4658-90ef-58d620d05194","system_id":"levelo_inurba_marseille","lat":43.246473,"lon":5.388952,"is_reserved":false,"is_disabled":false,"rental_uris":{"android":"levelo://app?vid=7aa2b20c-c8e3-4658-90ef-58d620d05194","ios":"levelo://app?vid=7aa2b20c-c8e3-4658-90ef-58d620d05194"},"vehicle_type_id":"4","last_reported":1746699109,"current_range_meters":10000,"station_id":"ce4bhg12rcd13ifvqf60","pricing_plan_id":"cebpf4jnsgd1na2vs0mg"},{"bike_id":"ac157526-2c5d-4c15-85e9-320298147b7d","system_id":"levelo_inurba_marseille","lat":43.28355,"lon":5.38644,"is_reserved":false,"is_disabled":false,"rental_uris":{"android":"levelo://app?vid=ac157526-2c5d-4c15-85e9-320298147b7d","ios":"levelo://app?vid=ac157526-2c5d-4c15-85e9-320298147b7d"},"vehicle_type_id":"4","last_reported":1746699109,"current_range_meters":10800,"station_id":"ce4bh492rcd13ifvqdvg","pricing_plan_id":"cebpf4jnsgd1na2vs0mg"},{"bike_id":"eda44a72-7742-4476-9ad3-db9c5dd05fd8","system_id":"levelo_inurba_marseille","lat":43.24388,"lon":5.37056,"is_reserved":false,"is_disabled":false,"rental_uris":{"android":"levelo://app?vid=eda44a72-7742-4476-9ad3-db9c5dd05fd8","ios":"levelo://app?vid=eda44a72-7742-4476-9ad3-db9c5dd05fd8"},"vehicle_type_id":"4","last_reported":1746699109,"current_range_meters":10800,"station_id":"ce4bhhh2rcd13ifvqfk0","pricing_plan_id":"cebpf4jnsgd1na2vs0mg"},{"bike_id":"e0054ea4-f393-4fc7-a473-4b8516966379","system_id":"levelo_inurba_marseille","lat":43.23156,"lon":5.43711,"is_reserved":false,"is_disabled":false,"rental_uris":{"android":"levelo://app?vid=e0054ea4-f393-4fc7-a473-4b8516966379","ios":"levelo://app?vid=e0054ea4-f393-4fc7-a473-4b8516966379"},"vehicle_type_id":"4","last_reported":1746699109,"current_range_meters":10800,"station_id":"ce4bhmp2rcd13ifvqgog","pricing_plan_id":"cebpf4jnsgd1na2vs0mg"},{"bike_id":"5453c7c8-d7df-431d-98db-167d3c16d978","system_id":"levelo_inurba_marseille","lat":43.31368,"lon":5.38502,"is_reserved":false,"is_disabled":false,"rental_uris":{"android":"levelo://app?vid=5453c7c8-d7df-431d-98db-167d3c16d978","ios":"levelo://app?vid=5453c7c8-d7df-431d-98db-167d3c16d978"},"vehicle_type_id":"4","last_reported":1746699109,"current_range_meters":11200,"station_id":"ce4bgt92rcd13ifvqcf0","pricing_plan_id":"cebpf4jnsgd1na2vs0mg"},{"bike_id":"03789d74-251a-4869-914c-44d3d0295ec4","system_id":"levelo_inurba_marseille","lat":43.2901,"lon":5.35618,"is_reserved":false,"is_disabled":false,"rental_uris":{"android":"levelo://app?vid=03789d74-251a-4869-914c-44d3d0295ec4","ios":"levelo://app?vid=03789d74-251a-4869-914c-44d3d0295ec4"},"vehicle_type_id":"4","last_reported":1746699109,"current_range_meters":11200,"station_id":"ce4bhb92rcd13ifvqen0","pricing_plan_id":"cebpf4jnsgd1na2vs0mg"},{"bike_id":"9209774a-06b7-47c7-a6eb-adc0c3f47cff","system_id":"levelo_inurba_marseille","lat":43.25584,"lon":5.38237,"is_reserved":false,"is_disabled":false,"rental_uris":{"android":"levelo://app?vid=9209774a-06b7-47c7-a6eb-adc0c3f47cff","ios":"levelo://app?vid=9209774a-06b7-47c7-a6eb-adc0c3f47cff"},"vehicle_type_id":"4","last_reported":1746699109,"current_range_meters":11200,"station_id":"ce4bhih2rcd13ifvqfs0","pricing_plan_id":"cebpf4jnsgd1na2vs0mg"},{"bike_id":"ffeef7a4-c3b2-4359-9f2a-dcf5eb75b935","system_id":"levelo_inurba_marseille","lat":43.30168,"lon":5.38086,"is_reserved":false,"is_disabled":false,"rental_uris":{"android":"levelo://app?vid=ffeef7a4-c3b2-4359-9f2a-dcf5eb75b935","ios":"levelo://app?vid=ffeef7a4-c3b2-4359-9f2a-dcf5eb75b935"},"vehicle_type_id":"4","last_reported":1746699109,"current_range_meters":11600,"station_id":"ce4bgjp2rcd13ifvqbh0","pricing_plan_id":"cebpf4jnsgd1na2vs0mg"},{"bike_id":"e945a495-d359-4bb7-bb94-1340aff95955","system_id":"levelo_inurba_marseille","lat":43.28128,"lon":5.4066,"is_reserved":false,"is_disabled":false,"rental_uris":{"android":"levelo://app?vid=e945a495-d359-4bb7-bb94-1340aff95955","ios":"levelo://app?vid=e945a495-d359-4bb7-bb94-1340aff95955"},"vehicle_type_id":"4","last_reported":1746699109,"current_range_meters":12000,"station_id":"","pricing_plan_id":"cebpf4jnsgd1na2vs0mg"},{"bike_id":"a481dbeb-0e81-4e25-8a08-86a7852b616c","system_id":"levelo_inurba_marseille","lat":43.29523,"lon":5.37506,"is_reserved":false,"is_disabled":false,"rental_uris":{"android":"levelo://app?vid=a481dbeb-0e81-4e25-8a08-86a7852b616c","ios":"levelo://app?vid=a481dbeb-0e81-4e25-8a08-86a7852b616c"},"vehicle_type_id":"4","last_reported":1746699109,"current_range_meters":12000,"station_id":"ce4bgkp2rcd13ifvqbmg","pricing_plan_id":"cebpf4jnsgd1na2vs0mg"},{"bike_id":"492a7a57-4c14-4260-ba62-da55dda4a419","system_id":"levelo_inurba_marseille","lat":43.32352,"lon":5.40616,"is_reserved":false,"is_disabled":false,"rental_uris":{"android":"levelo://app?vid=492a7a57-4c14-4260-ba62-da55dda4a419","ios":"levelo://app?vid=492a7a57-4c14-4260-ba62-da55dda4a419"},"vehicle_type_id":"4","last_reported":1746699109,"current_range_meters":12000,"station_id":"ce4bhq92rcd13ifvqhjg","pricing_plan_id":"cebpf4jnsgd1na2vs0mg"},{"bike_id":"809c8673-c032-46b9-aa07-62c38e26d44e","system_id":"levelo_inurba_marseille","lat":43.2506,"lon":5.38792,"is_reserved":false,"is_disabled":false,"rental_uris":{"android":"levelo://app?vid=809c8673-c032-46b9-aa07-62c38e26d44e","ios":"levelo://app?vid=809c8673-c032-46b9-aa07-62c38e26d44e"},"vehicle_type_id":"4","last_reported":1746699109,"current_range_meters":12400,"station_id":"","pricing_plan_id":"cebpf4jnsgd1na2vs0mg"},{"bike_id":"f6c88190-a87b-4313-a4bb-cfb2c20661df","system_id":"levelo_inurba_marseille","lat":43.26561,"lon":5.37281,"is_reserved":false,"is_disabled":false,"rental_uris":{"android":"levelo://app?vid=f6c88190-a87b-4313-a4bb-cfb2c20661df","ios":"levelo://app?vid=f6c88190-a87b-4313-a4bb-cfb2c20661df"},"vehicle_type_id":"4","last_reported":1746699109,"current_range_meters":12400,"station_id":"ce4bhg12rcd13ifvqf70","pricing_plan_id":"cebpf4jnsgd1na2vs0mg"},{"bike_id":"5079c367-8525-43e6-9039-4d26b0ebbdcb","system_id":"levelo_inurba_marseille","lat":43.265567,"lon":5.37284,"is_reserved":false,"is_disabled":false,"rental_uris":{"android":"levelo://app?vid=5079c367-8525-43e6-9039-4d26b0ebbdcb","ios":"levelo://app?vid=5079c367-8525-43e6-9039-4d26b0ebbdcb"},"vehicle_type_id":"4","last_reported":1746699109,"current_range_meters":12800,"station_id":"ce4bhg12rcd13ifvqf70","pricing_plan_id":"cebpf4jnsgd1na2vs0mg"},{"bike_id":"2aace568-ac2f-49c7-9458-5246d5166cd0","system_id":"levelo_inurba_marseille","lat":43.28155,"lon":5.42648,"is_reserved":false,"is_disabled":false,"rental_uris":{"android":"levelo://app?vid=2aace568-ac2f-49c7-9458-5246d5166cd0","ios":"levelo://app?vid=2aace568-ac2f-49c7-9458-5246d5166cd0"},"vehicle_type_id":"4","last_reported":1746699109,"current_range_meters":12800,"station_id":"ce4bhnh2rcd13ifvqgug","pricing_plan_id":"cebpf4jnsgd1na2vs0mg"},{"bike_id":"a84a514f-18db-4e97-a068-4d49458a4e78","system_id":"levelo_inurba_marseille","lat":43.21197,"lon":5.3507,"is_reserved":false,"is_disabled":false,"rental_uris":{"android":"levelo://app?vid=a84a514f-18db-4e97-a068-4d49458a4e78","ios":"levelo://app?vid=a84a514f-18db-4e97-a068-4d49458a4e78"},"vehicle_type_id":"4","last_reported":1746699109,"current_range_meters":12800,"station_id":"st_cvj6sg6p6f1abm77japg","pricing_plan_id":"cebpf4jnsgd1na2vs0mg"},{"bike_id":"598966a2-6041-4040-8490-74b3bb4c286a","system_id":"levelo_inurba_marseille","lat":43.30159,"lon":5.38083,"is_reserved":false,"is_disabled":false,"rental_uris":{"android":"levelo://app?vid=598966a2-6041-4040-8490-74b3bb4c286a","ios":"levelo://app?vid=598966a2-6041-4040-8490-74b3bb4c286a"},"vehicle_type_id":"4","last_reported":1746699109,"current_range_meters":13600,"station_id":"ce4bgjp2rcd13ifvqbh0","pricing_plan_id":"cebpf4jnsgd1na2vs0mg"},{"bike_id":"d6ab8a13-113f-4022-b533-5c629f379e12","system_id":"levelo_inurba_marseille","lat":43.30299,"lon":5.39201,"is_reserved":false,"is_disabled":false,"rental_uris":{"android":"levelo://app?vid=d6ab8a13-113f-4022-b533-5c629f379e12","ios":"levelo://app?vid=d6ab8a13-113f-4022-b533-5c629f379e12"},"vehicle_type_id":"4","last_reported":1746699109,"current_range_meters":13600,"station_id":"ce4bgkh2rcd13ifvqbk0","pricing_plan_id":"cebpf4jnsgd1na2vs0mg"},{"bike_id":"50fa5be1-2a41-4298-a976-48ea9cabb601","system_id":"levelo_inurba_marseille","lat":43.31121,"lon":5.37766,"is_reserved":false,"is_disabled":false,"rental_uris":{"android":"levelo://app?vid=50fa5be1-2a41-4298-a976-48ea9cabb601","ios":"levelo://app?vid=50fa5be1-2a41-4298-a976-48ea9cabb601"},"vehicle_type_id":"4","last_reported":1746699109,"current_range_meters":13600,"station_id":"ce4bgt92rcd13ifvqcg0","pricing_plan_id":"cebpf4jnsgd1na2vs0mg"},{"bike_id":"47cd9dba-9c5a-4de3-a27d-45ec0de547bc","system_id":"levelo_inurba_marseille","lat":43.28165,"lon":5.42655,"is_reserved":false,"is_disabled":false,"rental_uris":{"android":"levelo://app?vid=47cd9dba-9c5a-4de3-a27d-45ec0de547bc","ios":"levelo://app?vid=47cd9dba-9c5a-4de3-a27d-45ec0de547bc"},"vehicle_type_id":"4","last_reported":1746699109,"current_range_meters":13600,"station_id":"ce4bhnh2rcd13ifvqgug","pricing_plan_id":"cebpf4jnsgd1na2vs0mg"},{"bike_id":"6971f759-8594-489e-a8f6-9153c9a9c438","system_id":"levelo_inurba_marseille","lat":43.2769,"lon":5.41962,"is_reserved":false,"is_disabled":false,"rental_uris":{"android":"levelo://app?vid=6971f759-8594-489e-a8f6-9153c9a9c438","ios":"levelo://app?vid=6971f759-8594-489e-a8f6-9153c9a9c438"},"vehicle_type_id":"4","last_reported":1746699109,"current_range_meters":14000,"station_id":"","pricing_plan_id":"cebpf4jnsgd1na2vs0mg"},{"bike_id":"a42f51e9-8feb-443d-90b3-584864d37727","system_id":"levelo_inurba_marseille","lat":43.30601,"lon":5.37222,"is_reserved":false,"is_disabled":false,"rental_uris":{"android":"levelo://app?vid=a42f51e9-8feb-443d-90b3-584864d37727","ios":"levelo://app?vid=a42f51e9-8feb-443d-90b3-584864d37727"},"vehicle_type_id":"4","last_reported":1746699109,"current_range_meters":14000,"station_id":"ce4bgqh2rcd13ifvqc4g","pricing_plan_id":"cebpf4jnsgd1na2vs0mg"},{"bike_id":"a2da8896-d6c3-451f-bb1d-43c160b1a733","system_id":"levelo_inurba_marseille","lat":43.30886,"lon":5.3966,"is_reserved":false,"is_disabled":false,"rental_uris":{"android":"levelo://app?vid=a2da8896-d6c3-451f-bb1d-43c160b1a733","ios":"levelo://app?vid=a2da8896-d6c3-451f-bb1d-43c160b1a733"},"vehicle_type_id":"4","last_reported":1746699109,"current_range_meters":14000,"station_id":"ce4bh012rcd13ifvqcv0","pricing_plan_id":"cebpf4jnsgd1na2vs0mg"},{"bike_id":"08e6d0d3-2b92-4da2-ba2c-9fc9fe81f3fd","system_id":"levelo_inurba_marseille","lat":43.29436,"lon":5.39757,"is_reserved":false,"is_disabled":false,"rental_uris":{"android":"levelo://app?vid=08e6d0d3-2b92-4da2-ba2c-9fc9fe81f3fd","ios":"levelo://app?vid=08e6d0d3-2b92-4da2-ba2c-9fc9fe81f3fd"},"vehicle_type_id":"4","last_reported":1746699109,"current_range_meters":14000,"station_id":"ce4bh3h2rcd13ifvqdo0","pricing_plan_id":"cebpf4jnsgd1na2vs0mg"},{"bike_id":"caccb556-2ad0-45b8-84b8-819024dd44e6","system_id":"levelo_inurba_marseille","lat":43.29796,"lon":5.36791,"is_reserved":false,"is_disabled":false,"rental_uris":{"android":"levelo://app?vid=caccb556-2ad0-45b8-84b8-819024dd44e6","ios":"levelo://app?vid=caccb556-2ad0-45b8-84b8-819024dd44e6"},"vehicle_type_id":"4","last_reported":1746699109,"current_range_meters":14400,"station_id":"","pricing_plan_id":"cebpf4jnsgd1na2vs0mg"},{"bike_id":"e6282093-23fb-41a9-859d-c0d9ad966535","system_id":"levelo_inurba_marseille","lat":43.31733,"lon":5.37698,"is_reserved":false,"is_disabled":false,"rental_uris":{"android":"levelo://app?vid=e6282093-23fb-41a9-859d-c0d9ad966535","ios":"levelo://app?vid=e6282093-23fb-41a9-859d-c0d9ad966535"},"vehicle_type_id":"4","last_reported":1746699109,"current_range_meters":15200,"station_id":"ce4bgth2rcd13ifvqch0","pricing_plan_id":"cebpf4jnsgd1na2vs0mg"},{"bike_id":"ecf0bb74-358e-476f-85c4-525acb5855ed","system_id":"levelo_inurba_marseille","lat":43.26033,"lon":5.37548,"is_reserved":false,"is_disabled":false,"rental_uris":{"android":"levelo://app?vid=ecf0bb74-358e-476f-85c4-525acb5855ed","ios":"levelo://app?vid=ecf0bb74-358e-476f-85c4-525acb5855ed"},"vehicle_type_id":"4","last_reported":1746699109,"current_range_meters":16000,"station_id":"ce4bhgh2rcd13ifvqfa0","pricing_plan_id":"cebpf4jnsgd1na2vs0mg"},{"bike_id":"d1b2bde1-6a18-4f64-b9c9-6d69b81e0af1","system_id":"levelo_inurba_marseille","lat":43.31098,"lon":5.42452,"is_reserved":false,"is_disabled":false,"rental_uris":{"android":"levelo://app?vid=d1b2bde1-6a18-4f64-b9c9-6d69b81e0af1","ios":"levelo://app?vid=d1b2bde1-6a18-4f64-b9c9-6d69b81e0af1"},"vehicle_type_id":"4","last_reported":1746699109,"current_range_meters":16000,"station_id":"ce4bhp92rcd13ifvqhag","pricing_plan_id":"cebpf4jnsgd1na2vs0mg"},{"bike_id":"f445c132-9878-4a98-8363-cb9352f8bceb","system_id":"levelo_inurba_marseille","lat":43.286131,"lon":5.370638,"is_reserved":false,"is_disabled":false,"rental_uris":{"android":"levelo://app?vid=f445c132-9878-4a98-8363-cb9352f8bceb","ios":"levelo://app?vid=f445c132-9878-4a98-8363-cb9352f8bceb"},"vehicle_type_id":"4","last_reported":1746699109,"current_range_meters":16400,"station_id":"","pricing_plan_id":"cebpf4jnsgd1na2vs0mg"},{"bike_id":"70a29a45-574c-4ff1-aca3-740aa0e705be","system_id":"levelo_inurba_marseille","lat":43.24169,"lon":5.36392,"is_reserved":false,"is_disabled":false,"rental_uris":{"android":"levelo://app?vid=70a29a45-574c-4ff1-aca3-740aa0e705be","ios":"levelo://app?vid=70a29a45-574c-4ff1-aca3-740aa0e705be"},"vehicle_type_id":"4","last_reported":1746699109,"current_range_meters":16400,"station_id":"cpo36qri1sfpv3e86is0","pricing_plan_id":"cebpf4jnsgd1na2vs0mg"},{"bike_id":"2c11b640-817e-4020-a00b-64dfd6abfcc5","system_id":"levelo_inurba_marseille","lat":43.28156,"lon":5.42646,"is_reserved":false,"is_disabled":false,"rental_uris":{"android":"levelo://app?vid=2c11b640-817e-4020-a00b-64dfd6abfcc5","ios":"levelo://app?vid=2c11b640-817e-4020-a00b-64dfd6abfcc5"},"vehicle_type_id":"4","last_reported":1746699109,"current_range_meters":16800,"station_id":"ce4bhnh2rcd13ifvqgug","pricing_plan_id":"cebpf4jnsgd1na2vs0mg"},{"bike_id":"86faaeb0-89f8-42b9-be93-a34d16b7bcf7","system_id":"levelo_inurba_marseille","lat":43.30093,"lon":5.37006,"is_reserved":false,"is_disabled":false,"rental_uris":{"android":"levelo://app?vid=86faaeb0-89f8-42b9-be93-a34d16b7bcf7","ios":"levelo://app?vid=86faaeb0-89f8-42b9-be93-a34d16b7bcf7"},"vehicle_type_id":"4","last_reported":1746699109,"current_range_meters":17200,"station_id":"","pricing_plan_id":"cebpf4jnsgd1na2vs0mg"},{"bike_id":"57da039f-dcf9-478a-a32a-9d9eedbd8c72","system_id":"levelo_inurba_marseille","lat":43.30159,"lon":5.38091,"is_reserved":false,"is_disabled":false,"rental_uris":{"android":"levelo://app?vid=57da039f-dcf9-478a-a32a-9d9eedbd8c72","ios":"levelo://app?vid=57da039f-dcf9-478a-a32a-9d9eedbd8c72"},"vehicle_type_id":"4","last_reported":1746699109,"current_range_meters":17200,"station_id":"ce4bgjp2rcd13ifvqbh0","pricing_plan_id":"cebpf4jnsgd1na2vs0mg"},{"bike_id":"e9135506-ad92-4336-9c8f-389560d4b052","system_id":"levelo_inurba_marseille","lat":43.31383,"lon":5.38481,"is_reserved":false,"is_disabled":false,"rental_uris":{"android":"levelo://app?vid=e9135506-ad92-4336-9c8f-389560d4b052","ios":"levelo://app?vid=e9135506-ad92-4336-9c8f-389560d4b052"},"vehicle_type_id":"4","last_reported":1746699109,"current_range_meters":17200,"station_id":"ce4bgt92rcd13ifvqcf0","pricing_plan_id":"cebpf4jnsgd1na2vs0mg"},{"bike_id":"3cac0407-9710-44bd-a04a-af262a1048b3","system_id":"levelo_inurba_marseille","lat":43.28143,"lon":5.42683,"is_reserved":false,"is_disabled":false,"rental_uris":{"android":"levelo://app?vid=3cac0407-9710-44bd-a04a-af262a1048b3","ios":"levelo://app?vid=3cac0407-9710-44bd-a04a-af262a1048b3"},"vehicle_type_id":"4","last_reported":1746699109,"current_range_meters":17200,"station_id":"ce4bhnh2rcd13ifvqgug","pricing_plan_id":"cebpf4jnsgd1na2vs0mg"},{"bike_id":"a71a0dfc-7de8-44ee-9bb2-1e81dadd19e0","system_id":"levelo_inurba_marseille","lat":43.3171,"lon":5.43712,"is_reserved":false,"is_disabled":false,"rental_uris":{"android":"levelo://app?vid=a71a0dfc-7de8-44ee-9bb2-1e81dadd19e0","ios":"levelo://app?vid=a71a0dfc-7de8-44ee-9bb2-1e81dadd19e0"},"vehicle_type_id":"4","last_reported":1746699109,"current_range_meters":17600,"station_id":"ce4bhp92rcd13ifvqhcg","pricing_plan_id":"cebpf4jnsgd1na2vs0mg"},{"bike_id":"ba7183ad-5fbf-4c07-a429-4300cf28a162","system_id":"levelo_inurba_marseille","lat":43.341463,"lon":5.409097,"is_reserved":false,"is_disabled":false,"rental_uris":{"android":"levelo://app?vid=ba7183ad-5fbf-4c07-a429-4300cf28a162","ios":"levelo://app?vid=ba7183ad-5fbf-4c07-a429-4300cf28a162"},"vehicle_type_id":"4","last_reported":1746699109,"current_range_meters":17600,"station_id":"ce4bhqh2rcd13ifvqhlg","pricing_plan_id":"cebpf4jnsgd1na2vs0mg"},{"bike_id":"ff807334-3ad3-4e40-bbde-648eb2b1c45b","system_id":"levelo_inurba_marseille","lat":43.21195,"lon":5.3506,"is_reserved":false,"is_disabled":false,"rental_uris":{"android":"levelo://app?vid=ff807334-3ad3-4e40-bbde-648eb2b1c45b","ios":"levelo://app?vid=ff807334-3ad3-4e40-bbde-648eb2b1c45b"},"vehicle_type_id":"4","last_reported":1746699109,"current_range_meters":17600,"station_id":"st_cvj6sg6p6f1abm77japg","pricing_plan_id":"cebpf4jnsgd1na2vs0mg"},{"bike_id":"cb5561fb-3ed2-49bf-bd58-7c8862116c78","system_id":"levelo_inurba_marseille","lat":43.21217,"lon":5.3504,"is_reserved":false,"is_disabled":false,"rental_uris":{"android":"levelo://app?vid=cb5561fb-3ed2-49bf-bd58-7c8862116c78","ios":"levelo://app?vid=cb5561fb-3ed2-49bf-bd58-7c8862116c78"},"vehicle_type_id":"4","last_reported":1746699109,"current_range_meters":18000,"station_id":"","pricing_plan_id":"cebpf4jnsgd1na2vs0mg"},{"bike_id":"075f53e3-13fc-487b-b968-cd47b0512c28","system_id":"levelo_inurba_marseille","lat":43.30608,"lon":5.37223,"is_reserved":false,"is_disabled":false,"rental_uris":{"android":"levelo://app?vid=075f53e3-13fc-487b-b968-cd47b0512c28","ios":"levelo://app?vid=075f53e3-13fc-487b-b968-cd47b0512c28"},"vehicle_type_id":"4","last_reported":1746699109,"current_range_meters":18000,"station_id":"ce4bgqh2rcd13ifvqc4g","pricing_plan_id":"cebpf4jnsgd1na2vs0mg"},{"bike_id":"14fa3dfe-00ea-440f-b998-4876767c040c","system_id":"levelo_inurba_marseille","lat":43.25002,"lon":5.38931,"is_reserved":false,"is_disabled":false,"rental_uris":{"android":"levelo://app?vid=14fa3dfe-00ea-440f-b998-4876767c040c","ios":"levelo://app?vid=14fa3dfe-00ea-440f-b998-4876767c040c"},"vehicle_type_id":"4","last_reported":1746699109,"current_range_meters":18000,"station_id":"ce4bhgp2rcd13ifvqfd0","pricing_plan_id":"cebpf4jnsgd1na2vs0mg"},{"bike_id":"491b01a9-133a-44ca-a8cd-a2b3235dd33a","system_id":"levelo_inurba_marseille","lat":43.22921,"lon":5.35366,"is_reserved":false,"is_disabled":false,"rental_uris":{"android":"levelo://app?vid=491b01a9-133a-44ca-a8cd-a2b3235dd33a","ios":"levelo://app?vid=491b01a9-133a-44ca-a8cd-a2b3235dd33a"},"vehicle_type_id":"4","last_reported":1746699109,"current_range_meters":18000,"station_id":"cpo3532slgdg3j2ikp40","pricing_plan_id":"cebpf4jnsgd1na2vs0mg"},{"bike_id":"95407fdd-6b53-4c42-85f7-ee3e66f21b13","system_id":"levelo_inurba_marseille","lat":43.24331,"lon":5.38005,"is_reserved":false,"is_disabled":false,"rental_uris":{"android":"levelo://app?vid=95407fdd-6b53-4c42-85f7-ee3e66f21b13","ios":"levelo://app?vid=95407fdd-6b53-4c42-85f7-ee3e66f21b13"},"vehicle_type_id":"4","last_reported":1746699109,"current_range_meters":18800,"station_id":"","pricing_plan_id":"cebpf4jnsgd1na2vs0mg"},{"bike_id":"bda5be8e-0919-47ea-aae0-c476c63ec293","system_id":"levelo_inurba_marseille","lat":43.30557,"lon":5.38436,"is_reserved":false,"is_disabled":false,"rental_uris":{"android":"levelo://app?vid=bda5be8e-0919-47ea-aae0-c476c63ec293","ios":"levelo://app?vid=bda5be8e-0919-47ea-aae0-c476c63ec293"},"vehicle_type_id":"4","last_reported":1746699109,"current_range_meters":18800,"station_id":"ce4bgg92rcd13ifvqb30","pricing_plan_id":"cebpf4jnsgd1na2vs0mg"},{"bike_id":"d6b2d821-11c6-400c-b391-1775e336ab8f","system_id":"levelo_inurba_marseille","lat":43.31119,"lon":5.37783,"is_reserved":false,"is_disabled":false,"rental_uris":{"android":"levelo://app?vid=d6b2d821-11c6-400c-b391-1775e336ab8f","ios":"levelo://app?vid=d6b2d821-11c6-400c-b391-1775e336ab8f"},"vehicle_type_id":"4","last_reported":1746699109,"current_range_meters":18800,"station_id":"ce4bgt92rcd13ifvqcg0","pricing_plan_id":"cebpf4jnsgd1na2vs0mg"},{"bike_id":"9b4e627d-2fde-49a6-98f2-ffa93515dffa","system_id":"levelo_inurba_marseille","lat":43.31078,"lon":5.38356,"is_reserved":false,"is_disabled":false,"rental_uris":{"android":"levelo://app?vid=9b4e627d-2fde-49a6-98f2-ffa93515dffa","ios":"levelo://app?vid=9b4e627d-2fde-49a6-98f2-ffa93515dffa"},"vehicle_type_id":"4","last_reported":1746699109,"current_range_meters":18800,"station_id":"ce4bgv92rcd13ifvqcr0","pricing_plan_id":"cebpf4jnsgd1na2vs0mg"},{"bike_id":"13dcf47e-4a64-4b90-9425-15abaa7b6175","system_id":"levelo_inurba_marseille","lat":43.21195,"lon":5.35074,"is_reserved":false,"is_disabled":false,"rental_uris":{"android":"levelo://app?vid=13dcf47e-4a64-4b90-9425-15abaa7b6175","ios":"levelo://app?vid=13dcf47e-4a64-4b90-9425-15abaa7b6175"},"vehicle_type_id":"4","last_reported":1746699109,"current_range_meters":18800,"station_id":"st_cvj6sg6p6f1abm77japg","pricing_plan_id":"cebpf4jnsgd1na2vs0mg"},{"bike_id":"c821e32e-d925-441c-80d2-d5a984744aba","system_id":"levelo_inurba_marseille","lat":43.21197,"lon":5.3506,"is_reserved":false,"is_disabled":false,"rental_uris":{"android":"levelo://app?vid=c821e32e-d925-441c-80d2-d5a984744aba","ios":"levelo://app?vid=c821e32e-d925-441c-80d2-d5a984744aba"},"vehicle_type_id":"4","last_reported":1746699109,"current_range_meters":18800,"station_id":"st_cvj6sg6p6f1abm77japg","pricing_plan_id":"cebpf4jnsgd1na2vs0mg"},{"bike_id":"5ca9ff39-cef2-41ce-9027-8092cb4b099a","system_id":"levelo_inurba_marseille","lat":43.29577,"lon":5.37525,"is_reserved":false,"is_disabled":false,"rental_uris":{"android":"levelo://app?vid=5ca9ff39-cef2-41ce-9027-8092cb4b099a","ios":"levelo://app?vid=5ca9ff39-cef2-41ce-9027-8092cb4b099a"},"vehicle_type_id":"4","last_reported":1746699109,"current_range_meters":19200,"station_id":"ce4bgh92rcd13ifvqb50","pricing_plan_id":"cebpf4jnsgd1na2vs0mg"},{"bike_id":"90dd7ece-e0e3-4e3f-8585-4f4f345a0f96","system_id":"levelo_inurba_marseille","lat":43.31724,"lon":5.40435,"is_reserved":false,"is_disabled":false,"rental_uris":{"android":"levelo://app?vid=90dd7ece-e0e3-4e3f-8585-4f4f345a0f96","ios":"levelo://app?vid=90dd7ece-e0e3-4e3f-8585-4f4f345a0f96"},"vehicle_type_id":"4","last_reported":1746699109,"current_range_meters":19200,"station_id":"ce4bh012rcd13ifvqd00","pricing_plan_id":"cebpf4jnsgd1na2vs0mg"},{"bike_id":"c00b4dc3-faff-4d5a-88c8-7b701ca8bbe6","system_id":"levelo_inurba_marseille","lat":43.316993,"lon":5.40435,"is_reserved":false,"is_disabled":false,"rental_uris":{"android":"levelo://app?vid=c00b4dc3-faff-4d5a-88c8-7b701ca8bbe6","ios":"levelo://app?vid=c00b4dc3-faff-4d5a-88c8-7b701ca8bbe6"},"vehicle_type_id":"4","last_reported":1746699109,"current_range_meters":19200,"station_id":"ce4bh012rcd13ifvqd00","pricing_plan_id":"cebpf4jnsgd1na2vs0mg"},{"bike_id":"bd1983ca-78f8-49f5-aaf8-39b52d4037d0","system_id":"levelo_inurba_marseille","lat":43.23148,"lon":5.43703,"is_reserved":false,"is_disabled":false,"rental_uris":{"android":"levelo://app?vid=bd1983ca-78f8-49f5-aaf8-39b52d4037d0","ios":"levelo://app?vid=bd1983ca-78f8-49f5-aaf8-39b52d4037d0"},"vehicle_type_id":"4","last_reported":1746699109,"current_range_meters":19200,"station_id":"ce4bhmp2rcd13ifvqgog","pricing_plan_id":"cebpf4jnsgd1na2vs0mg"},{"bike_id":"0abbab51-139a-4311-9127-a7590c41c6f1","system_id":"levelo_inurba_marseille","lat":43.23194,"lon":5.35556,"is_reserved":false,"is_disabled":false,"rental_uris":{"android":"levelo://app?vid=0abbab51-139a-4311-9127-a7590c41c6f1","ios":"levelo://app?vid=0abbab51-139a-4311-9127-a7590c41c6f1"},"vehicle_type_id":"4","last_reported":1746699109,"current_range_meters":19200,"station_id":"ce4bhu92rcd13ifvqi70","pricing_plan_id":"cebpf4jnsgd1na2vs0mg"},{"bike_id":"42b090f1-37d0-4855-a63e-e992c8881ee8","system_id":"levelo_inurba_marseille","lat":43.30604,"lon":5.37226,"is_reserved":false,"is_disabled":false,"rental_uris":{"android":"levelo://app?vid=42b090f1-37d0-4855-a63e-e992c8881ee8","ios":"levelo://app?vid=42b090f1-37d0-4855-a63e-e992c8881ee8"},"vehicle_type_id":"4","last_reported":1746699109,"current_range_meters":19600,"station_id":"ce4bgqh2rcd13ifvqc4g","pricing_plan_id":"cebpf4jnsgd1na2vs0mg"},{"bike_id":"8b67f769-40ae-4ee5-bb96-3acc7471f2ec","system_id":"levelo_inurba_marseille","lat":43.26554,"lon":5.3728,"is_reserved":false,"is_disabled":false,"rental_uris":{"android":"levelo://app?vid=8b67f769-40ae-4ee5-bb96-3acc7471f2ec","ios":"levelo://app?vid=8b67f769-40ae-4ee5-bb96-3acc7471f2ec"},"vehicle_type_id":"4","last_reported":1746699109,"current_range_meters":19600,"station_id":"ce4bhg12rcd13ifvqf70","pricing_plan_id":"cebpf4jnsgd1na2vs0mg"},{"bike_id":"72c714fe-a0de-42e3-a30e-f198dc7536fd","system_id":"levelo_inurba_marseille","lat":43.21759,"lon":5.34607,"is_reserved":false,"is_disabled":false,"rental_uris":{"android":"levelo://app?vid=72c714fe-a0de-42e3-a30e-f198dc7536fd","ios":"levelo://app?vid=72c714fe-a0de-42e3-a30e-f198dc7536fd"},"vehicle_type_id":"4","last_reported":1746699109,"current_range_meters":19600,"station_id":"st_cvj6r9ubvosntc0bgbag","pricing_plan_id":"cebpf4jnsgd1na2vs0mg"},{"bike_id":"5a66b016-8425-4ea9-ad57-b6177cc96802","system_id":"levelo_inurba_marseille","lat":43.31573,"lon":5.3887,"is_reserved":false,"is_disabled":false,"rental_uris":{"android":"levelo://app?vid=5a66b016-8425-4ea9-ad57-b6177cc96802","ios":"levelo://app?vid=5a66b016-8425-4ea9-ad57-b6177cc96802"},"vehicle_type_id":"4","last_reported":1746699109,"current_range_meters":20000,"station_id":"","pricing_plan_id":"cebpf4jnsgd1na2vs0mg"},{"bike_id":"08f13c7a-2eb9-4abf-8400-826a57aabaef","system_id":"levelo_inurba_marseille","lat":43.31679,"lon":5.37266,"is_reserved":false,"is_disabled":false,"rental_uris":{"android":"levelo://app?vid=08f13c7a-2eb9-4abf-8400-826a57aabaef","ios":"levelo://app?vid=08f13c7a-2eb9-4abf-8400-826a57aabaef"},"vehicle_type_id":"4","last_reported":1746699109,"current_range_meters":20000,"station_id":"","pricing_plan_id":"cebpf4jnsgd1na2vs0mg"},{"bike_id":"581b3861-1178-4408-9699-be6ba7a5dad2","system_id":"levelo_inurba_marseille","lat":43.29599,"lon":5.38103,"is_reserved":false,"is_disabled":false,"rental_uris":{"android":"levelo://app?vid=581b3861-1178-4408-9699-be6ba7a5dad2","ios":"levelo://app?vid=581b3861-1178-4408-9699-be6ba7a5dad2"},"vehicle_type_id":"4","last_reported":1746699109,"current_range_meters":20400,"station_id":"ce4bgl12rcd13ifvqbo0","pricing_plan_id":"cebpf4jnsgd1na2vs0mg"},{"bike_id":"41cf0031-ed97-482a-9a64-ebd273fd140f","system_id":"levelo_inurba_marseille","lat":43.31277,"lon":5.40182,"is_reserved":false,"is_disabled":false,"rental_uris":{"android":"levelo://app?vid=41cf0031-ed97-482a-9a64-ebd273fd140f","ios":"levelo://app?vid=41cf0031-ed97-482a-9a64-ebd273fd140f"},"vehicle_type_id":"4","last_reported":1746699109,"current_range_meters":20400,"station_id":"ce4bh092rcd13ifvqd30","pricing_plan_id":"cebpf4jnsgd1na2vs0mg"},{"bike_id":"fec557ac-de21-45f0-bd27-ab2d52a5ef33","system_id":"levelo_inurba_marseille","lat":43.25112,"lon":5.40324,"is_reserved":false,"is_disabled":false,"rental_uris":{"android":"levelo://app?vid=fec557ac-de21-45f0-bd27-ab2d52a5ef33","ios":"levelo://app?vid=fec557ac-de21-45f0-bd27-ab2d52a5ef33"},"vehicle_type_id":"4","last_reported":1746699109,"current_range_meters":20400,"station_id":"ce4bhlh2rcd13ifvqgig","pricing_plan_id":"cebpf4jnsgd1na2vs0mg"},{"bike_id":"3cd0d9c0-4e4b-49bf-a949-abfaf2d502a6","system_id":"levelo_inurba_marseille","lat":43.231871,"lon":5.400044,"is_reserved":false,"is_disabled":false,"rental_uris":{"android":"levelo://app?vid=3cd0d9c0-4e4b-49bf-a949-abfaf2d502a6","ios":"levelo://app?vid=3cd0d9c0-4e4b-49bf-a949-abfaf2d502a6"},"vehicle_type_id":"4","last_reported":1746699109,"current_range_meters":20400,"station_id":"ce4bhn12rcd13ifvqgqg","pricing_plan_id":"cebpf4jnsgd1na2vs0mg"},{"bike_id":"fbdc470a-f9f3-40c7-9bda-da42f0f6d12e","system_id":"levelo_inurba_marseille","lat":43.31363,"lon":5.3851,"is_reserved":false,"is_disabled":false,"rental_uris":{"android":"levelo://app?vid=fbdc470a-f9f3-40c7-9bda-da42f0f6d12e","ios":"levelo://app?vid=fbdc470a-f9f3-40c7-9bda-da42f0f6d12e"},"vehicle_type_id":"4","last_reported":1746699109,"current_range_meters":20800,"station_id":"ce4bgt92rcd13ifvqcf0","pricing_plan_id":"cebpf4jnsgd1na2vs0mg"},{"bike_id":"f1dd7bf4-aed1-47a1-a798-92e38ddd2af5","system_id":"levelo_inurba_marseille","lat":43.26567,"lon":5.3729,"is_reserved":false,"is_disabled":false,"rental_uris":{"android":"levelo://app?vid=f1dd7bf4-aed1-47a1-a798-92e38ddd2af5","ios":"levelo://app?vid=f1dd7bf4-aed1-47a1-a798-92e38ddd2af5"},"vehicle_type_id":"4","last_reported":1746699109,"current_range_meters":20800,"station_id":"ce4bhg12rcd13ifvqf70","pricing_plan_id":"cebpf4jnsgd1na2vs0mg"},{"bike_id":"5f951542-f9d4-46ee-891d-41ac12157db1","system_id":"levelo_inurba_marseille","lat":43.25867,"lon":5.39352,"is_reserved":false,"is_disabled":false,"rental_uris":{"android":"levelo://app?vid=5f951542-f9d4-46ee-891d-41ac12157db1","ios":"levelo://app?vid=5f951542-f9d4-46ee-891d-41ac12157db1"},"vehicle_type_id":"4","last_reported":1746699109,"current_range_meters":20800,"station_id":"ce4bhip2rcd13ifvqft0","pricing_plan_id":"cebpf4jnsgd1na2vs0mg"},{"bike_id":"ae78d22c-01f1-43c3-bc3a-b893d06ddce0","system_id":"levelo_inurba_marseille","lat":43.317104,"lon":5.437102,"is_reserved":false,"is_disabled":false,"rental_uris":{"android":"levelo://app?vid=ae78d22c-01f1-43c3-bc3a-b893d06ddce0","ios":"levelo://app?vid=ae78d22c-01f1-43c3-bc3a-b893d06ddce0"},"vehicle_type_id":"4","last_reported":1746699109,"current_range_meters":21600,"station_id":"","pricing_plan_id":"cebpf4jnsgd1na2vs0mg"},{"bike_id":"996bb67f-cf24-4ba4-a6ca-31f1cccced57","system_id":"levelo_inurba_marseille","lat":43.28615,"lon":5.35105,"is_reserved":false,"is_disabled":false,"rental_uris":{"android":"levelo://app?vid=996bb67f-cf24-4ba4-a6ca-31f1cccced57","ios":"levelo://app?vid=996bb67f-cf24-4ba4-a6ca-31f1cccced57"},"vehicle_type_id":"4","last_reported":1746699109,"current_range_meters":21600,"station_id":"ce4bhch2rcd13ifvqeug","pricing_plan_id":"cebpf4jnsgd1na2vs0mg"},{"bike_id":"402042cd-a5e5-4e40-aea3-18a9d8f28bf4","system_id":"levelo_inurba_marseille","lat":43.23154,"lon":5.43706,"is_reserved":false,"is_disabled":false,"rental_uris":{"android":"levelo://app?vid=402042cd-a5e5-4e40-aea3-18a9d8f28bf4","ios":"levelo://app?vid=402042cd-a5e5-4e40-aea3-18a9d8f28bf4"},"vehicle_type_id":"4","last_reported":1746699109,"current_range_meters":21600,"station_id":"ce4bhmp2rcd13ifvqgog","pricing_plan_id":"cebpf4jnsgd1na2vs0mg"},{"bike_id":"20815678-752f-46d9-85ce-1a5375040e37","system_id":"levelo_inurba_marseille","lat":43.28611,"lon":5.37067,"is_reserved":false,"is_disabled":false,"rental_uris":{"android":"levelo://app?vid=20815678-752f-46d9-85ce-1a5375040e37","ios":"levelo://app?vid=20815678-752f-46d9-85ce-1a5375040e37"},"vehicle_type_id":"4","last_reported":1746699109,"current_range_meters":21600,"station_id":"ce4bht12rcd13ifvqi60","pricing_plan_id":"cebpf4jnsgd1na2vs0mg"},{"bike_id":"419c5dbe-34d3-4582-82e2-f989bd0d6adb","system_id":"levelo_inurba_marseille","lat":43.30526,"lon":5.36716,"is_reserved":false,"is_disabled":false,"rental_uris":{"android":"levelo://app?vid=419c5dbe-34d3-4582-82e2-f989bd0d6adb","ios":"levelo://app?vid=419c5dbe-34d3-4582-82e2-f989bd0d6adb"},"vehicle_type_id":"4","last_reported":1746699109,"current_range_meters":22000,"station_id":"ce4bgrp2rcd13ifvqc9g","pricing_plan_id":"cebpf4jnsgd1na2vs0mg"},{"bike_id":"4c6d34c6-ee8f-49a3-b531-60f5fc09e09d","system_id":"levelo_inurba_marseille","lat":43.31071,"lon":5.38361,"is_reserved":false,"is_disabled":false,"rental_uris":{"android":"levelo://app?vid=4c6d34c6-ee8f-49a3-b531-60f5fc09e09d","ios":"levelo://app?vid=4c6d34c6-ee8f-49a3-b531-60f5fc09e09d"},"vehicle_type_id":"4","last_reported":1746699109,"current_range_meters":22000,"station_id":"ce4bgv92rcd13ifvqcr0","pricing_plan_id":"cebpf4jnsgd1na2vs0mg"},{"bike_id":"3ad9f384-5f18-4dc4-b285-5cbb0e982e0a","system_id":"levelo_inurba_marseille","lat":43.23164,"lon":5.4371,"is_reserved":false,"is_disabled":false,"rental_uris":{"android":"levelo://app?vid=3ad9f384-5f18-4dc4-b285-5cbb0e982e0a","ios":"levelo://app?vid=3ad9f384-5f18-4dc4-b285-5cbb0e982e0a"},"vehicle_type_id":"4","last_reported":1746699109,"current_range_meters":22000,"station_id":"ce4bhmp2rcd13ifvqgog","pricing_plan_id":"cebpf4jnsgd1na2vs0mg"},{"bike_id":"d1107ecd-be4f-458d-a1cd-17553b1323a8","system_id":"levelo_inurba_marseille","lat":43.21488,"lon":5.34819,"is_reserved":false,"is_disabled":false,"rental_uris":{"android":"levelo://app?vid=d1107ecd-be4f-458d-a1cd-17553b1323a8","ios":"levelo://app?vid=d1107ecd-be4f-458d-a1cd-17553b1323a8"},"vehicle_type_id":"4","last_reported":1746699109,"current_range_meters":22400,"station_id":"","pricing_plan_id":"cebpf4jnsgd1na2vs0mg"},{"bike_id":"f597e4b6-c723-45d1-a62d-164b4d4c53ce","system_id":"levelo_inurba_marseille","lat":43.31367,"lon":5.38496,"is_reserved":false,"is_disabled":false,"rental_uris":{"android":"levelo://app?vid=f597e4b6-c723-45d1-a62d-164b4d4c53ce","ios":"levelo://app?vid=f597e4b6-c723-45d1-a62d-164b4d4c53ce"},"vehicle_type_id":"4","last_reported":1746699109,"current_range_meters":22400,"station_id":"ce4bgt92rcd13ifvqcf0","pricing_plan_id":"cebpf4jnsgd1na2vs0mg"},{"bike_id":"28eb0d0b-388b-4abd-8e13-f1553940febb","system_id":"levelo_inurba_marseille","lat":43.28572,"lon":5.39503,"is_reserved":false,"is_disabled":false,"rental_uris":{"android":"levelo://app?vid=28eb0d0b-388b-4abd-8e13-f1553940febb","ios":"levelo://app?vid=28eb0d0b-388b-4abd-8e13-f1553940febb"},"vehicle_type_id":"4","last_reported":1746699109,"current_range_meters":22400,"station_id":"ce4bh292rcd13ifvqdg0","pricing_plan_id":"cebpf4jnsgd1na2vs0mg"},{"bike_id":"db135363-de23-4704-b3a2-384149a5ee19","system_id":"levelo_inurba_marseille","lat":43.28415,"lon":5.34992,"is_reserved":false,"is_disabled":false,"rental_uris":{"android":"levelo://app?vid=db135363-de23-4704-b3a2-384149a5ee19","ios":"levelo://app?vid=db135363-de23-4704-b3a2-384149a5ee19"},"vehicle_type_id":"4","last_reported":1746699109,"current_range_meters":22400,"station_id":"ce4bhbh2rcd13ifvqepg","pricing_plan_id":"cebpf4jnsgd1na2vs0mg"},{"bike_id":"36e5f1f8-088e-4628-8d61-2fdc8e032259","system_id":"levelo_inurba_marseille","lat":43.25002,"lon":5.38922,"is_reserved":false,"is_disabled":false,"rental_uris":{"android":"levelo://app?vid=36e5f1f8-088e-4628-8d61-2fdc8e032259","ios":"levelo://app?vid=36e5f1f8-088e-4628-8d61-2fdc8e032259"},"vehicle_type_id":"4","last_reported":1746699109,"current_range_meters":22400,"station_id":"ce4bhgp2rcd13ifvqfd0","pricing_plan_id":"cebpf4jnsgd1na2vs0mg"},{"bike_id":"6536cb6e-d928-4440-9089-a7deb10c7d96","system_id":"levelo_inurba_marseille","lat":43.24164,"lon":5.36396,"is_reserved":false,"is_disabled":false,"rental_uris":{"android":"levelo://app?vid=6536cb6e-d928-4440-9089-a7deb10c7d96","ios":"levelo://app?vid=6536cb6e-d928-4440-9089-a7deb10c7d96"},"vehicle_type_id":"4","last_reported":1746699109,"current_range_meters":22400,"station_id":"cpo36qri1sfpv3e86is0","pricing_plan_id":"cebpf4jnsgd1na2vs0mg"},{"bike_id":"c1041c9f-2085-470a-b13c-f88fd8323115","system_id":"levelo_inurba_marseille","lat":43.27759,"lon":5.38678,"is_reserved":false,"is_disabled":false,"rental_uris":{"android":"levelo://app?vid=c1041c9f-2085-470a-b13c-f88fd8323115","ios":"levelo://app?vid=c1041c9f-2085-470a-b13c-f88fd8323115"},"vehicle_type_id":"4","last_reported":1746699109,"current_range_meters":22800,"station_id":"","pricing_plan_id":"cebpf4jnsgd1na2vs0mg"},{"bike_id":"c8de0cc1-3523-460d-930f-1076d087014f","system_id":"levelo_inurba_marseille","lat":43.29975,"lon":5.38491,"is_reserved":false,"is_disabled":false,"rental_uris":{"android":"levelo://app?vid=c8de0cc1-3523-460d-930f-1076d087014f","ios":"levelo://app?vid=c8de0cc1-3523-460d-930f-1076d087014f"},"vehicle_type_id":"4","last_reported":1746699109,"current_range_meters":22800,"station_id":"ce4bgj92rcd13ifvqbd0","pricing_plan_id":"cebpf4jnsgd1na2vs0mg"},{"bike_id":"7038efd0-12d5-4262-91a1-3e6214d6398e","system_id":"levelo_inurba_marseille","lat":43.290964,"lon":5.381329,"is_reserved":false,"is_disabled":false,"rental_uris":{"android":"levelo://app?vid=7038efd0-12d5-4262-91a1-3e6214d6398e","ios":"levelo://app?vid=7038efd0-12d5-4262-91a1-3e6214d6398e"},"vehicle_type_id":"4","last_reported":1746699109,"current_range_meters":22800,"station_id":"ce4bh512rcd13ifvqe2g","pricing_plan_id":"cebpf4jnsgd1na2vs0mg"},{"bike_id":"8556e935-e456-46d1-bbee-67d8c63efb21","system_id":"levelo_inurba_marseille","lat":43.26557,"lon":5.37292,"is_reserved":false,"is_disabled":false,"rental_uris":{"android":"levelo://app?vid=8556e935-e456-46d1-bbee-67d8c63efb21","ios":"levelo://app?vid=8556e935-e456-46d1-bbee-67d8c63efb21"},"vehicle_type_id":"4","last_reported":1746699109,"current_range_meters":22800,"station_id":"ce4bhg12rcd13ifvqf70","pricing_plan_id":"cebpf4jnsgd1na2vs0mg"},{"bike_id":"081e31e4-a568-4d25-a88e-83085c5e0d76","system_id":"levelo_inurba_marseille","lat":43.26582,"lon":5.373,"is_reserved":false,"is_disabled":false,"rental_uris":{"android":"levelo://app?vid=081e31e4-a568-4d25-a88e-83085c5e0d76","ios":"levelo://app?vid=081e31e4-a568-4d25-a88e-83085c5e0d76"},"vehicle_type_id":"4","last_reported":1746699109,"current_range_meters":22800,"station_id":"ce4bhg12rcd13ifvqf70","pricing_plan_id":"cebpf4jnsgd1na2vs0mg"},{"bike_id":"83a50b95-d68b-4f37-b42f-f4b6d18160f2","system_id":"levelo_inurba_marseille","lat":43.25938,"lon":5.40883,"is_reserved":false,"is_disabled":false,"rental_uris":{"android":"levelo://app?vid=83a50b95-d68b-4f37-b42f-f4b6d18160f2","ios":"levelo://app?vid=83a50b95-d68b-4f37-b42f-f4b6d18160f2"},"vehicle_type_id":"4","last_reported":1746699109,"current_range_meters":22800,"station_id":"ce4bhm92rcd13ifvqglg","pricing_plan_id":"cebpf4jnsgd1na2vs0mg"},{"bike_id":"b3760498-b1b6-4e68-8ceb-b409d62070db","system_id":"levelo_inurba_marseille","lat":43.28423,"lon":5.34978,"is_reserved":false,"is_disabled":false,"rental_uris":{"android":"levelo://app?vid=b3760498-b1b6-4e68-8ceb-b409d62070db","ios":"levelo://app?vid=b3760498-b1b6-4e68-8ceb-b409d62070db"},"vehicle_type_id":"4","last_reported":1746699109,"current_range_meters":23200,"station_id":"ce4bhbh2rcd13ifvqepg","pricing_plan_id":"cebpf4jnsgd1na2vs0mg"},{"bike_id":"32ec615e-94db-41f5-9f55-9ba60877b677","system_id":"levelo_inurba_marseille","lat":43.28408,"lon":5.349828,"is_reserved":false,"is_disabled":false,"rental_uris":{"android":"levelo://app?vid=32ec615e-94db-41f5-9f55-9ba60877b677","ios":"levelo://app?vid=32ec615e-94db-41f5-9f55-9ba60877b677"},"vehicle_type_id":"4","last_reported":1746699109,"current_range_meters":23200,"station_id":"ce4bhbh2rcd13ifvqepg","pricing_plan_id":"cebpf4jnsgd1na2vs0mg"},{"bike_id":"82c0b4f3-fbcb-42f9-a414-e06d7844fc5c","system_id":"levelo_inurba_marseille","lat":43.2509,"lon":5.39499,"is_reserved":false,"is_disabled":false,"rental_uris":{"android":"levelo://app?vid=82c0b4f3-fbcb-42f9-a414-e06d7844fc5c","ios":"levelo://app?vid=82c0b4f3-fbcb-42f9-a414-e06d7844fc5c"},"vehicle_type_id":"4","last_reported":1746699109,"current_range_meters":23200,"station_id":"ce4bhm12rcd13ifvqgkg","pricing_plan_id":"cebpf4jnsgd1na2vs0mg"},{"bike_id":"13e3bd5c-b152-47f8-aef3-5e7bd7552f6b","system_id":"levelo_inurba_marseille","lat":43.24176,"lon":5.39716,"is_reserved":false,"is_disabled":false,"rental_uris":{"android":"levelo://app?vid=13e3bd5c-b152-47f8-aef3-5e7bd7552f6b","ios":"levelo://app?vid=13e3bd5c-b152-47f8-aef3-5e7bd7552f6b"},"vehicle_type_id":"4","last_reported":1746699109,"current_range_meters":23200,"station_id":"ce4bhn12rcd13ifvqgpg","pricing_plan_id":"cebpf4jnsgd1na2vs0mg"},{"bike_id":"92bbf126-0b89-40ef-8960-9b37d0b96583","system_id":"levelo_inurba_marseille","lat":43.27938,"lon":5.41041,"is_reserved":false,"is_disabled":false,"rental_uris":{"android":"levelo://app?vid=92bbf126-0b89-40ef-8960-9b37d0b96583","ios":"levelo://app?vid=92bbf126-0b89-40ef-8960-9b37d0b96583"},"vehicle_type_id":"4","last_reported":1746699109,"current_range_meters":23200,"station_id":"ce4bhnp2rcd13ifvqh0g","pricing_plan_id":"cebpf4jnsgd1na2vs0mg"},{"bike_id":"52631938-a29e-4c80-9b6e-6eaf75695676","system_id":"levelo_inurba_marseille","lat":43.21191,"lon":5.35066,"is_reserved":false,"is_disabled":false,"rental_uris":{"android":"levelo://app?vid=52631938-a29e-4c80-9b6e-6eaf75695676","ios":"levelo://app?vid=52631938-a29e-4c80-9b6e-6eaf75695676"},"vehicle_type_id":"4","last_reported":1746699109,"current_range_meters":23200,"station_id":"st_cvj6sg6p6f1abm77japg","pricing_plan_id":"cebpf4jnsgd1na2vs0mg"},{"bike_id":"e1c08506-ad8a-480f-8487-a03c683ac583","system_id":"levelo_inurba_marseille","lat":43.31174,"lon":5.38713,"is_reserved":false,"is_disabled":false,"rental_uris":{"android":"levelo://app?vid=e1c08506-ad8a-480f-8487-a03c683ac583","ios":"levelo://app?vid=e1c08506-ad8a-480f-8487-a03c683ac583"},"vehicle_type_id":"4","last_reported":1746699109,"current_range_meters":24000,"station_id":"ce4bgv12rcd13ifvqcp0","pricing_plan_id":"cebpf4jnsgd1na2vs0mg"},{"bike_id":"9a1d81ba-a9db-4954-b060-18a28d91d9ea","system_id":"levelo_inurba_marseille","lat":43.29009,"lon":5.35621,"is_reserved":false,"is_disabled":false,"rental_uris":{"android":"levelo://app?vid=9a1d81ba-a9db-4954-b060-18a28d91d9ea","ios":"levelo://app?vid=9a1d81ba-a9db-4954-b060-18a28d91d9ea"},"vehicle_type_id":"4","last_reported":1746699109,"current_range_meters":24000,"station_id":"ce4bhb92rcd13ifvqen0","pricing_plan_id":"cebpf4jnsgd1na2vs0mg"},{"bike_id":"e6c78a5f-38c0-461c-be9c-4ec508342459","system_id":"levelo_inurba_marseille","lat":43.28416,"lon":5.34979,"is_reserved":false,"is_disabled":false,"rental_uris":{"android":"levelo://app?vid=e6c78a5f-38c0-461c-be9c-4ec508342459","ios":"levelo://app?vid=e6c78a5f-38c0-461c-be9c-4ec508342459"},"vehicle_type_id":"4","last_reported":1746699109,"current_range_meters":24000,"station_id":"ce4bhbh2rcd13ifvqepg","pricing_plan_id":"cebpf4jnsgd1na2vs0mg"},{"bike_id":"b63f299d-cbcf-4d39-abc3-66e12d7e81d9","system_id":"levelo_inurba_marseille","lat":43.28268,"lon":5.35108,"is_reserved":false,"is_disabled":false,"rental_uris":{"android":"levelo://app?vid=b63f299d-cbcf-4d39-abc3-66e12d7e81d9","ios":"levelo://app?vid=b63f299d-cbcf-4d39-abc3-66e12d7e81d9"},"vehicle_type_id":"4","last_reported":1746699109,"current_range_meters":24000,"station_id":"ce4bhbp2rcd13ifvqerg","pricing_plan_id":"cebpf4jnsgd1na2vs0mg"},{"bike_id":"832db053-d170-40a5-bb95-87fd05d85bd1","system_id":"levelo_inurba_marseille","lat":43.25507,"lon":5.37653,"is_reserved":false,"is_disabled":false,"rental_uris":{"android":"levelo://app?vid=832db053-d170-40a5-bb95-87fd05d85bd1","ios":"levelo://app?vid=832db053-d170-40a5-bb95-87fd05d85bd1"},"vehicle_type_id":"4","last_reported":1746699109,"current_range_meters":24000,"station_id":"ce4bhh12rcd13ifvqff0","pricing_plan_id":"cebpf4jnsgd1na2vs0mg"},{"bike_id":"d450ba3c-0f86-4797-9f1a-eddde4f0a224","system_id":"levelo_inurba_marseille","lat":43.25114,"lon":5.40329,"is_reserved":false,"is_disabled":false,"rental_uris":{"android":"levelo://app?vid=d450ba3c-0f86-4797-9f1a-eddde4f0a224","ios":"levelo://app?vid=d450ba3c-0f86-4797-9f1a-eddde4f0a224"},"vehicle_type_id":"4","last_reported":1746699109,"current_range_meters":24000,"station_id":"ce4bhlh2rcd13ifvqgig","pricing_plan_id":"cebpf4jnsgd1na2vs0mg"},{"bike_id":"2eb8dc8a-5422-4a49-9e5b-7b1ea59dd4ea","system_id":"levelo_inurba_marseille","lat":43.21756,"lon":5.34604,"is_reserved":false,"is_disabled":false,"rental_uris":{"android":"levelo://app?vid=2eb8dc8a-5422-4a49-9e5b-7b1ea59dd4ea","ios":"levelo://app?vid=2eb8dc8a-5422-4a49-9e5b-7b1ea59dd4ea"},"vehicle_type_id":"4","last_reported":1746699109,"current_range_meters":24000,"station_id":"st_cvj6r9ubvosntc0bgbag","pricing_plan_id":"cebpf4jnsgd1na2vs0mg"},{"bike_id":"545e5687-b7df-4883-81be-75a8925d5f91","system_id":"levelo_inurba_marseille","lat":43.337444,"lon":5.374475,"is_reserved":false,"is_disabled":false,"rental_uris":{"android":"levelo://app?vid=545e5687-b7df-4883-81be-75a8925d5f91","ios":"levelo://app?vid=545e5687-b7df-4883-81be-75a8925d5f91"},"vehicle_type_id":"4","last_reported":1746699109,"current_range_meters":24400,"station_id":"","pricing_plan_id":"cebpf4jnsgd1na2vs0mg"},{"bike_id":"8c56e2c1-f343-448d-b2aa-8b58d6eab8ff","system_id":"levelo_inurba_marseille","lat":43.29266,"lon":5.37624,"is_reserved":false,"is_disabled":false,"rental_uris":{"android":"levelo://app?vid=8c56e2c1-f343-448d-b2aa-8b58d6eab8ff","ios":"levelo://app?vid=8c56e2c1-f343-448d-b2aa-8b58d6eab8ff"},"vehicle_type_id":"4","last_reported":1746699109,"current_range_meters":24400,"station_id":"ce4bgi12rcd13ifvqb80","pricing_plan_id":"cebpf4jnsgd1na2vs0mg"},{"bike_id":"1fb547a6-3b49-430f-b690-89743d976a61","system_id":"levelo_inurba_marseille","lat":43.300458,"lon":5.385688,"is_reserved":false,"is_disabled":false,"rental_uris":{"android":"levelo://app?vid=1fb547a6-3b49-430f-b690-89743d976a61","ios":"levelo://app?vid=1fb547a6-3b49-430f-b690-89743d976a61"},"vehicle_type_id":"4","last_reported":1746699109,"current_range_meters":24400,"station_id":"ce4bgt12rcd13ifvqce0","pricing_plan_id":"cebpf4jnsgd1na2vs0mg"},{"bike_id":"a6f4ad41-e482-4042-9e7c-580c1bdb55ea","system_id":"levelo_inurba_marseille","lat":43.309463,"lon":5.390332,"is_reserved":false,"is_disabled":false,"rental_uris":{"android":"levelo://app?vid=a6f4ad41-e482-4042-9e7c-580c1bdb55ea","ios":"levelo://app?vid=a6f4ad41-e482-4042-9e7c-580c1bdb55ea"},"vehicle_type_id":"4","last_reported":1746699109,"current_range_meters":24400,"station_id":"ce4bgup2rcd13ifvqco0","pricing_plan_id":"cebpf4jnsgd1na2vs0mg"},{"bike_id":"038dea51-f984-4337-9190-5b04a5c6c8c1","system_id":"levelo_inurba_marseille","lat":43.28414,"lon":5.34979,"is_reserved":false,"is_disabled":false,"rental_uris":{"android":"levelo://app?vid=038dea51-f984-4337-9190-5b04a5c6c8c1","ios":"levelo://app?vid=038dea51-f984-4337-9190-5b04a5c6c8c1"},"vehicle_type_id":"4","last_reported":1746699109,"current_range_meters":24400,"station_id":"ce4bhbh2rcd13ifvqepg","pricing_plan_id":"cebpf4jnsgd1na2vs0mg"},{"bike_id":"d102547c-2fc8-457b-9026-fb2fce934c54","system_id":"levelo_inurba_marseille","lat":43.25116,"lon":5.40329,"is_reserved":false,"is_disabled":false,"rental_uris":{"android":"levelo://app?vid=d102547c-2fc8-457b-9026-fb2fce934c54","ios":"levelo://app?vid=d102547c-2fc8-457b-9026-fb2fce934c54"},"vehicle_type_id":"4","last_reported":1746699109,"current_range_meters":24400,"station_id":"ce4bhlh2rcd13ifvqgig","pricing_plan_id":"cebpf4jnsgd1na2vs0mg"},{"bike_id":"4b12119b-886f-455b-b2ae-8814b17b579d","system_id":"levelo_inurba_marseille","lat":43.24207,"lon":5.39741,"is_reserved":false,"is_disabled":false,"rental_uris":{"android":"levelo://app?vid=4b12119b-886f-455b-b2ae-8814b17b579d","ios":"levelo://app?vid=4b12119b-886f-455b-b2ae-8814b17b579d"},"vehicle_type_id":"4","last_reported":1746699109,"current_range_meters":24400,"station_id":"ce4bhn12rcd13ifvqgpg","pricing_plan_id":"cebpf4jnsgd1na2vs0mg"},{"bike_id":"cfcf0a27-3831-4e84-9bea-34b38798a087","system_id":"levelo_inurba_marseille","lat":43.21198,"lon":5.3506,"is_reserved":false,"is_disabled":false,"rental_uris":{"android":"levelo://app?vid=cfcf0a27-3831-4e84-9bea-34b38798a087","ios":"levelo://app?vid=cfcf0a27-3831-4e84-9bea-34b38798a087"},"vehicle_type_id":"4","last_reported":1746699109,"current_range_meters":24400,"station_id":"st_cvj6sg6p6f1abm77japg","pricing_plan_id":"cebpf4jnsgd1na2vs0mg"},{"bike_id":"07da6f96-fb88-4a40-9077-290e24dde904","system_id":"levelo_inurba_marseille","lat":43.21193,"lon":5.35075,"is_reserved":false,"is_disabled":false,"rental_uris":{"android":"levelo://app?vid=07da6f96-fb88-4a40-9077-290e24dde904","ios":"levelo://app?vid=07da6f96-fb88-4a40-9077-290e24dde904"},"vehicle_type_id":"4","last_reported":1746699109,"current_range_meters":24400,"station_id":"st_cvj6sg6p6f1abm77japg","pricing_plan_id":"cebpf4jnsgd1na2vs0mg"},{"bike_id":"cd1dd69c-1b2c-404e-b0bf-114f06f0b210","system_id":"levelo_inurba_marseille","lat":43.23283,"lon":5.36051,"is_reserved":false,"is_disabled":false,"rental_uris":{"android":"levelo://app?vid=cd1dd69c-1b2c-404e-b0bf-114f06f0b210","ios":"levelo://app?vid=cd1dd69c-1b2c-404e-b0bf-114f06f0b210"},"vehicle_type_id":"4","last_reported":1746699109,"current_range_meters":24800,"station_id":"","pricing_plan_id":"cebpf4jnsgd1na2vs0mg"},{"bike_id":"66d39f5f-1aac-423b-9ea7-bf9c1b0e5079","system_id":"levelo_inurba_marseille","lat":43.275077,"lon":5.41129,"is_reserved":false,"is_disabled":false,"rental_uris":{"android":"levelo://app?vid=66d39f5f-1aac-423b-9ea7-bf9c1b0e5079","ios":"levelo://app?vid=66d39f5f-1aac-423b-9ea7-bf9c1b0e5079"},"vehicle_type_id":"4","last_reported":1746699109,"current_range_meters":24800,"station_id":"","pricing_plan_id":"cebpf4jnsgd1na2vs0mg"},{"bike_id":"bae581c8-e048-4344-9211-1fd309dfb5eb","system_id":"levelo_inurba_marseille","lat":43.27917,"lon":5.39578,"is_reserved":false,"is_disabled":false,"rental_uris":{"android":"levelo://app?vid=bae581c8-e048-4344-9211-1fd309dfb5eb","ios":"levelo://app?vid=bae581c8-e048-4344-9211-1fd309dfb5eb"},"vehicle_type_id":"4","last_reported":1746699109,"current_range_meters":24800,"station_id":"ce4bhf92rcd13ifvqf40","pricing_plan_id":"cebpf4jnsgd1na2vs0mg"},{"bike_id":"9118f16e-2a29-4b74-8215-112edfce0f20","system_id":"levelo_inurba_marseille","lat":43.26561,"lon":5.37284,"is_reserved":false,"is_disabled":false,"rental_uris":{"android":"levelo://app?vid=9118f16e-2a29-4b74-8215-112edfce0f20","ios":"levelo://app?vid=9118f16e-2a29-4b74-8215-112edfce0f20"},"vehicle_type_id":"4","last_reported":1746699109,"current_range_meters":24800,"station_id":"ce4bhg12rcd13ifvqf70","pricing_plan_id":"cebpf4jnsgd1na2vs0mg"},{"bike_id":"056c83f3-adc3-4a77-b698-387d321e3755","system_id":"levelo_inurba_marseille","lat":43.22931,"lon":5.35373,"is_reserved":false,"is_disabled":false,"rental_uris":{"android":"levelo://app?vid=056c83f3-adc3-4a77-b698-387d321e3755","ios":"levelo://app?vid=056c83f3-adc3-4a77-b698-387d321e3755"},"vehicle_type_id":"4","last_reported":1746699109,"current_range_meters":24800,"station_id":"cpo3532slgdg3j2ikp40","pricing_plan_id":"cebpf4jnsgd1na2vs0mg"},{"bike_id":"320445d7-aaf7-43ec-baaf-4e67030e8b62","system_id":"levelo_inurba_marseille","lat":43.27151,"lon":5.40416,"is_reserved":false,"is_disabled":false,"rental_uris":{"android":"levelo://app?vid=320445d7-aaf7-43ec-baaf-4e67030e8b62","ios":"levelo://app?vid=320445d7-aaf7-43ec-baaf-4e67030e8b62"},"vehicle_type_id":"4","last_reported":1746699109,"current_range_meters":25200,"station_id":"","pricing_plan_id":"cebpf4jnsgd1na2vs0mg"},{"bike_id":"d80a42fa-eddc-4947-b221-dfc69a3e3b01","system_id":"levelo_inurba_marseille","lat":43.30794,"lon":5.38171,"is_reserved":false,"is_disabled":false,"rental_uris":{"android":"levelo://app?vid=d80a42fa-eddc-4947-b221-dfc69a3e3b01","ios":"levelo://app?vid=d80a42fa-eddc-4947-b221-dfc69a3e3b01"},"vehicle_type_id":"4","last_reported":1746699109,"current_range_meters":25200,"station_id":"ce4bgt12rcd13ifvqce0","pricing_plan_id":"cebpf4jnsgd1na2vs0mg"},{"bike_id":"7b63e515-92d7-448a-8a44-ce4075cb2694","system_id":"levelo_inurba_marseille","lat":43.31367,"lon":5.38493,"is_reserved":false,"is_disabled":false,"rental_uris":{"android":"levelo://app?vid=7b63e515-92d7-448a-8a44-ce4075cb2694","ios":"levelo://app?vid=7b63e515-92d7-448a-8a44-ce4075cb2694"},"vehicle_type_id":"4","last_reported":1746699109,"current_range_meters":25200,"station_id":"ce4bgt92rcd13ifvqcf0","pricing_plan_id":"cebpf4jnsgd1na2vs0mg"},{"bike_id":"1e4f93b0-c31b-4c99-ab9c-77dc0a909fc5","system_id":"levelo_inurba_marseille","lat":43.290002,"lon":5.355691,"is_reserved":false,"is_disabled":false,"rental_uris":{"android":"levelo://app?vid=1e4f93b0-c31b-4c99-ab9c-77dc0a909fc5","ios":"levelo://app?vid=1e4f93b0-c31b-4c99-ab9c-77dc0a909fc5"},"vehicle_type_id":"4","last_reported":1746699109,"current_range_meters":25200,"station_id":"ce4bhbh2rcd13ifvqepg","pricing_plan_id":"cebpf4jnsgd1na2vs0mg"},{"bike_id":"93142d3f-a6f5-4614-b985-cb6bfba2b4b3","system_id":"levelo_inurba_marseille","lat":43.28266,"lon":5.35065,"is_reserved":false,"is_disabled":false,"rental_uris":{"android":"levelo://app?vid=93142d3f-a6f5-4614-b985-cb6bfba2b4b3","ios":"levelo://app?vid=93142d3f-a6f5-4614-b985-cb6bfba2b4b3"},"vehicle_type_id":"4","last_reported":1746699109,"current_range_meters":25200,"station_id":"ce4bhbp2rcd13ifvqerg","pricing_plan_id":"cebpf4jnsgd1na2vs0mg"},{"bike_id":"b8028275-38d4-43d3-8766-3f46166cf91f","system_id":"levelo_inurba_marseille","lat":43.28188,"lon":5.42643,"is_reserved":false,"is_disabled":false,"rental_uris":{"android":"levelo://app?vid=b8028275-38d4-43d3-8766-3f46166cf91f","ios":"levelo://app?vid=b8028275-38d4-43d3-8766-3f46166cf91f"},"vehicle_type_id":"4","last_reported":1746699109,"current_range_meters":25200,"station_id":"ce4bhnh2rcd13ifvqgug","pricing_plan_id":"cebpf4jnsgd1na2vs0mg"},{"bike_id":"7dd541b9-e858-4734-8b38-bf5cec4a45d8","system_id":"levelo_inurba_marseille","lat":43.30116,"lon":5.37159,"is_reserved":false,"is_disabled":false,"rental_uris":{"android":"levelo://app?vid=7dd541b9-e858-4734-8b38-bf5cec4a45d8","ios":"levelo://app?vid=7dd541b9-e858-4734-8b38-bf5cec4a45d8"},"vehicle_type_id":"4","last_reported":1746699109,"current_range_meters":25600,"station_id":"","pricing_plan_id":"cebpf4jnsgd1na2vs0mg"},{"bike_id":"0072ea4c-c3a5-41a9-b952-24713c182975","system_id":"levelo_inurba_marseille","lat":43.25115,"lon":5.40324,"is_reserved":false,"is_disabled":false,"rental_uris":{"android":"levelo://app?vid=0072ea4c-c3a5-41a9-b952-24713c182975","ios":"levelo://app?vid=0072ea4c-c3a5-41a9-b952-24713c182975"},"vehicle_type_id":"4","last_reported":1746699109,"current_range_meters":25600,"station_id":"ce4bhlh2rcd13ifvqgig","pricing_plan_id":"cebpf4jnsgd1na2vs0mg"},{"bike_id":"6ca5e6dd-2f54-438c-a4ff-6955e743ee77","system_id":"levelo_inurba_marseille","lat":43.21748,"lon":5.34596,"is_reserved":false,"is_disabled":false,"rental_uris":{"android":"levelo://app?vid=6ca5e6dd-2f54-438c-a4ff-6955e743ee77","ios":"levelo://app?vid=6ca5e6dd-2f54-438c-a4ff-6955e743ee77"},"vehicle_type_id":"4","last_reported":1746699109,"current_range_meters":25600,"station_id":"st_cvj6r9ubvosntc0bgbag","pricing_plan_id":"cebpf4jnsgd1na2vs0mg"},{"bike_id":"0fea7e09-6770-4f7b-8a4d-10298d935c80","system_id":"levelo_inurba_marseille","lat":43.28274,"lon":5.35073,"is_reserved":false,"is_disabled":false,"rental_uris":{"android":"levelo://app?vid=0fea7e09-6770-4f7b-8a4d-10298d935c80","ios":"levelo://app?vid=0fea7e09-6770-4f7b-8a4d-10298d935c80"},"vehicle_type_id":"4","last_reported":1746699109,"current_range_meters":26000,"station_id":"ce4bhbp2rcd13ifvqerg","pricing_plan_id":"cebpf4jnsgd1na2vs0mg"},{"bike_id":"49d8216c-2a04-4fe4-a3af-8b4ae32c4254","system_id":"levelo_inurba_marseille","lat":43.26568,"lon":5.39014,"is_reserved":false,"is_disabled":false,"rental_uris":{"android":"levelo://app?vid=49d8216c-2a04-4fe4-a3af-8b4ae32c4254","ios":"levelo://app?vid=49d8216c-2a04-4fe4-a3af-8b4ae32c4254"},"vehicle_type_id":"4","last_reported":1746699109,"current_range_meters":26800,"station_id":"ce4bhe12rcd13ifvqf30","pricing_plan_id":"cebpf4jnsgd1na2vs0mg"},{"bike_id":"14185999-c6fc-4ec7-97d0-783f3d711b51","system_id":"levelo_inurba_marseille","lat":43.26565,"lon":5.37295,"is_reserved":false,"is_disabled":false,"rental_uris":{"android":"levelo://app?vid=14185999-c6fc-4ec7-97d0-783f3d711b51","ios":"levelo://app?vid=14185999-c6fc-4ec7-97d0-783f3d711b51"},"vehicle_type_id":"4","last_reported":1746699109,"current_range_meters":26800,"station_id":"ce4bhg12rcd13ifvqf70","pricing_plan_id":"cebpf4jnsgd1na2vs0mg"},{"bike_id":"44a1c48d-97fe-430e-a154-683c0bbb430a","system_id":"levelo_inurba_marseille","lat":43.24669,"lon":5.38169,"is_reserved":false,"is_disabled":false,"rental_uris":{"android":"levelo://app?vid=44a1c48d-97fe-430e-a154-683c0bbb430a","ios":"levelo://app?vid=44a1c48d-97fe-430e-a154-683c0bbb430a"},"vehicle_type_id":"4","last_reported":1746699109,"current_range_meters":26800,"station_id":"ce4bhih2rcd13ifvqfr0","pricing_plan_id":"cebpf4jnsgd1na2vs0mg"},{"bike_id":"2409920c-bc57-4b1d-8b7d-56f7db414261","system_id":"levelo_inurba_marseille","lat":43.23154,"lon":5.43711,"is_reserved":false,"is_disabled":false,"rental_uris":{"android":"levelo://app?vid=2409920c-bc57-4b1d-8b7d-56f7db414261","ios":"levelo://app?vid=2409920c-bc57-4b1d-8b7d-56f7db414261"},"vehicle_type_id":"4","last_reported":1746699109,"current_range_meters":26800,"station_id":"ce4bhmp2rcd13ifvqgog","pricing_plan_id":"cebpf4jnsgd1na2vs0mg"},{"bike_id":"0ba8250e-7150-4c3c-b4a9-796c5cf1ca93","system_id":"levelo_inurba_marseille","lat":43.324852,"lon":5.365737,"is_reserved":false,"is_disabled":false,"rental_uris":{"android":"levelo://app?vid=0ba8250e-7150-4c3c-b4a9-796c5cf1ca93","ios":"levelo://app?vid=0ba8250e-7150-4c3c-b4a9-796c5cf1ca93"},"vehicle_type_id":"4","last_reported":1746699109,"current_range_meters":26800,"station_id":"ce4bhs12rcd13ifvqhvg","pricing_plan_id":"cebpf4jnsgd1na2vs0mg"},{"bike_id":"3c89cc1d-1749-4495-9184-686611282d9c","system_id":"levelo_inurba_marseille","lat":43.27064,"lon":5.40252,"is_reserved":false,"is_disabled":false,"rental_uris":{"android":"levelo://app?vid=3c89cc1d-1749-4495-9184-686611282d9c","ios":"levelo://app?vid=3c89cc1d-1749-4495-9184-686611282d9c"},"vehicle_type_id":"4","last_reported":1746699109,"current_range_meters":27200,"station_id":"ce4bhk92rcd13ifvqgc0","pricing_plan_id":"cebpf4jnsgd1na2vs0mg"},{"bike_id":"943c17e1-2f10-4f8b-b508-00da99e73e39","system_id":"levelo_inurba_marseille","lat":43.2321,"lon":5.39985,"is_reserved":false,"is_disabled":false,"rental_uris":{"android":"levelo://app?vid=943c17e1-2f10-4f8b-b508-00da99e73e39","ios":"levelo://app?vid=943c17e1-2f10-4f8b-b508-00da99e73e39"},"vehicle_type_id":"4","last_reported":1746699109,"current_range_meters":27200,"station_id":"ce4bhn12rcd13ifvqgqg","pricing_plan_id":"cebpf4jnsgd1na2vs0mg"},{"bike_id":"7616e774-5878-4624-ac54-112145a3ed6c","system_id":"levelo_inurba_marseille","lat":43.336038,"lon":5.410396,"is_reserved":false,"is_disabled":false,"rental_uris":{"android":"levelo://app?vid=7616e774-5878-4624-ac54-112145a3ed6c","ios":"levelo://app?vid=7616e774-5878-4624-ac54-112145a3ed6c"},"vehicle_type_id":"4","last_reported":1746699109,"current_range_meters":27200,"station_id":"ce4bhqh2rcd13ifvqhmg","pricing_plan_id":"cebpf4jnsgd1na2vs0mg"},{"bike_id":"f0deccb7-a270-4fd4-a51e-39844e0ae45a","system_id":"levelo_inurba_marseille","lat":43.34772,"lon":5.34958,"is_reserved":false,"is_disabled":false,"rental_uris":{"android":"levelo://app?vid=f0deccb7-a270-4fd4-a51e-39844e0ae45a","ios":"levelo://app?vid=f0deccb7-a270-4fd4-a51e-39844e0ae45a"},"vehicle_type_id":"4","last_reported":1746699109,"current_range_meters":27600,"station_id":"","pricing_plan_id":"cebpf4jnsgd1na2vs0mg"},{"bike_id":"a67dd4c3-d844-43ad-a013-93acde372e4e","system_id":"levelo_inurba_marseille","lat":43.29576,"lon":5.37522,"is_reserved":false,"is_disabled":false,"rental_uris":{"android":"levelo://app?vid=a67dd4c3-d844-43ad-a013-93acde372e4e","ios":"levelo://app?vid=a67dd4c3-d844-43ad-a013-93acde372e4e"},"vehicle_type_id":"4","last_reported":1746699109,"current_range_meters":27600,"station_id":"ce4bgh92rcd13ifvqb50","pricing_plan_id":"cebpf4jnsgd1na2vs0mg"},{"bike_id":"f51b3e9b-b529-4746-b31d-ded684da9b01","system_id":"levelo_inurba_marseille","lat":43.28423,"lon":5.34989,"is_reserved":false,"is_disabled":false,"rental_uris":{"android":"levelo://app?vid=f51b3e9b-b529-4746-b31d-ded684da9b01","ios":"levelo://app?vid=f51b3e9b-b529-4746-b31d-ded684da9b01"},"vehicle_type_id":"4","last_reported":1746699109,"current_range_meters":27600,"station_id":"ce4bhbh2rcd13ifvqepg","pricing_plan_id":"cebpf4jnsgd1na2vs0mg"},{"bike_id":"2f7204e4-aba0-4ac4-806d-39a4adcd808b","system_id":"levelo_inurba_marseille","lat":43.28158,"lon":5.426618,"is_reserved":false,"is_disabled":false,"rental_uris":{"android":"levelo://app?vid=2f7204e4-aba0-4ac4-806d-39a4adcd808b","ios":"levelo://app?vid=2f7204e4-aba0-4ac4-806d-39a4adcd808b"},"vehicle_type_id":"4","last_reported":1746699109,"current_range_meters":27600,"station_id":"ce4bhnh2rcd13ifvqgug","pricing_plan_id":"cebpf4jnsgd1na2vs0mg"},{"bike_id":"fc808cbe-f873-49fa-b923-2a0dd686c6a3","system_id":"levelo_inurba_marseille","lat":43.301577,"lon":5.38097,"is_reserved":false,"is_disabled":false,"rental_uris":{"android":"levelo://app?vid=fc808cbe-f873-49fa-b923-2a0dd686c6a3","ios":"levelo://app?vid=fc808cbe-f873-49fa-b923-2a0dd686c6a3"},"vehicle_type_id":"4","last_reported":1746699109,"current_range_meters":28000,"station_id":"ce4bgjp2rcd13ifvqbh0","pricing_plan_id":"cebpf4jnsgd1na2vs0mg"},{"bike_id":"b9966a55-fbb1-4da4-89a6-97137ed89195","system_id":"levelo_inurba_marseille","lat":43.295793,"lon":5.375157,"is_reserved":false,"is_disabled":false,"rental_uris":{"android":"levelo://app?vid=b9966a55-fbb1-4da4-89a6-97137ed89195","ios":"levelo://app?vid=b9966a55-fbb1-4da4-89a6-97137ed89195"},"vehicle_type_id":"4","last_reported":1746699109,"current_range_meters":28000,"station_id":"ce4bgm92rcd13ifvqbr0","pricing_plan_id":"cebpf4jnsgd1na2vs0mg"},{"bike_id":"b9f91d85-fd30-49a2-bf3f-ba35a128ce7f","system_id":"levelo_inurba_marseille","lat":43.30989,"lon":5.39046,"is_reserved":false,"is_disabled":false,"rental_uris":{"android":"levelo://app?vid=b9f91d85-fd30-49a2-bf3f-ba35a128ce7f","ios":"levelo://app?vid=b9f91d85-fd30-49a2-bf3f-ba35a128ce7f"},"vehicle_type_id":"4","last_reported":1746699109,"current_range_meters":28000,"station_id":"ce4bgup2rcd13ifvqco0","pricing_plan_id":"cebpf4jnsgd1na2vs0mg"},{"bike_id":"4adf1299-02c5-4321-89d2-9502e73ca210","system_id":"levelo_inurba_marseille","lat":43.28268,"lon":5.35062,"is_reserved":false,"is_disabled":false,"rental_uris":{"android":"levelo://app?vid=4adf1299-02c5-4321-89d2-9502e73ca210","ios":"levelo://app?vid=4adf1299-02c5-4321-89d2-9502e73ca210"},"vehicle_type_id":"4","last_reported":1746699109,"current_range_meters":28000,"station_id":"ce4bhbp2rcd13ifvqerg","pricing_plan_id":"cebpf4jnsgd1na2vs0mg"},{"bike_id":"f7473d2b-ba74-4738-9227-f285a49e6347","system_id":"levelo_inurba_marseille","lat":43.26558,"lon":5.37283,"is_reserved":false,"is_disabled":false,"rental_uris":{"android":"levelo://app?vid=f7473d2b-ba74-4738-9227-f285a49e6347","ios":"levelo://app?vid=f7473d2b-ba74-4738-9227-f285a49e6347"},"vehicle_type_id":"4","last_reported":1746699109,"current_range_meters":28000,"station_id":"ce4bhg12rcd13ifvqf70","pricing_plan_id":"cebpf4jnsgd1na2vs0mg"},{"bike_id":"3af1ddd4-3a0b-4183-a36b-fb7bc922be5c","system_id":"levelo_inurba_marseille","lat":43.26571,"lon":5.37288,"is_reserved":false,"is_disabled":false,"rental_uris":{"android":"levelo://app?vid=3af1ddd4-3a0b-4183-a36b-fb7bc922be5c","ios":"levelo://app?vid=3af1ddd4-3a0b-4183-a36b-fb7bc922be5c"},"vehicle_type_id":"4","last_reported":1746699109,"current_range_meters":28000,"station_id":"ce4bhg12rcd13ifvqf70","pricing_plan_id":"cebpf4jnsgd1na2vs0mg"},{"bike_id":"7b643cdc-69a5-45df-8baf-de88d3683dce","system_id":"levelo_inurba_marseille","lat":43.290159,"lon":5.381299,"is_reserved":false,"is_disabled":false,"rental_uris":{"android":"levelo://app?vid=7b643cdc-69a5-45df-8baf-de88d3683dce","ios":"levelo://app?vid=7b643cdc-69a5-45df-8baf-de88d3683dce"},"vehicle_type_id":"4","last_reported":1746699109,"current_range_meters":28400,"station_id":"","pricing_plan_id":"cebpf4jnsgd1na2vs0mg"},{"bike_id":"30539ef6-e5c0-4d62-b456-f42f89da53eb","system_id":"levelo_inurba_marseille","lat":43.3139,"lon":5.383013,"is_reserved":false,"is_disabled":false,"rental_uris":{"android":"levelo://app?vid=30539ef6-e5c0-4d62-b456-f42f89da53eb","ios":"levelo://app?vid=30539ef6-e5c0-4d62-b456-f42f89da53eb"},"vehicle_type_id":"4","last_reported":1746699109,"current_range_meters":28400,"station_id":"","pricing_plan_id":"cebpf4jnsgd1na2vs0mg"},{"bike_id":"f3f68057-1ed8-41e3-bdcf-1dafb8cd6088","system_id":"levelo_inurba_marseille","lat":43.25145,"lon":5.40298,"is_reserved":false,"is_disabled":false,"rental_uris":{"android":"levelo://app?vid=f3f68057-1ed8-41e3-bdcf-1dafb8cd6088","ios":"levelo://app?vid=f3f68057-1ed8-41e3-bdcf-1dafb8cd6088"},"vehicle_type_id":"4","last_reported":1746699109,"current_range_meters":28400,"station_id":"","pricing_plan_id":"cebpf4jnsgd1na2vs0mg"},{"bike_id":"3b14e2e9-7f28-4936-98dc-a5361a810e23","system_id":"levelo_inurba_marseille","lat":43.31362,"lon":5.38512,"is_reserved":false,"is_disabled":false,"rental_uris":{"android":"levelo://app?vid=3b14e2e9-7f28-4936-98dc-a5361a810e23","ios":"levelo://app?vid=3b14e2e9-7f28-4936-98dc-a5361a810e23"},"vehicle_type_id":"4","last_reported":1746699109,"current_range_meters":28400,"station_id":"ce4bgt92rcd13ifvqcf0","pricing_plan_id":"cebpf4jnsgd1na2vs0mg"},{"bike_id":"a62cb3d4-a33f-48f2-a4bf-539b6f7898a2","system_id":"levelo_inurba_marseille","lat":43.22924,"lon":5.35392,"is_reserved":false,"is_disabled":false,"rental_uris":{"android":"levelo://app?vid=a62cb3d4-a33f-48f2-a4bf-539b6f7898a2","ios":"levelo://app?vid=a62cb3d4-a33f-48f2-a4bf-539b6f7898a2"},"vehicle_type_id":"4","last_reported":1746699109,"current_range_meters":28400,"station_id":"cpo3532slgdg3j2ikp40","pricing_plan_id":"cebpf4jnsgd1na2vs0mg"},{"bike_id":"96a71fca-5b6e-47fb-a481-c874b310c77b","system_id":"levelo_inurba_marseille","lat":43.29055,"lon":5.40593,"is_reserved":false,"is_disabled":false,"rental_uris":{"android":"levelo://app?vid=96a71fca-5b6e-47fb-a481-c874b310c77b","ios":"levelo://app?vid=96a71fca-5b6e-47fb-a481-c874b310c77b"},"vehicle_type_id":"4","last_reported":1746699109,"current_range_meters":28800,"station_id":"","pricing_plan_id":"cebpf4jnsgd1na2vs0mg"},{"bike_id":"f52c819d-ca4b-4640-b458-b877db1bf990","system_id":"levelo_inurba_marseille","lat":43.337444,"lon":5.374475,"is_reserved":false,"is_disabled":false,"rental_uris":{"android":"levelo://app?vid=f52c819d-ca4b-4640-b458-b877db1bf990","ios":"levelo://app?vid=f52c819d-ca4b-4640-b458-b877db1bf990"},"vehicle_type_id":"4","last_reported":1746699109,"current_range_meters":28800,"station_id":"","pricing_plan_id":"cebpf4jnsgd1na2vs0mg"},{"bike_id":"39b174df-d0c4-4872-9786-ee90903e4d7b","system_id":"levelo_inurba_marseille","lat":43.31114,"lon":5.3778,"is_reserved":false,"is_disabled":false,"rental_uris":{"android":"levelo://app?vid=39b174df-d0c4-4872-9786-ee90903e4d7b","ios":"levelo://app?vid=39b174df-d0c4-4872-9786-ee90903e4d7b"},"vehicle_type_id":"4","last_reported":1746699109,"current_range_meters":28800,"station_id":"ce4bgt92rcd13ifvqcg0","pricing_plan_id":"cebpf4jnsgd1na2vs0mg"},{"bike_id":"1be73341-24cb-45a4-b648-631770e81a65","system_id":"levelo_inurba_marseille","lat":43.30278,"lon":5.37711,"is_reserved":false,"is_disabled":false,"rental_uris":{"android":"levelo://app?vid=1be73341-24cb-45a4-b648-631770e81a65","ios":"levelo://app?vid=1be73341-24cb-45a4-b648-631770e81a65"},"vehicle_type_id":"4","last_reported":1746699109,"current_range_meters":28800,"station_id":"ce4bguh2rcd13ifvqcj0","pricing_plan_id":"cebpf4jnsgd1na2vs0mg"},{"bike_id":"e1be2832-f070-4ad3-a3f0-daf03b15f93f","system_id":"levelo_inurba_marseille","lat":43.30931,"lon":5.40152,"is_reserved":false,"is_disabled":false,"rental_uris":{"android":"levelo://app?vid=e1be2832-f070-4ad3-a3f0-daf03b15f93f","ios":"levelo://app?vid=e1be2832-f070-4ad3-a3f0-daf03b15f93f"},"vehicle_type_id":"4","last_reported":1746699109,"current_range_meters":28800,"station_id":"ce4bgvp2rcd13ifvqct0","pricing_plan_id":"cebpf4jnsgd1na2vs0mg"},{"bike_id":"37b31d90-5830-4d75-ac12-1b1c249f9e1c","system_id":"levelo_inurba_marseille","lat":43.31718,"lon":5.4046,"is_reserved":false,"is_disabled":false,"rental_uris":{"android":"levelo://app?vid=37b31d90-5830-4d75-ac12-1b1c249f9e1c","ios":"levelo://app?vid=37b31d90-5830-4d75-ac12-1b1c249f9e1c"},"vehicle_type_id":"4","last_reported":1746699109,"current_range_meters":28800,"station_id":"ce4bh012rcd13ifvqd00","pricing_plan_id":"cebpf4jnsgd1na2vs0mg"},{"bike_id":"374bba7f-6c2d-44cd-8779-e6d74e067b72","system_id":"levelo_inurba_marseille","lat":43.28616,"lon":5.35108,"is_reserved":false,"is_disabled":false,"rental_uris":{"android":"levelo://app?vid=374bba7f-6c2d-44cd-8779-e6d74e067b72","ios":"levelo://app?vid=374bba7f-6c2d-44cd-8779-e6d74e067b72"},"vehicle_type_id":"4","last_reported":1746699109,"current_range_meters":28800,"station_id":"ce4bhch2rcd13ifvqeug","pricing_plan_id":"cebpf4jnsgd1na2vs0mg"},{"bike_id":"d44f86df-0709-41fc-97ce-c0074177213e","system_id":"levelo_inurba_marseille","lat":43.25728,"lon":5.41105,"is_reserved":false,"is_disabled":false,"rental_uris":{"android":"levelo://app?vid=d44f86df-0709-41fc-97ce-c0074177213e","ios":"levelo://app?vid=d44f86df-0709-41fc-97ce-c0074177213e"},"vehicle_type_id":"4","last_reported":1746699109,"current_range_meters":28800,"station_id":"ce4bhkp2rcd13ifvqgd0","pricing_plan_id":"cebpf4jnsgd1na2vs0mg"},{"bike_id":"96b69674-69f3-4f82-82b0-bb0a425f63f6","system_id":"levelo_inurba_marseille","lat":43.26804,"lon":5.40261,"is_reserved":false,"is_disabled":false,"rental_uris":{"android":"levelo://app?vid=96b69674-69f3-4f82-82b0-bb0a425f63f6","ios":"levelo://app?vid=96b69674-69f3-4f82-82b0-bb0a425f63f6"},"vehicle_type_id":"4","last_reported":1746699109,"current_range_meters":28800,"station_id":"ce501612rcd8frsf0b60","pricing_plan_id":"cebpf4jnsgd1na2vs0mg"},{"bike_id":"ed9b81e9-54f6-4555-8a7f-7c876d840d08","system_id":"levelo_inurba_marseille","lat":43.29383,"lon":5.38542,"is_reserved":false,"is_disabled":false,"rental_uris":{"android":"levelo://app?vid=ed9b81e9-54f6-4555-8a7f-7c876d840d08","ios":"levelo://app?vid=ed9b81e9-54f6-4555-8a7f-7c876d840d08"},"vehicle_type_id":"4","last_reported":1746699109,"current_range_meters":29600,"station_id":"","pricing_plan_id":"cebpf4jnsgd1na2vs0mg"},{"bike_id":"50ee5cca-9ab8-4e35-a14f-0a171712b618","system_id":"levelo_inurba_marseille","lat":43.292787,"lon":5.376317,"is_reserved":false,"is_disabled":false,"rental_uris":{"android":"levelo://app?vid=50ee5cca-9ab8-4e35-a14f-0a171712b618","ios":"levelo://app?vid=50ee5cca-9ab8-4e35-a14f-0a171712b618"},"vehicle_type_id":"4","last_reported":1746699109,"current_range_meters":29600,"station_id":"ce4bgi12rcd13ifvqb80","pricing_plan_id":"cebpf4jnsgd1na2vs0mg"},{"bike_id":"4c763f12-d05c-4eda-8bdf-d58441533ede","system_id":"levelo_inurba_marseille","lat":43.28417,"lon":5.34975,"is_reserved":false,"is_disabled":false,"rental_uris":{"android":"levelo://app?vid=4c763f12-d05c-4eda-8bdf-d58441533ede","ios":"levelo://app?vid=4c763f12-d05c-4eda-8bdf-d58441533ede"},"vehicle_type_id":"4","last_reported":1746699109,"current_range_meters":29600,"station_id":"ce4bhbh2rcd13ifvqepg","pricing_plan_id":"cebpf4jnsgd1na2vs0mg"},{"bike_id":"f1be0eeb-570a-41ec-ba38-e001b9c7d591","system_id":"levelo_inurba_marseille","lat":43.25108,"lon":5.40341,"is_reserved":false,"is_disabled":false,"rental_uris":{"android":"levelo://app?vid=f1be0eeb-570a-41ec-ba38-e001b9c7d591","ios":"levelo://app?vid=f1be0eeb-570a-41ec-ba38-e001b9c7d591"},"vehicle_type_id":"4","last_reported":1746699109,"current_range_meters":29600,"station_id":"ce4bhlh2rcd13ifvqgig","pricing_plan_id":"cebpf4jnsgd1na2vs0mg"},{"bike_id":"b0a6c6a5-debb-4d31-8ae5-57a76e5b0d8c","system_id":"levelo_inurba_marseille","lat":43.32336,"lon":5.4061,"is_reserved":false,"is_disabled":false,"rental_uris":{"android":"levelo://app?vid=b0a6c6a5-debb-4d31-8ae5-57a76e5b0d8c","ios":"levelo://app?vid=b0a6c6a5-debb-4d31-8ae5-57a76e5b0d8c"},"vehicle_type_id":"4","last_reported":1746699109,"current_range_meters":29600,"station_id":"ce4bhq92rcd13ifvqhjg","pricing_plan_id":"cebpf4jnsgd1na2vs0mg"},{"bike_id":"09305c4d-2226-4e96-afdb-478f9d6b83c8","system_id":"levelo_inurba_marseille","lat":43.337444,"lon":5.374475,"is_reserved":false,"is_disabled":false,"rental_uris":{"android":"levelo://app?vid=09305c4d-2226-4e96-afdb-478f9d6b83c8","ios":"levelo://app?vid=09305c4d-2226-4e96-afdb-478f9d6b83c8"},"vehicle_type_id":"4","last_reported":1746699109,"current_range_meters":30000,"station_id":"","pricing_plan_id":"cebpf4jnsgd1na2vs0mg"},{"bike_id":"ab2766d3-d230-4fba-b90a-2f4ef9ff93b3","system_id":"levelo_inurba_marseille","lat":43.309556,"lon":5.390255,"is_reserved":false,"is_disabled":false,"rental_uris":{"android":"levelo://app?vid=ab2766d3-d230-4fba-b90a-2f4ef9ff93b3","ios":"levelo://app?vid=ab2766d3-d230-4fba-b90a-2f4ef9ff93b3"},"vehicle_type_id":"4","last_reported":1746699109,"current_range_meters":30000,"station_id":"ce4bgup2rcd13ifvqco0","pricing_plan_id":"cebpf4jnsgd1na2vs0mg"},{"bike_id":"63e6eca1-5a25-41b1-9659-140501d8707d","system_id":"levelo_inurba_marseille","lat":43.30977,"lon":5.39059,"is_reserved":false,"is_disabled":false,"rental_uris":{"android":"levelo://app?vid=63e6eca1-5a25-41b1-9659-140501d8707d","ios":"levelo://app?vid=63e6eca1-5a25-41b1-9659-140501d8707d"},"vehicle_type_id":"4","last_reported":1746699109,"current_range_meters":30000,"station_id":"ce4bgup2rcd13ifvqco0","pricing_plan_id":"cebpf4jnsgd1na2vs0mg"},{"bike_id":"a0fb6999-0638-49cc-9070-f239b8f64e87","system_id":"levelo_inurba_marseille","lat":43.28415,"lon":5.34985,"is_reserved":false,"is_disabled":false,"rental_uris":{"android":"levelo://app?vid=a0fb6999-0638-49cc-9070-f239b8f64e87","ios":"levelo://app?vid=a0fb6999-0638-49cc-9070-f239b8f64e87"},"vehicle_type_id":"4","last_reported":1746699109,"current_range_meters":30000,"station_id":"ce4bhbh2rcd13ifvqepg","pricing_plan_id":"cebpf4jnsgd1na2vs0mg"},{"bike_id":"439d97fe-449a-4223-8310-9fcb33399cd9","system_id":"levelo_inurba_marseille","lat":43.23193,"lon":5.35554,"is_reserved":false,"is_disabled":false,"rental_uris":{"android":"levelo://app?vid=439d97fe-449a-4223-8310-9fcb33399cd9","ios":"levelo://app?vid=439d97fe-449a-4223-8310-9fcb33399cd9"},"vehicle_type_id":"4","last_reported":1746699109,"current_range_meters":30000,"station_id":"ce4bhu92rcd13ifvqi70","pricing_plan_id":"cebpf4jnsgd1na2vs0mg"},{"bike_id":"6bbe11b3-7d23-4e43-a8c8-244aa4ae4e45","system_id":"levelo_inurba_marseille","lat":43.23193,"lon":5.35557,"is_reserved":false,"is_disabled":false,"rental_uris":{"android":"levelo://app?vid=6bbe11b3-7d23-4e43-a8c8-244aa4ae4e45","ios":"levelo://app?vid=6bbe11b3-7d23-4e43-a8c8-244aa4ae4e45"},"vehicle_type_id":"4","last_reported":1746699109,"current_range_meters":30000,"station_id":"ce4bhu92rcd13ifvqi70","pricing_plan_id":"cebpf4jnsgd1na2vs0mg"},{"bike_id":"5a41300b-b9f7-4a79-8b4a-811aa07396be","system_id":"levelo_inurba_marseille","lat":43.24173,"lon":5.36402,"is_reserved":false,"is_disabled":false,"rental_uris":{"android":"levelo://app?vid=5a41300b-b9f7-4a79-8b4a-811aa07396be","ios":"levelo://app?vid=5a41300b-b9f7-4a79-8b4a-811aa07396be"},"vehicle_type_id":"4","last_reported":1746699109,"current_range_meters":30000,"station_id":"cpo36qri1sfpv3e86is0","pricing_plan_id":"cebpf4jnsgd1na2vs0mg"},{"bike_id":"4ae7a83c-4508-4420-bdfc-fc011c19b67a","system_id":"levelo_inurba_marseille","lat":43.33767,"lon":5.3748,"is_reserved":false,"is_disabled":false,"rental_uris":{"android":"levelo://app?vid=4ae7a83c-4508-4420-bdfc-fc011c19b67a","ios":"levelo://app?vid=4ae7a83c-4508-4420-bdfc-fc011c19b67a"},"vehicle_type_id":"4","last_reported":1746699109,"current_range_meters":30400,"station_id":"","pricing_plan_id":"cebpf4jnsgd1na2vs0mg"},{"bike_id":"71f97656-b39a-4cfb-b053-6f6149cee6e1","system_id":"levelo_inurba_marseille","lat":43.29278,"lon":5.37631,"is_reserved":false,"is_disabled":false,"rental_uris":{"android":"levelo://app?vid=71f97656-b39a-4cfb-b053-6f6149cee6e1","ios":"levelo://app?vid=71f97656-b39a-4cfb-b053-6f6149cee6e1"},"vehicle_type_id":"4","last_reported":1746699109,"current_range_meters":30400,"station_id":"ce4bgi12rcd13ifvqb80","pricing_plan_id":"cebpf4jnsgd1na2vs0mg"},{"bike_id":"34616c51-361c-47b7-899b-2b549fb001f3","system_id":"levelo_inurba_marseille","lat":43.30154,"lon":5.38076,"is_reserved":false,"is_disabled":false,"rental_uris":{"android":"levelo://app?vid=34616c51-361c-47b7-899b-2b549fb001f3","ios":"levelo://app?vid=34616c51-361c-47b7-899b-2b549fb001f3"},"vehicle_type_id":"4","last_reported":1746699109,"current_range_meters":30400,"station_id":"ce4bgjp2rcd13ifvqbh0","pricing_plan_id":"cebpf4jnsgd1na2vs0mg"},{"bike_id":"08f6d345-6afd-48ab-a8b7-4ae4f3cf0188","system_id":"levelo_inurba_marseille","lat":43.31724,"lon":5.37748,"is_reserved":false,"is_disabled":false,"rental_uris":{"android":"levelo://app?vid=08f6d345-6afd-48ab-a8b7-4ae4f3cf0188","ios":"levelo://app?vid=08f6d345-6afd-48ab-a8b7-4ae4f3cf0188"},"vehicle_type_id":"4","last_reported":1746699109,"current_range_meters":30400,"station_id":"ce4bgth2rcd13ifvqch0","pricing_plan_id":"cebpf4jnsgd1na2vs0mg"},{"bike_id":"1eb8b4c6-c1be-4153-86ba-ddeab682671e","system_id":"levelo_inurba_marseille","lat":43.30778,"lon":5.37622,"is_reserved":false,"is_disabled":false,"rental_uris":{"android":"levelo://app?vid=1eb8b4c6-c1be-4153-86ba-ddeab682671e","ios":"levelo://app?vid=1eb8b4c6-c1be-4153-86ba-ddeab682671e"},"vehicle_type_id":"4","last_reported":1746699109,"current_range_meters":30400,"station_id":"ce4bgv92rcd13ifvqcq0","pricing_plan_id":"cebpf4jnsgd1na2vs0mg"},{"bike_id":"b8d0f11b-342d-4829-9f95-7c8874606ff8","system_id":"levelo_inurba_marseille","lat":43.28491,"lon":5.38547,"is_reserved":false,"is_disabled":false,"rental_uris":{"android":"levelo://app?vid=b8d0f11b-342d-4829-9f95-7c8874606ff8","ios":"levelo://app?vid=b8d0f11b-342d-4829-9f95-7c8874606ff8"},"vehicle_type_id":"4","last_reported":1746699109,"current_range_meters":30400,"station_id":"ce4bh8p2rcd13ifvqeb0","pricing_plan_id":"cebpf4jnsgd1na2vs0mg"},{"bike_id":"ee546df9-785a-4b1e-994a-32d2de344919","system_id":"levelo_inurba_marseille","lat":43.26956,"lon":5.38632,"is_reserved":false,"is_disabled":false,"rental_uris":{"android":"levelo://app?vid=ee546df9-785a-4b1e-994a-32d2de344919","ios":"levelo://app?vid=ee546df9-785a-4b1e-994a-32d2de344919"},"vehicle_type_id":"4","last_reported":1746699109,"current_range_meters":30400,"station_id":"ce4bhh92rcd13ifvqfh0","pricing_plan_id":"cebpf4jnsgd1na2vs0mg"},{"bike_id":"98d1c730-4ec7-4773-84e1-68912797e058","system_id":"levelo_inurba_marseille","lat":43.23969,"lon":5.36636,"is_reserved":false,"is_disabled":false,"rental_uris":{"android":"levelo://app?vid=98d1c730-4ec7-4773-84e1-68912797e058","ios":"levelo://app?vid=98d1c730-4ec7-4773-84e1-68912797e058"},"vehicle_type_id":"4","last_reported":1746699109,"current_range_meters":30400,"station_id":"ce4bhi12rcd13ifvqfp0","pricing_plan_id":"cebpf4jnsgd1na2vs0mg"},{"bike_id":"506ac59a-6cbe-49c1-ae48-7f66e7c91ef7","system_id":"levelo_inurba_marseille","lat":43.33027,"lon":5.39036,"is_reserved":false,"is_disabled":false,"rental_uris":{"android":"levelo://app?vid=506ac59a-6cbe-49c1-ae48-7f66e7c91ef7","ios":"levelo://app?vid=506ac59a-6cbe-49c1-ae48-7f66e7c91ef7"},"vehicle_type_id":"4","last_reported":1746699109,"current_range_meters":30400,"station_id":"ce4bhr92rcd13ifvqhrg","pricing_plan_id":"cebpf4jnsgd1na2vs0mg"},{"bike_id":"6218b95c-6586-4ee6-ba2d-b9442ce22514","system_id":"levelo_inurba_marseille","lat":43.23192,"lon":5.35557,"is_reserved":false,"is_disabled":false,"rental_uris":{"android":"levelo://app?vid=6218b95c-6586-4ee6-ba2d-b9442ce22514","ios":"levelo://app?vid=6218b95c-6586-4ee6-ba2d-b9442ce22514"},"vehicle_type_id":"4","last_reported":1746699109,"current_range_meters":30400,"station_id":"ce4bhu92rcd13ifvqi70","pricing_plan_id":"cebpf4jnsgd1na2vs0mg"},{"bike_id":"bcfb4b67-06ad-495f-bad6-c8e5e474e7b8","system_id":"levelo_inurba_marseille","lat":43.29793,"lon":5.39339,"is_reserved":false,"is_disabled":false,"rental_uris":{"android":"levelo://app?vid=bcfb4b67-06ad-495f-bad6-c8e5e474e7b8","ios":"levelo://app?vid=bcfb4b67-06ad-495f-bad6-c8e5e474e7b8"},"vehicle_type_id":"4","last_reported":1746699109,"current_range_meters":30400,"station_id":"chh1huq6cuj3fo74tm60","pricing_plan_id":"cebpf4jnsgd1na2vs0mg"},{"bike_id":"e0c1e264-90e3-4d02-ba64-24b0b8bcfad9","system_id":"levelo_inurba_marseille","lat":43.24168,"lon":5.36394,"is_reserved":false,"is_disabled":false,"rental_uris":{"android":"levelo://app?vid=e0c1e264-90e3-4d02-ba64-24b0b8bcfad9","ios":"levelo://app?vid=e0c1e264-90e3-4d02-ba64-24b0b8bcfad9"},"vehicle_type_id":"4","last_reported":1746699109,"current_range_meters":30400,"station_id":"cpo36qri1sfpv3e86is0","pricing_plan_id":"cebpf4jnsgd1na2vs0mg"},