{"last_updated":1732800048,"ttl":60,"version":"2.2","data":{"bikes":[{"bike_id":"927924fc-8a74-47c2-8b69-b7e14b1090b9","system_id":"levelo_inurba_marseille","lat":43.27811,"lon":5.40719,"is_reserved":false,"is_disabled":true,"rental_uris":{"android":"levelo://app?vid=927924fc-8a74-47c2-8b69-b7e14b1090b9","ios":"levelo://app?vid=927924fc-8a74-47c2-8b69-b7e14b1090b9"},"vehicle_type_id":"4","last_reported":1732800048,"current_range_meters":9600,"station_id":"ce4bhnh2rcd13ifvqgtg","pricing_plan_id":"cebpf4jnsgd1na2vs0mg"},{"bike_id":"b856c8b4-412d-4c25-bdd4-e6b29aed04cb","system_id":"levelo_inurba_marseille","lat":43.22932,"lon":5.35379,"is_reserved":false,"is_disabled":false,"rental_uris":{"android":"levelo://app?vid=b856c8b4-412d-4c25-bdd4-e6b29aed04cb","ios":"levelo://app?vid=b856c8b4-412d-4c25-bdd4-e6b29aed04cb"},"vehicle_type_id":"4","last_reported":1732800048,"current_range_meters":38800,"station_id":"cpo3532slgdg3j2ikp40","pricing_plan_id":"cebpf4jnsgd1na2vs0mg"},{"bike_id":"d0754314-ad13-46f1-89ef-a51badd51de6","system_id":"levelo_inurba_marseille","lat":43.24616,"lon":5.43657,"is_reserved":false,"is_disabled":false,"rental_uris":{"android":"levelo://app?vid=d0754314-ad13-46f1-89ef-a51badd51de6","ios":"levelo://app?vid=d0754314-ad13-46f1-89ef-a51badd51de6"},"vehicle_type_id":"4","last_reported":1732800048,"current_range_meters":27600,"station_id":"ce4bhmp2rcd13ifvqgog","pricing_plan_id":"cebpf4jnsgd1na2vs0mg"},{"bike_id":"5b88791c-5474-4c17-8542-3e41ea5a4e1a","system_id":"levelo_inurba_marseille","lat":43.26061,"lon":5.39396,"is_reserved":false,"is_disabled":false,"rental_uris":{"android":"levelo://app?vid=5b88791c-5474-4c17-8542-3e41ea5a4e1a","ios":"levelo://app?vid=5b88791c-5474-4c17-8542-3e41ea5a4e1a"},"vehicle_type_id":"4","last_reported":1732800048,"current_range_meters":37600,"station_id":"ce4bhh92rcd13ifvqfj0","pricing_plan_id":"cebpf4jnsgd1na2vs0mg"},{"bike_id":"c5ff18b6-982d-44aa-9672-f8f08b5f2aad","system_id":"levelo_inurba_marseille","lat":43.24064,"lon":5.37757,"is_reserved":false,"is_disabled":true,"rental_uris":{"android":"levelo://app?vid=c5ff18b6-982d-44aa-9672-f8f08b5f2aad","ios":"levelo://app?vid=c5ff18b6-982d-44aa-9672-f8f08b5f2aad"},"vehicle_type_id":"4","last_reported":1732800048,"current_range_meters":13600,"station_id":"","pricing_plan_id":"cebpf4jnsgd1na2vs0mg"},{"bike_id":"890f737b-cd69-4ea1-b121-1a499e00f5b8","system_id":"levelo_inurba_marseille","lat":43.27051,"lon":5.42271,"is_reserved":false,"is_disabled":false,"rental_uris":{"android":"levelo://app?vid=890f737b-cd69-4ea1-b121-1a499e00f5b8","ios":"levelo://app?vid=890f737b-cd69-4ea1-b121-1a499e00f5b8"},"vehicle_type_id":"4","last_reported":1732800048,"current_range_meters":27600,"station_id":"ce4bhk92rcd13ifvqgb0","pricing_plan_id":"cebpf4jnsgd1na2vs0mg"},{"bike_id":"88740c56-e146-4945-8045-2c9f1daf0885","system_id":"levelo_inurba_marseille","lat":43.26805,"lon":5.40269,"is_reserved":false,"is_disabled":false,"rental_uris":{"android":"levelo://app?vid=88740c56-e146-4945-8045-2c9f1daf0885","ios":"levelo://app?vid=88740c56-e146-4945-8045-2c9f1daf0885"},"vehicle_type_id":"4","last_reported":1732800048,"current_range_meters":28800,"station_id":"ce501612rcd8frsf0b60","pricing_plan_id":"cebpf4jnsgd1na2vs0mg"},{"bike_id":"ffafebfb-ddd0-40d0-9c58-5c6ef843dc02","system_id":"levelo_inurba_marseille","lat":43.30915,"lon":5.3685,"is_reserved":false,"is_disabled":false,"rental_uris":{"android":"levelo://app?vid=ffafebfb-ddd0-40d0-9c58-5c6ef843dc02","ios":"levelo://app?vid=ffafebfb-ddd0-40d0-9c58-5c6ef843dc02"},"vehicle_type_id":"4","last_reported":1732800048,"current_range_meters":10000,"station_id":"ce4bgn92rcd13ifvqbvg","pricing_plan_id":"cebpf4jnsgd1na2vs0mg"},{"bike_id":"2f0867d2-fc57-48ee-ac3f-d5acd3ed3bae","system_id":"levelo_inurba_marseille","lat":43.27998,"lon":5.40014,"is_reserved":false,"is_disabled":true,"rental_uris":{"android":"levelo://app?vid=2f0867d2-fc57-48ee-ac3f-d5acd3ed3bae","ios":"levelo://app?vid=2f0867d2-fc57-48ee-ac3f-d5acd3ed3bae"},"vehicle_type_id":"4","last_reported":1732800048,"current_range_meters":800,"station_id":"ce4bho92rcd13ifvqh4g","pricing_plan_id":"cebpf4jnsgd1na2vs0mg"},{"bike_id":"89963ea5-4c27-47c1-8c32-3449361fc57e","system_id":"levelo_inurba_marseille","lat":43.30539,"lon":5.36556,"is_reserved":false,"is_disabled":false,"rental_uris":{"android":"levelo://app?vid=89963ea5-4c27-47c1-8c32-3449361fc57e","ios":"levelo://app?vid=89963ea5-4c27-47c1-8c32-3449361fc57e"},"vehicle_type_id":"4","last_reported":1732800048,"current_range_meters":30400,"station_id":"ce4bgs12rcd13ifvqcag","pricing_plan_id":"cebpf4jnsgd1na2vs0mg"},{"bike_id":"2e6dc3fd-a669-4c82-8f11-1cdc77c41890","system_id":"levelo_inurba_marseille","lat":43.30455,"lon":5.37908,"is_reserved":false,"is_disabled":false,"rental_uris":{"android":"levelo://app?vid=2e6dc3fd-a669-4c82-8f11-1cdc77c41890","ios":"levelo://app?vid=2e6dc3fd-a669-4c82-8f11-1cdc77c41890"},"vehicle_type_id":"4","last_reported":1732800048,"current_range_meters":11600,"station_id":"ce4bgup2rcd13ifvqcn0","pricing_plan_id":"cebpf4jnsgd1na2vs0mg"},{"bike_id":"ce15a521-8a1d-47b7-92c8-091ca367d00e","system_id":"levelo_inurba_marseille","lat":43.3368,"lon":5.37194,"is_reserved":false,"is_disabled":false,"rental_uris":{"android":"levelo://app?vid=ce15a521-8a1d-47b7-92c8-091ca367d00e","ios":"levelo://app?vid=ce15a521-8a1d-47b7-92c8-091ca367d00e"},"vehicle_type_id":"4","last_reported":1732800048,"current_range_meters":38000,"station_id":"","pricing_plan_id":"cebpf4jnsgd1na2vs0mg"},{"bike_id":"11092eb0-c9d7-4577-a466-274da06d6eba","system_id":"levelo_inurba_marseille","lat":43.29277,"lon":5.36843,"is_reserved":false,"is_disabled":true,"rental_uris":{"android":"levelo://app?vid=11092eb0-c9d7-4577-a466-274da06d6eba","ios":"levelo://app?vid=11092eb0-c9d7-4577-a466-274da06d6eba"},"vehicle_type_id":"4","last_reported":1732800048,"current_range_meters":12800,"station_id":"ce4bhbp2rcd13ifvqesg","pricing_plan_id":"cebpf4jnsgd1na2vs0mg"},{"bike_id":"e15f4019-02f8-465b-9ca2-c66455167dbb","system_id":"levelo_inurba_marseille","lat":43.23149,"lon":5.43719,"is_reserved":false,"is_disabled":false,"rental_uris":{"android":"levelo://app?vid=e15f4019-02f8-465b-9ca2-c66455167dbb","ios":"levelo://app?vid=e15f4019-02f8-465b-9ca2-c66455167dbb"},"vehicle_type_id":"4","last_reported":1732800048,"current_range_meters":38800,"station_id":"ce4bhmp2rcd13ifvqgog","pricing_plan_id":"cebpf4jnsgd1na2vs0mg"},{"bike_id":"8384c70a-9318-416d-abef-29841927cefb","system_id":"levelo_inurba_marseille","lat":43.30537,"lon":5.36704,"is_reserved":false,"is_disabled":false,"rental_uris":{"android":"levelo://app?vid=8384c70a-9318-416d-abef-29841927cefb","ios":"levelo://app?vid=8384c70a-9318-416d-abef-29841927cefb"},"vehicle_type_id":"4","last_reported":1732800048,"current_range_meters":8800,"station_id":"ce4bgrp2rcd13ifvqc9g","pricing_plan_id":"cebpf4jnsgd1na2vs0mg"},{"bike_id":"b03de03d-a30c-40bb-91dd-89e3f5714dee","system_id":"levelo_inurba_marseille","lat":43.30904,"lon":5.3685,"is_reserved":false,"is_disabled":true,"rental_uris":{"android":"levelo://app?vid=b03de03d-a30c-40bb-91dd-89e3f5714dee","ios":"levelo://app?vid=b03de03d-a30c-40bb-91dd-89e3f5714dee"},"vehicle_type_id":"4","last_reported":1732800048,"current_range_meters":34800,"station_id":"ce4bgn92rcd13ifvqbvg","pricing_plan_id":"cebpf4jnsgd1na2vs0mg"},{"bike_id":"908a91b4-f74f-4175-9a94-be2178948b1b","system_id":"levelo_inurba_marseille","lat":43.25933,"lon":5.40923,"is_reserved":false,"is_disabled":true,"rental_uris":{"android":"levelo://app?vid=908a91b4-f74f-4175-9a94-be2178948b1b","ios":"levelo://app?vid=908a91b4-f74f-4175-9a94-be2178948b1b"},"vehicle_type_id":"4","last_reported":1732800048,"current_range_meters":0,"station_id":"ce4bhm92rcd13ifvqglg","pricing_plan_id":"cebpf4jnsgd1na2vs0mg"},{"bike_id":"5f529c0e-2721-4275-9c98-2afdfee37601","system_id":"levelo_inurba_marseille","lat":43.25932,"lon":5.40914,"is_reserved":false,"is_disabled":false,"rental_uris":{"android":"levelo://app?vid=5f529c0e-2721-4275-9c98-2afdfee37601","ios":"levelo://app?vid=5f529c0e-2721-4275-9c98-2afdfee37601"},"vehicle_type_id":"4","last_reported":1732800048,"current_range_meters":26800,"station_id":"ce4bhm92rcd13ifvqglg","pricing_plan_id":"cebpf4jnsgd1na2vs0mg"},{"bike_id":"ff9a1ec5-be80-43ec-9b6e-d2bb637a4f30","system_id":"levelo_inurba_marseille","lat":43.28704,"lon":5.4002,"is_reserved":false,"is_disabled":true,"rental_uris":{"android":"levelo://app?vid=ff9a1ec5-be80-43ec-9b6e-d2bb637a4f30","ios":"levelo://app?vid=ff9a1ec5-be80-43ec-9b6e-d2bb637a4f30"},"vehicle_type_id":"4","last_reported":1732800048,"current_range_meters":36000,"station_id":"ce4bho92rcd13ifvqh3g","pricing_plan_id":"cebpf4jnsgd1na2vs0mg"},{"bike_id":"27c507b3-ca8a-48d6-832f-faef8cb1e205","system_id":"levelo_inurba_marseille","lat":43.28715,"lon":5.3794,"is_reserved":false,"is_disabled":false,"rental_uris":{"android":"levelo://app?vid=27c507b3-ca8a-48d6-832f-faef8cb1e205","ios":"levelo://app?vid=27c507b3-ca8a-48d6-832f-faef8cb1e205"},"vehicle_type_id":"4","last_reported":1732800048,"current_range_meters":27200,"station_id":"ce4bh9p2rcd13ifvqec0","pricing_plan_id":"cebpf4jnsgd1na2vs0mg"},{"bike_id":"6f7949e1-de87-4a49-8620-fec27e04447f","system_id":"levelo_inurba_marseille","lat":43.33706,"lon":5.39189,"is_reserved":false,"is_disabled":false,"rental_uris":{"android":"levelo://app?vid=6f7949e1-de87-4a49-8620-fec27e04447f","ios":"levelo://app?vid=6f7949e1-de87-4a49-8620-fec27e04447f"},"vehicle_type_id":"4","last_reported":1732800048,"current_range_meters":35200,"station_id":"ce4bhr92rcd13ifvqhsg","pricing_plan_id":"cebpf4jnsgd1na2vs0mg"},{"bike_id":"19e5e7de-af8c-4e6c-8b5a-c464ab559c96","system_id":"levelo_inurba_marseille","lat":43.27963,"lon":5.38757,"is_reserved":false,"is_disabled":false,"rental_uris":{"android":"levelo://app?vid=19e5e7de-af8c-4e6c-8b5a-c464ab559c96","ios":"levelo://app?vid=19e5e7de-af8c-4e6c-8b5a-c464ab559c96"},"vehicle_type_id":"4","last_reported":1732800048,"current_range_meters":18000,"station_id":"ce4bhg12rcd13ifvqf80","pricing_plan_id":"cebpf4jnsgd1na2vs0mg"},{"bike_id":"14c2f8a2-64ce-4419-a726-01c1f701fa61","system_id":"levelo_inurba_marseille","lat":43.28701,"lon":5.39985,"is_reserved":false,"is_disabled":false,"rental_uris":{"android":"levelo://app?vid=14c2f8a2-64ce-4419-a726-01c1f701fa61","ios":"levelo://app?vid=14c2f8a2-64ce-4419-a726-01c1f701fa61"},"vehicle_type_id":"4","last_reported":1732800048,"current_range_meters":20000,"station_id":"ce4bho92rcd13ifvqh3g","pricing_plan_id":"cebpf4jnsgd1na2vs0mg"},{"bike_id":"20d189c2-44b0-421b-b279-ac991de94ac5","system_id":"levelo_inurba_marseille","lat":43.28851,"lon":5.35848,"is_reserved":false,"is_disabled":false,"rental_uris":{"android":"levelo://app?vid=20d189c2-44b0-421b-b279-ac991de94ac5","ios":"levelo://app?vid=20d189c2-44b0-421b-b279-ac991de94ac5"},"vehicle_type_id":"4","last_reported":1732800048,"current_range_meters":22000,"station_id":"ce4bhb12rcd13ifvqem0","pricing_plan_id":"cebpf4jnsgd1na2vs0mg"},{"bike_id":"2f0cb11d-2f6f-49b3-9f8d-4f2c839a038d","system_id":"levelo_inurba_marseille","lat":43.3014,"lon":5.37424,"is_reserved":false,"is_disabled":false,"rental_uris":{"android":"levelo://app?vid=2f0cb11d-2f6f-49b3-9f8d-4f2c839a038d","ios":"levelo://app?vid=2f0cb11d-2f6f-49b3-9f8d-4f2c839a038d"},"vehicle_type_id":"4","last_reported":1732800048,"current_range_meters":38800,"station_id":"ce4bgs92rcd13ifvqcc0","pricing_plan_id":"cebpf4jnsgd1na2vs0mg"},{"bike_id":"09ca27b9-f586-4eb0-8bf2-86ddb4bb36fb","system_id":"levelo_inurba_marseille","lat":43.2893,"lon":5.36641,"is_reserved":false,"is_disabled":true,"rental_uris":{"android":"levelo://app?vid=09ca27b9-f586-4eb0-8bf2-86ddb4bb36fb","ios":"levelo://app?vid=09ca27b9-f586-4eb0-8bf2-86ddb4bb36fb"},"vehicle_type_id":"4","last_reported":1732800048,"current_range_meters":1600,"station_id":"ce4bhap2rcd13ifvqek0","pricing_plan_id":"cebpf4jnsgd1na2vs0mg"},{"bike_id":"27da9bf1-a2e8-426b-acc7-134169cebef6","system_id":"levelo_inurba_marseille","lat":43.25493,"lon":5.37654,"is_reserved":false,"is_disabled":false,"rental_uris":{"android":"levelo://app?vid=27da9bf1-a2e8-426b-acc7-134169cebef6","ios":"levelo://app?vid=27da9bf1-a2e8-426b-acc7-134169cebef6"},"vehicle_type_id":"4","last_reported":1732800048,"current_range_meters":37600,"station_id":"ce4bhh12rcd13ifvqff0","pricing_plan_id":"cebpf4jnsgd1na2vs0mg"},{"bike_id":"4eb855f4-0c33-4e46-b9c3-fb652c131a25","system_id":"levelo_inurba_marseille","lat":43.26777,"lon":5.3942,"is_reserved":false,"is_disabled":true,"rental_uris":{"android":"levelo://app?vid=4eb855f4-0c33-4e46-b9c3-fb652c131a25","ios":"levelo://app?vid=4eb855f4-0c33-4e46-b9c3-fb652c131a25"},"vehicle_type_id":"4","last_reported":1732800048,"current_range_meters":800,"station_id":"ce4bhh12rcd13ifvqfg0","pricing_plan_id":"cebpf4jnsgd1na2vs0mg"},{"bike_id":"66b0e58a-178d-47d6-bbe7-3a54277b88dc","system_id":"levelo_inurba_marseille","lat":43.24168,"lon":5.36398,"is_reserved":false,"is_disabled":false,"rental_uris":{"android":"levelo://app?vid=66b0e58a-178d-47d6-bbe7-3a54277b88dc","ios":"levelo://app?vid=66b0e58a-178d-47d6-bbe7-3a54277b88dc"},"vehicle_type_id":"4","last_reported":1732800048,"current_range_meters":26000,"station_id":"cpo36qri1sfpv3e86is0","pricing_plan_id":"cebpf4jnsgd1na2vs0mg"},{"bike_id":"51ab8de7-971c-4ec8-bdf4-409a39628c87","system_id":"levelo_inurba_marseille","lat":43.24072,"lon":5.37764,"is_reserved":false,"is_disabled":true,"rental_uris":{"android":"levelo://app?vid=51ab8de7-971c-4ec8-bdf4-409a39628c87","ios":"levelo://app?vid=51ab8de7-971c-4ec8-bdf4-409a39628c87"},"vehicle_type_id":"4","last_reported":1732800048,"current_range_meters":0,"station_id":"ce4bhnp2rcd13ifvqgvg","pricing_plan_id":"cebpf4jnsgd1na2vs0mg"},{"bike_id":"5249c720-4ecf-407f-95ee-f4da1041dcb5","system_id":"levelo_inurba_marseille","lat":43.26685,"lon":5.38276,"is_reserved":false,"is_disabled":false,"rental_uris":{"android":"levelo://app?vid=5249c720-4ecf-407f-95ee-f4da1041dcb5","ios":"levelo://app?vid=5249c720-4ecf-407f-95ee-f4da1041dcb5"},"vehicle_type_id":"4","last_reported":1732800048,"current_range_meters":28800,"station_id":"ce4bhg92rcd13ifvqf90","pricing_plan_id":"cebpf4jnsgd1na2vs0mg"},{"bike_id":"b1422ff8-74e2-4dc1-94ac-a145ceea1d5e","system_id":"levelo_inurba_marseille","lat":43.32366,"lon":5.36745,"is_reserved":false,"is_disabled":false,"rental_uris":{"android":"levelo://app?vid=b1422ff8-74e2-4dc1-94ac-a145ceea1d5e","ios":"levelo://app?vid=b1422ff8-74e2-4dc1-94ac-a145ceea1d5e"},"vehicle_type_id":"4","last_reported":1732800048,"current_range_meters":14000,"station_id":"ce4bhsh2rcd13ifvqi2g","pricing_plan_id":"cebpf4jnsgd1na2vs0mg"},{"bike_id":"2767d88a-7019-4bec-90b1-76b3c34b1d78","system_id":"levelo_inurba_marseille","lat":43.27616,"lon":5.36117,"is_reserved":false,"is_disabled":false,"rental_uris":{"android":"levelo://app?vid=2767d88a-7019-4bec-90b1-76b3c34b1d78","ios":"levelo://app?vid=2767d88a-7019-4bec-90b1-76b3c34b1d78"},"vehicle_type_id":"4","last_reported":1732800048,"current_range_meters":36800,"station_id":"ce4bgj92rcd13ifvqbe0","pricing_plan_id":"cebpf4jnsgd1na2vs0mg"},{"bike_id":"4709c438-f4af-415a-a919-d27302b75dca","system_id":"levelo_inurba_marseille","lat":43.23196,"lon":5.35553,"is_reserved":false,"is_disabled":false,"rental_uris":{"android":"levelo://app?vid=4709c438-f4af-415a-a919-d27302b75dca","ios":"levelo://app?vid=4709c438-f4af-415a-a919-d27302b75dca"},"vehicle_type_id":"4","last_reported":1732800048,"current_range_meters":38800,"station_id":"ce4bhu92rcd13ifvqi70","pricing_plan_id":"cebpf4jnsgd1na2vs0mg"},{"bike_id":"2b921899-1359-49b6-a793-ffb9ef50e656","system_id":"levelo_inurba_marseille","lat":43.29618,"lon":5.37767,"is_reserved":false,"is_disabled":true,"rental_uris":{"android":"levelo://app?vid=2b921899-1359-49b6-a793-ffb9ef50e656","ios":"levelo://app?vid=2b921899-1359-49b6-a793-ffb9ef50e656"},"vehicle_type_id":"4","last_reported":1732800048,"current_range_meters":37600,"station_id":"ce4bgi92rcd13ifvqb90","pricing_plan_id":"cebpf4jnsgd1na2vs0mg"},{"bike_id":"c76da606-e2c2-488b-be01-d475ce0ce5b3","system_id":"levelo_inurba_marseille","lat":43.3013,"lon":5.3986,"is_reserved":false,"is_disabled":false,"rental_uris":{"android":"levelo://app?vid=c76da606-e2c2-488b-be01-d475ce0ce5b3","ios":"levelo://app?vid=c76da606-e2c2-488b-be01-d475ce0ce5b3"},"vehicle_type_id":"4","last_reported":1732800048,"current_range_meters":38000,"station_id":"ce4bh0h2rcd13ifvqd40","pricing_plan_id":"cebpf4jnsgd1na2vs0mg"},{"bike_id":"e68b29d6-57c2-4e82-b64e-5c0e5453674f","system_id":"levelo_inurba_marseille","lat":43.23153,"lon":5.43704,"is_reserved":false,"is_disabled":false,"rental_uris":{"android":"levelo://app?vid=e68b29d6-57c2-4e82-b64e-5c0e5453674f","ios":"levelo://app?vid=e68b29d6-57c2-4e82-b64e-5c0e5453674f"},"vehicle_type_id":"4","last_reported":1732800048,"current_range_meters":7200,"station_id":"ce4bhmp2rcd13ifvqgog","pricing_plan_id":"cebpf4jnsgd1na2vs0mg"},{"bike_id":"d1983a1d-30fd-42f6-8497-7eaac9d273ac","system_id":"levelo_inurba_marseille","lat":43.30882,"lon":5.39643,"is_reserved":false,"is_disabled":false,"rental_uris":{"android":"levelo://app?vid=d1983a1d-30fd-42f6-8497-7eaac9d273ac","ios":"levelo://app?vid=d1983a1d-30fd-42f6-8497-7eaac9d273ac"},"vehicle_type_id":"4","last_reported":1732800048,"current_range_meters":38000,"station_id":"ce4bh012rcd13ifvqcv0","pricing_plan_id":"cebpf4jnsgd1na2vs0mg"},{"bike_id":"5a198137-8661-40b4-bff8-b72046c16976","system_id":"levelo_inurba_marseille","lat":43.28858,"lon":5.35863,"is_reserved":false,"is_disabled":false,"rental_uris":{"android":"levelo://app?vid=5a198137-8661-40b4-bff8-b72046c16976","ios":"levelo://app?vid=5a198137-8661-40b4-bff8-b72046c16976"},"vehicle_type_id":"4","last_reported":1732800048,"current_range_meters":38000,"station_id":"ce4bhb12rcd13ifvqem0","pricing_plan_id":"cebpf4jnsgd1na2vs0mg"},{"bike_id":"f12dd3bf-f181-4691-825d-8938e7061a61","system_id":"levelo_inurba_marseille","lat":43.26684,"lon":5.38275,"is_reserved":false,"is_disabled":true,"rental_uris":{"android":"levelo://app?vid=f12dd3bf-f181-4691-825d-8938e7061a61","ios":"levelo://app?vid=f12dd3bf-f181-4691-825d-8938e7061a61"},"vehicle_type_id":"4","last_reported":1732800048,"current_range_meters":32000,"station_id":"ce4bhg92rcd13ifvqf90","pricing_plan_id":"cebpf4jnsgd1na2vs0mg"},{"bike_id":"869146c7-107f-4a8d-a9de-076457eea766","system_id":"levelo_inurba_marseille","lat":43.21672,"lon":5.34639,"is_reserved":false,"is_disabled":false,"rental_uris":{"android":"levelo://app?vid=869146c7-107f-4a8d-a9de-076457eea766","ios":"levelo://app?vid=869146c7-107f-4a8d-a9de-076457eea766"},"vehicle_type_id":"4","last_reported":1732800048,"current_range_meters":10800,"station_id":"","pricing_plan_id":"cebpf4jnsgd1na2vs0mg"},{"bike_id":"5d6aa0bd-e6b6-497a-98c6-6a3a4d1aafc5","system_id":"levelo_inurba_marseille","lat":43.28349,"lon":5.38111,"is_reserved":false,"is_disabled":true,"rental_uris":{"android":"levelo://app?vid=5d6aa0bd-e6b6-497a-98c6-6a3a4d1aafc5","ios":"levelo://app?vid=5d6aa0bd-e6b6-497a-98c6-6a3a4d1aafc5"},"vehicle_type_id":"4","last_reported":1732800048,"current_range_meters":400,"station_id":"ce4bh412rcd13ifvqdr0","pricing_plan_id":"cebpf4jnsgd1na2vs0mg"},{"bike_id":"247f4a79-0438-4f47-9a74-1f6b2b137be7","system_id":"levelo_inurba_marseille","lat":43.299695,"lon":5.384798,"is_reserved":false,"is_disabled":false,"rental_uris":{"android":"levelo://app?vid=247f4a79-0438-4f47-9a74-1f6b2b137be7","ios":"levelo://app?vid=247f4a79-0438-4f47-9a74-1f6b2b137be7"},"vehicle_type_id":"4","last_reported":1732800048,"current_range_meters":6400,"station_id":"ce4bgj92rcd13ifvqbd0","pricing_plan_id":"cebpf4jnsgd1na2vs0mg"},{"bike_id":"b8f46e0e-fb8b-45c0-82ed-2c919bfcc6ab","system_id":"levelo_inurba_marseille","lat":43.29532,"lon":5.37514,"is_reserved":false,"is_disabled":true,"rental_uris":{"android":"levelo://app?vid=b8f46e0e-fb8b-45c0-82ed-2c919bfcc6ab","ios":"levelo://app?vid=b8f46e0e-fb8b-45c0-82ed-2c919bfcc6ab"},"vehicle_type_id":"4","last_reported":1732800048,"current_range_meters":0,"station_id":"ce4bgkp2rcd13ifvqbmg","pricing_plan_id":"cebpf4jnsgd1na2vs0mg"},{"bike_id":"013c3408-b53f-4b33-b442-b78dc4660140","system_id":"levelo_inurba_marseille","lat":43.23152,"lon":5.43726,"is_reserved":false,"is_disabled":true,"rental_uris":{"android":"levelo://app?vid=013c3408-b53f-4b33-b442-b78dc4660140","ios":"levelo://app?vid=013c3408-b53f-4b33-b442-b78dc4660140"},"vehicle_type_id":"4","last_reported":1732800048,"current_range_meters":0,"station_id":"ce4bhmp2rcd13ifvqgog","pricing_plan_id":"cebpf4jnsgd1na2vs0mg"},{"bike_id":"bad8df67-3fb4-43fd-9717-71c817718be5","system_id":"levelo_inurba_marseille","lat":43.3254,"lon":5.41435,"is_reserved":false,"is_disabled":false,"rental_uris":{"android":"levelo://app?vid=bad8df67-3fb4-43fd-9717-71c817718be5","ios":"levelo://app?vid=bad8df67-3fb4-43fd-9717-71c817718be5"},"vehicle_type_id":"4","last_reported":1732800048,"current_range_meters":8800,"station_id":"ce4bhq12rcd13ifvqhhg","pricing_plan_id":"cebpf4jnsgd1na2vs0mg"},{"bike_id":"945ff00b-5904-449e-948a-0a34aaf33769","system_id":"levelo_inurba_marseille","lat":43.32658,"lon":5.41007,"is_reserved":false,"is_disabled":false,"rental_uris":{"android":"levelo://app?vid=945ff00b-5904-449e-948a-0a34aaf33769","ios":"levelo://app?vid=945ff00b-5904-449e-948a-0a34aaf33769"},"vehicle_type_id":"4","last_reported":1732800048,"current_range_meters":28000,"station_id":"ce4bhpp2rcd13ifvqhgg","pricing_plan_id":"cebpf4jnsgd1na2vs0mg"},{"bike_id":"13748854-c7ec-4486-bb35-86cbf66f8ec7","system_id":"levelo_inurba_marseille","lat":43.23152,"lon":5.43703,"is_reserved":false,"is_disabled":true,"rental_uris":{"android":"levelo://app?vid=13748854-c7ec-4486-bb35-86cbf66f8ec7","ios":"levelo://app?vid=13748854-c7ec-4486-bb35-86cbf66f8ec7"},"vehicle_type_id":"4","last_reported":1732800048,"current_range_meters":0,"station_id":"ce4bhmp2rcd13ifvqgog","pricing_plan_id":"cebpf4jnsgd1na2vs0mg"},{"bike_id":"960f63aa-0cf4-4300-a1e0-749e8cb1e19e","system_id":"levelo_inurba_marseille","lat":43.29083,"lon":5.3717,"is_reserved":false,"is_disabled":false,"rental_uris":{"android":"levelo://app?vid=960f63aa-0cf4-4300-a1e0-749e8cb1e19e","ios":"levelo://app?vid=960f63aa-0cf4-4300-a1e0-749e8cb1e19e"},"vehicle_type_id":"4","last_reported":1732800048,"current_range_meters":9200,"station_id":"ce4bh5p2rcd13ifvqe4g","pricing_plan_id":"cebpf4jnsgd1na2vs0mg"},{"bike_id":"8e2041ad-6bf5-4186-becc-025de1939b87","system_id":"levelo_inurba_marseille","lat":43.28462,"lon":5.35883,"is_reserved":false,"is_disabled":true,"rental_uris":{"android":"levelo://app?vid=8e2041ad-6bf5-4186-becc-025de1939b87","ios":"levelo://app?vid=8e2041ad-6bf5-4186-becc-025de1939b87"},"vehicle_type_id":"4","last_reported":1732800048,"current_range_meters":15200,"station_id":"ce4bhah2rcd13ifvqei0","pricing_plan_id":"cebpf4jnsgd1na2vs0mg"},{"bike_id":"b59bb72d-0642-4f2f-93ee-290ab59d7e2a","system_id":"levelo_inurba_marseille","lat":43.29921,"lon":5.3747,"is_reserved":false,"is_disabled":false,"rental_uris":{"android":"levelo://app?vid=b59bb72d-0642-4f2f-93ee-290ab59d7e2a","ios":"levelo://app?vid=b59bb72d-0642-4f2f-93ee-290ab59d7e2a"},"vehicle_type_id":"4","last_reported":1732800048,"current_range_meters":16400,"station_id":"ce4bgjh2rcd13ifvqbg0","pricing_plan_id":"cebpf4jnsgd1na2vs0mg"},{"bike_id":"c8e92a41-8241-4c2e-b8ae-4a4d23b64b9f","system_id":"levelo_inurba_marseille","lat":43.28858,"lon":5.39307,"is_reserved":false,"is_disabled":false,"rental_uris":{"android":"levelo://app?vid=c8e92a41-8241-4c2e-b8ae-4a4d23b64b9f","ios":"levelo://app?vid=c8e92a41-8241-4c2e-b8ae-4a4d23b64b9f"},"vehicle_type_id":"4","last_reported":1732800048,"current_range_meters":14000,"station_id":"ce4bhc92rcd13ifvqetg","pricing_plan_id":"cebpf4jnsgd1na2vs0mg"},{"bike_id":"4d4c884f-6933-49c0-8899-f9856d90f44d","system_id":"levelo_inurba_marseille","lat":43.29748,"lon":5.37971,"is_reserved":false,"is_disabled":true,"rental_uris":{"android":"levelo://app?vid=4d4c884f-6933-49c0-8899-f9856d90f44d","ios":"levelo://app?vid=4d4c884f-6933-49c0-8899-f9856d90f44d"},"vehicle_type_id":"4","last_reported":1732800048,"current_range_meters":0,"station_id":"","pricing_plan_id":"cebpf4jnsgd1na2vs0mg"},{"bike_id":"65d2562a-5a68-462e-941e-29c998025e60","system_id":"levelo_inurba_marseille","lat":43.24144,"lon":5.363693,"is_reserved":false,"is_disabled":false,"rental_uris":{"android":"levelo://app?vid=65d2562a-5a68-462e-941e-29c998025e60","ios":"levelo://app?vid=65d2562a-5a68-462e-941e-29c998025e60"},"vehicle_type_id":"4","last_reported":1732800048,"current_range_meters":8800,"station_id":"cpo36qri1sfpv3e86is0","pricing_plan_id":"cebpf4jnsgd1na2vs0mg"},{"bike_id":"98ee79fa-747b-46fc-9090-0cb320b4cc3c","system_id":"levelo_inurba_marseille","lat":43.28771,"lon":5.37787,"is_reserved":false,"is_disabled":false,"rental_uris":{"android":"levelo://app?vid=98ee79fa-747b-46fc-9090-0cb320b4cc3c","ios":"levelo://app?vid=98ee79fa-747b-46fc-9090-0cb320b4cc3c"},"vehicle_type_id":"4","last_reported":1732800048,"current_range_meters":6400,"station_id":"ce4bh3p2rcd13ifvqdq0","pricing_plan_id":"cebpf4jnsgd1na2vs0mg"},{"bike_id":"4421f67c-42d4-47c9-b28a-45d4504b55d1","system_id":"levelo_inurba_marseille","lat":43.29802,"lon":5.404,"is_reserved":false,"is_disabled":false,"rental_uris":{"android":"levelo://app?vid=4421f67c-42d4-47c9-b28a-45d4504b55d1","ios":"levelo://app?vid=4421f67c-42d4-47c9-b28a-45d4504b55d1"},"vehicle_type_id":"4","last_reported":1732800048,"current_range_meters":38400,"station_id":"ce4bh112rcd13ifvqd90","pricing_plan_id":"cebpf4jnsgd1na2vs0mg"},{"bike_id":"9009be37-c6b1-406b-b0a8-fbab355f715e","system_id":"levelo_inurba_marseille","lat":43.33762,"lon":5.37493,"is_reserved":false,"is_disabled":false,"rental_uris":{"android":"levelo://app?vid=9009be37-c6b1-406b-b0a8-fbab355f715e","ios":"levelo://app?vid=9009be37-c6b1-406b-b0a8-fbab355f715e"},"vehicle_type_id":"4","last_reported":1732800048,"current_range_meters":36800,"station_id":"","pricing_plan_id":"cebpf4jnsgd1na2vs0mg"},{"bike_id":"ba956689-9f08-4afb-925c-12b94d2fc606","system_id":"levelo_inurba_marseille","lat":43.32544,"lon":5.41432,"is_reserved":false,"is_disabled":false,"rental_uris":{"android":"levelo://app?vid=ba956689-9f08-4afb-925c-12b94d2fc606","ios":"levelo://app?vid=ba956689-9f08-4afb-925c-12b94d2fc606"},"vehicle_type_id":"4","last_reported":1732800048,"current_range_meters":24000,"station_id":"ce4bhq12rcd13ifvqhhg","pricing_plan_id":"cebpf4jnsgd1na2vs0mg"},{"bike_id":"f036ea2e-96a3-4f76-99f7-7f3c5e6948be","system_id":"levelo_inurba_marseille","lat":43.2719,"lon":5.40986,"is_reserved":false,"is_disabled":false,"rental_uris":{"android":"levelo://app?vid=f036ea2e-96a3-4f76-99f7-7f3c5e6948be","ios":"levelo://app?vid=f036ea2e-96a3-4f76-99f7-7f3c5e6948be"},"vehicle_type_id":"4","last_reported":1732800048,"current_range_meters":38800,"station_id":"ce4bhl12rcd13ifvqgf0","pricing_plan_id":"cebpf4jnsgd1na2vs0mg"},{"bike_id":"dad09c6f-2611-4c34-9738-7e2a9fb47005","system_id":"levelo_inurba_marseille","lat":43.26056,"lon":5.39395,"is_reserved":false,"is_disabled":false,"rental_uris":{"android":"levelo://app?vid=dad09c6f-2611-4c34-9738-7e2a9fb47005","ios":"levelo://app?vid=dad09c6f-2611-4c34-9738-7e2a9fb47005"},"vehicle_type_id":"4","last_reported":1732800048,"current_range_meters":37600,"station_id":"ce4bhh92rcd13ifvqfj0","pricing_plan_id":"cebpf4jnsgd1na2vs0mg"},{"bike_id":"4f4d6e19-4295-4262-996c-2135bc0dd749","system_id":"levelo_inurba_marseille","lat":43.2762,"lon":5.36109,"is_reserved":false,"is_disabled":false,"rental_uris":{"android":"levelo://app?vid=4f4d6e19-4295-4262-996c-2135bc0dd749","ios":"levelo://app?vid=4f4d6e19-4295-4262-996c-2135bc0dd749"},"vehicle_type_id":"4","last_reported":1732800048,"current_range_meters":30800,"station_id":"ce4bgj92rcd13ifvqbe0","pricing_plan_id":"cebpf4jnsgd1na2vs0mg"},{"bike_id":"2d21300d-a391-4188-9f67-8146cad0e14a","system_id":"levelo_inurba_marseille","lat":43.27681,"lon":5.38865,"is_reserved":false,"is_disabled":false,"rental_uris":{"android":"levelo://app?vid=2d21300d-a391-4188-9f67-8146cad0e14a","ios":"levelo://app?vid=2d21300d-a391-4188-9f67-8146cad0e14a"},"vehicle_type_id":"4","last_reported":1732800048,"current_range_meters":18000,"station_id":"ce4bhi12rcd13ifvqfo0","pricing_plan_id":"cebpf4jnsgd1na2vs0mg"},{"bike_id":"c5de74ec-2cb1-4300-897e-37f2e5d2da16","system_id":"levelo_inurba_marseille","lat":43.27845,"lon":5.39212,"is_reserved":false,"is_disabled":false,"rental_uris":{"android":"levelo://app?vid=c5de74ec-2cb1-4300-897e-37f2e5d2da16","ios":"levelo://app?vid=c5de74ec-2cb1-4300-897e-37f2e5d2da16"},"vehicle_type_id":"4","last_reported":1732800048,"current_range_meters":28800,"station_id":"ce4bhjp2rcd13ifvqga0","pricing_plan_id":"cebpf4jnsgd1na2vs0mg"},{"bike_id":"87236494-472d-4363-b5f1-168f5933483b","system_id":"levelo_inurba_marseille","lat":43.29851,"lon":5.36286,"is_reserved":false,"is_disabled":false,"rental_uris":{"android":"levelo://app?vid=87236494-472d-4363-b5f1-168f5933483b","ios":"levelo://app?vid=87236494-472d-4363-b5f1-168f5933483b"},"vehicle_type_id":"4","last_reported":1732800048,"current_range_meters":17600,"station_id":"ce4bgpp2rcd13ifvqc3g","pricing_plan_id":"cebpf4jnsgd1na2vs0mg"},{"bike_id":"329631d9-6505-4ec3-859a-bf7e20eaf189","system_id":"levelo_inurba_marseille","lat":43.28464,"lon":5.35882,"is_reserved":false,"is_disabled":false,"rental_uris":{"android":"levelo://app?vid=329631d9-6505-4ec3-859a-bf7e20eaf189","ios":"levelo://app?vid=329631d9-6505-4ec3-859a-bf7e20eaf189"},"vehicle_type_id":"4","last_reported":1732800048,"current_range_meters":22000,"station_id":"ce4bhah2rcd13ifvqei0","pricing_plan_id":"cebpf4jnsgd1na2vs0mg"},{"bike_id":"c8ec8766-7d46-4894-a612-ffece75c0618","system_id":"levelo_inurba_marseille","lat":43.27919,"lon":5.39593,"is_reserved":false,"is_disabled":false,"rental_uris":{"android":"levelo://app?vid=c8ec8766-7d46-4894-a612-ffece75c0618","ios":"levelo://app?vid=c8ec8766-7d46-4894-a612-ffece75c0618"},"vehicle_type_id":"4","last_reported":1732800048,"current_range_meters":28400,"station_id":"ce4bhf92rcd13ifvqf40","pricing_plan_id":"cebpf4jnsgd1na2vs0mg"},{"bike_id":"1133126e-d171-4f0f-884e-79d9aa75d560","system_id":"levelo_inurba_marseille","lat":43.27679,"lon":5.38878,"is_reserved":false,"is_disabled":false,"rental_uris":{"android":"levelo://app?vid=1133126e-d171-4f0f-884e-79d9aa75d560","ios":"levelo://app?vid=1133126e-d171-4f0f-884e-79d9aa75d560"},"vehicle_type_id":"4","last_reported":1732800048,"current_range_meters":20000,"station_id":"ce4bhi12rcd13ifvqfo0","pricing_plan_id":"cebpf4jnsgd1na2vs0mg"},{"bike_id":"353e5fd3-d440-4a72-9754-1777d6b03b39","system_id":"levelo_inurba_marseille","lat":43.29037,"lon":5.3757,"is_reserved":false,"is_disabled":true,"rental_uris":{"android":"levelo://app?vid=353e5fd3-d440-4a72-9754-1777d6b03b39","ios":"levelo://app?vid=353e5fd3-d440-4a72-9754-1777d6b03b39"},"vehicle_type_id":"4","last_reported":1732800048,"current_range_meters":29600,"station_id":"ce4bh692rcd13ifvqe90","pricing_plan_id":"cebpf4jnsgd1na2vs0mg"},{"bike_id":"b4b683ca-8899-4674-9e64-a4a48841d280","system_id":"levelo_inurba_marseille","lat":43.27209,"lon":5.39185,"is_reserved":false,"is_disabled":false,"rental_uris":{"android":"levelo://app?vid=b4b683ca-8899-4674-9e64-a4a48841d280","ios":"levelo://app?vid=b4b683ca-8899-4674-9e64-a4a48841d280"},"vehicle_type_id":"4","last_reported":1732800048,"current_range_meters":6400,"station_id":"ce4bhhp2rcd13ifvqfm0","pricing_plan_id":"cebpf4jnsgd1na2vs0mg"},{"bike_id":"7c1b4caa-ad10-4248-afa4-847c1d45dcbd","system_id":"levelo_inurba_marseille","lat":43.25927,"lon":5.40906,"is_reserved":false,"is_disabled":false,"rental_uris":{"android":"levelo://app?vid=7c1b4caa-ad10-4248-afa4-847c1d45dcbd","ios":"levelo://app?vid=7c1b4caa-ad10-4248-afa4-847c1d45dcbd"},"vehicle_type_id":"4","last_reported":1732800048,"current_range_meters":25200,"station_id":"ce4bhm92rcd13ifvqglg","pricing_plan_id":"cebpf4jnsgd1na2vs0mg"},{"bike_id":"e8fa7be1-2407-41a7-b843-e7c70f1917ef","system_id":"levelo_inurba_marseille","lat":43.27612,"lon":5.36113,"is_reserved":false,"is_disabled":true,"rental_uris":{"android":"levelo://app?vid=e8fa7be1-2407-41a7-b843-e7c70f1917ef","ios":"levelo://app?vid=e8fa7be1-2407-41a7-b843-e7c70f1917ef"},"vehicle_type_id":"4","last_reported":1732800048,"current_range_meters":0,"station_id":"ce4bgj92rcd13ifvqbe0","pricing_plan_id":"cebpf4jnsgd1na2vs0mg"},{"bike_id":"e776eb8d-2450-4de3-9e4c-ede525189baa","system_id":"levelo_inurba_marseille","lat":43.27891,"lon":5.38003,"is_reserved":false,"is_disabled":false,"rental_uris":{"android":"levelo://app?vid=e776eb8d-2450-4de3-9e4c-ede525189baa","ios":"levelo://app?vid=e776eb8d-2450-4de3-9e4c-ede525189baa"},"vehicle_type_id":"4","last_reported":1732800048,"current_range_meters":27600,"station_id":"ce4bhf92rcd13ifvqf50","pricing_plan_id":"cebpf4jnsgd1na2vs0mg"},{"bike_id":"95c39abd-631b-4674-8877-bb71fdbca347","system_id":"levelo_inurba_marseille","lat":43.29577,"lon":5.37697,"is_reserved":false,"is_disabled":true,"rental_uris":{"android":"levelo://app?vid=95c39abd-631b-4674-8877-bb71fdbca347","ios":"levelo://app?vid=95c39abd-631b-4674-8877-bb71fdbca347"},"vehicle_type_id":"4","last_reported":1732800048,"current_range_meters":0,"station_id":"","pricing_plan_id":"cebpf4jnsgd1na2vs0mg"},{"bike_id":"35637c9f-d6c4-4d75-82b5-13284fd1c1f7","system_id":"levelo_inurba_marseille","lat":43.30481,"lon":5.36596,"is_reserved":false,"is_disabled":false,"rental_uris":{"android":"levelo://app?vid=35637c9f-d6c4-4d75-82b5-13284fd1c1f7","ios":"levelo://app?vid=35637c9f-d6c4-4d75-82b5-13284fd1c1f7"},"vehicle_type_id":"4","last_reported":1732800048,"current_range_meters":29600,"station_id":"","pricing_plan_id":"cebpf4jnsgd1na2vs0mg"},{"bike_id":"df1919fe-5865-46fa-9ab6-059b74a4fb31","system_id":"levelo_inurba_marseille","lat":43.23155,"lon":5.43707,"is_reserved":false,"is_disabled":false,"rental_uris":{"android":"levelo://app?vid=df1919fe-5865-46fa-9ab6-059b74a4fb31","ios":"levelo://app?vid=df1919fe-5865-46fa-9ab6-059b74a4fb31"},"vehicle_type_id":"4","last_reported":1732800048,"current_range_meters":27600,"station_id":"ce4bhmp2rcd13ifvqgog","pricing_plan_id":"cebpf4jnsgd1na2vs0mg"},{"bike_id":"1dee5398-ece1-4217-b5b9-984f22c2ff59","system_id":"levelo_inurba_marseille","lat":43.292674,"lon":5.384354,"is_reserved":false,"is_disabled":true,"rental_uris":{"android":"levelo://app?vid=1dee5398-ece1-4217-b5b9-984f22c2ff59","ios":"levelo://app?vid=1dee5398-ece1-4217-b5b9-984f22c2ff59"},"vehicle_type_id":"4","last_reported":1732800048,"current_range_meters":0,"station_id":"ce4bh692rcd13ifvqea0","pricing_plan_id":"cebpf4jnsgd1na2vs0mg"},{"bike_id":"21f7e758-11df-4701-832e-1031f3927322","system_id":"levelo_inurba_marseille","lat":43.23066,"lon":5.35487,"is_reserved":false,"is_disabled":false,"rental_uris":{"android":"levelo://app?vid=21f7e758-11df-4701-832e-1031f3927322","ios":"levelo://app?vid=21f7e758-11df-4701-832e-1031f3927322"},"vehicle_type_id":"4","last_reported":1732800048,"current_range_meters":26000,"station_id":"cpo3342slgdg3j2ifvpg","pricing_plan_id":"cebpf4jnsgd1na2vs0mg"},{"bike_id":"6c02644c-8127-4180-a0b3-0627a51e8f30","system_id":"levelo_inurba_marseille","lat":43.29792,"lon":5.38103,"is_reserved":false,"is_disabled":false,"rental_uris":{"android":"levelo://app?vid=6c02644c-8127-4180-a0b3-0627a51e8f30","ios":"levelo://app?vid=6c02644c-8127-4180-a0b3-0627a51e8f30"},"vehicle_type_id":"4","last_reported":1732800048,"current_range_meters":18800,"station_id":"ce4bgip2rcd13ifvqbb0","pricing_plan_id":"cebpf4jnsgd1na2vs0mg"},{"bike_id":"ec63d947-b2e7-4a5f-a6dc-1fe7ca78162a","system_id":"levelo_inurba_marseille","lat":43.2979,"lon":5.38096,"is_reserved":false,"is_disabled":false,"rental_uris":{"android":"levelo://app?vid=ec63d947-b2e7-4a5f-a6dc-1fe7ca78162a","ios":"levelo://app?vid=ec63d947-b2e7-4a5f-a6dc-1fe7ca78162a"},"vehicle_type_id":"4","last_reported":1732800048,"current_range_meters":18800,"station_id":"ce4bgip2rcd13ifvqbb0","pricing_plan_id":"cebpf4jnsgd1na2vs0mg"},{"bike_id":"43092d58-2422-41bf-b6a5-fe48846dbbce","system_id":"levelo_inurba_marseille","lat":43.29201,"lon":5.39325,"is_reserved":false,"is_disabled":false,"rental_uris":{"android":"levelo://app?vid=43092d58-2422-41bf-b6a5-fe48846dbbce","ios":"levelo://app?vid=43092d58-2422-41bf-b6a5-fe48846dbbce"},"vehicle_type_id":"4","last_reported":1732800048,"current_range_meters":38400,"station_id":"ce4bh192rcd13ifvqdd0","pricing_plan_id":"cebpf4jnsgd1na2vs0mg"},{"bike_id":"8865b31a-2279-430c-9a34-3ceeb68419a6","system_id":"levelo_inurba_marseille","lat":43.29561,"lon":5.42286,"is_reserved":false,"is_disabled":false,"rental_uris":{"android":"levelo://app?vid=8865b31a-2279-430c-9a34-3ceeb68419a6","ios":"levelo://app?vid=8865b31a-2279-430c-9a34-3ceeb68419a6"},"vehicle_type_id":"4","last_reported":1732800048,"current_range_meters":34000,"station_id":"ce4bhph2rcd13ifvqhdg","pricing_plan_id":"cebpf4jnsgd1na2vs0mg"},{"bike_id":"0d6ad86a-d679-4803-96ca-14041613c9a8","system_id":"levelo_inurba_marseille","lat":43.29842,"lon":5.36262,"is_reserved":false,"is_disabled":false,"rental_uris":{"android":"levelo://app?vid=0d6ad86a-d679-4803-96ca-14041613c9a8","ios":"levelo://app?vid=0d6ad86a-d679-4803-96ca-14041613c9a8"},"vehicle_type_id":"4","last_reported":1732800048,"current_range_meters":28400,"station_id":"ce4bgpp2rcd13ifvqc3g","pricing_plan_id":"cebpf4jnsgd1na2vs0mg"},{"bike_id":"51398210-3c12-4b6a-8447-e8168ecd05b9","system_id":"levelo_inurba_marseille","lat":43.27979,"lon":5.38745,"is_reserved":false,"is_disabled":true,"rental_uris":{"android":"levelo://app?vid=51398210-3c12-4b6a-8447-e8168ecd05b9","ios":"levelo://app?vid=51398210-3c12-4b6a-8447-e8168ecd05b9"},"vehicle_type_id":"4","last_reported":1732800048,"current_range_meters":800,"station_id":"ce4bhg12rcd13ifvqf80","pricing_plan_id":"cebpf4jnsgd1na2vs0mg"},{"bike_id":"39b04c21-6a6a-40a7-a489-741c2b67c9bd","system_id":"levelo_inurba_marseille","lat":43.337232,"lon":5.391903,"is_reserved":false,"is_disabled":false,"rental_uris":{"android":"levelo://app?vid=39b04c21-6a6a-40a7-a489-741c2b67c9bd","ios":"levelo://app?vid=39b04c21-6a6a-40a7-a489-741c2b67c9bd"},"vehicle_type_id":"4","last_reported":1732800048,"current_range_meters":38800,"station_id":"ce4bhr92rcd13ifvqhsg","pricing_plan_id":"cebpf4jnsgd1na2vs0mg"},{"bike_id":"a0294619-58a5-4c73-b522-6ad5747668ba","system_id":"levelo_inurba_marseille","lat":43.28032,"lon":5.36956,"is_reserved":false,"is_disabled":false,"rental_uris":{"android":"levelo://app?vid=a0294619-58a5-4c73-b522-6ad5747668ba","ios":"levelo://app?vid=a0294619-58a5-4c73-b522-6ad5747668ba"},"vehicle_type_id":"4","last_reported":1732800048,"current_range_meters":20000,"station_id":"ce4bha12rcd13ifvqef0","pricing_plan_id":"cebpf4jnsgd1na2vs0mg"},{"bike_id":"c6c1673a-93c4-4c6b-85ee-e03e6051bfc5","system_id":"levelo_inurba_marseille","lat":43.311696,"lon":5.3872,"is_reserved":false,"is_disabled":false,"rental_uris":{"android":"levelo://app?vid=c6c1673a-93c4-4c6b-85ee-e03e6051bfc5","ios":"levelo://app?vid=c6c1673a-93c4-4c6b-85ee-e03e6051bfc5"},"vehicle_type_id":"4","last_reported":1732800048,"current_range_meters":24800,"station_id":"ce4bgv12rcd13ifvqcp0","pricing_plan_id":"cebpf4jnsgd1na2vs0mg"},{"bike_id":"86e73b7a-3c2e-4504-b881-52dbf4635a76","system_id":"levelo_inurba_marseille","lat":43.27494,"lon":5.42454,"is_reserved":false,"is_disabled":false,"rental_uris":{"android":"levelo://app?vid=86e73b7a-3c2e-4504-b881-52dbf4635a76","ios":"levelo://app?vid=86e73b7a-3c2e-4504-b881-52dbf4635a76"},"vehicle_type_id":"4","last_reported":1732800048,"current_range_meters":14800,"station_id":"ce4bhn92rcd13ifvqgrg","pricing_plan_id":"cebpf4jnsgd1na2vs0mg"},{"bike_id":"53acd5a8-ce0f-41f0-96bc-8786e46cf6d2","system_id":"levelo_inurba_marseille","lat":43.27995,"lon":5.41655,"is_reserved":false,"is_disabled":true,"rental_uris":{"android":"levelo://app?vid=53acd5a8-ce0f-41f0-96bc-8786e46cf6d2","ios":"levelo://app?vid=53acd5a8-ce0f-41f0-96bc-8786e46cf6d2"},"vehicle_type_id":"4","last_reported":1732800048,"current_range_meters":400,"station_id":"ce4bho12rcd13ifvqh1g","pricing_plan_id":"cebpf4jnsgd1na2vs0mg"},{"bike_id":"676a1f8a-3fee-4279-9a0d-fe8357934331","system_id":"levelo_inurba_marseille","lat":43.28941,"lon":5.39628,"is_reserved":false,"is_disabled":false,"rental_uris":{"android":"levelo://app?vid=676a1f8a-3fee-4279-9a0d-fe8357934331","ios":"levelo://app?vid=676a1f8a-3fee-4279-9a0d-fe8357934331"},"vehicle_type_id":"4","last_reported":1732800048,"current_range_meters":19600,"station_id":"ce4bh3h2rcd13ifvqdn0","pricing_plan_id":"cebpf4jnsgd1na2vs0mg"},{"bike_id":"16259231-83f4-4c0b-b4de-0dcb1d03ab7a","system_id":"levelo_inurba_marseille","lat":43.337444,"lon":5.374475,"is_reserved":false,"is_disabled":false,"rental_uris":{"android":"levelo://app?vid=16259231-83f4-4c0b-b4de-0dcb1d03ab7a","ios":"levelo://app?vid=16259231-83f4-4c0b-b4de-0dcb1d03ab7a"},"vehicle_type_id":"4","last_reported":1732800048,"current_range_meters":36400,"station_id":"","pricing_plan_id":"cebpf4jnsgd1na2vs0mg"},{"bike_id":"45a67577-ce08-436f-b7b4-96ed39f0a993","system_id":"levelo_inurba_marseille","lat":43.26563,"lon":5.39059,"is_reserved":false,"is_disabled":false,"rental_uris":{"android":"levelo://app?vid=45a67577-ce08-436f-b7b4-96ed39f0a993","ios":"levelo://app?vid=45a67577-ce08-436f-b7b4-96ed39f0a993"},"vehicle_type_id":"4","last_reported":1732800048,"current_range_meters":32400,"station_id":"cjm6bp8fraef2m0cb0m0","pricing_plan_id":"cebpf4jnsgd1na2vs0mg"},{"bike_id":"3034f6d6-ba4f-44d1-b7c3-e4a59ddfd464","system_id":"levelo_inurba_marseille","lat":43.296,"lon":5.38102,"is_reserved":false,"is_disabled":false,"rental_uris":{"android":"levelo://app?vid=3034f6d6-ba4f-44d1-b7c3-e4a59ddfd464","ios":"levelo://app?vid=3034f6d6-ba4f-44d1-b7c3-e4a59ddfd464"},"vehicle_type_id":"4","last_reported":1732800048,"current_range_meters":34800,"station_id":"ce4bgl12rcd13ifvqbo0","pricing_plan_id":"cebpf4jnsgd1na2vs0mg"},{"bike_id":"220ce8bf-6055-439a-932f-70112f24c52b","system_id":"levelo_inurba_marseille","lat":43.32111,"lon":5.36768,"is_reserved":false,"is_disabled":false,"rental_uris":{"android":"levelo://app?vid=220ce8bf-6055-439a-932f-70112f24c52b","ios":"levelo://app?vid=220ce8bf-6055-439a-932f-70112f24c52b"},"vehicle_type_id":"4","last_reported":1732800048,"current_range_meters":10800,"station_id":"ce4bhrh2rcd13ifvqhug","pricing_plan_id":"cebpf4jnsgd1na2vs0mg"},{"bike_id":"4c87ffee-c7f9-43b9-adab-66fa75dbd0d1","system_id":"levelo_inurba_marseille","lat":43.32539,"lon":5.41445,"is_reserved":false,"is_disabled":false,"rental_uris":{"android":"levelo://app?vid=4c87ffee-c7f9-43b9-adab-66fa75dbd0d1","ios":"levelo://app?vid=4c87ffee-c7f9-43b9-adab-66fa75dbd0d1"},"vehicle_type_id":"4","last_reported":1732800048,"current_range_meters":9200,"station_id":"ce4bhq12rcd13ifvqhhg","pricing_plan_id":"cebpf4jnsgd1na2vs0mg"},{"bike_id":"af818c63-364e-4baa-bf71-77aacc89500f","system_id":"levelo_inurba_marseille","lat":43.27315,"lon":5.39072,"is_reserved":false,"is_disabled":false,"rental_uris":{"android":"levelo://app?vid=af818c63-364e-4baa-bf71-77aacc89500f","ios":"levelo://app?vid=af818c63-364e-4baa-bf71-77aacc89500f"},"vehicle_type_id":"4","last_reported":1732800048,"current_range_meters":14400,"station_id":"ce4bhgp2rcd13ifvqfe0","pricing_plan_id":"cebpf4jnsgd1na2vs0mg"},{"bike_id":"153c248e-65d0-42c9-82ad-061b1bd1fc18","system_id":"levelo_inurba_marseille","lat":43.30329,"lon":5.40434,"is_reserved":false,"is_disabled":false,"rental_uris":{"android":"levelo://app?vid=153c248e-65d0-42c9-82ad-061b1bd1fc18","ios":"levelo://app?vid=153c248e-65d0-42c9-82ad-061b1bd1fc18"},"vehicle_type_id":"4","last_reported":1732800048,"current_range_meters":4800,"station_id":"ce4bh012rcd13ifvqd10","pricing_plan_id":"cebpf4jnsgd1na2vs0mg"},{"bike_id":"fa3cc2c8-e552-4d78-8b53-b0029dd3141b","system_id":"levelo_inurba_marseille","lat":43.27205,"lon":5.39172,"is_reserved":false,"is_disabled":true,"rental_uris":{"android":"levelo://app?vid=fa3cc2c8-e552-4d78-8b53-b0029dd3141b","ios":"levelo://app?vid=fa3cc2c8-e552-4d78-8b53-b0029dd3141b"},"vehicle_type_id":"4","last_reported":1732800048,"current_range_meters":0,"station_id":"ce4bhhp2rcd13ifvqfm0","pricing_plan_id":"cebpf4jnsgd1na2vs0mg"},{"bike_id":"9ba17297-6532-486f-9ea1-b03ac5b99084","system_id":"levelo_inurba_marseille","lat":43.3176,"lon":5.39007,"is_reserved":false,"is_disabled":false,"rental_uris":{"android":"levelo://app?vid=9ba17297-6532-486f-9ea1-b03ac5b99084","ios":"levelo://app?vid=9ba17297-6532-486f-9ea1-b03ac5b99084"},"vehicle_type_id":"4","last_reported":1732800048,"current_range_meters":38800,"station_id":"ce4bhqp2rcd13ifvqhng","pricing_plan_id":"cebpf4jnsgd1na2vs0mg"},{"bike_id":"d3ecdf8d-9da2-4bd4-bbfd-52c2babb3a8a","system_id":"levelo_inurba_marseille","lat":43.28267,"lon":5.35062,"is_reserved":false,"is_disabled":false,"rental_uris":{"android":"levelo://app?vid=d3ecdf8d-9da2-4bd4-bbfd-52c2babb3a8a","ios":"levelo://app?vid=d3ecdf8d-9da2-4bd4-bbfd-52c2babb3a8a"},"vehicle_type_id":"4","last_reported":1732800048,"current_range_meters":8800,"station_id":"ce4bhbp2rcd13ifvqerg","pricing_plan_id":"cebpf4jnsgd1na2vs0mg"},{"bike_id":"fab79947-e52f-48a0-9e1b-09c103b132db","system_id":"levelo_inurba_marseille","lat":43.25502,"lon":5.37651,"is_reserved":false,"is_disabled":false,"rental_uris":{"android":"levelo://app?vid=fab79947-e52f-48a0-9e1b-09c103b132db","ios":"levelo://app?vid=fab79947-e52f-48a0-9e1b-09c103b132db"},"vehicle_type_id":"4","last_reported":1732800048,"current_range_meters":29600,"station_id":"ce4bhh12rcd13ifvqff0","pricing_plan_id":"cebpf4jnsgd1na2vs0mg"},{"bike_id":"d5c91193-45a6-46a3-9d27-9036c54c514b","system_id":"levelo_inurba_marseille","lat":43.28666,"lon":5.36358,"is_reserved":false,"is_disabled":false,"rental_uris":{"android":"levelo://app?vid=d5c91193-45a6-46a3-9d27-9036c54c514b","ios":"levelo://app?vid=d5c91193-45a6-46a3-9d27-9036c54c514b"},"vehicle_type_id":"4","last_reported":1732800048,"current_range_meters":24000,"station_id":"ce4bhah2rcd13ifvqej0","pricing_plan_id":"cebpf4jnsgd1na2vs0mg"},{"bike_id":"1cd78e3c-eca2-430e-a00b-3450b52eb373","system_id":"levelo_inurba_marseille","lat":43.22931,"lon":5.35377,"is_reserved":false,"is_disabled":false,"rental_uris":{"android":"levelo://app?vid=1cd78e3c-eca2-430e-a00b-3450b52eb373","ios":"levelo://app?vid=1cd78e3c-eca2-430e-a00b-3450b52eb373"},"vehicle_type_id":"4","last_reported":1732800048,"current_range_meters":32800,"station_id":"cpo3532slgdg3j2ikp40","pricing_plan_id":"cebpf4jnsgd1na2vs0mg"},{"bike_id":"a6adbf9d-271f-42c0-ae32-4f99d4b60860","system_id":"levelo_inurba_marseille","lat":43.30878,"lon":5.39631,"is_reserved":false,"is_disabled":false,"rental_uris":{"android":"levelo://app?vid=a6adbf9d-271f-42c0-ae32-4f99d4b60860","ios":"levelo://app?vid=a6adbf9d-271f-42c0-ae32-4f99d4b60860"},"vehicle_type_id":"4","last_reported":1732800048,"current_range_meters":36000,"station_id":"ce4bh012rcd13ifvqcv0","pricing_plan_id":"cebpf4jnsgd1na2vs0mg"},{"bike_id":"97b5cb36-b472-4883-96c2-5ac6765d6623","system_id":"levelo_inurba_marseille","lat":43.28339,"lon":5.38098,"is_reserved":false,"is_disabled":false,"rental_uris":{"android":"levelo://app?vid=97b5cb36-b472-4883-96c2-5ac6765d6623","ios":"levelo://app?vid=97b5cb36-b472-4883-96c2-5ac6765d6623"},"vehicle_type_id":"4","last_reported":1732800048,"current_range_meters":38800,"station_id":"ce4bh412rcd13ifvqdr0","pricing_plan_id":"cebpf4jnsgd1na2vs0mg"},{"bike_id":"8781107a-bca3-4fb5-8e13-c1a0e84595bc","system_id":"levelo_inurba_marseille","lat":43.27064,"lon":5.4227,"is_reserved":false,"is_disabled":false,"rental_uris":{"android":"levelo://app?vid=8781107a-bca3-4fb5-8e13-c1a0e84595bc","ios":"levelo://app?vid=8781107a-bca3-4fb5-8e13-c1a0e84595bc"},"vehicle_type_id":"4","last_reported":1732800048,"current_range_meters":8000,"station_id":"ce4bhk92rcd13ifvqgb0","pricing_plan_id":"cebpf4jnsgd1na2vs0mg"},{"bike_id":"e6060ef1-391a-480c-81fb-1d41a4490686","system_id":"levelo_inurba_marseille","lat":43.3091,"lon":5.3685,"is_reserved":false,"is_disabled":false,"rental_uris":{"android":"levelo://app?vid=e6060ef1-391a-480c-81fb-1d41a4490686","ios":"levelo://app?vid=e6060ef1-391a-480c-81fb-1d41a4490686"},"vehicle_type_id":"4","last_reported":1732800048,"current_range_meters":14800,"station_id":"ce4bgn92rcd13ifvqbvg","pricing_plan_id":"cebpf4jnsgd1na2vs0mg"},{"bike_id":"accb9594-a586-48ae-bd2b-23fe917ed97c","system_id":"levelo_inurba_marseille","lat":43.27491,"lon":5.42451,"is_reserved":false,"is_disabled":false,"rental_uris":{"android":"levelo://app?vid=accb9594-a586-48ae-bd2b-23fe917ed97c","ios":"levelo://app?vid=accb9594-a586-48ae-bd2b-23fe917ed97c"},"vehicle_type_id":"4","last_reported":1732800048,"current_range_meters":24800,"station_id":"ce4bhn92rcd13ifvqgrg","pricing_plan_id":"cebpf4jnsgd1na2vs0mg"},{"bike_id":"62ad8267-2b23-4792-97e1-3d9fbf83ec1c","system_id":"levelo_inurba_marseille","lat":43.268,"lon":5.40265,"is_reserved":false,"is_disabled":false,"rental_uris":{"android":"levelo://app?vid=62ad8267-2b23-4792-97e1-3d9fbf83ec1c","ios":"levelo://app?vid=62ad8267-2b23-4792-97e1-3d9fbf83ec1c"},"vehicle_type_id":"4","last_reported":1732800048,"current_range_meters":32400,"station_id":"ce501612rcd8frsf0b60","pricing_plan_id":"cebpf4jnsgd1na2vs0mg"},{"bike_id":"fa8a9680-c70c-422f-8033-c66e027a8587","system_id":"levelo_inurba_marseille","lat":43.30472,"lon":5.37898,"is_reserved":false,"is_disabled":false,"rental_uris":{"android":"levelo://app?vid=fa8a9680-c70c-422f-8033-c66e027a8587","ios":"levelo://app?vid=fa8a9680-c70c-422f-8033-c66e027a8587"},"vehicle_type_id":"4","last_reported":1732800048,"current_range_meters":38800,"station_id":"ce4bgup2rcd13ifvqcn0","pricing_plan_id":"cebpf4jnsgd1na2vs0mg"},{"bike_id":"296a787d-ceca-4c76-8e73-8d4c0cae112a","system_id":"levelo_inurba_marseille","lat":43.27498,"lon":5.42446,"is_reserved":false,"is_disabled":false,"rental_uris":{"android":"levelo://app?vid=296a787d-ceca-4c76-8e73-8d4c0cae112a","ios":"levelo://app?vid=296a787d-ceca-4c76-8e73-8d4c0cae112a"},"vehicle_type_id":"4","last_reported":1732800048,"current_range_meters":30800,"station_id":"ce4bhn92rcd13ifvqgrg","pricing_plan_id":"cebpf4jnsgd1na2vs0mg"},{"bike_id":"3dd27f14-51ec-4d1e-8d64-1ea7632555f3","system_id":"levelo_inurba_marseille","lat":43.32111,"lon":5.36773,"is_reserved":false,"is_disabled":false,"rental_uris":{"android":"levelo://app?vid=3dd27f14-51ec-4d1e-8d64-1ea7632555f3","ios":"levelo://app?vid=3dd27f14-51ec-4d1e-8d64-1ea7632555f3"},"vehicle_type_id":"4","last_reported":1732800048,"current_range_meters":36000,"station_id":"ce4bhrh2rcd13ifvqhug","pricing_plan_id":"cebpf4jnsgd1na2vs0mg"},{"bike_id":"ef7faf07-a670-4e15-b564-bded5c7ce834","system_id":"levelo_inurba_marseille","lat":43.32355,"lon":5.36751,"is_reserved":false,"is_disabled":false,"rental_uris":{"android":"levelo://app?vid=ef7faf07-a670-4e15-b564-bded5c7ce834","ios":"levelo://app?vid=ef7faf07-a670-4e15-b564-bded5c7ce834"},"vehicle_type_id":"4","last_reported":1732800048,"current_range_meters":37600,"station_id":"ce4bhsh2rcd13ifvqi2g","pricing_plan_id":"cebpf4jnsgd1na2vs0mg"},{"bike_id":"c0a35a0c-3991-4a01-a6ce-bf5982d21667","system_id":"levelo_inurba_marseille","lat":43.2952,"lon":5.37519,"is_reserved":false,"is_disabled":false,"rental_uris":{"android":"levelo://app?vid=c0a35a0c-3991-4a01-a6ce-bf5982d21667","ios":"levelo://app?vid=c0a35a0c-3991-4a01-a6ce-bf5982d21667"},"vehicle_type_id":"4","last_reported":1732800048,"current_range_meters":22000,"station_id":"ce4bgkp2rcd13ifvqbmg","pricing_plan_id":"cebpf4jnsgd1na2vs0mg"},{"bike_id":"53e1bdd2-76b2-4422-a8be-29297f33aeec","system_id":"levelo_inurba_marseille","lat":43.29629,"lon":5.40597,"is_reserved":false,"is_disabled":false,"rental_uris":{"android":"levelo://app?vid=53e1bdd2-76b2-4422-a8be-29297f33aeec","ios":"levelo://app?vid=53e1bdd2-76b2-4422-a8be-29297f33aeec"},"vehicle_type_id":"4","last_reported":1732800048,"current_range_meters":34000,"station_id":"ce4bh0h2rcd13ifvqd60","pricing_plan_id":"cebpf4jnsgd1na2vs0mg"},{"bike_id":"7acf64e6-102c-4b24-bfca-4cd2f2ab9f83","system_id":"levelo_inurba_marseille","lat":43.3054,"lon":5.36534,"is_reserved":false,"is_disabled":false,"rental_uris":{"android":"levelo://app?vid=7acf64e6-102c-4b24-bfca-4cd2f2ab9f83","ios":"levelo://app?vid=7acf64e6-102c-4b24-bfca-4cd2f2ab9f83"},"vehicle_type_id":"4","last_reported":1732800048,"current_range_meters":38400,"station_id":"","pricing_plan_id":"cebpf4jnsgd1na2vs0mg"},{"bike_id":"2e95a691-d7d8-426b-8dba-47b6b56c6a41","system_id":"levelo_inurba_marseille","lat":43.28151,"lon":5.42641,"is_reserved":false,"is_disabled":true,"rental_uris":{"android":"levelo://app?vid=2e95a691-d7d8-426b-8dba-47b6b56c6a41","ios":"levelo://app?vid=2e95a691-d7d8-426b-8dba-47b6b56c6a41"},"vehicle_type_id":"4","last_reported":1732800048,"current_range_meters":1600,"station_id":"ce4bhnh2rcd13ifvqgug","pricing_plan_id":"cebpf4jnsgd1na2vs0mg"},{"bike_id":"aa262170-281b-4556-817d-784dc19f9c9b","system_id":"levelo_inurba_marseille","lat":43.32363,"lon":5.36597,"is_reserved":false,"is_disabled":false,"rental_uris":{"android":"levelo://app?vid=aa262170-281b-4556-817d-784dc19f9c9b","ios":"levelo://app?vid=aa262170-281b-4556-817d-784dc19f9c9b"},"vehicle_type_id":"4","last_reported":1732800048,"current_range_meters":38800,"station_id":"ce4bhs12rcd13ifvqhvg","pricing_plan_id":"cebpf4jnsgd1na2vs0mg"},{"bike_id":"23d05929-b25d-4ec2-8a69-059acab4ea98","system_id":"levelo_inurba_marseille","lat":43.29596,"lon":5.38099,"is_reserved":false,"is_disabled":false,"rental_uris":{"android":"levelo://app?vid=23d05929-b25d-4ec2-8a69-059acab4ea98","ios":"levelo://app?vid=23d05929-b25d-4ec2-8a69-059acab4ea98"},"vehicle_type_id":"4","last_reported":1732800048,"current_range_meters":14000,"station_id":"ce4bgl12rcd13ifvqbo0","pricing_plan_id":"cebpf4jnsgd1na2vs0mg"},{"bike_id":"b6cacacd-98ce-4f30-a0cf-8d9e69cdc772","system_id":"levelo_inurba_marseille","lat":43.29416,"lon":5.38623,"is_reserved":false,"is_disabled":false,"rental_uris":{"android":"levelo://app?vid=b6cacacd-98ce-4f30-a0cf-8d9e69cdc772","ios":"levelo://app?vid=b6cacacd-98ce-4f30-a0cf-8d9e69cdc772"},"vehicle_type_id":"4","last_reported":1732800048,"current_range_meters":25200,"station_id":"ce4bh2h2rcd13ifvqdh0","pricing_plan_id":"cebpf4jnsgd1na2vs0mg"},{"bike_id":"86d8dcd7-a66a-44ce-a698-63f79b707f86","system_id":"levelo_inurba_marseille","lat":43.29627,"lon":5.40587,"is_reserved":false,"is_disabled":false,"rental_uris":{"android":"levelo://app?vid=86d8dcd7-a66a-44ce-a698-63f79b707f86","ios":"levelo://app?vid=86d8dcd7-a66a-44ce-a698-63f79b707f86"},"vehicle_type_id":"4","last_reported":1732800048,"current_range_meters":24400,"station_id":"ce4bh0h2rcd13ifvqd60","pricing_plan_id":"cebpf4jnsgd1na2vs0mg"},{"bike_id":"e51b2acb-d883-446b-9ce9-347608453ece","system_id":"levelo_inurba_marseille","lat":43.22928,"lon":5.35375,"is_reserved":false,"is_disabled":false,"rental_uris":{"android":"levelo://app?vid=e51b2acb-d883-446b-9ce9-347608453ece","ios":"levelo://app?vid=e51b2acb-d883-446b-9ce9-347608453ece"},"vehicle_type_id":"4","last_reported":1732800048,"current_range_meters":32000,"station_id":"cpo3532slgdg3j2ikp40","pricing_plan_id":"cebpf4jnsgd1na2vs0mg"},{"bike_id":"43736712-c09e-441f-a9ac-5e3ae1f23c05","system_id":"levelo_inurba_marseille","lat":43.30908,"lon":5.36863,"is_reserved":false,"is_disabled":false,"rental_uris":{"android":"levelo://app?vid=43736712-c09e-441f-a9ac-5e3ae1f23c05","ios":"levelo://app?vid=43736712-c09e-441f-a9ac-5e3ae1f23c05"},"vehicle_type_id":"4","last_reported":1732800048,"current_range_meters":5600,"station_id":"ce4bgn92rcd13ifvqbvg","pricing_plan_id":"cebpf4jnsgd1na2vs0mg"},{"bike_id":"3be03361-bb74-493a-8887-562bd5a55507","system_id":"levelo_inurba_marseille","lat":43.29781,"lon":5.39343,"is_reserved":false,"is_disabled":false,"rental_uris":{"android":"levelo://app?vid=3be03361-bb74-493a-8887-562bd5a55507","ios":"levelo://app?vid=3be03361-bb74-493a-8887-562bd5a55507"},"vehicle_type_id":"4","last_reported":1732800048,"current_range_meters":30400,"station_id":"chh1huq6cuj3fo74tm60","pricing_plan_id":"cebpf4jnsgd1na2vs0mg"},{"bike_id":"f5f4e3ff-5939-4058-95e9-0ce7505e213c","system_id":"levelo_inurba_marseille","lat":43.32485,"lon":5.36583,"is_reserved":false,"is_disabled":false,"rental_uris":{"android":"levelo://app?vid=f5f4e3ff-5939-4058-95e9-0ce7505e213c","ios":"levelo://app?vid=f5f4e3ff-5939-4058-95e9-0ce7505e213c"},"vehicle_type_id":"4","last_reported":1732800048,"current_range_meters":12800,"station_id":"ce4bhs12rcd13ifvqhvg","pricing_plan_id":"cebpf4jnsgd1na2vs0mg"},{"bike_id":"399769b4-039c-48fa-a910-b62c98932b5f","system_id":"levelo_inurba_marseille","lat":43.30541,"lon":5.36552,"is_reserved":false,"is_disabled":false,"rental_uris":{"android":"levelo://app?vid=399769b4-039c-48fa-a910-b62c98932b5f","ios":"levelo://app?vid=399769b4-039c-48fa-a910-b62c98932b5f"},"vehicle_type_id":"4","last_reported":1732800048,"current_range_meters":16800,"station_id":"ce4bgs12rcd13ifvqcag","pricing_plan_id":"cebpf4jnsgd1na2vs0mg"},{"bike_id":"afe7eef4-b234-4de6-b573-de73847ca045","system_id":"levelo_inurba_marseille","lat":43.265576,"lon":5.373369,"is_reserved":false,"is_disabled":true,"rental_uris":{"android":"levelo://app?vid=afe7eef4-b234-4de6-b573-de73847ca045","ios":"levelo://app?vid=afe7eef4-b234-4de6-b573-de73847ca045"},"vehicle_type_id":"4","last_reported":1732800048,"current_range_meters":0,"station_id":"ce4bhg12rcd13ifvqf70","pricing_plan_id":"cebpf4jnsgd1na2vs0mg"},{"bike_id":"36c2e099-818d-4574-9908-042aa295646a","system_id":"levelo_inurba_marseille","lat":43.25941,"lon":5.409,"is_reserved":false,"is_disabled":true,"rental_uris":{"android":"levelo://app?vid=36c2e099-818d-4574-9908-042aa295646a","ios":"levelo://app?vid=36c2e099-818d-4574-9908-042aa295646a"},"vehicle_type_id":"4","last_reported":1732800048,"current_range_meters":38800,"station_id":"ce4bhm92rcd13ifvqglg","pricing_plan_id":"cebpf4jnsgd1na2vs0mg"},{"bike_id":"44692518-f307-4d34-bde3-20456f8e1767","system_id":"levelo_inurba_marseille","lat":43.27411,"lon":5.38995,"is_reserved":false,"is_disabled":false,"rental_uris":{"android":"levelo://app?vid=44692518-f307-4d34-bde3-20456f8e1767","ios":"levelo://app?vid=44692518-f307-4d34-bde3-20456f8e1767"},"vehicle_type_id":"4","last_reported":1732800048,"current_range_meters":29600,"station_id":"","pricing_plan_id":"cebpf4jnsgd1na2vs0mg"},{"bike_id":"5f6912d0-b835-42c5-9f01-438c3f83c781","system_id":"levelo_inurba_marseille","lat":43.29511,"lon":5.3939,"is_reserved":false,"is_disabled":false,"rental_uris":{"android":"levelo://app?vid=5f6912d0-b835-42c5-9f01-438c3f83c781","ios":"levelo://app?vid=5f6912d0-b835-42c5-9f01-438c3f83c781"},"vehicle_type_id":"4","last_reported":1732800048,"current_range_meters":38000,"station_id":"ce4bh292rcd13ifvqdf0","pricing_plan_id":"cebpf4jnsgd1na2vs0mg"},{"bike_id":"3167029c-7e9b-4de8-9be4-0ae3fc459643","system_id":"levelo_inurba_marseille","lat":43.29298,"lon":5.37463,"is_reserved":false,"is_disabled":false,"rental_uris":{"android":"levelo://app?vid=3167029c-7e9b-4de8-9be4-0ae3fc459643","ios":"levelo://app?vid=3167029c-7e9b-4de8-9be4-0ae3fc459643"},"vehicle_type_id":"4","last_reported":1732800048,"current_range_meters":32000,"station_id":"ce4bgi12rcd13ifvqb70","pricing_plan_id":"cebpf4jnsgd1na2vs0mg"},{"bike_id":"43c5f083-35f4-4754-89a4-985dd562b3b7","system_id":"levelo_inurba_marseille","lat":43.27213,"lon":5.39184,"is_reserved":false,"is_disabled":false,"rental_uris":{"android":"levelo://app?vid=43c5f083-35f4-4754-89a4-985dd562b3b7","ios":"levelo://app?vid=43c5f083-35f4-4754-89a4-985dd562b3b7"},"vehicle_type_id":"4","last_reported":1732800048,"current_range_meters":6000,"station_id":"ce4bhhp2rcd13ifvqfm0","pricing_plan_id":"cebpf4jnsgd1na2vs0mg"},{"bike_id":"0e780bcf-e70e-4410-8fac-4acbba7e83be","system_id":"levelo_inurba_marseille","lat":43.27687,"lon":5.38883,"is_reserved":false,"is_disabled":false,"rental_uris":{"android":"levelo://app?vid=0e780bcf-e70e-4410-8fac-4acbba7e83be","ios":"levelo://app?vid=0e780bcf-e70e-4410-8fac-4acbba7e83be"},"vehicle_type_id":"4","last_reported":1732800048,"current_range_meters":36000,"station_id":"ce4bhi12rcd13ifvqfo0","pricing_plan_id":"cebpf4jnsgd1na2vs0mg"},{"bike_id":"c2fa67ab-c54a-4f53-9403-06dbb317af48","system_id":"levelo_inurba_marseille","lat":43.25498,"lon":5.37651,"is_reserved":false,"is_disabled":false,"rental_uris":{"android":"levelo://app?vid=c2fa67ab-c54a-4f53-9403-06dbb317af48","ios":"levelo://app?vid=c2fa67ab-c54a-4f53-9403-06dbb317af48"},"vehicle_type_id":"4","last_reported":1732800048,"current_range_meters":18000,"station_id":"ce4bhh12rcd13ifvqff0","pricing_plan_id":"cebpf4jnsgd1na2vs0mg"},{"bike_id":"1f3fce59-8a74-44f2-b989-7ad8feb15f1a","system_id":"levelo_inurba_marseille","lat":43.25497,"lon":5.37652,"is_reserved":false,"is_disabled":false,"rental_uris":{"android":"levelo://app?vid=1f3fce59-8a74-44f2-b989-7ad8feb15f1a","ios":"levelo://app?vid=1f3fce59-8a74-44f2-b989-7ad8feb15f1a"},"vehicle_type_id":"4","last_reported":1732800048,"current_range_meters":28000,"station_id":"ce4bhh12rcd13ifvqff0","pricing_plan_id":"cebpf4jnsgd1na2vs0mg"},{"bike_id":"464dd3db-600f-45e6-8f7a-d494c55c3e14","system_id":"levelo_inurba_marseille","lat":43.25105,"lon":5.40323,"is_reserved":false,"is_disabled":true,"rental_uris":{"android":"levelo://app?vid=464dd3db-600f-45e6-8f7a-d494c55c3e14","ios":"levelo://app?vid=464dd3db-600f-45e6-8f7a-d494c55c3e14"},"vehicle_type_id":"4","last_reported":1732800048,"current_range_meters":1200,"station_id":"ce4bhlh2rcd13ifvqgig","pricing_plan_id":"cebpf4jnsgd1na2vs0mg"},{"bike_id":"400b2d52-e3aa-4292-bf64-ff3865f815c1","system_id":"levelo_inurba_marseille","lat":43.30314,"lon":5.36898,"is_reserved":false,"is_disabled":false,"rental_uris":{"android":"levelo://app?vid=400b2d52-e3aa-4292-bf64-ff3865f815c1","ios":"levelo://app?vid=400b2d52-e3aa-4292-bf64-ff3865f815c1"},"vehicle_type_id":"4","last_reported":1732800048,"current_range_meters":32400,"station_id":"ce4bgqh2rcd13ifvqc5g","pricing_plan_id":"cebpf4jnsgd1na2vs0mg"},{"bike_id":"df744899-6467-4a2d-8132-101284d5d795","system_id":"levelo_inurba_marseille","lat":43.278265,"lon":5.39203,"is_reserved":false,"is_disabled":false,"rental_uris":{"android":"levelo://app?vid=df744899-6467-4a2d-8132-101284d5d795","ios":"levelo://app?vid=df744899-6467-4a2d-8132-101284d5d795"},"vehicle_type_id":"4","last_reported":1732800048,"current_range_meters":32400,"station_id":"ce4bhjp2rcd13ifvqga0","pricing_plan_id":"cebpf4jnsgd1na2vs0mg"},{"bike_id":"bc6040f1-df60-4d6f-99de-06d4962fb67a","system_id":"levelo_inurba_marseille","lat":43.30139,"lon":5.37424,"is_reserved":false,"is_disabled":false,"rental_uris":{"android":"levelo://app?vid=bc6040f1-df60-4d6f-99de-06d4962fb67a","ios":"levelo://app?vid=bc6040f1-df60-4d6f-99de-06d4962fb67a"},"vehicle_type_id":"4","last_reported":1732800048,"current_range_meters":14400,"station_id":"ce4bgs92rcd13ifvqcc0","pricing_plan_id":"cebpf4jnsgd1na2vs0mg"},{"bike_id":"7fdaf613-7626-4f42-8466-217890550c1e","system_id":"levelo_inurba_marseille","lat":43.23188,"lon":5.3998,"is_reserved":false,"is_disabled":false,"rental_uris":{"android":"levelo://app?vid=7fdaf613-7626-4f42-8466-217890550c1e","ios":"levelo://app?vid=7fdaf613-7626-4f42-8466-217890550c1e"},"vehicle_type_id":"4","last_reported":1732800048,"current_range_meters":24800,"station_id":"ce4bhn12rcd13ifvqgqg","pricing_plan_id":"cebpf4jnsgd1na2vs0mg"},{"bike_id":"f54ef5d0-353a-4695-b0e1-09e4d4c59cf6","system_id":"levelo_inurba_marseille","lat":43.28045,"lon":5.36949,"is_reserved":false,"is_disabled":false,"rental_uris":{"android":"levelo://app?vid=f54ef5d0-353a-4695-b0e1-09e4d4c59cf6","ios":"levelo://app?vid=f54ef5d0-353a-4695-b0e1-09e4d4c59cf6"},"vehicle_type_id":"4","last_reported":1732800048,"current_range_meters":25200,"station_id":"ce4bha12rcd13ifvqef0","pricing_plan_id":"cebpf4jnsgd1na2vs0mg"},{"bike_id":"a5909545-3e09-4859-9fda-9ffe4e6e4883","system_id":"levelo_inurba_marseille","lat":43.23067,"lon":5.35489,"is_reserved":false,"is_disabled":false,"rental_uris":{"android":"levelo://app?vid=a5909545-3e09-4859-9fda-9ffe4e6e4883","ios":"levelo://app?vid=a5909545-3e09-4859-9fda-9ffe4e6e4883"},"vehicle_type_id":"4","last_reported":1732800048,"current_range_meters":23200,"station_id":"cpo3342slgdg3j2ifvpg","pricing_plan_id":"cebpf4jnsgd1na2vs0mg"},{"bike_id":"bfd4477f-b43b-4629-8fcd-35581fd08ade","system_id":"levelo_inurba_marseille","lat":43.26687,"lon":5.38276,"is_reserved":false,"is_disabled":false,"rental_uris":{"android":"levelo://app?vid=bfd4477f-b43b-4629-8fcd-35581fd08ade","ios":"levelo://app?vid=bfd4477f-b43b-4629-8fcd-35581fd08ade"},"vehicle_type_id":"4","last_reported":1732800048,"current_range_meters":35200,"station_id":"ce4bhg92rcd13ifvqf90","pricing_plan_id":"cebpf4jnsgd1na2vs0mg"},{"bike_id":"953df208-fbb7-433b-b8ec-dec7955d3c0d","system_id":"levelo_inurba_marseille","lat":43.29896,"lon":5.4367,"is_reserved":false,"is_disabled":false,"rental_uris":{"android":"levelo://app?vid=953df208-fbb7-433b-b8ec-dec7955d3c0d","ios":"levelo://app?vid=953df208-fbb7-433b-b8ec-dec7955d3c0d"},"vehicle_type_id":"4","last_reported":1732800048,"current_range_meters":18800,"station_id":"ce4bhpp2rcd13ifvqhfg","pricing_plan_id":"cebpf4jnsgd1na2vs0mg"},{"bike_id":"636c38c7-b57f-44ef-879f-37f296bc8e0a","system_id":"levelo_inurba_marseille","lat":43.32097,"lon":5.36789,"is_reserved":false,"is_disabled":false,"rental_uris":{"android":"levelo://app?vid=636c38c7-b57f-44ef-879f-37f296bc8e0a","ios":"levelo://app?vid=636c38c7-b57f-44ef-879f-37f296bc8e0a"},"vehicle_type_id":"4","last_reported":1732800048,"current_range_meters":18000,"station_id":"ce4bhrh2rcd13ifvqhug","pricing_plan_id":"cebpf4jnsgd1na2vs0mg"},{"bike_id":"42d5909d-7bed-4216-919e-62c68d36b547","system_id":"levelo_inurba_marseille","lat":43.26683,"lon":5.38278,"is_reserved":false,"is_disabled":false,"rental_uris":{"android":"levelo://app?vid=42d5909d-7bed-4216-919e-62c68d36b547","ios":"levelo://app?vid=42d5909d-7bed-4216-919e-62c68d36b547"},"vehicle_type_id":"4","last_reported":1732800048,"current_range_meters":28000,"station_id":"ce4bhg92rcd13ifvqf90","pricing_plan_id":"cebpf4jnsgd1na2vs0mg"},{"bike_id":"a2765649-dd2c-4435-b553-9975218014e2","system_id":"levelo_inurba_marseille","lat":43.31353,"lon":5.36715,"is_reserved":false,"is_disabled":false,"rental_uris":{"android":"levelo://app?vid=a2765649-dd2c-4435-b553-9975218014e2","ios":"levelo://app?vid=a2765649-dd2c-4435-b553-9975218014e2"},"vehicle_type_id":"4","last_reported":1732800048,"current_range_meters":38800,"station_id":"ce4bgr92rcd13ifvqc6g","pricing_plan_id":"cebpf4jnsgd1na2vs0mg"},{"bike_id":"e5951ee3-4a5a-4ebb-b469-096c5188dfa3","system_id":"levelo_inurba_marseille","lat":43.23184,"lon":5.35586,"is_reserved":false,"is_disabled":false,"rental_uris":{"android":"levelo://app?vid=e5951ee3-4a5a-4ebb-b469-096c5188dfa3","ios":"levelo://app?vid=e5951ee3-4a5a-4ebb-b469-096c5188dfa3"},"vehicle_type_id":"4","last_reported":1732800048,"current_range_meters":28000,"station_id":"ce4bhu92rcd13ifvqi70","pricing_plan_id":"cebpf4jnsgd1na2vs0mg"},{"bike_id":"a474ae2a-91c8-434b-9a96-c893afb2de73","system_id":"levelo_inurba_marseille","lat":43.28032,"lon":5.36952,"is_reserved":false,"is_disabled":false,"rental_uris":{"android":"levelo://app?vid=a474ae2a-91c8-434b-9a96-c893afb2de73","ios":"levelo://app?vid=a474ae2a-91c8-434b-9a96-c893afb2de73"},"vehicle_type_id":"4","last_reported":1732800048,"current_range_meters":39200,"station_id":"ce4bha12rcd13ifvqef0","pricing_plan_id":"cebpf4jnsgd1na2vs0mg"},{"bike_id":"551079ac-62f6-4029-9579-63ffc464325f","system_id":"levelo_inurba_marseille","lat":43.23225,"lon":5.35543,"is_reserved":false,"is_disabled":false,"rental_uris":{"android":"levelo://app?vid=551079ac-62f6-4029-9579-63ffc464325f","ios":"levelo://app?vid=551079ac-62f6-4029-9579-63ffc464325f"},"vehicle_type_id":"4","last_reported":1732800048,"current_range_meters":38800,"station_id":"ce4bhu92rcd13ifvqi70","pricing_plan_id":"cebpf4jnsgd1na2vs0mg"},{"bike_id":"cbe0d9ab-f4b9-49c0-9298-050cb9cbc18d","system_id":"levelo_inurba_marseille","lat":43.24095,"lon":5.37764,"is_reserved":false,"is_disabled":false,"rental_uris":{"android":"levelo://app?vid=cbe0d9ab-f4b9-49c0-9298-050cb9cbc18d","ios":"levelo://app?vid=cbe0d9ab-f4b9-49c0-9298-050cb9cbc18d"},"vehicle_type_id":"4","last_reported":1732800048,"current_range_meters":18800,"station_id":"ce4bhnp2rcd13ifvqgvg","pricing_plan_id":"cebpf4jnsgd1na2vs0mg"},{"bike_id":"6c948e9c-d5b3-4fe5-a918-1bd2f7c83b02","system_id":"levelo_inurba_marseille","lat":43.3211,"lon":5.36771,"is_reserved":false,"is_disabled":false,"rental_uris":{"android":"levelo://app?vid=6c948e9c-d5b3-4fe5-a918-1bd2f7c83b02","ios":"levelo://app?vid=6c948e9c-d5b3-4fe5-a918-1bd2f7c83b02"},"vehicle_type_id":"4","last_reported":1732800048,"current_range_meters":8400,"station_id":"ce4bhrh2rcd13ifvqhug","pricing_plan_id":"cebpf4jnsgd1na2vs0mg"},{"bike_id":"81d5315b-ecf8-4a90-acd8-dcf42a7aa5bc","system_id":"levelo_inurba_marseille","lat":43.2749,"lon":5.42456,"is_reserved":false,"is_disabled":true,"rental_uris":{"android":"levelo://app?vid=81d5315b-ecf8-4a90-acd8-dcf42a7aa5bc","ios":"levelo://app?vid=81d5315b-ecf8-4a90-acd8-dcf42a7aa5bc"},"vehicle_type_id":"4","last_reported":1732800048,"current_range_meters":0,"station_id":"ce4bhn92rcd13ifvqgrg","pricing_plan_id":"cebpf4jnsgd1na2vs0mg"},{"bike_id":"7eb02dc0-6685-4c32-8a90-2ac4540deb7f","system_id":"levelo_inurba_marseille","lat":43.27495,"lon":5.42448,"is_reserved":false,"is_disabled":false,"rental_uris":{"android":"levelo://app?vid=7eb02dc0-6685-4c32-8a90-2ac4540deb7f","ios":"levelo://app?vid=7eb02dc0-6685-4c32-8a90-2ac4540deb7f"},"vehicle_type_id":"4","last_reported":1732800048,"current_range_meters":30000,"station_id":"ce4bhn92rcd13ifvqgrg","pricing_plan_id":"cebpf4jnsgd1na2vs0mg"},{"bike_id":"d0a3707f-e4f8-4013-90e9-0c1c7142ab61","system_id":"levelo_inurba_marseille","lat":43.27665,"lon":5.38887,"is_reserved":false,"is_disabled":false,"rental_uris":{"android":"levelo://app?vid=d0a3707f-e4f8-4013-90e9-0c1c7142ab61","ios":"levelo://app?vid=d0a3707f-e4f8-4013-90e9-0c1c7142ab61"},"vehicle_type_id":"4","last_reported":1732800048,"current_range_meters":38800,"station_id":"ce4bhi12rcd13ifvqfo0","pricing_plan_id":"cebpf4jnsgd1na2vs0mg"},{"bike_id":"45ba5f73-ec93-4f07-a828-0cb625a1ae35","system_id":"levelo_inurba_marseille","lat":43.27067,"lon":5.42273,"is_reserved":false,"is_disabled":true,"rental_uris":{"android":"levelo://app?vid=45ba5f73-ec93-4f07-a828-0cb625a1ae35","ios":"levelo://app?vid=45ba5f73-ec93-4f07-a828-0cb625a1ae35"},"vehicle_type_id":"4","last_reported":1732800048,"current_range_meters":2800,"station_id":"ce4bhk92rcd13ifvqgb0","pricing_plan_id":"cebpf4jnsgd1na2vs0mg"},{"bike_id":"3cadd369-1736-4a17-aec0-717db3df6c0f","system_id":"levelo_inurba_marseille","lat":43.26556,"lon":5.37285,"is_reserved":false,"is_disabled":false,"rental_uris":{"android":"levelo://app?vid=3cadd369-1736-4a17-aec0-717db3df6c0f","ios":"levelo://app?vid=3cadd369-1736-4a17-aec0-717db3df6c0f"},"vehicle_type_id":"4","last_reported":1732800048,"current_range_meters":4000,"station_id":"ce4bhg12rcd13ifvqf70","pricing_plan_id":"cebpf4jnsgd1na2vs0mg"},{"bike_id":"d9a06f58-b7bc-4a0c-b7c4-f0f4b19ab6e6","system_id":"levelo_inurba_marseille","lat":43.2318,"lon":5.39986,"is_reserved":false,"is_disabled":false,"rental_uris":{"android":"levelo://app?vid=d9a06f58-b7bc-4a0c-b7c4-f0f4b19ab6e6","ios":"levelo://app?vid=d9a06f58-b7bc-4a0c-b7c4-f0f4b19ab6e6"},"vehicle_type_id":"4","last_reported":1732800048,"current_range_meters":11200,"station_id":"ce4bhn12rcd13ifvqgqg","pricing_plan_id":"cebpf4jnsgd1na2vs0mg"},{"bike_id":"bfa7c1a2-f54e-402a-a2db-4de6455ffddf","system_id":"levelo_inurba_marseille","lat":43.32492,"lon":5.36573,"is_reserved":false,"is_disabled":false,"rental_uris":{"android":"levelo://app?vid=bfa7c1a2-f54e-402a-a2db-4de6455ffddf","ios":"levelo://app?vid=bfa7c1a2-f54e-402a-a2db-4de6455ffddf"},"vehicle_type_id":"4","last_reported":1732800048,"current_range_meters":8400,"station_id":"ce4bhs12rcd13ifvqhvg","pricing_plan_id":"cebpf4jnsgd1na2vs0mg"},{"bike_id":"d36a1df7-93e5-42c6-89d1-873a8bda22bb","system_id":"levelo_inurba_marseille","lat":43.26958,"lon":5.38627,"is_reserved":false,"is_disabled":true,"rental_uris":{"android":"levelo://app?vid=d36a1df7-93e5-42c6-89d1-873a8bda22bb","ios":"levelo://app?vid=d36a1df7-93e5-42c6-89d1-873a8bda22bb"},"vehicle_type_id":"4","last_reported":1732800048,"current_range_meters":0,"station_id":"ce4bhh92rcd13ifvqfh0","pricing_plan_id":"cebpf4jnsgd1na2vs0mg"},{"bike_id":"e14587dc-7f13-44f8-abd4-ea0dfa860ab0","system_id":"levelo_inurba_marseille","lat":43.32481,"lon":5.36589,"is_reserved":false,"is_disabled":true,"rental_uris":{"android":"levelo://app?vid=e14587dc-7f13-44f8-abd4-ea0dfa860ab0","ios":"levelo://app?vid=e14587dc-7f13-44f8-abd4-ea0dfa860ab0"},"vehicle_type_id":"4","last_reported":1732800048,"current_range_meters":400,"station_id":"ce4bhs12rcd13ifvqhvg","pricing_plan_id":"cebpf4jnsgd1na2vs0mg"},{"bike_id":"a8681c08-46f7-4ab3-ac95-303c805d14d5","system_id":"levelo_inurba_marseille","lat":43.28712,"lon":5.37919,"is_reserved":false,"is_disabled":false,"rental_uris":{"android":"levelo://app?vid=a8681c08-46f7-4ab3-ac95-303c805d14d5","ios":"levelo://app?vid=a8681c08-46f7-4ab3-ac95-303c805d14d5"},"vehicle_type_id":"4","last_reported":1732800048,"current_range_meters":32400,"station_id":"ce4bh9p2rcd13ifvqec0","pricing_plan_id":"cebpf4jnsgd1na2vs0mg"},{"bike_id":"9b767232-5c2b-49ff-b0f6-3592aae87a3d","system_id":"levelo_inurba_marseille","lat":43.23155,"lon":5.43706,"is_reserved":false,"is_disabled":false,"rental_uris":{"android":"levelo://app?vid=9b767232-5c2b-49ff-b0f6-3592aae87a3d","ios":"levelo://app?vid=9b767232-5c2b-49ff-b0f6-3592aae87a3d"},"vehicle_type_id":"4","last_reported":1732800048,"current_range_meters":9200,"station_id":"ce4bhmp2rcd13ifvqgog","pricing_plan_id":"cebpf4jnsgd1na2vs0mg"},{"bike_id":"dc87c326-700a-4406-b562-6e0a2f16a630","system_id":"levelo_inurba_marseille","lat":43.2984,"lon":5.36264,"is_reserved":false,"is_disabled":false,"rental_uris":{"android":"levelo://app?vid=dc87c326-700a-4406-b562-6e0a2f16a630","ios":"levelo://app?vid=dc87c326-700a-4406-b562-6e0a2f16a630"},"vehicle_type_id":"4","last_reported":1732800048,"current_range_meters":30000,"station_id":"ce4bgpp2rcd13ifvqc3g","pricing_plan_id":"cebpf4jnsgd1na2vs0mg"},{"bike_id":"fd384eb7-724b-4e18-b82b-3b72a0738227","system_id":"levelo_inurba_marseille","lat":43.278876,"lon":5.391886,"is_reserved":false,"is_disabled":false,"rental_uris":{"android":"levelo://app?vid=fd384eb7-724b-4e18-b82b-3b72a0738227","ios":"levelo://app?vid=fd384eb7-724b-4e18-b82b-3b72a0738227"},"vehicle_type_id":"4","last_reported":1732800048,"current_range_meters":11600,"station_id":"ce4bhjp2rcd13ifvqga0","pricing_plan_id":"cebpf4jnsgd1na2vs0mg"},{"bike_id":"dd065dbf-3b9b-4b12-99f2-d82e3c364a69","system_id":"levelo_inurba_marseille","lat":43.32663,"lon":5.40994,"is_reserved":false,"is_disabled":false,"rental_uris":{"android":"levelo://app?vid=dd065dbf-3b9b-4b12-99f2-d82e3c364a69","ios":"levelo://app?vid=dd065dbf-3b9b-4b12-99f2-d82e3c364a69"},"vehicle_type_id":"4","last_reported":1732800048,"current_range_meters":38400,"station_id":"ce4bhpp2rcd13ifvqhgg","pricing_plan_id":"cebpf4jnsgd1na2vs0mg"},{"bike_id":"60f23062-e767-482f-8b25-2ef722ca2fc5","system_id":"levelo_inurba_marseille","lat":43.34138,"lon":5.40904,"is_reserved":false,"is_disabled":false,"rental_uris":{"android":"levelo://app?vid=60f23062-e767-482f-8b25-2ef722ca2fc5","ios":"levelo://app?vid=60f23062-e767-482f-8b25-2ef722ca2fc5"},"vehicle_type_id":"4","last_reported":1732800048,"current_range_meters":9600,"station_id":"ce4bhqh2rcd13ifvqhlg","pricing_plan_id":"cebpf4jnsgd1na2vs0mg"},{"bike_id":"43746d86-8a13-4845-9faf-ae69b548d714","system_id":"levelo_inurba_marseille","lat":43.29459,"lon":5.37917,"is_reserved":false,"is_disabled":true,"rental_uris":{"android":"levelo://app?vid=43746d86-8a13-4845-9faf-ae69b548d714","ios":"levelo://app?vid=43746d86-8a13-4845-9faf-ae69b548d714"},"vehicle_type_id":"4","last_reported":1732800048,"current_range_meters":0,"station_id":"","pricing_plan_id":"cebpf4jnsgd1na2vs0mg"},{"bike_id":"cea419d5-9bbc-44b0-87d2-ea55fd4752be","system_id":"levelo_inurba_marseille","lat":43.23149,"lon":5.43704,"is_reserved":false,"is_disabled":true,"rental_uris":{"android":"levelo://app?vid=cea419d5-9bbc-44b0-87d2-ea55fd4752be","ios":"levelo://app?vid=cea419d5-9bbc-44b0-87d2-ea55fd4752be"},"vehicle_type_id":"4","last_reported":1732800048,"current_range_meters":0,"station_id":"ce4bhmp2rcd13ifvqgog","pricing_plan_id":"cebpf4jnsgd1na2vs0mg"},{"bike_id":"df76b7bf-b879-4e94-9796-439ee296ef0a","system_id":"levelo_inurba_marseille","lat":43.22926,"lon":5.35377,"is_reserved":false,"is_disabled":false,"rental_uris":{"android":"levelo://app?vid=df76b7bf-b879-4e94-9796-439ee296ef0a","ios":"levelo://app?vid=df76b7bf-b879-4e94-9796-439ee296ef0a"},"vehicle_type_id":"4","last_reported":1732800048,"current_range_meters":31200,"station_id":"cpo3532slgdg3j2ikp40","pricing_plan_id":"cebpf4jnsgd1na2vs0mg"},{"bike_id":"bbb33bba-debd-490b-b20e-eae4542d639a","system_id":"levelo_inurba_marseille","lat":43.24082,"lon":5.37751,"is_reserved":false,"is_disabled":false,"rental_uris":{"android":"levelo://app?vid=bbb33bba-debd-490b-b20e-eae4542d639a","ios":"levelo://app?vid=bbb33bba-debd-490b-b20e-eae4542d639a"},"vehicle_type_id":"4","last_reported":1732800048,"current_range_meters":6000,"station_id":"ce4bhnp2rcd13ifvqgvg","pricing_plan_id":"cebpf4jnsgd1na2vs0mg"},{"bike_id":"cdc90ebd-95d6-4376-a349-3395a0e260d7","system_id":"levelo_inurba_marseille","lat":43.279847,"lon":5.41668,"is_reserved":false,"is_disabled":false,"rental_uris":{"android":"levelo://app?vid=cdc90ebd-95d6-4376-a349-3395a0e260d7","ios":"levelo://app?vid=cdc90ebd-95d6-4376-a349-3395a0e260d7"},"vehicle_type_id":"4","last_reported":1732800048,"current_range_meters":32000,"station_id":"ce4bho12rcd13ifvqh1g","pricing_plan_id":"cebpf4jnsgd1na2vs0mg"},{"bike_id":"42f4e685-2b6f-45da-b7dd-73e74f8c66d0","system_id":"levelo_inurba_marseille","lat":43.25492,"lon":5.37654,"is_reserved":false,"is_disabled":false,"rental_uris":{"android":"levelo://app?vid=42f4e685-2b6f-45da-b7dd-73e74f8c66d0","ios":"levelo://app?vid=42f4e685-2b6f-45da-b7dd-73e74f8c66d0"},"vehicle_type_id":"4","last_reported":1732800048,"current_range_meters":36800,"station_id":"ce4bhh12rcd13ifvqff0","pricing_plan_id":"cebpf4jnsgd1na2vs0mg"},{"bike_id":"1903435d-438a-48b8-b59a-379592c1581e","system_id":"levelo_inurba_marseille","lat":43.27318,"lon":5.39066,"is_reserved":false,"is_disabled":false,"rental_uris":{"android":"levelo://app?vid=1903435d-438a-48b8-b59a-379592c1581e","ios":"levelo://app?vid=1903435d-438a-48b8-b59a-379592c1581e"},"vehicle_type_id":"4","last_reported":1732800048,"current_range_meters":30800,"station_id":"ce4bhgp2rcd13ifvqfe0","pricing_plan_id":"cebpf4jnsgd1na2vs0mg"},{"bike_id":"fbeb61a6-c313-41db-b329-e19377a783ba","system_id":"levelo_inurba_marseille","lat":43.27205,"lon":5.39186,"is_reserved":false,"is_disabled":false,"rental_uris":{"android":"levelo://app?vid=fbeb61a6-c313-41db-b329-e19377a783ba","ios":"levelo://app?vid=fbeb61a6-c313-41db-b329-e19377a783ba"},"vehicle_type_id":"4","last_reported":1732800048,"current_range_meters":11200,"station_id":"ce4bhhp2rcd13ifvqfm0","pricing_plan_id":"cebpf4jnsgd1na2vs0mg"},{"bike_id":"3030554a-2d35-4c9f-af4d-9a9d9d2e4fbf","system_id":"levelo_inurba_marseille","lat":43.23181,"lon":5.39988,"is_reserved":false,"is_disabled":false,"rental_uris":{"android":"levelo://app?vid=3030554a-2d35-4c9f-af4d-9a9d9d2e4fbf","ios":"levelo://app?vid=3030554a-2d35-4c9f-af4d-9a9d9d2e4fbf"},"vehicle_type_id":"4","last_reported":1732800048,"current_range_meters":27600,"station_id":"ce4bhn12rcd13ifvqgqg","pricing_plan_id":"cebpf4jnsgd1na2vs0mg"},{"bike_id":"334802f9-02ac-41be-8df3-96a040cbca24","system_id":"levelo_inurba_marseille","lat":43.24075,"lon":5.37749,"is_reserved":false,"is_disabled":false,"rental_uris":{"android":"levelo://app?vid=334802f9-02ac-41be-8df3-96a040cbca24","ios":"levelo://app?vid=334802f9-02ac-41be-8df3-96a040cbca24"},"vehicle_type_id":"4","last_reported":1732800048,"current_range_meters":22400,"station_id":"ce4bhnp2rcd13ifvqgvg","pricing_plan_id":"cebpf4jnsgd1na2vs0mg"},{"bike_id":"65d5403a-f2c8-4713-83e3-e0bbccd672ba","system_id":"levelo_inurba_marseille","lat":43.25497,"lon":5.37645,"is_reserved":false,"is_disabled":true,"rental_uris":{"android":"levelo://app?vid=65d5403a-f2c8-4713-83e3-e0bbccd672ba","ios":"levelo://app?vid=65d5403a-f2c8-4713-83e3-e0bbccd672ba"},"vehicle_type_id":"4","last_reported":1732800048,"current_range_meters":400,"station_id":"ce4bhh12rcd13ifvqff0","pricing_plan_id":"cebpf4jnsgd1na2vs0mg"},{"bike_id":"5d094a6f-8162-4686-820c-0d99a2b2dff2","system_id":"levelo_inurba_marseille","lat":43.32658,"lon":5.40989,"is_reserved":false,"is_disabled":false,"rental_uris":{"android":"levelo://app?vid=5d094a6f-8162-4686-820c-0d99a2b2dff2","ios":"levelo://app?vid=5d094a6f-8162-4686-820c-0d99a2b2dff2"},"vehicle_type_id":"4","last_reported":1732800048,"current_range_meters":28400,"station_id":"ce4bhpp2rcd13ifvqhgg","pricing_plan_id":"cebpf4jnsgd1na2vs0mg"},{"bike_id":"73237246-d3c1-43bc-bad7-8e44028b6f2d","system_id":"levelo_inurba_marseille","lat":43.23189,"lon":5.39981,"is_reserved":false,"is_disabled":false,"rental_uris":{"android":"levelo://app?vid=73237246-d3c1-43bc-bad7-8e44028b6f2d","ios":"levelo://app?vid=73237246-d3c1-43bc-bad7-8e44028b6f2d"},"vehicle_type_id":"4","last_reported":1732800048,"current_range_meters":31200,"station_id":"ce4bhn12rcd13ifvqgqg","pricing_plan_id":"cebpf4jnsgd1na2vs0mg"},{"bike_id":"b4f0c7bb-6382-4ae2-bc10-252fc6662ce6","system_id":"levelo_inurba_marseille","lat":43.22932,"lon":5.35374,"is_reserved":false,"is_disabled":false,"rental_uris":{"android":"levelo://app?vid=b4f0c7bb-6382-4ae2-bc10-252fc6662ce6","ios":"levelo://app?vid=b4f0c7bb-6382-4ae2-bc10-252fc6662ce6"},"vehicle_type_id":"4","last_reported":1732800048,"current_range_meters":38800,"station_id":"cpo3532slgdg3j2ikp40","pricing_plan_id":"cebpf4jnsgd1na2vs0mg"},{"bike_id":"fc4d15f5-6256-45a3-90d6-77bb4c676955","system_id":"levelo_inurba_marseille","lat":43.296284,"lon":5.377877,"is_reserved":false,"is_disabled":true,"rental_uris":{"android":"levelo://app?vid=fc4d15f5-6256-45a3-90d6-77bb4c676955","ios":"levelo://app?vid=fc4d15f5-6256-45a3-90d6-77bb4c676955"},"vehicle_type_id":"4","last_reported":1732800048,"current_range_meters":33600,"station_id":"","pricing_plan_id":"cebpf4jnsgd1na2vs0mg"},{"bike_id":"8a6d2d87-b63e-4f2d-a6bb-a798f0427308","system_id":"levelo_inurba_marseille","lat":43.27817,"lon":5.4072,"is_reserved":false,"is_disabled":true,"rental_uris":{"android":"levelo://app?vid=8a6d2d87-b63e-4f2d-a6bb-a798f0427308","ios":"levelo://app?vid=8a6d2d87-b63e-4f2d-a6bb-a798f0427308"},"vehicle_type_id":"4","last_reported":1732800048,"current_range_meters":38400,"station_id":"ce4bhnh2rcd13ifvqgtg","pricing_plan_id":"cebpf4jnsgd1na2vs0mg"},{"bike_id":"c88f8730-1176-4717-97e2-17c27b15274f","system_id":"levelo_inurba_marseille","lat":43.23193,"lon":5.35544,"is_reserved":false,"is_disabled":true,"rental_uris":{"android":"levelo://app?vid=c88f8730-1176-4717-97e2-17c27b15274f","ios":"levelo://app?vid=c88f8730-1176-4717-97e2-17c27b15274f"},"vehicle_type_id":"4","last_reported":1732800048,"current_range_meters":0,"station_id":"ce4bhu92rcd13ifvqi70","pricing_plan_id":"cebpf4jnsgd1na2vs0mg"},{"bike_id":"4096de7f-f707-4b3a-bfdc-c57ad5bf451a","system_id":"levelo_inurba_marseille","lat":43.27493,"lon":5.42453,"is_reserved":false,"is_disabled":false,"rental_uris":{"android":"levelo://app?vid=4096de7f-f707-4b3a-bfdc-c57ad5bf451a","ios":"levelo://app?vid=4096de7f-f707-4b3a-bfdc-c57ad5bf451a"},"vehicle_type_id":"4","last_reported":1732800048,"current_range_meters":23200,"station_id":"ce4bhn92rcd13ifvqgrg","pricing_plan_id":"cebpf4jnsgd1na2vs0mg"},{"bike_id":"b6ed1910-de57-401d-8b1d-af35755f9004","system_id":"levelo_inurba_marseille","lat":43.27957,"lon":5.41054,"is_reserved":false,"is_disabled":true,"rental_uris":{"android":"levelo://app?vid=b6ed1910-de57-401d-8b1d-af35755f9004","ios":"levelo://app?vid=b6ed1910-de57-401d-8b1d-af35755f9004"},"vehicle_type_id":"4","last_reported":1732800048,"current_range_meters":30000,"station_id":"ce4bhnp2rcd13ifvqh0g","pricing_plan_id":"cebpf4jnsgd1na2vs0mg"},{"bike_id":"32a151d9-7005-40eb-a8f7-814ea7e149e3","system_id":"levelo_inurba_marseille","lat":43.30549,"lon":5.36552,"is_reserved":false,"is_disabled":false,"rental_uris":{"android":"levelo://app?vid=32a151d9-7005-40eb-a8f7-814ea7e149e3","ios":"levelo://app?vid=32a151d9-7005-40eb-a8f7-814ea7e149e3"},"vehicle_type_id":"4","last_reported":1732800048,"current_range_meters":38000,"station_id":"ce4bgs12rcd13ifvqcag","pricing_plan_id":"cebpf4jnsgd1na2vs0mg"},{"bike_id":"b2b1613c-c0ea-4df3-8351-506bf3d82861","system_id":"levelo_inurba_marseille","lat":43.28713,"lon":5.37945,"is_reserved":false,"is_disabled":false,"rental_uris":{"android":"levelo://app?vid=b2b1613c-c0ea-4df3-8351-506bf3d82861","ios":"levelo://app?vid=b2b1613c-c0ea-4df3-8351-506bf3d82861"},"vehicle_type_id":"4","last_reported":1732800048,"current_range_meters":31200,"station_id":"ce4bh9p2rcd13ifvqec0","pricing_plan_id":"cebpf4jnsgd1na2vs0mg"},{"bike_id":"c0c814f8-5da5-485f-b863-3458dcd8a348","system_id":"levelo_inurba_marseille","lat":43.24533,"lon":5.39545,"is_reserved":false,"is_disabled":false,"rental_uris":{"android":"levelo://app?vid=c0c814f8-5da5-485f-b863-3458dcd8a348","ios":"levelo://app?vid=c0c814f8-5da5-485f-b863-3458dcd8a348"},"vehicle_type_id":"4","last_reported":1732800048,"current_range_meters":28800,"station_id":"ce4bhlp2rcd13ifvqgjg","pricing_plan_id":"cebpf4jnsgd1na2vs0mg"},{"bike_id":"13620140-83a5-4745-a49d-a6e8546973ca","system_id":"levelo_inurba_marseille","lat":43.27965,"lon":5.3874,"is_reserved":false,"is_disabled":false,"rental_uris":{"android":"levelo://app?vid=13620140-83a5-4745-a49d-a6e8546973ca","ios":"levelo://app?vid=13620140-83a5-4745-a49d-a6e8546973ca"},"vehicle_type_id":"4","last_reported":1732800048,"current_range_meters":28800,"station_id":"ce4bhg12rcd13ifvqf80","pricing_plan_id":"cebpf4jnsgd1na2vs0mg"},{"bike_id":"db2e0437-a857-49a0-b78e-a4dcfbb76cf0","system_id":"levelo_inurba_marseille","lat":43.25504,"lon":5.37654,"is_reserved":false,"is_disabled":false,"rental_uris":{"android":"levelo://app?vid=db2e0437-a857-49a0-b78e-a4dcfbb76cf0","ios":"levelo://app?vid=db2e0437-a857-49a0-b78e-a4dcfbb76cf0"},"vehicle_type_id":"4","last_reported":1732800048,"current_range_meters":24400,"station_id":"ce4bhh12rcd13ifvqff0","pricing_plan_id":"cebpf4jnsgd1na2vs0mg"},{"bike_id":"eca0e669-e4dd-4106-89a0-02472abda3e4","system_id":"levelo_inurba_marseille","lat":43.30911,"lon":5.36848,"is_reserved":false,"is_disabled":false,"rental_uris":{"android":"levelo://app?vid=eca0e669-e4dd-4106-89a0-02472abda3e4","ios":"levelo://app?vid=eca0e669-e4dd-4106-89a0-02472abda3e4"},"vehicle_type_id":"4","last_reported":1732800048,"current_range_meters":16400,"station_id":"ce4bgn92rcd13ifvqbvg","pricing_plan_id":"cebpf4jnsgd1na2vs0mg"},{"bike_id":"e54f0174-c7bd-4711-b39d-83487d0a1cd5","system_id":"levelo_inurba_marseille","lat":43.29547,"lon":5.42274,"is_reserved":false,"is_disabled":false,"rental_uris":{"android":"levelo://app?vid=e54f0174-c7bd-4711-b39d-83487d0a1cd5","ios":"levelo://app?vid=e54f0174-c7bd-4711-b39d-83487d0a1cd5"},"vehicle_type_id":"4","last_reported":1732800048,"current_range_meters":39200,"station_id":"ce4bhph2rcd13ifvqhdg","pricing_plan_id":"cebpf4jnsgd1na2vs0mg"},{"bike_id":"e346be1f-cb6c-4e2a-aa7c-fddf98fe41bc","system_id":"levelo_inurba_marseille","lat":43.27188,"lon":5.40989,"is_reserved":false,"is_disabled":false,"rental_uris":{"android":"levelo://app?vid=e346be1f-cb6c-4e2a-aa7c-fddf98fe41bc","ios":"levelo://app?vid=e346be1f-cb6c-4e2a-aa7c-fddf98fe41bc"},"vehicle_type_id":"4","last_reported":1732800048,"current_range_meters":38800,"station_id":"ce4bhl12rcd13ifvqgf0","pricing_plan_id":"cebpf4jnsgd1na2vs0mg"},{"bike_id":"b5197730-5c88-4cb2-95d3-6be8a3ad5be5","system_id":"levelo_inurba_marseille","lat":43.24073,"lon":5.37761,"is_reserved":false,"is_disabled":false,"rental_uris":{"android":"levelo://app?vid=b5197730-5c88-4cb2-95d3-6be8a3ad5be5","ios":"levelo://app?vid=b5197730-5c88-4cb2-95d3-6be8a3ad5be5"},"vehicle_type_id":"4","last_reported":1732800048,"current_range_meters":11200,"station_id":"ce4bhnp2rcd13ifvqgvg","pricing_plan_id":"cebpf4jnsgd1na2vs0mg"},{"bike_id":"0dbe00f4-106f-4c89-b87a-1aa63a7a4bd9","system_id":"levelo_inurba_marseille","lat":43.28709,"lon":5.37944,"is_reserved":false,"is_disabled":false,"rental_uris":{"android":"levelo://app?vid=0dbe00f4-106f-4c89-b87a-1aa63a7a4bd9","ios":"levelo://app?vid=0dbe00f4-106f-4c89-b87a-1aa63a7a4bd9"},"vehicle_type_id":"4","last_reported":1732800048,"current_range_meters":20800,"station_id":"ce4bh9p2rcd13ifvqec0","pricing_plan_id":"cebpf4jnsgd1na2vs0mg"},{"bike_id":"231a9078-2cf9-42d6-948f-adf99794369f","system_id":"levelo_inurba_marseille","lat":43.28714,"lon":5.37938,"is_reserved":false,"is_disabled":false,"rental_uris":{"android":"levelo://app?vid=231a9078-2cf9-42d6-948f-adf99794369f","ios":"levelo://app?vid=231a9078-2cf9-42d6-948f-adf99794369f"},"vehicle_type_id":"4","last_reported":1732800048,"current_range_meters":8800,"station_id":"ce4bh9p2rcd13ifvqec0","pricing_plan_id":"cebpf4jnsgd1na2vs0mg"},{"bike_id":"4cd29f5c-f0ae-42dd-9305-bf5417cd209a","system_id":"levelo_inurba_marseille","lat":43.30292,"lon":5.39236,"is_reserved":false,"is_disabled":false,"rental_uris":{"android":"levelo://app?vid=4cd29f5c-f0ae-42dd-9305-bf5417cd209a","ios":"levelo://app?vid=4cd29f5c-f0ae-42dd-9305-bf5417cd209a"},"vehicle_type_id":"4","last_reported":1732800048,"current_range_meters":22800,"station_id":"ce4bgkh2rcd13ifvqbk0","pricing_plan_id":"cebpf4jnsgd1na2vs0mg"},{"bike_id":"0e45148f-1a7e-42d3-9cc8-08bc63689057","system_id":"levelo_inurba_marseille","lat":43.23189,"lon":5.3555,"is_reserved":false,"is_disabled":false,"rental_uris":{"android":"levelo://app?vid=0e45148f-1a7e-42d3-9cc8-08bc63689057","ios":"levelo://app?vid=0e45148f-1a7e-42d3-9cc8-08bc63689057"},"vehicle_type_id":"4","last_reported":1732800048,"current_range_meters":8400,"station_id":"ce4bhu92rcd13ifvqi70","pricing_plan_id":"cebpf4jnsgd1na2vs0mg"},{"bike_id":"5aee8f34-f29b-4446-a958-d36daab9b202","system_id":"levelo_inurba_marseille","lat":43.23144,"lon":5.43721,"is_reserved":false,"is_disabled":true,"rental_uris":{"android":"levelo://app?vid=5aee8f34-f29b-4446-a958-d36daab9b202","ios":"levelo://app?vid=5aee8f34-f29b-4446-a958-d36daab9b202"},"vehicle_type_id":"4","last_reported":1732800048,"current_range_meters":0,"station_id":"ce4bhmp2rcd13ifvqgog","pricing_plan_id":"cebpf4jnsgd1na2vs0mg"},{"bike_id":"e4a3ee64-8c9f-47fa-ba19-5213f5308e81","system_id":"levelo_inurba_marseille","lat":43.27209,"lon":5.39194,"is_reserved":false,"is_disabled":true,"rental_uris":{"android":"levelo://app?vid=e4a3ee64-8c9f-47fa-ba19-5213f5308e81","ios":"levelo://app?vid=e4a3ee64-8c9f-47fa-ba19-5213f5308e81"},"vehicle_type_id":"4","last_reported":1732800048,"current_range_meters":0,"station_id":"ce4bhhp2rcd13ifvqfm0","pricing_plan_id":"cebpf4jnsgd1na2vs0mg"},{"bike_id":"364b1db8-e448-489d-a4ee-c7b042e06ef1","system_id":"levelo_inurba_marseille","lat":43.30481,"lon":5.37904,"is_reserved":false,"is_disabled":false,"rental_uris":{"android":"levelo://app?vid=364b1db8-e448-489d-a4ee-c7b042e06ef1","ios":"levelo://app?vid=364b1db8-e448-489d-a4ee-c7b042e06ef1"},"vehicle_type_id":"4","last_reported":1732800048,"current_range_meters":14800,"station_id":"ce4bgup2rcd13ifvqcn0","pricing_plan_id":"cebpf4jnsgd1na2vs0mg"},{"bike_id":"87b938c7-f6f3-401a-bf2a-2ffc8779c060","system_id":"levelo_inurba_marseille","lat":43.2315,"lon":5.43686,"is_reserved":false,"is_disabled":false,"rental_uris":{"android":"levelo://app?vid=87b938c7-f6f3-401a-bf2a-2ffc8779c060","ios":"levelo://app?vid=87b938c7-f6f3-401a-bf2a-2ffc8779c060"},"vehicle_type_id":"4","last_reported":1732800048,"current_range_meters":5600,"station_id":"ce4bhmp2rcd13ifvqgog","pricing_plan_id":"cebpf4jnsgd1na2vs0mg"},{"bike_id":"99b45197-cbac-4788-af01-18327fea8fbf","system_id":"levelo_inurba_marseille","lat":43.30327,"lon":5.40432,"is_reserved":false,"is_disabled":true,"rental_uris":{"android":"levelo://app?vid=99b45197-cbac-4788-af01-18327fea8fbf","ios":"levelo://app?vid=99b45197-cbac-4788-af01-18327fea8fbf"},"vehicle_type_id":"4","last_reported":1732800048,"current_range_meters":0,"station_id":"ce4bh012rcd13ifvqd10","pricing_plan_id":"cebpf4jnsgd1na2vs0mg"},{"bike_id":"a971b12c-91dd-4e3e-a648-1ccbe1b306cb","system_id":"levelo_inurba_marseille","lat":43.23195,"lon":5.35551,"is_reserved":false,"is_disabled":false,"rental_uris":{"android":"levelo://app?vid=a971b12c-91dd-4e3e-a648-1ccbe1b306cb","ios":"levelo://app?vid=a971b12c-91dd-4e3e-a648-1ccbe1b306cb"},"vehicle_type_id":"4","last_reported":1732800048,"current_range_meters":20400,"station_id":"ce4bhu92rcd13ifvqi70","pricing_plan_id":"cebpf4jnsgd1na2vs0mg"},{"bike_id":"6f8f7372-ecd4-442e-95dd-7b099b7e1a39","system_id":"levelo_inurba_marseille","lat":43.29892,"lon":5.43661,"is_reserved":false,"is_disabled":false,"rental_uris":{"android":"levelo://app?vid=6f8f7372-ecd4-442e-95dd-7b099b7e1a39","ios":"levelo://app?vid=6f8f7372-ecd4-442e-95dd-7b099b7e1a39"},"vehicle_type_id":"4","last_reported":1732800048,"current_range_meters":39200,"station_id":"ce4bhpp2rcd13ifvqhfg","pricing_plan_id":"cebpf4jnsgd1na2vs0mg"},{"bike_id":"6f1b1c0c-675d-4520-bd03-0a1aeb27151e","system_id":"levelo_inurba_marseille","lat":43.31756,"lon":5.39036,"is_reserved":false,"is_disabled":false,"rental_uris":{"android":"levelo://app?vid=6f1b1c0c-675d-4520-bd03-0a1aeb27151e","ios":"levelo://app?vid=6f1b1c0c-675d-4520-bd03-0a1aeb27151e"},"vehicle_type_id":"4","last_reported":1732800048,"current_range_meters":38000,"station_id":"ce4bhqp2rcd13ifvqhng","pricing_plan_id":"cebpf4jnsgd1na2vs0mg"},{"bike_id":"8417bf11-c457-461b-ac6f-0a1aafe44cda","system_id":"levelo_inurba_marseille","lat":43.32536,"lon":5.41434,"is_reserved":false,"is_disabled":false,"rental_uris":{"android":"levelo://app?vid=8417bf11-c457-461b-ac6f-0a1aafe44cda","ios":"levelo://app?vid=8417bf11-c457-461b-ac6f-0a1aafe44cda"},"vehicle_type_id":"4","last_reported":1732800048,"current_range_meters":38800,"station_id":"ce4bhq12rcd13ifvqhhg","pricing_plan_id":"cebpf4jnsgd1na2vs0mg"},{"bike_id":"0405be88-d39f-48b5-a6c5-8faf76df9da7","system_id":"levelo_inurba_marseille","lat":43.23153,"lon":5.4371,"is_reserved":false,"is_disabled":false,"rental_uris":{"android":"levelo://app?vid=0405be88-d39f-48b5-a6c5-8faf76df9da7","ios":"levelo://app?vid=0405be88-d39f-48b5-a6c5-8faf76df9da7"},"vehicle_type_id":"4","last_reported":1732800048,"current_range_meters":8400,"station_id":"ce4bhmp2rcd13ifvqgog","pricing_plan_id":"cebpf4jnsgd1na2vs0mg"},{"bike_id":"9e944db9-d48e-4848-b5fa-4af701aee80b","system_id":"levelo_inurba_marseille","lat":48.80797,"lon":2.40127,"is_reserved":false,"is_disabled":true,"rental_uris":{"android":"levelo://app?vid=9e944db9-d48e-4848-b5fa-4af701aee80b","ios":"levelo://app?vid=9e944db9-d48e-4848-b5fa-4af701aee80b"},"vehicle_type_id":"4","last_reported":1732800048,"current_range_meters":24000,"station_id":"","pricing_plan_id":"cebpf4jnsgd1na2vs0mg"},{"bike_id":"5a4c623d-56b9-43b3-8329-c9b9ed5804ad","system_id":"levelo_inurba_marseille","lat":43.28855,"lon":5.39322,"is_reserved":false,"is_disabled":false,"rental_uris":{"android":"levelo://app?vid=5a4c623d-56b9-43b3-8329-c9b9ed5804ad","ios":"levelo://app?vid=5a4c623d-56b9-43b3-8329-c9b9ed5804ad"},"vehicle_type_id":"4","last_reported":1732800048,"current_range_meters":34000,"station_id":"ce4bh2p2rcd13ifvqdi0","pricing_plan_id":"cebpf4jnsgd1na2vs0mg"},{"bike_id":"641c847a-aa14-4a64-8e61-175a53706cef","system_id":"levelo_inurba_marseille","lat":43.28033,"lon":5.36958,"is_reserved":false,"is_disabled":false,"rental_uris":{"android":"levelo://app?vid=641c847a-aa14-4a64-8e61-175a53706cef","ios":"levelo://app?vid=641c847a-aa14-4a64-8e61-175a53706cef"},"vehicle_type_id":"4","last_reported":1732800048,"current_range_meters":36000,"station_id":"ce4bha12rcd13ifvqef0","pricing_plan_id":"cebpf4jnsgd1na2vs0mg"},{"bike_id":"ab6ec33d-7781-44df-bc2b-0d829844acd4","system_id":"levelo_inurba_marseille","lat":43.3414,"lon":5.4091,"is_reserved":false,"is_disabled":false,"rental_uris":{"android":"levelo://app?vid=ab6ec33d-7781-44df-bc2b-0d829844acd4","ios":"levelo://app?vid=ab6ec33d-7781-44df-bc2b-0d829844acd4"},"vehicle_type_id":"4","last_reported":1732800048,"current_range_meters":23200,"station_id":"ce4bhqh2rcd13ifvqhlg","pricing_plan_id":"cebpf4jnsgd1na2vs0mg"},{"bike_id":"648393cc-6fb1-4b88-a179-4370096f5176","system_id":"levelo_inurba_marseille","lat":43.3413,"lon":5.4091,"is_reserved":false,"is_disabled":false,"rental_uris":{"android":"levelo://app?vid=648393cc-6fb1-4b88-a179-4370096f5176","ios":"levelo://app?vid=648393cc-6fb1-4b88-a179-4370096f5176"},"vehicle_type_id":"4","last_reported":1732800048,"current_range_meters":35200,"station_id":"ce4bhqh2rcd13ifvqhlg","pricing_plan_id":"cebpf4jnsgd1na2vs0mg"},{"bike_id":"9f131acf-0dc0-4bb5-afd1-e7d3c47ab64a","system_id":"levelo_inurba_marseille","lat":43.282731,"lon":5.350644,"is_reserved":false,"is_disabled":true,"rental_uris":{"android":"levelo://app?vid=9f131acf-0dc0-4bb5-afd1-e7d3c47ab64a","ios":"levelo://app?vid=9f131acf-0dc0-4bb5-afd1-e7d3c47ab64a"},"vehicle_type_id":"4","last_reported":1732800048,"current_range_meters":8000,"station_id":"ce4bhbp2rcd13ifvqerg","pricing_plan_id":"cebpf4jnsgd1na2vs0mg"},{"bike_id":"402b306e-1399-4794-8a03-2660cd5f9eca","system_id":"levelo_inurba_marseille","lat":43.27972,"lon":5.38736,"is_reserved":false,"is_disabled":false,"rental_uris":{"android":"levelo://app?vid=402b306e-1399-4794-8a03-2660cd5f9eca","ios":"levelo://app?vid=402b306e-1399-4794-8a03-2660cd5f9eca"},"vehicle_type_id":"4","last_reported":1732800048,"current_range_meters":20400,"station_id":"ce4bhg12rcd13ifvqf80","pricing_plan_id":"cebpf4jnsgd1na2vs0mg"},{"bike_id":"ba4fd573-6474-49bf-a884-7d987d65270d","system_id":"levelo_inurba_marseille","lat":43.2511,"lon":5.40322,"is_reserved":false,"is_disabled":false,"rental_uris":{"android":"levelo://app?vid=ba4fd573-6474-49bf-a884-7d987d65270d","ios":"levelo://app?vid=ba4fd573-6474-49bf-a884-7d987d65270d"},"vehicle_type_id":"4","last_reported":1732800048,"current_range_meters":16000,"station_id":"ce4bhlh2rcd13ifvqgig","pricing_plan_id":"cebpf4jnsgd1na2vs0mg"},{"bike_id":"eea74cdd-47e7-49c0-ac0a-fd4c369070cc","system_id":"levelo_inurba_marseille","lat":43.2997,"lon":5.37175,"is_reserved":false,"is_disabled":false,"rental_uris":{"android":"levelo://app?vid=eea74cdd-47e7-49c0-ac0a-fd4c369070cc","ios":"levelo://app?vid=eea74cdd-47e7-49c0-ac0a-fd4c369070cc"},"vehicle_type_id":"4","last_reported":1732800048,"current_range_meters":6400,"station_id":"ce4bgr92rcd13ifvqc7g","pricing_plan_id":"cebpf4jnsgd1na2vs0mg"},{"bike_id":"49c427a7-6d64-48f8-af87-cca7515744ad","system_id":"levelo_inurba_marseille","lat":43.28342,"lon":5.38109,"is_reserved":false,"is_disabled":false,"rental_uris":{"android":"levelo://app?vid=49c427a7-6d64-48f8-af87-cca7515744ad","ios":"levelo://app?vid=49c427a7-6d64-48f8-af87-cca7515744ad"},"vehicle_type_id":"4","last_reported":1732800048,"current_range_meters":4000,"station_id":"ce4bh412rcd13ifvqdr0","pricing_plan_id":"cebpf4jnsgd1na2vs0mg"},{"bike_id":"fe1b5b90-eca9-4dc6-b7ba-6d1317d8c2fb","system_id":"levelo_inurba_marseille","lat":43.28719,"lon":5.3794,"is_reserved":false,"is_disabled":false,"rental_uris":{"android":"levelo://app?vid=fe1b5b90-eca9-4dc6-b7ba-6d1317d8c2fb","ios":"levelo://app?vid=fe1b5b90-eca9-4dc6-b7ba-6d1317d8c2fb"},"vehicle_type_id":"4","last_reported":1732800048,"current_range_meters":38800,"station_id":"ce4bh9p2rcd13ifvqec0","pricing_plan_id":"cebpf4jnsgd1na2vs0mg"},{"bike_id":"3206027e-6a2c-48f5-993d-f04c41e0809f","system_id":"levelo_inurba_marseille","lat":43.30883,"lon":5.39647,"is_reserved":false,"is_disabled":false,"rental_uris":{"android":"levelo://app?vid=3206027e-6a2c-48f5-993d-f04c41e0809f","ios":"levelo://app?vid=3206027e-6a2c-48f5-993d-f04c41e0809f"},