{"last_updated":1684087644,"ttl":30,"version":"2.2","data":{"bikes":[{"bike_id":"78639281-da9b-4878-980b-0e688644d586","system_id":"levelo_inurba_marseille","lat":43.31192,"lon":5.36759,"is_reserved":false,"is_disabled":false,"rental_uris":{"android":"levelo://app?vid=78639281-da9b-4878-980b-0e688644d586","ios":"levelo://app?vid=78639281-da9b-4878-980b-0e688644d586"},"vehicle_type_id":"4","last_reported":1684087645,"current_range_meters":31200,"station_id":"","pricing_plan_id":"free"},{"bike_id":"67679834-e513-4284-a05f-f346e2b7b0d2","system_id":"levelo_inurba_marseille","lat":43.314811,"lon":5.373103,"is_reserved":false,"is_disabled":false,"rental_uris":{"android":"levelo://app?vid=67679834-e513-4284-a05f-f346e2b7b0d2","ios":"levelo://app?vid=67679834-e513-4284-a05f-f346e2b7b0d2"},"vehicle_type_id":"4","last_reported":1684087645,"current_range_meters":2000,"station_id":"ce4bgt12rcd13ifvqcd0","pricing_plan_id":"free"},{"bike_id":"ef42665b-7a58-430a-a09b-24ad7325a98d","system_id":"levelo_inurba_marseille","lat":43.30588,"lon":5.36563,"is_reserved":false,"is_disabled":false,"rental_uris":{"android":"levelo://app?vid=ef42665b-7a58-430a-a09b-24ad7325a98d","ios":"levelo://app?vid=ef42665b-7a58-430a-a09b-24ad7325a98d"},"vehicle_type_id":"4","last_reported":1684087645,"current_range_meters":11200,"station_id":"","pricing_plan_id":"free"},{"bike_id":"dff8f60e-2589-4771-b1f4-fa1893563f27","system_id":"levelo_inurba_marseille","lat":43.31975,"lon":5.36744,"is_reserved":false,"is_disabled":false,"rental_uris":{"android":"levelo://app?vid=dff8f60e-2589-4771-b1f4-fa1893563f27","ios":"levelo://app?vid=dff8f60e-2589-4771-b1f4-fa1893563f27"},"vehicle_type_id":"4","last_reported":1684087645,"current_range_meters":4000,"station_id":"ce4bhs92rcd13ifvqi0g","pricing_plan_id":"free"},{"bike_id":"2edd7af1-9ab3-49f6-ad5d-a9eaed68a274","system_id":"levelo_inurba_marseille","lat":43.305989,"lon":5.37225,"is_reserved":false,"is_disabled":false,"rental_uris":{"android":"levelo://app?vid=2edd7af1-9ab3-49f6-ad5d-a9eaed68a274","ios":"levelo://app?vid=2edd7af1-9ab3-49f6-ad5d-a9eaed68a274"},"vehicle_type_id":"4","last_reported":1684087645,"current_range_meters":27200,"station_id":"ce4bgqh2rcd13ifvqc4g","pricing_plan_id":"free"},{"bike_id":"151d50bc-3aee-48d5-9527-783274464e00","system_id":"levelo_inurba_marseille","lat":43.31202,"lon":5.37765,"is_reserved":false,"is_disabled":false,"rental_uris":{"android":"levelo://app?vid=151d50bc-3aee-48d5-9527-783274464e00","ios":"levelo://app?vid=151d50bc-3aee-48d5-9527-783274464e00"},"vehicle_type_id":"4","last_reported":1684087645,"current_range_meters":7600,"station_id":"","pricing_plan_id":"free"},{"bike_id":"4982f6d0-296e-47e2-bbc2-30f852f6066d","system_id":"levelo_inurba_marseille","lat":43.315289,"lon":5.380349,"is_reserved":false,"is_disabled":false,"rental_uris":{"android":"levelo://app?vid=4982f6d0-296e-47e2-bbc2-30f852f6066d","ios":"levelo://app?vid=4982f6d0-296e-47e2-bbc2-30f852f6066d"},"vehicle_type_id":"4","last_reported":1684087645,"current_range_meters":24000,"station_id":"ce4bhsp2rcd13ifvqi50","pricing_plan_id":"free"},{"bike_id":"39be8e9f-84ac-4091-a4a7-c2e8eec8cb33","system_id":"levelo_inurba_marseille","lat":43.31544,"lon":5.38043,"is_reserved":false,"is_disabled":false,"rental_uris":{"android":"levelo://app?vid=39be8e9f-84ac-4091-a4a7-c2e8eec8cb33","ios":"levelo://app?vid=39be8e9f-84ac-4091-a4a7-c2e8eec8cb33"},"vehicle_type_id":"4","last_reported":1684087645,"current_range_meters":7200,"station_id":"ce4bhsp2rcd13ifvqi50","pricing_plan_id":"free"},{"bike_id":"982c15e9-531d-42d7-be68-87cf7cfd3de7","system_id":"levelo_inurba_marseille","lat":43.304606,"lon":5.379026,"is_reserved":false,"is_disabled":false,"rental_uris":{"android":"levelo://app?vid=982c15e9-531d-42d7-be68-87cf7cfd3de7","ios":"levelo://app?vid=982c15e9-531d-42d7-be68-87cf7cfd3de7"},"vehicle_type_id":"4","last_reported":1684087645,"current_range_meters":1600,"station_id":"ce4bgup2rcd13ifvqcn0","pricing_plan_id":"free"},{"bike_id":"495ef268-9928-47c1-b7e3-6cb0a546f69e","system_id":"levelo_inurba_marseille","lat":43.30145,"lon":5.37416,"is_reserved":false,"is_disabled":false,"rental_uris":{"android":"levelo://app?vid=495ef268-9928-47c1-b7e3-6cb0a546f69e","ios":"levelo://app?vid=495ef268-9928-47c1-b7e3-6cb0a546f69e"},"vehicle_type_id":"4","last_reported":1684087645,"current_range_meters":14000,"station_id":"ce4bgs92rcd13ifvqcc0","pricing_plan_id":"free"},{"bike_id":"70b30f3c-6401-447d-ab0d-82139f6cf9b8","system_id":"levelo_inurba_marseille","lat":43.31998,"lon":5.38168,"is_reserved":false,"is_disabled":false,"rental_uris":{"android":"levelo://app?vid=70b30f3c-6401-447d-ab0d-82139f6cf9b8","ios":"levelo://app?vid=70b30f3c-6401-447d-ab0d-82139f6cf9b8"},"vehicle_type_id":"4","last_reported":1684087645,"current_range_meters":1200,"station_id":"","pricing_plan_id":"free"},{"bike_id":"e2e93a38-61c8-4e2c-97ff-70daf0560d64","system_id":"levelo_inurba_marseille","lat":43.31365,"lon":5.38506,"is_reserved":false,"is_disabled":false,"rental_uris":{"android":"levelo://app?vid=e2e93a38-61c8-4e2c-97ff-70daf0560d64","ios":"levelo://app?vid=e2e93a38-61c8-4e2c-97ff-70daf0560d64"},"vehicle_type_id":"4","last_reported":1684087645,"current_range_meters":22000,"station_id":"ce4bgt92rcd13ifvqcf0","pricing_plan_id":"free"},{"bike_id":"479b0415-09de-4920-901d-705ad4ff8a7d","system_id":"levelo_inurba_marseille","lat":43.313571,"lon":5.384829,"is_reserved":false,"is_disabled":false,"rental_uris":{"android":"levelo://app?vid=479b0415-09de-4920-901d-705ad4ff8a7d","ios":"levelo://app?vid=479b0415-09de-4920-901d-705ad4ff8a7d"},"vehicle_type_id":"4","last_reported":1684087645,"current_range_meters":4000,"station_id":"ce4bgt92rcd13ifvqcf0","pricing_plan_id":"free"},{"bike_id":"7abbaf05-cea8-48fb-a690-7498f8463dc3","system_id":"levelo_inurba_marseille","lat":43.298433,"lon":5.362774,"is_reserved":false,"is_disabled":false,"rental_uris":{"android":"levelo://app?vid=7abbaf05-cea8-48fb-a690-7498f8463dc3","ios":"levelo://app?vid=7abbaf05-cea8-48fb-a690-7498f8463dc3"},"vehicle_type_id":"4","last_reported":1684087645,"current_range_meters":6400,"station_id":"ce4bgpp2rcd13ifvqc3g","pricing_plan_id":"free"},{"bike_id":"208ac534-6b49-4b37-bb62-18774316a0a8","system_id":"levelo_inurba_marseille","lat":43.29929,"lon":5.37475,"is_reserved":false,"is_disabled":false,"rental_uris":{"android":"levelo://app?vid=208ac534-6b49-4b37-bb62-18774316a0a8","ios":"levelo://app?vid=208ac534-6b49-4b37-bb62-18774316a0a8"},"vehicle_type_id":"4","last_reported":1684087645,"current_range_meters":0,"station_id":"ce4bgjh2rcd13ifvqbg0","pricing_plan_id":"free"},{"bike_id":"9e3da75e-1b6f-4c07-a810-10ced1f68a50","system_id":"levelo_inurba_marseille","lat":43.30546,"lon":5.38438,"is_reserved":false,"is_disabled":false,"rental_uris":{"android":"levelo://app?vid=9e3da75e-1b6f-4c07-a810-10ced1f68a50","ios":"levelo://app?vid=9e3da75e-1b6f-4c07-a810-10ced1f68a50"},"vehicle_type_id":"4","last_reported":1684087645,"current_range_meters":6800,"station_id":"ce4bgg92rcd13ifvqb30","pricing_plan_id":"free"},{"bike_id":"e2498b1f-200e-47c5-a676-9f26bdaf2987","system_id":"levelo_inurba_marseille","lat":43.299243,"lon":5.37481,"is_reserved":false,"is_disabled":false,"rental_uris":{"android":"levelo://app?vid=e2498b1f-200e-47c5-a676-9f26bdaf2987","ios":"levelo://app?vid=e2498b1f-200e-47c5-a676-9f26bdaf2987"},"vehicle_type_id":"4","last_reported":1684087645,"current_range_meters":6000,"station_id":"ce4bgjh2rcd13ifvqbg0","pricing_plan_id":"free"},{"bike_id":"2f96f4b7-d3f1-4b87-b98f-caf50ba6d13d","system_id":"levelo_inurba_marseille","lat":43.32758,"lon":5.36665,"is_reserved":false,"is_disabled":false,"rental_uris":{"android":"levelo://app?vid=2f96f4b7-d3f1-4b87-b98f-caf50ba6d13d","ios":"levelo://app?vid=2f96f4b7-d3f1-4b87-b98f-caf50ba6d13d"},"vehicle_type_id":"4","last_reported":1684087645,"current_range_meters":6800,"station_id":"","pricing_plan_id":"free"},{"bike_id":"a09c3d33-cf9e-4e62-8cbd-1135349825de","system_id":"levelo_inurba_marseille","lat":43.297794,"lon":5.370888,"is_reserved":false,"is_disabled":false,"rental_uris":{"android":"levelo://app?vid=a09c3d33-cf9e-4e62-8cbd-1135349825de","ios":"levelo://app?vid=a09c3d33-cf9e-4e62-8cbd-1135349825de"},"vehicle_type_id":"4","last_reported":1684087645,"current_range_meters":7600,"station_id":"ce4bgop2rcd13ifvqc1g","pricing_plan_id":"free"},{"bike_id":"521cb34c-1429-4991-a3bc-ae4845bd44e1","system_id":"levelo_inurba_marseille","lat":43.297774,"lon":5.370875,"is_reserved":false,"is_disabled":false,"rental_uris":{"android":"levelo://app?vid=521cb34c-1429-4991-a3bc-ae4845bd44e1","ios":"levelo://app?vid=521cb34c-1429-4991-a3bc-ae4845bd44e1"},"vehicle_type_id":"4","last_reported":1684087645,"current_range_meters":0,"station_id":"ce4bgop2rcd13ifvqc1g","pricing_plan_id":"free"},{"bike_id":"3f1ee445-79dc-4a77-99ec-f861244bce43","system_id":"levelo_inurba_marseille","lat":43.32826,"lon":5.36669,"is_reserved":false,"is_disabled":false,"rental_uris":{"android":"levelo://app?vid=3f1ee445-79dc-4a77-99ec-f861244bce43","ios":"levelo://app?vid=3f1ee445-79dc-4a77-99ec-f861244bce43"},"vehicle_type_id":"4","last_reported":1684087645,"current_range_meters":20000,"station_id":"ce4bhs92rcd13ifvqi0g","pricing_plan_id":"free"},{"bike_id":"acb3285f-1a59-4939-bacf-1321efdfa740","system_id":"levelo_inurba_marseille","lat":43.32827,"lon":5.36682,"is_reserved":false,"is_disabled":false,"rental_uris":{"android":"levelo://app?vid=acb3285f-1a59-4939-bacf-1321efdfa740","ios":"levelo://app?vid=acb3285f-1a59-4939-bacf-1321efdfa740"},"vehicle_type_id":"4","last_reported":1684087645,"current_range_meters":23200,"station_id":"ce4bhs92rcd13ifvqi0g","pricing_plan_id":"free"},{"bike_id":"ad50fbdc-6818-49a3-976a-84468e8cc53b","system_id":"levelo_inurba_marseille","lat":43.328371,"lon":5.366912,"is_reserved":false,"is_disabled":false,"rental_uris":{"android":"levelo://app?vid=ad50fbdc-6818-49a3-976a-84468e8cc53b","ios":"levelo://app?vid=ad50fbdc-6818-49a3-976a-84468e8cc53b"},"vehicle_type_id":"4","last_reported":1684087645,"current_range_meters":30800,"station_id":"ce4bhs92rcd13ifvqi0g","pricing_plan_id":"free"},{"bike_id":"98fc616f-05d8-4d1d-9c58-d04644bf4fef","system_id":"levelo_inurba_marseille","lat":43.328371,"lon":5.366912,"is_reserved":false,"is_disabled":false,"rental_uris":{"android":"levelo://app?vid=98fc616f-05d8-4d1d-9c58-d04644bf4fef","ios":"levelo://app?vid=98fc616f-05d8-4d1d-9c58-d04644bf4fef"},"vehicle_type_id":"4","last_reported":1684087645,"current_range_meters":28000,"station_id":"ce4bhs92rcd13ifvqi0g","pricing_plan_id":"free"},{"bike_id":"ef619222-d86f-4984-a46f-cda033f9cc5b","system_id":"levelo_inurba_marseille","lat":43.328371,"lon":5.366912,"is_reserved":false,"is_disabled":false,"rental_uris":{"android":"levelo://app?vid=ef619222-d86f-4984-a46f-cda033f9cc5b","ios":"levelo://app?vid=ef619222-d86f-4984-a46f-cda033f9cc5b"},"vehicle_type_id":"4","last_reported":1684087645,"current_range_meters":29200,"station_id":"ce4bhs92rcd13ifvqi0g","pricing_plan_id":"free"},{"bike_id":"34c470f1-ed41-47d6-8d65-5c286939ee04","system_id":"levelo_inurba_marseille","lat":43.328371,"lon":5.366912,"is_reserved":false,"is_disabled":false,"rental_uris":{"android":"levelo://app?vid=34c470f1-ed41-47d6-8d65-5c286939ee04","ios":"levelo://app?vid=34c470f1-ed41-47d6-8d65-5c286939ee04"},"vehicle_type_id":"4","last_reported":1684087645,"current_range_meters":16000,"station_id":"ce4bhs92rcd13ifvqi0g","pricing_plan_id":"free"},{"bike_id":"b449a4e4-2b40-420f-9a30-3bbbb718557f","system_id":"levelo_inurba_marseille","lat":43.328371,"lon":5.366912,"is_reserved":false,"is_disabled":false,"rental_uris":{"android":"levelo://app?vid=b449a4e4-2b40-420f-9a30-3bbbb718557f","ios":"levelo://app?vid=b449a4e4-2b40-420f-9a30-3bbbb718557f"},"vehicle_type_id":"4","last_reported":1684087645,"current_range_meters":15600,"station_id":"ce4bhs92rcd13ifvqi0g","pricing_plan_id":"free"},{"bike_id":"5bc79a87-8c51-4256-972d-10ecdbdb6305","system_id":"levelo_inurba_marseille","lat":43.328371,"lon":5.366912,"is_reserved":false,"is_disabled":false,"rental_uris":{"android":"levelo://app?vid=5bc79a87-8c51-4256-972d-10ecdbdb6305","ios":"levelo://app?vid=5bc79a87-8c51-4256-972d-10ecdbdb6305"},"vehicle_type_id":"4","last_reported":1684087645,"current_range_meters":14400,"station_id":"ce4bhs92rcd13ifvqi0g","pricing_plan_id":"free"},{"bike_id":"439e171b-885c-4b84-971d-3c43043903d7","system_id":"levelo_inurba_marseille","lat":43.328371,"lon":5.366912,"is_reserved":false,"is_disabled":false,"rental_uris":{"android":"levelo://app?vid=439e171b-885c-4b84-971d-3c43043903d7","ios":"levelo://app?vid=439e171b-885c-4b84-971d-3c43043903d7"},"vehicle_type_id":"4","last_reported":1684087645,"current_range_meters":22800,"station_id":"ce4bhs92rcd13ifvqi0g","pricing_plan_id":"free"},{"bike_id":"aaca5fdf-1dee-4b81-aa4f-2d7102ec2d0c","system_id":"levelo_inurba_marseille","lat":43.32836,"lon":5.36691,"is_reserved":false,"is_disabled":false,"rental_uris":{"android":"levelo://app?vid=aaca5fdf-1dee-4b81-aa4f-2d7102ec2d0c","ios":"levelo://app?vid=aaca5fdf-1dee-4b81-aa4f-2d7102ec2d0c"},"vehicle_type_id":"4","last_reported":1684087645,"current_range_meters":18400,"station_id":"ce4bhs92rcd13ifvqi0g","pricing_plan_id":"free"},{"bike_id":"216acc05-cd3c-4a35-b67b-82ab6e8e46bc","system_id":"levelo_inurba_marseille","lat":43.32837,"lon":5.36693,"is_reserved":false,"is_disabled":false,"rental_uris":{"android":"levelo://app?vid=216acc05-cd3c-4a35-b67b-82ab6e8e46bc","ios":"levelo://app?vid=216acc05-cd3c-4a35-b67b-82ab6e8e46bc"},"vehicle_type_id":"4","last_reported":1684087645,"current_range_meters":14800,"station_id":"ce4bhs92rcd13ifvqi0g","pricing_plan_id":"free"},{"bike_id":"f7e16b9b-dda5-4bba-9d80-00bc064f0f46","system_id":"levelo_inurba_marseille","lat":43.32838,"lon":5.3668,"is_reserved":false,"is_disabled":false,"rental_uris":{"android":"levelo://app?vid=f7e16b9b-dda5-4bba-9d80-00bc064f0f46","ios":"levelo://app?vid=f7e16b9b-dda5-4bba-9d80-00bc064f0f46"},"vehicle_type_id":"4","last_reported":1684087645,"current_range_meters":13200,"station_id":"ce4bhs92rcd13ifvqi0g","pricing_plan_id":"free"},{"bike_id":"7483658f-c618-4fef-8ee6-6a2be6ebced4","system_id":"levelo_inurba_marseille","lat":43.2968,"lon":5.37291,"is_reserved":false,"is_disabled":false,"rental_uris":{"android":"levelo://app?vid=7483658f-c618-4fef-8ee6-6a2be6ebced4","ios":"levelo://app?vid=7483658f-c618-4fef-8ee6-6a2be6ebced4"},"vehicle_type_id":"4","last_reported":1684087645,"current_range_meters":12000,"station_id":"ce4bgk12rcd13ifvqbj0","pricing_plan_id":"free"},{"bike_id":"1816e33f-c975-4f61-b959-0e5810b6d26d","system_id":"levelo_inurba_marseille","lat":43.29573,"lon":5.367355,"is_reserved":false,"is_disabled":false,"rental_uris":{"android":"levelo://app?vid=1816e33f-c975-4f61-b959-0e5810b6d26d","ios":"levelo://app?vid=1816e33f-c975-4f61-b959-0e5810b6d26d"},"vehicle_type_id":"4","last_reported":1684087645,"current_range_meters":8400,"station_id":"ce4bgph2rcd13ifvqc2g","pricing_plan_id":"free"},{"bike_id":"6a7c526a-bef7-49e0-8ec1-b472a4f0eeb3","system_id":"levelo_inurba_marseille","lat":43.309589,"lon":5.390258,"is_reserved":false,"is_disabled":false,"rental_uris":{"android":"levelo://app?vid=6a7c526a-bef7-49e0-8ec1-b472a4f0eeb3","ios":"levelo://app?vid=6a7c526a-bef7-49e0-8ec1-b472a4f0eeb3"},"vehicle_type_id":"4","last_reported":1684087645,"current_range_meters":3200,"station_id":"ce4bgup2rcd13ifvqco0","pricing_plan_id":"free"},{"bike_id":"9add6c5e-e58b-4d27-997c-a7f012c1f6d7","system_id":"levelo_inurba_marseille","lat":43.299028,"lon":5.381509,"is_reserved":false,"is_disabled":false,"rental_uris":{"android":"levelo://app?vid=9add6c5e-e58b-4d27-997c-a7f012c1f6d7","ios":"levelo://app?vid=9add6c5e-e58b-4d27-997c-a7f012c1f6d7"},"vehicle_type_id":"4","last_reported":1684087645,"current_range_meters":0,"station_id":"ce4bgj12rcd13ifvqbc0","pricing_plan_id":"free"},{"bike_id":"62129797-35ce-46e5-959e-8b7bffd49091","system_id":"levelo_inurba_marseille","lat":43.309589,"lon":5.390258,"is_reserved":false,"is_disabled":false,"rental_uris":{"android":"levelo://app?vid=62129797-35ce-46e5-959e-8b7bffd49091","ios":"levelo://app?vid=62129797-35ce-46e5-959e-8b7bffd49091"},"vehicle_type_id":"4","last_reported":1684087645,"current_range_meters":14000,"station_id":"ce4bgup2rcd13ifvqco0","pricing_plan_id":"free"},{"bike_id":"50b54e64-655a-48d1-a7cc-04966a5cff84","system_id":"levelo_inurba_marseille","lat":43.317557,"lon":5.390173,"is_reserved":false,"is_disabled":false,"rental_uris":{"android":"levelo://app?vid=50b54e64-655a-48d1-a7cc-04966a5cff84","ios":"levelo://app?vid=50b54e64-655a-48d1-a7cc-04966a5cff84"},"vehicle_type_id":"4","last_reported":1684087645,"current_range_meters":12000,"station_id":"ce4bhqp2rcd13ifvqhng","pricing_plan_id":"free"},{"bike_id":"7e101d88-7926-4513-a08a-b2a6fdb92c65","system_id":"levelo_inurba_marseille","lat":43.31756,"lon":5.39017,"is_reserved":false,"is_disabled":false,"rental_uris":{"android":"levelo://app?vid=7e101d88-7926-4513-a08a-b2a6fdb92c65","ios":"levelo://app?vid=7e101d88-7926-4513-a08a-b2a6fdb92c65"},"vehicle_type_id":"4","last_reported":1684087645,"current_range_meters":24400,"station_id":"ce4bhqp2rcd13ifvqhng","pricing_plan_id":"free"},{"bike_id":"382fcb68-3d77-41fc-a93b-41ad57c459c5","system_id":"levelo_inurba_marseille","lat":43.298037,"lon":5.381066,"is_reserved":false,"is_disabled":false,"rental_uris":{"android":"levelo://app?vid=382fcb68-3d77-41fc-a93b-41ad57c459c5","ios":"levelo://app?vid=382fcb68-3d77-41fc-a93b-41ad57c459c5"},"vehicle_type_id":"4","last_reported":1684087645,"current_range_meters":24400,"station_id":"ce4bgip2rcd13ifvqbb0","pricing_plan_id":"free"},{"bike_id":"090ec06a-26f9-47fd-8822-fff0a827d442","system_id":"levelo_inurba_marseille","lat":43.298037,"lon":5.381066,"is_reserved":false,"is_disabled":false,"rental_uris":{"android":"levelo://app?vid=090ec06a-26f9-47fd-8822-fff0a827d442","ios":"levelo://app?vid=090ec06a-26f9-47fd-8822-fff0a827d442"},"vehicle_type_id":"4","last_reported":1684087645,"current_range_meters":22800,"station_id":"ce4bgip2rcd13ifvqbb0","pricing_plan_id":"free"},{"bike_id":"59951535-1a5b-4156-9194-5e63e757ea43","system_id":"levelo_inurba_marseille","lat":43.298037,"lon":5.381066,"is_reserved":false,"is_disabled":false,"rental_uris":{"android":"levelo://app?vid=59951535-1a5b-4156-9194-5e63e757ea43","ios":"levelo://app?vid=59951535-1a5b-4156-9194-5e63e757ea43"},"vehicle_type_id":"4","last_reported":1684087645,"current_range_meters":0,"station_id":"ce4bgip2rcd13ifvqbb0","pricing_plan_id":"free"},{"bike_id":"724e4e80-30b4-455e-92e9-cd9bd07e3ec3","system_id":"levelo_inurba_marseille","lat":43.30444,"lon":5.38898,"is_reserved":false,"is_disabled":false,"rental_uris":{"android":"levelo://app?vid=724e4e80-30b4-455e-92e9-cd9bd07e3ec3","ios":"levelo://app?vid=724e4e80-30b4-455e-92e9-cd9bd07e3ec3"},"vehicle_type_id":"4","last_reported":1684087645,"current_range_meters":0,"station_id":"ce4bgk12rcd13ifvqbi0","pricing_plan_id":"free"},{"bike_id":"3a2871a5-fbef-4051-9c6d-5a4be594d10a","system_id":"levelo_inurba_marseille","lat":43.296277,"lon":5.377108,"is_reserved":false,"is_disabled":false,"rental_uris":{"android":"levelo://app?vid=3a2871a5-fbef-4051-9c6d-5a4be594d10a","ios":"levelo://app?vid=3a2871a5-fbef-4051-9c6d-5a4be594d10a"},"vehicle_type_id":"4","last_reported":1684087645,"current_range_meters":0,"station_id":"ce4bgi92rcd13ifvqb90","pricing_plan_id":"free"},{"bike_id":"8679fb06-92e7-4315-90c1-c0b409942da3","system_id":"levelo_inurba_marseille","lat":43.299707,"lon":5.384859,"is_reserved":false,"is_disabled":false,"rental_uris":{"android":"levelo://app?vid=8679fb06-92e7-4315-90c1-c0b409942da3","ios":"levelo://app?vid=8679fb06-92e7-4315-90c1-c0b409942da3"},"vehicle_type_id":"4","last_reported":1684087645,"current_range_meters":13600,"station_id":"ce4bgj92rcd13ifvqbd0","pricing_plan_id":"free"},{"bike_id":"98d43089-ff1e-40ee-a123-f18e174ce1c4","system_id":"levelo_inurba_marseille","lat":43.31453,"lon":5.39227,"is_reserved":false,"is_disabled":false,"rental_uris":{"android":"levelo://app?vid=98d43089-ff1e-40ee-a123-f18e174ce1c4","ios":"levelo://app?vid=98d43089-ff1e-40ee-a123-f18e174ce1c4"},"vehicle_type_id":"4","last_reported":1684087645,"current_range_meters":0,"station_id":"","pricing_plan_id":"free"},{"bike_id":"6f6b02ce-a50b-443a-a31d-aed834771e7b","system_id":"levelo_inurba_marseille","lat":43.31442,"lon":5.39272,"is_reserved":false,"is_disabled":false,"rental_uris":{"android":"levelo://app?vid=6f6b02ce-a50b-443a-a31d-aed834771e7b","ios":"levelo://app?vid=6f6b02ce-a50b-443a-a31d-aed834771e7b"},"vehicle_type_id":"4","last_reported":1684087645,"current_range_meters":1200,"station_id":"","pricing_plan_id":"free"},{"bike_id":"fe29f159-cdf1-4f1e-9278-131792f2a624","system_id":"levelo_inurba_marseille","lat":43.293249,"lon":5.371578,"is_reserved":false,"is_disabled":false,"rental_uris":{"android":"levelo://app?vid=fe29f159-cdf1-4f1e-9278-131792f2a624","ios":"levelo://app?vid=fe29f159-cdf1-4f1e-9278-131792f2a624"},"vehicle_type_id":"4","last_reported":1684087645,"current_range_meters":28800,"station_id":"ce4bgh92rcd13ifvqb40","pricing_plan_id":"free"},{"bike_id":"82092de4-89e5-4ade-b340-6b9547cbd6cf","system_id":"levelo_inurba_marseille","lat":43.302992,"lon":5.392136,"is_reserved":false,"is_disabled":false,"rental_uris":{"android":"levelo://app?vid=82092de4-89e5-4ade-b340-6b9547cbd6cf","ios":"levelo://app?vid=82092de4-89e5-4ade-b340-6b9547cbd6cf"},"vehicle_type_id":"4","last_reported":1684087645,"current_range_meters":6400,"station_id":"ce4bgkh2rcd13ifvqbk0","pricing_plan_id":"free"},{"bike_id":"9c5e8b5d-01b1-4c48-8bd6-4a59bfcdb126","system_id":"levelo_inurba_marseille","lat":43.302992,"lon":5.392136,"is_reserved":false,"is_disabled":false,"rental_uris":{"android":"levelo://app?vid=9c5e8b5d-01b1-4c48-8bd6-4a59bfcdb126","ios":"levelo://app?vid=9c5e8b5d-01b1-4c48-8bd6-4a59bfcdb126"},"vehicle_type_id":"4","last_reported":1684087645,"current_range_meters":20400,"station_id":"ce4bgkh2rcd13ifvqbk0","pricing_plan_id":"free"},{"bike_id":"28e60930-fba1-4315-8cfe-7a5055cbdfee","system_id":"levelo_inurba_marseille","lat":43.302992,"lon":5.392136,"is_reserved":false,"is_disabled":false,"rental_uris":{"android":"levelo://app?vid=28e60930-fba1-4315-8cfe-7a5055cbdfee","ios":"levelo://app?vid=28e60930-fba1-4315-8cfe-7a5055cbdfee"},"vehicle_type_id":"4","last_reported":1684087645,"current_range_meters":7600,"station_id":"ce4bgkh2rcd13ifvqbk0","pricing_plan_id":"free"},{"bike_id":"340344fb-edda-4075-b9ef-5f9c1b5b41af","system_id":"levelo_inurba_marseille","lat":43.300852,"lon":5.390859,"is_reserved":false,"is_disabled":false,"rental_uris":{"android":"levelo://app?vid=340344fb-edda-4075-b9ef-5f9c1b5b41af","ios":"levelo://app?vid=340344fb-edda-4075-b9ef-5f9c1b5b41af"},"vehicle_type_id":"4","last_reported":1684087645,"current_range_meters":400,"station_id":"ce4bh192rcd13ifvqdb0","pricing_plan_id":"free"},{"bike_id":"160cf7a0-79ae-4722-b39b-f84bbf148ced","system_id":"levelo_inurba_marseille","lat":43.300852,"lon":5.390859,"is_reserved":false,"is_disabled":false,"rental_uris":{"android":"levelo://app?vid=160cf7a0-79ae-4722-b39b-f84bbf148ced","ios":"levelo://app?vid=160cf7a0-79ae-4722-b39b-f84bbf148ced"},"vehicle_type_id":"4","last_reported":1684087645,"current_range_meters":1200,"station_id":"ce4bh192rcd13ifvqdb0","pricing_plan_id":"free"},{"bike_id":"821bfecc-e197-4ace-8757-b7ddb097289a","system_id":"levelo_inurba_marseille","lat":43.298764,"lon":5.388973,"is_reserved":false,"is_disabled":false,"rental_uris":{"android":"levelo://app?vid=821bfecc-e197-4ace-8757-b7ddb097289a","ios":"levelo://app?vid=821bfecc-e197-4ace-8757-b7ddb097289a"},"vehicle_type_id":"4","last_reported":1684087645,"current_range_meters":4000,"station_id":"ce4bh392rcd13ifvqdl0","pricing_plan_id":"free"},{"bike_id":"5d75386e-f004-4eaf-860c-04df2d7b9b8b","system_id":"levelo_inurba_marseille","lat":43.298764,"lon":5.388973,"is_reserved":false,"is_disabled":false,"rental_uris":{"android":"levelo://app?vid=5d75386e-f004-4eaf-860c-04df2d7b9b8b","ios":"levelo://app?vid=5d75386e-f004-4eaf-860c-04df2d7b9b8b"},"vehicle_type_id":"4","last_reported":1684087645,"current_range_meters":17600,"station_id":"ce4bh392rcd13ifvqdl0","pricing_plan_id":"free"},{"bike_id":"3b7d26db-f448-4ba3-900e-48d8a7fcfea9","system_id":"levelo_inurba_marseille","lat":43.313291,"lon":5.396838,"is_reserved":false,"is_disabled":false,"rental_uris":{"android":"levelo://app?vid=3b7d26db-f448-4ba3-900e-48d8a7fcfea9","ios":"levelo://app?vid=3b7d26db-f448-4ba3-900e-48d8a7fcfea9"},"vehicle_type_id":"4","last_reported":1684087645,"current_range_meters":1200,"station_id":"ce4bgvp2rcd13ifvqcu0","pricing_plan_id":"free"},{"bike_id":"04bbc8bf-f16d-4cb1-8a95-6715544172fd","system_id":"levelo_inurba_marseille","lat":43.313291,"lon":5.396838,"is_reserved":false,"is_disabled":false,"rental_uris":{"android":"levelo://app?vid=04bbc8bf-f16d-4cb1-8a95-6715544172fd","ios":"levelo://app?vid=04bbc8bf-f16d-4cb1-8a95-6715544172fd"},"vehicle_type_id":"4","last_reported":1684087645,"current_range_meters":3600,"station_id":"ce4bgvp2rcd13ifvqcu0","pricing_plan_id":"free"},{"bike_id":"55a1e228-0561-4784-b8b8-709f911c5410","system_id":"levelo_inurba_marseille","lat":43.309038,"lon":5.396546,"is_reserved":false,"is_disabled":false,"rental_uris":{"android":"levelo://app?vid=55a1e228-0561-4784-b8b8-709f911c5410","ios":"levelo://app?vid=55a1e228-0561-4784-b8b8-709f911c5410"},"vehicle_type_id":"4","last_reported":1684087645,"current_range_meters":25200,"station_id":"ce4bh012rcd13ifvqcv0","pricing_plan_id":"free"},{"bike_id":"d583d373-864d-4d83-9fad-d01d0786a1c6","system_id":"levelo_inurba_marseille","lat":43.302008,"lon":5.394694,"is_reserved":false,"is_disabled":false,"rental_uris":{"android":"levelo://app?vid=d583d373-864d-4d83-9fad-d01d0786a1c6","ios":"levelo://app?vid=d583d373-864d-4d83-9fad-d01d0786a1c6"},"vehicle_type_id":"4","last_reported":1684087645,"current_range_meters":0,"station_id":"ce4bh0p2rcd13ifvqd70","pricing_plan_id":"free"},{"bike_id":"f1d39852-2266-40ff-b4f5-2eece6c8a41d","system_id":"levelo_inurba_marseille","lat":43.302008,"lon":5.394694,"is_reserved":false,"is_disabled":false,"rental_uris":{"android":"levelo://app?vid=f1d39852-2266-40ff-b4f5-2eece6c8a41d","ios":"levelo://app?vid=f1d39852-2266-40ff-b4f5-2eece6c8a41d"},"vehicle_type_id":"4","last_reported":1684087645,"current_range_meters":6000,"station_id":"ce4bh0p2rcd13ifvqd70","pricing_plan_id":"free"},{"bike_id":"5174fe3b-1f7d-48f5-961e-2349f113752e","system_id":"levelo_inurba_marseille","lat":43.286591,"lon":5.363346,"is_reserved":false,"is_disabled":false,"rental_uris":{"android":"levelo://app?vid=5174fe3b-1f7d-48f5-961e-2349f113752e","ios":"levelo://app?vid=5174fe3b-1f7d-48f5-961e-2349f113752e"},"vehicle_type_id":"4","last_reported":1684087645,"current_range_meters":8000,"station_id":"ce4bhah2rcd13ifvqej0","pricing_plan_id":"free"},{"bike_id":"9f129774-36e1-42f1-8229-a7c2be11d89e","system_id":"levelo_inurba_marseille","lat":43.30491,"lon":5.39703,"is_reserved":false,"is_disabled":false,"rental_uris":{"android":"levelo://app?vid=9f129774-36e1-42f1-8229-a7c2be11d89e","ios":"levelo://app?vid=9f129774-36e1-42f1-8229-a7c2be11d89e"},"vehicle_type_id":"4","last_reported":1684087645,"current_range_meters":14400,"station_id":"","pricing_plan_id":"free"},{"bike_id":"cb68dcce-ce24-4cc9-b4c5-1e26b1332f1c","system_id":"levelo_inurba_marseille","lat":43.294153,"lon":5.386305,"is_reserved":false,"is_disabled":false,"rental_uris":{"android":"levelo://app?vid=cb68dcce-ce24-4cc9-b4c5-1e26b1332f1c","ios":"levelo://app?vid=cb68dcce-ce24-4cc9-b4c5-1e26b1332f1c"},"vehicle_type_id":"4","last_reported":1684087645,"current_range_meters":1600,"station_id":"ce4bh2h2rcd13ifvqdh0","pricing_plan_id":"free"},{"bike_id":"a25c1d0f-d762-4eaf-a9aa-909d3160de51","system_id":"levelo_inurba_marseille","lat":43.292644,"lon":5.384257,"is_reserved":false,"is_disabled":false,"rental_uris":{"android":"levelo://app?vid=a25c1d0f-d762-4eaf-a9aa-909d3160de51","ios":"levelo://app?vid=a25c1d0f-d762-4eaf-a9aa-909d3160de51"},"vehicle_type_id":"4","last_reported":1684087645,"current_range_meters":12800,"station_id":"ce4bh692rcd13ifvqea0","pricing_plan_id":"free"},{"bike_id":"3b1f733b-e3bb-4bda-8167-dcbdeeeb2b83","system_id":"levelo_inurba_marseille","lat":43.292644,"lon":5.384257,"is_reserved":false,"is_disabled":false,"rental_uris":{"android":"levelo://app?vid=3b1f733b-e3bb-4bda-8167-dcbdeeeb2b83","ios":"levelo://app?vid=3b1f733b-e3bb-4bda-8167-dcbdeeeb2b83"},"vehicle_type_id":"4","last_reported":1684087645,"current_range_meters":17200,"station_id":"ce4bh692rcd13ifvqea0","pricing_plan_id":"free"},{"bike_id":"f0dab880-4336-4167-8dc6-6ed41f821cb6","system_id":"levelo_inurba_marseille","lat":43.33042,"lon":5.38915,"is_reserved":false,"is_disabled":false,"rental_uris":{"android":"levelo://app?vid=f0dab880-4336-4167-8dc6-6ed41f821cb6","ios":"levelo://app?vid=f0dab880-4336-4167-8dc6-6ed41f821cb6"},"vehicle_type_id":"4","last_reported":1684087645,"current_range_meters":0,"station_id":"ce4bhr92rcd13ifvqhrg","pricing_plan_id":"free"},{"bike_id":"6df2628c-f421-41e9-b437-ffbd6d888135","system_id":"levelo_inurba_marseille","lat":43.33042,"lon":5.38916,"is_reserved":false,"is_disabled":false,"rental_uris":{"android":"levelo://app?vid=6df2628c-f421-41e9-b437-ffbd6d888135","ios":"levelo://app?vid=6df2628c-f421-41e9-b437-ffbd6d888135"},"vehicle_type_id":"4","last_reported":1684087645,"current_range_meters":1200,"station_id":"ce4bhr92rcd13ifvqhrg","pricing_plan_id":"free"},{"bike_id":"9b34a26f-1256-4b06-a2cd-2e6177e89d22","system_id":"levelo_inurba_marseille","lat":43.33042,"lon":5.38918,"is_reserved":false,"is_disabled":false,"rental_uris":{"android":"levelo://app?vid=9b34a26f-1256-4b06-a2cd-2e6177e89d22","ios":"levelo://app?vid=9b34a26f-1256-4b06-a2cd-2e6177e89d22"},"vehicle_type_id":"4","last_reported":1684087645,"current_range_meters":22800,"station_id":"ce4bhr92rcd13ifvqhrg","pricing_plan_id":"free"},{"bike_id":"8c51270e-1f83-4ecf-a1d7-3341ddf6b0a9","system_id":"levelo_inurba_marseille","lat":43.33047,"lon":5.38911,"is_reserved":false,"is_disabled":false,"rental_uris":{"android":"levelo://app?vid=8c51270e-1f83-4ecf-a1d7-3341ddf6b0a9","ios":"levelo://app?vid=8c51270e-1f83-4ecf-a1d7-3341ddf6b0a9"},"vehicle_type_id":"4","last_reported":1684087645,"current_range_meters":4400,"station_id":"ce4bhr92rcd13ifvqhrg","pricing_plan_id":"free"},{"bike_id":"f06c3db4-7889-4c18-99f8-d1db674ac9f6","system_id":"levelo_inurba_marseille","lat":43.33044,"lon":5.38916,"is_reserved":false,"is_disabled":false,"rental_uris":{"android":"levelo://app?vid=f06c3db4-7889-4c18-99f8-d1db674ac9f6","ios":"levelo://app?vid=f06c3db4-7889-4c18-99f8-d1db674ac9f6"},"vehicle_type_id":"4","last_reported":1684087645,"current_range_meters":4400,"station_id":"ce4bhr92rcd13ifvqhrg","pricing_plan_id":"free"},{"bike_id":"d9c65fb5-b538-43a6-8b06-cce8ee9f5b2a","system_id":"levelo_inurba_marseille","lat":43.33042,"lon":5.38921,"is_reserved":false,"is_disabled":false,"rental_uris":{"android":"levelo://app?vid=d9c65fb5-b538-43a6-8b06-cce8ee9f5b2a","ios":"levelo://app?vid=d9c65fb5-b538-43a6-8b06-cce8ee9f5b2a"},"vehicle_type_id":"4","last_reported":1684087645,"current_range_meters":24800,"station_id":"ce4bhr92rcd13ifvqhrg","pricing_plan_id":"free"},{"bike_id":"b8d0a2d7-4443-405c-9e1e-71d351b2ac12","system_id":"levelo_inurba_marseille","lat":43.33041,"lon":5.38923,"is_reserved":false,"is_disabled":false,"rental_uris":{"android":"levelo://app?vid=b8d0a2d7-4443-405c-9e1e-71d351b2ac12","ios":"levelo://app?vid=b8d0a2d7-4443-405c-9e1e-71d351b2ac12"},"vehicle_type_id":"4","last_reported":1684087645,"current_range_meters":17200,"station_id":"ce4bhr92rcd13ifvqhrg","pricing_plan_id":"free"},{"bike_id":"2092c238-b3be-4081-b938-90369fa895c9","system_id":"levelo_inurba_marseille","lat":43.33044,"lon":5.38919,"is_reserved":false,"is_disabled":false,"rental_uris":{"android":"levelo://app?vid=2092c238-b3be-4081-b938-90369fa895c9","ios":"levelo://app?vid=2092c238-b3be-4081-b938-90369fa895c9"},"vehicle_type_id":"4","last_reported":1684087645,"current_range_meters":2800,"station_id":"ce4bhr92rcd13ifvqhrg","pricing_plan_id":"free"},{"bike_id":"ab768784-9d01-4f88-a9d5-c9daa557ead1","system_id":"levelo_inurba_marseille","lat":43.33044,"lon":5.38919,"is_reserved":false,"is_disabled":false,"rental_uris":{"android":"levelo://app?vid=ab768784-9d01-4f88-a9d5-c9daa557ead1","ios":"levelo://app?vid=ab768784-9d01-4f88-a9d5-c9daa557ead1"},"vehicle_type_id":"4","last_reported":1684087645,"current_range_meters":30800,"station_id":"ce4bhr92rcd13ifvqhrg","pricing_plan_id":"free"},{"bike_id":"513b4caf-4a04-45df-a7b1-cf82896c148b","system_id":"levelo_inurba_marseille","lat":43.33044,"lon":5.3892,"is_reserved":false,"is_disabled":false,"rental_uris":{"android":"levelo://app?vid=513b4caf-4a04-45df-a7b1-cf82896c148b","ios":"levelo://app?vid=513b4caf-4a04-45df-a7b1-cf82896c148b"},"vehicle_type_id":"4","last_reported":1684087645,"current_range_meters":20400,"station_id":"ce4bhr92rcd13ifvqhrg","pricing_plan_id":"free"},{"bike_id":"754ef565-0150-4f0d-8c0d-a8a5d6927613","system_id":"levelo_inurba_marseille","lat":43.33044,"lon":5.38922,"is_reserved":false,"is_disabled":false,"rental_uris":{"android":"levelo://app?vid=754ef565-0150-4f0d-8c0d-a8a5d6927613","ios":"levelo://app?vid=754ef565-0150-4f0d-8c0d-a8a5d6927613"},"vehicle_type_id":"4","last_reported":1684087645,"current_range_meters":14000,"station_id":"ce4bhr92rcd13ifvqhrg","pricing_plan_id":"free"},{"bike_id":"c9c11d9d-7d0b-4eb5-adad-0791ab67911f","system_id":"levelo_inurba_marseille","lat":43.291057,"lon":5.381295,"is_reserved":false,"is_disabled":false,"rental_uris":{"android":"levelo://app?vid=c9c11d9d-7d0b-4eb5-adad-0791ab67911f","ios":"levelo://app?vid=c9c11d9d-7d0b-4eb5-adad-0791ab67911f"},"vehicle_type_id":"4","last_reported":1684087645,"current_range_meters":1600,"station_id":"","pricing_plan_id":"free"},{"bike_id":"a98ff5bd-e355-4be9-973d-4bb68d559ab4","system_id":"levelo_inurba_marseille","lat":43.33055,"lon":5.38924,"is_reserved":false,"is_disabled":false,"rental_uris":{"android":"levelo://app?vid=a98ff5bd-e355-4be9-973d-4bb68d559ab4","ios":"levelo://app?vid=a98ff5bd-e355-4be9-973d-4bb68d559ab4"},"vehicle_type_id":"4","last_reported":1684087645,"current_range_meters":8400,"station_id":"ce4bhr92rcd13ifvqhrg","pricing_plan_id":"free"},{"bike_id":"cad193f2-44f3-4b2a-bd83-5b224084ecef","system_id":"levelo_inurba_marseille","lat":43.29788,"lon":5.39338,"is_reserved":false,"is_disabled":false,"rental_uris":{"android":"levelo://app?vid=cad193f2-44f3-4b2a-bd83-5b224084ecef","ios":"levelo://app?vid=cad193f2-44f3-4b2a-bd83-5b224084ecef"},"vehicle_type_id":"4","last_reported":1684087645,"current_range_meters":24800,"station_id":"ce4bh212rcd13ifvqde0","pricing_plan_id":"free"},{"bike_id":"0dc2ef11-0366-484a-a007-540baaf3ced3","system_id":"levelo_inurba_marseille","lat":43.289743,"lon":5.378304,"is_reserved":false,"is_disabled":false,"rental_uris":{"android":"levelo://app?vid=0dc2ef11-0366-484a-a007-540baaf3ced3","ios":"levelo://app?vid=0dc2ef11-0366-484a-a007-540baaf3ced3"},"vehicle_type_id":"4","last_reported":1684087645,"current_range_meters":400,"station_id":"ce4bh9p2rcd13ifvqed0","pricing_plan_id":"free"},{"bike_id":"bdaca56c-87d3-4358-93e4-b440ac9ef7ad","system_id":"levelo_inurba_marseille","lat":43.289741,"lon":5.378306,"is_reserved":false,"is_disabled":false,"rental_uris":{"android":"levelo://app?vid=bdaca56c-87d3-4358-93e4-b440ac9ef7ad","ios":"levelo://app?vid=bdaca56c-87d3-4358-93e4-b440ac9ef7ad"},"vehicle_type_id":"4","last_reported":1684087645,"current_range_meters":8800,"station_id":"ce4bh9p2rcd13ifvqed0","pricing_plan_id":"free"},{"bike_id":"fe184274-8093-43a6-a66b-76604007bbc0","system_id":"levelo_inurba_marseille","lat":43.289743,"lon":5.378304,"is_reserved":false,"is_disabled":false,"rental_uris":{"android":"levelo://app?vid=fe184274-8093-43a6-a66b-76604007bbc0","ios":"levelo://app?vid=fe184274-8093-43a6-a66b-76604007bbc0"},"vehicle_type_id":"4","last_reported":1684087645,"current_range_meters":2000,"station_id":"ce4bh9p2rcd13ifvqed0","pricing_plan_id":"free"},{"bike_id":"fad7280e-747b-4ece-be21-a8c906659a54","system_id":"levelo_inurba_marseille","lat":43.2901,"lon":5.381269,"is_reserved":false,"is_disabled":false,"rental_uris":{"android":"levelo://app?vid=fad7280e-747b-4ece-be21-a8c906659a54","ios":"levelo://app?vid=fad7280e-747b-4ece-be21-a8c906659a54"},"vehicle_type_id":"4","last_reported":1684087645,"current_range_meters":5600,"station_id":"ce4bh4p2rcd13ifvqe1g","pricing_plan_id":"free"},{"bike_id":"235bfca5-3523-4573-9b75-a1fadb68ed6a","system_id":"levelo_inurba_marseille","lat":43.337328,"lon":5.374538,"is_reserved":false,"is_disabled":false,"rental_uris":{"android":"levelo://app?vid=235bfca5-3523-4573-9b75-a1fadb68ed6a","ios":"levelo://app?vid=235bfca5-3523-4573-9b75-a1fadb68ed6a"},"vehicle_type_id":"4","last_reported":1684087645,"current_range_meters":26400,"station_id":"ce4bhah2rcd13ifvqei0","pricing_plan_id":"free"},{"bike_id":"add5f874-e8d3-42d2-8dd5-3374246db2cf","system_id":"levelo_inurba_marseille","lat":43.33744,"lon":5.3744,"is_reserved":false,"is_disabled":false,"rental_uris":{"android":"levelo://app?vid=add5f874-e8d3-42d2-8dd5-3374246db2cf","ios":"levelo://app?vid=add5f874-e8d3-42d2-8dd5-3374246db2cf"},"vehicle_type_id":"4","last_reported":1684087645,"current_range_meters":28800,"station_id":"","pricing_plan_id":"free"},{"bike_id":"5b3ce0e7-ddde-4f08-9689-05c27b8dd4cc","system_id":"levelo_inurba_marseille","lat":43.337436,"lon":5.374627,"is_reserved":false,"is_disabled":false,"rental_uris":{"android":"levelo://app?vid=5b3ce0e7-ddde-4f08-9689-05c27b8dd4cc","ios":"levelo://app?vid=5b3ce0e7-ddde-4f08-9689-05c27b8dd4cc"},"vehicle_type_id":"4","last_reported":1684087645,"current_range_meters":27200,"station_id":"ce4bhnp2rcd13ifvqgvg","pricing_plan_id":"free"},{"bike_id":"b08fe649-9734-4bac-a5a9-c178e2973d59","system_id":"levelo_inurba_marseille","lat":43.30642,"lon":5.401031,"is_reserved":false,"is_disabled":false,"rental_uris":{"android":"levelo://app?vid=b08fe649-9734-4bac-a5a9-c178e2973d59","ios":"levelo://app?vid=b08fe649-9734-4bac-a5a9-c178e2973d59"},"vehicle_type_id":"4","last_reported":1684087645,"current_range_meters":12800,"station_id":"ce4bh112rcd13ifvqda0","pricing_plan_id":"free"},{"bike_id":"1c19103a-b883-4657-a14e-8a563d7ee5f3","system_id":"levelo_inurba_marseille","lat":43.30642,"lon":5.401031,"is_reserved":false,"is_disabled":false,"rental_uris":{"android":"levelo://app?vid=1c19103a-b883-4657-a14e-8a563d7ee5f3","ios":"levelo://app?vid=1c19103a-b883-4657-a14e-8a563d7ee5f3"},"vehicle_type_id":"4","last_reported":1684087645,"current_range_meters":12000,"station_id":"ce4bh112rcd13ifvqda0","pricing_plan_id":"free"},{"bike_id":"6a189226-a063-4950-b3ee-0c40718a3f3b","system_id":"levelo_inurba_marseille","lat":43.33776,"lon":5.37422,"is_reserved":false,"is_disabled":false,"rental_uris":{"android":"levelo://app?vid=6a189226-a063-4950-b3ee-0c40718a3f3b","ios":"levelo://app?vid=6a189226-a063-4950-b3ee-0c40718a3f3b"},"vehicle_type_id":"4","last_reported":1684087645,"current_range_meters":30400,"station_id":"","pricing_plan_id":"free"},{"bike_id":"bdaacc48-9bb1-4021-b484-26356961b447","system_id":"levelo_inurba_marseille","lat":43.286591,"lon":5.363346,"is_reserved":false,"is_disabled":false,"rental_uris":{"android":"levelo://app?vid=bdaacc48-9bb1-4021-b484-26356961b447","ios":"levelo://app?vid=bdaacc48-9bb1-4021-b484-26356961b447"},"vehicle_type_id":"4","last_reported":1684087645,"current_range_meters":20400,"station_id":"ce4bhah2rcd13ifvqej0","pricing_plan_id":"free"},{"bike_id":"e03fc688-4cc8-4d7d-9570-9e48f74f5fd1","system_id":"levelo_inurba_marseille","lat":43.302759,"lon":5.400793,"is_reserved":false,"is_disabled":false,"rental_uris":{"android":"levelo://app?vid=e03fc688-4cc8-4d7d-9570-9e48f74f5fd1","ios":"levelo://app?vid=e03fc688-4cc8-4d7d-9570-9e48f74f5fd1"},"vehicle_type_id":"4","last_reported":1684087645,"current_range_meters":14000,"station_id":"ce4bgvh2rcd13ifvqcs0","pricing_plan_id":"free"},{"bike_id":"26fdef11-aa70-42cf-8f06-9bdbcf224957","system_id":"levelo_inurba_marseille","lat":43.29036,"lon":5.38639,"is_reserved":false,"is_disabled":false,"rental_uris":{"android":"levelo://app?vid=26fdef11-aa70-42cf-8f06-9bdbcf224957","ios":"levelo://app?vid=26fdef11-aa70-42cf-8f06-9bdbcf224957"},"vehicle_type_id":"4","last_reported":1684087645,"current_range_meters":20800,"station_id":"ce4bh4p2rcd13ifvqe0g","pricing_plan_id":"free"},{"bike_id":"52896073-8e44-4c01-9c66-5cd1354469f3","system_id":"levelo_inurba_marseille","lat":43.2903,"lon":5.38627,"is_reserved":false,"is_disabled":false,"rental_uris":{"android":"levelo://app?vid=52896073-8e44-4c01-9c66-5cd1354469f3","ios":"levelo://app?vid=52896073-8e44-4c01-9c66-5cd1354469f3"},"vehicle_type_id":"4","last_reported":1684087645,"current_range_meters":7200,"station_id":"ce4bh4p2rcd13ifvqe0g","pricing_plan_id":"free"},{"bike_id":"668d6c2c-d358-43c1-8858-a68b8a03b63d","system_id":"levelo_inurba_marseille","lat":43.29025,"lon":5.38634,"is_reserved":false,"is_disabled":false,"rental_uris":{"android":"levelo://app?vid=668d6c2c-d358-43c1-8858-a68b8a03b63d","ios":"levelo://app?vid=668d6c2c-d358-43c1-8858-a68b8a03b63d"},"vehicle_type_id":"4","last_reported":1684087645,"current_range_meters":0,"station_id":"ce4bh4p2rcd13ifvqe0g","pricing_plan_id":"free"},{"bike_id":"8dd1f07d-724f-449a-b657-08ccf9a6b173","system_id":"levelo_inurba_marseille","lat":43.3026,"lon":5.40077,"is_reserved":false,"is_disabled":false,"rental_uris":{"android":"levelo://app?vid=8dd1f07d-724f-449a-b657-08ccf9a6b173","ios":"levelo://app?vid=8dd1f07d-724f-449a-b657-08ccf9a6b173"},"vehicle_type_id":"4","last_reported":1684087645,"current_range_meters":6800,"station_id":"ce4bgvh2rcd13ifvqcs0","pricing_plan_id":"free"},{"bike_id":"32a8221f-3013-4267-96ee-b61259f16011","system_id":"levelo_inurba_marseille","lat":43.302759,"lon":5.400793,"is_reserved":false,"is_disabled":false,"rental_uris":{"android":"levelo://app?vid=32a8221f-3013-4267-96ee-b61259f16011","ios":"levelo://app?vid=32a8221f-3013-4267-96ee-b61259f16011"},"vehicle_type_id":"4","last_reported":1684087645,"current_range_meters":14400,"station_id":"ce4bgvh2rcd13ifvqcs0","pricing_plan_id":"free"},{"bike_id":"dac938d6-d5cc-4b02-8ddb-97c4c2e244b6","system_id":"levelo_inurba_marseille","lat":43.286039,"lon":5.370681,"is_reserved":false,"is_disabled":false,"rental_uris":{"android":"levelo://app?vid=dac938d6-d5cc-4b02-8ddb-97c4c2e244b6","ios":"levelo://app?vid=dac938d6-d5cc-4b02-8ddb-97c4c2e244b6"},"vehicle_type_id":"4","last_reported":1684087645,"current_range_meters":25200,"station_id":"ce4bht12rcd13ifvqi60","pricing_plan_id":"free"},{"bike_id":"1668ffd1-3672-4462-9ad7-f04c0b69b1b1","system_id":"levelo_inurba_marseille","lat":43.286039,"lon":5.370679,"is_reserved":false,"is_disabled":false,"rental_uris":{"android":"levelo://app?vid=1668ffd1-3672-4462-9ad7-f04c0b69b1b1","ios":"levelo://app?vid=1668ffd1-3672-4462-9ad7-f04c0b69b1b1"},"vehicle_type_id":"4","last_reported":1684087645,"current_range_meters":26800,"station_id":"ce4bht12rcd13ifvqi60","pricing_plan_id":"free"},{"bike_id":"b66d453f-c724-451f-9d64-f0b978772c3b","system_id":"levelo_inurba_marseille","lat":43.28726,"lon":5.37919,"is_reserved":false,"is_disabled":false,"rental_uris":{"android":"levelo://app?vid=b66d453f-c724-451f-9d64-f0b978772c3b","ios":"levelo://app?vid=b66d453f-c724-451f-9d64-f0b978772c3b"},"vehicle_type_id":"4","last_reported":1684087645,"current_range_meters":2000,"station_id":"ce4bh9p2rcd13ifvqec0","pricing_plan_id":"free"},{"bike_id":"f468dc00-6f2c-4e52-ade1-e0c009ac5fbe","system_id":"levelo_inurba_marseille","lat":43.287185,"lon":5.379373,"is_reserved":false,"is_disabled":false,"rental_uris":{"android":"levelo://app?vid=f468dc00-6f2c-4e52-ade1-e0c009ac5fbe","ios":"levelo://app?vid=f468dc00-6f2c-4e52-ade1-e0c009ac5fbe"},"vehicle_type_id":"4","last_reported":1684087645,"current_range_meters":0,"station_id":"ce4bh9p2rcd13ifvqec0","pricing_plan_id":"free"},{"bike_id":"b2281898-2a16-4e6f-9d4c-b89da33c2fa4","system_id":"levelo_inurba_marseille","lat":43.287184,"lon":5.37937,"is_reserved":false,"is_disabled":false,"rental_uris":{"android":"levelo://app?vid=b2281898-2a16-4e6f-9d4c-b89da33c2fa4","ios":"levelo://app?vid=b2281898-2a16-4e6f-9d4c-b89da33c2fa4"},"vehicle_type_id":"4","last_reported":1684087645,"current_range_meters":7200,"station_id":"ce4bh9p2rcd13ifvqec0","pricing_plan_id":"free"},{"bike_id":"56b496b2-5f55-4ee8-8fef-6ba460345bd7","system_id":"levelo_inurba_marseille","lat":43.287185,"lon":5.379373,"is_reserved":false,"is_disabled":false,"rental_uris":{"android":"levelo://app?vid=56b496b2-5f55-4ee8-8fef-6ba460345bd7","ios":"levelo://app?vid=56b496b2-5f55-4ee8-8fef-6ba460345bd7"},"vehicle_type_id":"4","last_reported":1684087645,"current_range_meters":28400,"station_id":"ce4bh9p2rcd13ifvqec0","pricing_plan_id":"free"},{"bike_id":"e3d57552-260e-463a-a50b-d365b2fdf5e5","system_id":"levelo_inurba_marseille","lat":43.316517,"lon":5.404375,"is_reserved":false,"is_disabled":false,"rental_uris":{"android":"levelo://app?vid=e3d57552-260e-463a-a50b-d365b2fdf5e5","ios":"levelo://app?vid=e3d57552-260e-463a-a50b-d365b2fdf5e5"},"vehicle_type_id":"4","last_reported":1684087645,"current_range_meters":12800,"station_id":"ce4bh012rcd13ifvqd00","pricing_plan_id":"free"},{"bike_id":"0393ae3c-7bcf-49e5-9b4a-e41a51c83028","system_id":"levelo_inurba_marseille","lat":43.291994,"lon":5.392907,"is_reserved":false,"is_disabled":false,"rental_uris":{"android":"levelo://app?vid=0393ae3c-7bcf-49e5-9b4a-e41a51c83028","ios":"levelo://app?vid=0393ae3c-7bcf-49e5-9b4a-e41a51c83028"},"vehicle_type_id":"4","last_reported":1684087645,"current_range_meters":16800,"station_id":"ce4bh192rcd13ifvqdd0","pricing_plan_id":"free"},{"bike_id":"a7062303-3926-4cf3-9e1e-82dfbde3c5a6","system_id":"levelo_inurba_marseille","lat":43.29202,"lon":5.3933,"is_reserved":false,"is_disabled":false,"rental_uris":{"android":"levelo://app?vid=a7062303-3926-4cf3-9e1e-82dfbde3c5a6","ios":"levelo://app?vid=a7062303-3926-4cf3-9e1e-82dfbde3c5a6"},"vehicle_type_id":"4","last_reported":1684087645,"current_range_meters":10400,"station_id":"","pricing_plan_id":"free"},{"bike_id":"4c9d4f3e-7a43-40f9-9def-5859cf7435ad","system_id":"levelo_inurba_marseille","lat":43.284534,"lon":5.358662,"is_reserved":false,"is_disabled":false,"rental_uris":{"android":"levelo://app?vid=4c9d4f3e-7a43-40f9-9def-5859cf7435ad","ios":"levelo://app?vid=4c9d4f3e-7a43-40f9-9def-5859cf7435ad"},"vehicle_type_id":"4","last_reported":1684087645,"current_range_meters":4400,"station_id":"ce4bhah2rcd13ifvqei0","pricing_plan_id":"free"},{"bike_id":"c66b04dc-d414-4bbd-b45f-4ec92e184ef4","system_id":"levelo_inurba_marseille","lat":43.284534,"lon":5.358662,"is_reserved":false,"is_disabled":false,"rental_uris":{"android":"levelo://app?vid=c66b04dc-d414-4bbd-b45f-4ec92e184ef4","ios":"levelo://app?vid=c66b04dc-d414-4bbd-b45f-4ec92e184ef4"},"vehicle_type_id":"4","last_reported":1684087645,"current_range_meters":2800,"station_id":"ce4bhah2rcd13ifvqei0","pricing_plan_id":"free"},{"bike_id":"c1428543-6a06-4772-a826-a3a4353f803a","system_id":"levelo_inurba_marseille","lat":43.286138,"lon":5.351017,"is_reserved":false,"is_disabled":false,"rental_uris":{"android":"levelo://app?vid=c1428543-6a06-4772-a826-a3a4353f803a","ios":"levelo://app?vid=c1428543-6a06-4772-a826-a3a4353f803a"},"vehicle_type_id":"4","last_reported":1684087645,"current_range_meters":13600,"station_id":"ce4bhbp2rcd13ifvqerg","pricing_plan_id":"free"},{"bike_id":"310f4e96-956e-4473-a323-a282982c8505","system_id":"levelo_inurba_marseille","lat":43.28615,"lon":5.35094,"is_reserved":false,"is_disabled":false,"rental_uris":{"android":"levelo://app?vid=310f4e96-956e-4473-a323-a282982c8505","ios":"levelo://app?vid=310f4e96-956e-4473-a323-a282982c8505"},"vehicle_type_id":"4","last_reported":1684087645,"current_range_meters":6800,"station_id":"","pricing_plan_id":"free"},{"bike_id":"b06bac43-05e1-4e27-bcd2-2d21ac4f2e35","system_id":"levelo_inurba_marseille","lat":43.286595,"lon":5.386795,"is_reserved":false,"is_disabled":false,"rental_uris":{"android":"levelo://app?vid=b06bac43-05e1-4e27-bcd2-2d21ac4f2e35","ios":"levelo://app?vid=b06bac43-05e1-4e27-bcd2-2d21ac4f2e35"},"vehicle_type_id":"4","last_reported":1684087645,"current_range_meters":2400,"station_id":"ce4bh492rcd13ifvqdug","pricing_plan_id":"free"},{"bike_id":"fdeb76dd-4116-44b9-92b6-a8518d1eafec","system_id":"levelo_inurba_marseille","lat":43.286595,"lon":5.386795,"is_reserved":false,"is_disabled":false,"rental_uris":{"android":"levelo://app?vid=fdeb76dd-4116-44b9-92b6-a8518d1eafec","ios":"levelo://app?vid=fdeb76dd-4116-44b9-92b6-a8518d1eafec"},"vehicle_type_id":"4","last_reported":1684087645,"current_range_meters":3600,"station_id":"ce4bh492rcd13ifvqdug","pricing_plan_id":"free"},{"bike_id":"0de0b127-e729-46a7-be6e-3903c0c18fda","system_id":"levelo_inurba_marseille","lat":43.284793,"lon":5.384113,"is_reserved":false,"is_disabled":false,"rental_uris":{"android":"levelo://app?vid=0de0b127-e729-46a7-be6e-3903c0c18fda","ios":"levelo://app?vid=0de0b127-e729-46a7-be6e-3903c0c18fda"},"vehicle_type_id":"4","last_reported":1684087645,"current_range_meters":400,"station_id":"ce4bh512rcd13ifvqe3g","pricing_plan_id":"free"},{"bike_id":"b7c79d7b-342f-41d1-a2f9-363459fdcd74","system_id":"levelo_inurba_marseille","lat":43.284793,"lon":5.384113,"is_reserved":false,"is_disabled":false,"rental_uris":{"android":"levelo://app?vid=b7c79d7b-342f-41d1-a2f9-363459fdcd74","ios":"levelo://app?vid=b7c79d7b-342f-41d1-a2f9-363459fdcd74"},"vehicle_type_id":"4","last_reported":1684087645,"current_range_meters":0,"station_id":"ce4bh512rcd13ifvqe3g","pricing_plan_id":"free"},{"bike_id":"342ed277-f348-4058-a3d8-6dccd8da6e7b","system_id":"levelo_inurba_marseille","lat":43.283494,"lon":5.380945,"is_reserved":false,"is_disabled":false,"rental_uris":{"android":"levelo://app?vid=342ed277-f348-4058-a3d8-6dccd8da6e7b","ios":"levelo://app?vid=342ed277-f348-4058-a3d8-6dccd8da6e7b"},"vehicle_type_id":"4","last_reported":1684087645,"current_range_meters":3200,"station_id":"ce4bh412rcd13ifvqdr0","pricing_plan_id":"free"},{"bike_id":"75adb24a-6a20-484e-b6f8-d76ba4a3ee97","system_id":"levelo_inurba_marseille","lat":43.28356,"lon":5.38114,"is_reserved":false,"is_disabled":false,"rental_uris":{"android":"levelo://app?vid=75adb24a-6a20-484e-b6f8-d76ba4a3ee97","ios":"levelo://app?vid=75adb24a-6a20-484e-b6f8-d76ba4a3ee97"},"vehicle_type_id":"4","last_reported":1684087645,"current_range_meters":2800,"station_id":"ce4bh412rcd13ifvqdr0","pricing_plan_id":"free"},{"bike_id":"c08ebb1b-ac0e-4fbe-870f-3cd06f2cb0f9","system_id":"levelo_inurba_marseille","lat":43.284276,"lon":5.349754,"is_reserved":false,"is_disabled":false,"rental_uris":{"android":"levelo://app?vid=c08ebb1b-ac0e-4fbe-870f-3cd06f2cb0f9","ios":"levelo://app?vid=c08ebb1b-ac0e-4fbe-870f-3cd06f2cb0f9"},"vehicle_type_id":"4","last_reported":1684087645,"current_range_meters":9200,"station_id":"ce4bhbh2rcd13ifvqepg","pricing_plan_id":"free"},{"bike_id":"e54bac2a-5f11-4cf9-8c92-8183177c9e5b","system_id":"levelo_inurba_marseille","lat":43.289363,"lon":5.396322,"is_reserved":false,"is_disabled":false,"rental_uris":{"android":"levelo://app?vid=e54bac2a-5f11-4cf9-8c92-8183177c9e5b","ios":"levelo://app?vid=e54bac2a-5f11-4cf9-8c92-8183177c9e5b"},"vehicle_type_id":"4","last_reported":1684087645,"current_range_meters":400,"station_id":"ce4bh3h2rcd13ifvqdn0","pricing_plan_id":"free"},{"bike_id":"f557fdcd-9a51-432a-894a-6d6a3e06890d","system_id":"levelo_inurba_marseille","lat":43.292724,"lon":5.401131,"is_reserved":false,"is_disabled":false,"rental_uris":{"android":"levelo://app?vid=f557fdcd-9a51-432a-894a-6d6a3e06890d","ios":"levelo://app?vid=f557fdcd-9a51-432a-894a-6d6a3e06890d"},"vehicle_type_id":"4","last_reported":1684087645,"current_range_meters":0,"station_id":"ce4bh312rcd13ifvqdk0","pricing_plan_id":"free"},{"bike_id":"29d3e49f-d1f2-4ab3-8b1f-944588c5c5dc","system_id":"levelo_inurba_marseille","lat":43.32073,"lon":5.41,"is_reserved":false,"is_disabled":false,"rental_uris":{"android":"levelo://app?vid=29d3e49f-d1f2-4ab3-8b1f-944588c5c5dc","ios":"levelo://app?vid=29d3e49f-d1f2-4ab3-8b1f-944588c5c5dc"},"vehicle_type_id":"4","last_reported":1684087645,"current_range_meters":6400,"station_id":"","pricing_plan_id":"free"},{"bike_id":"3e610bfa-a402-4fb3-8303-8f17ee9e440c","system_id":"levelo_inurba_marseille","lat":43.28039,"lon":5.369297,"is_reserved":false,"is_disabled":false,"rental_uris":{"android":"levelo://app?vid=3e610bfa-a402-4fb3-8303-8f17ee9e440c","ios":"levelo://app?vid=3e610bfa-a402-4fb3-8303-8f17ee9e440c"},"vehicle_type_id":"4","last_reported":1684087645,"current_range_meters":22000,"station_id":"ce4bha12rcd13ifvqef0","pricing_plan_id":"free"},{"bike_id":"d483b3db-5f28-4a4d-8041-4ba7d29b0e95","system_id":"levelo_inurba_marseille","lat":43.28263,"lon":5.350579,"is_reserved":false,"is_disabled":false,"rental_uris":{"android":"levelo://app?vid=d483b3db-5f28-4a4d-8041-4ba7d29b0e95","ios":"levelo://app?vid=d483b3db-5f28-4a4d-8041-4ba7d29b0e95"},"vehicle_type_id":"4","last_reported":1684087645,"current_range_meters":2400,"station_id":"ce4bhbp2rcd13ifvqerg","pricing_plan_id":"free"},{"bike_id":"51c73a1b-0143-44bd-8c27-f8c87ee92916","system_id":"levelo_inurba_marseille","lat":43.28039,"lon":5.369297,"is_reserved":false,"is_disabled":false,"rental_uris":{"android":"levelo://app?vid=51c73a1b-0143-44bd-8c27-f8c87ee92916","ios":"levelo://app?vid=51c73a1b-0143-44bd-8c27-f8c87ee92916"},"vehicle_type_id":"4","last_reported":1684087645,"current_range_meters":2400,"station_id":"ce4bha12rcd13ifvqef0","pricing_plan_id":"free"},{"bike_id":"041a6cb7-036e-4eef-9336-b66ba1a84924","system_id":"levelo_inurba_marseille","lat":43.290412,"lon":5.399633,"is_reserved":false,"is_disabled":false,"rental_uris":{"android":"levelo://app?vid=041a6cb7-036e-4eef-9336-b66ba1a84924","ios":"levelo://app?vid=041a6cb7-036e-4eef-9336-b66ba1a84924"},"vehicle_type_id":"4","last_reported":1684087645,"current_range_meters":2800,"station_id":"ce4bh392rcd13ifvqdm0","pricing_plan_id":"free"},{"bike_id":"117cdb9c-c807-477f-96e0-f8da3a369e15","system_id":"levelo_inurba_marseille","lat":43.296263,"lon":5.40601,"is_reserved":false,"is_disabled":false,"rental_uris":{"android":"levelo://app?vid=117cdb9c-c807-477f-96e0-f8da3a369e15","ios":"levelo://app?vid=117cdb9c-c807-477f-96e0-f8da3a369e15"},"vehicle_type_id":"4","last_reported":1684087645,"current_range_meters":0,"station_id":"ce4bh0h2rcd13ifvqd60","pricing_plan_id":"free"},{"bike_id":"311785be-c54b-441a-9779-37a9676b9f25","system_id":"levelo_inurba_marseille","lat":43.30422,"lon":5.41273,"is_reserved":false,"is_disabled":false,"rental_uris":{"android":"levelo://app?vid=311785be-c54b-441a-9779-37a9676b9f25","ios":"levelo://app?vid=311785be-c54b-441a-9779-37a9676b9f25"},"vehicle_type_id":"4","last_reported":1684087645,"current_range_meters":30000,"station_id":"ce4bhop2rcd13ifvqh8g","pricing_plan_id":"free"},{"bike_id":"f744fa53-cfd1-48b2-b64d-58da2ca11fa2","system_id":"levelo_inurba_marseille","lat":43.304188,"lon":5.412904,"is_reserved":false,"is_disabled":false,"rental_uris":{"android":"levelo://app?vid=f744fa53-cfd1-48b2-b64d-58da2ca11fa2","ios":"levelo://app?vid=f744fa53-cfd1-48b2-b64d-58da2ca11fa2"},"vehicle_type_id":"4","last_reported":1684087645,"current_range_meters":4800,"station_id":"ce4bhop2rcd13ifvqh8g","pricing_plan_id":"free"},{"bike_id":"d4626723-0b53-464c-9d2e-cca76a7b6e73","system_id":"levelo_inurba_marseille","lat":43.304188,"lon":5.412904,"is_reserved":false,"is_disabled":false,"rental_uris":{"android":"levelo://app?vid=d4626723-0b53-464c-9d2e-cca76a7b6e73","ios":"levelo://app?vid=d4626723-0b53-464c-9d2e-cca76a7b6e73"},"vehicle_type_id":"4","last_reported":1684087645,"current_range_meters":30800,"station_id":"ce4bhop2rcd13ifvqh8g","pricing_plan_id":"free"},{"bike_id":"2330463f-06f1-4b2a-8b7b-0850c2fc672d","system_id":"levelo_inurba_marseille","lat":43.304188,"lon":5.412904,"is_reserved":false,"is_disabled":false,"rental_uris":{"android":"levelo://app?vid=2330463f-06f1-4b2a-8b7b-0850c2fc672d","ios":"levelo://app?vid=2330463f-06f1-4b2a-8b7b-0850c2fc672d"},"vehicle_type_id":"4","last_reported":1684087645,"current_range_meters":15600,"station_id":"ce4bhop2rcd13ifvqh8g","pricing_plan_id":"free"},{"bike_id":"44d68d04-09ce-439c-aa14-4df3ad04ad09","system_id":"levelo_inurba_marseille","lat":43.287154,"lon":5.399979,"is_reserved":false,"is_disabled":false,"rental_uris":{"android":"levelo://app?vid=44d68d04-09ce-439c-aa14-4df3ad04ad09","ios":"levelo://app?vid=44d68d04-09ce-439c-aa14-4df3ad04ad09"},"vehicle_type_id":"4","last_reported":1684087645,"current_range_meters":0,"station_id":"ce4bho92rcd13ifvqh3g","pricing_plan_id":"free"},{"bike_id":"fc4141ce-1f76-4a60-99ca-f7a394db26f6","system_id":"levelo_inurba_marseille","lat":43.27903,"lon":5.35346,"is_reserved":false,"is_disabled":false,"rental_uris":{"android":"levelo://app?vid=fc4141ce-1f76-4a60-99ca-f7a394db26f6","ios":"levelo://app?vid=fc4141ce-1f76-4a60-99ca-f7a394db26f6"},"vehicle_type_id":"4","last_reported":1684087645,"current_range_meters":0,"station_id":"","pricing_plan_id":"free"},{"bike_id":"371e8803-c285-43d9-9999-e58df2641ec2","system_id":"levelo_inurba_marseille","lat":43.287154,"lon":5.399979,"is_reserved":false,"is_disabled":false,"rental_uris":{"android":"levelo://app?vid=371e8803-c285-43d9-9999-e58df2641ec2","ios":"levelo://app?vid=371e8803-c285-43d9-9999-e58df2641ec2"},"vehicle_type_id":"4","last_reported":1684087645,"current_range_meters":2000,"station_id":"ce4bho92rcd13ifvqh3g","pricing_plan_id":"free"},{"bike_id":"b210b947-c4f1-49d8-99ad-59bafe4ab22c","system_id":"levelo_inurba_marseille","lat":43.287154,"lon":5.399979,"is_reserved":false,"is_disabled":false,"rental_uris":{"android":"levelo://app?vid=b210b947-c4f1-49d8-99ad-59bafe4ab22c","ios":"levelo://app?vid=b210b947-c4f1-49d8-99ad-59bafe4ab22c"},"vehicle_type_id":"4","last_reported":1684087645,"current_range_meters":0,"station_id":"ce4bho92rcd13ifvqh3g","pricing_plan_id":"free"},{"bike_id":"b8b7c034-5aec-443f-8075-a622bcd63df2","system_id":"levelo_inurba_marseille","lat":43.299579,"lon":5.413255,"is_reserved":false,"is_disabled":false,"rental_uris":{"android":"levelo://app?vid=b8b7c034-5aec-443f-8075-a622bcd63df2","ios":"levelo://app?vid=b8b7c034-5aec-443f-8075-a622bcd63df2"},"vehicle_type_id":"4","last_reported":1684087645,"current_range_meters":26800,"station_id":"ce4bhp12rcd13ifvqh9g","pricing_plan_id":"free"},{"bike_id":"0fdc3419-fef9-4e87-8b3d-48b6b1230483","system_id":"levelo_inurba_marseille","lat":43.279742,"lon":5.38744,"is_reserved":false,"is_disabled":false,"rental_uris":{"android":"levelo://app?vid=0fdc3419-fef9-4e87-8b3d-48b6b1230483","ios":"levelo://app?vid=0fdc3419-fef9-4e87-8b3d-48b6b1230483"},"vehicle_type_id":"4","last_reported":1684087645,"current_range_meters":13600,"station_id":"ce4bhg12rcd13ifvqf80","pricing_plan_id":"free"},{"bike_id":"a72cff25-43db-4dfb-9bc6-401fbf97ad05","system_id":"levelo_inurba_marseille","lat":43.299579,"lon":5.413255,"is_reserved":false,"is_disabled":false,"rental_uris":{"android":"levelo://app?vid=a72cff25-43db-4dfb-9bc6-401fbf97ad05","ios":"levelo://app?vid=a72cff25-43db-4dfb-9bc6-401fbf97ad05"},"vehicle_type_id":"4","last_reported":1684087645,"current_range_meters":15200,"station_id":"ce4bhp12rcd13ifvqh9g","pricing_plan_id":"free"},{"bike_id":"57b9cdf2-3865-45bc-95c1-1302d71553e7","system_id":"levelo_inurba_marseille","lat":43.279742,"lon":5.38744,"is_reserved":false,"is_disabled":false,"rental_uris":{"android":"levelo://app?vid=57b9cdf2-3865-45bc-95c1-1302d71553e7","ios":"levelo://app?vid=57b9cdf2-3865-45bc-95c1-1302d71553e7"},"vehicle_type_id":"4","last_reported":1684087645,"current_range_meters":14800,"station_id":"ce4bhg12rcd13ifvqf80","pricing_plan_id":"free"},{"bike_id":"14289479-410a-4077-b537-1a7d0a44cece","system_id":"levelo_inurba_marseille","lat":43.320045,"lon":5.415048,"is_reserved":false,"is_disabled":false,"rental_uris":{"android":"levelo://app?vid=14289479-410a-4077-b537-1a7d0a44cece","ios":"levelo://app?vid=14289479-410a-4077-b537-1a7d0a44cece"},"vehicle_type_id":"4","last_reported":1684087645,"current_range_meters":31200,"station_id":"ce4bhq92rcd13ifvqhkg","pricing_plan_id":"free"},{"bike_id":"366a3b66-e6e6-4aa7-b5fe-e1fc400901fa","system_id":"levelo_inurba_marseille","lat":43.325233,"lon":5.414318,"is_reserved":false,"is_disabled":false,"rental_uris":{"android":"levelo://app?vid=366a3b66-e6e6-4aa7-b5fe-e1fc400901fa","ios":"levelo://app?vid=366a3b66-e6e6-4aa7-b5fe-e1fc400901fa"},"vehicle_type_id":"4","last_reported":1684087645,"current_range_meters":29200,"station_id":"ce4bhq12rcd13ifvqhhg","pricing_plan_id":"free"},{"bike_id":"10995590-0527-4248-a46b-522030684dd6","system_id":"levelo_inurba_marseille","lat":43.27621,"lon":5.36125,"is_reserved":false,"is_disabled":false,"rental_uris":{"android":"levelo://app?vid=10995590-0527-4248-a46b-522030684dd6","ios":"levelo://app?vid=10995590-0527-4248-a46b-522030684dd6"},"vehicle_type_id":"4","last_reported":1684087645,"current_range_meters":0,"station_id":"","pricing_plan_id":"free"},{"bike_id":"ddfdd949-1379-451a-a01f-7eb7cad8d2d2","system_id":"levelo_inurba_marseille","lat":43.2762,"lon":5.36103,"is_reserved":false,"is_disabled":false,"rental_uris":{"android":"levelo://app?vid=ddfdd949-1379-451a-a01f-7eb7cad8d2d2","ios":"levelo://app?vid=ddfdd949-1379-451a-a01f-7eb7cad8d2d2"},"vehicle_type_id":"4","last_reported":1684087645,"current_range_meters":19200,"station_id":"ce4bgj92rcd13ifvqbe0","pricing_plan_id":"free"},{"bike_id":"a5f0aa0b-8cee-4d4a-8f7b-89d48721f172","system_id":"levelo_inurba_marseille","lat":43.325233,"lon":5.414318,"is_reserved":false,"is_disabled":false,"rental_uris":{"android":"levelo://app?vid=a5f0aa0b-8cee-4d4a-8f7b-89d48721f172","ios":"levelo://app?vid=a5f0aa0b-8cee-4d4a-8f7b-89d48721f172"},"vehicle_type_id":"4","last_reported":1684087645,"current_range_meters":15600,"station_id":"ce4bhq12rcd13ifvqhhg","pricing_plan_id":"free"},{"bike_id":"72d1c47b-25f0-4500-a29b-04b3650a151e","system_id":"levelo_inurba_marseille","lat":43.32545,"lon":5.41457,"is_reserved":false,"is_disabled":false,"rental_uris":{"android":"levelo://app?vid=72d1c47b-25f0-4500-a29b-04b3650a151e","ios":"levelo://app?vid=72d1c47b-25f0-4500-a29b-04b3650a151e"},"vehicle_type_id":"4","last_reported":1684087645,"current_range_meters":29600,"station_id":"","pricing_plan_id":"free"},{"bike_id":"fe339c17-ba4f-4a4f-b350-940fbd81c43b","system_id":"levelo_inurba_marseille","lat":43.33336,"lon":5.40906,"is_reserved":false,"is_disabled":false,"rental_uris":{"android":"levelo://app?vid=fe339c17-ba4f-4a4f-b350-940fbd81c43b","ios":"levelo://app?vid=fe339c17-ba4f-4a4f-b350-940fbd81c43b"},"vehicle_type_id":"4","last_reported":1684087645,"current_range_meters":16400,"station_id":"","pricing_plan_id":"free"},{"bike_id":"2843add0-87ef-4fe2-a45d-cab01a047ebf","system_id":"levelo_inurba_marseille","lat":43.28079,"lon":5.39657,"is_reserved":false,"is_disabled":false,"rental_uris":{"android":"levelo://app?vid=2843add0-87ef-4fe2-a45d-cab01a047ebf","ios":"levelo://app?vid=2843add0-87ef-4fe2-a45d-cab01a047ebf"},"vehicle_type_id":"4","last_reported":1684087645,"current_range_meters":12800,"station_id":"ce4bho12rcd13ifvqh2g","pricing_plan_id":"free"},{"bike_id":"4135537d-9d01-4ff3-9e1d-58ff6c81b7c2","system_id":"levelo_inurba_marseille","lat":43.28078,"lon":5.39656,"is_reserved":false,"is_disabled":false,"rental_uris":{"android":"levelo://app?vid=4135537d-9d01-4ff3-9e1d-58ff6c81b7c2","ios":"levelo://app?vid=4135537d-9d01-4ff3-9e1d-58ff6c81b7c2"},"vehicle_type_id":"4","last_reported":1684087645,"current_range_meters":16000,"station_id":"ce4bho12rcd13ifvqh2g","pricing_plan_id":"free"},{"bike_id":"fbec23a6-d05a-4ab4-a7d6-96c5438fbe77","system_id":"levelo_inurba_marseille","lat":43.280784,"lon":5.396622,"is_reserved":false,"is_disabled":false,"rental_uris":{"android":"levelo://app?vid=fbec23a6-d05a-4ab4-a7d6-96c5438fbe77","ios":"levelo://app?vid=fbec23a6-d05a-4ab4-a7d6-96c5438fbe77"},"vehicle_type_id":"4","last_reported":1684087645,"current_range_meters":13600,"station_id":"ce4bho12rcd13ifvqh2g","pricing_plan_id":"free"},{"bike_id":"8c46edcd-4ee9-4c7d-9a3f-10c2bd93a71f","system_id":"levelo_inurba_marseille","lat":43.278399,"lon":5.392139,"is_reserved":false,"is_disabled":false,"rental_uris":{"android":"levelo://app?vid=8c46edcd-4ee9-4c7d-9a3f-10c2bd93a71f","ios":"levelo://app?vid=8c46edcd-4ee9-4c7d-9a3f-10c2bd93a71f"},"vehicle_type_id":"4","last_reported":1684087645,"current_range_meters":32000,"station_id":"ce4bhjp2rcd13ifvqga0","pricing_plan_id":"free"},{"bike_id":"e0024be8-9727-4f6c-98fa-1a00fcb3b511","system_id":"levelo_inurba_marseille","lat":43.27382,"lon":5.36247,"is_reserved":false,"is_disabled":false,"rental_uris":{"android":"levelo://app?vid=e0024be8-9727-4f6c-98fa-1a00fcb3b511","ios":"levelo://app?vid=e0024be8-9727-4f6c-98fa-1a00fcb3b511"},"vehicle_type_id":"4","last_reported":1684087645,"current_range_meters":6000,"station_id":"ce4bhbh2rcd13ifvqeo0","pricing_plan_id":"free"},{"bike_id":"131c7461-f3e8-463a-8c7e-54dbd03cd248","system_id":"levelo_inurba_marseille","lat":43.33603,"lon":5.41024,"is_reserved":false,"is_disabled":false,"rental_uris":{"android":"levelo://app?vid=131c7461-f3e8-463a-8c7e-54dbd03cd248","ios":"levelo://app?vid=131c7461-f3e8-463a-8c7e-54dbd03cd248"},"vehicle_type_id":"4","last_reported":1684087645,"current_range_meters":30400,"station_id":"ce4bhqh2rcd13ifvqhmg","pricing_plan_id":"free"},{"bike_id":"9d8ce3ba-d93c-4cfd-b438-ce236a7e6b81","system_id":"levelo_inurba_marseille","lat":43.3361,"lon":5.41037,"is_reserved":false,"is_disabled":false,"rental_uris":{"android":"levelo://app?vid=9d8ce3ba-d93c-4cfd-b438-ce236a7e6b81","ios":"levelo://app?vid=9d8ce3ba-d93c-4cfd-b438-ce236a7e6b81"},"vehicle_type_id":"4","last_reported":1684087645,"current_range_meters":19600,"station_id":"ce4bhqh2rcd13ifvqhmg","pricing_plan_id":"free"},{"bike_id":"cc8e1e2a-965d-4b03-8b7b-d7ce6fb29cb9","system_id":"levelo_inurba_marseille","lat":43.33612,"lon":5.410321,"is_reserved":false,"is_disabled":false,"rental_uris":{"android":"levelo://app?vid=cc8e1e2a-965d-4b03-8b7b-d7ce6fb29cb9","ios":"levelo://app?vid=cc8e1e2a-965d-4b03-8b7b-d7ce6fb29cb9"},"vehicle_type_id":"4","last_reported":1684087645,"current_range_meters":10000,"station_id":"ce4bhqh2rcd13ifvqhmg","pricing_plan_id":"free"},{"bike_id":"1d37aa8d-6f6f-40da-ac32-ba6769d31be2","system_id":"levelo_inurba_marseille","lat":43.336134,"lon":5.410341,"is_reserved":false,"is_disabled":false,"rental_uris":{"android":"levelo://app?vid=1d37aa8d-6f6f-40da-ac32-ba6769d31be2","ios":"levelo://app?vid=1d37aa8d-6f6f-40da-ac32-ba6769d31be2"},"vehicle_type_id":"4","last_reported":1684087645,"current_range_meters":26000,"station_id":"ce4bhqh2rcd13ifvqhmg","pricing_plan_id":"free"},{"bike_id":"2bc28273-afcb-409a-8370-8dbc541b2cdc","system_id":"levelo_inurba_marseille","lat":43.276771,"lon":5.388799,"is_reserved":false,"is_disabled":false,"rental_uris":{"android":"levelo://app?vid=2bc28273-afcb-409a-8370-8dbc541b2cdc","ios":"levelo://app?vid=2bc28273-afcb-409a-8370-8dbc541b2cdc"},"vehicle_type_id":"4","last_reported":1684087645,"current_range_meters":2400,"station_id":"ce4bhi12rcd13ifvqfo0","pricing_plan_id":"free"},{"bike_id":"6db752a3-83cc-4bbc-bed0-309a3f1d542f","system_id":"levelo_inurba_marseille","lat":43.276771,"lon":5.388799,"is_reserved":false,"is_disabled":false,"rental_uris":{"android":"levelo://app?vid=6db752a3-83cc-4bbc-bed0-309a3f1d542f","ios":"levelo://app?vid=6db752a3-83cc-4bbc-bed0-309a3f1d542f"},"vehicle_type_id":"4","last_reported":1684087645,"current_range_meters":11600,"station_id":"ce4bhi12rcd13ifvqfo0","pricing_plan_id":"free"},{"bike_id":"15cc8a37-99b3-4707-8590-3d9c5ac6fca0","system_id":"levelo_inurba_marseille","lat":43.31094,"lon":5.42419,"is_reserved":false,"is_disabled":false,"rental_uris":{"android":"levelo://app?vid=15cc8a37-99b3-4707-8590-3d9c5ac6fca0","ios":"levelo://app?vid=15cc8a37-99b3-4707-8590-3d9c5ac6fca0"},"vehicle_type_id":"4","last_reported":1684087645,"current_range_meters":16800,"station_id":"ce4bhp92rcd13ifvqhag","pricing_plan_id":"free"},{"bike_id":"d5b8c3e2-5706-4c7f-a305-a18177f696f0","system_id":"levelo_inurba_marseille","lat":43.310785,"lon":5.424305,"is_reserved":false,"is_disabled":false,"rental_uris":{"android":"levelo://app?vid=d5b8c3e2-5706-4c7f-a305-a18177f696f0","ios":"levelo://app?vid=d5b8c3e2-5706-4c7f-a305-a18177f696f0"},"vehicle_type_id":"4","last_reported":1684087645,"current_range_meters":30400,"station_id":"ce4bhp92rcd13ifvqhag","pricing_plan_id":"free"},{"bike_id":"a85cb362-6412-42e7-91c0-634cff2c0a9c","system_id":"levelo_inurba_marseille","lat":43.30418,"lon":5.42369,"is_reserved":false,"is_disabled":false,"rental_uris":{"android":"levelo://app?vid=a85cb362-6412-42e7-91c0-634cff2c0a9c","ios":"levelo://app?vid=a85cb362-6412-42e7-91c0-634cff2c0a9c"},"vehicle_type_id":"4","last_reported":1684087645,"current_range_meters":4400,"station_id":"","pricing_plan_id":"free"},{"bike_id":"30cdb814-f2b3-4340-a410-73da96516992","system_id":"levelo_inurba_marseille","lat":43.2732,"lon":5.3907,"is_reserved":false,"is_disabled":false,"rental_uris":{"android":"levelo://app?vid=30cdb814-f2b3-4340-a410-73da96516992","ios":"levelo://app?vid=30cdb814-f2b3-4340-a410-73da96516992"},"vehicle_type_id":"4","last_reported":1684087645,"current_range_meters":6400,"station_id":"ce4bhgp2rcd13ifvqfe0","pricing_plan_id":"free"},{"bike_id":"8a8c7c39-e39f-4967-a458-e0a1273328c8","system_id":"levelo_inurba_marseille","lat":43.27327,"lon":5.39093,"is_reserved":false,"is_disabled":false,"rental_uris":{"android":"levelo://app?vid=8a8c7c39-e39f-4967-a458-e0a1273328c8","ios":"levelo://app?vid=8a8c7c39-e39f-4967-a458-e0a1273328c8"},"vehicle_type_id":"4","last_reported":1684087645,"current_range_meters":25600,"station_id":"ce4bhgp2rcd13ifvqfe0","pricing_plan_id":"free"},{"bike_id":"dd425f03-9cc1-495a-ad67-c5feffa8aa05","system_id":"levelo_inurba_marseille","lat":43.2732,"lon":5.39078,"is_reserved":false,"is_disabled":false,"rental_uris":{"android":"levelo://app?vid=dd425f03-9cc1-495a-ad67-c5feffa8aa05","ios":"levelo://app?vid=dd425f03-9cc1-495a-ad67-c5feffa8aa05"},"vehicle_type_id":"4","last_reported":1684087645,"current_range_meters":13600,"station_id":"ce4bhgp2rcd13ifvqfe0","pricing_plan_id":"free"},{"bike_id":"291e89e4-2744-4018-8ffc-46473f05beaa","system_id":"levelo_inurba_marseille","lat":43.273125,"lon":5.390731,"is_reserved":false,"is_disabled":false,"rental_uris":{"android":"levelo://app?vid=291e89e4-2744-4018-8ffc-46473f05beaa","ios":"levelo://app?vid=291e89e4-2744-4018-8ffc-46473f05beaa"},"vehicle_type_id":"4","last_reported":1684087645,"current_range_meters":17600,"station_id":"ce4bhgp2rcd13ifvqfe0","pricing_plan_id":"free"},{"bike_id":"5da67ca2-87d0-44e0-a3ed-414d7dbdd6cd","system_id":"levelo_inurba_marseille","lat":43.27319,"lon":5.39076,"is_reserved":false,"is_disabled":false,"rental_uris":{"android":"levelo://app?vid=5da67ca2-87d0-44e0-a3ed-414d7dbdd6cd","ios":"levelo://app?vid=5da67ca2-87d0-44e0-a3ed-414d7dbdd6cd"},"vehicle_type_id":"4","last_reported":1684087645,"current_range_meters":800,"station_id":"ce4bhgp2rcd13ifvqfe0","pricing_plan_id":"free"},{"bike_id":"f6da234b-1630-4e3b-9283-805d15b436df","system_id":"levelo_inurba_marseille","lat":43.27323,"lon":5.3909,"is_reserved":false,"is_disabled":false,"rental_uris":{"android":"levelo://app?vid=f6da234b-1630-4e3b-9283-805d15b436df","ios":"levelo://app?vid=f6da234b-1630-4e3b-9283-805d15b436df"},"vehicle_type_id":"4","last_reported":1684087645,"current_range_meters":0,"station_id":"ce4bhgp2rcd13ifvqfe0","pricing_plan_id":"free"},{"bike_id":"5fb5dfad-0f6f-40db-8736-bb71a8d228a8","system_id":"levelo_inurba_marseille","lat":43.274103,"lon":5.394016,"is_reserved":false,"is_disabled":false,"rental_uris":{"android":"levelo://app?vid=5fb5dfad-0f6f-40db-8736-bb71a8d228a8","ios":"levelo://app?vid=5fb5dfad-0f6f-40db-8736-bb71a8d228a8"},"vehicle_type_id":"4","last_reported":1684087645,"current_range_meters":8400,"station_id":"ce4bhdp2rcd13ifvqf20","pricing_plan_id":"free"},{"bike_id":"e1b2c6d9-5a13-4c8b-8fbc-3beebda85a42","system_id":"levelo_inurba_marseille","lat":43.27321,"lon":5.39087,"is_reserved":false,"is_disabled":false,"rental_uris":{"android":"levelo://app?vid=e1b2c6d9-5a13-4c8b-8fbc-3beebda85a42","ios":"levelo://app?vid=e1b2c6d9-5a13-4c8b-8fbc-3beebda85a42"},"vehicle_type_id":"4","last_reported":1684087645,"current_range_meters":29200,"station_id":"ce4bhgp2rcd13ifvqfe0","pricing_plan_id":"free"},{"bike_id":"33765b4e-c42d-4946-90d0-ef7b8e3082c3","system_id":"levelo_inurba_marseille","lat":43.273125,"lon":5.390731,"is_reserved":false,"is_disabled":false,"rental_uris":{"android":"levelo://app?vid=33765b4e-c42d-4946-90d0-ef7b8e3082c3","ios":"levelo://app?vid=33765b4e-c42d-4946-90d0-ef7b8e3082c3"},"vehicle_type_id":"4","last_reported":1684087645,"current_range_meters":9200,"station_id":"ce4bhgp2rcd13ifvqfe0","pricing_plan_id":"free"},{"bike_id":"e38dc888-8237-4d76-88a3-c0c79a70f128","system_id":"levelo_inurba_marseille","lat":43.27314,"lon":5.39072,"is_reserved":false,"is_disabled":false,"rental_uris":{"android":"levelo://app?vid=e38dc888-8237-4d76-88a3-c0c79a70f128","ios":"levelo://app?vid=e38dc888-8237-4d76-88a3-c0c79a70f128"},"vehicle_type_id":"4","last_reported":1684087645,"current_range_meters":0,"station_id":"ce4bhgp2rcd13ifvqfe0","pricing_plan_id":"free"},{"bike_id":"529e8013-336a-4230-be03-b5d154baa4f1","system_id":"levelo_inurba_marseille","lat":43.27311,"lon":5.39063,"is_reserved":false,"is_disabled":false,"rental_uris":{"android":"levelo://app?vid=529e8013-336a-4230-be03-b5d154baa4f1","ios":"levelo://app?vid=529e8013-336a-4230-be03-b5d154baa4f1"},"vehicle_type_id":"4","last_reported":1684087645,"current_range_meters":0,"station_id":"ce4bhgp2rcd13ifvqfe0","pricing_plan_id":"free"},{"bike_id":"8be9c11b-0e1a-4c2c-bff6-a012995f9fb5","system_id":"levelo_inurba_marseille","lat":43.27316,"lon":5.3908,"is_reserved":false,"is_disabled":false,"rental_uris":{"android":"levelo://app?vid=8be9c11b-0e1a-4c2c-bff6-a012995f9fb5","ios":"levelo://app?vid=8be9c11b-0e1a-4c2c-bff6-a012995f9fb5"},"vehicle_type_id":"4","last_reported":1684087645,"current_range_meters":2800,"station_id":"ce4bhgp2rcd13ifvqfe0","pricing_plan_id":"free"},{"bike_id":"3c4c977b-6bea-4010-b545-fd85ae8f2359","system_id":"levelo_inurba_marseille","lat":43.27314,"lon":5.39076,"is_reserved":false,"is_disabled":false,"rental_uris":{"android":"levelo://app?vid=3c4c977b-6bea-4010-b545-fd85ae8f2359","ios":"levelo://app?vid=3c4c977b-6bea-4010-b545-fd85ae8f2359"},"vehicle_type_id":"4","last_reported":1684087645,"current_range_meters":13200,"station_id":"ce4bhgp2rcd13ifvqfe0","pricing_plan_id":"free"},{"bike_id":"f5c51ced-f0df-4187-902b-94b84904865a","system_id":"levelo_inurba_marseille","lat":43.27431,"lon":5.39416,"is_reserved":false,"is_disabled":false,"rental_uris":{"android":"levelo://app?vid=f5c51ced-f0df-4187-902b-94b84904865a","ios":"levelo://app?vid=f5c51ced-f0df-4187-902b-94b84904865a"},"vehicle_type_id":"4","last_reported":1684087645,"current_range_meters":24800,"station_id":"ce4bhdp2rcd13ifvqf20","pricing_plan_id":"free"},{"bike_id":"9af36236-138d-4855-81ed-fdbbb3d27537","system_id":"levelo_inurba_marseille","lat":43.27429,"lon":5.39412,"is_reserved":false,"is_disabled":false,"rental_uris":{"android":"levelo://app?vid=9af36236-138d-4855-81ed-fdbbb3d27537","ios":"levelo://app?vid=9af36236-138d-4855-81ed-fdbbb3d27537"},"vehicle_type_id":"4","last_reported":1684087645,"current_range_meters":4800,"station_id":"ce4bhdp2rcd13ifvqf20","pricing_plan_id":"free"},{"bike_id":"a773403d-c4c6-4d46-9f31-ab65109f540e","system_id":"levelo_inurba_marseille","lat":43.27312,"lon":5.39074,"is_reserved":false,"is_disabled":false,"rental_uris":{"android":"levelo://app?vid=a773403d-c4c6-4d46-9f31-ab65109f540e","ios":"levelo://app?vid=a773403d-c4c6-4d46-9f31-ab65109f540e"},"vehicle_type_id":"4","last_reported":1684087645,"current_range_meters":400,"station_id":"ce4bhgp2rcd13ifvqfe0","pricing_plan_id":"free"},{"bike_id":"ca8878f4-cd4d-49c7-a2a1-4356bf3b83cb","system_id":"levelo_inurba_marseille","lat":43.273125,"lon":5.390731,"is_reserved":false,"is_disabled":false,"rental_uris":{"android":"levelo://app?vid=ca8878f4-cd4d-49c7-a2a1-4356bf3b83cb","ios":"levelo://app?vid=ca8878f4-cd4d-49c7-a2a1-4356bf3b83cb"},"vehicle_type_id":"4","last_reported":1684087645,"current_range_meters":24000,"station_id":"ce4bhgp2rcd13ifvqfe0","pricing_plan_id":"free"},{"bike_id":"93ff7f8f-db49-4bf3-8ba4-abdf56b4cdb4","system_id":"levelo_inurba_marseille","lat":43.273125,"lon":5.390731,"is_reserved":false,"is_disabled":false,"rental_uris":{"android":"levelo://app?vid=93ff7f8f-db49-4bf3-8ba4-abdf56b4cdb4","ios":"levelo://app?vid=93ff7f8f-db49-4bf3-8ba4-abdf56b4cdb4"},"vehicle_type_id":"4","last_reported":1684087645,"current_range_meters":1600,"station_id":"ce4bhgp2rcd13ifvqfe0","pricing_plan_id":"free"},{"bike_id":"241640e8-97e2-4b7c-9250-fb6e644623e1","system_id":"levelo_inurba_marseille","lat":43.27314,"lon":5.39081,"is_reserved":false,"is_disabled":false,"rental_uris":{"android":"levelo://app?vid=241640e8-97e2-4b7c-9250-fb6e644623e1","ios":"levelo://app?vid=241640e8-97e2-4b7c-9250-fb6e644623e1"},"vehicle_type_id":"4","last_reported":1684087645,"current_range_meters":4400,"station_id":"ce4bhgp2rcd13ifvqfe0","pricing_plan_id":"free"},{"bike_id":"f52a288d-72b9-41b0-8027-b9092ed73943","system_id":"levelo_inurba_marseille","lat":43.27315,"lon":5.39085,"is_reserved":false,"is_disabled":false,"rental_uris":{"android":"levelo://app?vid=f52a288d-72b9-41b0-8027-b9092ed73943","ios":"levelo://app?vid=f52a288d-72b9-41b0-8027-b9092ed73943"},"vehicle_type_id":"4","last_reported":1684087645,"current_range_meters":19200,"station_id":"ce4bhgp2rcd13ifvqfe0","pricing_plan_id":"free"},{"bike_id":"6eaf62ef-17d6-4363-8296-0107ffb7022e","system_id":"levelo_inurba_marseille","lat":43.27314,"lon":5.39082,"is_reserved":false,"is_disabled":false,"rental_uris":{"android":"levelo://app?vid=6eaf62ef-17d6-4363-8296-0107ffb7022e","ios":"levelo://app?vid=6eaf62ef-17d6-4363-8296-0107ffb7022e"},"vehicle_type_id":"4","last_reported":1684087645,"current_range_meters":6000,"station_id":"ce4bhgp2rcd13ifvqfe0","pricing_plan_id":"free"},{"bike_id":"3de7750a-5021-4c80-a4d9-f61cd2cdbe7b","system_id":"levelo_inurba_marseille","lat":43.27315,"lon":5.39087,"is_reserved":false,"is_disabled":false,"rental_uris":{"android":"levelo://app?vid=3de7750a-5021-4c80-a4d9-f61cd2cdbe7b","ios":"levelo://app?vid=3de7750a-5021-4c80-a4d9-f61cd2cdbe7b"},"vehicle_type_id":"4","last_reported":1684087645,"current_range_meters":14000,"station_id":"ce4bhgp2rcd13ifvqfe0","pricing_plan_id":"free"},{"bike_id":"1be88be1-3252-42b1-bb33-b698ccd72cf7","system_id":"levelo_inurba_marseille","lat":43.274103,"lon":5.394016,"is_reserved":false,"is_disabled":false,"rental_uris":{"android":"levelo://app?vid=1be88be1-3252-42b1-bb33-b698ccd72cf7","ios":"levelo://app?vid=1be88be1-3252-42b1-bb33-b698ccd72cf7"},"vehicle_type_id":"4","last_reported":1684087645,"current_range_meters":1200,"station_id":"ce4bhdp2rcd13ifvqf20","pricing_plan_id":"free"},{"bike_id":"99b7c761-5193-4627-94d9-6d51f6c7278a","system_id":"levelo_inurba_marseille","lat":43.27426,"lon":5.39416,"is_reserved":false,"is_disabled":false,"rental_uris":{"android":"levelo://app?vid=99b7c761-5193-4627-94d9-6d51f6c7278a","ios":"levelo://app?vid=99b7c761-5193-4627-94d9-6d51f6c7278a"},"vehicle_type_id":"4","last_reported":1684087645,"current_range_meters":8800,"station_id":"ce4bhdp2rcd13ifvqf20","pricing_plan_id":"free"},{"bike_id":"77bf6657-a7a2-4fb6-8772-ca6786269e98","system_id":"levelo_inurba_marseille","lat":43.27307,"lon":5.39078,"is_reserved":false,"is_disabled":false,"rental_uris":{"android":"levelo://app?vid=77bf6657-a7a2-4fb6-8772-ca6786269e98","ios":"levelo://app?vid=77bf6657-a7a2-4fb6-8772-ca6786269e98"},"vehicle_type_id":"4","last_reported":1684087645,"current_range_meters":8800,"station_id":"ce4bhgp2rcd13ifvqfe0","pricing_plan_id":"free"},{"bike_id":"d453c587-b05a-416e-8f4b-8a1788fc2fb3","system_id":"levelo_inurba_marseille","lat":43.274103,"lon":5.394016,"is_reserved":false,"is_disabled":false,"rental_uris":{"android":"levelo://app?vid=d453c587-b05a-416e-8f4b-8a1788fc2fb3","ios":"levelo://app?vid=d453c587-b05a-416e-8f4b-8a1788fc2fb3"},"vehicle_type_id":"4","last_reported":1684087645,"current_range_meters":16000,"station_id":"ce4bhdp2rcd13ifvqf20","pricing_plan_id":"free"},{"bike_id":"43e268be-df86-44c4-9765-de93f03e0c0c","system_id":"levelo_inurba_marseille","lat":43.274103,"lon":5.394016,"is_reserved":false,"is_disabled":false,"rental_uris":{"android":"levelo://app?vid=43e268be-df86-44c4-9765-de93f03e0c0c","ios":"levelo://app?vid=43e268be-df86-44c4-9765-de93f03e0c0c"},"vehicle_type_id":"4","last_reported":1684087645,"current_range_meters":6000,"station_id":"ce4bhdp2rcd13ifvqf20","pricing_plan_id":"free"},{"bike_id":"e55542a3-e81b-43e1-b644-da8b40d96e2a","system_id":"levelo_inurba_marseille","lat":43.273125,"lon":5.390731,"is_reserved":false,"is_disabled":false,"rental_uris":{"android":"levelo://app?vid=e55542a3-e81b-43e1-b644-da8b40d96e2a","ios":"levelo://app?vid=e55542a3-e81b-43e1-b644-da8b40d96e2a"},"vehicle_type_id":"4","last_reported":1684087645,"current_range_meters":3600,"station_id":"ce4bhgp2rcd13ifvqfe0","pricing_plan_id":"free"},{"bike_id":"b493fe21-abf4-4688-a9a2-530c5dc33366","system_id":"levelo_inurba_marseille","lat":43.27422,"lon":5.39418,"is_reserved":false,"is_disabled":false,"rental_uris":{"android":"levelo://app?vid=b493fe21-abf4-4688-a9a2-530c5dc33366","ios":"levelo://app?vid=b493fe21-abf4-4688-a9a2-530c5dc33366"},"vehicle_type_id":"4","last_reported":1684087645,"current_range_meters":23600,"station_id":"ce4bhdp2rcd13ifvqf20","pricing_plan_id":"free"},{"bike_id":"470b3710-e97f-4bb0-815f-0397112bc818","system_id":"levelo_inurba_marseille","lat":43.27302,"lon":5.39071,"is_reserved":false,"is_disabled":false,"rental_uris":{"android":"levelo://app?vid=470b3710-e97f-4bb0-815f-0397112bc818","ios":"levelo://app?vid=470b3710-e97f-4bb0-815f-0397112bc818"},"vehicle_type_id":"4","last_reported":1684087645,"current_range_meters":1200,"station_id":"ce4bhgp2rcd13ifvqfe0","pricing_plan_id":"free"},{"bike_id":"1a17f17b-bd88-4e2a-a857-fe706c3f607e","system_id":"levelo_inurba_marseille","lat":43.273,"lon":5.39065,"is_reserved":false,"is_disabled":false,"rental_uris":{"android":"levelo://app?vid=1a17f17b-bd88-4e2a-a857-fe706c3f607e","ios":"levelo://app?vid=1a17f17b-bd88-4e2a-a857-fe706c3f607e"},"vehicle_type_id":"4","last_reported":1684087645,"current_range_meters":5600,"station_id":"ce4bhgp2rcd13ifvqfe0","pricing_plan_id":"free"},{"bike_id":"fd5f633d-dfa8-409e-9a1c-ad23ddb47b36","system_id":"levelo_inurba_marseille","lat":43.274103,"lon":5.394016,"is_reserved":false,"is_disabled":false,"rental_uris":{"android":"levelo://app?vid=fd5f633d-dfa8-409e-9a1c-ad23ddb47b36","ios":"levelo://app?vid=fd5f633d-dfa8-409e-9a1c-ad23ddb47b36"},"vehicle_type_id":"4","last_reported":1684087645,"current_range_meters":16000,"station_id":"ce4bhdp2rcd13ifvqf20","pricing_plan_id":"free"},{"bike_id":"1ab70a34-d9d2-431e-8a09-ad00cdd0a65f","system_id":"levelo_inurba_marseille","lat":43.30413,"lon":5.42544,"is_reserved":false,"is_disabled":false,"rental_uris":{"android":"levelo://app?vid=1ab70a34-d9d2-431e-8a09-ad00cdd0a65f","ios":"levelo://app?vid=1ab70a34-d9d2-431e-8a09-ad00cdd0a65f"},"vehicle_type_id":"4","last_reported":1684087645,"current_range_meters":1200,"station_id":"ce4bhoh2rcd13ifvqh6g","pricing_plan_id":"free"},{"bike_id":"68325912-a79e-4ebc-a170-13c8f5d72663","system_id":"levelo_inurba_marseille","lat":43.295523,"lon":5.422926,"is_reserved":false,"is_disabled":false,"rental_uris":{"android":"levelo://app?vid=68325912-a79e-4ebc-a170-13c8f5d72663","ios":"levelo://app?vid=68325912-a79e-4ebc-a170-13c8f5d72663"},"vehicle_type_id":"4","last_reported":1684087645,"current_range_meters":17200,"station_id":"ce4bhph2rcd13ifvqhdg","pricing_plan_id":"free"},{"bike_id":"35bd53c8-6e49-4eb7-96ae-835b92f8934c","system_id":"levelo_inurba_marseille","lat":43.295523,"lon":5.422926,"is_reserved":false,"is_disabled":false,"rental_uris":{"android":"levelo://app?vid=35bd53c8-6e49-4eb7-96ae-835b92f8934c","ios":"levelo://app?vid=35bd53c8-6e49-4eb7-96ae-835b92f8934c"},"vehicle_type_id":"4","last_reported":1684087645,"current_range_meters":4400,"station_id":"ce4bhph2rcd13ifvqhdg","pricing_plan_id":"free"},{"bike_id":"f6bd7e49-4bf5-4cb1-aaca-fdc7172406d4","system_id":"levelo_inurba_marseille","lat":43.295523,"lon":5.422926,"is_reserved":false,"is_disabled":false,"rental_uris":{"android":"levelo://app?vid=f6bd7e49-4bf5-4cb1-aaca-fdc7172406d4","ios":"levelo://app?vid=f6bd7e49-4bf5-4cb1-aaca-fdc7172406d4"},"vehicle_type_id":"4","last_reported":1684087645,"current_range_meters":7200,"station_id":"ce4bhph2rcd13ifvqhdg","pricing_plan_id":"free"},{"bike_id":"ae14569e-0995-4602-9ac4-ac7a80b69ed2","system_id":"levelo_inurba_marseille","lat":43.295523,"lon":5.422926,"is_reserved":false,"is_disabled":false,"rental_uris":{"android":"levelo://app?vid=ae14569e-0995-4602-9ac4-ac7a80b69ed2","ios":"levelo://app?vid=ae14569e-0995-4602-9ac4-ac7a80b69ed2"},"vehicle_type_id":"4","last_reported":1684087645,"current_range_meters":30800,"station_id":"ce4bhph2rcd13ifvqhdg","pricing_plan_id":"free"},{"bike_id":"3d863a82-2815-4eb2-a6ff-7100604e555f","system_id":"levelo_inurba_marseille","lat":43.272116,"lon":5.391747,"is_reserved":false,"is_disabled":false,"rental_uris":{"android":"levelo://app?vid=3d863a82-2815-4eb2-a6ff-7100604e555f","ios":"levelo://app?vid=3d863a82-2815-4eb2-a6ff-7100604e555f"},"vehicle_type_id":"4","last_reported":1684087645,"current_range_meters":24800,"station_id":"ce4bhhp2rcd13ifvqfm0","pricing_plan_id":"free"},{"bike_id":"563a3720-f2b8-4e1f-8f06-26cb86b451bb","system_id":"levelo_inurba_marseille","lat":43.272116,"lon":5.391763,"is_reserved":false,"is_disabled":false,"rental_uris":{"android":"levelo://app?vid=563a3720-f2b8-4e1f-8f06-26cb86b451bb","ios":"levelo://app?vid=563a3720-f2b8-4e1f-8f06-26cb86b451bb"},"vehicle_type_id":"4","last_reported":1684087645,"current_range_meters":2000,"station_id":"ce4bhhp2rcd13ifvqfm0","pricing_plan_id":"free"},{"bike_id":"a38ae4d7-f3a4-4682-9b33-011909c76ddb","system_id":"levelo_inurba_marseille","lat":43.272116,"lon":5.391763,"is_reserved":false,"is_disabled":false,"rental_uris":{"android":"levelo://app?vid=a38ae4d7-f3a4-4682-9b33-011909c76ddb","ios":"levelo://app?vid=a38ae4d7-f3a4-4682-9b33-011909c76ddb"},"vehicle_type_id":"4","last_reported":1684087645,"current_range_meters":24800,"station_id":"ce4bhhp2rcd13ifvqfm0","pricing_plan_id":"free"},{"bike_id":"433cacfa-a0cc-470f-85d6-4240e38bd1e9","system_id":"levelo_inurba_marseille","lat":43.27212,"lon":5.39174,"is_reserved":false,"is_disabled":false,"rental_uris":{"android":"levelo://app?vid=433cacfa-a0cc-470f-85d6-4240e38bd1e9","ios":"levelo://app?vid=433cacfa-a0cc-470f-85d6-4240e38bd1e9"},"vehicle_type_id":"4","last_reported":1684087645,"current_range_meters":18400,"station_id":"ce4bhhp2rcd13ifvqfm0","pricing_plan_id":"free"},{"bike_id":"5012fe4e-afe1-4753-b4f4-305c7fec7dad","system_id":"levelo_inurba_marseille","lat":43.27213,"lon":5.3918,"is_reserved":false,"is_disabled":false,"rental_uris":{"android":"levelo://app?vid=5012fe4e-afe1-4753-b4f4-305c7fec7dad","ios":"levelo://app?vid=5012fe4e-afe1-4753-b4f4-305c7fec7dad"},"vehicle_type_id":"4","last_reported":1684087645,"current_range_meters":5600,"station_id":"ce4bhhp2rcd13ifvqfm0","pricing_plan_id":"free"},{"bike_id":"d0669865-3778-4de9-a83f-a6d67eeada3d","system_id":"levelo_inurba_marseille","lat":43.272118,"lon":5.391758,"is_reserved":false,"is_disabled":false,"rental_uris":{"android":"levelo://app?vid=d0669865-3778-4de9-a83f-a6d67eeada3d","ios":"levelo://app?vid=d0669865-3778-4de9-a83f-a6d67eeada3d"},"vehicle_type_id":"4","last_reported":1684087645,"current_range_meters":19200,"station_id":"ce4bhhp2rcd13ifvqfm0","pricing_plan_id":"free"},{"bike_id":"c03314a5-0aad-4179-811e-a88601807ece","system_id":"levelo_inurba_marseille","lat":43.272124,"lon":5.391768,"is_reserved":false,"is_disabled":false,"rental_uris":{"android":"levelo://app?vid=c03314a5-0aad-4179-811e-a88601807ece","ios":"levelo://app?vid=c03314a5-0aad-4179-811e-a88601807ece"},"vehicle_type_id":"4","last_reported":1684087645,"current_range_meters":24400,"station_id":"ce4bhhp2rcd13ifvqfm0","pricing_plan_id":"free"},{"bike_id":"044ea95c-2638-4ab2-954c-6d68ecdbcfdf","system_id":"levelo_inurba_marseille","lat":43.272118,"lon":5.391758,"is_reserved":false,"is_disabled":false,"rental_uris":{"android":"levelo://app?vid=044ea95c-2638-4ab2-954c-6d68ecdbcfdf","ios":"levelo://app?vid=044ea95c-2638-4ab2-954c-6d68ecdbcfdf"},"vehicle_type_id":"4","last_reported":1684087645,"current_range_meters":400,"station_id":"ce4bhhp2rcd13ifvqfm0","pricing_plan_id":"free"},{"bike_id":"c08a1ad6-848b-4686-bbab-01d5dbcb9d5c","system_id":"levelo_inurba_marseille","lat":43.272118,"lon":5.391758,"is_reserved":false,"is_disabled":false,"rental_uris":{"android":"levelo://app?vid=c08a1ad6-848b-4686-bbab-01d5dbcb9d5c","ios":"levelo://app?vid=c08a1ad6-848b-4686-bbab-01d5dbcb9d5c"},"vehicle_type_id":"4","last_reported":1684087645,"current_range_meters":22800,"station_id":"ce4bhhp2rcd13ifvqfm0","pricing_plan_id":"free"},{"bike_id":"7ed7f674-774f-4d56-8a35-819784261cce","system_id":"levelo_inurba_marseille","lat":43.272124,"lon":5.391768,"is_reserved":false,"is_disabled":false,"rental_uris":{"android":"levelo://app?vid=7ed7f674-774f-4d56-8a35-819784261cce","ios":"levelo://app?vid=7ed7f674-774f-4d56-8a35-819784261cce"},"vehicle_type_id":"4","last_reported":1684087645,"current_range_meters":14400,"station_id":"ce4bhhp2rcd13ifvqfm0","pricing_plan_id":"free"},{"bike_id":"25ca90e1-d426-47d6-9c9e-619d7db21174","system_id":"levelo_inurba_marseille","lat":43.272118,"lon":5.391758,"is_reserved":false,"is_disabled":false,"rental_uris":{"android":"levelo://app?vid=25ca90e1-d426-47d6-9c9e-619d7db21174","ios":"levelo://app?vid=25ca90e1-d426-47d6-9c9e-619d7db21174"},"vehicle_type_id":"4","last_reported":1684087645,"current_range_meters":30000,"station_id":"ce4bhhp2rcd13ifvqfm0","pricing_plan_id":"free"},{"bike_id":"495ed543-13f7-4530-915f-8bfcdd7580fb","system_id":"levelo_inurba_marseille","lat":43.272116,"lon":5.391747,"is_reserved":false,"is_disabled":false,"rental_uris":{"android":"levelo://app?vid=495ed543-13f7-4530-915f-8bfcdd7580fb","ios":"levelo://app?vid=495ed543-13f7-4530-915f-8bfcdd7580fb"},"vehicle_type_id":"4","last_reported":1684087645,"current_range_meters":6400,"station_id":"ce4bhhp2rcd13ifvqfm0","pricing_plan_id":"free"},{"bike_id":"be056095-e3d4-4606-9369-a5e0991123a7","system_id":"levelo_inurba_marseille","lat":43.272116,"lon":5.391747,"is_reserved":false,"is_disabled":false,"rental_uris":{"android":"levelo://app?vid=be056095-e3d4-4606-9369-a5e0991123a7","ios":"levelo://app?vid=be056095-e3d4-4606-9369-a5e0991123a7"},"vehicle_type_id":"4","last_reported":1684087645,"current_range_meters":4800,"station_id":"ce4bhhp2rcd13ifvqfm0","pricing_plan_id":"free"},{"bike_id":"b3cd0ae4-9338-4173-a655-8d9a1d3fa122","system_id":"levelo_inurba_marseille","lat":43.27205,"lon":5.39185,"is_reserved":false,"is_disabled":false,"rental_uris":{"android":"levelo://app?vid=b3cd0ae4-9338-4173-a655-8d9a1d3fa122","ios":"levelo://app?vid=b3cd0ae4-9338-4173-a655-8d9a1d3fa122"},"vehicle_type_id":"4","last_reported":1684087645,"current_range_meters":9600,"station_id":"ce4bhhp2rcd13ifvqfm0","pricing_plan_id":"free"},{"bike_id":"7cbec1a1-396d-4b55-aa3d-35b2706d432d","system_id":"levelo_inurba_marseille","lat":43.272116,"lon":5.391747,"is_reserved":false,"is_disabled":false,"rental_uris":{"android":"levelo://app?vid=7cbec1a1-396d-4b55-aa3d-35b2706d432d","ios":"levelo://app?vid=7cbec1a1-396d-4b55-aa3d-35b2706d432d"},"vehicle_type_id":"4","last_reported":1684087645,"current_range_meters":12800,"station_id":"ce4bhhp2rcd13ifvqfm0","pricing_plan_id":"free"},{"bike_id":"5e8246ec-5e68-48a6-8dfd-aae6d987f2c1","system_id":"levelo_inurba_marseille","lat":43.27818,"lon":5.40706,"is_reserved":false,"is_disabled":false,"rental_uris":{"android":"levelo://app?vid=5e8246ec-5e68-48a6-8dfd-aae6d987f2c1","ios":"levelo://app?vid=5e8246ec-5e68-48a6-8dfd-aae6d987f2c1"},"vehicle_type_id":"4","last_reported":1684087645,"current_range_meters":6800,"station_id":"ce4bhnh2rcd13ifvqgtg","pricing_plan_id":"free"},{"bike_id":"33fa6477-97a5-461c-a7d8-78ddd818754d","system_id":"levelo_inurba_marseille","lat":43.278128,"lon":5.407195,"is_reserved":false,"is_disabled":false,"rental_uris":{"android":"levelo://app?vid=33fa6477-97a5-461c-a7d8-78ddd818754d","ios":"levelo://app?vid=33fa6477-97a5-461c-a7d8-78ddd818754d"},"vehicle_type_id":"4","last_reported":1684087645,"current_range_meters":18000,"station_id":"ce4bhnh2rcd13ifvqgtg","pricing_plan_id":"free"},{"bike_id":"423131ec-5508-4040-980b-ae2b812bf542","system_id":"levelo_inurba_marseille","lat":43.27813,"lon":5.4071,"is_reserved":false,"is_disabled":false,"rental_uris":{"android":"levelo://app?vid=423131ec-5508-4040-980b-ae2b812bf542","ios":"levelo://app?vid=423131ec-5508-4040-980b-ae2b812bf542"},"vehicle_type_id":"4","last_reported":1684087645,"current_range_meters":8800,"station_id":"ce4bhnh2rcd13ifvqgtg","pricing_plan_id":"free"},{"bike_id":"2024d628-a732-4de8-b6e3-da3a960b6c52","system_id":"levelo_inurba_marseille","lat":43.27819,"lon":5.4072,"is_reserved":false,"is_disabled":false,"rental_uris":{"android":"levelo://app?vid=2024d628-a732-4de8-b6e3-da3a960b6c52","ios":"levelo://app?vid=2024d628-a732-4de8-b6e3-da3a960b6c52"},"vehicle_type_id":"4","last_reported":1684087645,"current_range_meters":17600,"station_id":"ce4bhnh2rcd13ifvqgtg","pricing_plan_id":"free"},{"bike_id":"a61f118f-124d-4728-a712-fe94664c6d56","system_id":"levelo_inurba_marseille","lat":43.269467,"lon":5.386439,"is_reserved":false,"is_disabled":false,"rental_uris":{"android":"levelo://app?vid=a61f118f-124d-4728-a712-fe94664c6d56","ios":"levelo://app?vid=a61f118f-124d-4728-a712-fe94664c6d56"},"vehicle_type_id":"4","last_reported":1684087645,"current_range_meters":21600,"station_id":"ce4bhh92rcd13ifvqfh0","pricing_plan_id":"free"},{"bike_id":"60d9672c-0c71-473b-a4be-4640bbd32d6b","system_id":"levelo_inurba_marseille","lat":43.269467,"lon":5.386439,"is_reserved":false,"is_disabled":false,"rental_uris":{"android":"levelo://app?vid=60d9672c-0c71-473b-a4be-4640bbd32d6b","ios":"levelo://app?vid=60d9672c-0c71-473b-a4be-4640bbd32d6b"},"vehicle_type_id":"4","last_reported":1684087645,"current_range_meters":10800,"station_id":"ce4bhh92rcd13ifvqfh0","pricing_plan_id":"free"},{"bike_id":"6d7144ca-0589-4bb6-94b0-8cfba6a9890e","system_id":"levelo_inurba_marseille","lat":43.2694,"lon":5.38626,"is_reserved":false,"is_disabled":false,"rental_uris":{"android":"levelo://app?vid=6d7144ca-0589-4bb6-94b0-8cfba6a9890e","ios":"levelo://app?vid=6d7144ca-0589-4bb6-94b0-8cfba6a9890e"},"vehicle_type_id":"4","last_reported":1684087645,"current_range_meters":9200,"station_id":"ce4bhh92rcd13ifvqfh0","pricing_plan_id":"free"},{"bike_id":"558a6422-2832-4392-ba3d-10d28a281a66","system_id":"levelo_inurba_marseille","lat":43.3247,"lon":5.42784,"is_reserved":false,"is_disabled":false,"rental_uris":{"android":"levelo://app?vid=558a6422-2832-4392-ba3d-10d28a281a66","ios":"levelo://app?vid=558a6422-2832-4392-ba3d-10d28a281a66"},"vehicle_type_id":"4","last_reported":1684087645,"current_range_meters":0,"station_id":"","pricing_plan_id":"free"},{"bike_id":"8b754780-d282-4c7b-a268-a16545498bf3","system_id":"levelo_inurba_marseille","lat":43.26811,"lon":5.3824,"is_reserved":false,"is_disabled":false,"rental_uris":{"android":"levelo://app?vid=8b754780-d282-4c7b-a268-a16545498bf3","ios":"levelo://app?vid=8b754780-d282-4c7b-a268-a16545498bf3"},"vehicle_type_id":"4","last_reported":1684087645,"current_range_meters":0,"station_id":"","pricing_plan_id":"free"},{"bike_id":"a17d4f97-50a9-4948-a5be-6056e55fc4a1","system_id":"levelo_inurba_marseille","lat":43.269319,"lon":5.389397,"is_reserved":false,"is_disabled":false,"rental_uris":{"android":"levelo://app?vid=a17d4f97-50a9-4948-a5be-6056e55fc4a1","ios":"levelo://app?vid=a17d4f97-50a9-4948-a5be-6056e55fc4a1"},"vehicle_type_id":"4","last_reported":1684087645,"current_range_meters":4800,"station_id":"ce4bhhh2rcd13ifvqfl0","pricing_plan_id":"free"},{"bike_id":"47e9fe7c-2adf-4e76-9c71-4aec3917b8c6","system_id":"levelo_inurba_marseille","lat":43.269319,"lon":5.389397,"is_reserved":false,"is_disabled":false,"rental_uris":{"android":"levelo://app?vid=47e9fe7c-2adf-4e76-9c71-4aec3917b8c6","ios":"levelo://app?vid=47e9fe7c-2adf-4e76-9c71-4aec3917b8c6"},"vehicle_type_id":"4","last_reported":1684087645,"current_range_meters":7600,"station_id":"ce4bhhh2rcd13ifvqfl0","pricing_plan_id":"free"},{"bike_id":"68e481ed-0cca-43db-a783-9237e170ded4","system_id":"levelo_inurba_marseille","lat":43.269319,"lon":5.389397,"is_reserved":false,"is_disabled":false,"rental_uris":{"android":"levelo://app?vid=68e481ed-0cca-43db-a783-9237e170ded4","ios":"levelo://app?vid=68e481ed-0cca-43db-a783-9237e170ded4"},"vehicle_type_id":"4","last_reported":1684087645,"current_range_meters":10000,"station_id":"ce4bhhh2rcd13ifvqfl0","pricing_plan_id":"free"},{"bike_id":"42dd8233-a179-4671-8914-39afa1e5f113","system_id":"levelo_inurba_marseille","lat":43.28015,"lon":5.416764,"is_reserved":false,"is_disabled":false,"rental_uris":{"android":"levelo://app?vid=42dd8233-a179-4671-8914-39afa1e5f113","ios":"levelo://app?vid=42dd8233-a179-4671-8914-39afa1e5f113"},"vehicle_type_id":"4","last_reported":1684087645,"current_range_meters":11600,"station_id":"","pricing_plan_id":"free"},{"bike_id":"2caf473e-2cb9-4c2c-b073-d2bf937bc016","system_id":"levelo_inurba_marseille","lat":43.27996,"lon":5.416624,"is_reserved":false,"is_disabled":false,"rental_uris":{"android":"levelo://app?vid=2caf473e-2cb9-4c2c-b073-d2bf937bc016","ios":"levelo://app?vid=2caf473e-2cb9-4c2c-b073-d2bf937bc016"},"vehicle_type_id":"4","last_reported":1684087645,"current_range_meters":17600,"station_id":"ce4bho12rcd13ifvqh1g","pricing_plan_id":"free"},{"bike_id":"ab8651b2-fd99-43e9-8c52-ff31ea621d5f","system_id":"levelo_inurba_marseille","lat":43.27996,"lon":5.416624,"is_reserved":false,"is_disabled":false,"rental_uris":{"android":"levelo://app?vid=ab8651b2-fd99-43e9-8c52-ff31ea621d5f","ios":"levelo://app?vid=ab8651b2-fd99-43e9-8c52-ff31ea621d5f"},"vehicle_type_id":"4","last_reported":1684087645,"current_range_meters":0,"station_id":"ce4bho12rcd13ifvqh1g","pricing_plan_id":"free"},{"bike_id":"fd12850e-b97e-4bf6-a51a-cae8ffc7ff83","system_id":"levelo_inurba_marseille","lat":43.268,"lon":5.3942,"is_reserved":false,"is_disabled":false,"rental_uris":{"android":"levelo://app?vid=fd12850e-b97e-4bf6-a51a-cae8ffc7ff83","ios":"levelo://app?vid=fd12850e-b97e-4bf6-a51a-cae8ffc7ff83"},"vehicle_type_id":"4","last_reported":1684087645,"current_range_meters":6800,"station_id":"ce4bhh12rcd13ifvqfg0","pricing_plan_id":"free"},{"bike_id":"b908c993-bc2a-42d3-9481-74d7400dc843","system_id":"levelo_inurba_marseille","lat":43.267966,"lon":5.393976,"is_reserved":false,"is_disabled":false,"rental_uris":{"android":"levelo://app?vid=b908c993-bc2a-42d3-9481-74d7400dc843","ios":"levelo://app?vid=b908c993-bc2a-42d3-9481-74d7400dc843"},"vehicle_type_id":"4","last_reported":1684087645,"current_range_meters":9600,"station_id":"ce4bhh12rcd13ifvqfg0","pricing_plan_id":"free"},{"bike_id":"6c1a7eac-6f66-478f-81c1-b6fc2efbd260","system_id":"levelo_inurba_marseille","lat":43.267966,"lon":5.393976,"is_reserved":false,"is_disabled":false,"rental_uris":{"android":"levelo://app?vid=6c1a7eac-6f66-478f-81c1-b6fc2efbd260","ios":"levelo://app?vid=6c1a7eac-6f66-478f-81c1-b6fc2efbd260"},"vehicle_type_id":"4","last_reported":1684087645,"current_range_meters":10000,"station_id":"ce4bhh12rcd13ifvqfg0","pricing_plan_id":"free"},