{"last_updated":1713888545,"ttl":30,"version":"2.2","data":{"bikes":[{"bike_id":"ba38bd99-cabe-44d9-8a30-e6219c0dc0dd","system_id":"levelo_inurba_marseille","lat":43.312239,"lon":5.368562,"is_reserved":false,"is_disabled":false,"rental_uris":{"android":"levelo://app?vid=ba38bd99-cabe-44d9-8a30-e6219c0dc0dd","ios":"levelo://app?vid=ba38bd99-cabe-44d9-8a30-e6219c0dc0dd"},"vehicle_type_id":"4","last_reported":1713888545,"current_range_meters":6800,"station_id":"ce4bgl92rcd13ifvqbq0","pricing_plan_id":"cebpf4jnsgd1na2vs0mg"},{"bike_id":"bb3c176a-10ea-4468-a2fe-1a2748f656e9","system_id":"levelo_inurba_marseille","lat":43.314811,"lon":5.373103,"is_reserved":false,"is_disabled":false,"rental_uris":{"android":"levelo://app?vid=bb3c176a-10ea-4468-a2fe-1a2748f656e9","ios":"levelo://app?vid=bb3c176a-10ea-4468-a2fe-1a2748f656e9"},"vehicle_type_id":"4","last_reported":1713888545,"current_range_meters":4400,"station_id":"ce4bgt12rcd13ifvqcd0","pricing_plan_id":"cebpf4jnsgd1na2vs0mg"},{"bike_id":"58bded86-8f71-454c-911d-9fa55e686342","system_id":"levelo_inurba_marseille","lat":43.314811,"lon":5.373103,"is_reserved":false,"is_disabled":false,"rental_uris":{"android":"levelo://app?vid=58bded86-8f71-454c-911d-9fa55e686342","ios":"levelo://app?vid=58bded86-8f71-454c-911d-9fa55e686342"},"vehicle_type_id":"4","last_reported":1713888545,"current_range_meters":19200,"station_id":"ce4bgt12rcd13ifvqcd0","pricing_plan_id":"cebpf4jnsgd1na2vs0mg"},{"bike_id":"ea7fcaa0-187f-4b45-b71f-80656921179f","system_id":"levelo_inurba_marseille","lat":43.314811,"lon":5.373103,"is_reserved":false,"is_disabled":false,"rental_uris":{"android":"levelo://app?vid=ea7fcaa0-187f-4b45-b71f-80656921179f","ios":"levelo://app?vid=ea7fcaa0-187f-4b45-b71f-80656921179f"},"vehicle_type_id":"4","last_reported":1713888545,"current_range_meters":26800,"station_id":"ce4bgt12rcd13ifvqcd0","pricing_plan_id":"cebpf4jnsgd1na2vs0mg"},{"bike_id":"d1b68b0f-e752-4d35-b1c5-7711d1580e64","system_id":"levelo_inurba_marseille","lat":43.292005,"lon":5.357875,"is_reserved":false,"is_disabled":false,"rental_uris":{"android":"levelo://app?vid=d1b68b0f-e752-4d35-b1c5-7711d1580e64","ios":"levelo://app?vid=d1b68b0f-e752-4d35-b1c5-7711d1580e64"},"vehicle_type_id":"4","last_reported":1713888545,"current_range_meters":7200,"station_id":"ce4bhb12rcd13ifvqel0","pricing_plan_id":"cebpf4jnsgd1na2vs0mg"},{"bike_id":"75ce6603-40e0-4206-84d4-db7cfe7d2f1f","system_id":"levelo_inurba_marseille","lat":43.314811,"lon":5.373103,"is_reserved":false,"is_disabled":false,"rental_uris":{"android":"levelo://app?vid=75ce6603-40e0-4206-84d4-db7cfe7d2f1f","ios":"levelo://app?vid=75ce6603-40e0-4206-84d4-db7cfe7d2f1f"},"vehicle_type_id":"4","last_reported":1713888545,"current_range_meters":8000,"station_id":"ce4bgt12rcd13ifvqcd0","pricing_plan_id":"cebpf4jnsgd1na2vs0mg"},{"bike_id":"a2da0dbf-92e6-43bb-8795-32f8327966f5","system_id":"levelo_inurba_marseille","lat":43.314811,"lon":5.373103,"is_reserved":false,"is_disabled":false,"rental_uris":{"android":"levelo://app?vid=a2da0dbf-92e6-43bb-8795-32f8327966f5","ios":"levelo://app?vid=a2da0dbf-92e6-43bb-8795-32f8327966f5"},"vehicle_type_id":"4","last_reported":1713888545,"current_range_meters":28400,"station_id":"ce4bgt12rcd13ifvqcd0","pricing_plan_id":"cebpf4jnsgd1na2vs0mg"},{"bike_id":"ab15ceae-fa4e-4c27-8377-9bc35c63ee8d","system_id":"levelo_inurba_marseille","lat":43.314811,"lon":5.373103,"is_reserved":false,"is_disabled":false,"rental_uris":{"android":"levelo://app?vid=ab15ceae-fa4e-4c27-8377-9bc35c63ee8d","ios":"levelo://app?vid=ab15ceae-fa4e-4c27-8377-9bc35c63ee8d"},"vehicle_type_id":"4","last_reported":1713888545,"current_range_meters":400,"station_id":"ce4bgt12rcd13ifvqcd0","pricing_plan_id":"cebpf4jnsgd1na2vs0mg"},{"bike_id":"92e62036-ca83-47d4-8a6a-489a3ebee18d","system_id":"levelo_inurba_marseille","lat":43.314811,"lon":5.373103,"is_reserved":false,"is_disabled":false,"rental_uris":{"android":"levelo://app?vid=92e62036-ca83-47d4-8a6a-489a3ebee18d","ios":"levelo://app?vid=92e62036-ca83-47d4-8a6a-489a3ebee18d"},"vehicle_type_id":"4","last_reported":1713888545,"current_range_meters":31200,"station_id":"ce4bgt12rcd13ifvqcd0","pricing_plan_id":"cebpf4jnsgd1na2vs0mg"},{"bike_id":"58e36e7e-297d-49a4-a8e2-cbaf6263f15b","system_id":"levelo_inurba_marseille","lat":43.314811,"lon":5.373103,"is_reserved":false,"is_disabled":false,"rental_uris":{"android":"levelo://app?vid=58e36e7e-297d-49a4-a8e2-cbaf6263f15b","ios":"levelo://app?vid=58e36e7e-297d-49a4-a8e2-cbaf6263f15b"},"vehicle_type_id":"4","last_reported":1713888545,"current_range_meters":15600,"station_id":"ce4bgt12rcd13ifvqcd0","pricing_plan_id":"cebpf4jnsgd1na2vs0mg"},{"bike_id":"e82899b9-2e1e-4ab1-8c8c-0e19ecfc8d65","system_id":"levelo_inurba_marseille","lat":43.314811,"lon":5.373103,"is_reserved":false,"is_disabled":false,"rental_uris":{"android":"levelo://app?vid=e82899b9-2e1e-4ab1-8c8c-0e19ecfc8d65","ios":"levelo://app?vid=e82899b9-2e1e-4ab1-8c8c-0e19ecfc8d65"},"vehicle_type_id":"4","last_reported":1713888545,"current_range_meters":19200,"station_id":"ce4bgt12rcd13ifvqcd0","pricing_plan_id":"cebpf4jnsgd1na2vs0mg"},{"bike_id":"fa4550b3-dfba-4274-b4c8-f239ab7b3c64","system_id":"levelo_inurba_marseille","lat":43.309039,"lon":5.371797,"is_reserved":false,"is_disabled":false,"rental_uris":{"android":"levelo://app?vid=fa4550b3-dfba-4274-b4c8-f239ab7b3c64","ios":"levelo://app?vid=fa4550b3-dfba-4274-b4c8-f239ab7b3c64"},"vehicle_type_id":"4","last_reported":1713888545,"current_range_meters":8800,"station_id":"ce4bguh2rcd13ifvqckg","pricing_plan_id":"cebpf4jnsgd1na2vs0mg"},{"bike_id":"34f39350-dca4-4942-8b39-a531448053e0","system_id":"levelo_inurba_marseille","lat":43.309034,"lon":5.371783,"is_reserved":false,"is_disabled":false,"rental_uris":{"android":"levelo://app?vid=34f39350-dca4-4942-8b39-a531448053e0","ios":"levelo://app?vid=34f39350-dca4-4942-8b39-a531448053e0"},"vehicle_type_id":"4","last_reported":1713888545,"current_range_meters":8400,"station_id":"ce4bguh2rcd13ifvqckg","pricing_plan_id":"cebpf4jnsgd1na2vs0mg"},{"bike_id":"8c395149-c248-44f3-9ed5-11a7c51301c3","system_id":"levelo_inurba_marseille","lat":43.30703,"lon":5.36558,"is_reserved":false,"is_disabled":false,"rental_uris":{"android":"levelo://app?vid=8c395149-c248-44f3-9ed5-11a7c51301c3","ios":"levelo://app?vid=8c395149-c248-44f3-9ed5-11a7c51301c3"},"vehicle_type_id":"4","last_reported":1713888545,"current_range_meters":6400,"station_id":"","pricing_plan_id":"cebpf4jnsgd1na2vs0mg"},{"bike_id":"828f0807-fe1c-4e0a-b9fa-e5b7d079789e","system_id":"levelo_inurba_marseille","lat":43.305368,"lon":5.367343,"is_reserved":false,"is_disabled":false,"rental_uris":{"android":"levelo://app?vid=828f0807-fe1c-4e0a-b9fa-e5b7d079789e","ios":"levelo://app?vid=828f0807-fe1c-4e0a-b9fa-e5b7d079789e"},"vehicle_type_id":"4","last_reported":1713888545,"current_range_meters":23200,"station_id":"ce4bgrp2rcd13ifvqc9g","pricing_plan_id":"cebpf4jnsgd1na2vs0mg"},{"bike_id":"3c460c1c-afa6-44dc-8742-910eb6541c04","system_id":"levelo_inurba_marseille","lat":43.30551,"lon":5.36534,"is_reserved":false,"is_disabled":false,"rental_uris":{"android":"levelo://app?vid=3c460c1c-afa6-44dc-8742-910eb6541c04","ios":"levelo://app?vid=3c460c1c-afa6-44dc-8742-910eb6541c04"},"vehicle_type_id":"4","last_reported":1713888545,"current_range_meters":11600,"station_id":"ce4bgs12rcd13ifvqcag","pricing_plan_id":"cebpf4jnsgd1na2vs0mg"},{"bike_id":"c28df3d3-20bd-4241-b001-9b9505c52cae","system_id":"levelo_inurba_marseille","lat":43.305412,"lon":5.365534,"is_reserved":false,"is_disabled":false,"rental_uris":{"android":"levelo://app?vid=c28df3d3-20bd-4241-b001-9b9505c52cae","ios":"levelo://app?vid=c28df3d3-20bd-4241-b001-9b9505c52cae"},"vehicle_type_id":"4","last_reported":1713888545,"current_range_meters":22800,"station_id":"ce4bgs12rcd13ifvqcag","pricing_plan_id":"cebpf4jnsgd1na2vs0mg"},{"bike_id":"704e0527-a88f-4894-9ecd-000912084714","system_id":"levelo_inurba_marseille","lat":43.30541,"lon":5.36537,"is_reserved":false,"is_disabled":false,"rental_uris":{"android":"levelo://app?vid=704e0527-a88f-4894-9ecd-000912084714","ios":"levelo://app?vid=704e0527-a88f-4894-9ecd-000912084714"},"vehicle_type_id":"4","last_reported":1713888545,"current_range_meters":6400,"station_id":"ce4bgs12rcd13ifvqcag","pricing_plan_id":"cebpf4jnsgd1na2vs0mg"},{"bike_id":"506de82f-ff8a-4f1c-ba01-918fbcb468b2","system_id":"levelo_inurba_marseille","lat":43.306058,"lon":5.37227,"is_reserved":false,"is_disabled":false,"rental_uris":{"android":"levelo://app?vid=506de82f-ff8a-4f1c-ba01-918fbcb468b2","ios":"levelo://app?vid=506de82f-ff8a-4f1c-ba01-918fbcb468b2"},"vehicle_type_id":"4","last_reported":1713888545,"current_range_meters":18000,"station_id":"ce4bgqh2rcd13ifvqc4g","pricing_plan_id":"cebpf4jnsgd1na2vs0mg"},{"bike_id":"7a301813-2da4-44b1-81b1-52f885b9e8aa","system_id":"levelo_inurba_marseille","lat":43.311125,"lon":5.377624,"is_reserved":false,"is_disabled":false,"rental_uris":{"android":"levelo://app?vid=7a301813-2da4-44b1-81b1-52f885b9e8aa","ios":"levelo://app?vid=7a301813-2da4-44b1-81b1-52f885b9e8aa"},"vehicle_type_id":"4","last_reported":1713888545,"current_range_meters":9600,"station_id":"ce4bgt92rcd13ifvqcg0","pricing_plan_id":"cebpf4jnsgd1na2vs0mg"},{"bike_id":"696926d4-f382-435a-b933-043712aac49e","system_id":"levelo_inurba_marseille","lat":43.307945,"lon":5.376487,"is_reserved":false,"is_disabled":false,"rental_uris":{"android":"levelo://app?vid=696926d4-f382-435a-b933-043712aac49e","ios":"levelo://app?vid=696926d4-f382-435a-b933-043712aac49e"},"vehicle_type_id":"4","last_reported":1713888545,"current_range_meters":11200,"station_id":"ce4bgv92rcd13ifvqcq0","pricing_plan_id":"cebpf4jnsgd1na2vs0mg"},{"bike_id":"2775bb1f-91bb-4b61-bd58-b93d2d567984","system_id":"levelo_inurba_marseille","lat":43.307945,"lon":5.376487,"is_reserved":false,"is_disabled":false,"rental_uris":{"android":"levelo://app?vid=2775bb1f-91bb-4b61-bd58-b93d2d567984","ios":"levelo://app?vid=2775bb1f-91bb-4b61-bd58-b93d2d567984"},"vehicle_type_id":"4","last_reported":1713888545,"current_range_meters":14400,"station_id":"ce4bgv92rcd13ifvqcq0","pricing_plan_id":"cebpf4jnsgd1na2vs0mg"},{"bike_id":"a91864a4-f3e0-437e-9b02-97c3648728be","system_id":"levelo_inurba_marseille","lat":43.307945,"lon":5.376487,"is_reserved":false,"is_disabled":false,"rental_uris":{"android":"levelo://app?vid=a91864a4-f3e0-437e-9b02-97c3648728be","ios":"levelo://app?vid=a91864a4-f3e0-437e-9b02-97c3648728be"},"vehicle_type_id":"4","last_reported":1713888545,"current_range_meters":21200,"station_id":"ce4bgv92rcd13ifvqcq0","pricing_plan_id":"cebpf4jnsgd1na2vs0mg"},{"bike_id":"55a783cb-2b22-4e60-91a0-03ae54e65c4b","system_id":"levelo_inurba_marseille","lat":43.307945,"lon":5.376487,"is_reserved":false,"is_disabled":false,"rental_uris":{"android":"levelo://app?vid=55a783cb-2b22-4e60-91a0-03ae54e65c4b","ios":"levelo://app?vid=55a783cb-2b22-4e60-91a0-03ae54e65c4b"},"vehicle_type_id":"4","last_reported":1713888545,"current_range_meters":4400,"station_id":"ce4bgv92rcd13ifvqcq0","pricing_plan_id":"cebpf4jnsgd1na2vs0mg"},{"bike_id":"73d8b4b6-3f91-4f14-a84b-93df2118ac6b","system_id":"levelo_inurba_marseille","lat":43.307945,"lon":5.376487,"is_reserved":false,"is_disabled":false,"rental_uris":{"android":"levelo://app?vid=73d8b4b6-3f91-4f14-a84b-93df2118ac6b","ios":"levelo://app?vid=73d8b4b6-3f91-4f14-a84b-93df2118ac6b"},"vehicle_type_id":"4","last_reported":1713888545,"current_range_meters":14000,"station_id":"ce4bgv92rcd13ifvqcq0","pricing_plan_id":"cebpf4jnsgd1na2vs0mg"},{"bike_id":"11d29c44-25c3-4cfd-a8fd-cbb3659711d3","system_id":"levelo_inurba_marseille","lat":43.307945,"lon":5.376487,"is_reserved":false,"is_disabled":false,"rental_uris":{"android":"levelo://app?vid=11d29c44-25c3-4cfd-a8fd-cbb3659711d3","ios":"levelo://app?vid=11d29c44-25c3-4cfd-a8fd-cbb3659711d3"},"vehicle_type_id":"4","last_reported":1713888545,"current_range_meters":29200,"station_id":"ce4bgv92rcd13ifvqcq0","pricing_plan_id":"cebpf4jnsgd1na2vs0mg"},{"bike_id":"40ac654f-0367-405c-a54e-ded371a72343","system_id":"levelo_inurba_marseille","lat":43.307945,"lon":5.376487,"is_reserved":false,"is_disabled":false,"rental_uris":{"android":"levelo://app?vid=40ac654f-0367-405c-a54e-ded371a72343","ios":"levelo://app?vid=40ac654f-0367-405c-a54e-ded371a72343"},"vehicle_type_id":"4","last_reported":1713888545,"current_range_meters":12400,"station_id":"ce4bgv92rcd13ifvqcq0","pricing_plan_id":"cebpf4jnsgd1na2vs0mg"},{"bike_id":"a67920da-4247-44e8-b723-39b5414702d5","system_id":"levelo_inurba_marseille","lat":43.307945,"lon":5.376487,"is_reserved":false,"is_disabled":false,"rental_uris":{"android":"levelo://app?vid=a67920da-4247-44e8-b723-39b5414702d5","ios":"levelo://app?vid=a67920da-4247-44e8-b723-39b5414702d5"},"vehicle_type_id":"4","last_reported":1713888545,"current_range_meters":18000,"station_id":"ce4bgv92rcd13ifvqcq0","pricing_plan_id":"cebpf4jnsgd1na2vs0mg"},{"bike_id":"88031a16-c107-438f-b4bf-7a98330b2a89","system_id":"levelo_inurba_marseille","lat":43.307945,"lon":5.376487,"is_reserved":false,"is_disabled":false,"rental_uris":{"android":"levelo://app?vid=88031a16-c107-438f-b4bf-7a98330b2a89","ios":"levelo://app?vid=88031a16-c107-438f-b4bf-7a98330b2a89"},"vehicle_type_id":"4","last_reported":1713888545,"current_range_meters":2800,"station_id":"ce4bgv92rcd13ifvqcq0","pricing_plan_id":"cebpf4jnsgd1na2vs0mg"},{"bike_id":"bcd00e71-3c5e-408c-9f39-c7caf7f9f1d6","system_id":"levelo_inurba_marseille","lat":43.307945,"lon":5.376487,"is_reserved":false,"is_disabled":false,"rental_uris":{"android":"levelo://app?vid=bcd00e71-3c5e-408c-9f39-c7caf7f9f1d6","ios":"levelo://app?vid=bcd00e71-3c5e-408c-9f39-c7caf7f9f1d6"},"vehicle_type_id":"4","last_reported":1713888545,"current_range_meters":31200,"station_id":"ce4bgv92rcd13ifvqcq0","pricing_plan_id":"cebpf4jnsgd1na2vs0mg"},{"bike_id":"aa5ec48f-9f21-4e10-94f1-5cf77fa622c0","system_id":"levelo_inurba_marseille","lat":43.31699,"lon":5.37749,"is_reserved":false,"is_disabled":false,"rental_uris":{"android":"levelo://app?vid=aa5ec48f-9f21-4e10-94f1-5cf77fa622c0","ios":"levelo://app?vid=aa5ec48f-9f21-4e10-94f1-5cf77fa622c0"},"vehicle_type_id":"4","last_reported":1713888545,"current_range_meters":19200,"station_id":"ce4bgth2rcd13ifvqch0","pricing_plan_id":"cebpf4jnsgd1na2vs0mg"},{"bike_id":"7bd9dcd7-cfa4-4720-b545-724872c01541","system_id":"levelo_inurba_marseille","lat":43.31711,"lon":5.37751,"is_reserved":false,"is_disabled":false,"rental_uris":{"android":"levelo://app?vid=7bd9dcd7-cfa4-4720-b545-724872c01541","ios":"levelo://app?vid=7bd9dcd7-cfa4-4720-b545-724872c01541"},"vehicle_type_id":"4","last_reported":1713888545,"current_range_meters":22000,"station_id":"ce4bgth2rcd13ifvqch0","pricing_plan_id":"cebpf4jnsgd1na2vs0mg"},{"bike_id":"19f25d95-5e6f-4551-b0a3-5110d01f16de","system_id":"levelo_inurba_marseille","lat":43.303046,"lon":5.368981,"is_reserved":false,"is_disabled":false,"rental_uris":{"android":"levelo://app?vid=19f25d95-5e6f-4551-b0a3-5110d01f16de","ios":"levelo://app?vid=19f25d95-5e6f-4551-b0a3-5110d01f16de"},"vehicle_type_id":"4","last_reported":1713888545,"current_range_meters":24800,"station_id":"ce4bgqh2rcd13ifvqc5g","pricing_plan_id":"cebpf4jnsgd1na2vs0mg"},{"bike_id":"d4661056-f1a9-4c78-af2b-d284030a7d52","system_id":"levelo_inurba_marseille","lat":43.303046,"lon":5.368981,"is_reserved":false,"is_disabled":false,"rental_uris":{"android":"levelo://app?vid=d4661056-f1a9-4c78-af2b-d284030a7d52","ios":"levelo://app?vid=d4661056-f1a9-4c78-af2b-d284030a7d52"},"vehicle_type_id":"4","last_reported":1713888545,"current_range_meters":4800,"station_id":"ce4bgqh2rcd13ifvqc5g","pricing_plan_id":"cebpf4jnsgd1na2vs0mg"},{"bike_id":"7bdafd2d-6714-4067-841a-a3c88d79b012","system_id":"levelo_inurba_marseille","lat":43.303046,"lon":5.368981,"is_reserved":false,"is_disabled":false,"rental_uris":{"android":"levelo://app?vid=7bdafd2d-6714-4067-841a-a3c88d79b012","ios":"levelo://app?vid=7bdafd2d-6714-4067-841a-a3c88d79b012"},"vehicle_type_id":"4","last_reported":1713888545,"current_range_meters":28000,"station_id":"ce4bgqh2rcd13ifvqc5g","pricing_plan_id":"cebpf4jnsgd1na2vs0mg"},{"bike_id":"c0c88a57-b281-441b-bd4e-96d34d04ed25","system_id":"levelo_inurba_marseille","lat":43.303046,"lon":5.368981,"is_reserved":false,"is_disabled":false,"rental_uris":{"android":"levelo://app?vid=c0c88a57-b281-441b-bd4e-96d34d04ed25","ios":"levelo://app?vid=c0c88a57-b281-441b-bd4e-96d34d04ed25"},"vehicle_type_id":"4","last_reported":1713888545,"current_range_meters":2400,"station_id":"ce4bgqh2rcd13ifvqc5g","pricing_plan_id":"cebpf4jnsgd1na2vs0mg"},{"bike_id":"09c78054-fb32-4bb7-bf87-a1bdce1ba303","system_id":"levelo_inurba_marseille","lat":43.303046,"lon":5.368981,"is_reserved":false,"is_disabled":false,"rental_uris":{"android":"levelo://app?vid=09c78054-fb32-4bb7-bf87-a1bdce1ba303","ios":"levelo://app?vid=09c78054-fb32-4bb7-bf87-a1bdce1ba303"},"vehicle_type_id":"4","last_reported":1713888545,"current_range_meters":10400,"station_id":"ce4bgqh2rcd13ifvqc5g","pricing_plan_id":"cebpf4jnsgd1na2vs0mg"},{"bike_id":"539307d2-941f-4aa5-8a68-1ab53666ec5a","system_id":"levelo_inurba_marseille","lat":43.303082,"lon":5.368984,"is_reserved":false,"is_disabled":false,"rental_uris":{"android":"levelo://app?vid=539307d2-941f-4aa5-8a68-1ab53666ec5a","ios":"levelo://app?vid=539307d2-941f-4aa5-8a68-1ab53666ec5a"},"vehicle_type_id":"4","last_reported":1713888545,"current_range_meters":22800,"station_id":"ce4bgqh2rcd13ifvqc5g","pricing_plan_id":"cebpf4jnsgd1na2vs0mg"},{"bike_id":"b25ad52c-e853-447f-84ba-1fc402f5d691","system_id":"levelo_inurba_marseille","lat":43.30304,"lon":5.368987,"is_reserved":false,"is_disabled":false,"rental_uris":{"android":"levelo://app?vid=b25ad52c-e853-447f-84ba-1fc402f5d691","ios":"levelo://app?vid=b25ad52c-e853-447f-84ba-1fc402f5d691"},"vehicle_type_id":"4","last_reported":1713888545,"current_range_meters":6400,"station_id":"ce4bgqh2rcd13ifvqc5g","pricing_plan_id":"cebpf4jnsgd1na2vs0mg"},{"bike_id":"de45f214-8ebc-49ac-bf8a-a034a1adf937","system_id":"levelo_inurba_marseille","lat":43.303046,"lon":5.368981,"is_reserved":false,"is_disabled":false,"rental_uris":{"android":"levelo://app?vid=de45f214-8ebc-49ac-bf8a-a034a1adf937","ios":"levelo://app?vid=de45f214-8ebc-49ac-bf8a-a034a1adf937"},"vehicle_type_id":"4","last_reported":1713888545,"current_range_meters":29600,"station_id":"ce4bgqh2rcd13ifvqc5g","pricing_plan_id":"cebpf4jnsgd1na2vs0mg"},{"bike_id":"2e8f1904-1508-4d2b-9152-ccb53f088f40","system_id":"levelo_inurba_marseille","lat":43.303046,"lon":5.368981,"is_reserved":false,"is_disabled":false,"rental_uris":{"android":"levelo://app?vid=2e8f1904-1508-4d2b-9152-ccb53f088f40","ios":"levelo://app?vid=2e8f1904-1508-4d2b-9152-ccb53f088f40"},"vehicle_type_id":"4","last_reported":1713888545,"current_range_meters":14000,"station_id":"ce4bgqh2rcd13ifvqc5g","pricing_plan_id":"cebpf4jnsgd1na2vs0mg"},{"bike_id":"8086732d-29bd-40d3-9a88-9477f443512c","system_id":"levelo_inurba_marseille","lat":43.303046,"lon":5.368981,"is_reserved":false,"is_disabled":false,"rental_uris":{"android":"levelo://app?vid=8086732d-29bd-40d3-9a88-9477f443512c","ios":"levelo://app?vid=8086732d-29bd-40d3-9a88-9477f443512c"},"vehicle_type_id":"4","last_reported":1713888545,"current_range_meters":18800,"station_id":"ce4bgqh2rcd13ifvqc5g","pricing_plan_id":"cebpf4jnsgd1na2vs0mg"},{"bike_id":"354eed49-89f8-4c8d-95ad-70982441b00e","system_id":"levelo_inurba_marseille","lat":43.30198,"lon":5.366155,"is_reserved":false,"is_disabled":false,"rental_uris":{"android":"levelo://app?vid=354eed49-89f8-4c8d-95ad-70982441b00e","ios":"levelo://app?vid=354eed49-89f8-4c8d-95ad-70982441b00e"},"vehicle_type_id":"4","last_reported":1713888545,"current_range_meters":19200,"station_id":"ce4bgrh2rcd13ifvqc8g","pricing_plan_id":"cebpf4jnsgd1na2vs0mg"},{"bike_id":"3b4f5b49-c131-4141-a073-fc3eb007004d","system_id":"levelo_inurba_marseille","lat":43.301927,"lon":5.366089,"is_reserved":false,"is_disabled":false,"rental_uris":{"android":"levelo://app?vid=3b4f5b49-c131-4141-a073-fc3eb007004d","ios":"levelo://app?vid=3b4f5b49-c131-4141-a073-fc3eb007004d"},"vehicle_type_id":"4","last_reported":1713888545,"current_range_meters":29600,"station_id":"ce4bgrh2rcd13ifvqc8g","pricing_plan_id":"cebpf4jnsgd1na2vs0mg"},{"bike_id":"da3ba2a3-e2a9-4ba3-9ccc-1cf48025aa51","system_id":"levelo_inurba_marseille","lat":43.308012,"lon":5.381511,"is_reserved":false,"is_disabled":false,"rental_uris":{"android":"levelo://app?vid=da3ba2a3-e2a9-4ba3-9ccc-1cf48025aa51","ios":"levelo://app?vid=da3ba2a3-e2a9-4ba3-9ccc-1cf48025aa51"},"vehicle_type_id":"4","last_reported":1713888545,"current_range_meters":0,"station_id":"ce4bgt12rcd13ifvqce0","pricing_plan_id":"cebpf4jnsgd1na2vs0mg"},{"bike_id":"36b9da93-9e84-4706-85d5-6be83ed4e31e","system_id":"levelo_inurba_marseille","lat":43.308012,"lon":5.381511,"is_reserved":false,"is_disabled":false,"rental_uris":{"android":"levelo://app?vid=36b9da93-9e84-4706-85d5-6be83ed4e31e","ios":"levelo://app?vid=36b9da93-9e84-4706-85d5-6be83ed4e31e"},"vehicle_type_id":"4","last_reported":1713888545,"current_range_meters":31200,"station_id":"ce4bgt12rcd13ifvqce0","pricing_plan_id":"cebpf4jnsgd1na2vs0mg"},{"bike_id":"a00b3990-a373-4fdc-88cb-7bc4f571c907","system_id":"levelo_inurba_marseille","lat":43.304278,"lon":5.388868,"is_reserved":false,"is_disabled":false,"rental_uris":{"android":"levelo://app?vid=a00b3990-a373-4fdc-88cb-7bc4f571c907","ios":"levelo://app?vid=a00b3990-a373-4fdc-88cb-7bc4f571c907"},"vehicle_type_id":"4","last_reported":1713888545,"current_range_meters":10800,"station_id":"ce4bgk12rcd13ifvqbi0","pricing_plan_id":"cebpf4jnsgd1na2vs0mg"},{"bike_id":"d37a724d-ceb1-40af-a611-d3e1797c9727","system_id":"levelo_inurba_marseille","lat":43.308012,"lon":5.381511,"is_reserved":false,"is_disabled":false,"rental_uris":{"android":"levelo://app?vid=d37a724d-ceb1-40af-a611-d3e1797c9727","ios":"levelo://app?vid=d37a724d-ceb1-40af-a611-d3e1797c9727"},"vehicle_type_id":"4","last_reported":1713888545,"current_range_meters":12800,"station_id":"ce4bgt12rcd13ifvqce0","pricing_plan_id":"cebpf4jnsgd1na2vs0mg"},{"bike_id":"c36c80c5-9bdd-4954-91d4-18d125f2bc33","system_id":"levelo_inurba_marseille","lat":43.304606,"lon":5.379026,"is_reserved":false,"is_disabled":false,"rental_uris":{"android":"levelo://app?vid=c36c80c5-9bdd-4954-91d4-18d125f2bc33","ios":"levelo://app?vid=c36c80c5-9bdd-4954-91d4-18d125f2bc33"},"vehicle_type_id":"4","last_reported":1713888545,"current_range_meters":0,"station_id":"ce4bgup2rcd13ifvqcn0","pricing_plan_id":"cebpf4jnsgd1na2vs0mg"},{"bike_id":"20617b6f-01e4-4823-8a20-199bfedddf1d","system_id":"levelo_inurba_marseille","lat":43.315289,"lon":5.380349,"is_reserved":false,"is_disabled":false,"rental_uris":{"android":"levelo://app?vid=20617b6f-01e4-4823-8a20-199bfedddf1d","ios":"levelo://app?vid=20617b6f-01e4-4823-8a20-199bfedddf1d"},"vehicle_type_id":"4","last_reported":1713888545,"current_range_meters":22400,"station_id":"ce4bhsp2rcd13ifvqi50","pricing_plan_id":"cebpf4jnsgd1na2vs0mg"},{"bike_id":"01fc15d6-2d74-4f38-998b-cb5a33dd57c5","system_id":"levelo_inurba_marseille","lat":43.286595,"lon":5.386795,"is_reserved":false,"is_disabled":false,"rental_uris":{"android":"levelo://app?vid=01fc15d6-2d74-4f38-998b-cb5a33dd57c5","ios":"levelo://app?vid=01fc15d6-2d74-4f38-998b-cb5a33dd57c5"},"vehicle_type_id":"4","last_reported":1713888545,"current_range_meters":14800,"station_id":"ce4bh492rcd13ifvqdug","pricing_plan_id":"cebpf4jnsgd1na2vs0mg"},{"bike_id":"3b749f27-c8f7-4612-afec-0d32bd3d46a4","system_id":"levelo_inurba_marseille","lat":43.307945,"lon":5.376487,"is_reserved":false,"is_disabled":false,"rental_uris":{"android":"levelo://app?vid=3b749f27-c8f7-4612-afec-0d32bd3d46a4","ios":"levelo://app?vid=3b749f27-c8f7-4612-afec-0d32bd3d46a4"},"vehicle_type_id":"4","last_reported":1713888545,"current_range_meters":1200,"station_id":"ce4bgv92rcd13ifvqcq0","pricing_plan_id":"cebpf4jnsgd1na2vs0mg"},{"bike_id":"727ef4ec-03fd-49c6-ad8f-246cb520e64d","system_id":"levelo_inurba_marseille","lat":43.300578,"lon":5.370623,"is_reserved":false,"is_disabled":false,"rental_uris":{"android":"levelo://app?vid=727ef4ec-03fd-49c6-ad8f-246cb520e64d","ios":"levelo://app?vid=727ef4ec-03fd-49c6-ad8f-246cb520e64d"},"vehicle_type_id":"4","last_reported":1713888545,"current_range_meters":6400,"station_id":"","pricing_plan_id":"cebpf4jnsgd1na2vs0mg"},{"bike_id":"aa3b5a71-3d7c-4b51-81e9-088b1eea484c","system_id":"levelo_inurba_marseille","lat":43.313571,"lon":5.384829,"is_reserved":false,"is_disabled":false,"rental_uris":{"android":"levelo://app?vid=aa3b5a71-3d7c-4b51-81e9-088b1eea484c","ios":"levelo://app?vid=aa3b5a71-3d7c-4b51-81e9-088b1eea484c"},"vehicle_type_id":"4","last_reported":1713888545,"current_range_meters":17600,"station_id":"ce4bgt92rcd13ifvqcf0","pricing_plan_id":"cebpf4jnsgd1na2vs0mg"},{"bike_id":"51313d60-0c27-4030-afcf-348d276938a4","system_id":"levelo_inurba_marseille","lat":43.319935,"lon":5.381699,"is_reserved":false,"is_disabled":false,"rental_uris":{"android":"levelo://app?vid=51313d60-0c27-4030-afcf-348d276938a4","ios":"levelo://app?vid=51313d60-0c27-4030-afcf-348d276938a4"},"vehicle_type_id":"4","last_reported":1713888545,"current_range_meters":16000,"station_id":"ce4bhr12rcd13ifvqhpg","pricing_plan_id":"cebpf4jnsgd1na2vs0mg"},{"bike_id":"bc789337-d7da-48ab-a203-e5db739b6822","system_id":"levelo_inurba_marseille","lat":43.29988,"lon":5.37181,"is_reserved":false,"is_disabled":false,"rental_uris":{"android":"levelo://app?vid=bc789337-d7da-48ab-a203-e5db739b6822","ios":"levelo://app?vid=bc789337-d7da-48ab-a203-e5db739b6822"},"vehicle_type_id":"4","last_reported":1713888545,"current_range_meters":9200,"station_id":"ce4bgr92rcd13ifvqc7g","pricing_plan_id":"cebpf4jnsgd1na2vs0mg"},{"bike_id":"97c384c7-45ed-41b9-aa09-24506859edb2","system_id":"levelo_inurba_marseille","lat":43.29981,"lon":5.37179,"is_reserved":false,"is_disabled":false,"rental_uris":{"android":"levelo://app?vid=97c384c7-45ed-41b9-aa09-24506859edb2","ios":"levelo://app?vid=97c384c7-45ed-41b9-aa09-24506859edb2"},"vehicle_type_id":"4","last_reported":1713888545,"current_range_meters":18800,"station_id":"ce4bgr92rcd13ifvqc7g","pricing_plan_id":"cebpf4jnsgd1na2vs0mg"},{"bike_id":"87f79658-e294-4257-95c2-f8bce1e5d1d7","system_id":"levelo_inurba_marseille","lat":43.299724,"lon":5.371829,"is_reserved":false,"is_disabled":false,"rental_uris":{"android":"levelo://app?vid=87f79658-e294-4257-95c2-f8bce1e5d1d7","ios":"levelo://app?vid=87f79658-e294-4257-95c2-f8bce1e5d1d7"},"vehicle_type_id":"4","last_reported":1713888545,"current_range_meters":12800,"station_id":"ce4bgr92rcd13ifvqc7g","pricing_plan_id":"cebpf4jnsgd1na2vs0mg"},{"bike_id":"762cedd9-f956-4055-900e-5b100beb2c37","system_id":"levelo_inurba_marseille","lat":43.29977,"lon":5.37174,"is_reserved":false,"is_disabled":false,"rental_uris":{"android":"levelo://app?vid=762cedd9-f956-4055-900e-5b100beb2c37","ios":"levelo://app?vid=762cedd9-f956-4055-900e-5b100beb2c37"},"vehicle_type_id":"4","last_reported":1713888545,"current_range_meters":18000,"station_id":"ce4bgr92rcd13ifvqc7g","pricing_plan_id":"cebpf4jnsgd1na2vs0mg"},{"bike_id":"20704c0a-dc9d-4a93-955d-743550b192c6","system_id":"levelo_inurba_marseille","lat":43.29934,"lon":5.36544,"is_reserved":false,"is_disabled":false,"rental_uris":{"android":"levelo://app?vid=20704c0a-dc9d-4a93-955d-743550b192c6","ios":"levelo://app?vid=20704c0a-dc9d-4a93-955d-743550b192c6"},"vehicle_type_id":"4","last_reported":1713888545,"current_range_meters":6000,"station_id":"ce4bgm92rcd13ifvqbr0","pricing_plan_id":"cebpf4jnsgd1na2vs0mg"},{"bike_id":"c625f90d-ffa5-4d44-992f-fe8b13357d78","system_id":"levelo_inurba_marseille","lat":43.299222,"lon":5.365554,"is_reserved":false,"is_disabled":false,"rental_uris":{"android":"levelo://app?vid=c625f90d-ffa5-4d44-992f-fe8b13357d78","ios":"levelo://app?vid=c625f90d-ffa5-4d44-992f-fe8b13357d78"},"vehicle_type_id":"4","last_reported":1713888545,"current_range_meters":0,"station_id":"ce4bgm92rcd13ifvqbr0","pricing_plan_id":"cebpf4jnsgd1na2vs0mg"},{"bike_id":"9a5fcf96-f553-405b-871d-2468704bfb68","system_id":"levelo_inurba_marseille","lat":43.299724,"lon":5.371829,"is_reserved":false,"is_disabled":false,"rental_uris":{"android":"levelo://app?vid=9a5fcf96-f553-405b-871d-2468704bfb68","ios":"levelo://app?vid=9a5fcf96-f553-405b-871d-2468704bfb68"},"vehicle_type_id":"4","last_reported":1713888545,"current_range_meters":18000,"station_id":"ce4bgr92rcd13ifvqc7g","pricing_plan_id":"cebpf4jnsgd1na2vs0mg"},{"bike_id":"b6561292-02b1-4e91-848d-a4ecb3f1590c","system_id":"levelo_inurba_marseille","lat":43.29856,"lon":5.36286,"is_reserved":false,"is_disabled":false,"rental_uris":{"android":"levelo://app?vid=b6561292-02b1-4e91-848d-a4ecb3f1590c","ios":"levelo://app?vid=b6561292-02b1-4e91-848d-a4ecb3f1590c"},"vehicle_type_id":"4","last_reported":1713888545,"current_range_meters":24400,"station_id":"","pricing_plan_id":"cebpf4jnsgd1na2vs0mg"},{"bike_id":"bea8eece-a67d-4e27-8c47-5b0be0a8092a","system_id":"levelo_inurba_marseille","lat":43.298433,"lon":5.362774,"is_reserved":false,"is_disabled":false,"rental_uris":{"android":"levelo://app?vid=bea8eece-a67d-4e27-8c47-5b0be0a8092a","ios":"levelo://app?vid=bea8eece-a67d-4e27-8c47-5b0be0a8092a"},"vehicle_type_id":"4","last_reported":1713888545,"current_range_meters":26400,"station_id":"ce4bgpp2rcd13ifvqc3g","pricing_plan_id":"cebpf4jnsgd1na2vs0mg"},{"bike_id":"8fd19161-50a8-48d7-886c-98cd72e2d017","system_id":"levelo_inurba_marseille","lat":43.298433,"lon":5.362774,"is_reserved":false,"is_disabled":false,"rental_uris":{"android":"levelo://app?vid=8fd19161-50a8-48d7-886c-98cd72e2d017","ios":"levelo://app?vid=8fd19161-50a8-48d7-886c-98cd72e2d017"},"vehicle_type_id":"4","last_reported":1713888545,"current_range_meters":4400,"station_id":"ce4bgpp2rcd13ifvqc3g","pricing_plan_id":"cebpf4jnsgd1na2vs0mg"},{"bike_id":"e40da66c-61ae-4154-b426-463fb773c55c","system_id":"levelo_inurba_marseille","lat":43.299243,"lon":5.374807,"is_reserved":false,"is_disabled":false,"rental_uris":{"android":"levelo://app?vid=e40da66c-61ae-4154-b426-463fb773c55c","ios":"levelo://app?vid=e40da66c-61ae-4154-b426-463fb773c55c"},"vehicle_type_id":"4","last_reported":1713888545,"current_range_meters":30000,"station_id":"ce4bgjh2rcd13ifvqbg0","pricing_plan_id":"cebpf4jnsgd1na2vs0mg"},{"bike_id":"c9913ede-b001-4801-8d42-bed1579fba2a","system_id":"levelo_inurba_marseille","lat":43.298433,"lon":5.362774,"is_reserved":false,"is_disabled":false,"rental_uris":{"android":"levelo://app?vid=c9913ede-b001-4801-8d42-bed1579fba2a","ios":"levelo://app?vid=c9913ede-b001-4801-8d42-bed1579fba2a"},"vehicle_type_id":"4","last_reported":1713888545,"current_range_meters":18400,"station_id":"ce4bgpp2rcd13ifvqc3g","pricing_plan_id":"cebpf4jnsgd1na2vs0mg"},{"bike_id":"69d932bb-121e-49c6-9922-aa5f53313d2f","system_id":"levelo_inurba_marseille","lat":43.298433,"lon":5.362774,"is_reserved":false,"is_disabled":false,"rental_uris":{"android":"levelo://app?vid=69d932bb-121e-49c6-9922-aa5f53313d2f","ios":"levelo://app?vid=69d932bb-121e-49c6-9922-aa5f53313d2f"},"vehicle_type_id":"4","last_reported":1713888545,"current_range_meters":31200,"station_id":"ce4bgpp2rcd13ifvqc3g","pricing_plan_id":"cebpf4jnsgd1na2vs0mg"},{"bike_id":"08ff3634-5f99-4044-afbd-e4624ed2058e","system_id":"levelo_inurba_marseille","lat":43.291994,"lon":5.392907,"is_reserved":false,"is_disabled":false,"rental_uris":{"android":"levelo://app?vid=08ff3634-5f99-4044-afbd-e4624ed2058e","ios":"levelo://app?vid=08ff3634-5f99-4044-afbd-e4624ed2058e"},"vehicle_type_id":"4","last_reported":1713888545,"current_range_meters":7200,"station_id":"ce4bh192rcd13ifvqdd0","pricing_plan_id":"cebpf4jnsgd1na2vs0mg"},{"bike_id":"d9f2dffa-b6ef-4172-8af1-aee6616ea792","system_id":"levelo_inurba_marseille","lat":43.299243,"lon":5.374807,"is_reserved":false,"is_disabled":false,"rental_uris":{"android":"levelo://app?vid=d9f2dffa-b6ef-4172-8af1-aee6616ea792","ios":"levelo://app?vid=d9f2dffa-b6ef-4172-8af1-aee6616ea792"},"vehicle_type_id":"4","last_reported":1713888545,"current_range_meters":24000,"station_id":"ce4bgjh2rcd13ifvqbg0","pricing_plan_id":"cebpf4jnsgd1na2vs0mg"},{"bike_id":"2f4e75ca-24fa-4a9d-9c07-d867716aa659","system_id":"levelo_inurba_marseille","lat":43.29846,"lon":5.36268,"is_reserved":false,"is_disabled":false,"rental_uris":{"android":"levelo://app?vid=2f4e75ca-24fa-4a9d-9c07-d867716aa659","ios":"levelo://app?vid=2f4e75ca-24fa-4a9d-9c07-d867716aa659"},"vehicle_type_id":"4","last_reported":1713888545,"current_range_meters":9600,"station_id":"ce4bgpp2rcd13ifvqc3g","pricing_plan_id":"cebpf4jnsgd1na2vs0mg"},{"bike_id":"586e096b-2513-44a5-a4f0-acd641033927","system_id":"levelo_inurba_marseille","lat":43.29843,"lon":5.36268,"is_reserved":false,"is_disabled":false,"rental_uris":{"android":"levelo://app?vid=586e096b-2513-44a5-a4f0-acd641033927","ios":"levelo://app?vid=586e096b-2513-44a5-a4f0-acd641033927"},"vehicle_type_id":"4","last_reported":1713888545,"current_range_meters":17200,"station_id":"ce4bgpp2rcd13ifvqc3g","pricing_plan_id":"cebpf4jnsgd1na2vs0mg"},{"bike_id":"05110538-6459-4d2b-893d-7d50a9168aea","system_id":"levelo_inurba_marseille","lat":43.299243,"lon":5.37481,"is_reserved":false,"is_disabled":false,"rental_uris":{"android":"levelo://app?vid=05110538-6459-4d2b-893d-7d50a9168aea","ios":"levelo://app?vid=05110538-6459-4d2b-893d-7d50a9168aea"},"vehicle_type_id":"4","last_reported":1713888545,"current_range_meters":5200,"station_id":"ce4bgjh2rcd13ifvqbg0","pricing_plan_id":"cebpf4jnsgd1na2vs0mg"},{"bike_id":"e9bed29d-bb5d-4b85-bf38-7441d3f77241","system_id":"levelo_inurba_marseille","lat":43.29841,"lon":5.36265,"is_reserved":false,"is_disabled":false,"rental_uris":{"android":"levelo://app?vid=e9bed29d-bb5d-4b85-bf38-7441d3f77241","ios":"levelo://app?vid=e9bed29d-bb5d-4b85-bf38-7441d3f77241"},"vehicle_type_id":"4","last_reported":1713888545,"current_range_meters":30800,"station_id":"ce4bgpp2rcd13ifvqc3g","pricing_plan_id":"cebpf4jnsgd1na2vs0mg"},{"bike_id":"bfad8d05-b338-430e-83dd-0060bcc492be","system_id":"levelo_inurba_marseille","lat":43.297163,"lon":5.365866,"is_reserved":false,"is_disabled":false,"rental_uris":{"android":"levelo://app?vid=bfad8d05-b338-430e-83dd-0060bcc492be","ios":"levelo://app?vid=bfad8d05-b338-430e-83dd-0060bcc492be"},"vehicle_type_id":"4","last_reported":1713888545,"current_range_meters":16800,"station_id":"ce4bgn12rcd13ifvqbt0","pricing_plan_id":"cebpf4jnsgd1na2vs0mg"},{"bike_id":"5b97d86a-1b4b-437e-a7f1-b185cfb0a747","system_id":"levelo_inurba_marseille","lat":43.299243,"lon":5.374807,"is_reserved":false,"is_disabled":false,"rental_uris":{"android":"levelo://app?vid=5b97d86a-1b4b-437e-a7f1-b185cfb0a747","ios":"levelo://app?vid=5b97d86a-1b4b-437e-a7f1-b185cfb0a747"},"vehicle_type_id":"4","last_reported":1713888545,"current_range_meters":30800,"station_id":"ce4bgjh2rcd13ifvqbg0","pricing_plan_id":"cebpf4jnsgd1na2vs0mg"},{"bike_id":"4aaed4a1-c624-4216-bc07-655a8a927fe9","system_id":"levelo_inurba_marseille","lat":43.29839,"lon":5.36267,"is_reserved":false,"is_disabled":false,"rental_uris":{"android":"levelo://app?vid=4aaed4a1-c624-4216-bc07-655a8a927fe9","ios":"levelo://app?vid=4aaed4a1-c624-4216-bc07-655a8a927fe9"},"vehicle_type_id":"4","last_reported":1713888545,"current_range_meters":19600,"station_id":"ce4bgpp2rcd13ifvqc3g","pricing_plan_id":"cebpf4jnsgd1na2vs0mg"},{"bike_id":"6c085484-ecbe-4b32-8e0d-7254dd2a4362","system_id":"levelo_inurba_marseille","lat":43.31178,"lon":5.38706,"is_reserved":false,"is_disabled":false,"rental_uris":{"android":"levelo://app?vid=6c085484-ecbe-4b32-8e0d-7254dd2a4362","ios":"levelo://app?vid=6c085484-ecbe-4b32-8e0d-7254dd2a4362"},"vehicle_type_id":"4","last_reported":1713888545,"current_range_meters":13600,"station_id":"","pricing_plan_id":"cebpf4jnsgd1na2vs0mg"},{"bike_id":"0409f7d0-e426-4841-a7f2-a3edb0bd94b5","system_id":"levelo_inurba_marseille","lat":43.299243,"lon":5.374807,"is_reserved":false,"is_disabled":false,"rental_uris":{"android":"levelo://app?vid=0409f7d0-e426-4841-a7f2-a3edb0bd94b5","ios":"levelo://app?vid=0409f7d0-e426-4841-a7f2-a3edb0bd94b5"},"vehicle_type_id":"4","last_reported":1713888545,"current_range_meters":8800,"station_id":"ce4bgjh2rcd13ifvqbg0","pricing_plan_id":"cebpf4jnsgd1na2vs0mg"},{"bike_id":"6ec41d12-9b80-480e-8f24-940df94fcad0","system_id":"levelo_inurba_marseille","lat":43.311722,"lon":5.387247,"is_reserved":false,"is_disabled":false,"rental_uris":{"android":"levelo://app?vid=6ec41d12-9b80-480e-8f24-940df94fcad0","ios":"levelo://app?vid=6ec41d12-9b80-480e-8f24-940df94fcad0"},"vehicle_type_id":"4","last_reported":1713888545,"current_range_meters":26000,"station_id":"ce4bgv12rcd13ifvqcp0","pricing_plan_id":"cebpf4jnsgd1na2vs0mg"},{"bike_id":"1501af1b-e9f3-4cbc-b7b3-a65a3ee42a5f","system_id":"levelo_inurba_marseille","lat":43.289184,"lon":5.366408,"is_reserved":false,"is_disabled":false,"rental_uris":{"android":"levelo://app?vid=1501af1b-e9f3-4cbc-b7b3-a65a3ee42a5f","ios":"levelo://app?vid=1501af1b-e9f3-4cbc-b7b3-a65a3ee42a5f"},"vehicle_type_id":"4","last_reported":1713888545,"current_range_meters":22000,"station_id":"ce4bhap2rcd13ifvqek0","pricing_plan_id":"cebpf4jnsgd1na2vs0mg"},{"bike_id":"1bf18c3e-2b9c-45dd-883a-aba3d18c2fd0","system_id":"levelo_inurba_marseille","lat":43.297774,"lon":5.370875,"is_reserved":false,"is_disabled":false,"rental_uris":{"android":"levelo://app?vid=1bf18c3e-2b9c-45dd-883a-aba3d18c2fd0","ios":"levelo://app?vid=1bf18c3e-2b9c-45dd-883a-aba3d18c2fd0"},"vehicle_type_id":"4","last_reported":1713888545,"current_range_meters":2800,"station_id":"ce4bgop2rcd13ifvqc1g","pricing_plan_id":"cebpf4jnsgd1na2vs0mg"},{"bike_id":"d2f9a180-78fb-47f3-9e67-8217c6fbc843","system_id":"levelo_inurba_marseille","lat":43.297774,"lon":5.370875,"is_reserved":false,"is_disabled":false,"rental_uris":{"android":"levelo://app?vid=d2f9a180-78fb-47f3-9e67-8217c6fbc843","ios":"levelo://app?vid=d2f9a180-78fb-47f3-9e67-8217c6fbc843"},"vehicle_type_id":"4","last_reported":1713888545,"current_range_meters":28000,"station_id":"ce4bgop2rcd13ifvqc1g","pricing_plan_id":"cebpf4jnsgd1na2vs0mg"},{"bike_id":"900f1273-3e57-4d5f-b9ab-02accf8203ff","system_id":"levelo_inurba_marseille","lat":43.297774,"lon":5.370875,"is_reserved":false,"is_disabled":false,"rental_uris":{"android":"levelo://app?vid=900f1273-3e57-4d5f-b9ab-02accf8203ff","ios":"levelo://app?vid=900f1273-3e57-4d5f-b9ab-02accf8203ff"},"vehicle_type_id":"4","last_reported":1713888545,"current_range_meters":26000,"station_id":"ce4bgop2rcd13ifvqc1g","pricing_plan_id":"cebpf4jnsgd1na2vs0mg"},{"bike_id":"27ed7e3b-1e10-4778-b7ec-a12b5d711d4d","system_id":"levelo_inurba_marseille","lat":43.322872,"lon":5.382756,"is_reserved":false,"is_disabled":false,"rental_uris":{"android":"levelo://app?vid=27ed7e3b-1e10-4778-b7ec-a12b5d711d4d","ios":"levelo://app?vid=27ed7e3b-1e10-4778-b7ec-a12b5d711d4d"},"vehicle_type_id":"4","last_reported":1713888545,"current_range_meters":800,"station_id":"ce4bhr12rcd13ifvqhqg","pricing_plan_id":"cebpf4jnsgd1na2vs0mg"},{"bike_id":"5c98c5b5-2edf-4354-85bd-23606892f8a9","system_id":"levelo_inurba_marseille","lat":43.322872,"lon":5.382756,"is_reserved":false,"is_disabled":false,"rental_uris":{"android":"levelo://app?vid=5c98c5b5-2edf-4354-85bd-23606892f8a9","ios":"levelo://app?vid=5c98c5b5-2edf-4354-85bd-23606892f8a9"},"vehicle_type_id":"4","last_reported":1713888545,"current_range_meters":16000,"station_id":"ce4bhr12rcd13ifvqhqg","pricing_plan_id":"cebpf4jnsgd1na2vs0mg"},{"bike_id":"a966f721-a6ab-436f-9aac-5d620d5cc21a","system_id":"levelo_inurba_marseille","lat":43.297774,"lon":5.370875,"is_reserved":false,"is_disabled":false,"rental_uris":{"android":"levelo://app?vid=a966f721-a6ab-436f-9aac-5d620d5cc21a","ios":"levelo://app?vid=a966f721-a6ab-436f-9aac-5d620d5cc21a"},"vehicle_type_id":"4","last_reported":1713888545,"current_range_meters":0,"station_id":"ce4bgop2rcd13ifvqc1g","pricing_plan_id":"cebpf4jnsgd1na2vs0mg"},{"bike_id":"0acbfbe9-9e47-40b6-aae3-262b91cad939","system_id":"levelo_inurba_marseille","lat":43.29711,"lon":5.36612,"is_reserved":false,"is_disabled":false,"rental_uris":{"android":"levelo://app?vid=0acbfbe9-9e47-40b6-aae3-262b91cad939","ios":"levelo://app?vid=0acbfbe9-9e47-40b6-aae3-262b91cad939"},"vehicle_type_id":"4","last_reported":1713888545,"current_range_meters":0,"station_id":"ce4bgn12rcd13ifvqbt0","pricing_plan_id":"cebpf4jnsgd1na2vs0mg"},{"bike_id":"764b1925-dda4-4a4f-8c90-7974327dead0","system_id":"levelo_inurba_marseille","lat":43.2968,"lon":5.37291,"is_reserved":false,"is_disabled":false,"rental_uris":{"android":"levelo://app?vid=764b1925-dda4-4a4f-8c90-7974327dead0","ios":"levelo://app?vid=764b1925-dda4-4a4f-8c90-7974327dead0"},"vehicle_type_id":"4","last_reported":1713888545,"current_range_meters":4800,"station_id":"ce4bgk12rcd13ifvqbj0","pricing_plan_id":"cebpf4jnsgd1na2vs0mg"},{"bike_id":"a1896729-c630-48a8-9301-af2e5e66ee4c","system_id":"levelo_inurba_marseille","lat":43.2968,"lon":5.37291,"is_reserved":false,"is_disabled":false,"rental_uris":{"android":"levelo://app?vid=a1896729-c630-48a8-9301-af2e5e66ee4c","ios":"levelo://app?vid=a1896729-c630-48a8-9301-af2e5e66ee4c"},"vehicle_type_id":"4","last_reported":1713888545,"current_range_meters":10800,"station_id":"ce4bgk12rcd13ifvqbj0","pricing_plan_id":"cebpf4jnsgd1na2vs0mg"},{"bike_id":"47a80bb3-a408-483e-9d6a-de83dab03df4","system_id":"levelo_inurba_marseille","lat":43.304274,"lon":5.388873,"is_reserved":false,"is_disabled":false,"rental_uris":{"android":"levelo://app?vid=47a80bb3-a408-483e-9d6a-de83dab03df4","ios":"levelo://app?vid=47a80bb3-a408-483e-9d6a-de83dab03df4"},"vehicle_type_id":"4","last_reported":1713888545,"current_range_meters":11600,"station_id":"ce4bgk12rcd13ifvqbi0","pricing_plan_id":"cebpf4jnsgd1na2vs0mg"},{"bike_id":"105f0884-3c33-4bde-9640-d2fff85c5cee","system_id":"levelo_inurba_marseille","lat":43.296129,"lon":5.370777,"is_reserved":false,"is_disabled":false,"rental_uris":{"android":"levelo://app?vid=105f0884-3c33-4bde-9640-d2fff85c5cee","ios":"levelo://app?vid=105f0884-3c33-4bde-9640-d2fff85c5cee"},"vehicle_type_id":"4","last_reported":1713888545,"current_range_meters":26800,"station_id":"ce4bgnh2rcd13ifvqc0g","pricing_plan_id":"cebpf4jnsgd1na2vs0mg"},{"bike_id":"5d8df9d8-8886-4ede-a39f-b7247ee0866b","system_id":"levelo_inurba_marseille","lat":43.296131,"lon":5.370791,"is_reserved":false,"is_disabled":false,"rental_uris":{"android":"levelo://app?vid=5d8df9d8-8886-4ede-a39f-b7247ee0866b","ios":"levelo://app?vid=5d8df9d8-8886-4ede-a39f-b7247ee0866b"},"vehicle_type_id":"4","last_reported":1713888545,"current_range_meters":4000,"station_id":"ce4bgnh2rcd13ifvqc0g","pricing_plan_id":"cebpf4jnsgd1na2vs0mg"},{"bike_id":"958c752b-77bc-4dbe-aa4d-846c2e747fa8","system_id":"levelo_inurba_marseille","lat":43.29624,"lon":5.37161,"is_reserved":false,"is_disabled":false,"rental_uris":{"android":"levelo://app?vid=958c752b-77bc-4dbe-aa4d-846c2e747fa8","ios":"levelo://app?vid=958c752b-77bc-4dbe-aa4d-846c2e747fa8"},"vehicle_type_id":"4","last_reported":1713888545,"current_range_meters":22400,"station_id":"ce4bgnh2rcd13ifvqc0g","pricing_plan_id":"cebpf4jnsgd1na2vs0mg"},{"bike_id":"22ee16ca-a245-4dc1-ad8a-db06da73955c","system_id":"levelo_inurba_marseille","lat":43.29591,"lon":5.368775,"is_reserved":false,"is_disabled":false,"rental_uris":{"android":"levelo://app?vid=22ee16ca-a245-4dc1-ad8a-db06da73955c","ios":"levelo://app?vid=22ee16ca-a245-4dc1-ad8a-db06da73955c"},"vehicle_type_id":"4","last_reported":1713888545,"current_range_meters":13200,"station_id":"","pricing_plan_id":"cebpf4jnsgd1na2vs0mg"},{"bike_id":"e843525e-d9db-4558-bfe3-9daeb5e8297f","system_id":"levelo_inurba_marseille","lat":43.29618,"lon":5.37145,"is_reserved":false,"is_disabled":false,"rental_uris":{"android":"levelo://app?vid=e843525e-d9db-4558-bfe3-9daeb5e8297f","ios":"levelo://app?vid=e843525e-d9db-4558-bfe3-9daeb5e8297f"},"vehicle_type_id":"4","last_reported":1713888545,"current_range_meters":8400,"station_id":"","pricing_plan_id":"cebpf4jnsgd1na2vs0mg"},{"bike_id":"1b8ad4b2-dedf-4c2d-ab2d-1e7e20fd85f4","system_id":"levelo_inurba_marseille","lat":43.29739,"lon":5.3767,"is_reserved":false,"is_disabled":false,"rental_uris":{"android":"levelo://app?vid=1b8ad4b2-dedf-4c2d-ab2d-1e7e20fd85f4","ios":"levelo://app?vid=1b8ad4b2-dedf-4c2d-ab2d-1e7e20fd85f4"},"vehicle_type_id":"4","last_reported":1713888545,"current_range_meters":29600,"station_id":"ce4bgkh2rcd13ifvqbl0","pricing_plan_id":"cebpf4jnsgd1na2vs0mg"},{"bike_id":"48e244e0-e654-4a47-a727-85fa40101c99","system_id":"levelo_inurba_marseille","lat":43.29573,"lon":5.367355,"is_reserved":false,"is_disabled":false,"rental_uris":{"android":"levelo://app?vid=48e244e0-e654-4a47-a727-85fa40101c99","ios":"levelo://app?vid=48e244e0-e654-4a47-a727-85fa40101c99"},"vehicle_type_id":"4","last_reported":1713888545,"current_range_meters":26400,"station_id":"ce4bgph2rcd13ifvqc2g","pricing_plan_id":"cebpf4jnsgd1na2vs0mg"},{"bike_id":"ce5bbb5c-3624-477e-b86e-316786e043ca","system_id":"levelo_inurba_marseille","lat":43.297183,"lon":5.376333,"is_reserved":false,"is_disabled":false,"rental_uris":{"android":"levelo://app?vid=ce5bbb5c-3624-477e-b86e-316786e043ca","ios":"levelo://app?vid=ce5bbb5c-3624-477e-b86e-316786e043ca"},"vehicle_type_id":"4","last_reported":1713888545,"current_range_meters":12800,"station_id":"ce4bgkh2rcd13ifvqbl0","pricing_plan_id":"cebpf4jnsgd1na2vs0mg"},{"bike_id":"b681bbc2-9fd3-4c26-a0f5-48b3cfd5ae15","system_id":"levelo_inurba_marseille","lat":43.299028,"lon":5.381509,"is_reserved":false,"is_disabled":false,"rental_uris":{"android":"levelo://app?vid=b681bbc2-9fd3-4c26-a0f5-48b3cfd5ae15","ios":"levelo://app?vid=b681bbc2-9fd3-4c26-a0f5-48b3cfd5ae15"},"vehicle_type_id":"4","last_reported":1713888545,"current_range_meters":14000,"station_id":"ce4bgj12rcd13ifvqbc0","pricing_plan_id":"cebpf4jnsgd1na2vs0mg"},{"bike_id":"0580b6ce-b286-4852-946a-efe180cedaee","system_id":"levelo_inurba_marseille","lat":43.290412,"lon":5.399633,"is_reserved":false,"is_disabled":false,"rental_uris":{"android":"levelo://app?vid=0580b6ce-b286-4852-946a-efe180cedaee","ios":"levelo://app?vid=0580b6ce-b286-4852-946a-efe180cedaee"},"vehicle_type_id":"4","last_reported":1713888545,"current_range_meters":0,"station_id":"ce4bh392rcd13ifvqdm0","pricing_plan_id":"cebpf4jnsgd1na2vs0mg"},{"bike_id":"6ff2b6b2-de68-49b9-a07a-72dec650a68a","system_id":"levelo_inurba_marseille","lat":43.299028,"lon":5.381509,"is_reserved":false,"is_disabled":false,"rental_uris":{"android":"levelo://app?vid=6ff2b6b2-de68-49b9-a07a-72dec650a68a","ios":"levelo://app?vid=6ff2b6b2-de68-49b9-a07a-72dec650a68a"},"vehicle_type_id":"4","last_reported":1713888545,"current_range_meters":15600,"station_id":"ce4bgj12rcd13ifvqbc0","pricing_plan_id":"cebpf4jnsgd1na2vs0mg"},{"bike_id":"00c0faa7-6284-46a6-b795-c7ce78942108","system_id":"levelo_inurba_marseille","lat":43.29706,"lon":5.37688,"is_reserved":false,"is_disabled":false,"rental_uris":{"android":"levelo://app?vid=00c0faa7-6284-46a6-b795-c7ce78942108","ios":"levelo://app?vid=00c0faa7-6284-46a6-b795-c7ce78942108"},"vehicle_type_id":"4","last_reported":1713888545,"current_range_meters":2400,"station_id":"ce4bgkh2rcd13ifvqbl0","pricing_plan_id":"cebpf4jnsgd1na2vs0mg"},{"bike_id":"20393afe-3805-41d1-b152-d94c29ef65e2","system_id":"levelo_inurba_marseille","lat":43.299028,"lon":5.381509,"is_reserved":false,"is_disabled":false,"rental_uris":{"android":"levelo://app?vid=20393afe-3805-41d1-b152-d94c29ef65e2","ios":"levelo://app?vid=20393afe-3805-41d1-b152-d94c29ef65e2"},"vehicle_type_id":"4","last_reported":1713888545,"current_range_meters":24800,"station_id":"ce4bgj12rcd13ifvqbc0","pricing_plan_id":"cebpf4jnsgd1na2vs0mg"},{"bike_id":"1bc525b0-6a17-4598-8472-cc438bc45094","system_id":"levelo_inurba_marseille","lat":43.299028,"lon":5.381509,"is_reserved":false,"is_disabled":false,"rental_uris":{"android":"levelo://app?vid=1bc525b0-6a17-4598-8472-cc438bc45094","ios":"levelo://app?vid=1bc525b0-6a17-4598-8472-cc438bc45094"},"vehicle_type_id":"4","last_reported":1713888545,"current_range_meters":12400,"station_id":"ce4bgj12rcd13ifvqbc0","pricing_plan_id":"cebpf4jnsgd1na2vs0mg"},{"bike_id":"730fa032-1821-42e7-b61f-572075c353a4","system_id":"levelo_inurba_marseille","lat":43.317557,"lon":5.390173,"is_reserved":false,"is_disabled":false,"rental_uris":{"android":"levelo://app?vid=730fa032-1821-42e7-b61f-572075c353a4","ios":"levelo://app?vid=730fa032-1821-42e7-b61f-572075c353a4"},"vehicle_type_id":"4","last_reported":1713888545,"current_range_meters":11200,"station_id":"ce4bhqp2rcd13ifvqhng","pricing_plan_id":"cebpf4jnsgd1na2vs0mg"},{"bike_id":"8ca3ec5b-cca1-46c0-81d0-be883cff6b3e","system_id":"levelo_inurba_marseille","lat":43.317557,"lon":5.390173,"is_reserved":false,"is_disabled":false,"rental_uris":{"android":"levelo://app?vid=8ca3ec5b-cca1-46c0-81d0-be883cff6b3e","ios":"levelo://app?vid=8ca3ec5b-cca1-46c0-81d0-be883cff6b3e"},"vehicle_type_id":"4","last_reported":1713888545,"current_range_meters":31200,"station_id":"ce4bhqp2rcd13ifvqhng","pricing_plan_id":"cebpf4jnsgd1na2vs0mg"},{"bike_id":"b5db3fe9-d4c4-4825-8bfc-1ca6cae23ee4","system_id":"levelo_inurba_marseille","lat":43.298764,"lon":5.388973,"is_reserved":false,"is_disabled":false,"rental_uris":{"android":"levelo://app?vid=b5db3fe9-d4c4-4825-8bfc-1ca6cae23ee4","ios":"levelo://app?vid=b5db3fe9-d4c4-4825-8bfc-1ca6cae23ee4"},"vehicle_type_id":"4","last_reported":1713888545,"current_range_meters":10400,"station_id":"ce4bh392rcd13ifvqdl0","pricing_plan_id":"cebpf4jnsgd1na2vs0mg"},{"bike_id":"b7de6492-7ace-4886-bc78-d1e85a6a5cc4","system_id":"levelo_inurba_marseille","lat":43.298037,"lon":5.381066,"is_reserved":false,"is_disabled":false,"rental_uris":{"android":"levelo://app?vid=b7de6492-7ace-4886-bc78-d1e85a6a5cc4","ios":"levelo://app?vid=b7de6492-7ace-4886-bc78-d1e85a6a5cc4"},"vehicle_type_id":"4","last_reported":1713888545,"current_range_meters":10800,"station_id":"ce4bgip2rcd13ifvqbb0","pricing_plan_id":"cebpf4jnsgd1na2vs0mg"},{"bike_id":"3def7f89-7943-4742-ab61-c725d3df3e24","system_id":"levelo_inurba_marseille","lat":43.29582,"lon":5.37503,"is_reserved":false,"is_disabled":false,"rental_uris":{"android":"levelo://app?vid=3def7f89-7943-4742-ab61-c725d3df3e24","ios":"levelo://app?vid=3def7f89-7943-4742-ab61-c725d3df3e24"},"vehicle_type_id":"4","last_reported":1713888545,"current_range_meters":0,"station_id":"ce4bgh92rcd13ifvqb50","pricing_plan_id":"cebpf4jnsgd1na2vs0mg"},{"bike_id":"8c344808-e73e-4766-b689-40c3083901dc","system_id":"levelo_inurba_marseille","lat":43.295748,"lon":5.37522,"is_reserved":false,"is_disabled":false,"rental_uris":{"android":"levelo://app?vid=8c344808-e73e-4766-b689-40c3083901dc","ios":"levelo://app?vid=8c344808-e73e-4766-b689-40c3083901dc"},"vehicle_type_id":"4","last_reported":1713888545,"current_range_meters":23200,"station_id":"ce4bgh92rcd13ifvqb50","pricing_plan_id":"cebpf4jnsgd1na2vs0mg"},{"bike_id":"e41a2b33-1b46-48b7-b79c-0911109e62f5","system_id":"levelo_inurba_marseille","lat":43.298037,"lon":5.381066,"is_reserved":false,"is_disabled":false,"rental_uris":{"android":"levelo://app?vid=e41a2b33-1b46-48b7-b79c-0911109e62f5","ios":"levelo://app?vid=e41a2b33-1b46-48b7-b79c-0911109e62f5"},"vehicle_type_id":"4","last_reported":1713888545,"current_range_meters":0,"station_id":"ce4bgip2rcd13ifvqbb0","pricing_plan_id":"cebpf4jnsgd1na2vs0mg"},{"bike_id":"d53764c1-5a05-4117-90db-b4f4290835cd","system_id":"levelo_inurba_marseille","lat":43.304422,"lon":5.388816,"is_reserved":false,"is_disabled":false,"rental_uris":{"android":"levelo://app?vid=d53764c1-5a05-4117-90db-b4f4290835cd","ios":"levelo://app?vid=d53764c1-5a05-4117-90db-b4f4290835cd"},"vehicle_type_id":"4","last_reported":1713888545,"current_range_meters":13200,"station_id":"ce4bgk12rcd13ifvqbi0","pricing_plan_id":"cebpf4jnsgd1na2vs0mg"},{"bike_id":"bbae126f-0126-4df8-8b3e-322752d7dfe2","system_id":"levelo_inurba_marseille","lat":43.304274,"lon":5.388873,"is_reserved":false,"is_disabled":false,"rental_uris":{"android":"levelo://app?vid=bbae126f-0126-4df8-8b3e-322752d7dfe2","ios":"levelo://app?vid=bbae126f-0126-4df8-8b3e-322752d7dfe2"},"vehicle_type_id":"4","last_reported":1713888545,"current_range_meters":27200,"station_id":"ce4bgk12rcd13ifvqbi0","pricing_plan_id":"cebpf4jnsgd1na2vs0mg"},{"bike_id":"78ff15d1-8130-45a0-b6e7-a2bd813e1914","system_id":"levelo_inurba_marseille","lat":43.30434,"lon":5.38879,"is_reserved":false,"is_disabled":false,"rental_uris":{"android":"levelo://app?vid=78ff15d1-8130-45a0-b6e7-a2bd813e1914","ios":"levelo://app?vid=78ff15d1-8130-45a0-b6e7-a2bd813e1914"},"vehicle_type_id":"4","last_reported":1713888545,"current_range_meters":25200,"station_id":"ce4bgk12rcd13ifvqbi0","pricing_plan_id":"cebpf4jnsgd1na2vs0mg"},{"bike_id":"40e14cc8-7734-4abd-a029-d53be5f0251d","system_id":"levelo_inurba_marseille","lat":43.295748,"lon":5.37522,"is_reserved":false,"is_disabled":false,"rental_uris":{"android":"levelo://app?vid=40e14cc8-7734-4abd-a029-d53be5f0251d","ios":"levelo://app?vid=40e14cc8-7734-4abd-a029-d53be5f0251d"},"vehicle_type_id":"4","last_reported":1713888545,"current_range_meters":17200,"station_id":"ce4bgh92rcd13ifvqb50","pricing_plan_id":"cebpf4jnsgd1na2vs0mg"},{"bike_id":"958f8321-5eb0-461c-b31b-c6efbfa33b2d","system_id":"levelo_inurba_marseille","lat":43.304274,"lon":5.388873,"is_reserved":false,"is_disabled":false,"rental_uris":{"android":"levelo://app?vid=958f8321-5eb0-461c-b31b-c6efbfa33b2d","ios":"levelo://app?vid=958f8321-5eb0-461c-b31b-c6efbfa33b2d"},"vehicle_type_id":"4","last_reported":1713888545,"current_range_meters":8400,"station_id":"ce4bgk12rcd13ifvqbi0","pricing_plan_id":"cebpf4jnsgd1na2vs0mg"},{"bike_id":"3f9ad79f-39a3-4062-97ce-203091f78020","system_id":"levelo_inurba_marseille","lat":43.304274,"lon":5.388873,"is_reserved":false,"is_disabled":false,"rental_uris":{"android":"levelo://app?vid=3f9ad79f-39a3-4062-97ce-203091f78020","ios":"levelo://app?vid=3f9ad79f-39a3-4062-97ce-203091f78020"},"vehicle_type_id":"4","last_reported":1713888545,"current_range_meters":15200,"station_id":"ce4bgk12rcd13ifvqbi0","pricing_plan_id":"cebpf4jnsgd1na2vs0mg"},{"bike_id":"1593f166-ac0a-48cc-943f-cd9d2fea8de3","system_id":"levelo_inurba_marseille","lat":43.304278,"lon":5.388868,"is_reserved":false,"is_disabled":false,"rental_uris":{"android":"levelo://app?vid=1593f166-ac0a-48cc-943f-cd9d2fea8de3","ios":"levelo://app?vid=1593f166-ac0a-48cc-943f-cd9d2fea8de3"},"vehicle_type_id":"4","last_reported":1713888545,"current_range_meters":2000,"station_id":"ce4bgk12rcd13ifvqbi0","pricing_plan_id":"cebpf4jnsgd1na2vs0mg"},{"bike_id":"30f82a5d-608b-4b42-9d79-bcea35658c94","system_id":"levelo_inurba_marseille","lat":43.30446,"lon":5.38898,"is_reserved":false,"is_disabled":false,"rental_uris":{"android":"levelo://app?vid=30f82a5d-608b-4b42-9d79-bcea35658c94","ios":"levelo://app?vid=30f82a5d-608b-4b42-9d79-bcea35658c94"},"vehicle_type_id":"4","last_reported":1713888545,"current_range_meters":4000,"station_id":"ce4bgk12rcd13ifvqbi0","pricing_plan_id":"cebpf4jnsgd1na2vs0mg"},{"bike_id":"2c1da4e9-90aa-4033-9a37-cfae8a91c579","system_id":"levelo_inurba_marseille","lat":43.304328,"lon":5.38889,"is_reserved":false,"is_disabled":false,"rental_uris":{"android":"levelo://app?vid=2c1da4e9-90aa-4033-9a37-cfae8a91c579","ios":"levelo://app?vid=2c1da4e9-90aa-4033-9a37-cfae8a91c579"},"vehicle_type_id":"4","last_reported":1713888545,"current_range_meters":6800,"station_id":"ce4bgk12rcd13ifvqbi0","pricing_plan_id":"cebpf4jnsgd1na2vs0mg"},{"bike_id":"51109523-f562-4674-a9ac-ba7c53841737","system_id":"levelo_inurba_marseille","lat":43.304362,"lon":5.388926,"is_reserved":false,"is_disabled":false,"rental_uris":{"android":"levelo://app?vid=51109523-f562-4674-a9ac-ba7c53841737","ios":"levelo://app?vid=51109523-f562-4674-a9ac-ba7c53841737"},"vehicle_type_id":"4","last_reported":1713888545,"current_range_meters":29200,"station_id":"ce4bgk12rcd13ifvqbi0","pricing_plan_id":"cebpf4jnsgd1na2vs0mg"},{"bike_id":"75534077-5cef-4f58-a8a7-7958b47e2240","system_id":"levelo_inurba_marseille","lat":43.304274,"lon":5.388873,"is_reserved":false,"is_disabled":false,"rental_uris":{"android":"levelo://app?vid=75534077-5cef-4f58-a8a7-7958b47e2240","ios":"levelo://app?vid=75534077-5cef-4f58-a8a7-7958b47e2240"},"vehicle_type_id":"4","last_reported":1713888545,"current_range_meters":6000,"station_id":"ce4bgk12rcd13ifvqbi0","pricing_plan_id":"cebpf4jnsgd1na2vs0mg"},{"bike_id":"51607a4e-d6c7-4648-93ff-3d961ffbe44b","system_id":"levelo_inurba_marseille","lat":43.3044,"lon":5.38898,"is_reserved":false,"is_disabled":false,"rental_uris":{"android":"levelo://app?vid=51607a4e-d6c7-4648-93ff-3d961ffbe44b","ios":"levelo://app?vid=51607a4e-d6c7-4648-93ff-3d961ffbe44b"},"vehicle_type_id":"4","last_reported":1713888545,"current_range_meters":25200,"station_id":"ce4bgk12rcd13ifvqbi0","pricing_plan_id":"cebpf4jnsgd1na2vs0mg"},{"bike_id":"23dc7b60-2004-4f58-856a-129617d82d35","system_id":"levelo_inurba_marseille","lat":43.304278,"lon":5.388868,"is_reserved":false,"is_disabled":false,"rental_uris":{"android":"levelo://app?vid=23dc7b60-2004-4f58-856a-129617d82d35","ios":"levelo://app?vid=23dc7b60-2004-4f58-856a-129617d82d35"},"vehicle_type_id":"4","last_reported":1713888545,"current_range_meters":8000,"station_id":"ce4bgk12rcd13ifvqbi0","pricing_plan_id":"cebpf4jnsgd1na2vs0mg"},{"bike_id":"bb6d221d-9cbc-4b27-96ab-58fa501629f1","system_id":"levelo_inurba_marseille","lat":43.296263,"lon":5.377094,"is_reserved":false,"is_disabled":false,"rental_uris":{"android":"levelo://app?vid=bb6d221d-9cbc-4b27-96ab-58fa501629f1","ios":"levelo://app?vid=bb6d221d-9cbc-4b27-96ab-58fa501629f1"},"vehicle_type_id":"4","last_reported":1713888545,"current_range_meters":28000,"station_id":"ce4bgi92rcd13ifvqb90","pricing_plan_id":"cebpf4jnsgd1na2vs0mg"},{"bike_id":"412bdd45-b3e0-4c0f-bda7-c71a151b0e40","system_id":"levelo_inurba_marseille","lat":43.296263,"lon":5.377094,"is_reserved":false,"is_disabled":false,"rental_uris":{"android":"levelo://app?vid=412bdd45-b3e0-4c0f-bda7-c71a151b0e40","ios":"levelo://app?vid=412bdd45-b3e0-4c0f-bda7-c71a151b0e40"},"vehicle_type_id":"4","last_reported":1713888545,"current_range_meters":24800,"station_id":"ce4bgi92rcd13ifvqb90","pricing_plan_id":"cebpf4jnsgd1na2vs0mg"},{"bike_id":"393893aa-02ff-4d9a-b3bb-64219e2b067e","system_id":"levelo_inurba_marseille","lat":43.299717,"lon":5.384845,"is_reserved":false,"is_disabled":false,"rental_uris":{"android":"levelo://app?vid=393893aa-02ff-4d9a-b3bb-64219e2b067e","ios":"levelo://app?vid=393893aa-02ff-4d9a-b3bb-64219e2b067e"},"vehicle_type_id":"4","last_reported":1713888545,"current_range_meters":5600,"station_id":"ce4bgj92rcd13ifvqbd0","pricing_plan_id":"cebpf4jnsgd1na2vs0mg"},{"bike_id":"c1887217-1322-42c0-81a2-9144431b0066","system_id":"levelo_inurba_marseille","lat":43.299222,"lon":5.365554,"is_reserved":false,"is_disabled":false,"rental_uris":{"android":"levelo://app?vid=c1887217-1322-42c0-81a2-9144431b0066","ios":"levelo://app?vid=c1887217-1322-42c0-81a2-9144431b0066"},"vehicle_type_id":"4","last_reported":1713888545,"current_range_meters":7200,"station_id":"ce4bgm92rcd13ifvqbr0","pricing_plan_id":"cebpf4jnsgd1na2vs0mg"},{"bike_id":"45af1072-bd1e-4fe0-9e99-b28f21c73e82","system_id":"levelo_inurba_marseille","lat":43.296263,"lon":5.377094,"is_reserved":false,"is_disabled":false,"rental_uris":{"android":"levelo://app?vid=45af1072-bd1e-4fe0-9e99-b28f21c73e82","ios":"levelo://app?vid=45af1072-bd1e-4fe0-9e99-b28f21c73e82"},"vehicle_type_id":"4","last_reported":1713888545,"current_range_meters":2400,"station_id":"ce4bgi92rcd13ifvqb90","pricing_plan_id":"cebpf4jnsgd1na2vs0mg"},{"bike_id":"5a17ab96-1138-48e7-83c5-d6e4c7e31bd9","system_id":"levelo_inurba_marseille","lat":43.304373,"lon":5.389236,"is_reserved":false,"is_disabled":false,"rental_uris":{"android":"levelo://app?vid=5a17ab96-1138-48e7-83c5-d6e4c7e31bd9","ios":"levelo://app?vid=5a17ab96-1138-48e7-83c5-d6e4c7e31bd9"},"vehicle_type_id":"4","last_reported":1713888545,"current_range_meters":18400,"station_id":"ce4bgk12rcd13ifvqbi0","pricing_plan_id":"cebpf4jnsgd1na2vs0mg"},{"bike_id":"f0598bfd-5fba-4abc-bcdf-a3443c4a71bc","system_id":"levelo_inurba_marseille","lat":43.299724,"lon":5.384848,"is_reserved":false,"is_disabled":false,"rental_uris":{"android":"levelo://app?vid=f0598bfd-5fba-4abc-bcdf-a3443c4a71bc","ios":"levelo://app?vid=f0598bfd-5fba-4abc-bcdf-a3443c4a71bc"},"vehicle_type_id":"4","last_reported":1713888545,"current_range_meters":24400,"station_id":"ce4bgj92rcd13ifvqbd0","pricing_plan_id":"cebpf4jnsgd1na2vs0mg"},{"bike_id":"b493443f-3b2e-40ee-85bf-390fb7bb59b8","system_id":"levelo_inurba_marseille","lat":43.299717,"lon":5.384845,"is_reserved":false,"is_disabled":false,"rental_uris":{"android":"levelo://app?vid=b493443f-3b2e-40ee-85bf-390fb7bb59b8","ios":"levelo://app?vid=b493443f-3b2e-40ee-85bf-390fb7bb59b8"},"vehicle_type_id":"4","last_reported":1713888545,"current_range_meters":16400,"station_id":"ce4bgj92rcd13ifvqbd0","pricing_plan_id":"cebpf4jnsgd1na2vs0mg"},{"bike_id":"86653855-b682-4708-9ce9-485ab13b3e73","system_id":"levelo_inurba_marseille","lat":43.299707,"lon":5.384859,"is_reserved":false,"is_disabled":false,"rental_uris":{"android":"levelo://app?vid=86653855-b682-4708-9ce9-485ab13b3e73","ios":"levelo://app?vid=86653855-b682-4708-9ce9-485ab13b3e73"},"vehicle_type_id":"4","last_reported":1713888545,"current_range_meters":31200,"station_id":"ce4bgj92rcd13ifvqbd0","pricing_plan_id":"cebpf4jnsgd1na2vs0mg"},{"bike_id":"57c53e8b-cf3b-445f-8d13-0961722fe246","system_id":"levelo_inurba_marseille","lat":43.299707,"lon":5.384859,"is_reserved":false,"is_disabled":false,"rental_uris":{"android":"levelo://app?vid=57c53e8b-cf3b-445f-8d13-0961722fe246","ios":"levelo://app?vid=57c53e8b-cf3b-445f-8d13-0961722fe246"},"vehicle_type_id":"4","last_reported":1713888545,"current_range_meters":26800,"station_id":"ce4bgj92rcd13ifvqbd0","pricing_plan_id":"cebpf4jnsgd1na2vs0mg"},{"bike_id":"173cced9-1aa1-4535-8ee3-234f88ac5ac4","system_id":"levelo_inurba_marseille","lat":43.299707,"lon":5.384859,"is_reserved":false,"is_disabled":false,"rental_uris":{"android":"levelo://app?vid=173cced9-1aa1-4535-8ee3-234f88ac5ac4","ios":"levelo://app?vid=173cced9-1aa1-4535-8ee3-234f88ac5ac4"},"vehicle_type_id":"4","last_reported":1713888545,"current_range_meters":13600,"station_id":"ce4bgj92rcd13ifvqbd0","pricing_plan_id":"cebpf4jnsgd1na2vs0mg"},{"bike_id":"3305d6bf-31da-4ed6-934e-88025307962b","system_id":"levelo_inurba_marseille","lat":43.295279,"lon":5.375048,"is_reserved":false,"is_disabled":false,"rental_uris":{"android":"levelo://app?vid=3305d6bf-31da-4ed6-934e-88025307962b","ios":"levelo://app?vid=3305d6bf-31da-4ed6-934e-88025307962b"},"vehicle_type_id":"4","last_reported":1713888545,"current_range_meters":0,"station_id":"ce4bgkp2rcd13ifvqbmg","pricing_plan_id":"cebpf4jnsgd1na2vs0mg"},{"bike_id":"981979b4-fd8f-4422-a020-d0af6d87197b","system_id":"levelo_inurba_marseille","lat":43.299707,"lon":5.384859,"is_reserved":false,"is_disabled":false,"rental_uris":{"android":"levelo://app?vid=981979b4-fd8f-4422-a020-d0af6d87197b","ios":"levelo://app?vid=981979b4-fd8f-4422-a020-d0af6d87197b"},"vehicle_type_id":"4","last_reported":1713888545,"current_range_meters":8800,"station_id":"ce4bgj92rcd13ifvqbd0","pricing_plan_id":"cebpf4jnsgd1na2vs0mg"},{"bike_id":"e84a950c-fff5-479b-a747-42e67ebf37eb","system_id":"levelo_inurba_marseille","lat":43.304274,"lon":5.388873,"is_reserved":false,"is_disabled":false,"rental_uris":{"android":"levelo://app?vid=e84a950c-fff5-479b-a747-42e67ebf37eb","ios":"levelo://app?vid=e84a950c-fff5-479b-a747-42e67ebf37eb"},"vehicle_type_id":"4","last_reported":1713888545,"current_range_meters":28000,"station_id":"ce4bgk12rcd13ifvqbi0","pricing_plan_id":"cebpf4jnsgd1na2vs0mg"},{"bike_id":"5c4b0b74-ed14-40ce-93e4-85ab66e34eca","system_id":"levelo_inurba_marseille","lat":43.299707,"lon":5.384859,"is_reserved":false,"is_disabled":false,"rental_uris":{"android":"levelo://app?vid=5c4b0b74-ed14-40ce-93e4-85ab66e34eca","ios":"levelo://app?vid=5c4b0b74-ed14-40ce-93e4-85ab66e34eca"},"vehicle_type_id":"4","last_reported":1713888545,"current_range_meters":11200,"station_id":"ce4bgj92rcd13ifvqbd0","pricing_plan_id":"cebpf4jnsgd1na2vs0mg"},{"bike_id":"6c3d9ae2-f06a-48c0-8499-2ca77f28b043","system_id":"levelo_inurba_marseille","lat":43.299707,"lon":5.384859,"is_reserved":false,"is_disabled":false,"rental_uris":{"android":"levelo://app?vid=6c3d9ae2-f06a-48c0-8499-2ca77f28b043","ios":"levelo://app?vid=6c3d9ae2-f06a-48c0-8499-2ca77f28b043"},"vehicle_type_id":"4","last_reported":1713888545,"current_range_meters":22000,"station_id":"ce4bgj92rcd13ifvqbd0","pricing_plan_id":"cebpf4jnsgd1na2vs0mg"},{"bike_id":"ba383a06-e1a8-48db-a3a2-fb11daf1fd2b","system_id":"levelo_inurba_marseille","lat":43.317557,"lon":5.390173,"is_reserved":false,"is_disabled":false,"rental_uris":{"android":"levelo://app?vid=ba383a06-e1a8-48db-a3a2-fb11daf1fd2b","ios":"levelo://app?vid=ba383a06-e1a8-48db-a3a2-fb11daf1fd2b"},"vehicle_type_id":"4","last_reported":1713888545,"current_range_meters":19600,"station_id":"ce4bhqp2rcd13ifvqhng","pricing_plan_id":"cebpf4jnsgd1na2vs0mg"},{"bike_id":"6984d001-2215-4965-b7c4-7ca0b0a24d93","system_id":"levelo_inurba_marseille","lat":43.299724,"lon":5.384848,"is_reserved":false,"is_disabled":false,"rental_uris":{"android":"levelo://app?vid=6984d001-2215-4965-b7c4-7ca0b0a24d93","ios":"levelo://app?vid=6984d001-2215-4965-b7c4-7ca0b0a24d93"},"vehicle_type_id":"4","last_reported":1713888545,"current_range_meters":26800,"station_id":"ce4bgj92rcd13ifvqbd0","pricing_plan_id":"cebpf4jnsgd1na2vs0mg"},{"bike_id":"4f87b11e-7f87-4e73-a509-cc7ad9c6da89","system_id":"levelo_inurba_marseille","lat":43.295279,"lon":5.375048,"is_reserved":false,"is_disabled":false,"rental_uris":{"android":"levelo://app?vid=4f87b11e-7f87-4e73-a509-cc7ad9c6da89","ios":"levelo://app?vid=4f87b11e-7f87-4e73-a509-cc7ad9c6da89"},"vehicle_type_id":"4","last_reported":1713888545,"current_range_meters":6000,"station_id":"ce4bgkp2rcd13ifvqbmg","pricing_plan_id":"cebpf4jnsgd1na2vs0mg"},{"bike_id":"b858de42-bd2e-4fee-985b-7882d0077533","system_id":"levelo_inurba_marseille","lat":43.299707,"lon":5.384859,"is_reserved":false,"is_disabled":false,"rental_uris":{"android":"levelo://app?vid=b858de42-bd2e-4fee-985b-7882d0077533","ios":"levelo://app?vid=b858de42-bd2e-4fee-985b-7882d0077533"},"vehicle_type_id":"4","last_reported":1713888545,"current_range_meters":5200,"station_id":"ce4bgj92rcd13ifvqbd0","pricing_plan_id":"cebpf4jnsgd1na2vs0mg"},{"bike_id":"efc5d229-d29c-4b44-a3b2-73ec218d2501","system_id":"levelo_inurba_marseille","lat":43.293259,"lon":5.371586,"is_reserved":false,"is_disabled":false,"rental_uris":{"android":"levelo://app?vid=efc5d229-d29c-4b44-a3b2-73ec218d2501","ios":"levelo://app?vid=efc5d229-d29c-4b44-a3b2-73ec218d2501"},"vehicle_type_id":"4","last_reported":1713888545,"current_range_meters":3600,"station_id":"ce4bgh92rcd13ifvqb40","pricing_plan_id":"cebpf4jnsgd1na2vs0mg"},{"bike_id":"22dc416a-6bd8-4ded-8265-eb829a79ea27","system_id":"levelo_inurba_marseille","lat":43.299717,"lon":5.384845,"is_reserved":false,"is_disabled":false,"rental_uris":{"android":"levelo://app?vid=22dc416a-6bd8-4ded-8265-eb829a79ea27","ios":"levelo://app?vid=22dc416a-6bd8-4ded-8265-eb829a79ea27"},"vehicle_type_id":"4","last_reported":1713888545,"current_range_meters":0,"station_id":"ce4bgj92rcd13ifvqbd0","pricing_plan_id":"cebpf4jnsgd1na2vs0mg"},{"bike_id":"c0f0e675-e996-4a4f-b361-52f95943e749","system_id":"levelo_inurba_marseille","lat":43.29972,"lon":5.38494,"is_reserved":false,"is_disabled":false,"rental_uris":{"android":"levelo://app?vid=c0f0e675-e996-4a4f-b361-52f95943e749","ios":"levelo://app?vid=c0f0e675-e996-4a4f-b361-52f95943e749"},"vehicle_type_id":"4","last_reported":1713888545,"current_range_meters":8000,"station_id":"ce4bgj92rcd13ifvqbd0","pricing_plan_id":"cebpf4jnsgd1na2vs0mg"},{"bike_id":"4294d4d1-ea59-4ce1-b5af-7cbe71d87daf","system_id":"levelo_inurba_marseille","lat":43.29971,"lon":5.38494,"is_reserved":false,"is_disabled":false,"rental_uris":{"android":"levelo://app?vid=4294d4d1-ea59-4ce1-b5af-7cbe71d87daf","ios":"levelo://app?vid=4294d4d1-ea59-4ce1-b5af-7cbe71d87daf"},"vehicle_type_id":"4","last_reported":1713888545,"current_range_meters":18800,"station_id":"ce4bgj92rcd13ifvqbd0","pricing_plan_id":"cebpf4jnsgd1na2vs0mg"},{"bike_id":"cf085187-c508-43cd-8669-42ecd48d0cb0","system_id":"levelo_inurba_marseille","lat":43.299717,"lon":5.384845,"is_reserved":false,"is_disabled":false,"rental_uris":{"android":"levelo://app?vid=cf085187-c508-43cd-8669-42ecd48d0cb0","ios":"levelo://app?vid=cf085187-c508-43cd-8669-42ecd48d0cb0"},"vehicle_type_id":"4","last_reported":1713888545,"current_range_meters":14000,"station_id":"ce4bgj92rcd13ifvqbd0","pricing_plan_id":"cebpf4jnsgd1na2vs0mg"},{"bike_id":"7365cdce-34cb-4c8d-9ad4-da9312f22c1e","system_id":"levelo_inurba_marseille","lat":43.29966,"lon":5.38492,"is_reserved":false,"is_disabled":false,"rental_uris":{"android":"levelo://app?vid=7365cdce-34cb-4c8d-9ad4-da9312f22c1e","ios":"levelo://app?vid=7365cdce-34cb-4c8d-9ad4-da9312f22c1e"},"vehicle_type_id":"4","last_reported":1713888545,"current_range_meters":7200,"station_id":"ce4bgj92rcd13ifvqbd0","pricing_plan_id":"cebpf4jnsgd1na2vs0mg"},{"bike_id":"c1026091-a6e8-4074-a3e4-52f26a487533","system_id":"levelo_inurba_marseille","lat":43.29967,"lon":5.38494,"is_reserved":false,"is_disabled":false,"rental_uris":{"android":"levelo://app?vid=c1026091-a6e8-4074-a3e4-52f26a487533","ios":"levelo://app?vid=c1026091-a6e8-4074-a3e4-52f26a487533"},"vehicle_type_id":"4","last_reported":1713888545,"current_range_meters":3600,"station_id":"ce4bgj92rcd13ifvqbd0","pricing_plan_id":"cebpf4jnsgd1na2vs0mg"},{"bike_id":"eb2bcd28-c96c-4405-8f43-86020d2ded96","system_id":"levelo_inurba_marseille","lat":43.299717,"lon":5.384845,"is_reserved":false,"is_disabled":false,"rental_uris":{"android":"levelo://app?vid=eb2bcd28-c96c-4405-8f43-86020d2ded96","ios":"levelo://app?vid=eb2bcd28-c96c-4405-8f43-86020d2ded96"},"vehicle_type_id":"4","last_reported":1713888545,"current_range_meters":21600,"station_id":"ce4bgj92rcd13ifvqbd0","pricing_plan_id":"cebpf4jnsgd1na2vs0mg"},{"bike_id":"f7e3630b-618d-4ec8-ae24-3db02ad762e9","system_id":"levelo_inurba_marseille","lat":43.29968,"lon":5.38501,"is_reserved":false,"is_disabled":false,"rental_uris":{"android":"levelo://app?vid=f7e3630b-618d-4ec8-ae24-3db02ad762e9","ios":"levelo://app?vid=f7e3630b-618d-4ec8-ae24-3db02ad762e9"},"vehicle_type_id":"4","last_reported":1713888545,"current_range_meters":14000,"station_id":"ce4bgj92rcd13ifvqbd0","pricing_plan_id":"cebpf4jnsgd1na2vs0mg"},{"bike_id":"9c707ae9-ca57-4dfd-8690-a10931285e47","system_id":"levelo_inurba_marseille","lat":43.296131,"lon":5.370791,"is_reserved":false,"is_disabled":false,"rental_uris":{"android":"levelo://app?vid=9c707ae9-ca57-4dfd-8690-a10931285e47","ios":"levelo://app?vid=9c707ae9-ca57-4dfd-8690-a10931285e47"},"vehicle_type_id":"4","last_reported":1713888545,"current_range_meters":5200,"station_id":"ce4bgnh2rcd13ifvqc0g","pricing_plan_id":"cebpf4jnsgd1na2vs0mg"},{"bike_id":"c74a3e81-71f9-4ce8-80d0-93be0388efa6","system_id":"levelo_inurba_marseille","lat":43.299187,"lon":5.384736,"is_reserved":false,"is_disabled":false,"rental_uris":{"android":"levelo://app?vid=c74a3e81-71f9-4ce8-80d0-93be0388efa6","ios":"levelo://app?vid=c74a3e81-71f9-4ce8-80d0-93be0388efa6"},"vehicle_type_id":"4","last_reported":1713888545,"current_range_meters":14000,"station_id":"ce4bgr92rcd13ifvqc7g","pricing_plan_id":"cebpf4jnsgd1na2vs0mg"},{"bike_id":"332fcec9-0cbe-4da5-ad7e-05cac176e5ad","system_id":"levelo_inurba_marseille","lat":43.29602,"lon":5.381084,"is_reserved":false,"is_disabled":false,"rental_uris":{"android":"levelo://app?vid=332fcec9-0cbe-4da5-ad7e-05cac176e5ad","ios":"levelo://app?vid=332fcec9-0cbe-4da5-ad7e-05cac176e5ad"},"vehicle_type_id":"4","last_reported":1713888545,"current_range_meters":12800,"station_id":"ce4bgl12rcd13ifvqbo0","pricing_plan_id":"cebpf4jnsgd1na2vs0mg"},{"bike_id":"8aa90576-5fcd-4176-bc45-c0ad5460d54d","system_id":"levelo_inurba_marseille","lat":43.301429,"lon":5.37413,"is_reserved":false,"is_disabled":false,"rental_uris":{"android":"levelo://app?vid=8aa90576-5fcd-4176-bc45-c0ad5460d54d","ios":"levelo://app?vid=8aa90576-5fcd-4176-bc45-c0ad5460d54d"},"vehicle_type_id":"4","last_reported":1713888545,"current_range_meters":30400,"station_id":"ce4bgs92rcd13ifvqcc0","pricing_plan_id":"cebpf4jnsgd1na2vs0mg"},{"bike_id":"32abbdc0-0abf-487a-ae24-64c4cdfad9fe","system_id":"levelo_inurba_marseille","lat":43.295997,"lon":5.380973,"is_reserved":false,"is_disabled":false,"rental_uris":{"android":"levelo://app?vid=32abbdc0-0abf-487a-ae24-64c4cdfad9fe","ios":"levelo://app?vid=32abbdc0-0abf-487a-ae24-64c4cdfad9fe"},"vehicle_type_id":"4","last_reported":1713888545,"current_range_meters":14800,"station_id":"ce4bgl12rcd13ifvqbo0","pricing_plan_id":"cebpf4jnsgd1na2vs0mg"},{"bike_id":"b69c331a-530e-43f0-82db-b1d920c65bfe","system_id":"levelo_inurba_marseille","lat":43.296131,"lon":5.370773,"is_reserved":false,"is_disabled":false,"rental_uris":{"android":"levelo://app?vid=b69c331a-530e-43f0-82db-b1d920c65bfe","ios":"levelo://app?vid=b69c331a-530e-43f0-82db-b1d920c65bfe"},"vehicle_type_id":"4","last_reported":1713888545,"current_range_meters":26800,"station_id":"ce4bgnh2rcd13ifvqc0g","pricing_plan_id":"cebpf4jnsgd1na2vs0mg"},{"bike_id":"ac4a21a5-358e-452a-ae03-e1818a15c6aa","system_id":"levelo_inurba_marseille","lat":43.30591,"lon":5.39346,"is_reserved":false,"is_disabled":false,"rental_uris":{"android":"levelo://app?vid=ac4a21a5-358e-452a-ae03-e1818a15c6aa","ios":"levelo://app?vid=ac4a21a5-358e-452a-ae03-e1818a15c6aa"},"vehicle_type_id":"4","last_reported":1713888545,"current_range_meters":0,"station_id":"ce4bh0p2rcd13ifvqd80","pricing_plan_id":"cebpf4jnsgd1na2vs0mg"},{"bike_id":"3f805509-aac4-4b8a-888c-874b3c18a2e9","system_id":"levelo_inurba_marseille","lat":43.305994,"lon":5.393687,"is_reserved":false,"is_disabled":false,"rental_uris":{"android":"levelo://app?vid=3f805509-aac4-4b8a-888c-874b3c18a2e9","ios":"levelo://app?vid=3f805509-aac4-4b8a-888c-874b3c18a2e9"},"vehicle_type_id":"4","last_reported":1713888545,"current_range_meters":27600,"station_id":"ce4bh0p2rcd13ifvqd80","pricing_plan_id":"cebpf4jnsgd1na2vs0mg"},{"bike_id":"2c62173c-9008-4d50-8fb8-b6753eba37ac","system_id":"levelo_inurba_marseille","lat":43.305994,"lon":5.393687,"is_reserved":false,"is_disabled":false,"rental_uris":{"android":"levelo://app?vid=2c62173c-9008-4d50-8fb8-b6753eba37ac","ios":"levelo://app?vid=2c62173c-9008-4d50-8fb8-b6753eba37ac"},"vehicle_type_id":"4","last_reported":1713888545,"current_range_meters":7200,"station_id":"ce4bh0p2rcd13ifvqd80","pricing_plan_id":"cebpf4jnsgd1na2vs0mg"},{"bike_id":"fbe42bf2-78a2-4fc3-ae7d-34c5fdf714ee","system_id":"levelo_inurba_marseille","lat":43.305994,"lon":5.393687,"is_reserved":false,"is_disabled":false,"rental_uris":{"android":"levelo://app?vid=fbe42bf2-78a2-4fc3-ae7d-34c5fdf714ee","ios":"levelo://app?vid=fbe42bf2-78a2-4fc3-ae7d-34c5fdf714ee"},"vehicle_type_id":"4","last_reported":1713888545,"current_range_meters":26000,"station_id":"ce4bh0p2rcd13ifvqd80","pricing_plan_id":"cebpf4jnsgd1na2vs0mg"},{"bike_id":"e180c1b6-29f8-4031-b508-e455ac6294aa","system_id":"levelo_inurba_marseille","lat":43.305994,"lon":5.393687,"is_reserved":false,"is_disabled":false,"rental_uris":{"android":"levelo://app?vid=e180c1b6-29f8-4031-b508-e455ac6294aa","ios":"levelo://app?vid=e180c1b6-29f8-4031-b508-e455ac6294aa"},"vehicle_type_id":"4","last_reported":1713888545,"current_range_meters":20400,"station_id":"ce4bh0p2rcd13ifvqd80","pricing_plan_id":"cebpf4jnsgd1na2vs0mg"},{"bike_id":"18d31608-3891-44aa-b580-07f841807bb2","system_id":"levelo_inurba_marseille","lat":43.302992,"lon":5.392136,"is_reserved":false,"is_disabled":false,"rental_uris":{"android":"levelo://app?vid=18d31608-3891-44aa-b580-07f841807bb2","ios":"levelo://app?vid=18d31608-3891-44aa-b580-07f841807bb2"},"vehicle_type_id":"4","last_reported":1713888545,"current_range_meters":28400,"station_id":"ce4bgkh2rcd13ifvqbk0","pricing_plan_id":"cebpf4jnsgd1na2vs0mg"},{"bike_id":"4fd274d0-4f9c-4087-b797-897023ffcb33","system_id":"levelo_inurba_marseille","lat":43.303028,"lon":5.392023,"is_reserved":false,"is_disabled":false,"rental_uris":{"android":"levelo://app?vid=4fd274d0-4f9c-4087-b797-897023ffcb33","ios":"levelo://app?vid=4fd274d0-4f9c-4087-b797-897023ffcb33"},"vehicle_type_id":"4","last_reported":1713888545,"current_range_meters":26000,"station_id":"ce4bgkh2rcd13ifvqbk0","pricing_plan_id":"cebpf4jnsgd1na2vs0mg"},{"bike_id":"aa6bac78-5f9a-4e0b-842c-44203a31a01f","system_id":"levelo_inurba_marseille","lat":43.303002,"lon":5.392142,"is_reserved":false,"is_disabled":false,"rental_uris":{"android":"levelo://app?vid=aa6bac78-5f9a-4e0b-842c-44203a31a01f","ios":"levelo://app?vid=aa6bac78-5f9a-4e0b-842c-44203a31a01f"},"vehicle_type_id":"4","last_reported":1713888545,"current_range_meters":26000,"station_id":"ce4bgkh2rcd13ifvqbk0","pricing_plan_id":"cebpf4jnsgd1na2vs0mg"},{"bike_id":"972ce945-8c69-4182-984c-747b6f5c9c33","system_id":"levelo_inurba_marseille","lat":43.293009,"lon":5.374584,"is_reserved":false,"is_disabled":false,"rental_uris":{"android":"levelo://app?vid=972ce945-8c69-4182-984c-747b6f5c9c33","ios":"levelo://app?vid=972ce945-8c69-4182-984c-747b6f5c9c33"},"vehicle_type_id":"4","last_reported":1713888545,"current_range_meters":15600,"station_id":"ce4bgi12rcd13ifvqb70","pricing_plan_id":"cebpf4jnsgd1na2vs0mg"},{"bike_id":"a4b4fd82-6acc-42b8-9493-a8428b96c556","system_id":"levelo_inurba_marseille","lat":43.303002,"lon":5.392142,"is_reserved":false,"is_disabled":false,"rental_uris":{"android":"levelo://app?vid=a4b4fd82-6acc-42b8-9493-a8428b96c556","ios":"levelo://app?vid=a4b4fd82-6acc-42b8-9493-a8428b96c556"},"vehicle_type_id":"4","last_reported":1713888545,"current_range_meters":26400,"station_id":"ce4bgkh2rcd13ifvqbk0","pricing_plan_id":"cebpf4jnsgd1na2vs0mg"},{"bike_id":"bd69337c-4b26-4017-8762-dfcc67e59f49","system_id":"levelo_inurba_marseille","lat":43.303002,"lon":5.392142,"is_reserved":false,"is_disabled":false,"rental_uris":{"android":"levelo://app?vid=bd69337c-4b26-4017-8762-dfcc67e59f49","ios":"levelo://app?vid=bd69337c-4b26-4017-8762-dfcc67e59f49"},"vehicle_type_id":"4","last_reported":1713888545,"current_range_meters":29600,"station_id":"ce4bgkh2rcd13ifvqbk0","pricing_plan_id":"cebpf4jnsgd1na2vs0mg"},{"bike_id":"f1751c9a-17ca-4408-988f-de5d0f880a76","system_id":"levelo_inurba_marseille","lat":43.311131,"lon":5.377651,"is_reserved":false,"is_disabled":false,"rental_uris":{"android":"levelo://app?vid=f1751c9a-17ca-4408-988f-de5d0f880a76","ios":"levelo://app?vid=f1751c9a-17ca-4408-988f-de5d0f880a76"},"vehicle_type_id":"4","last_reported":1713888545,"current_range_meters":4000,"station_id":"ce4bgt92rcd13ifvqcg0","pricing_plan_id":"cebpf4jnsgd1na2vs0mg"},{"bike_id":"55358bab-35f3-4ec0-a2f8-93b83406fd58","system_id":"levelo_inurba_marseille","lat":43.302992,"lon":5.392136,"is_reserved":false,"is_disabled":false,"rental_uris":{"android":"levelo://app?vid=55358bab-35f3-4ec0-a2f8-93b83406fd58","ios":"levelo://app?vid=55358bab-35f3-4ec0-a2f8-93b83406fd58"},"vehicle_type_id":"4","last_reported":1713888545,"current_range_meters":24400,"station_id":"ce4bgkh2rcd13ifvqbk0","pricing_plan_id":"cebpf4jnsgd1na2vs0mg"},{"bike_id":"ae5db62e-b856-4d70-956c-c978177f00ce","system_id":"levelo_inurba_marseille","lat":43.2936,"lon":5.37835,"is_reserved":false,"is_disabled":false,"rental_uris":{"android":"levelo://app?vid=ae5db62e-b856-4d70-956c-c978177f00ce","ios":"levelo://app?vid=ae5db62e-b856-4d70-956c-c978177f00ce"},"vehicle_type_id":"4","last_reported":1713888545,"current_range_meters":0,"station_id":"ce4bgjh2rcd13ifvqbf0","pricing_plan_id":"cebpf4jnsgd1na2vs0mg"},{"bike_id":"5044807e-0fcc-4cb9-8e4e-693fee71318a","system_id":"levelo_inurba_marseille","lat":43.303002,"lon":5.392142,"is_reserved":false,"is_disabled":false,"rental_uris":{"android":"levelo://app?vid=5044807e-0fcc-4cb9-8e4e-693fee71318a","ios":"levelo://app?vid=5044807e-0fcc-4cb9-8e4e-693fee71318a"},"vehicle_type_id":"4","last_reported":1713888545,"current_range_meters":12400,"station_id":"ce4bgkh2rcd13ifvqbk0","pricing_plan_id":"cebpf4jnsgd1na2vs0mg"},{"bike_id":"03bc160a-0411-4c02-8c7d-bd4124039b72","system_id":"levelo_inurba_marseille","lat":43.300852,"lon":5.390859,"is_reserved":false,"is_disabled":false,"rental_uris":{"android":"levelo://app?vid=03bc160a-0411-4c02-8c7d-bd4124039b72","ios":"levelo://app?vid=03bc160a-0411-4c02-8c7d-bd4124039b72"},"vehicle_type_id":"4","last_reported":1713888545,"current_range_meters":25600,"station_id":"ce4bh192rcd13ifvqdb0","pricing_plan_id":"cebpf4jnsgd1na2vs0mg"},{"bike_id":"f30e9d8d-29f6-4ece-bde8-dbe8e8bf7274","system_id":"levelo_inurba_marseille","lat":43.302992,"lon":5.392136,"is_reserved":false,"is_disabled":false,"rental_uris":{"android":"levelo://app?vid=f30e9d8d-29f6-4ece-bde8-dbe8e8bf7274","ios":"levelo://app?vid=f30e9d8d-29f6-4ece-bde8-dbe8e8bf7274"},"vehicle_type_id":"4","last_reported":1713888545,"current_range_meters":24800,"station_id":"ce4bgkh2rcd13ifvqbk0","pricing_plan_id":"cebpf4jnsgd1na2vs0mg"},{"bike_id":"d873c860-49d6-46ee-a159-1806de365305","system_id":"levelo_inurba_marseille","lat":43.29231,"lon":5.36071,"is_reserved":false,"is_disabled":false,"rental_uris":{"android":"levelo://app?vid=d873c860-49d6-46ee-a159-1806de365305","ios":"levelo://app?vid=d873c860-49d6-46ee-a159-1806de365305"},"vehicle_type_id":"4","last_reported":1713888545,"current_range_meters":20400,"station_id":"ce4bhbh2rcd13ifvqeqg","pricing_plan_id":"cebpf4jnsgd1na2vs0mg"},{"bike_id":"40e1ff11-6897-4f22-a1e0-9e204b2317a8","system_id":"levelo_inurba_marseille","lat":43.30085,"lon":5.390856,"is_reserved":false,"is_disabled":false,"rental_uris":{"android":"levelo://app?vid=40e1ff11-6897-4f22-a1e0-9e204b2317a8","ios":"levelo://app?vid=40e1ff11-6897-4f22-a1e0-9e204b2317a8"},"vehicle_type_id":"4","last_reported":1713888545,"current_range_meters":18800,"station_id":"ce4bh192rcd13ifvqdb0","pricing_plan_id":"cebpf4jnsgd1na2vs0mg"},{"bike_id":"934889b4-f84b-4dc3-879a-0db25446b78d","system_id":"levelo_inurba_marseille","lat":43.300852,"lon":5.390859,"is_reserved":false,"is_disabled":false,"rental_uris":{"android":"levelo://app?vid=934889b4-f84b-4dc3-879a-0db25446b78d","ios":"levelo://app?vid=934889b4-f84b-4dc3-879a-0db25446b78d"},"vehicle_type_id":"4","last_reported":1713888545,"current_range_meters":11600,"station_id":"ce4bh192rcd13ifvqdb0","pricing_plan_id":"cebpf4jnsgd1na2vs0mg"},{"bike_id":"e3452ebd-1c69-4ec9-8a8d-6853cc26cc22","system_id":"levelo_inurba_marseille","lat":43.300852,"lon":5.390859,"is_reserved":false,"is_disabled":false,"rental_uris":{"android":"levelo://app?vid=e3452ebd-1c69-4ec9-8a8d-6853cc26cc22","ios":"levelo://app?vid=e3452ebd-1c69-4ec9-8a8d-6853cc26cc22"},"vehicle_type_id":"4","last_reported":1713888545,"current_range_meters":28400,"station_id":"ce4bh192rcd13ifvqdb0","pricing_plan_id":"cebpf4jnsgd1na2vs0mg"},{"bike_id":"7ef8f78f-fb0d-4dc1-a6c6-9bfc883dc9c4","system_id":"levelo_inurba_marseille","lat":43.300852,"lon":5.390859,"is_reserved":false,"is_disabled":false,"rental_uris":{"android":"levelo://app?vid=7ef8f78f-fb0d-4dc1-a6c6-9bfc883dc9c4","ios":"levelo://app?vid=7ef8f78f-fb0d-4dc1-a6c6-9bfc883dc9c4"},"vehicle_type_id":"4","last_reported":1713888545,"current_range_meters":16400,"station_id":"ce4bh192rcd13ifvqdb0","pricing_plan_id":"cebpf4jnsgd1na2vs0mg"},{"bike_id":"e3eb9b90-c469-4ff7-855e-a48e5d4ef00c","system_id":"levelo_inurba_marseille","lat":43.298764,"lon":5.388973,"is_reserved":false,"is_disabled":false,"rental_uris":{"android":"levelo://app?vid=e3eb9b90-c469-4ff7-855e-a48e5d4ef00c","ios":"levelo://app?vid=e3eb9b90-c469-4ff7-855e-a48e5d4ef00c"},"vehicle_type_id":"4","last_reported":1713888545,"current_range_meters":2800,"station_id":"ce4bh392rcd13ifvqdl0","pricing_plan_id":"cebpf4jnsgd1na2vs0mg"},{"bike_id":"3332da14-161c-46c4-a398-996988cecec2","system_id":"levelo_inurba_marseille","lat":43.293009,"lon":5.374584,"is_reserved":false,"is_disabled":false,"rental_uris":{"android":"levelo://app?vid=3332da14-161c-46c4-a398-996988cecec2","ios":"levelo://app?vid=3332da14-161c-46c4-a398-996988cecec2"},"vehicle_type_id":"4","last_reported":1713888545,"current_range_meters":3200,"station_id":"ce4bgi12rcd13ifvqb70","pricing_plan_id":"cebpf4jnsgd1na2vs0mg"},{"bike_id":"724843d1-f870-4c14-8eb6-2668c45c00a0","system_id":"levelo_inurba_marseille","lat":43.296129,"lon":5.370777,"is_reserved":false,"is_disabled":false,"rental_uris":{"android":"levelo://app?vid=724843d1-f870-4c14-8eb6-2668c45c00a0","ios":"levelo://app?vid=724843d1-f870-4c14-8eb6-2668c45c00a0"},"vehicle_type_id":"4","last_reported":1713888545,"current_range_meters":8400,"station_id":"ce4bgnh2rcd13ifvqc0g","pricing_plan_id":"cebpf4jnsgd1na2vs0mg"},{"bike_id":"fd6c6162-64bc-487b-9268-a8ffa8c33f0d","system_id":"levelo_inurba_marseille","lat":43.291671,"lon":5.371575,"is_reserved":false,"is_disabled":false,"rental_uris":{"android":"levelo://app?vid=fd6c6162-64bc-487b-9268-a8ffa8c33f0d","ios":"levelo://app?vid=fd6c6162-64bc-487b-9268-a8ffa8c33f0d"},"vehicle_type_id":"4","last_reported":1713888545,"current_range_meters":12800,"station_id":"ce4bha92rcd13ifvqeh0","pricing_plan_id":"cebpf4jnsgd1na2vs0mg"},{"bike_id":"e35d46f8-5685-4591-ae9f-00908ebc97b4","system_id":"levelo_inurba_marseille","lat":43.2988,"lon":5.38895,"is_reserved":false,"is_disabled":false,"rental_uris":{"android":"levelo://app?vid=e35d46f8-5685-4591-ae9f-00908ebc97b4","ios":"levelo://app?vid=e35d46f8-5685-4591-ae9f-00908ebc97b4"},"vehicle_type_id":"4","last_reported":1713888545,"current_range_meters":10800,"station_id":"ce4bh392rcd13ifvqdl0","pricing_plan_id":"cebpf4jnsgd1na2vs0mg"},{"bike_id":"4fddf328-045c-4c0d-bc46-6abb7efaeaf9","system_id":"levelo_inurba_marseille","lat":43.298841,"lon":5.389097,"is_reserved":false,"is_disabled":false,"rental_uris":{"android":"levelo://app?vid=4fddf328-045c-4c0d-bc46-6abb7efaeaf9","ios":"levelo://app?vid=4fddf328-045c-4c0d-bc46-6abb7efaeaf9"},"vehicle_type_id":"4","last_reported":1713888545,"current_range_meters":24800,"station_id":"ce4bh392rcd13ifvqdl0","pricing_plan_id":"cebpf4jnsgd1na2vs0mg"},{"bike_id":"657874a4-d6ef-4208-ac6a-a3123c00057e","system_id":"levelo_inurba_marseille","lat":43.29877,"lon":5.38905,"is_reserved":false,"is_disabled":false,"rental_uris":{"android":"levelo://app?vid=657874a4-d6ef-4208-ac6a-a3123c00057e","ios":"levelo://app?vid=657874a4-d6ef-4208-ac6a-a3123c00057e"},"vehicle_type_id":"4","last_reported":1713888545,"current_range_meters":18000,"station_id":"ce4bh392rcd13ifvqdl0","pricing_plan_id":"cebpf4jnsgd1na2vs0mg"},{"bike_id":"1665d631-9fae-4e6f-abd9-8f49fcbf025d","system_id":"levelo_inurba_marseille","lat":43.298764,"lon":5.388973,"is_reserved":false,"is_disabled":false,"rental_uris":{"android":"levelo://app?vid=1665d631-9fae-4e6f-abd9-8f49fcbf025d","ios":"levelo://app?vid=1665d631-9fae-4e6f-abd9-8f49fcbf025d"},"vehicle_type_id":"4","last_reported":1713888545,"current_range_meters":25600,"station_id":"ce4bh392rcd13ifvqdl0","pricing_plan_id":"cebpf4jnsgd1na2vs0mg"},{"bike_id":"23d2efa2-b5fa-40bd-adc8-de3ea48dbbfd","system_id":"levelo_inurba_marseille","lat":43.298764,"lon":5.388973,"is_reserved":false,"is_disabled":false,"rental_uris":{"android":"levelo://app?vid=23d2efa2-b5fa-40bd-adc8-de3ea48dbbfd","ios":"levelo://app?vid=23d2efa2-b5fa-40bd-adc8-de3ea48dbbfd"},"vehicle_type_id":"4","last_reported":1713888545,"current_range_meters":27200,"station_id":"ce4bh392rcd13ifvqdl0","pricing_plan_id":"cebpf4jnsgd1na2vs0mg"},{"bike_id":"585944e5-b174-4f1c-a9ed-aedd20aef470","system_id":"levelo_inurba_marseille","lat":43.309047,"lon":5.396551,"is_reserved":false,"is_disabled":false,"rental_uris":{"android":"levelo://app?vid=585944e5-b174-4f1c-a9ed-aedd20aef470","ios":"levelo://app?vid=585944e5-b174-4f1c-a9ed-aedd20aef470"},"vehicle_type_id":"4","last_reported":1713888545,"current_range_meters":18400,"station_id":"ce4bh012rcd13ifvqcv0","pricing_plan_id":"cebpf4jnsgd1na2vs0mg"},{"bike_id":"080acadf-b668-4e46-b815-f8ed783ab772","system_id":"levelo_inurba_marseille","lat":43.291994,"lon":5.357886,"is_reserved":false,"is_disabled":false,"rental_uris":{"android":"levelo://app?vid=080acadf-b668-4e46-b815-f8ed783ab772","ios":"levelo://app?vid=080acadf-b668-4e46-b815-f8ed783ab772"},"vehicle_type_id":"4","last_reported":1713888545,"current_range_meters":17200,"station_id":"ce4bhb12rcd13ifvqel0","pricing_plan_id":"cebpf4jnsgd1na2vs0mg"},{"bike_id":"78de36d7-6df8-4fc5-8535-1faf25075482","system_id":"levelo_inurba_marseille","lat":43.309047,"lon":5.396551,"is_reserved":false,"is_disabled":false,"rental_uris":{"android":"levelo://app?vid=78de36d7-6df8-4fc5-8535-1faf25075482","ios":"levelo://app?vid=78de36d7-6df8-4fc5-8535-1faf25075482"},"vehicle_type_id":"4","last_reported":1713888545,"current_range_meters":20800,"station_id":"ce4bh012rcd13ifvqcv0","pricing_plan_id":"cebpf4jnsgd1na2vs0mg"},{"bike_id":"424ff77c-6c4a-410d-8a75-0a3ba41a66f2","system_id":"levelo_inurba_marseille","lat":43.292005,"lon":5.357875,"is_reserved":false,"is_disabled":false,"rental_uris":{"android":"levelo://app?vid=424ff77c-6c4a-410d-8a75-0a3ba41a66f2","ios":"levelo://app?vid=424ff77c-6c4a-410d-8a75-0a3ba41a66f2"},"vehicle_type_id":"4","last_reported":1713888545,"current_range_meters":26400,"station_id":"ce4bhb12rcd13ifvqel0","pricing_plan_id":"cebpf4jnsgd1na2vs0mg"},{"bike_id":"b30e7edd-4d60-409e-9a56-ed46e4c3cda1","system_id":"levelo_inurba_marseille","lat":43.309038,"lon":5.396546,"is_reserved":false,"is_disabled":false,"rental_uris":{"android":"levelo://app?vid=b30e7edd-4d60-409e-9a56-ed46e4c3cda1","ios":"levelo://app?vid=b30e7edd-4d60-409e-9a56-ed46e4c3cda1"},"vehicle_type_id":"4","last_reported":1713888545,"current_range_meters":15200,"station_id":"ce4bh012rcd13ifvqcv0","pricing_plan_id":"cebpf4jnsgd1na2vs0mg"},{"bike_id":"596a3b1a-09e1-49a5-a078-65fef0cd7bf1","system_id":"levelo_inurba_marseille","lat":43.313291,"lon":5.396838,"is_reserved":false,"is_disabled":false,"rental_uris":{"android":"levelo://app?vid=596a3b1a-09e1-49a5-a078-65fef0cd7bf1","ios":"levelo://app?vid=596a3b1a-09e1-49a5-a078-65fef0cd7bf1"},"vehicle_type_id":"4","last_reported":1713888545,"current_range_meters":26800,"station_id":"ce4bgvp2rcd13ifvqcu0","pricing_plan_id":"cebpf4jnsgd1na2vs0mg"},{"bike_id":"988e45bb-4a60-439a-842a-a194c5547e71","system_id":"levelo_inurba_marseille","lat":43.309047,"lon":5.396551,"is_reserved":false,"is_disabled":false,"rental_uris":{"android":"levelo://app?vid=988e45bb-4a60-439a-842a-a194c5547e71","ios":"levelo://app?vid=988e45bb-4a60-439a-842a-a194c5547e71"},"vehicle_type_id":"4","last_reported":1713888545,"current_range_meters":8400,"station_id":"ce4bh012rcd13ifvqcv0","pricing_plan_id":"cebpf4jnsgd1na2vs0mg"},{"bike_id":"bf6d4c96-089b-4adb-b725-c66a9b355ef7","system_id":"levelo_inurba_marseille","lat":43.313291,"lon":5.396838,"is_reserved":false,"is_disabled":false,"rental_uris":{"android":"levelo://app?vid=bf6d4c96-089b-4adb-b725-c66a9b355ef7","ios":"levelo://app?vid=bf6d4c96-089b-4adb-b725-c66a9b355ef7"},"vehicle_type_id":"4","last_reported":1713888545,"current_range_meters":0,"station_id":"ce4bgvp2rcd13ifvqcu0","pricing_plan_id":"cebpf4jnsgd1na2vs0mg"},{"bike_id":"e321408b-0e43-41da-993e-0db2c5de41c4","system_id":"levelo_inurba_marseille","lat":43.308903,"lon":5.396487,"is_reserved":false,"is_disabled":false,"rental_uris":{"android":"levelo://app?vid=e321408b-0e43-41da-993e-0db2c5de41c4","ios":"levelo://app?vid=e321408b-0e43-41da-993e-0db2c5de41c4"},"vehicle_type_id":"4","last_reported":1713888545,"current_range_meters":3200,"station_id":"ce4bh012rcd13ifvqcv0","pricing_plan_id":"cebpf4jnsgd1na2vs0mg"},{"bike_id":"abcc733a-6b50-4997-899d-6817c31810da","system_id":"levelo_inurba_marseille","lat":43.309047,"lon":5.396551,"is_reserved":false,"is_disabled":false,"rental_uris":{"android":"levelo://app?vid=abcc733a-6b50-4997-899d-6817c31810da","ios":"levelo://app?vid=abcc733a-6b50-4997-899d-6817c31810da"},"vehicle_type_id":"4","last_reported":1713888545,"current_range_meters":28800,"station_id":"ce4bh012rcd13ifvqcv0","pricing_plan_id":"cebpf4jnsgd1na2vs0mg"},{"bike_id":"99c1aadb-5a21-4499-b937-29e5937fabda","system_id":"levelo_inurba_marseille","lat":43.309038,"lon":5.396546,"is_reserved":false,"is_disabled":false,"rental_uris":{"android":"levelo://app?vid=99c1aadb-5a21-4499-b937-29e5937fabda","ios":"levelo://app?vid=99c1aadb-5a21-4499-b937-29e5937fabda"},"vehicle_type_id":"4","last_reported":1713888545,"current_range_meters":26000,"station_id":"ce4bh012rcd13ifvqcv0","pricing_plan_id":"cebpf4jnsgd1na2vs0mg"},{"bike_id":"dc6a11eb-1f9f-4cc7-90cc-065cce5f25ef","system_id":"levelo_inurba_marseille","lat":43.29529,"lon":5.385581,"is_reserved":false,"is_disabled":false,"rental_uris":{"android":"levelo://app?vid=dc6a11eb-1f9f-4cc7-90cc-065cce5f25ef","ios":"levelo://app?vid=dc6a11eb-1f9f-4cc7-90cc-065cce5f25ef"},"vehicle_type_id":"4","last_reported":1713888545,"current_range_meters":22000,"station_id":"ce4bgih2rcd13ifvqba0","pricing_plan_id":"cebpf4jnsgd1na2vs0mg"},{"bike_id":"a2cf1614-2937-4a30-8f45-3ff7029920dd","system_id":"levelo_inurba_marseille","lat":43.29529,"lon":5.385581,"is_reserved":false,"is_disabled":false,"rental_uris":{"android":"levelo://app?vid=a2cf1614-2937-4a30-8f45-3ff7029920dd","ios":"levelo://app?vid=a2cf1614-2937-4a30-8f45-3ff7029920dd"},"vehicle_type_id":"4","last_reported":1713888545,"current_range_meters":23200,"station_id":"ce4bgih2rcd13ifvqba0","pricing_plan_id":"cebpf4jnsgd1na2vs0mg"},{"bike_id":"7bbb660b-8a20-465c-b651-a84664088cf6","system_id":"levelo_inurba_marseille","lat":43.29529,"lon":5.385581,"is_reserved":false,"is_disabled":false,"rental_uris":{"android":"levelo://app?vid=7bbb660b-8a20-465c-b651-a84664088cf6","ios":"levelo://app?vid=7bbb660b-8a20-465c-b651-a84664088cf6"},"vehicle_type_id":"4","last_reported":1713888545,"current_range_meters":7200,"station_id":"ce4bgih2rcd13ifvqba0","pricing_plan_id":"cebpf4jnsgd1na2vs0mg"},{"bike_id":"7f226c65-311d-47c6-b702-65f9fa5194ea","system_id":"levelo_inurba_marseille","lat":43.29529,"lon":5.385581,"is_reserved":false,"is_disabled":false,"rental_uris":{"android":"levelo://app?vid=7f226c65-311d-47c6-b702-65f9fa5194ea","ios":"levelo://app?vid=7f226c65-311d-47c6-b702-65f9fa5194ea"},"vehicle_type_id":"4","last_reported":1713888545,"current_range_meters":22000,"station_id":"ce4bgih2rcd13ifvqba0","pricing_plan_id":"cebpf4jnsgd1na2vs0mg"},{"bike_id":"ddc0faac-de68-4bb4-b567-e4c319c4f59a","system_id":"levelo_inurba_marseille","lat":43.29529,"lon":5.385581,"is_reserved":false,"is_disabled":false,"rental_uris":{"android":"levelo://app?vid=ddc0faac-de68-4bb4-b567-e4c319c4f59a","ios":"levelo://app?vid=ddc0faac-de68-4bb4-b567-e4c319c4f59a"},"vehicle_type_id":"4","last_reported":1713888545,"current_range_meters":8400,"station_id":"ce4bgih2rcd13ifvqba0","pricing_plan_id":"cebpf4jnsgd1na2vs0mg"},{"bike_id":"02230193-af71-4a20-8901-5f9a16103a51","system_id":"levelo_inurba_marseille","lat":43.29529,"lon":5.385581,"is_reserved":false,"is_disabled":false,"rental_uris":{"android":"levelo://app?vid=02230193-af71-4a20-8901-5f9a16103a51","ios":"levelo://app?vid=02230193-af71-4a20-8901-5f9a16103a51"},"vehicle_type_id":"4","last_reported":1713888545,"current_range_meters":20000,"station_id":"ce4bgih2rcd13ifvqba0","pricing_plan_id":"cebpf4jnsgd1na2vs0mg"},{"bike_id":"ba0a90df-997c-4280-b4f4-b264f1746343","system_id":"levelo_inurba_marseille","lat":43.294153,"lon":5.386305,"is_reserved":false,"is_disabled":false,"rental_uris":{"android":"levelo://app?vid=ba0a90df-997c-4280-b4f4-b264f1746343","ios":"levelo://app?vid=ba0a90df-997c-4280-b4f4-b264f1746343"},"vehicle_type_id":"4","last_reported":1713888545,"current_range_meters":18800,"station_id":"ce4bh2h2rcd13ifvqdh0","pricing_plan_id":"cebpf4jnsgd1na2vs0mg"},{"bike_id":"7c5d497e-0c5d-4488-b90f-909ff79179c5","system_id":"levelo_inurba_marseille","lat":43.302008,"lon":5.394694,"is_reserved":false,"is_disabled":false,"rental_uris":{"android":"levelo://app?vid=7c5d497e-0c5d-4488-b90f-909ff79179c5","ios":"levelo://app?vid=7c5d497e-0c5d-4488-b90f-909ff79179c5"},"vehicle_type_id":"4","last_reported":1713888545,"current_range_meters":14400,"station_id":"ce4bh0p2rcd13ifvqd70","pricing_plan_id":"cebpf4jnsgd1na2vs0mg"},{"bike_id":"755cb5d4-5d7d-4f5c-9c42-2dfd63082f9d","system_id":"levelo_inurba_marseille","lat":43.302008,"lon":5.394694,"is_reserved":false,"is_disabled":false,"rental_uris":{"android":"levelo://app?vid=755cb5d4-5d7d-4f5c-9c42-2dfd63082f9d","ios":"levelo://app?vid=755cb5d4-5d7d-4f5c-9c42-2dfd63082f9d"},"vehicle_type_id":"4","last_reported":1713888545,"current_range_meters":17600,"station_id":"ce4bh0p2rcd13ifvqd70","pricing_plan_id":"cebpf4jnsgd1na2vs0mg"},{"bike_id":"359036d9-ade8-46e6-9cc7-b7df92f43f9c","system_id":"levelo_inurba_marseille","lat":43.290631,"lon":5.359244,"is_reserved":false,"is_disabled":false,"rental_uris":{"android":"levelo://app?vid=359036d9-ade8-46e6-9cc7-b7df92f43f9c","ios":"levelo://app?vid=359036d9-ade8-46e6-9cc7-b7df92f43f9c"},"vehicle_type_id":"4","last_reported":1713888545,"current_range_meters":22000,"station_id":"ce4bha92rcd13ifvqeg0","pricing_plan_id":"cebpf4jnsgd1na2vs0mg"},{"bike_id":"36bf74c9-d873-4af9-b292-b321afad352d","system_id":"levelo_inurba_marseille","lat":43.290624,"lon":5.359245,"is_reserved":false,"is_disabled":false,"rental_uris":{"android":"levelo://app?vid=36bf74c9-d873-4af9-b292-b321afad352d","ios":"levelo://app?vid=36bf74c9-d873-4af9-b292-b321afad352d"},"vehicle_type_id":"4","last_reported":1713888545,"current_range_meters":22000,"station_id":"ce4bha92rcd13ifvqeg0","pricing_plan_id":"cebpf4jnsgd1na2vs0mg"},{"bike_id":"932f124c-4e98-466a-8962-fff5555f8841","system_id":"levelo_inurba_marseille","lat":43.290631,"lon":5.359244,"is_reserved":false,"is_disabled":false,"rental_uris":{"android":"levelo://app?vid=932f124c-4e98-466a-8962-fff5555f8841","ios":"levelo://app?vid=932f124c-4e98-466a-8962-fff5555f8841"},"vehicle_type_id":"4","last_reported":1713888545,"current_range_meters":31200,"station_id":"ce4bha92rcd13ifvqeg0","pricing_plan_id":"cebpf4jnsgd1na2vs0mg"},{"bike_id":"b8ad5140-a5e7-4e44-ab92-b60518a34257","system_id":"levelo_inurba_marseille","lat":43.294153,"lon":5.386305,"is_reserved":false,"is_disabled":false,"rental_uris":{"android":"levelo://app?vid=b8ad5140-a5e7-4e44-ab92-b60518a34257","ios":"levelo://app?vid=b8ad5140-a5e7-4e44-ab92-b60518a34257"},"vehicle_type_id":"4","last_reported":1713888545,"current_range_meters":9600,"station_id":"ce4bh2h2rcd13ifvqdh0","pricing_plan_id":"cebpf4jnsgd1na2vs0mg"},{"bike_id":"4e58720a-6f4c-4217-b6e0-2038526a0980","system_id":"levelo_inurba_marseille","lat":43.294153,"lon":5.386305,"is_reserved":false,"is_disabled":false,"rental_uris":{"android":"levelo://app?vid=4e58720a-6f4c-4217-b6e0-2038526a0980","ios":"levelo://app?vid=4e58720a-6f4c-4217-b6e0-2038526a0980"},"vehicle_type_id":"4","last_reported":1713888545,"current_range_meters":16800,"station_id":"ce4bh2h2rcd13ifvqdh0","pricing_plan_id":"cebpf4jnsgd1na2vs0mg"},{"bike_id":"632fd4c0-30ab-450d-b895-3190ed420156","system_id":"levelo_inurba_marseille","lat":43.294153,"lon":5.386305,"is_reserved":false,"is_disabled":false,"rental_uris":{"android":"levelo://app?vid=632fd4c0-30ab-450d-b895-3190ed420156","ios":"levelo://app?vid=632fd4c0-30ab-450d-b895-3190ed420156"},"vehicle_type_id":"4","last_reported":1713888545,"current_range_meters":27600,"station_id":"ce4bh2h2rcd13ifvqdh0","pricing_plan_id":"cebpf4jnsgd1na2vs0mg"},{"bike_id":"fbd021c5-12ad-4da7-828b-4a8a28539a8a","system_id":"levelo_inurba_marseille","lat":43.294153,"lon":5.386305,"is_reserved":false,"is_disabled":false,"rental_uris":{"android":"levelo://app?vid=fbd021c5-12ad-4da7-828b-4a8a28539a8a","ios":"levelo://app?vid=fbd021c5-12ad-4da7-828b-4a8a28539a8a"},"vehicle_type_id":"4","last_reported":1713888545,"current_range_meters":3200,"station_id":"ce4bh2h2rcd13ifvqdh0","pricing_plan_id":"cebpf4jnsgd1na2vs0mg"},