{"last_updated":1723388833,"ttl":30,"version":"2.2","data":{"bikes":[{"bike_id":"0a0d1504-0816-45d1-a14b-7aedf3610e22","system_id":"levelo_inurba_marseille","lat":43.31443,"lon":5.3737,"is_reserved":false,"is_disabled":false,"rental_uris":{"android":"levelo://app?vid=0a0d1504-0816-45d1-a14b-7aedf3610e22","ios":"levelo://app?vid=0a0d1504-0816-45d1-a14b-7aedf3610e22"},"vehicle_type_id":"4","last_reported":1723388833,"current_range_meters":6400,"station_id":"","pricing_plan_id":"cebpf4jnsgd1na2vs0mg"},{"bike_id":"e49f89be-e94d-4d45-9ead-24cced54d7ab","system_id":"levelo_inurba_marseille","lat":43.309034,"lon":5.371783,"is_reserved":false,"is_disabled":false,"rental_uris":{"android":"levelo://app?vid=e49f89be-e94d-4d45-9ead-24cced54d7ab","ios":"levelo://app?vid=e49f89be-e94d-4d45-9ead-24cced54d7ab"},"vehicle_type_id":"4","last_reported":1723388833,"current_range_meters":27600,"station_id":"ce4bguh2rcd13ifvqckg","pricing_plan_id":"cebpf4jnsgd1na2vs0mg"},{"bike_id":"80f9f110-4ffc-4297-bf57-2bf2a710da39","system_id":"levelo_inurba_marseille","lat":43.319601,"lon":5.369352,"is_reserved":false,"is_disabled":false,"rental_uris":{"android":"levelo://app?vid=80f9f110-4ffc-4297-bf57-2bf2a710da39","ios":"levelo://app?vid=80f9f110-4ffc-4297-bf57-2bf2a710da39"},"vehicle_type_id":"4","last_reported":1723388833,"current_range_meters":12800,"station_id":"","pricing_plan_id":"cebpf4jnsgd1na2vs0mg"},{"bike_id":"dab50942-5e34-4be7-b504-ae379fdac159","system_id":"levelo_inurba_marseille","lat":43.30615,"lon":5.37217,"is_reserved":false,"is_disabled":false,"rental_uris":{"android":"levelo://app?vid=dab50942-5e34-4be7-b504-ae379fdac159","ios":"levelo://app?vid=dab50942-5e34-4be7-b504-ae379fdac159"},"vehicle_type_id":"4","last_reported":1723388833,"current_range_meters":2000,"station_id":"ce4bgqh2rcd13ifvqc4g","pricing_plan_id":"cebpf4jnsgd1na2vs0mg"},{"bike_id":"bf3a0b87-c869-4864-be58-a432a81c6276","system_id":"levelo_inurba_marseille","lat":43.305989,"lon":5.37225,"is_reserved":false,"is_disabled":false,"rental_uris":{"android":"levelo://app?vid=bf3a0b87-c869-4864-be58-a432a81c6276","ios":"levelo://app?vid=bf3a0b87-c869-4864-be58-a432a81c6276"},"vehicle_type_id":"4","last_reported":1723388833,"current_range_meters":23200,"station_id":"ce4bgqh2rcd13ifvqc4g","pricing_plan_id":"cebpf4jnsgd1na2vs0mg"},{"bike_id":"556e5e20-8d05-4546-9e14-7c40c7213a36","system_id":"levelo_inurba_marseille","lat":43.305989,"lon":5.37225,"is_reserved":false,"is_disabled":false,"rental_uris":{"android":"levelo://app?vid=556e5e20-8d05-4546-9e14-7c40c7213a36","ios":"levelo://app?vid=556e5e20-8d05-4546-9e14-7c40c7213a36"},"vehicle_type_id":"4","last_reported":1723388833,"current_range_meters":7200,"station_id":"ce4bgqh2rcd13ifvqc4g","pricing_plan_id":"cebpf4jnsgd1na2vs0mg"},{"bike_id":"63dd8a4b-3b37-4277-a9f1-98c3f5b1ccab","system_id":"levelo_inurba_marseille","lat":43.305989,"lon":5.37225,"is_reserved":false,"is_disabled":false,"rental_uris":{"android":"levelo://app?vid=63dd8a4b-3b37-4277-a9f1-98c3f5b1ccab","ios":"levelo://app?vid=63dd8a4b-3b37-4277-a9f1-98c3f5b1ccab"},"vehicle_type_id":"4","last_reported":1723388833,"current_range_meters":18000,"station_id":"ce4bgqh2rcd13ifvqc4g","pricing_plan_id":"cebpf4jnsgd1na2vs0mg"},{"bike_id":"47ab952a-d1ba-44bc-ade9-38782477d9c3","system_id":"levelo_inurba_marseille","lat":43.305989,"lon":5.37225,"is_reserved":false,"is_disabled":false,"rental_uris":{"android":"levelo://app?vid=47ab952a-d1ba-44bc-ade9-38782477d9c3","ios":"levelo://app?vid=47ab952a-d1ba-44bc-ade9-38782477d9c3"},"vehicle_type_id":"4","last_reported":1723388833,"current_range_meters":22000,"station_id":"ce4bgqh2rcd13ifvqc4g","pricing_plan_id":"cebpf4jnsgd1na2vs0mg"},{"bike_id":"7b220b0e-3a91-409e-9a93-82f8bd65cbeb","system_id":"levelo_inurba_marseille","lat":43.305989,"lon":5.37225,"is_reserved":false,"is_disabled":false,"rental_uris":{"android":"levelo://app?vid=7b220b0e-3a91-409e-9a93-82f8bd65cbeb","ios":"levelo://app?vid=7b220b0e-3a91-409e-9a93-82f8bd65cbeb"},"vehicle_type_id":"4","last_reported":1723388833,"current_range_meters":16000,"station_id":"ce4bgqh2rcd13ifvqc4g","pricing_plan_id":"cebpf4jnsgd1na2vs0mg"},{"bike_id":"b9a35680-06f5-4096-bbd6-3f4a2b1adc36","system_id":"levelo_inurba_marseille","lat":43.303046,"lon":5.368981,"is_reserved":false,"is_disabled":false,"rental_uris":{"android":"levelo://app?vid=b9a35680-06f5-4096-bbd6-3f4a2b1adc36","ios":"levelo://app?vid=b9a35680-06f5-4096-bbd6-3f4a2b1adc36"},"vehicle_type_id":"4","last_reported":1723388833,"current_range_meters":0,"station_id":"ce4bgqh2rcd13ifvqc5g","pricing_plan_id":"cebpf4jnsgd1na2vs0mg"},{"bike_id":"62e52f4b-ade1-4a14-ac20-acd9482b6eb9","system_id":"levelo_inurba_marseille","lat":43.315289,"lon":5.380349,"is_reserved":false,"is_disabled":false,"rental_uris":{"android":"levelo://app?vid=62e52f4b-ade1-4a14-ac20-acd9482b6eb9","ios":"levelo://app?vid=62e52f4b-ade1-4a14-ac20-acd9482b6eb9"},"vehicle_type_id":"4","last_reported":1723388833,"current_range_meters":4400,"station_id":"ce4bhsp2rcd13ifvqi50","pricing_plan_id":"cebpf4jnsgd1na2vs0mg"},{"bike_id":"70fd6274-768f-4192-b9f2-0a916aa5fe41","system_id":"levelo_inurba_marseille","lat":43.308012,"lon":5.381511,"is_reserved":false,"is_disabled":false,"rental_uris":{"android":"levelo://app?vid=70fd6274-768f-4192-b9f2-0a916aa5fe41","ios":"levelo://app?vid=70fd6274-768f-4192-b9f2-0a916aa5fe41"},"vehicle_type_id":"4","last_reported":1723388833,"current_range_meters":4800,"station_id":"ce4bgt12rcd13ifvqce0","pricing_plan_id":"cebpf4jnsgd1na2vs0mg"},{"bike_id":"e930157b-35c9-4684-815d-f8fb89c5a610","system_id":"levelo_inurba_marseille","lat":43.304606,"lon":5.379026,"is_reserved":false,"is_disabled":false,"rental_uris":{"android":"levelo://app?vid=e930157b-35c9-4684-815d-f8fb89c5a610","ios":"levelo://app?vid=e930157b-35c9-4684-815d-f8fb89c5a610"},"vehicle_type_id":"4","last_reported":1723388833,"current_range_meters":27200,"station_id":"ce4bgup2rcd13ifvqcn0","pricing_plan_id":"cebpf4jnsgd1na2vs0mg"},{"bike_id":"1da81c26-c197-4131-86cf-15e5c09a424b","system_id":"levelo_inurba_marseille","lat":43.304606,"lon":5.379026,"is_reserved":false,"is_disabled":false,"rental_uris":{"android":"levelo://app?vid=1da81c26-c197-4131-86cf-15e5c09a424b","ios":"levelo://app?vid=1da81c26-c197-4131-86cf-15e5c09a424b"},"vehicle_type_id":"4","last_reported":1723388833,"current_range_meters":20800,"station_id":"ce4bgup2rcd13ifvqcn0","pricing_plan_id":"cebpf4jnsgd1na2vs0mg"},{"bike_id":"5559099b-b75c-42a1-8379-93d2a40ac2ea","system_id":"levelo_inurba_marseille","lat":43.324771,"lon":5.36557,"is_reserved":false,"is_disabled":false,"rental_uris":{"android":"levelo://app?vid=5559099b-b75c-42a1-8379-93d2a40ac2ea","ios":"levelo://app?vid=5559099b-b75c-42a1-8379-93d2a40ac2ea"},"vehicle_type_id":"4","last_reported":1723388833,"current_range_meters":5600,"station_id":"ce4bhs12rcd13ifvqhvg","pricing_plan_id":"cebpf4jnsgd1na2vs0mg"},{"bike_id":"6274f13f-6fa8-4269-aefd-7938f85eec7d","system_id":"levelo_inurba_marseille","lat":43.3248,"lon":5.36571,"is_reserved":false,"is_disabled":false,"rental_uris":{"android":"levelo://app?vid=6274f13f-6fa8-4269-aefd-7938f85eec7d","ios":"levelo://app?vid=6274f13f-6fa8-4269-aefd-7938f85eec7d"},"vehicle_type_id":"4","last_reported":1723388833,"current_range_meters":10800,"station_id":"ce4bhs12rcd13ifvqhvg","pricing_plan_id":"cebpf4jnsgd1na2vs0mg"},{"bike_id":"9f237d26-13f9-406e-ac61-ac99ecfc6290","system_id":"levelo_inurba_marseille","lat":43.324771,"lon":5.36557,"is_reserved":false,"is_disabled":false,"rental_uris":{"android":"levelo://app?vid=9f237d26-13f9-406e-ac61-ac99ecfc6290","ios":"levelo://app?vid=9f237d26-13f9-406e-ac61-ac99ecfc6290"},"vehicle_type_id":"4","last_reported":1723388833,"current_range_meters":28400,"station_id":"ce4bhs12rcd13ifvqhvg","pricing_plan_id":"cebpf4jnsgd1na2vs0mg"},{"bike_id":"081007f9-31dc-4b77-b8f2-8dffedab8808","system_id":"levelo_inurba_marseille","lat":43.324771,"lon":5.36557,"is_reserved":false,"is_disabled":false,"rental_uris":{"android":"levelo://app?vid=081007f9-31dc-4b77-b8f2-8dffedab8808","ios":"levelo://app?vid=081007f9-31dc-4b77-b8f2-8dffedab8808"},"vehicle_type_id":"4","last_reported":1723388833,"current_range_meters":16800,"station_id":"ce4bhs12rcd13ifvqhvg","pricing_plan_id":"cebpf4jnsgd1na2vs0mg"},{"bike_id":"e808a47c-f1ab-49c8-9868-162ce164be9e","system_id":"levelo_inurba_marseille","lat":43.324771,"lon":5.36557,"is_reserved":false,"is_disabled":false,"rental_uris":{"android":"levelo://app?vid=e808a47c-f1ab-49c8-9868-162ce164be9e","ios":"levelo://app?vid=e808a47c-f1ab-49c8-9868-162ce164be9e"},"vehicle_type_id":"4","last_reported":1723388833,"current_range_meters":31200,"station_id":"ce4bhs12rcd13ifvqhvg","pricing_plan_id":"cebpf4jnsgd1na2vs0mg"},{"bike_id":"4bf5be37-0c95-48b4-b540-09fa58a1f6ed","system_id":"levelo_inurba_marseille","lat":43.324771,"lon":5.36557,"is_reserved":false,"is_disabled":false,"rental_uris":{"android":"levelo://app?vid=4bf5be37-0c95-48b4-b540-09fa58a1f6ed","ios":"levelo://app?vid=4bf5be37-0c95-48b4-b540-09fa58a1f6ed"},"vehicle_type_id":"4","last_reported":1723388833,"current_range_meters":28400,"station_id":"ce4bhs12rcd13ifvqhvg","pricing_plan_id":"cebpf4jnsgd1na2vs0mg"},{"bike_id":"1ffad33b-bb6d-44b8-aa35-c11639d0650c","system_id":"levelo_inurba_marseille","lat":43.324771,"lon":5.36557,"is_reserved":false,"is_disabled":false,"rental_uris":{"android":"levelo://app?vid=1ffad33b-bb6d-44b8-aa35-c11639d0650c","ios":"levelo://app?vid=1ffad33b-bb6d-44b8-aa35-c11639d0650c"},"vehicle_type_id":"4","last_reported":1723388833,"current_range_meters":26800,"station_id":"ce4bhs12rcd13ifvqhvg","pricing_plan_id":"cebpf4jnsgd1na2vs0mg"},{"bike_id":"fb0f1b85-1d32-466f-b6c4-ddbd98765a7f","system_id":"levelo_inurba_marseille","lat":43.324771,"lon":5.36557,"is_reserved":false,"is_disabled":false,"rental_uris":{"android":"levelo://app?vid=fb0f1b85-1d32-466f-b6c4-ddbd98765a7f","ios":"levelo://app?vid=fb0f1b85-1d32-466f-b6c4-ddbd98765a7f"},"vehicle_type_id":"4","last_reported":1723388833,"current_range_meters":14000,"station_id":"ce4bhs12rcd13ifvqhvg","pricing_plan_id":"cebpf4jnsgd1na2vs0mg"},{"bike_id":"e5000063-db07-4064-adf1-e6b77f0e18ee","system_id":"levelo_inurba_marseille","lat":43.324771,"lon":5.36557,"is_reserved":false,"is_disabled":false,"rental_uris":{"android":"levelo://app?vid=e5000063-db07-4064-adf1-e6b77f0e18ee","ios":"levelo://app?vid=e5000063-db07-4064-adf1-e6b77f0e18ee"},"vehicle_type_id":"4","last_reported":1723388833,"current_range_meters":31200,"station_id":"ce4bhs12rcd13ifvqhvg","pricing_plan_id":"cebpf4jnsgd1na2vs0mg"},{"bike_id":"75a43ee6-e251-4740-af8e-bff42a826b72","system_id":"levelo_inurba_marseille","lat":43.324771,"lon":5.36557,"is_reserved":false,"is_disabled":false,"rental_uris":{"android":"levelo://app?vid=75a43ee6-e251-4740-af8e-bff42a826b72","ios":"levelo://app?vid=75a43ee6-e251-4740-af8e-bff42a826b72"},"vehicle_type_id":"4","last_reported":1723388833,"current_range_meters":7200,"station_id":"ce4bhs12rcd13ifvqhvg","pricing_plan_id":"cebpf4jnsgd1na2vs0mg"},{"bike_id":"19361ee9-48d5-412d-ac99-d0c97d7bccb4","system_id":"levelo_inurba_marseille","lat":43.324852,"lon":5.365641,"is_reserved":false,"is_disabled":false,"rental_uris":{"android":"levelo://app?vid=19361ee9-48d5-412d-ac99-d0c97d7bccb4","ios":"levelo://app?vid=19361ee9-48d5-412d-ac99-d0c97d7bccb4"},"vehicle_type_id":"4","last_reported":1723388833,"current_range_meters":24400,"station_id":"ce4bhs12rcd13ifvqhvg","pricing_plan_id":"cebpf4jnsgd1na2vs0mg"},{"bike_id":"57e8995c-1fc9-4244-abcf-1bf85026f973","system_id":"levelo_inurba_marseille","lat":43.324862,"lon":5.36571,"is_reserved":false,"is_disabled":false,"rental_uris":{"android":"levelo://app?vid=57e8995c-1fc9-4244-abcf-1bf85026f973","ios":"levelo://app?vid=57e8995c-1fc9-4244-abcf-1bf85026f973"},"vehicle_type_id":"4","last_reported":1723388833,"current_range_meters":9600,"station_id":"ce4bhs12rcd13ifvqhvg","pricing_plan_id":"cebpf4jnsgd1na2vs0mg"},{"bike_id":"47a37007-2503-429b-8ec0-7a48f3cb93f8","system_id":"levelo_inurba_marseille","lat":43.310804,"lon":5.38359,"is_reserved":false,"is_disabled":false,"rental_uris":{"android":"levelo://app?vid=47a37007-2503-429b-8ec0-7a48f3cb93f8","ios":"levelo://app?vid=47a37007-2503-429b-8ec0-7a48f3cb93f8"},"vehicle_type_id":"4","last_reported":1723388833,"current_range_meters":19200,"station_id":"ce4bgv92rcd13ifvqcr0","pricing_plan_id":"cebpf4jnsgd1na2vs0mg"},{"bike_id":"a3c741c2-052e-4da0-bfee-31ef42076999","system_id":"levelo_inurba_marseille","lat":43.324771,"lon":5.36557,"is_reserved":false,"is_disabled":false,"rental_uris":{"android":"levelo://app?vid=a3c741c2-052e-4da0-bfee-31ef42076999","ios":"levelo://app?vid=a3c741c2-052e-4da0-bfee-31ef42076999"},"vehicle_type_id":"4","last_reported":1723388833,"current_range_meters":21600,"station_id":"ce4bhs12rcd13ifvqhvg","pricing_plan_id":"cebpf4jnsgd1na2vs0mg"},{"bike_id":"5b51049b-8e21-4ade-a816-94bfa1722689","system_id":"levelo_inurba_marseille","lat":43.30143,"lon":5.37413,"is_reserved":false,"is_disabled":false,"rental_uris":{"android":"levelo://app?vid=5b51049b-8e21-4ade-a816-94bfa1722689","ios":"levelo://app?vid=5b51049b-8e21-4ade-a816-94bfa1722689"},"vehicle_type_id":"4","last_reported":1723388833,"current_range_meters":4000,"station_id":"ce4bgs92rcd13ifvqcc0","pricing_plan_id":"cebpf4jnsgd1na2vs0mg"},{"bike_id":"057ccf9f-39fa-445b-aa8c-1553727eb8e1","system_id":"levelo_inurba_marseille","lat":43.31994,"lon":5.38152,"is_reserved":false,"is_disabled":false,"rental_uris":{"android":"levelo://app?vid=057ccf9f-39fa-445b-aa8c-1553727eb8e1","ios":"levelo://app?vid=057ccf9f-39fa-445b-aa8c-1553727eb8e1"},"vehicle_type_id":"4","last_reported":1723388833,"current_range_meters":30800,"station_id":"ce4bhr12rcd13ifvqhpg","pricing_plan_id":"cebpf4jnsgd1na2vs0mg"},{"bike_id":"ff39d0c8-ba61-4ae1-abef-c721ee1fd9c8","system_id":"levelo_inurba_marseille","lat":43.313995,"lon":5.384643,"is_reserved":false,"is_disabled":false,"rental_uris":{"android":"levelo://app?vid=ff39d0c8-ba61-4ae1-abef-c721ee1fd9c8","ios":"levelo://app?vid=ff39d0c8-ba61-4ae1-abef-c721ee1fd9c8"},"vehicle_type_id":"4","last_reported":1723388833,"current_range_meters":8400,"station_id":"ce4bgt92rcd13ifvqcf0","pricing_plan_id":"cebpf4jnsgd1na2vs0mg"},{"bike_id":"6200fef5-0d27-4711-9b95-e7ccab2304ea","system_id":"levelo_inurba_marseille","lat":43.313571,"lon":5.384829,"is_reserved":false,"is_disabled":false,"rental_uris":{"android":"levelo://app?vid=6200fef5-0d27-4711-9b95-e7ccab2304ea","ios":"levelo://app?vid=6200fef5-0d27-4711-9b95-e7ccab2304ea"},"vehicle_type_id":"4","last_reported":1723388833,"current_range_meters":28400,"station_id":"ce4bgt92rcd13ifvqcf0","pricing_plan_id":"cebpf4jnsgd1na2vs0mg"},{"bike_id":"a1e3abea-1fe0-4a03-84e4-49b9878da50d","system_id":"levelo_inurba_marseille","lat":43.299724,"lon":5.371829,"is_reserved":false,"is_disabled":false,"rental_uris":{"android":"levelo://app?vid=a1e3abea-1fe0-4a03-84e4-49b9878da50d","ios":"levelo://app?vid=a1e3abea-1fe0-4a03-84e4-49b9878da50d"},"vehicle_type_id":"4","last_reported":1723388833,"current_range_meters":28800,"station_id":"ce4bgr92rcd13ifvqc7g","pricing_plan_id":"cebpf4jnsgd1na2vs0mg"},{"bike_id":"b0ac2b45-8641-48b1-8c3a-b7d142f6b939","system_id":"levelo_inurba_marseille","lat":43.305364,"lon":5.384119,"is_reserved":false,"is_disabled":false,"rental_uris":{"android":"levelo://app?vid=b0ac2b45-8641-48b1-8c3a-b7d142f6b939","ios":"levelo://app?vid=b0ac2b45-8641-48b1-8c3a-b7d142f6b939"},"vehicle_type_id":"4","last_reported":1723388833,"current_range_meters":24400,"station_id":"ce4bgg92rcd13ifvqb30","pricing_plan_id":"cebpf4jnsgd1na2vs0mg"},{"bike_id":"a021cc8c-a9c5-401a-b2d4-cc91035326fa","system_id":"levelo_inurba_marseille","lat":43.29851,"lon":5.36285,"is_reserved":false,"is_disabled":false,"rental_uris":{"android":"levelo://app?vid=a021cc8c-a9c5-401a-b2d4-cc91035326fa","ios":"levelo://app?vid=a021cc8c-a9c5-401a-b2d4-cc91035326fa"},"vehicle_type_id":"4","last_reported":1723388833,"current_range_meters":0,"station_id":"ce4bgpp2rcd13ifvqc3g","pricing_plan_id":"cebpf4jnsgd1na2vs0mg"},{"bike_id":"df6c81b8-d972-4960-9912-1854a1702496","system_id":"levelo_inurba_marseille","lat":43.299243,"lon":5.374807,"is_reserved":false,"is_disabled":false,"rental_uris":{"android":"levelo://app?vid=df6c81b8-d972-4960-9912-1854a1702496","ios":"levelo://app?vid=df6c81b8-d972-4960-9912-1854a1702496"},"vehicle_type_id":"4","last_reported":1723388833,"current_range_meters":23200,"station_id":"ce4bgjh2rcd13ifvqbg0","pricing_plan_id":"cebpf4jnsgd1na2vs0mg"},{"bike_id":"641516d0-e01d-4029-a1a2-dcfe3c8125d8","system_id":"levelo_inurba_marseille","lat":43.311722,"lon":5.387247,"is_reserved":false,"is_disabled":false,"rental_uris":{"android":"levelo://app?vid=641516d0-e01d-4029-a1a2-dcfe3c8125d8","ios":"levelo://app?vid=641516d0-e01d-4029-a1a2-dcfe3c8125d8"},"vehicle_type_id":"4","last_reported":1723388833,"current_range_meters":18400,"station_id":"ce4bgv12rcd13ifvqcp0","pricing_plan_id":"cebpf4jnsgd1na2vs0mg"},{"bike_id":"593ec41f-44ca-45ca-9fd9-1c0886cfb31b","system_id":"levelo_inurba_marseille","lat":43.322872,"lon":5.382756,"is_reserved":false,"is_disabled":false,"rental_uris":{"android":"levelo://app?vid=593ec41f-44ca-45ca-9fd9-1c0886cfb31b","ios":"levelo://app?vid=593ec41f-44ca-45ca-9fd9-1c0886cfb31b"},"vehicle_type_id":"4","last_reported":1723388833,"current_range_meters":0,"station_id":"ce4bhr12rcd13ifvqhqg","pricing_plan_id":"cebpf4jnsgd1na2vs0mg"},{"bike_id":"1a308fda-724f-4330-ba27-ac1c82a8acbc","system_id":"levelo_inurba_marseille","lat":43.322937,"lon":5.38273,"is_reserved":false,"is_disabled":false,"rental_uris":{"android":"levelo://app?vid=1a308fda-724f-4330-ba27-ac1c82a8acbc","ios":"levelo://app?vid=1a308fda-724f-4330-ba27-ac1c82a8acbc"},"vehicle_type_id":"4","last_reported":1723388833,"current_range_meters":3600,"station_id":"ce4bhr12rcd13ifvqhqg","pricing_plan_id":"cebpf4jnsgd1na2vs0mg"},{"bike_id":"ed788100-5403-4e53-b131-ed76e6e22485","system_id":"levelo_inurba_marseille","lat":43.32058,"lon":5.38597,"is_reserved":false,"is_disabled":false,"rental_uris":{"android":"levelo://app?vid=ed788100-5403-4e53-b131-ed76e6e22485","ios":"levelo://app?vid=ed788100-5403-4e53-b131-ed76e6e22485"},"vehicle_type_id":"4","last_reported":1723388833,"current_range_meters":0,"station_id":"","pricing_plan_id":"cebpf4jnsgd1na2vs0mg"},{"bike_id":"5dbd7643-6a9d-4af4-80ea-d973bc53b009","system_id":"levelo_inurba_marseille","lat":43.29913,"lon":5.38121,"is_reserved":false,"is_disabled":false,"rental_uris":{"android":"levelo://app?vid=5dbd7643-6a9d-4af4-80ea-d973bc53b009","ios":"levelo://app?vid=5dbd7643-6a9d-4af4-80ea-d973bc53b009"},"vehicle_type_id":"4","last_reported":1723388833,"current_range_meters":0,"station_id":"ce4bgj12rcd13ifvqbc0","pricing_plan_id":"cebpf4jnsgd1na2vs0mg"},{"bike_id":"ba5d81f2-3594-43fb-8e7d-3ba54efea4e2","system_id":"levelo_inurba_marseille","lat":43.309589,"lon":5.390258,"is_reserved":false,"is_disabled":false,"rental_uris":{"android":"levelo://app?vid=ba5d81f2-3594-43fb-8e7d-3ba54efea4e2","ios":"levelo://app?vid=ba5d81f2-3594-43fb-8e7d-3ba54efea4e2"},"vehicle_type_id":"4","last_reported":1723388833,"current_range_meters":17600,"station_id":"ce4bgup2rcd13ifvqco0","pricing_plan_id":"cebpf4jnsgd1na2vs0mg"},{"bike_id":"9eedbccb-85e6-4f0c-aeae-1884c338595a","system_id":"levelo_inurba_marseille","lat":43.309589,"lon":5.390258,"is_reserved":false,"is_disabled":false,"rental_uris":{"android":"levelo://app?vid=9eedbccb-85e6-4f0c-aeae-1884c338595a","ios":"levelo://app?vid=9eedbccb-85e6-4f0c-aeae-1884c338595a"},"vehicle_type_id":"4","last_reported":1723388833,"current_range_meters":0,"station_id":"ce4bgup2rcd13ifvqco0","pricing_plan_id":"cebpf4jnsgd1na2vs0mg"},{"bike_id":"93dcc87d-cb63-466a-bcd1-6f3e0f4d43f0","system_id":"levelo_inurba_marseille","lat":43.317557,"lon":5.390173,"is_reserved":false,"is_disabled":false,"rental_uris":{"android":"levelo://app?vid=93dcc87d-cb63-466a-bcd1-6f3e0f4d43f0","ios":"levelo://app?vid=93dcc87d-cb63-466a-bcd1-6f3e0f4d43f0"},"vehicle_type_id":"4","last_reported":1723388833,"current_range_meters":26800,"station_id":"ce4bhqp2rcd13ifvqhng","pricing_plan_id":"cebpf4jnsgd1na2vs0mg"},{"bike_id":"c568f253-f437-40d7-91e0-8a0c20115011","system_id":"levelo_inurba_marseille","lat":43.321434,"lon":5.388056,"is_reserved":false,"is_disabled":false,"rental_uris":{"android":"levelo://app?vid=c568f253-f437-40d7-91e0-8a0c20115011","ios":"levelo://app?vid=c568f253-f437-40d7-91e0-8a0c20115011"},"vehicle_type_id":"4","last_reported":1723388833,"current_range_meters":13600,"station_id":"","pricing_plan_id":"cebpf4jnsgd1na2vs0mg"},{"bike_id":"d520b290-4832-4323-8656-d8fcc0da4cdb","system_id":"levelo_inurba_marseille","lat":43.298037,"lon":5.381066,"is_reserved":false,"is_disabled":false,"rental_uris":{"android":"levelo://app?vid=d520b290-4832-4323-8656-d8fcc0da4cdb","ios":"levelo://app?vid=d520b290-4832-4323-8656-d8fcc0da4cdb"},"vehicle_type_id":"4","last_reported":1723388833,"current_range_meters":6400,"station_id":"ce4bgip2rcd13ifvqbb0","pricing_plan_id":"cebpf4jnsgd1na2vs0mg"},{"bike_id":"58738784-9ddd-4eed-a637-2e2061bb6645","system_id":"levelo_inurba_marseille","lat":43.296277,"lon":5.377108,"is_reserved":false,"is_disabled":false,"rental_uris":{"android":"levelo://app?vid=58738784-9ddd-4eed-a637-2e2061bb6645","ios":"levelo://app?vid=58738784-9ddd-4eed-a637-2e2061bb6645"},"vehicle_type_id":"4","last_reported":1723388833,"current_range_meters":16400,"station_id":"ce4bgi92rcd13ifvqb90","pricing_plan_id":"cebpf4jnsgd1na2vs0mg"},{"bike_id":"ea7937d2-afb2-4115-9a3e-a30ab7d97dac","system_id":"levelo_inurba_marseille","lat":43.299707,"lon":5.384859,"is_reserved":false,"is_disabled":false,"rental_uris":{"android":"levelo://app?vid=ea7937d2-afb2-4115-9a3e-a30ab7d97dac","ios":"levelo://app?vid=ea7937d2-afb2-4115-9a3e-a30ab7d97dac"},"vehicle_type_id":"4","last_reported":1723388833,"current_range_meters":0,"station_id":"ce4bgj92rcd13ifvqbd0","pricing_plan_id":"cebpf4jnsgd1na2vs0mg"},{"bike_id":"d4d31ba5-3ac3-480c-8dc5-2b52dd79ce64","system_id":"levelo_inurba_marseille","lat":43.295279,"lon":5.375048,"is_reserved":false,"is_disabled":false,"rental_uris":{"android":"levelo://app?vid=d4d31ba5-3ac3-480c-8dc5-2b52dd79ce64","ios":"levelo://app?vid=d4d31ba5-3ac3-480c-8dc5-2b52dd79ce64"},"vehicle_type_id":"4","last_reported":1723388833,"current_range_meters":1200,"station_id":"ce4bgkp2rcd13ifvqbmg","pricing_plan_id":"cebpf4jnsgd1na2vs0mg"},{"bike_id":"77192461-172c-4d40-8ca2-f5aa19dcb034","system_id":"levelo_inurba_marseille","lat":43.330517,"lon":5.358753,"is_reserved":false,"is_disabled":false,"rental_uris":{"android":"levelo://app?vid=77192461-172c-4d40-8ca2-f5aa19dcb034","ios":"levelo://app?vid=77192461-172c-4d40-8ca2-f5aa19dcb034"},"vehicle_type_id":"4","last_reported":1723388833,"current_range_meters":11200,"station_id":"","pricing_plan_id":"cebpf4jnsgd1na2vs0mg"},{"bike_id":"7170020c-95d9-47dd-8951-5ea6e111189b","system_id":"levelo_inurba_marseille","lat":43.32367,"lon":5.388836,"is_reserved":false,"is_disabled":false,"rental_uris":{"android":"levelo://app?vid=7170020c-95d9-47dd-8951-5ea6e111189b","ios":"levelo://app?vid=7170020c-95d9-47dd-8951-5ea6e111189b"},"vehicle_type_id":"4","last_reported":1723388833,"current_range_meters":18000,"station_id":"ce4bhqp2rcd13ifvqhog","pricing_plan_id":"cebpf4jnsgd1na2vs0mg"},{"bike_id":"84ca1e46-f5d7-4d99-8ebb-0ea7b7d2333f","system_id":"levelo_inurba_marseille","lat":43.293259,"lon":5.371586,"is_reserved":false,"is_disabled":false,"rental_uris":{"android":"levelo://app?vid=84ca1e46-f5d7-4d99-8ebb-0ea7b7d2333f","ios":"levelo://app?vid=84ca1e46-f5d7-4d99-8ebb-0ea7b7d2333f"},"vehicle_type_id":"4","last_reported":1723388833,"current_range_meters":18000,"station_id":"ce4bgh92rcd13ifvqb40","pricing_plan_id":"cebpf4jnsgd1na2vs0mg"},{"bike_id":"f6ae7b24-7ac2-4fea-813a-7b7c75719f6a","system_id":"levelo_inurba_marseille","lat":43.293259,"lon":5.371586,"is_reserved":false,"is_disabled":false,"rental_uris":{"android":"levelo://app?vid=f6ae7b24-7ac2-4fea-813a-7b7c75719f6a","ios":"levelo://app?vid=f6ae7b24-7ac2-4fea-813a-7b7c75719f6a"},"vehicle_type_id":"4","last_reported":1723388833,"current_range_meters":16400,"station_id":"ce4bgh92rcd13ifvqb40","pricing_plan_id":"cebpf4jnsgd1na2vs0mg"},{"bike_id":"2b7f3a08-bae8-4314-a2cc-15be6df8a96d","system_id":"levelo_inurba_marseille","lat":43.293259,"lon":5.371586,"is_reserved":false,"is_disabled":false,"rental_uris":{"android":"levelo://app?vid=2b7f3a08-bae8-4314-a2cc-15be6df8a96d","ios":"levelo://app?vid=2b7f3a08-bae8-4314-a2cc-15be6df8a96d"},"vehicle_type_id":"4","last_reported":1723388833,"current_range_meters":24400,"station_id":"ce4bgh92rcd13ifvqb40","pricing_plan_id":"cebpf4jnsgd1na2vs0mg"},{"bike_id":"359c8b6e-8bcc-4eae-a7fb-ecb749c53ab7","system_id":"levelo_inurba_marseille","lat":43.298037,"lon":5.381066,"is_reserved":false,"is_disabled":false,"rental_uris":{"android":"levelo://app?vid=359c8b6e-8bcc-4eae-a7fb-ecb749c53ab7","ios":"levelo://app?vid=359c8b6e-8bcc-4eae-a7fb-ecb749c53ab7"},"vehicle_type_id":"4","last_reported":1723388833,"current_range_meters":10400,"station_id":"ce4bgip2rcd13ifvqbb0","pricing_plan_id":"cebpf4jnsgd1na2vs0mg"},{"bike_id":"5624f0e7-3141-4636-a076-3d30d748f7d1","system_id":"levelo_inurba_marseille","lat":43.292749,"lon":5.368402,"is_reserved":false,"is_disabled":false,"rental_uris":{"android":"levelo://app?vid=5624f0e7-3141-4636-a076-3d30d748f7d1","ios":"levelo://app?vid=5624f0e7-3141-4636-a076-3d30d748f7d1"},"vehicle_type_id":"4","last_reported":1723388833,"current_range_meters":8800,"station_id":"ce4bhbp2rcd13ifvqesg","pricing_plan_id":"cebpf4jnsgd1na2vs0mg"},{"bike_id":"92e00009-f521-4141-bc10-78a269decf42","system_id":"levelo_inurba_marseille","lat":43.292749,"lon":5.368402,"is_reserved":false,"is_disabled":false,"rental_uris":{"android":"levelo://app?vid=92e00009-f521-4141-bc10-78a269decf42","ios":"levelo://app?vid=92e00009-f521-4141-bc10-78a269decf42"},"vehicle_type_id":"4","last_reported":1723388833,"current_range_meters":5200,"station_id":"ce4bhbp2rcd13ifvqesg","pricing_plan_id":"cebpf4jnsgd1na2vs0mg"},{"bike_id":"1c30ce24-a05a-4394-b4bb-96da2bde2640","system_id":"levelo_inurba_marseille","lat":43.29306,"lon":5.37455,"is_reserved":false,"is_disabled":false,"rental_uris":{"android":"levelo://app?vid=1c30ce24-a05a-4394-b4bb-96da2bde2640","ios":"levelo://app?vid=1c30ce24-a05a-4394-b4bb-96da2bde2640"},"vehicle_type_id":"4","last_reported":1723388833,"current_range_meters":26400,"station_id":"ce4bgi12rcd13ifvqb70","pricing_plan_id":"cebpf4jnsgd1na2vs0mg"},{"bike_id":"8d37495d-9961-45f8-ba67-ee81725ae3ae","system_id":"levelo_inurba_marseille","lat":43.29228,"lon":5.36363,"is_reserved":false,"is_disabled":false,"rental_uris":{"android":"levelo://app?vid=8d37495d-9961-45f8-ba67-ee81725ae3ae","ios":"levelo://app?vid=8d37495d-9961-45f8-ba67-ee81725ae3ae"},"vehicle_type_id":"4","last_reported":1723388833,"current_range_meters":4800,"station_id":"","pricing_plan_id":"cebpf4jnsgd1na2vs0mg"},{"bike_id":"578305c5-07c5-487a-a1fc-6ae4a09f8fe1","system_id":"levelo_inurba_marseille","lat":43.293009,"lon":5.374584,"is_reserved":false,"is_disabled":false,"rental_uris":{"android":"levelo://app?vid=578305c5-07c5-487a-a1fc-6ae4a09f8fe1","ios":"levelo://app?vid=578305c5-07c5-487a-a1fc-6ae4a09f8fe1"},"vehicle_type_id":"4","last_reported":1723388833,"current_range_meters":0,"station_id":"ce4bgi12rcd13ifvqb70","pricing_plan_id":"cebpf4jnsgd1na2vs0mg"},{"bike_id":"f592a7b9-09b8-4dc3-a77a-d7fb1ee01f28","system_id":"levelo_inurba_marseille","lat":43.2936,"lon":5.37835,"is_reserved":false,"is_disabled":false,"rental_uris":{"android":"levelo://app?vid=f592a7b9-09b8-4dc3-a77a-d7fb1ee01f28","ios":"levelo://app?vid=f592a7b9-09b8-4dc3-a77a-d7fb1ee01f28"},"vehicle_type_id":"4","last_reported":1723388833,"current_range_meters":5200,"station_id":"ce4bgjh2rcd13ifvqbf0","pricing_plan_id":"cebpf4jnsgd1na2vs0mg"},{"bike_id":"2adf9199-46d9-45f4-b74c-229004375825","system_id":"levelo_inurba_marseille","lat":43.292311,"lon":5.360731,"is_reserved":false,"is_disabled":false,"rental_uris":{"android":"levelo://app?vid=2adf9199-46d9-45f4-b74c-229004375825","ios":"levelo://app?vid=2adf9199-46d9-45f4-b74c-229004375825"},"vehicle_type_id":"4","last_reported":1723388833,"current_range_meters":14000,"station_id":"ce4bhbh2rcd13ifvqeqg","pricing_plan_id":"cebpf4jnsgd1na2vs0mg"},{"bike_id":"aab584b3-6c68-475a-b296-17b0b6add9c9","system_id":"levelo_inurba_marseille","lat":43.292311,"lon":5.360731,"is_reserved":false,"is_disabled":false,"rental_uris":{"android":"levelo://app?vid=aab584b3-6c68-475a-b296-17b0b6add9c9","ios":"levelo://app?vid=aab584b3-6c68-475a-b296-17b0b6add9c9"},"vehicle_type_id":"4","last_reported":1723388833,"current_range_meters":4400,"station_id":"ce4bhbh2rcd13ifvqeqg","pricing_plan_id":"cebpf4jnsgd1na2vs0mg"},{"bike_id":"575c8f27-1337-4c33-9540-0bf9af1568b1","system_id":"levelo_inurba_marseille","lat":43.292311,"lon":5.360731,"is_reserved":false,"is_disabled":false,"rental_uris":{"android":"levelo://app?vid=575c8f27-1337-4c33-9540-0bf9af1568b1","ios":"levelo://app?vid=575c8f27-1337-4c33-9540-0bf9af1568b1"},"vehicle_type_id":"4","last_reported":1723388833,"current_range_meters":27600,"station_id":"ce4bhbh2rcd13ifvqeqg","pricing_plan_id":"cebpf4jnsgd1na2vs0mg"},{"bike_id":"8669c215-f64f-4991-918a-38e605b47e3d","system_id":"levelo_inurba_marseille","lat":43.29291,"lon":5.35553,"is_reserved":false,"is_disabled":false,"rental_uris":{"android":"levelo://app?vid=8669c215-f64f-4991-918a-38e605b47e3d","ios":"levelo://app?vid=8669c215-f64f-4991-918a-38e605b47e3d"},"vehicle_type_id":"4","last_reported":1723388833,"current_range_meters":2400,"station_id":"","pricing_plan_id":"cebpf4jnsgd1na2vs0mg"},{"bike_id":"9d4b68a5-c93f-4844-a235-5ff4a055b660","system_id":"levelo_inurba_marseille","lat":43.292385,"lon":5.37767,"is_reserved":false,"is_disabled":false,"rental_uris":{"android":"levelo://app?vid=9d4b68a5-c93f-4844-a235-5ff4a055b660","ios":"levelo://app?vid=9d4b68a5-c93f-4844-a235-5ff4a055b660"},"vehicle_type_id":"4","last_reported":1723388833,"current_range_meters":7600,"station_id":"","pricing_plan_id":"cebpf4jnsgd1na2vs0mg"},{"bike_id":"b1eebacb-c8c8-4e2a-8b9c-09f747bd9774","system_id":"levelo_inurba_marseille","lat":43.308794,"lon":5.396411,"is_reserved":false,"is_disabled":false,"rental_uris":{"android":"levelo://app?vid=b1eebacb-c8c8-4e2a-8b9c-09f747bd9774","ios":"levelo://app?vid=b1eebacb-c8c8-4e2a-8b9c-09f747bd9774"},"vehicle_type_id":"4","last_reported":1723388833,"current_range_meters":18000,"station_id":"","pricing_plan_id":"cebpf4jnsgd1na2vs0mg"},{"bike_id":"8d9c78dc-58d5-42b1-81d4-b6778b5d6e80","system_id":"levelo_inurba_marseille","lat":43.291994,"lon":5.357886,"is_reserved":false,"is_disabled":false,"rental_uris":{"android":"levelo://app?vid=8d9c78dc-58d5-42b1-81d4-b6778b5d6e80","ios":"levelo://app?vid=8d9c78dc-58d5-42b1-81d4-b6778b5d6e80"},"vehicle_type_id":"4","last_reported":1723388833,"current_range_meters":2400,"station_id":"ce4bhb12rcd13ifvqel0","pricing_plan_id":"cebpf4jnsgd1na2vs0mg"},{"bike_id":"a843cbf7-3e18-4c43-979b-c1fff9e560a6","system_id":"levelo_inurba_marseille","lat":43.309047,"lon":5.396551,"is_reserved":false,"is_disabled":false,"rental_uris":{"android":"levelo://app?vid=a843cbf7-3e18-4c43-979b-c1fff9e560a6","ios":"levelo://app?vid=a843cbf7-3e18-4c43-979b-c1fff9e560a6"},"vehicle_type_id":"4","last_reported":1723388833,"current_range_meters":23600,"station_id":"ce4bh012rcd13ifvqcv0","pricing_plan_id":"cebpf4jnsgd1na2vs0mg"},{"bike_id":"f487b378-cf2d-4387-b118-1081f1938911","system_id":"levelo_inurba_marseille","lat":43.2929,"lon":5.38248,"is_reserved":false,"is_disabled":false,"rental_uris":{"android":"levelo://app?vid=f487b378-cf2d-4387-b118-1081f1938911","ios":"levelo://app?vid=f487b378-cf2d-4387-b118-1081f1938911"},"vehicle_type_id":"4","last_reported":1723388833,"current_range_meters":800,"station_id":"","pricing_plan_id":"cebpf4jnsgd1na2vs0mg"},{"bike_id":"8bb41a43-0ed3-4435-8925-000de027a260","system_id":"levelo_inurba_marseille","lat":43.289184,"lon":5.366408,"is_reserved":false,"is_disabled":false,"rental_uris":{"android":"levelo://app?vid=8bb41a43-0ed3-4435-8925-000de027a260","ios":"levelo://app?vid=8bb41a43-0ed3-4435-8925-000de027a260"},"vehicle_type_id":"4","last_reported":1723388833,"current_range_meters":14000,"station_id":"ce4bhap2rcd13ifvqek0","pricing_plan_id":"cebpf4jnsgd1na2vs0mg"},{"bike_id":"ac4e8662-0d87-4e02-8f9b-c47276d3880f","system_id":"levelo_inurba_marseille","lat":43.283998,"lon":5.375062,"is_reserved":false,"is_disabled":false,"rental_uris":{"android":"levelo://app?vid=ac4e8662-0d87-4e02-8f9b-c47276d3880f","ios":"levelo://app?vid=ac4e8662-0d87-4e02-8f9b-c47276d3880f"},"vehicle_type_id":"4","last_reported":1723388833,"current_range_meters":28800,"station_id":"ce4bh412rcd13ifvqds0","pricing_plan_id":"cebpf4jnsgd1na2vs0mg"},{"bike_id":"6cf14db2-5210-4357-aeb5-150e24fd8c89","system_id":"levelo_inurba_marseille","lat":43.292642,"lon":5.384254,"is_reserved":false,"is_disabled":false,"rental_uris":{"android":"levelo://app?vid=6cf14db2-5210-4357-aeb5-150e24fd8c89","ios":"levelo://app?vid=6cf14db2-5210-4357-aeb5-150e24fd8c89"},"vehicle_type_id":"4","last_reported":1723388833,"current_range_meters":0,"station_id":"ce4bh692rcd13ifvqea0","pricing_plan_id":"cebpf4jnsgd1na2vs0mg"},{"bike_id":"c8566886-fea2-4c74-bc20-00aa5471f093","system_id":"levelo_inurba_marseille","lat":43.276179,"lon":5.361009,"is_reserved":false,"is_disabled":false,"rental_uris":{"android":"levelo://app?vid=c8566886-fea2-4c74-bc20-00aa5471f093","ios":"levelo://app?vid=c8566886-fea2-4c74-bc20-00aa5471f093"},"vehicle_type_id":"4","last_reported":1723388833,"current_range_meters":0,"station_id":"ce4bgj92rcd13ifvqbe0","pricing_plan_id":"cebpf4jnsgd1na2vs0mg"},{"bike_id":"52c66c47-b2f1-4f00-b84b-1c0b266028cc","system_id":"levelo_inurba_marseille","lat":43.290103,"lon":5.356114,"is_reserved":false,"is_disabled":false,"rental_uris":{"android":"levelo://app?vid=52c66c47-b2f1-4f00-b84b-1c0b266028cc","ios":"levelo://app?vid=52c66c47-b2f1-4f00-b84b-1c0b266028cc"},"vehicle_type_id":"4","last_reported":1723388833,"current_range_meters":5200,"station_id":"ce4bhb92rcd13ifvqen0","pricing_plan_id":"cebpf4jnsgd1na2vs0mg"},{"bike_id":"14edec5b-2449-4e93-8713-e33d1f449955","system_id":"levelo_inurba_marseille","lat":43.28974,"lon":5.37834,"is_reserved":false,"is_disabled":false,"rental_uris":{"android":"levelo://app?vid=14edec5b-2449-4e93-8713-e33d1f449955","ios":"levelo://app?vid=14edec5b-2449-4e93-8713-e33d1f449955"},"vehicle_type_id":"4","last_reported":1723388833,"current_range_meters":0,"station_id":"ce4bh9p2rcd13ifvqed0","pricing_plan_id":"cebpf4jnsgd1na2vs0mg"},{"bike_id":"560ef53a-84b3-4b63-ab7a-0fb589f4243a","system_id":"levelo_inurba_marseille","lat":43.330442,"lon":5.389148,"is_reserved":false,"is_disabled":false,"rental_uris":{"android":"levelo://app?vid=560ef53a-84b3-4b63-ab7a-0fb589f4243a","ios":"levelo://app?vid=560ef53a-84b3-4b63-ab7a-0fb589f4243a"},"vehicle_type_id":"4","last_reported":1723388833,"current_range_meters":9200,"station_id":"ce4bhr92rcd13ifvqhrg","pricing_plan_id":"cebpf4jnsgd1na2vs0mg"},{"bike_id":"743d1aeb-28f9-42d4-a7a4-30d3b11fa42e","system_id":"levelo_inurba_marseille","lat":43.330442,"lon":5.389148,"is_reserved":false,"is_disabled":false,"rental_uris":{"android":"levelo://app?vid=743d1aeb-28f9-42d4-a7a4-30d3b11fa42e","ios":"levelo://app?vid=743d1aeb-28f9-42d4-a7a4-30d3b11fa42e"},"vehicle_type_id":"4","last_reported":1723388833,"current_range_meters":6800,"station_id":"ce4bhr92rcd13ifvqhrg","pricing_plan_id":"cebpf4jnsgd1na2vs0mg"},{"bike_id":"9154ca2b-c1a3-4596-9fe1-d2fd0a53ce47","system_id":"levelo_inurba_marseille","lat":43.2901,"lon":5.381269,"is_reserved":false,"is_disabled":false,"rental_uris":{"android":"levelo://app?vid=9154ca2b-c1a3-4596-9fe1-d2fd0a53ce47","ios":"levelo://app?vid=9154ca2b-c1a3-4596-9fe1-d2fd0a53ce47"},"vehicle_type_id":"4","last_reported":1723388833,"current_range_meters":19600,"station_id":"ce4bh4p2rcd13ifvqe1g","pricing_plan_id":"cebpf4jnsgd1na2vs0mg"},{"bike_id":"2620b203-006e-451a-a90e-159b7ad1aae6","system_id":"levelo_inurba_marseille","lat":43.31081,"lon":5.40091,"is_reserved":false,"is_disabled":false,"rental_uris":{"android":"levelo://app?vid=2620b203-006e-451a-a90e-159b7ad1aae6","ios":"levelo://app?vid=2620b203-006e-451a-a90e-159b7ad1aae6"},"vehicle_type_id":"4","last_reported":1723388833,"current_range_meters":22400,"station_id":"","pricing_plan_id":"cebpf4jnsgd1na2vs0mg"},{"bike_id":"a9ccad45-901f-4fa7-ad68-c86b02567a24","system_id":"levelo_inurba_marseille","lat":43.29019,"lon":5.3814,"is_reserved":false,"is_disabled":false,"rental_uris":{"android":"levelo://app?vid=a9ccad45-901f-4fa7-ad68-c86b02567a24","ios":"levelo://app?vid=a9ccad45-901f-4fa7-ad68-c86b02567a24"},"vehicle_type_id":"4","last_reported":1723388833,"current_range_meters":29200,"station_id":"ce4bh4p2rcd13ifvqe1g","pricing_plan_id":"cebpf4jnsgd1na2vs0mg"},{"bike_id":"f92eff18-e223-47db-a9b3-296513a7dc4f","system_id":"levelo_inurba_marseille","lat":43.28856,"lon":5.358371,"is_reserved":false,"is_disabled":false,"rental_uris":{"android":"levelo://app?vid=f92eff18-e223-47db-a9b3-296513a7dc4f","ios":"levelo://app?vid=f92eff18-e223-47db-a9b3-296513a7dc4f"},"vehicle_type_id":"4","last_reported":1723388833,"current_range_meters":20800,"station_id":"ce4bhb12rcd13ifvqem0","pricing_plan_id":"cebpf4jnsgd1na2vs0mg"},{"bike_id":"4dd3df97-f042-4ef0-9fba-47ec4b401346","system_id":"levelo_inurba_marseille","lat":43.28803,"lon":5.37271,"is_reserved":false,"is_disabled":false,"rental_uris":{"android":"levelo://app?vid=4dd3df97-f042-4ef0-9fba-47ec4b401346","ios":"levelo://app?vid=4dd3df97-f042-4ef0-9fba-47ec4b401346"},"vehicle_type_id":"4","last_reported":1723388833,"current_range_meters":24400,"station_id":"","pricing_plan_id":"cebpf4jnsgd1na2vs0mg"},{"bike_id":"d533fc32-2267-4e35-97f8-e83664ca4bff","system_id":"levelo_inurba_marseille","lat":43.312609,"lon":5.401662,"is_reserved":false,"is_disabled":false,"rental_uris":{"android":"levelo://app?vid=d533fc32-2267-4e35-97f8-e83664ca4bff","ios":"levelo://app?vid=d533fc32-2267-4e35-97f8-e83664ca4bff"},"vehicle_type_id":"4","last_reported":1723388833,"current_range_meters":17600,"station_id":"ce4bh092rcd13ifvqd30","pricing_plan_id":"cebpf4jnsgd1na2vs0mg"},{"bike_id":"4d3c0760-0640-4f8e-b411-a987db01cfe0","system_id":"levelo_inurba_marseille","lat":43.312609,"lon":5.401662,"is_reserved":false,"is_disabled":false,"rental_uris":{"android":"levelo://app?vid=4d3c0760-0640-4f8e-b411-a987db01cfe0","ios":"levelo://app?vid=4d3c0760-0640-4f8e-b411-a987db01cfe0"},"vehicle_type_id":"4","last_reported":1723388833,"current_range_meters":22000,"station_id":"ce4bh092rcd13ifvqd30","pricing_plan_id":"cebpf4jnsgd1na2vs0mg"},{"bike_id":"c3cf305c-692c-41ed-b07c-7ebbc13f240d","system_id":"levelo_inurba_marseille","lat":43.337405,"lon":5.374624,"is_reserved":false,"is_disabled":false,"rental_uris":{"android":"levelo://app?vid=c3cf305c-692c-41ed-b07c-7ebbc13f240d","ios":"levelo://app?vid=c3cf305c-692c-41ed-b07c-7ebbc13f240d"},"vehicle_type_id":"4","last_reported":1723388833,"current_range_meters":14400,"station_id":"","pricing_plan_id":"cebpf4jnsgd1na2vs0mg"},{"bike_id":"ac75d8e5-5139-4e43-a64e-51e7994c2517","system_id":"levelo_inurba_marseille","lat":43.337444,"lon":5.374475,"is_reserved":false,"is_disabled":false,"rental_uris":{"android":"levelo://app?vid=ac75d8e5-5139-4e43-a64e-51e7994c2517","ios":"levelo://app?vid=ac75d8e5-5139-4e43-a64e-51e7994c2517"},"vehicle_type_id":"3","last_reported":1723388833,"current_range_meters":24800,"station_id":"","pricing_plan_id":"cebpf4jnsgd1na2vs0mg"},{"bike_id":"43f21911-683d-4ba4-93d3-8a7e20e1c78c","system_id":"levelo_inurba_marseille","lat":43.337429,"lon":5.374594,"is_reserved":false,"is_disabled":false,"rental_uris":{"android":"levelo://app?vid=43f21911-683d-4ba4-93d3-8a7e20e1c78c","ios":"levelo://app?vid=43f21911-683d-4ba4-93d3-8a7e20e1c78c"},"vehicle_type_id":"4","last_reported":1723388833,"current_range_meters":27200,"station_id":"","pricing_plan_id":"cebpf4jnsgd1na2vs0mg"},{"bike_id":"f173b586-490f-416d-a4f5-d1d977fc71fe","system_id":"levelo_inurba_marseille","lat":43.312609,"lon":5.401662,"is_reserved":false,"is_disabled":false,"rental_uris":{"android":"levelo://app?vid=f173b586-490f-416d-a4f5-d1d977fc71fe","ios":"levelo://app?vid=f173b586-490f-416d-a4f5-d1d977fc71fe"},"vehicle_type_id":"4","last_reported":1723388833,"current_range_meters":1600,"station_id":"ce4bh092rcd13ifvqd30","pricing_plan_id":"cebpf4jnsgd1na2vs0mg"},{"bike_id":"8b5f6228-3582-497c-9919-c849c8ef0c9b","system_id":"levelo_inurba_marseille","lat":43.337436,"lon":5.374589,"is_reserved":false,"is_disabled":false,"rental_uris":{"android":"levelo://app?vid=8b5f6228-3582-497c-9919-c849c8ef0c9b","ios":"levelo://app?vid=8b5f6228-3582-497c-9919-c849c8ef0c9b"},"vehicle_type_id":"4","last_reported":1723388833,"current_range_meters":0,"station_id":"","pricing_plan_id":"cebpf4jnsgd1na2vs0mg"},{"bike_id":"6f8a75ef-cfde-4da5-99c7-85f9ae9b026b","system_id":"levelo_inurba_marseille","lat":43.3375,"lon":5.37429,"is_reserved":false,"is_disabled":false,"rental_uris":{"android":"levelo://app?vid=6f8a75ef-cfde-4da5-99c7-85f9ae9b026b","ios":"levelo://app?vid=6f8a75ef-cfde-4da5-99c7-85f9ae9b026b"},"vehicle_type_id":"4","last_reported":1723388833,"current_range_meters":21600,"station_id":"","pricing_plan_id":"cebpf4jnsgd1na2vs0mg"},{"bike_id":"a99690a8-3e4f-41a1-9b6a-5b43249a269f","system_id":"levelo_inurba_marseille","lat":43.33746,"lon":5.37457,"is_reserved":false,"is_disabled":false,"rental_uris":{"android":"levelo://app?vid=a99690a8-3e4f-41a1-9b6a-5b43249a269f","ios":"levelo://app?vid=a99690a8-3e4f-41a1-9b6a-5b43249a269f"},"vehicle_type_id":"4","last_reported":1723388833,"current_range_meters":800,"station_id":"","pricing_plan_id":"cebpf4jnsgd1na2vs0mg"},{"bike_id":"99ff80d6-767c-4ca9-81b5-c19f253f3bd3","system_id":"levelo_inurba_marseille","lat":43.3375,"lon":5.374519,"is_reserved":false,"is_disabled":false,"rental_uris":{"android":"levelo://app?vid=99ff80d6-767c-4ca9-81b5-c19f253f3bd3","ios":"levelo://app?vid=99ff80d6-767c-4ca9-81b5-c19f253f3bd3"},"vehicle_type_id":"4","last_reported":1723388833,"current_range_meters":0,"station_id":"","pricing_plan_id":"cebpf4jnsgd1na2vs0mg"},{"bike_id":"7553d7c6-8eef-4b21-9dca-534ec43256a6","system_id":"levelo_inurba_marseille","lat":43.3375,"lon":5.37461,"is_reserved":false,"is_disabled":false,"rental_uris":{"android":"levelo://app?vid=7553d7c6-8eef-4b21-9dca-534ec43256a6","ios":"levelo://app?vid=7553d7c6-8eef-4b21-9dca-534ec43256a6"},"vehicle_type_id":"4","last_reported":1723388833,"current_range_meters":9600,"station_id":"","pricing_plan_id":"cebpf4jnsgd1na2vs0mg"},{"bike_id":"6137b86e-8de9-4c4f-94ef-bfa372175031","system_id":"levelo_inurba_marseille","lat":43.337513,"lon":5.37454,"is_reserved":false,"is_disabled":false,"rental_uris":{"android":"levelo://app?vid=6137b86e-8de9-4c4f-94ef-bfa372175031","ios":"levelo://app?vid=6137b86e-8de9-4c4f-94ef-bfa372175031"},"vehicle_type_id":"4","last_reported":1723388833,"current_range_meters":11600,"station_id":"","pricing_plan_id":"cebpf4jnsgd1na2vs0mg"},{"bike_id":"1ece39e8-5ec5-465b-b0d5-bdea3554c74d","system_id":"levelo_inurba_marseille","lat":43.337621,"lon":5.37449,"is_reserved":false,"is_disabled":false,"rental_uris":{"android":"levelo://app?vid=1ece39e8-5ec5-465b-b0d5-bdea3554c74d","ios":"levelo://app?vid=1ece39e8-5ec5-465b-b0d5-bdea3554c74d"},"vehicle_type_id":"4","last_reported":1723388833,"current_range_meters":20800,"station_id":"","pricing_plan_id":"cebpf4jnsgd1na2vs0mg"},{"bike_id":"ea1cc1bc-b3f0-4093-8f5f-6dfff1fa63d9","system_id":"levelo_inurba_marseille","lat":43.337575,"lon":5.37485,"is_reserved":false,"is_disabled":false,"rental_uris":{"android":"levelo://app?vid=ea1cc1bc-b3f0-4093-8f5f-6dfff1fa63d9","ios":"levelo://app?vid=ea1cc1bc-b3f0-4093-8f5f-6dfff1fa63d9"},"vehicle_type_id":"4","last_reported":1723388833,"current_range_meters":31200,"station_id":"","pricing_plan_id":"cebpf4jnsgd1na2vs0mg"},{"bike_id":"e0da458e-1309-458b-956b-aab617b2ea05","system_id":"levelo_inurba_marseille","lat":43.3376,"lon":5.37473,"is_reserved":false,"is_disabled":false,"rental_uris":{"android":"levelo://app?vid=e0da458e-1309-458b-956b-aab617b2ea05","ios":"levelo://app?vid=e0da458e-1309-458b-956b-aab617b2ea05"},"vehicle_type_id":"4","last_reported":1723388833,"current_range_meters":23200,"station_id":"","pricing_plan_id":"cebpf4jnsgd1na2vs0mg"},{"bike_id":"a7e71684-8757-4c0e-98c0-cd5b05cd0ba7","system_id":"levelo_inurba_marseille","lat":43.337583,"lon":5.374932,"is_reserved":false,"is_disabled":false,"rental_uris":{"android":"levelo://app?vid=a7e71684-8757-4c0e-98c0-cd5b05cd0ba7","ios":"levelo://app?vid=a7e71684-8757-4c0e-98c0-cd5b05cd0ba7"},"vehicle_type_id":"4","last_reported":1723388833,"current_range_meters":29200,"station_id":"","pricing_plan_id":"cebpf4jnsgd1na2vs0mg"},{"bike_id":"5cb0d0f3-eacc-40eb-a46e-542fc59e15f6","system_id":"levelo_inurba_marseille","lat":43.337619,"lon":5.374911,"is_reserved":false,"is_disabled":false,"rental_uris":{"android":"levelo://app?vid=5cb0d0f3-eacc-40eb-a46e-542fc59e15f6","ios":"levelo://app?vid=5cb0d0f3-eacc-40eb-a46e-542fc59e15f6"},"vehicle_type_id":"4","last_reported":1723388833,"current_range_meters":29200,"station_id":"","pricing_plan_id":"cebpf4jnsgd1na2vs0mg"},{"bike_id":"475ed14f-5d86-4ce1-9e44-9d4d1bef7035","system_id":"levelo_inurba_marseille","lat":43.33765,"lon":5.37486,"is_reserved":false,"is_disabled":false,"rental_uris":{"android":"levelo://app?vid=475ed14f-5d86-4ce1-9e44-9d4d1bef7035","ios":"levelo://app?vid=475ed14f-5d86-4ce1-9e44-9d4d1bef7035"},"vehicle_type_id":"4","last_reported":1723388833,"current_range_meters":21600,"station_id":"","pricing_plan_id":"cebpf4jnsgd1na2vs0mg"},{"bike_id":"57da0337-159a-4148-be4f-fc6e9aca3c31","system_id":"levelo_inurba_marseille","lat":43.337052,"lon":5.355767,"is_reserved":false,"is_disabled":false,"rental_uris":{"android":"levelo://app?vid=57da0337-159a-4148-be4f-fc6e9aca3c31","ios":"levelo://app?vid=57da0337-159a-4148-be4f-fc6e9aca3c31"},"vehicle_type_id":"4","last_reported":1723388833,"current_range_meters":4800,"station_id":"","pricing_plan_id":"cebpf4jnsgd1na2vs0mg"},{"bike_id":"8d324390-be7d-4c7d-92ad-a70e2401e11a","system_id":"levelo_inurba_marseille","lat":43.301117,"lon":5.398795,"is_reserved":false,"is_disabled":false,"rental_uris":{"android":"levelo://app?vid=8d324390-be7d-4c7d-92ad-a70e2401e11a","ios":"levelo://app?vid=8d324390-be7d-4c7d-92ad-a70e2401e11a"},"vehicle_type_id":"4","last_reported":1723388833,"current_range_meters":25200,"station_id":"ce4bh0h2rcd13ifvqd40","pricing_plan_id":"cebpf4jnsgd1na2vs0mg"},{"bike_id":"20b51265-c851-41f4-b22d-a9409540092a","system_id":"levelo_inurba_marseille","lat":43.301117,"lon":5.398795,"is_reserved":false,"is_disabled":false,"rental_uris":{"android":"levelo://app?vid=20b51265-c851-41f4-b22d-a9409540092a","ios":"levelo://app?vid=20b51265-c851-41f4-b22d-a9409540092a"},"vehicle_type_id":"4","last_reported":1723388833,"current_range_meters":4400,"station_id":"ce4bh0h2rcd13ifvqd40","pricing_plan_id":"cebpf4jnsgd1na2vs0mg"},{"bike_id":"e3ef8a43-6091-4d02-8cf4-413edf893a9e","system_id":"levelo_inurba_marseille","lat":43.28727,"lon":5.36078,"is_reserved":false,"is_disabled":false,"rental_uris":{"android":"levelo://app?vid=e3ef8a43-6091-4d02-8cf4-413edf893a9e","ios":"levelo://app?vid=e3ef8a43-6091-4d02-8cf4-413edf893a9e"},"vehicle_type_id":"4","last_reported":1723388833,"current_range_meters":4400,"station_id":"cki0cbj6b192h4jlfktg","pricing_plan_id":"cebpf4jnsgd1na2vs0mg"},{"bike_id":"7020ee32-48b6-4184-b81b-9532331a5dc3","system_id":"levelo_inurba_marseille","lat":43.28727,"lon":5.36078,"is_reserved":false,"is_disabled":false,"rental_uris":{"android":"levelo://app?vid=7020ee32-48b6-4184-b81b-9532331a5dc3","ios":"levelo://app?vid=7020ee32-48b6-4184-b81b-9532331a5dc3"},"vehicle_type_id":"4","last_reported":1723388833,"current_range_meters":5200,"station_id":"cki0cbj6b192h4jlfktg","pricing_plan_id":"cebpf4jnsgd1na2vs0mg"},{"bike_id":"976d0109-9de7-4d45-bd81-5491eb52ebe8","system_id":"levelo_inurba_marseille","lat":43.33034,"lon":5.39356,"is_reserved":false,"is_disabled":false,"rental_uris":{"android":"levelo://app?vid=976d0109-9de7-4d45-bd81-5491eb52ebe8","ios":"levelo://app?vid=976d0109-9de7-4d45-bd81-5491eb52ebe8"},"vehicle_type_id":"4","last_reported":1723388833,"current_range_meters":6000,"station_id":"","pricing_plan_id":"cebpf4jnsgd1na2vs0mg"},{"bike_id":"22a603f2-4d78-495d-a2f8-dfdb18456c0e","system_id":"levelo_inurba_marseille","lat":43.286961,"lon":5.373785,"is_reserved":false,"is_disabled":false,"rental_uris":{"android":"levelo://app?vid=22a603f2-4d78-495d-a2f8-dfdb18456c0e","ios":"levelo://app?vid=22a603f2-4d78-495d-a2f8-dfdb18456c0e"},"vehicle_type_id":"4","last_reported":1723388833,"current_range_meters":21200,"station_id":"ce4bh3p2rcd13ifvqdq0","pricing_plan_id":"cebpf4jnsgd1na2vs0mg"},{"bike_id":"c5a98ffe-f85b-467a-8e47-ed63661a466d","system_id":"levelo_inurba_marseille","lat":43.28656,"lon":5.36354,"is_reserved":false,"is_disabled":false,"rental_uris":{"android":"levelo://app?vid=c5a98ffe-f85b-467a-8e47-ed63661a466d","ios":"levelo://app?vid=c5a98ffe-f85b-467a-8e47-ed63661a466d"},"vehicle_type_id":"4","last_reported":1723388833,"current_range_meters":30000,"station_id":"ce4bhah2rcd13ifvqej0","pricing_plan_id":"cebpf4jnsgd1na2vs0mg"},{"bike_id":"fec6d51e-bf9f-46a9-9849-1c150d682109","system_id":"levelo_inurba_marseille","lat":43.28655,"lon":5.36359,"is_reserved":false,"is_disabled":false,"rental_uris":{"android":"levelo://app?vid=fec6d51e-bf9f-46a9-9849-1c150d682109","ios":"levelo://app?vid=fec6d51e-bf9f-46a9-9849-1c150d682109"},"vehicle_type_id":"4","last_reported":1723388833,"current_range_meters":30400,"station_id":"ce4bhah2rcd13ifvqej0","pricing_plan_id":"cebpf4jnsgd1na2vs0mg"},{"bike_id":"a3ea24c0-586e-44b4-bea4-3332ad505e30","system_id":"levelo_inurba_marseille","lat":43.290336,"lon":5.386425,"is_reserved":false,"is_disabled":false,"rental_uris":{"android":"levelo://app?vid=a3ea24c0-586e-44b4-bea4-3332ad505e30","ios":"levelo://app?vid=a3ea24c0-586e-44b4-bea4-3332ad505e30"},"vehicle_type_id":"4","last_reported":1723388833,"current_range_meters":17200,"station_id":"ce4bh4p2rcd13ifvqe0g","pricing_plan_id":"cebpf4jnsgd1na2vs0mg"},{"bike_id":"3cf4e156-f247-4e6a-b488-c92c8c5cec23","system_id":"levelo_inurba_marseille","lat":43.290336,"lon":5.386425,"is_reserved":false,"is_disabled":false,"rental_uris":{"android":"levelo://app?vid=3cf4e156-f247-4e6a-b488-c92c8c5cec23","ios":"levelo://app?vid=3cf4e156-f247-4e6a-b488-c92c8c5cec23"},"vehicle_type_id":"4","last_reported":1723388833,"current_range_meters":6400,"station_id":"ce4bh4p2rcd13ifvqe0g","pricing_plan_id":"cebpf4jnsgd1na2vs0mg"},{"bike_id":"27406502-efe4-41ba-a730-e9f8b0a59cc6","system_id":"levelo_inurba_marseille","lat":43.286039,"lon":5.370681,"is_reserved":false,"is_disabled":false,"rental_uris":{"android":"levelo://app?vid=27406502-efe4-41ba-a730-e9f8b0a59cc6","ios":"levelo://app?vid=27406502-efe4-41ba-a730-e9f8b0a59cc6"},"vehicle_type_id":"4","last_reported":1723388833,"current_range_meters":15200,"station_id":"ce4bht12rcd13ifvqi60","pricing_plan_id":"cebpf4jnsgd1na2vs0mg"},{"bike_id":"e79b67b5-2052-4af4-bcf1-26289fddaa8a","system_id":"levelo_inurba_marseille","lat":43.284534,"lon":5.358662,"is_reserved":false,"is_disabled":false,"rental_uris":{"android":"levelo://app?vid=e79b67b5-2052-4af4-bcf1-26289fddaa8a","ios":"levelo://app?vid=e79b67b5-2052-4af4-bcf1-26289fddaa8a"},"vehicle_type_id":"4","last_reported":1723388833,"current_range_meters":20000,"station_id":"ce4bhah2rcd13ifvqei0","pricing_plan_id":"cebpf4jnsgd1na2vs0mg"},{"bike_id":"7d9db8f3-b428-4687-b331-8c782273e433","system_id":"levelo_inurba_marseille","lat":43.294314,"lon":5.397498,"is_reserved":false,"is_disabled":false,"rental_uris":{"android":"levelo://app?vid=7d9db8f3-b428-4687-b331-8c782273e433","ios":"levelo://app?vid=7d9db8f3-b428-4687-b331-8c782273e433"},"vehicle_type_id":"4","last_reported":1723388833,"current_range_meters":22000,"station_id":"ce4bh3h2rcd13ifvqdo0","pricing_plan_id":"cebpf4jnsgd1na2vs0mg"},{"bike_id":"573c8b72-a74f-4f3c-8ec5-60e28a893554","system_id":"levelo_inurba_marseille","lat":43.28622,"lon":5.35099,"is_reserved":false,"is_disabled":false,"rental_uris":{"android":"levelo://app?vid=573c8b72-a74f-4f3c-8ec5-60e28a893554","ios":"levelo://app?vid=573c8b72-a74f-4f3c-8ec5-60e28a893554"},"vehicle_type_id":"4","last_reported":1723388833,"current_range_meters":23200,"station_id":"ce4bhch2rcd13ifvqeug","pricing_plan_id":"cebpf4jnsgd1na2vs0mg"},{"bike_id":"bb7fc2eb-d23d-4626-9260-b0ecad75de9b","system_id":"levelo_inurba_marseille","lat":43.285856,"lon":5.350771,"is_reserved":false,"is_disabled":false,"rental_uris":{"android":"levelo://app?vid=bb7fc2eb-d23d-4626-9260-b0ecad75de9b","ios":"levelo://app?vid=bb7fc2eb-d23d-4626-9260-b0ecad75de9b"},"vehicle_type_id":"4","last_reported":1723388833,"current_range_meters":12000,"station_id":"ce4bhch2rcd13ifvqeug","pricing_plan_id":"cebpf4jnsgd1na2vs0mg"},{"bike_id":"a0345ed0-4240-46ea-8b15-86d1d3acdaf7","system_id":"levelo_inurba_marseille","lat":43.285856,"lon":5.350771,"is_reserved":false,"is_disabled":false,"rental_uris":{"android":"levelo://app?vid=a0345ed0-4240-46ea-8b15-86d1d3acdaf7","ios":"levelo://app?vid=a0345ed0-4240-46ea-8b15-86d1d3acdaf7"},"vehicle_type_id":"4","last_reported":1723388833,"current_range_meters":10400,"station_id":"ce4bhch2rcd13ifvqeug","pricing_plan_id":"cebpf4jnsgd1na2vs0mg"},{"bike_id":"0903bb75-016d-43aa-8cb7-12c2bd3e3d3e","system_id":"levelo_inurba_marseille","lat":43.28619,"lon":5.35095,"is_reserved":false,"is_disabled":false,"rental_uris":{"android":"levelo://app?vid=0903bb75-016d-43aa-8cb7-12c2bd3e3d3e","ios":"levelo://app?vid=0903bb75-016d-43aa-8cb7-12c2bd3e3d3e"},"vehicle_type_id":"4","last_reported":1723388833,"current_range_meters":30000,"station_id":"ce4bhch2rcd13ifvqeug","pricing_plan_id":"cebpf4jnsgd1na2vs0mg"},{"bike_id":"4ced472f-f4b7-4f24-a55e-de229557c8c7","system_id":"levelo_inurba_marseille","lat":43.285856,"lon":5.350771,"is_reserved":false,"is_disabled":false,"rental_uris":{"android":"levelo://app?vid=4ced472f-f4b7-4f24-a55e-de229557c8c7","ios":"levelo://app?vid=4ced472f-f4b7-4f24-a55e-de229557c8c7"},"vehicle_type_id":"4","last_reported":1723388833,"current_range_meters":24000,"station_id":"ce4bhch2rcd13ifvqeug","pricing_plan_id":"cebpf4jnsgd1na2vs0mg"},{"bike_id":"2cffdb04-2399-4a38-ae4e-863862c651f5","system_id":"levelo_inurba_marseille","lat":43.285856,"lon":5.350771,"is_reserved":false,"is_disabled":false,"rental_uris":{"android":"levelo://app?vid=2cffdb04-2399-4a38-ae4e-863862c651f5","ios":"levelo://app?vid=2cffdb04-2399-4a38-ae4e-863862c651f5"},"vehicle_type_id":"4","last_reported":1723388833,"current_range_meters":31200,"station_id":"ce4bhch2rcd13ifvqeug","pricing_plan_id":"cebpf4jnsgd1na2vs0mg"},{"bike_id":"45004342-90cf-4859-9654-92df203b7128","system_id":"levelo_inurba_marseille","lat":43.285856,"lon":5.350771,"is_reserved":false,"is_disabled":false,"rental_uris":{"android":"levelo://app?vid=45004342-90cf-4859-9654-92df203b7128","ios":"levelo://app?vid=45004342-90cf-4859-9654-92df203b7128"},"vehicle_type_id":"4","last_reported":1723388833,"current_range_meters":31200,"station_id":"ce4bhch2rcd13ifvqeug","pricing_plan_id":"cebpf4jnsgd1na2vs0mg"},{"bike_id":"a4a3c5af-62b2-4159-814e-c4c7be7a58b1","system_id":"levelo_inurba_marseille","lat":43.285856,"lon":5.350771,"is_reserved":false,"is_disabled":false,"rental_uris":{"android":"levelo://app?vid=a4a3c5af-62b2-4159-814e-c4c7be7a58b1","ios":"levelo://app?vid=a4a3c5af-62b2-4159-814e-c4c7be7a58b1"},"vehicle_type_id":"4","last_reported":1723388833,"current_range_meters":31200,"station_id":"ce4bhch2rcd13ifvqeug","pricing_plan_id":"cebpf4jnsgd1na2vs0mg"},{"bike_id":"38ab68cc-cb12-4f73-b098-877db3a848a3","system_id":"levelo_inurba_marseille","lat":43.285856,"lon":5.350771,"is_reserved":false,"is_disabled":false,"rental_uris":{"android":"levelo://app?vid=38ab68cc-cb12-4f73-b098-877db3a848a3","ios":"levelo://app?vid=38ab68cc-cb12-4f73-b098-877db3a848a3"},"vehicle_type_id":"4","last_reported":1723388833,"current_range_meters":30000,"station_id":"ce4bhch2rcd13ifvqeug","pricing_plan_id":"cebpf4jnsgd1na2vs0mg"},{"bike_id":"af685ef5-ffc2-4a56-be4f-944d92de5104","system_id":"levelo_inurba_marseille","lat":43.285856,"lon":5.350771,"is_reserved":false,"is_disabled":false,"rental_uris":{"android":"levelo://app?vid=af685ef5-ffc2-4a56-be4f-944d92de5104","ios":"levelo://app?vid=af685ef5-ffc2-4a56-be4f-944d92de5104"},"vehicle_type_id":"4","last_reported":1723388833,"current_range_meters":31200,"station_id":"ce4bhch2rcd13ifvqeug","pricing_plan_id":"cebpf4jnsgd1na2vs0mg"},{"bike_id":"2a7c3b96-f236-4990-978e-60892bfb1509","system_id":"levelo_inurba_marseille","lat":43.285856,"lon":5.350771,"is_reserved":false,"is_disabled":false,"rental_uris":{"android":"levelo://app?vid=2a7c3b96-f236-4990-978e-60892bfb1509","ios":"levelo://app?vid=2a7c3b96-f236-4990-978e-60892bfb1509"},"vehicle_type_id":"4","last_reported":1723388833,"current_range_meters":31200,"station_id":"ce4bhch2rcd13ifvqeug","pricing_plan_id":"cebpf4jnsgd1na2vs0mg"},{"bike_id":"b6a0777c-23f5-4c52-a587-00db439c7f3b","system_id":"levelo_inurba_marseille","lat":43.286074,"lon":5.351133,"is_reserved":false,"is_disabled":false,"rental_uris":{"android":"levelo://app?vid=b6a0777c-23f5-4c52-a587-00db439c7f3b","ios":"levelo://app?vid=b6a0777c-23f5-4c52-a587-00db439c7f3b"},"vehicle_type_id":"4","last_reported":1723388833,"current_range_meters":20400,"station_id":"","pricing_plan_id":"cebpf4jnsgd1na2vs0mg"},{"bike_id":"99428698-1ed5-4669-a3bb-43daae6070ee","system_id":"levelo_inurba_marseille","lat":43.285856,"lon":5.350771,"is_reserved":false,"is_disabled":false,"rental_uris":{"android":"levelo://app?vid=99428698-1ed5-4669-a3bb-43daae6070ee","ios":"levelo://app?vid=99428698-1ed5-4669-a3bb-43daae6070ee"},"vehicle_type_id":"4","last_reported":1723388833,"current_range_meters":29200,"station_id":"ce4bhch2rcd13ifvqeug","pricing_plan_id":"cebpf4jnsgd1na2vs0mg"},{"bike_id":"6383a9ad-866b-4bac-8362-755138db86a0","system_id":"levelo_inurba_marseille","lat":43.285848,"lon":5.350787,"is_reserved":false,"is_disabled":false,"rental_uris":{"android":"levelo://app?vid=6383a9ad-866b-4bac-8362-755138db86a0","ios":"levelo://app?vid=6383a9ad-866b-4bac-8362-755138db86a0"},"vehicle_type_id":"4","last_reported":1723388833,"current_range_meters":31200,"station_id":"ce4bhch2rcd13ifvqeug","pricing_plan_id":"cebpf4jnsgd1na2vs0mg"},{"bike_id":"8cef176a-597e-44d4-8570-8a0a5ffa1d70","system_id":"levelo_inurba_marseille","lat":43.285848,"lon":5.350787,"is_reserved":false,"is_disabled":false,"rental_uris":{"android":"levelo://app?vid=8cef176a-597e-44d4-8570-8a0a5ffa1d70","ios":"levelo://app?vid=8cef176a-597e-44d4-8570-8a0a5ffa1d70"},"vehicle_type_id":"4","last_reported":1723388833,"current_range_meters":18000,"station_id":"ce4bhch2rcd13ifvqeug","pricing_plan_id":"cebpf4jnsgd1na2vs0mg"},{"bike_id":"d88f5959-4442-4603-a44f-892725d9f93c","system_id":"levelo_inurba_marseille","lat":43.295713,"lon":5.399639,"is_reserved":false,"is_disabled":false,"rental_uris":{"android":"levelo://app?vid=d88f5959-4442-4603-a44f-892725d9f93c","ios":"levelo://app?vid=d88f5959-4442-4603-a44f-892725d9f93c"},"vehicle_type_id":"4","last_reported":1723388833,"current_range_meters":14400,"station_id":"ce4bh312rcd13ifvqdj0","pricing_plan_id":"cebpf4jnsgd1na2vs0mg"},{"bike_id":"eba51fa1-3420-441c-b9bf-18f3afea618d","system_id":"levelo_inurba_marseille","lat":43.283998,"lon":5.375062,"is_reserved":false,"is_disabled":false,"rental_uris":{"android":"levelo://app?vid=eba51fa1-3420-441c-b9bf-18f3afea618d","ios":"levelo://app?vid=eba51fa1-3420-441c-b9bf-18f3afea618d"},"vehicle_type_id":"4","last_reported":1723388833,"current_range_meters":25200,"station_id":"ce4bh412rcd13ifvqds0","pricing_plan_id":"cebpf4jnsgd1na2vs0mg"},{"bike_id":"0dc8e278-54ff-45c5-965c-702b7f7d87f3","system_id":"levelo_inurba_marseille","lat":43.286595,"lon":5.386795,"is_reserved":false,"is_disabled":false,"rental_uris":{"android":"levelo://app?vid=0dc8e278-54ff-45c5-965c-702b7f7d87f3","ios":"levelo://app?vid=0dc8e278-54ff-45c5-965c-702b7f7d87f3"},"vehicle_type_id":"4","last_reported":1723388833,"current_range_meters":12000,"station_id":"ce4bh492rcd13ifvqdug","pricing_plan_id":"cebpf4jnsgd1na2vs0mg"},{"bike_id":"701ab362-f771-44f0-b072-e05c212114f6","system_id":"levelo_inurba_marseille","lat":43.286595,"lon":5.386795,"is_reserved":false,"is_disabled":false,"rental_uris":{"android":"levelo://app?vid=701ab362-f771-44f0-b072-e05c212114f6","ios":"levelo://app?vid=701ab362-f771-44f0-b072-e05c212114f6"},"vehicle_type_id":"4","last_reported":1723388833,"current_range_meters":6400,"station_id":"ce4bh492rcd13ifvqdug","pricing_plan_id":"cebpf4jnsgd1na2vs0mg"},{"bike_id":"0fadb1e3-bdbd-43fb-91f0-b987203b4780","system_id":"levelo_inurba_marseille","lat":43.286595,"lon":5.386795,"is_reserved":false,"is_disabled":false,"rental_uris":{"android":"levelo://app?vid=0fadb1e3-bdbd-43fb-91f0-b987203b4780","ios":"levelo://app?vid=0fadb1e3-bdbd-43fb-91f0-b987203b4780"},"vehicle_type_id":"4","last_reported":1723388833,"current_range_meters":16800,"station_id":"ce4bh492rcd13ifvqdug","pricing_plan_id":"cebpf4jnsgd1na2vs0mg"},{"bike_id":"656aaf4c-3afb-43e4-92af-8ba99bd629dd","system_id":"levelo_inurba_marseille","lat":43.283998,"lon":5.375062,"is_reserved":false,"is_disabled":false,"rental_uris":{"android":"levelo://app?vid=656aaf4c-3afb-43e4-92af-8ba99bd629dd","ios":"levelo://app?vid=656aaf4c-3afb-43e4-92af-8ba99bd629dd"},"vehicle_type_id":"4","last_reported":1723388833,"current_range_meters":0,"station_id":"ce4bh412rcd13ifvqds0","pricing_plan_id":"cebpf4jnsgd1na2vs0mg"},{"bike_id":"1f07c2bf-85b7-473b-aae2-be6eb6cc9be9","system_id":"levelo_inurba_marseille","lat":43.323464,"lon":5.406297,"is_reserved":false,"is_disabled":false,"rental_uris":{"android":"levelo://app?vid=1f07c2bf-85b7-473b-aae2-be6eb6cc9be9","ios":"levelo://app?vid=1f07c2bf-85b7-473b-aae2-be6eb6cc9be9"},"vehicle_type_id":"4","last_reported":1723388833,"current_range_meters":2800,"station_id":"ce4bhq92rcd13ifvqhjg","pricing_plan_id":"cebpf4jnsgd1na2vs0mg"},{"bike_id":"eacf47d1-16af-4807-80af-71403d29e5c1","system_id":"levelo_inurba_marseille","lat":43.32341,"lon":5.406207,"is_reserved":false,"is_disabled":false,"rental_uris":{"android":"levelo://app?vid=eacf47d1-16af-4807-80af-71403d29e5c1","ios":"levelo://app?vid=eacf47d1-16af-4807-80af-71403d29e5c1"},"vehicle_type_id":"4","last_reported":1723388833,"current_range_meters":4400,"station_id":"ce4bhq92rcd13ifvqhjg","pricing_plan_id":"cebpf4jnsgd1na2vs0mg"},{"bike_id":"c8dcfa8e-d33c-4070-9cbc-24576a8e5608","system_id":"levelo_inurba_marseille","lat":43.326605,"lon":5.409903,"is_reserved":false,"is_disabled":false,"rental_uris":{"android":"levelo://app?vid=c8dcfa8e-d33c-4070-9cbc-24576a8e5608","ios":"levelo://app?vid=c8dcfa8e-d33c-4070-9cbc-24576a8e5608"},"vehicle_type_id":"4","last_reported":1723388833,"current_range_meters":4000,"station_id":"ce4bhpp2rcd13ifvqhgg","pricing_plan_id":"cebpf4jnsgd1na2vs0mg"},{"bike_id":"e24eede9-11f6-41dc-b92e-32b9eb523157","system_id":"levelo_inurba_marseille","lat":43.283921,"lon":5.381,"is_reserved":false,"is_disabled":false,"rental_uris":{"android":"levelo://app?vid=e24eede9-11f6-41dc-b92e-32b9eb523157","ios":"levelo://app?vid=e24eede9-11f6-41dc-b92e-32b9eb523157"},"vehicle_type_id":"4","last_reported":1723388833,"current_range_meters":11200,"station_id":"","pricing_plan_id":"cebpf4jnsgd1na2vs0mg"},{"bike_id":"c7c5d8c8-14cc-4de0-af1e-994752ce96d0","system_id":"levelo_inurba_marseille","lat":43.284793,"lon":5.384113,"is_reserved":false,"is_disabled":false,"rental_uris":{"android":"levelo://app?vid=c7c5d8c8-14cc-4de0-af1e-994752ce96d0","ios":"levelo://app?vid=c7c5d8c8-14cc-4de0-af1e-994752ce96d0"},"vehicle_type_id":"4","last_reported":1723388833,"current_range_meters":31200,"station_id":"ce4bh512rcd13ifvqe3g","pricing_plan_id":"cebpf4jnsgd1na2vs0mg"},{"bike_id":"1fc03a73-495f-4351-9f35-e2f909471987","system_id":"levelo_inurba_marseille","lat":43.284787,"lon":5.384116,"is_reserved":false,"is_disabled":false,"rental_uris":{"android":"levelo://app?vid=1fc03a73-495f-4351-9f35-e2f909471987","ios":"levelo://app?vid=1fc03a73-495f-4351-9f35-e2f909471987"},"vehicle_type_id":"4","last_reported":1723388833,"current_range_meters":0,"station_id":"ce4bh512rcd13ifvqe3g","pricing_plan_id":"cebpf4jnsgd1na2vs0mg"},{"bike_id":"1dd06aa9-d0a8-4ad3-94da-209cb2529770","system_id":"levelo_inurba_marseille","lat":43.284787,"lon":5.384116,"is_reserved":false,"is_disabled":false,"rental_uris":{"android":"levelo://app?vid=1dd06aa9-d0a8-4ad3-94da-209cb2529770","ios":"levelo://app?vid=1dd06aa9-d0a8-4ad3-94da-209cb2529770"},"vehicle_type_id":"4","last_reported":1723388833,"current_range_meters":21600,"station_id":"ce4bh512rcd13ifvqe3g","pricing_plan_id":"cebpf4jnsgd1na2vs0mg"},{"bike_id":"8df395c0-c9e1-4056-8a22-b1d7ac71324f","system_id":"levelo_inurba_marseille","lat":43.297946,"lon":5.404063,"is_reserved":false,"is_disabled":false,"rental_uris":{"android":"levelo://app?vid=8df395c0-c9e1-4056-8a22-b1d7ac71324f","ios":"levelo://app?vid=8df395c0-c9e1-4056-8a22-b1d7ac71324f"},"vehicle_type_id":"4","last_reported":1723388833,"current_range_meters":6800,"station_id":"ce4bh112rcd13ifvqd90","pricing_plan_id":"cebpf4jnsgd1na2vs0mg"},{"bike_id":"1ce92b46-9426-467c-9a4d-e31da3122df2","system_id":"levelo_inurba_marseille","lat":43.284776,"lon":5.385603,"is_reserved":false,"is_disabled":false,"rental_uris":{"android":"levelo://app?vid=1ce92b46-9426-467c-9a4d-e31da3122df2","ios":"levelo://app?vid=1ce92b46-9426-467c-9a4d-e31da3122df2"},"vehicle_type_id":"4","last_reported":1723388833,"current_range_meters":17600,"station_id":"ce4bh8p2rcd13ifvqeb0","pricing_plan_id":"cebpf4jnsgd1na2vs0mg"},{"bike_id":"d0a6a010-3537-4078-a234-c31059c6dd67","system_id":"levelo_inurba_marseille","lat":43.288501,"lon":5.393087,"is_reserved":false,"is_disabled":false,"rental_uris":{"android":"levelo://app?vid=d0a6a010-3537-4078-a234-c31059c6dd67","ios":"levelo://app?vid=d0a6a010-3537-4078-a234-c31059c6dd67"},"vehicle_type_id":"4","last_reported":1723388833,"current_range_meters":12400,"station_id":"ce4bh2p2rcd13ifvqdi0","pricing_plan_id":"cebpf4jnsgd1na2vs0mg"},{"bike_id":"44c060c7-d4ab-4e5a-ad51-30e2369d4241","system_id":"levelo_inurba_marseille","lat":43.29041,"lon":5.399634,"is_reserved":false,"is_disabled":false,"rental_uris":{"android":"levelo://app?vid=44c060c7-d4ab-4e5a-ad51-30e2369d4241","ios":"levelo://app?vid=44c060c7-d4ab-4e5a-ad51-30e2369d4241"},"vehicle_type_id":"4","last_reported":1723388833,"current_range_meters":0,"station_id":"ce4bh392rcd13ifvqdm0","pricing_plan_id":"cebpf4jnsgd1na2vs0mg"},{"bike_id":"e055aec2-e8bb-4c50-9960-2074355b72cc","system_id":"levelo_inurba_marseille","lat":43.284217,"lon":5.349697,"is_reserved":false,"is_disabled":false,"rental_uris":{"android":"levelo://app?vid=e055aec2-e8bb-4c50-9960-2074355b72cc","ios":"levelo://app?vid=e055aec2-e8bb-4c50-9960-2074355b72cc"},"vehicle_type_id":"4","last_reported":1723388833,"current_range_meters":31200,"station_id":"ce4bhbh2rcd13ifvqepg","pricing_plan_id":"cebpf4jnsgd1na2vs0mg"},{"bike_id":"d48d4b9b-cf6f-42d9-a22d-fa6e05a888af","system_id":"levelo_inurba_marseille","lat":43.28424,"lon":5.34991,"is_reserved":false,"is_disabled":false,"rental_uris":{"android":"levelo://app?vid=d48d4b9b-cf6f-42d9-a22d-fa6e05a888af","ios":"levelo://app?vid=d48d4b9b-cf6f-42d9-a22d-fa6e05a888af"},"vehicle_type_id":"4","last_reported":1723388833,"current_range_meters":31200,"station_id":"ce4bhbh2rcd13ifvqepg","pricing_plan_id":"cebpf4jnsgd1na2vs0mg"},{"bike_id":"540ead9b-f309-4ea3-8698-b6dd8464b4c1","system_id":"levelo_inurba_marseille","lat":43.2842,"lon":5.34994,"is_reserved":false,"is_disabled":false,"rental_uris":{"android":"levelo://app?vid=540ead9b-f309-4ea3-8698-b6dd8464b4c1","ios":"levelo://app?vid=540ead9b-f309-4ea3-8698-b6dd8464b4c1"},"vehicle_type_id":"4","last_reported":1723388833,"current_range_meters":5200,"station_id":"ce4bhbh2rcd13ifvqepg","pricing_plan_id":"cebpf4jnsgd1na2vs0mg"},{"bike_id":"7feeaf97-0455-42e1-aa5e-b3c08b1aea21","system_id":"levelo_inurba_marseille","lat":43.28421,"lon":5.3499,"is_reserved":false,"is_disabled":false,"rental_uris":{"android":"levelo://app?vid=7feeaf97-0455-42e1-aa5e-b3c08b1aea21","ios":"levelo://app?vid=7feeaf97-0455-42e1-aa5e-b3c08b1aea21"},"vehicle_type_id":"4","last_reported":1723388833,"current_range_meters":31200,"station_id":"ce4bhbh2rcd13ifvqepg","pricing_plan_id":"cebpf4jnsgd1na2vs0mg"},{"bike_id":"dca5324e-808b-4cf7-bf6c-1e67ce46e636","system_id":"levelo_inurba_marseille","lat":43.2842,"lon":5.34987,"is_reserved":false,"is_disabled":false,"rental_uris":{"android":"levelo://app?vid=dca5324e-808b-4cf7-bf6c-1e67ce46e636","ios":"levelo://app?vid=dca5324e-808b-4cf7-bf6c-1e67ce46e636"},"vehicle_type_id":"4","last_reported":1723388833,"current_range_meters":27200,"station_id":"ce4bhbh2rcd13ifvqepg","pricing_plan_id":"cebpf4jnsgd1na2vs0mg"},{"bike_id":"8dd6e32f-cdb1-4082-ae89-56410391eb7e","system_id":"levelo_inurba_marseille","lat":43.28421,"lon":5.34982,"is_reserved":false,"is_disabled":false,"rental_uris":{"android":"levelo://app?vid=8dd6e32f-cdb1-4082-ae89-56410391eb7e","ios":"levelo://app?vid=8dd6e32f-cdb1-4082-ae89-56410391eb7e"},"vehicle_type_id":"4","last_reported":1723388833,"current_range_meters":9600,"station_id":"ce4bhbh2rcd13ifvqepg","pricing_plan_id":"cebpf4jnsgd1na2vs0mg"},{"bike_id":"fa61b8cc-6004-4534-9986-a13967a68d2a","system_id":"levelo_inurba_marseille","lat":43.28419,"lon":5.34985,"is_reserved":false,"is_disabled":false,"rental_uris":{"android":"levelo://app?vid=fa61b8cc-6004-4534-9986-a13967a68d2a","ios":"levelo://app?vid=fa61b8cc-6004-4534-9986-a13967a68d2a"},"vehicle_type_id":"4","last_reported":1723388833,"current_range_meters":20000,"station_id":"ce4bhbh2rcd13ifvqepg","pricing_plan_id":"cebpf4jnsgd1na2vs0mg"},{"bike_id":"22236361-64af-4337-9143-5b489176cad0","system_id":"levelo_inurba_marseille","lat":43.28417,"lon":5.34991,"is_reserved":false,"is_disabled":false,"rental_uris":{"android":"levelo://app?vid=22236361-64af-4337-9143-5b489176cad0","ios":"levelo://app?vid=22236361-64af-4337-9143-5b489176cad0"},"vehicle_type_id":"4","last_reported":1723388833,"current_range_meters":11600,"station_id":"ce4bhbh2rcd13ifvqepg","pricing_plan_id":"cebpf4jnsgd1na2vs0mg"},{"bike_id":"88a869aa-9c8c-4862-adc5-f50729dc8f01","system_id":"levelo_inurba_marseille","lat":43.2842,"lon":5.34979,"is_reserved":false,"is_disabled":false,"rental_uris":{"android":"levelo://app?vid=88a869aa-9c8c-4862-adc5-f50729dc8f01","ios":"levelo://app?vid=88a869aa-9c8c-4862-adc5-f50729dc8f01"},"vehicle_type_id":"4","last_reported":1723388833,"current_range_meters":0,"station_id":"ce4bhbh2rcd13ifvqepg","pricing_plan_id":"cebpf4jnsgd1na2vs0mg"},{"bike_id":"10fdca3c-fdb9-4d47-a559-e9f914d604b6","system_id":"levelo_inurba_marseille","lat":43.284163,"lon":5.349883,"is_reserved":false,"is_disabled":false,"rental_uris":{"android":"levelo://app?vid=10fdca3c-fdb9-4d47-a559-e9f914d604b6","ios":"levelo://app?vid=10fdca3c-fdb9-4d47-a559-e9f914d604b6"},"vehicle_type_id":"4","last_reported":1723388833,"current_range_meters":28000,"station_id":"ce4bhbh2rcd13ifvqepg","pricing_plan_id":"cebpf4jnsgd1na2vs0mg"},{"bike_id":"6bcbf69c-7cf5-4a9c-a0e6-476a428a4eb0","system_id":"levelo_inurba_marseille","lat":43.28415,"lon":5.34992,"is_reserved":false,"is_disabled":false,"rental_uris":{"android":"levelo://app?vid=6bcbf69c-7cf5-4a9c-a0e6-476a428a4eb0","ios":"levelo://app?vid=6bcbf69c-7cf5-4a9c-a0e6-476a428a4eb0"},"vehicle_type_id":"4","last_reported":1723388833,"current_range_meters":10400,"station_id":"ce4bhbh2rcd13ifvqepg","pricing_plan_id":"cebpf4jnsgd1na2vs0mg"},{"bike_id":"d1b4a59c-4ff0-4f22-809f-0462ec524038","system_id":"levelo_inurba_marseille","lat":43.28415,"lon":5.34992,"is_reserved":false,"is_disabled":false,"rental_uris":{"android":"levelo://app?vid=d1b4a59c-4ff0-4f22-809f-0462ec524038","ios":"levelo://app?vid=d1b4a59c-4ff0-4f22-809f-0462ec524038"},"vehicle_type_id":"4","last_reported":1723388833,"current_range_meters":16400,"station_id":"ce4bhbh2rcd13ifvqepg","pricing_plan_id":"cebpf4jnsgd1na2vs0mg"},{"bike_id":"0eca502d-98b8-48ac-9612-44051efbecd6","system_id":"levelo_inurba_marseille","lat":43.284217,"lon":5.349697,"is_reserved":false,"is_disabled":false,"rental_uris":{"android":"levelo://app?vid=0eca502d-98b8-48ac-9612-44051efbecd6","ios":"levelo://app?vid=0eca502d-98b8-48ac-9612-44051efbecd6"},"vehicle_type_id":"4","last_reported":1723388833,"current_range_meters":29200,"station_id":"ce4bhbh2rcd13ifvqepg","pricing_plan_id":"cebpf4jnsgd1na2vs0mg"},{"bike_id":"1c64057c-042b-4a99-998c-01f9121fbc9e","system_id":"levelo_inurba_marseille","lat":43.28414,"lon":5.34993,"is_reserved":false,"is_disabled":false,"rental_uris":{"android":"levelo://app?vid=1c64057c-042b-4a99-998c-01f9121fbc9e","ios":"levelo://app?vid=1c64057c-042b-4a99-998c-01f9121fbc9e"},"vehicle_type_id":"4","last_reported":1723388833,"current_range_meters":31200,"station_id":"ce4bhbh2rcd13ifvqepg","pricing_plan_id":"cebpf4jnsgd1na2vs0mg"},{"bike_id":"f67b1dac-4283-4c8a-b874-51ea2c10f0a0","system_id":"levelo_inurba_marseille","lat":43.284153,"lon":5.349887,"is_reserved":false,"is_disabled":false,"rental_uris":{"android":"levelo://app?vid=f67b1dac-4283-4c8a-b874-51ea2c10f0a0","ios":"levelo://app?vid=f67b1dac-4283-4c8a-b874-51ea2c10f0a0"},"vehicle_type_id":"4","last_reported":1723388833,"current_range_meters":31200,"station_id":"ce4bhbh2rcd13ifvqepg","pricing_plan_id":"cebpf4jnsgd1na2vs0mg"},{"bike_id":"6fb120ee-1cb7-49ed-9d30-b85a02edef55","system_id":"levelo_inurba_marseille","lat":43.284137,"lon":5.349887,"is_reserved":false,"is_disabled":false,"rental_uris":{"android":"levelo://app?vid=6fb120ee-1cb7-49ed-9d30-b85a02edef55","ios":"levelo://app?vid=6fb120ee-1cb7-49ed-9d30-b85a02edef55"},"vehicle_type_id":"4","last_reported":1723388833,"current_range_meters":31200,"station_id":"ce4bhbh2rcd13ifvqepg","pricing_plan_id":"cebpf4jnsgd1na2vs0mg"},{"bike_id":"4ee5a10e-8e7e-4a22-9f47-39a2ac606387","system_id":"levelo_inurba_marseille","lat":43.28413,"lon":5.349907,"is_reserved":false,"is_disabled":false,"rental_uris":{"android":"levelo://app?vid=4ee5a10e-8e7e-4a22-9f47-39a2ac606387","ios":"levelo://app?vid=4ee5a10e-8e7e-4a22-9f47-39a2ac606387"},"vehicle_type_id":"4","last_reported":1723388833,"current_range_meters":27600,"station_id":"ce4bhbh2rcd13ifvqepg","pricing_plan_id":"cebpf4jnsgd1na2vs0mg"},{"bike_id":"04457196-4dc0-4463-9084-e6da8ffc39d6","system_id":"levelo_inurba_marseille","lat":43.28416,"lon":5.3498,"is_reserved":false,"is_disabled":false,"rental_uris":{"android":"levelo://app?vid=04457196-4dc0-4463-9084-e6da8ffc39d6","ios":"levelo://app?vid=04457196-4dc0-4463-9084-e6da8ffc39d6"},"vehicle_type_id":"4","last_reported":1723388833,"current_range_meters":13200,"station_id":"ce4bhbh2rcd13ifvqepg","pricing_plan_id":"cebpf4jnsgd1na2vs0mg"},{"bike_id":"628bf91a-fa5f-49de-8897-725536acb746","system_id":"levelo_inurba_marseille","lat":43.28414,"lon":5.34986,"is_reserved":false,"is_disabled":false,"rental_uris":{"android":"levelo://app?vid=628bf91a-fa5f-49de-8897-725536acb746","ios":"levelo://app?vid=628bf91a-fa5f-49de-8897-725536acb746"},"vehicle_type_id":"4","last_reported":1723388833,"current_range_meters":16400,"station_id":"ce4bhbh2rcd13ifvqepg","pricing_plan_id":"cebpf4jnsgd1na2vs0mg"},{"bike_id":"b2a34bca-2222-48d8-aa6d-5f2e4ce45063","system_id":"levelo_inurba_marseille","lat":43.28414,"lon":5.34985,"is_reserved":false,"is_disabled":false,"rental_uris":{"android":"levelo://app?vid=b2a34bca-2222-48d8-aa6d-5f2e4ce45063","ios":"levelo://app?vid=b2a34bca-2222-48d8-aa6d-5f2e4ce45063"},"vehicle_type_id":"4","last_reported":1723388833,"current_range_meters":8400,"station_id":"ce4bhbh2rcd13ifvqepg","pricing_plan_id":"cebpf4jnsgd1na2vs0mg"},{"bike_id":"1e54a4ed-41d9-4930-b1f0-55c9401e8da1","system_id":"levelo_inurba_marseille","lat":43.284217,"lon":5.349697,"is_reserved":false,"is_disabled":false,"rental_uris":{"android":"levelo://app?vid=1e54a4ed-41d9-4930-b1f0-55c9401e8da1","ios":"levelo://app?vid=1e54a4ed-41d9-4930-b1f0-55c9401e8da1"},"vehicle_type_id":"4","last_reported":1723388833,"current_range_meters":31600,"station_id":"ce4bhbh2rcd13ifvqepg","pricing_plan_id":"cebpf4jnsgd1na2vs0mg"},{"bike_id":"483a6382-6ac0-46d4-b06d-b534d6c048e9","system_id":"levelo_inurba_marseille","lat":43.284217,"lon":5.349697,"is_reserved":false,"is_disabled":false,"rental_uris":{"android":"levelo://app?vid=483a6382-6ac0-46d4-b06d-b534d6c048e9","ios":"levelo://app?vid=483a6382-6ac0-46d4-b06d-b534d6c048e9"},"vehicle_type_id":"4","last_reported":1723388833,"current_range_meters":31200,"station_id":"ce4bhbh2rcd13ifvqepg","pricing_plan_id":"cebpf4jnsgd1na2vs0mg"},{"bike_id":"e6b19038-8e5e-4e35-beb4-a994162d0222","system_id":"levelo_inurba_marseille","lat":43.28415,"lon":5.349813,"is_reserved":false,"is_disabled":false,"rental_uris":{"android":"levelo://app?vid=e6b19038-8e5e-4e35-beb4-a994162d0222","ios":"levelo://app?vid=e6b19038-8e5e-4e35-beb4-a994162d0222"},"vehicle_type_id":"4","last_reported":1723388833,"current_range_meters":31200,"station_id":"ce4bhbh2rcd13ifvqepg","pricing_plan_id":"cebpf4jnsgd1na2vs0mg"},{"bike_id":"9fbf5c0c-05f9-4f09-9cb9-0071afa2931d","system_id":"levelo_inurba_marseille","lat":43.28413,"lon":5.34987,"is_reserved":false,"is_disabled":false,"rental_uris":{"android":"levelo://app?vid=9fbf5c0c-05f9-4f09-9cb9-0071afa2931d","ios":"levelo://app?vid=9fbf5c0c-05f9-4f09-9cb9-0071afa2931d"},"vehicle_type_id":"4","last_reported":1723388833,"current_range_meters":15600,"station_id":"ce4bhbh2rcd13ifvqepg","pricing_plan_id":"cebpf4jnsgd1na2vs0mg"},{"bike_id":"790248bf-2657-40ea-a6a9-bd05123e3e2c","system_id":"levelo_inurba_marseille","lat":43.284217,"lon":5.349697,"is_reserved":false,"is_disabled":false,"rental_uris":{"android":"levelo://app?vid=790248bf-2657-40ea-a6a9-bd05123e3e2c","ios":"levelo://app?vid=790248bf-2657-40ea-a6a9-bd05123e3e2c"},"vehicle_type_id":"4","last_reported":1723388833,"current_range_meters":31200,"station_id":"ce4bhbh2rcd13ifvqepg","pricing_plan_id":"cebpf4jnsgd1na2vs0mg"},{"bike_id":"1dfe1b81-fb50-4158-9747-b5348d6ecc4a","system_id":"levelo_inurba_marseille","lat":43.284217,"lon":5.349697,"is_reserved":false,"is_disabled":false,"rental_uris":{"android":"levelo://app?vid=1dfe1b81-fb50-4158-9747-b5348d6ecc4a","ios":"levelo://app?vid=1dfe1b81-fb50-4158-9747-b5348d6ecc4a"},"vehicle_type_id":"4","last_reported":1723388833,"current_range_meters":31600,"station_id":"ce4bhbh2rcd13ifvqepg","pricing_plan_id":"cebpf4jnsgd1na2vs0mg"},{"bike_id":"ddf95f7b-5eaa-46d5-b4b3-db65e8a30e62","system_id":"levelo_inurba_marseille","lat":43.28412,"lon":5.349841,"is_reserved":false,"is_disabled":false,"rental_uris":{"android":"levelo://app?vid=ddf95f7b-5eaa-46d5-b4b3-db65e8a30e62","ios":"levelo://app?vid=ddf95f7b-5eaa-46d5-b4b3-db65e8a30e62"},"vehicle_type_id":"4","last_reported":1723388833,"current_range_meters":23600,"station_id":"ce4bhbh2rcd13ifvqepg","pricing_plan_id":"cebpf4jnsgd1na2vs0mg"},{"bike_id":"7fc3d50c-e2ba-444f-b963-3d8c961f6108","system_id":"levelo_inurba_marseille","lat":43.28408,"lon":5.34996,"is_reserved":false,"is_disabled":false,"rental_uris":{"android":"levelo://app?vid=7fc3d50c-e2ba-444f-b963-3d8c961f6108","ios":"levelo://app?vid=7fc3d50c-e2ba-444f-b963-3d8c961f6108"},"vehicle_type_id":"4","last_reported":1723388833,"current_range_meters":31200,"station_id":"ce4bhbh2rcd13ifvqepg","pricing_plan_id":"cebpf4jnsgd1na2vs0mg"},{"bike_id":"6ebe516e-3164-45ee-b8ef-fcb189e1d292","system_id":"levelo_inurba_marseille","lat":43.284217,"lon":5.349697,"is_reserved":false,"is_disabled":false,"rental_uris":{"android":"levelo://app?vid=6ebe516e-3164-45ee-b8ef-fcb189e1d292","ios":"levelo://app?vid=6ebe516e-3164-45ee-b8ef-fcb189e1d292"},"vehicle_type_id":"4","last_reported":1723388833,"current_range_meters":21600,"station_id":"ce4bhbh2rcd13ifvqepg","pricing_plan_id":"cebpf4jnsgd1na2vs0mg"},{"bike_id":"882bdd48-b522-4fa2-b4dd-56bc1a1af3d5","system_id":"levelo_inurba_marseille","lat":43.284122,"lon":5.34978,"is_reserved":false,"is_disabled":false,"rental_uris":{"android":"levelo://app?vid=882bdd48-b522-4fa2-b4dd-56bc1a1af3d5","ios":"levelo://app?vid=882bdd48-b522-4fa2-b4dd-56bc1a1af3d5"},"vehicle_type_id":"4","last_reported":1723388833,"current_range_meters":4000,"station_id":"ce4bhbh2rcd13ifvqepg","pricing_plan_id":"cebpf4jnsgd1na2vs0mg"},{"bike_id":"983e0bf7-c078-40b3-b1e2-dee41115a9c9","system_id":"levelo_inurba_marseille","lat":43.2841,"lon":5.34984,"is_reserved":false,"is_disabled":false,"rental_uris":{"android":"levelo://app?vid=983e0bf7-c078-40b3-b1e2-dee41115a9c9","ios":"levelo://app?vid=983e0bf7-c078-40b3-b1e2-dee41115a9c9"},"vehicle_type_id":"4","last_reported":1723388833,"current_range_meters":26400,"station_id":"ce4bhbh2rcd13ifvqepg","pricing_plan_id":"cebpf4jnsgd1na2vs0mg"},{"bike_id":"8a9edcbb-f2f1-4906-ba91-4f3c595d1806","system_id":"levelo_inurba_marseille","lat":43.284217,"lon":5.349697,"is_reserved":false,"is_disabled":false,"rental_uris":{"android":"levelo://app?vid=8a9edcbb-f2f1-4906-ba91-4f3c595d1806","ios":"levelo://app?vid=8a9edcbb-f2f1-4906-ba91-4f3c595d1806"},"vehicle_type_id":"4","last_reported":1723388833,"current_range_meters":12000,"station_id":"ce4bhbh2rcd13ifvqepg","pricing_plan_id":"cebpf4jnsgd1na2vs0mg"},{"bike_id":"8cf982e2-38b2-4fcd-8356-588f9a386b85","system_id":"levelo_inurba_marseille","lat":43.284217,"lon":5.349697,"is_reserved":false,"is_disabled":false,"rental_uris":{"android":"levelo://app?vid=8cf982e2-38b2-4fcd-8356-588f9a386b85","ios":"levelo://app?vid=8cf982e2-38b2-4fcd-8356-588f9a386b85"},"vehicle_type_id":"4","last_reported":1723388833,"current_range_meters":17200,"station_id":"ce4bhbh2rcd13ifvqepg","pricing_plan_id":"cebpf4jnsgd1na2vs0mg"},{"bike_id":"ec3abb10-5928-4571-9ee9-1145759982f1","system_id":"levelo_inurba_marseille","lat":43.28406,"lon":5.3499,"is_reserved":false,"is_disabled":false,"rental_uris":{"android":"levelo://app?vid=ec3abb10-5928-4571-9ee9-1145759982f1","ios":"levelo://app?vid=ec3abb10-5928-4571-9ee9-1145759982f1"},"vehicle_type_id":"4","last_reported":1723388833,"current_range_meters":14400,"station_id":"ce4bhbh2rcd13ifvqepg","pricing_plan_id":"cebpf4jnsgd1na2vs0mg"},{"bike_id":"3b355fe7-6f8c-4dcf-abb7-00c0e0faebe8","system_id":"levelo_inurba_marseille","lat":43.284217,"lon":5.349697,"is_reserved":false,"is_disabled":false,"rental_uris":{"android":"levelo://app?vid=3b355fe7-6f8c-4dcf-abb7-00c0e0faebe8","ios":"levelo://app?vid=3b355fe7-6f8c-4dcf-abb7-00c0e0faebe8"},"vehicle_type_id":"4","last_reported":1723388833,"current_range_meters":31200,"station_id":"ce4bhbh2rcd13ifvqepg","pricing_plan_id":"cebpf4jnsgd1na2vs0mg"},{"bike_id":"f5217974-d24f-4796-808c-9ad1702c065e","system_id":"levelo_inurba_marseille","lat":43.284214,"lon":5.349706,"is_reserved":false,"is_disabled":false,"rental_uris":{"android":"levelo://app?vid=f5217974-d24f-4796-808c-9ad1702c065e","ios":"levelo://app?vid=f5217974-d24f-4796-808c-9ad1702c065e"},"vehicle_type_id":"4","last_reported":1723388833,"current_range_meters":31200,"station_id":"ce4bhbh2rcd13ifvqepg","pricing_plan_id":"cebpf4jnsgd1na2vs0mg"},{"bike_id":"4479625d-2f26-4b54-ae0f-aa518617e167","system_id":"levelo_inurba_marseille","lat":43.28406,"lon":5.34982,"is_reserved":false,"is_disabled":false,"rental_uris":{"android":"levelo://app?vid=4479625d-2f26-4b54-ae0f-aa518617e167","ios":"levelo://app?vid=4479625d-2f26-4b54-ae0f-aa518617e167"},"vehicle_type_id":"4","last_reported":1723388833,"current_range_meters":18400,"station_id":"ce4bhbh2rcd13ifvqepg","pricing_plan_id":"cebpf4jnsgd1na2vs0mg"},{"bike_id":"b9028d3e-6f07-4e3b-b943-d16df31e3233","system_id":"levelo_inurba_marseille","lat":43.284217,"lon":5.349697,"is_reserved":false,"is_disabled":false,"rental_uris":{"android":"levelo://app?vid=b9028d3e-6f07-4e3b-b943-d16df31e3233","ios":"levelo://app?vid=b9028d3e-6f07-4e3b-b943-d16df31e3233"},"vehicle_type_id":"4","last_reported":1723388833,"current_range_meters":31200,"station_id":"ce4bhbh2rcd13ifvqepg","pricing_plan_id":"cebpf4jnsgd1na2vs0mg"},{"bike_id":"f2130e26-5141-4bdd-a5de-04f6ed909f8b","system_id":"levelo_inurba_marseille","lat":43.284214,"lon":5.349706,"is_reserved":false,"is_disabled":false,"rental_uris":{"android":"levelo://app?vid=f2130e26-5141-4bdd-a5de-04f6ed909f8b","ios":"levelo://app?vid=f2130e26-5141-4bdd-a5de-04f6ed909f8b"},"vehicle_type_id":"4","last_reported":1723388833,"current_range_meters":19600,"station_id":"ce4bhbh2rcd13ifvqepg","pricing_plan_id":"cebpf4jnsgd1na2vs0mg"},{"bike_id":"70dd4b46-c263-45a0-8de1-154a8d0e8ef2","system_id":"levelo_inurba_marseille","lat":43.284,"lon":5.34986,"is_reserved":false,"is_disabled":false,"rental_uris":{"android":"levelo://app?vid=70dd4b46-c263-45a0-8de1-154a8d0e8ef2","ios":"levelo://app?vid=70dd4b46-c263-45a0-8de1-154a8d0e8ef2"},"vehicle_type_id":"4","last_reported":1723388833,"current_range_meters":31200,"station_id":"ce4bhbh2rcd13ifvqepg","pricing_plan_id":"cebpf4jnsgd1na2vs0mg"},{"bike_id":"24a6d260-9996-4144-8dc7-12a750a0fd9d","system_id":"levelo_inurba_marseille","lat":43.295748,"lon":5.37522,"is_reserved":false,"is_disabled":false,"rental_uris":{"android":"levelo://app?vid=24a6d260-9996-4144-8dc7-12a750a0fd9d","ios":"levelo://app?vid=24a6d260-9996-4144-8dc7-12a750a0fd9d"},"vehicle_type_id":"4","last_reported":1723388833,"current_range_meters":12800,"station_id":"ce4bgh92rcd13ifvqb50","pricing_plan_id":"cebpf4jnsgd1na2vs0mg"},{"bike_id":"2d4585ec-c57b-4fa3-8571-548f46be3a92","system_id":"levelo_inurba_marseille","lat":43.29409,"lon":5.402687,"is_reserved":false,"is_disabled":false,"rental_uris":{"android":"levelo://app?vid=2d4585ec-c57b-4fa3-8571-548f46be3a92","ios":"levelo://app?vid=2d4585ec-c57b-4fa3-8571-548f46be3a92"},"vehicle_type_id":"4","last_reported":1723388833,"current_range_meters":6400,"station_id":"","pricing_plan_id":"cebpf4jnsgd1na2vs0mg"},{"bike_id":"8a2fd884-6c46-4adc-bc00-9a7779a33144","system_id":"levelo_inurba_marseille","lat":43.28276,"lon":5.35072,"is_reserved":false,"is_disabled":false,"rental_uris":{"android":"levelo://app?vid=8a2fd884-6c46-4adc-bc00-9a7779a33144","ios":"levelo://app?vid=8a2fd884-6c46-4adc-bc00-9a7779a33144"},"vehicle_type_id":"4","last_reported":1723388833,"current_range_meters":29200,"station_id":"ce4bhbp2rcd13ifvqerg","pricing_plan_id":"cebpf4jnsgd1na2vs0mg"},{"bike_id":"a63ad183-4115-45fa-a9d6-beed18c68bf4","system_id":"levelo_inurba_marseille","lat":43.282744,"lon":5.350533,"is_reserved":false,"is_disabled":false,"rental_uris":{"android":"levelo://app?vid=a63ad183-4115-45fa-a9d6-beed18c68bf4","ios":"levelo://app?vid=a63ad183-4115-45fa-a9d6-beed18c68bf4"},"vehicle_type_id":"4","last_reported":1723388833,"current_range_meters":24400,"station_id":"ce4bhbp2rcd13ifvqerg","pricing_plan_id":"cebpf4jnsgd1na2vs0mg"},{"bike_id":"0e0e4854-f76d-40b6-8bb3-da1b8f642707","system_id":"levelo_inurba_marseille","lat":43.282744,"lon":5.350533,"is_reserved":false,"is_disabled":false,"rental_uris":{"android":"levelo://app?vid=0e0e4854-f76d-40b6-8bb3-da1b8f642707","ios":"levelo://app?vid=0e0e4854-f76d-40b6-8bb3-da1b8f642707"},"vehicle_type_id":"4","last_reported":1723388833,"current_range_meters":31200,"station_id":"ce4bhbp2rcd13ifvqerg","pricing_plan_id":"cebpf4jnsgd1na2vs0mg"},{"bike_id":"2cfd3764-d979-4beb-91aa-6a0e69e4876c","system_id":"levelo_inurba_marseille","lat":43.282744,"lon":5.350533,"is_reserved":false,"is_disabled":false,"rental_uris":{"android":"levelo://app?vid=2cfd3764-d979-4beb-91aa-6a0e69e4876c","ios":"levelo://app?vid=2cfd3764-d979-4beb-91aa-6a0e69e4876c"},"vehicle_type_id":"4","last_reported":1723388833,"current_range_meters":31200,"station_id":"ce4bhbp2rcd13ifvqerg","pricing_plan_id":"cebpf4jnsgd1na2vs0mg"},{"bike_id":"df0e41dc-8b5b-4561-832a-b17908e157b0","system_id":"levelo_inurba_marseille","lat":43.282744,"lon":5.350533,"is_reserved":false,"is_disabled":false,"rental_uris":{"android":"levelo://app?vid=df0e41dc-8b5b-4561-832a-b17908e157b0","ios":"levelo://app?vid=df0e41dc-8b5b-4561-832a-b17908e157b0"},"vehicle_type_id":"4","last_reported":1723388833,"current_range_meters":0,"station_id":"ce4bhbp2rcd13ifvqerg","pricing_plan_id":"cebpf4jnsgd1na2vs0mg"},{"bike_id":"50c6f641-d877-4478-baf4-bc585778fd59","system_id":"levelo_inurba_marseille","lat":43.2827,"lon":5.35073,"is_reserved":false,"is_disabled":false,"rental_uris":{"android":"levelo://app?vid=50c6f641-d877-4478-baf4-bc585778fd59","ios":"levelo://app?vid=50c6f641-d877-4478-baf4-bc585778fd59"},"vehicle_type_id":"4","last_reported":1723388833,"current_range_meters":31600,"station_id":"ce4bhbp2rcd13ifvqerg","pricing_plan_id":"cebpf4jnsgd1na2vs0mg"},{"bike_id":"16f92506-0a25-4cea-ba6c-d80ee0c3660c","system_id":"levelo_inurba_marseille","lat":43.2827,"lon":5.35071,"is_reserved":false,"is_disabled":false,"rental_uris":{"android":"levelo://app?vid=16f92506-0a25-4cea-ba6c-d80ee0c3660c","ios":"levelo://app?vid=16f92506-0a25-4cea-ba6c-d80ee0c3660c"},"vehicle_type_id":"4","last_reported":1723388833,"current_range_meters":29200,"station_id":"ce4bhbp2rcd13ifvqerg","pricing_plan_id":"cebpf4jnsgd1na2vs0mg"},{"bike_id":"d5cd2fa3-d87c-49c3-8a0b-b653e80756ff","system_id":"levelo_inurba_marseille","lat":43.282744,"lon":5.350533,"is_reserved":false,"is_disabled":false,"rental_uris":{"android":"levelo://app?vid=d5cd2fa3-d87c-49c3-8a0b-b653e80756ff","ios":"levelo://app?vid=d5cd2fa3-d87c-49c3-8a0b-b653e80756ff"},"vehicle_type_id":"4","last_reported":1723388833,"current_range_meters":31200,"station_id":"ce4bhbp2rcd13ifvqerg","pricing_plan_id":"cebpf4jnsgd1na2vs0mg"},{"bike_id":"f92d70ec-32d0-4a03-9f2d-393da387fdb5","system_id":"levelo_inurba_marseille","lat":43.282702,"lon":5.350676,"is_reserved":false,"is_disabled":false,"rental_uris":{"android":"levelo://app?vid=f92d70ec-32d0-4a03-9f2d-393da387fdb5","ios":"levelo://app?vid=f92d70ec-32d0-4a03-9f2d-393da387fdb5"},"vehicle_type_id":"4","last_reported":1723388833,"current_range_meters":31200,"station_id":"ce4bhbp2rcd13ifvqerg","pricing_plan_id":"cebpf4jnsgd1na2vs0mg"},{"bike_id":"f3b6c4e9-b7d8-4ec2-8981-c8566063381a","system_id":"levelo_inurba_marseille","lat":43.2827,"lon":5.35066,"is_reserved":false,"is_disabled":false,"rental_uris":{"android":"levelo://app?vid=f3b6c4e9-b7d8-4ec2-8981-c8566063381a","ios":"levelo://app?vid=f3b6c4e9-b7d8-4ec2-8981-c8566063381a"},"vehicle_type_id":"4","last_reported":1723388833,"current_range_meters":12800,"station_id":"ce4bhbp2rcd13ifvqerg","pricing_plan_id":"cebpf4jnsgd1na2vs0mg"},{"bike_id":"91186891-0844-4176-9450-9b9b31545112","system_id":"levelo_inurba_marseille","lat":43.28271,"lon":5.3506,"is_reserved":false,"is_disabled":false,"rental_uris":{"android":"levelo://app?vid=91186891-0844-4176-9450-9b9b31545112","ios":"levelo://app?vid=91186891-0844-4176-9450-9b9b31545112"},"vehicle_type_id":"4","last_reported":1723388833,"current_range_meters":14000,"station_id":"ce4bhbp2rcd13ifvqerg","pricing_plan_id":"cebpf4jnsgd1na2vs0mg"},{"bike_id":"87716836-70f6-4027-88cf-31b1976df161","system_id":"levelo_inurba_marseille","lat":43.302992,"lon":5.392136,"is_reserved":false,"is_disabled":false,"rental_uris":{"android":"levelo://app?vid=87716836-70f6-4027-88cf-31b1976df161","ios":"levelo://app?vid=87716836-70f6-4027-88cf-31b1976df161"},"vehicle_type_id":"4","last_reported":1723388833,"current_range_meters":2800,"station_id":"ce4bgkh2rcd13ifvqbk0","pricing_plan_id":"cebpf4jnsgd1na2vs0mg"},{"bike_id":"1b2411f5-995a-4614-9003-a3db118afb74","system_id":"levelo_inurba_marseille","lat":43.282744,"lon":5.350533,"is_reserved":false,"is_disabled":false,"rental_uris":{"android":"levelo://app?vid=1b2411f5-995a-4614-9003-a3db118afb74","ios":"levelo://app?vid=1b2411f5-995a-4614-9003-a3db118afb74"},"vehicle_type_id":"4","last_reported":1723388833,"current_range_meters":31200,"station_id":"ce4bhbp2rcd13ifvqerg","pricing_plan_id":"cebpf4jnsgd1na2vs0mg"},{"bike_id":"80456c15-99c3-4d3a-acc8-f2dc9a62068c","system_id":"levelo_inurba_marseille","lat":43.282673,"lon":5.350723,"is_reserved":false,"is_disabled":false,"rental_uris":{"android":"levelo://app?vid=80456c15-99c3-4d3a-acc8-f2dc9a62068c","ios":"levelo://app?vid=80456c15-99c3-4d3a-acc8-f2dc9a62068c"},"vehicle_type_id":"4","last_reported":1723388833,"current_range_meters":30400,"station_id":"ce4bhbp2rcd13ifvqerg","pricing_plan_id":"cebpf4jnsgd1na2vs0mg"},{"bike_id":"7fed7947-62ed-4f41-b1ea-30a1c66e976f","system_id":"levelo_inurba_marseille","lat":43.282744,"lon":5.350533,"is_reserved":false,"is_disabled":false,"rental_uris":{"android":"levelo://app?vid=7fed7947-62ed-4f41-b1ea-30a1c66e976f","ios":"levelo://app?vid=7fed7947-62ed-4f41-b1ea-30a1c66e976f"},"vehicle_type_id":"4","last_reported":1723388833,"current_range_meters":31200,"station_id":"ce4bhbp2rcd13ifvqerg","pricing_plan_id":"cebpf4jnsgd1na2vs0mg"},{"bike_id":"0c19720f-bc68-4f1c-907b-048baf99b636","system_id":"levelo_inurba_marseille","lat":43.28268,"lon":5.35067,"is_reserved":false,"is_disabled":false,"rental_uris":{"android":"levelo://app?vid=0c19720f-bc68-4f1c-907b-048baf99b636","ios":"levelo://app?vid=0c19720f-bc68-4f1c-907b-048baf99b636"},"vehicle_type_id":"4","last_reported":1723388833,"current_range_meters":31200,"station_id":"ce4bhbp2rcd13ifvqerg","pricing_plan_id":"cebpf4jnsgd1na2vs0mg"},{"bike_id":"ccea70fd-c8ca-4c6e-9a91-d3e25b0df850","system_id":"levelo_inurba_marseille","lat":43.28266,"lon":5.350732,"is_reserved":false,"is_disabled":false,"rental_uris":{"android":"levelo://app?vid=ccea70fd-c8ca-4c6e-9a91-d3e25b0df850","ios":"levelo://app?vid=ccea70fd-c8ca-4c6e-9a91-d3e25b0df850"},"vehicle_type_id":"4","last_reported":1723388833,"current_range_meters":25600,"station_id":"ce4bhbp2rcd13ifvqerg","pricing_plan_id":"cebpf4jnsgd1na2vs0mg"},{"bike_id":"910488dc-4cdb-47a8-a225-a782be05a383","system_id":"levelo_inurba_marseille","lat":43.282754,"lon":5.350519,"is_reserved":false,"is_disabled":false,"rental_uris":{"android":"levelo://app?vid=910488dc-4cdb-47a8-a225-a782be05a383","ios":"levelo://app?vid=910488dc-4cdb-47a8-a225-a782be05a383"},"vehicle_type_id":"4","last_reported":1723388833,"current_range_meters":30000,"station_id":"ce4bhbp2rcd13ifvqerg","pricing_plan_id":"cebpf4jnsgd1na2vs0mg"},{"bike_id":"5a2a678e-c97b-4751-ab94-b104a5028a2a","system_id":"levelo_inurba_marseille","lat":43.28264,"lon":5.35075,"is_reserved":false,"is_disabled":false,"rental_uris":{"android":"levelo://app?vid=5a2a678e-c97b-4751-ab94-b104a5028a2a","ios":"levelo://app?vid=5a2a678e-c97b-4751-ab94-b104a5028a2a"},"vehicle_type_id":"4","last_reported":1723388833,"current_range_meters":16000,"station_id":"ce4bhbp2rcd13ifvqerg","pricing_plan_id":"cebpf4jnsgd1na2vs0mg"},{"bike_id":"bf01de74-ecf1-486b-9634-faa680e01b34","system_id":"levelo_inurba_marseille","lat":43.282754,"lon":5.350519,"is_reserved":false,"is_disabled":false,"rental_uris":{"android":"levelo://app?vid=bf01de74-ecf1-486b-9634-faa680e01b34","ios":"levelo://app?vid=bf01de74-ecf1-486b-9634-faa680e01b34"},"vehicle_type_id":"4","last_reported":1723388833,"current_range_meters":12000,"station_id":"ce4bhbp2rcd13ifvqerg","pricing_plan_id":"cebpf4jnsgd1na2vs0mg"},{"bike_id":"2ae9f43e-d610-4fec-99f9-64c3958b6ea8","system_id":"levelo_inurba_marseille","lat":43.282744,"lon":5.350533,"is_reserved":false,"is_disabled":false,"rental_uris":{"android":"levelo://app?vid=2ae9f43e-d610-4fec-99f9-64c3958b6ea8","ios":"levelo://app?vid=2ae9f43e-d610-4fec-99f9-64c3958b6ea8"},"vehicle_type_id":"4","last_reported":1723388833,"current_range_meters":12000,"station_id":"ce4bhbp2rcd13ifvqerg","pricing_plan_id":"cebpf4jnsgd1na2vs0mg"},{"bike_id":"78a2ab39-3f49-4d93-9d32-d96d4e0c494b","system_id":"levelo_inurba_marseille","lat":43.282754,"lon":5.350519,"is_reserved":false,"is_disabled":false,"rental_uris":{"android":"levelo://app?vid=78a2ab39-3f49-4d93-9d32-d96d4e0c494b","ios":"levelo://app?vid=78a2ab39-3f49-4d93-9d32-d96d4e0c494b"},"vehicle_type_id":"4","last_reported":1723388833,"current_range_meters":10800,"station_id":"ce4bhbp2rcd13ifvqerg","pricing_plan_id":"cebpf4jnsgd1na2vs0mg"},{"bike_id":"b33375af-2db4-4118-a26b-b28bd596989f","system_id":"levelo_inurba_marseille","lat":43.282754,"lon":5.350519,"is_reserved":false,"is_disabled":false,"rental_uris":{"android":"levelo://app?vid=b33375af-2db4-4118-a26b-b28bd596989f","ios":"levelo://app?vid=b33375af-2db4-4118-a26b-b28bd596989f"},"vehicle_type_id":"4","last_reported":1723388833,"current_range_meters":18000,"station_id":"ce4bhbp2rcd13ifvqerg","pricing_plan_id":"cebpf4jnsgd1na2vs0mg"},{"bike_id":"39ba5b1b-f432-4398-ade5-e0f13fea05cf","system_id":"levelo_inurba_marseille","lat":43.2826,"lon":5.3507,"is_reserved":false,"is_disabled":false,"rental_uris":{"android":"levelo://app?vid=39ba5b1b-f432-4398-ade5-e0f13fea05cf","ios":"levelo://app?vid=39ba5b1b-f432-4398-ade5-e0f13fea05cf"},"vehicle_type_id":"4","last_reported":1723388833,"current_range_meters":11600,"station_id":"ce4bhbp2rcd13ifvqerg","pricing_plan_id":"cebpf4jnsgd1na2vs0mg"},{"bike_id":"9c6af8ec-d954-411a-a65d-6521ad56af75","system_id":"levelo_inurba_marseille","lat":43.28256,"lon":5.35068,"is_reserved":false,"is_disabled":false,"rental_uris":{"android":"levelo://app?vid=9c6af8ec-d954-411a-a65d-6521ad56af75","ios":"levelo://app?vid=9c6af8ec-d954-411a-a65d-6521ad56af75"},"vehicle_type_id":"4","last_reported":1723388833,"current_range_meters":2400,"station_id":"ce4bhbp2rcd13ifvqerg","pricing_plan_id":"cebpf4jnsgd1na2vs0mg"},{"bike_id":"c89c67ad-3400-4484-9969-72f710b7761e","system_id":"levelo_inurba_marseille","lat":43.28259,"lon":5.3505,"is_reserved":false,"is_disabled":false,"rental_uris":{"android":"levelo://app?vid=c89c67ad-3400-4484-9969-72f710b7761e","ios":"levelo://app?vid=c89c67ad-3400-4484-9969-72f710b7761e"},"vehicle_type_id":"4","last_reported":1723388833,"current_range_meters":3200,"station_id":"ce4bhbp2rcd13ifvqerg","pricing_plan_id":"cebpf4jnsgd1na2vs0mg"},{"bike_id":"2d3fcadd-a73e-4a1d-99ed-210b187dcaf9","system_id":"levelo_inurba_marseille","lat":43.284462,"lon":5.392121,"is_reserved":false,"is_disabled":false,"rental_uris":{"android":"levelo://app?vid=2d3fcadd-a73e-4a1d-99ed-210b187dcaf9","ios":"levelo://app?vid=2d3fcadd-a73e-4a1d-99ed-210b187dcaf9"},"vehicle_type_id":"4","last_reported":1723388833,"current_range_meters":6800,"station_id":"ce4bhoh2rcd13ifvqh5g","pricing_plan_id":"cebpf4jnsgd1na2vs0mg"},{"bike_id":"d3286d14-0abc-4118-9759-8430db0d579c","system_id":"levelo_inurba_marseille","lat":43.280789,"lon":5.347574,"is_reserved":false,"is_disabled":false,"rental_uris":{"android":"levelo://app?vid=d3286d14-0abc-4118-9759-8430db0d579c","ios":"levelo://app?vid=d3286d14-0abc-4118-9759-8430db0d579c"},"vehicle_type_id":"4","last_reported":1723388833,"current_range_meters":18400,"station_id":"","pricing_plan_id":"cebpf4jnsgd1na2vs0mg"},{"bike_id":"1cf4a72a-f4dd-4431-8cc0-2f5ffe76340f","system_id":"levelo_inurba_marseille","lat":43.27903,"lon":5.38,"is_reserved":false,"is_disabled":false,"rental_uris":{"android":"levelo://app?vid=1cf4a72a-f4dd-4431-8cc0-2f5ffe76340f","ios":"levelo://app?vid=1cf4a72a-f4dd-4431-8cc0-2f5ffe76340f"},"vehicle_type_id":"4","last_reported":1723388833,"current_range_meters":0,"station_id":"ce4bhf92rcd13ifvqf50","pricing_plan_id":"cebpf4jnsgd1na2vs0mg"},{"bike_id":"8948e793-f35d-4a69-a72e-8059cb74c05d","system_id":"levelo_inurba_marseille","lat":43.28063,"lon":5.34766,"is_reserved":false,"is_disabled":false,"rental_uris":{"android":"levelo://app?vid=8948e793-f35d-4a69-a72e-8059cb74c05d","ios":"levelo://app?vid=8948e793-f35d-4a69-a72e-8059cb74c05d"},"vehicle_type_id":"4","last_reported":1723388833,"current_range_meters":17200,"station_id":"","pricing_plan_id":"cebpf4jnsgd1na2vs0mg"},{"bike_id":"4e64a258-ead5-45b2-8cfb-ac65ed6c9a2d","system_id":"levelo_inurba_marseille","lat":43.287154,"lon":5.399979,"is_reserved":false,"is_disabled":false,"rental_uris":{"android":"levelo://app?vid=4e64a258-ead5-45b2-8cfb-ac65ed6c9a2d","ios":"levelo://app?vid=4e64a258-ead5-45b2-8cfb-ac65ed6c9a2d"},