{"last_updated":1726575380,"ttl":30,"version":"2.2","data":{"bikes":[{"bike_id":"925bf10b-0212-4c31-8548-395d2192bf48","system_id":"levelo_inurba_marseille","lat":43.3015,"lon":5.37412,"is_reserved":false,"is_disabled":false,"rental_uris":{"android":"levelo://app?vid=925bf10b-0212-4c31-8548-395d2192bf48","ios":"levelo://app?vid=925bf10b-0212-4c31-8548-395d2192bf48"},"vehicle_type_id":"4","last_reported":1726575380,"current_range_meters":36800,"station_id":"ce4bgs92rcd13ifvqcc0","pricing_plan_id":"cebpf4jnsgd1na2vs0mg"},{"bike_id":"92f0ae7a-f94e-4606-9c60-77a82c00205d","system_id":"levelo_inurba_marseille","lat":43.27499,"lon":5.42455,"is_reserved":false,"is_disabled":false,"rental_uris":{"android":"levelo://app?vid=92f0ae7a-f94e-4606-9c60-77a82c00205d","ios":"levelo://app?vid=92f0ae7a-f94e-4606-9c60-77a82c00205d"},"vehicle_type_id":"4","last_reported":1726575380,"current_range_meters":4800,"station_id":"ce4bhn92rcd13ifvqgrg","pricing_plan_id":"cebpf4jnsgd1na2vs0mg"},{"bike_id":"477ba5b5-4812-4a14-9471-55dd49894729","system_id":"levelo_inurba_marseille","lat":43.31072,"lon":5.38352,"is_reserved":false,"is_disabled":false,"rental_uris":{"android":"levelo://app?vid=477ba5b5-4812-4a14-9471-55dd49894729","ios":"levelo://app?vid=477ba5b5-4812-4a14-9471-55dd49894729"},"vehicle_type_id":"4","last_reported":1726575380,"current_range_meters":22800,"station_id":"ce4bgv92rcd13ifvqcr0","pricing_plan_id":"cebpf4jnsgd1na2vs0mg"},{"bike_id":"d08edc47-e2d7-4ea8-ab24-6c82ccc16ce8","system_id":"levelo_inurba_marseille","lat":43.297913,"lon":5.393494,"is_reserved":false,"is_disabled":false,"rental_uris":{"android":"levelo://app?vid=d08edc47-e2d7-4ea8-ab24-6c82ccc16ce8","ios":"levelo://app?vid=d08edc47-e2d7-4ea8-ab24-6c82ccc16ce8"},"vehicle_type_id":"4","last_reported":1726575380,"current_range_meters":32800,"station_id":"ce4bgj92rcd13ifvqbd0","pricing_plan_id":"cebpf4jnsgd1na2vs0mg"},{"bike_id":"11e64f3b-119f-4952-800b-d1e82fc9aea5","system_id":"levelo_inurba_marseille","lat":43.337444,"lon":5.374475,"is_reserved":false,"is_disabled":false,"rental_uris":{"android":"levelo://app?vid=11e64f3b-119f-4952-800b-d1e82fc9aea5","ios":"levelo://app?vid=11e64f3b-119f-4952-800b-d1e82fc9aea5"},"vehicle_type_id":"4","last_reported":1726575380,"current_range_meters":38000,"station_id":"ce4bgqh2rcd13ifvqc4g","pricing_plan_id":"cebpf4jnsgd1na2vs0mg"},{"bike_id":"67e823b3-c87a-4b56-96e5-0746c253f329","system_id":"levelo_inurba_marseille","lat":43.31713,"lon":5.43707,"is_reserved":false,"is_disabled":false,"rental_uris":{"android":"levelo://app?vid=67e823b3-c87a-4b56-96e5-0746c253f329","ios":"levelo://app?vid=67e823b3-c87a-4b56-96e5-0746c253f329"},"vehicle_type_id":"4","last_reported":1726575380,"current_range_meters":19600,"station_id":"ce4bhp92rcd13ifvqhcg","pricing_plan_id":"cebpf4jnsgd1na2vs0mg"},{"bike_id":"43176770-eaee-4996-86c7-d408161e4ce6","system_id":"levelo_inurba_marseille","lat":43.29899,"lon":5.4366,"is_reserved":false,"is_disabled":false,"rental_uris":{"android":"levelo://app?vid=43176770-eaee-4996-86c7-d408161e4ce6","ios":"levelo://app?vid=43176770-eaee-4996-86c7-d408161e4ce6"},"vehicle_type_id":"4","last_reported":1726575380,"current_range_meters":6400,"station_id":"ce4bhpp2rcd13ifvqhfg","pricing_plan_id":"cebpf4jnsgd1na2vs0mg"},{"bike_id":"44424f09-133d-4ff3-8c34-8bb853d2401b","system_id":"levelo_inurba_marseille","lat":43.29847,"lon":5.36272,"is_reserved":false,"is_disabled":false,"rental_uris":{"android":"levelo://app?vid=44424f09-133d-4ff3-8c34-8bb853d2401b","ios":"levelo://app?vid=44424f09-133d-4ff3-8c34-8bb853d2401b"},"vehicle_type_id":"4","last_reported":1726575380,"current_range_meters":12000,"station_id":"ce4bgpp2rcd13ifvqc3g","pricing_plan_id":"cebpf4jnsgd1na2vs0mg"},{"bike_id":"ea47be24-62d4-4f02-adb0-7fbdcf1333e8","system_id":"levelo_inurba_marseille","lat":43.28664,"lon":5.36359,"is_reserved":false,"is_disabled":false,"rental_uris":{"android":"levelo://app?vid=ea47be24-62d4-4f02-adb0-7fbdcf1333e8","ios":"levelo://app?vid=ea47be24-62d4-4f02-adb0-7fbdcf1333e8"},"vehicle_type_id":"4","last_reported":1726575380,"current_range_meters":6400,"station_id":"ce4bhah2rcd13ifvqej0","pricing_plan_id":"cebpf4jnsgd1na2vs0mg"},{"bike_id":"8ee5198f-f2e6-42b0-9222-7b0c644ae14e","system_id":"levelo_inurba_marseille","lat":43.31085,"lon":5.42433,"is_reserved":false,"is_disabled":false,"rental_uris":{"android":"levelo://app?vid=8ee5198f-f2e6-42b0-9222-7b0c644ae14e","ios":"levelo://app?vid=8ee5198f-f2e6-42b0-9222-7b0c644ae14e"},"vehicle_type_id":"4","last_reported":1726575380,"current_range_meters":39200,"station_id":"ce4bhp92rcd13ifvqhag","pricing_plan_id":"cebpf4jnsgd1na2vs0mg"},{"bike_id":"5a567a26-d9cf-4db5-9a45-0cc60399f6f1","system_id":"levelo_inurba_marseille","lat":43.30304,"lon":5.368932,"is_reserved":false,"is_disabled":false,"rental_uris":{"android":"levelo://app?vid=5a567a26-d9cf-4db5-9a45-0cc60399f6f1","ios":"levelo://app?vid=5a567a26-d9cf-4db5-9a45-0cc60399f6f1"},"vehicle_type_id":"4","last_reported":1726575380,"current_range_meters":30800,"station_id":"ce4bgqh2rcd13ifvqc5g","pricing_plan_id":"cebpf4jnsgd1na2vs0mg"},{"bike_id":"3b558854-f338-4f93-b81e-38bde3ba4e98","system_id":"levelo_inurba_marseille","lat":43.29977,"lon":5.37174,"is_reserved":false,"is_disabled":false,"rental_uris":{"android":"levelo://app?vid=3b558854-f338-4f93-b81e-38bde3ba4e98","ios":"levelo://app?vid=3b558854-f338-4f93-b81e-38bde3ba4e98"},"vehicle_type_id":"4","last_reported":1726575380,"current_range_meters":30000,"station_id":"ce4bgr92rcd13ifvqc7g","pricing_plan_id":"cebpf4jnsgd1na2vs0mg"},{"bike_id":"13ec4916-f0ea-4897-8afc-596425b42c42","system_id":"levelo_inurba_marseille","lat":43.23188,"lon":5.35559,"is_reserved":false,"is_disabled":false,"rental_uris":{"android":"levelo://app?vid=13ec4916-f0ea-4897-8afc-596425b42c42","ios":"levelo://app?vid=13ec4916-f0ea-4897-8afc-596425b42c42"},"vehicle_type_id":"4","last_reported":1726575380,"current_range_meters":10000,"station_id":"ce4bhu92rcd13ifvqi70","pricing_plan_id":"cebpf4jnsgd1na2vs0mg"},{"bike_id":"62038f15-8b52-4737-84db-7e03fbc11d5d","system_id":"levelo_inurba_marseille","lat":43.23157,"lon":5.43701,"is_reserved":false,"is_disabled":false,"rental_uris":{"android":"levelo://app?vid=62038f15-8b52-4737-84db-7e03fbc11d5d","ios":"levelo://app?vid=62038f15-8b52-4737-84db-7e03fbc11d5d"},"vehicle_type_id":"4","last_reported":1726575380,"current_range_meters":23200,"station_id":"ce4bhmp2rcd13ifvqgog","pricing_plan_id":"cebpf4jnsgd1na2vs0mg"},{"bike_id":"9d243943-f186-4f8f-b775-710d28fca1e0","system_id":"levelo_inurba_marseille","lat":43.32536,"lon":5.41421,"is_reserved":false,"is_disabled":false,"rental_uris":{"android":"levelo://app?vid=9d243943-f186-4f8f-b775-710d28fca1e0","ios":"levelo://app?vid=9d243943-f186-4f8f-b775-710d28fca1e0"},"vehicle_type_id":"4","last_reported":1726575380,"current_range_meters":32800,"station_id":"ce4bhq12rcd13ifvqhhg","pricing_plan_id":"cebpf4jnsgd1na2vs0mg"},{"bike_id":"bb2e8da6-4d6a-4933-b324-753c0f37e491","system_id":"levelo_inurba_marseille","lat":43.305496,"lon":5.365587,"is_reserved":false,"is_disabled":false,"rental_uris":{"android":"levelo://app?vid=bb2e8da6-4d6a-4933-b324-753c0f37e491","ios":"levelo://app?vid=bb2e8da6-4d6a-4933-b324-753c0f37e491"},"vehicle_type_id":"4","last_reported":1726575380,"current_range_meters":24800,"station_id":"ce4bgs12rcd13ifvqcag","pricing_plan_id":"cebpf4jnsgd1na2vs0mg"},{"bike_id":"bf8cb7f4-7acb-496c-9a23-20c68c54c9b4","system_id":"levelo_inurba_marseille","lat":43.25109,"lon":5.40323,"is_reserved":false,"is_disabled":false,"rental_uris":{"android":"levelo://app?vid=bf8cb7f4-7acb-496c-9a23-20c68c54c9b4","ios":"levelo://app?vid=bf8cb7f4-7acb-496c-9a23-20c68c54c9b4"},"vehicle_type_id":"4","last_reported":1726575380,"current_range_meters":32000,"station_id":"ce4bhlh2rcd13ifvqgig","pricing_plan_id":"cebpf4jnsgd1na2vs0mg"},{"bike_id":"5842ac5f-f5e7-4143-b3b5-c62474a08c18","system_id":"levelo_inurba_marseille","lat":43.29976,"lon":5.38485,"is_reserved":false,"is_disabled":false,"rental_uris":{"android":"levelo://app?vid=5842ac5f-f5e7-4143-b3b5-c62474a08c18","ios":"levelo://app?vid=5842ac5f-f5e7-4143-b3b5-c62474a08c18"},"vehicle_type_id":"4","last_reported":1726575380,"current_range_meters":30800,"station_id":"ce4bgj92rcd13ifvqbd0","pricing_plan_id":"cebpf4jnsgd1na2vs0mg"},{"bike_id":"ebbcefaf-20d5-462a-9932-6512ad59f94f","system_id":"levelo_inurba_marseille","lat":43.29846,"lon":5.36272,"is_reserved":false,"is_disabled":false,"rental_uris":{"android":"levelo://app?vid=ebbcefaf-20d5-462a-9932-6512ad59f94f","ios":"levelo://app?vid=ebbcefaf-20d5-462a-9932-6512ad59f94f"},"vehicle_type_id":"4","last_reported":1726575380,"current_range_meters":19200,"station_id":"ce4bgpp2rcd13ifvqc3g","pricing_plan_id":"cebpf4jnsgd1na2vs0mg"},{"bike_id":"add46327-23bc-4055-bbe1-314cfc8e3709","system_id":"levelo_inurba_marseille","lat":43.23197,"lon":5.35555,"is_reserved":false,"is_disabled":false,"rental_uris":{"android":"levelo://app?vid=add46327-23bc-4055-bbe1-314cfc8e3709","ios":"levelo://app?vid=add46327-23bc-4055-bbe1-314cfc8e3709"},"vehicle_type_id":"4","last_reported":1726575380,"current_range_meters":8800,"station_id":"ce4bhu92rcd13ifvqi70","pricing_plan_id":"cebpf4jnsgd1na2vs0mg"},{"bike_id":"7e69fb1a-5ca7-4470-ab8f-1374cf198ba2","system_id":"levelo_inurba_marseille","lat":43.26558,"lon":5.37287,"is_reserved":false,"is_disabled":false,"rental_uris":{"android":"levelo://app?vid=7e69fb1a-5ca7-4470-ab8f-1374cf198ba2","ios":"levelo://app?vid=7e69fb1a-5ca7-4470-ab8f-1374cf198ba2"},"vehicle_type_id":"4","last_reported":1726575380,"current_range_meters":18800,"station_id":"ce4bhg12rcd13ifvqf70","pricing_plan_id":"cebpf4jnsgd1na2vs0mg"},{"bike_id":"6be74e0a-a126-4e13-86f7-d69d264735ba","system_id":"levelo_inurba_marseille","lat":43.286133,"lon":5.35101,"is_reserved":false,"is_disabled":false,"rental_uris":{"android":"levelo://app?vid=6be74e0a-a126-4e13-86f7-d69d264735ba","ios":"levelo://app?vid=6be74e0a-a126-4e13-86f7-d69d264735ba"},"vehicle_type_id":"4","last_reported":1726575380,"current_range_meters":10800,"station_id":"ce4bgjh2rcd13ifvqbg0","pricing_plan_id":"cebpf4jnsgd1na2vs0mg"},{"bike_id":"d8e0fe46-8eeb-4fb6-b0cc-7a6f63f21a63","system_id":"levelo_inurba_marseille","lat":43.33613,"lon":5.41022,"is_reserved":false,"is_disabled":false,"rental_uris":{"android":"levelo://app?vid=d8e0fe46-8eeb-4fb6-b0cc-7a6f63f21a63","ios":"levelo://app?vid=d8e0fe46-8eeb-4fb6-b0cc-7a6f63f21a63"},"vehicle_type_id":"4","last_reported":1726575380,"current_range_meters":38800,"station_id":"ce4bhqh2rcd13ifvqhmg","pricing_plan_id":"cebpf4jnsgd1na2vs0mg"},{"bike_id":"36587967-1e79-47c3-ba21-dd6bfe64ec87","system_id":"levelo_inurba_marseille","lat":43.32366,"lon":5.38884,"is_reserved":false,"is_disabled":false,"rental_uris":{"android":"levelo://app?vid=36587967-1e79-47c3-ba21-dd6bfe64ec87","ios":"levelo://app?vid=36587967-1e79-47c3-ba21-dd6bfe64ec87"},"vehicle_type_id":"4","last_reported":1726575380,"current_range_meters":16400,"station_id":"ce4bhqp2rcd13ifvqhog","pricing_plan_id":"cebpf4jnsgd1na2vs0mg"},{"bike_id":"bded414b-8bf1-4c9b-bd24-6f4333158f43","system_id":"levelo_inurba_marseille","lat":43.29978,"lon":5.38483,"is_reserved":false,"is_disabled":false,"rental_uris":{"android":"levelo://app?vid=bded414b-8bf1-4c9b-bd24-6f4333158f43","ios":"levelo://app?vid=bded414b-8bf1-4c9b-bd24-6f4333158f43"},"vehicle_type_id":"4","last_reported":1726575380,"current_range_meters":33600,"station_id":"ce4bgj92rcd13ifvqbd0","pricing_plan_id":"cebpf4jnsgd1na2vs0mg"},{"bike_id":"dbd298e0-a382-4414-92ca-00d7d938bcff","system_id":"levelo_inurba_marseille","lat":43.23198,"lon":5.35549,"is_reserved":false,"is_disabled":false,"rental_uris":{"android":"levelo://app?vid=dbd298e0-a382-4414-92ca-00d7d938bcff","ios":"levelo://app?vid=dbd298e0-a382-4414-92ca-00d7d938bcff"},"vehicle_type_id":"4","last_reported":1726575380,"current_range_meters":36800,"station_id":"ce4bhu92rcd13ifvqi70","pricing_plan_id":"cebpf4jnsgd1na2vs0mg"},{"bike_id":"1b24ddd4-ab20-4266-8863-b02d660ee211","system_id":"levelo_inurba_marseille","lat":43.28613,"lon":5.35103,"is_reserved":false,"is_disabled":false,"rental_uris":{"android":"levelo://app?vid=1b24ddd4-ab20-4266-8863-b02d660ee211","ios":"levelo://app?vid=1b24ddd4-ab20-4266-8863-b02d660ee211"},"vehicle_type_id":"4","last_reported":1726575380,"current_range_meters":32000,"station_id":"ce4bhch2rcd13ifvqeug","pricing_plan_id":"cebpf4jnsgd1na2vs0mg"},{"bike_id":"d60a2de3-3671-4ca4-8ed7-5538429955f2","system_id":"levelo_inurba_marseille","lat":43.292664,"lon":5.401335,"is_reserved":false,"is_disabled":false,"rental_uris":{"android":"levelo://app?vid=d60a2de3-3671-4ca4-8ed7-5538429955f2","ios":"levelo://app?vid=d60a2de3-3671-4ca4-8ed7-5538429955f2"},"vehicle_type_id":"4","last_reported":1726575380,"current_range_meters":6000,"station_id":"ce4bh312rcd13ifvqdk0","pricing_plan_id":"cebpf4jnsgd1na2vs0mg"},{"bike_id":"66ffb101-a46d-4641-a2ff-718fc0ca9dbe","system_id":"levelo_inurba_marseille","lat":43.24389,"lon":5.37059,"is_reserved":false,"is_disabled":false,"rental_uris":{"android":"levelo://app?vid=66ffb101-a46d-4641-a2ff-718fc0ca9dbe","ios":"levelo://app?vid=66ffb101-a46d-4641-a2ff-718fc0ca9dbe"},"vehicle_type_id":"4","last_reported":1726575380,"current_range_meters":24000,"station_id":"ce4bhhh2rcd13ifvqfk0","pricing_plan_id":"cebpf4jnsgd1na2vs0mg"},{"bike_id":"2050c9b2-57bb-4db1-ac5e-79c988433192","system_id":"levelo_inurba_marseille","lat":43.3093,"lon":5.40145,"is_reserved":false,"is_disabled":false,"rental_uris":{"android":"levelo://app?vid=2050c9b2-57bb-4db1-ac5e-79c988433192","ios":"levelo://app?vid=2050c9b2-57bb-4db1-ac5e-79c988433192"},"vehicle_type_id":"4","last_reported":1726575380,"current_range_meters":28000,"station_id":"ce4bgvp2rcd13ifvqct0","pricing_plan_id":"cebpf4jnsgd1na2vs0mg"},{"bike_id":"35ca324c-5f5b-4dbc-be93-f597eb96d89e","system_id":"levelo_inurba_marseille","lat":43.28349,"lon":5.38107,"is_reserved":false,"is_disabled":false,"rental_uris":{"android":"levelo://app?vid=35ca324c-5f5b-4dbc-be93-f597eb96d89e","ios":"levelo://app?vid=35ca324c-5f5b-4dbc-be93-f597eb96d89e"},"vehicle_type_id":"4","last_reported":1726575380,"current_range_meters":25200,"station_id":"ce4bh412rcd13ifvqdr0","pricing_plan_id":"cebpf4jnsgd1na2vs0mg"},{"bike_id":"137cd12e-b16e-4927-b656-87b986477526","system_id":"levelo_inurba_marseille","lat":43.28854,"lon":5.35841,"is_reserved":false,"is_disabled":false,"rental_uris":{"android":"levelo://app?vid=137cd12e-b16e-4927-b656-87b986477526","ios":"levelo://app?vid=137cd12e-b16e-4927-b656-87b986477526"},"vehicle_type_id":"4","last_reported":1726575380,"current_range_meters":38400,"station_id":"ce4bhb12rcd13ifvqem0","pricing_plan_id":"cebpf4jnsgd1na2vs0mg"},{"bike_id":"471d171f-0610-49e5-aa32-f947ffd0e686","system_id":"levelo_inurba_marseille","lat":43.25583,"lon":5.38224,"is_reserved":false,"is_disabled":false,"rental_uris":{"android":"levelo://app?vid=471d171f-0610-49e5-aa32-f947ffd0e686","ios":"levelo://app?vid=471d171f-0610-49e5-aa32-f947ffd0e686"},"vehicle_type_id":"4","last_reported":1726575380,"current_range_meters":19600,"station_id":"ce4bhih2rcd13ifvqfs0","pricing_plan_id":"cebpf4jnsgd1na2vs0mg"},{"bike_id":"2a5808e5-1612-4dc1-a62b-b9c71459256c","system_id":"levelo_inurba_marseille","lat":43.34088,"lon":5.39104,"is_reserved":false,"is_disabled":false,"rental_uris":{"android":"levelo://app?vid=2a5808e5-1612-4dc1-a62b-b9c71459256c","ios":"levelo://app?vid=2a5808e5-1612-4dc1-a62b-b9c71459256c"},"vehicle_type_id":"4","last_reported":1726575380,"current_range_meters":11200,"station_id":"","pricing_plan_id":"cebpf4jnsgd1na2vs0mg"},{"bike_id":"43e2219b-dd8c-4128-b213-7038aa9554c3","system_id":"levelo_inurba_marseille","lat":43.26216,"lon":5.37441,"is_reserved":false,"is_disabled":false,"rental_uris":{"android":"levelo://app?vid=43e2219b-dd8c-4128-b213-7038aa9554c3","ios":"levelo://app?vid=43e2219b-dd8c-4128-b213-7038aa9554c3"},"vehicle_type_id":"4","last_reported":1726575380,"current_range_meters":17600,"station_id":"ce4bhgp2rcd13ifvqfc0","pricing_plan_id":"cebpf4jnsgd1na2vs0mg"},{"bike_id":"f8681746-8840-419c-8b38-230f0452709a","system_id":"levelo_inurba_marseille","lat":43.27492,"lon":5.42457,"is_reserved":false,"is_disabled":false,"rental_uris":{"android":"levelo://app?vid=f8681746-8840-419c-8b38-230f0452709a","ios":"levelo://app?vid=f8681746-8840-419c-8b38-230f0452709a"},"vehicle_type_id":"4","last_reported":1726575380,"current_range_meters":30800,"station_id":"ce4bhn92rcd13ifvqgrg","pricing_plan_id":"cebpf4jnsgd1na2vs0mg"},{"bike_id":"fe81033f-ccbc-4a64-b790-35ae056fa2e0","system_id":"levelo_inurba_marseille","lat":43.26686,"lon":5.38268,"is_reserved":false,"is_disabled":false,"rental_uris":{"android":"levelo://app?vid=fe81033f-ccbc-4a64-b790-35ae056fa2e0","ios":"levelo://app?vid=fe81033f-ccbc-4a64-b790-35ae056fa2e0"},"vehicle_type_id":"4","last_reported":1726575380,"current_range_meters":24000,"station_id":"ce4bhg92rcd13ifvqf90","pricing_plan_id":"cebpf4jnsgd1na2vs0mg"},{"bike_id":"c52e4848-dd66-46b8-a132-9836b7620028","system_id":"levelo_inurba_marseille","lat":43.25933,"lon":5.40911,"is_reserved":false,"is_disabled":false,"rental_uris":{"android":"levelo://app?vid=c52e4848-dd66-46b8-a132-9836b7620028","ios":"levelo://app?vid=c52e4848-dd66-46b8-a132-9836b7620028"},"vehicle_type_id":"4","last_reported":1726575380,"current_range_meters":18800,"station_id":"ce4bhm92rcd13ifvqglg","pricing_plan_id":"cebpf4jnsgd1na2vs0mg"},{"bike_id":"26ba68ce-9abf-45c1-9160-ad0d48c72a28","system_id":"levelo_inurba_marseille","lat":43.3055,"lon":5.36528,"is_reserved":false,"is_disabled":false,"rental_uris":{"android":"levelo://app?vid=26ba68ce-9abf-45c1-9160-ad0d48c72a28","ios":"levelo://app?vid=26ba68ce-9abf-45c1-9160-ad0d48c72a28"},"vehicle_type_id":"4","last_reported":1726575380,"current_range_meters":34800,"station_id":"ce4bgs12rcd13ifvqcag","pricing_plan_id":"cebpf4jnsgd1na2vs0mg"},{"bike_id":"6c3b465f-08c2-4171-978e-02e7d0439687","system_id":"levelo_inurba_marseille","lat":43.31997,"lon":5.38149,"is_reserved":false,"is_disabled":false,"rental_uris":{"android":"levelo://app?vid=6c3b465f-08c2-4171-978e-02e7d0439687","ios":"levelo://app?vid=6c3b465f-08c2-4171-978e-02e7d0439687"},"vehicle_type_id":"4","last_reported":1726575380,"current_range_meters":24000,"station_id":"ce4bhr12rcd13ifvqhpg","pricing_plan_id":"cebpf4jnsgd1na2vs0mg"},{"bike_id":"bad9e710-7ce0-48c4-b66d-1c47c52b95d4","system_id":"levelo_inurba_marseille","lat":43.23968,"lon":5.36642,"is_reserved":false,"is_disabled":false,"rental_uris":{"android":"levelo://app?vid=bad9e710-7ce0-48c4-b66d-1c47c52b95d4","ios":"levelo://app?vid=bad9e710-7ce0-48c4-b66d-1c47c52b95d4"},"vehicle_type_id":"4","last_reported":1726575380,"current_range_meters":28000,"station_id":"ce4bhi12rcd13ifvqfp0","pricing_plan_id":"cebpf4jnsgd1na2vs0mg"},{"bike_id":"42085980-51f6-48da-962d-1c1968ba6c68","system_id":"levelo_inurba_marseille","lat":43.24073,"lon":5.37763,"is_reserved":false,"is_disabled":false,"rental_uris":{"android":"levelo://app?vid=42085980-51f6-48da-962d-1c1968ba6c68","ios":"levelo://app?vid=42085980-51f6-48da-962d-1c1968ba6c68"},"vehicle_type_id":"4","last_reported":1726575380,"current_range_meters":33600,"station_id":"ce4bhnp2rcd13ifvqgvg","pricing_plan_id":"cebpf4jnsgd1na2vs0mg"},{"bike_id":"505615bd-d81d-4c3b-b81a-e0369234edfa","system_id":"levelo_inurba_marseille","lat":43.29789,"lon":5.38104,"is_reserved":false,"is_disabled":false,"rental_uris":{"android":"levelo://app?vid=505615bd-d81d-4c3b-b81a-e0369234edfa","ios":"levelo://app?vid=505615bd-d81d-4c3b-b81a-e0369234edfa"},"vehicle_type_id":"4","last_reported":1726575380,"current_range_meters":12000,"station_id":"ce4bgip2rcd13ifvqbb0","pricing_plan_id":"cebpf4jnsgd1na2vs0mg"},{"bike_id":"882e327a-d92c-4bd6-b42d-19c69c8b050c","system_id":"levelo_inurba_marseille","lat":43.30536,"lon":5.36698,"is_reserved":false,"is_disabled":false,"rental_uris":{"android":"levelo://app?vid=882e327a-d92c-4bd6-b42d-19c69c8b050c","ios":"levelo://app?vid=882e327a-d92c-4bd6-b42d-19c69c8b050c"},"vehicle_type_id":"4","last_reported":1726575380,"current_range_meters":36800,"station_id":"ce4bgrp2rcd13ifvqc9g","pricing_plan_id":"cebpf4jnsgd1na2vs0mg"},{"bike_id":"6686a262-b20a-4d62-8105-3e491ef36b46","system_id":"levelo_inurba_marseille","lat":43.24074,"lon":5.37765,"is_reserved":false,"is_disabled":false,"rental_uris":{"android":"levelo://app?vid=6686a262-b20a-4d62-8105-3e491ef36b46","ios":"levelo://app?vid=6686a262-b20a-4d62-8105-3e491ef36b46"},"vehicle_type_id":"4","last_reported":1726575380,"current_range_meters":30000,"station_id":"ce4bhnp2rcd13ifvqgvg","pricing_plan_id":"cebpf4jnsgd1na2vs0mg"},{"bike_id":"a46ec2ea-3c8f-446e-8c8c-44920c12c752","system_id":"levelo_inurba_marseille","lat":43.3054,"lon":5.36531,"is_reserved":false,"is_disabled":false,"rental_uris":{"android":"levelo://app?vid=a46ec2ea-3c8f-446e-8c8c-44920c12c752","ios":"levelo://app?vid=a46ec2ea-3c8f-446e-8c8c-44920c12c752"},"vehicle_type_id":"4","last_reported":1726575380,"current_range_meters":31200,"station_id":"ce4bgs12rcd13ifvqcag","pricing_plan_id":"cebpf4jnsgd1na2vs0mg"},{"bike_id":"408ef893-96f2-4fd4-a0a3-828f2515d5d5","system_id":"levelo_inurba_marseille","lat":43.28935,"lon":5.38733,"is_reserved":false,"is_disabled":false,"rental_uris":{"android":"levelo://app?vid=408ef893-96f2-4fd4-a0a3-828f2515d5d5","ios":"levelo://app?vid=408ef893-96f2-4fd4-a0a3-828f2515d5d5"},"vehicle_type_id":"4","last_reported":1726575380,"current_range_meters":17200,"station_id":"","pricing_plan_id":"cebpf4jnsgd1na2vs0mg"},{"bike_id":"f409a27c-3291-4d9b-ac57-9e74e75d80d1","system_id":"levelo_inurba_marseille","lat":43.32363,"lon":5.3888,"is_reserved":false,"is_disabled":false,"rental_uris":{"android":"levelo://app?vid=f409a27c-3291-4d9b-ac57-9e74e75d80d1","ios":"levelo://app?vid=f409a27c-3291-4d9b-ac57-9e74e75d80d1"},"vehicle_type_id":"4","last_reported":1726575380,"current_range_meters":14400,"station_id":"ce4bhqp2rcd13ifvqhog","pricing_plan_id":"cebpf4jnsgd1na2vs0mg"},{"bike_id":"9a4304f7-b710-4806-8bea-d9c0d77fd01a","system_id":"levelo_inurba_marseille","lat":43.29916,"lon":5.37484,"is_reserved":false,"is_disabled":false,"rental_uris":{"android":"levelo://app?vid=9a4304f7-b710-4806-8bea-d9c0d77fd01a","ios":"levelo://app?vid=9a4304f7-b710-4806-8bea-d9c0d77fd01a"},"vehicle_type_id":"4","last_reported":1726575380,"current_range_meters":34000,"station_id":"ce4bgjh2rcd13ifvqbg0","pricing_plan_id":"cebpf4jnsgd1na2vs0mg"},{"bike_id":"a698c625-52e8-47ee-a700-f99c97ad5008","system_id":"levelo_inurba_marseille","lat":43.290283,"lon":5.386408,"is_reserved":false,"is_disabled":false,"rental_uris":{"android":"levelo://app?vid=a698c625-52e8-47ee-a700-f99c97ad5008","ios":"levelo://app?vid=a698c625-52e8-47ee-a700-f99c97ad5008"},"vehicle_type_id":"4","last_reported":1726575380,"current_range_meters":16000,"station_id":"ce4bh4p2rcd13ifvqe0g","pricing_plan_id":"cebpf4jnsgd1na2vs0mg"},{"bike_id":"b49672c8-10d8-4a5b-98b6-06e99d47cba4","system_id":"levelo_inurba_marseille","lat":43.30065,"lon":5.38669,"is_reserved":false,"is_disabled":false,"rental_uris":{"android":"levelo://app?vid=b49672c8-10d8-4a5b-98b6-06e99d47cba4","ios":"levelo://app?vid=b49672c8-10d8-4a5b-98b6-06e99d47cba4"},"vehicle_type_id":"4","last_reported":1726575380,"current_range_meters":36400,"station_id":"","pricing_plan_id":"cebpf4jnsgd1na2vs0mg"},{"bike_id":"c7cc55d8-4eb2-4579-8434-921b0c6ed4f4","system_id":"levelo_inurba_marseille","lat":43.29794,"lon":5.38091,"is_reserved":false,"is_disabled":false,"rental_uris":{"android":"levelo://app?vid=c7cc55d8-4eb2-4579-8434-921b0c6ed4f4","ios":"levelo://app?vid=c7cc55d8-4eb2-4579-8434-921b0c6ed4f4"},"vehicle_type_id":"4","last_reported":1726575380,"current_range_meters":28000,"station_id":"ce4bgip2rcd13ifvqbb0","pricing_plan_id":"cebpf4jnsgd1na2vs0mg"},{"bike_id":"e632dfdb-78f4-47fa-8abe-3b4836f94471","system_id":"levelo_inurba_marseille","lat":43.27498,"lon":5.42457,"is_reserved":false,"is_disabled":false,"rental_uris":{"android":"levelo://app?vid=e632dfdb-78f4-47fa-8abe-3b4836f94471","ios":"levelo://app?vid=e632dfdb-78f4-47fa-8abe-3b4836f94471"},"vehicle_type_id":"4","last_reported":1726575380,"current_range_meters":27200,"station_id":"ce4bhn92rcd13ifvqgrg","pricing_plan_id":"cebpf4jnsgd1na2vs0mg"},{"bike_id":"30ce5f9d-e14d-4ee7-b9f8-22f7215e3c5f","system_id":"levelo_inurba_marseille","lat":43.23152,"lon":5.43723,"is_reserved":false,"is_disabled":false,"rental_uris":{"android":"levelo://app?vid=30ce5f9d-e14d-4ee7-b9f8-22f7215e3c5f","ios":"levelo://app?vid=30ce5f9d-e14d-4ee7-b9f8-22f7215e3c5f"},"vehicle_type_id":"4","last_reported":1726575380,"current_range_meters":22800,"station_id":"ce4bhmp2rcd13ifvqgog","pricing_plan_id":"cebpf4jnsgd1na2vs0mg"},{"bike_id":"cd1d4c55-2cbb-4b85-a1be-a7235ca53de6","system_id":"levelo_inurba_marseille","lat":43.32483,"lon":5.3657,"is_reserved":false,"is_disabled":false,"rental_uris":{"android":"levelo://app?vid=cd1d4c55-2cbb-4b85-a1be-a7235ca53de6","ios":"levelo://app?vid=cd1d4c55-2cbb-4b85-a1be-a7235ca53de6"},"vehicle_type_id":"4","last_reported":1726575380,"current_range_meters":24400,"station_id":"ce4bhs12rcd13ifvqhvg","pricing_plan_id":"cebpf4jnsgd1na2vs0mg"},{"bike_id":"40626133-6241-4d72-8ef2-ce049df45fd7","system_id":"levelo_inurba_marseille","lat":43.298039,"lon":5.381046,"is_reserved":false,"is_disabled":false,"rental_uris":{"android":"levelo://app?vid=40626133-6241-4d72-8ef2-ce049df45fd7","ios":"levelo://app?vid=40626133-6241-4d72-8ef2-ce049df45fd7"},"vehicle_type_id":"4","last_reported":1726575380,"current_range_meters":6000,"station_id":"ce4bgip2rcd13ifvqbb0","pricing_plan_id":"cebpf4jnsgd1na2vs0mg"},{"bike_id":"c7f93bf2-2b30-4c5c-aa72-447b3f4a28ea","system_id":"levelo_inurba_marseille","lat":43.29896,"lon":5.43664,"is_reserved":false,"is_disabled":false,"rental_uris":{"android":"levelo://app?vid=c7f93bf2-2b30-4c5c-aa72-447b3f4a28ea","ios":"levelo://app?vid=c7f93bf2-2b30-4c5c-aa72-447b3f4a28ea"},"vehicle_type_id":"4","last_reported":1726575380,"current_range_meters":9200,"station_id":"ce4bhpp2rcd13ifvqhfg","pricing_plan_id":"cebpf4jnsgd1na2vs0mg"},{"bike_id":"ae34db82-9e87-446a-81b3-3b06f119198a","system_id":"levelo_inurba_marseille","lat":43.3254,"lon":5.41427,"is_reserved":false,"is_disabled":false,"rental_uris":{"android":"levelo://app?vid=ae34db82-9e87-446a-81b3-3b06f119198a","ios":"levelo://app?vid=ae34db82-9e87-446a-81b3-3b06f119198a"},"vehicle_type_id":"4","last_reported":1726575380,"current_range_meters":10000,"station_id":"ce4bhq12rcd13ifvqhhg","pricing_plan_id":"cebpf4jnsgd1na2vs0mg"},{"bike_id":"22a588b1-cfec-4a63-9499-3cf933091fed","system_id":"levelo_inurba_marseille","lat":43.30553,"lon":5.36706,"is_reserved":false,"is_disabled":false,"rental_uris":{"android":"levelo://app?vid=22a588b1-cfec-4a63-9499-3cf933091fed","ios":"levelo://app?vid=22a588b1-cfec-4a63-9499-3cf933091fed"},"vehicle_type_id":"4","last_reported":1726575380,"current_range_meters":38800,"station_id":"ce4bgrp2rcd13ifvqc9g","pricing_plan_id":"cebpf4jnsgd1na2vs0mg"},{"bike_id":"8205c683-8367-4959-9a98-14869f44fc45","system_id":"levelo_inurba_marseille","lat":43.266876,"lon":5.382388,"is_reserved":false,"is_disabled":false,"rental_uris":{"android":"levelo://app?vid=8205c683-8367-4959-9a98-14869f44fc45","ios":"levelo://app?vid=8205c683-8367-4959-9a98-14869f44fc45"},"vehicle_type_id":"4","last_reported":1726575380,"current_range_meters":15200,"station_id":"ce4bhg92rcd13ifvqf90","pricing_plan_id":"cebpf4jnsgd1na2vs0mg"},{"bike_id":"2d3160b7-e70b-472f-b15c-242f37a3091f","system_id":"levelo_inurba_marseille","lat":43.30469,"lon":5.37914,"is_reserved":false,"is_disabled":false,"rental_uris":{"android":"levelo://app?vid=2d3160b7-e70b-472f-b15c-242f37a3091f","ios":"levelo://app?vid=2d3160b7-e70b-472f-b15c-242f37a3091f"},"vehicle_type_id":"4","last_reported":1726575380,"current_range_meters":38800,"station_id":"ce4bgup2rcd13ifvqcn0","pricing_plan_id":"cebpf4jnsgd1na2vs0mg"},{"bike_id":"34d1d709-4cef-47c7-a4d4-ad8fa3126f48","system_id":"levelo_inurba_marseille","lat":43.29036,"lon":5.38633,"is_reserved":false,"is_disabled":false,"rental_uris":{"android":"levelo://app?vid=34d1d709-4cef-47c7-a4d4-ad8fa3126f48","ios":"levelo://app?vid=34d1d709-4cef-47c7-a4d4-ad8fa3126f48"},"vehicle_type_id":"4","last_reported":1726575380,"current_range_meters":9200,"station_id":"ce4bh4p2rcd13ifvqe0g","pricing_plan_id":"cebpf4jnsgd1na2vs0mg"},{"bike_id":"c240c4c2-93fd-4f80-a695-e00971ab3984","system_id":"levelo_inurba_marseille","lat":43.26804,"lon":5.40268,"is_reserved":false,"is_disabled":false,"rental_uris":{"android":"levelo://app?vid=c240c4c2-93fd-4f80-a695-e00971ab3984","ios":"levelo://app?vid=c240c4c2-93fd-4f80-a695-e00971ab3984"},"vehicle_type_id":"4","last_reported":1726575380,"current_range_meters":32800,"station_id":"ce501612rcd8frsf0b60","pricing_plan_id":"cebpf4jnsgd1na2vs0mg"},{"bike_id":"6bf23168-ffbd-4c63-b5ba-9daade20b436","system_id":"levelo_inurba_marseille","lat":43.31688,"lon":5.40476,"is_reserved":false,"is_disabled":false,"rental_uris":{"android":"levelo://app?vid=6bf23168-ffbd-4c63-b5ba-9daade20b436","ios":"levelo://app?vid=6bf23168-ffbd-4c63-b5ba-9daade20b436"},"vehicle_type_id":"4","last_reported":1726575380,"current_range_meters":28000,"station_id":"ce4bgk12rcd13ifvqbi0","pricing_plan_id":"cebpf4jnsgd1na2vs0mg"},{"bike_id":"8493a5c9-23da-44d6-a382-ed1ca6f4aaba","system_id":"levelo_inurba_marseille","lat":43.29593,"lon":5.38106,"is_reserved":false,"is_disabled":false,"rental_uris":{"android":"levelo://app?vid=8493a5c9-23da-44d6-a382-ed1ca6f4aaba","ios":"levelo://app?vid=8493a5c9-23da-44d6-a382-ed1ca6f4aaba"},"vehicle_type_id":"4","last_reported":1726575380,"current_range_meters":20400,"station_id":"ce4bgl12rcd13ifvqbo0","pricing_plan_id":"cebpf4jnsgd1na2vs0mg"},{"bike_id":"8ebb376b-eafb-425e-8fa4-be57b88fce17","system_id":"levelo_inurba_marseille","lat":43.269531,"lon":5.386388,"is_reserved":false,"is_disabled":false,"rental_uris":{"android":"levelo://app?vid=8ebb376b-eafb-425e-8fa4-be57b88fce17","ios":"levelo://app?vid=8ebb376b-eafb-425e-8fa4-be57b88fce17"},"vehicle_type_id":"4","last_reported":1726575380,"current_range_meters":6000,"station_id":"ce4bhh92rcd13ifvqfh0","pricing_plan_id":"cebpf4jnsgd1na2vs0mg"},{"bike_id":"fdc29643-4932-48e1-b450-66847ee12129","system_id":"levelo_inurba_marseille","lat":43.26937,"lon":5.38924,"is_reserved":false,"is_disabled":false,"rental_uris":{"android":"levelo://app?vid=fdc29643-4932-48e1-b450-66847ee12129","ios":"levelo://app?vid=fdc29643-4932-48e1-b450-66847ee12129"},"vehicle_type_id":"4","last_reported":1726575380,"current_range_meters":36800,"station_id":"ce4bhhh2rcd13ifvqfl0","pricing_plan_id":"cebpf4jnsgd1na2vs0mg"},{"bike_id":"219d775b-e3d5-4c31-9579-99f4bbf71813","system_id":"levelo_inurba_marseille","lat":43.29961,"lon":5.41317,"is_reserved":false,"is_disabled":false,"rental_uris":{"android":"levelo://app?vid=219d775b-e3d5-4c31-9579-99f4bbf71813","ios":"levelo://app?vid=219d775b-e3d5-4c31-9579-99f4bbf71813"},"vehicle_type_id":"4","last_reported":1726575380,"current_range_meters":36000,"station_id":"ce4bhp12rcd13ifvqh9g","pricing_plan_id":"cebpf4jnsgd1na2vs0mg"},{"bike_id":"a2961d11-357d-499d-a439-95b0e7fb6ad0","system_id":"levelo_inurba_marseille","lat":43.26955,"lon":5.38627,"is_reserved":false,"is_disabled":false,"rental_uris":{"android":"levelo://app?vid=a2961d11-357d-499d-a439-95b0e7fb6ad0","ios":"levelo://app?vid=a2961d11-357d-499d-a439-95b0e7fb6ad0"},"vehicle_type_id":"4","last_reported":1726575380,"current_range_meters":11600,"station_id":"ce4bhh92rcd13ifvqfh0","pricing_plan_id":"cebpf4jnsgd1na2vs0mg"},{"bike_id":"68e1c6f2-5477-4daf-a8d4-bebc2b0ce367","system_id":"levelo_inurba_marseille","lat":43.2573,"lon":5.41102,"is_reserved":false,"is_disabled":false,"rental_uris":{"android":"levelo://app?vid=68e1c6f2-5477-4daf-a8d4-bebc2b0ce367","ios":"levelo://app?vid=68e1c6f2-5477-4daf-a8d4-bebc2b0ce367"},"vehicle_type_id":"4","last_reported":1726575380,"current_range_meters":8000,"station_id":"ce4bhkp2rcd13ifvqgd0","pricing_plan_id":"cebpf4jnsgd1na2vs0mg"},{"bike_id":"28ab227f-1eae-480a-8776-8f3bdef88c21","system_id":"levelo_inurba_marseille","lat":43.29789,"lon":5.3809,"is_reserved":false,"is_disabled":false,"rental_uris":{"android":"levelo://app?vid=28ab227f-1eae-480a-8776-8f3bdef88c21","ios":"levelo://app?vid=28ab227f-1eae-480a-8776-8f3bdef88c21"},"vehicle_type_id":"4","last_reported":1726575380,"current_range_meters":30400,"station_id":"ce4bgip2rcd13ifvqbb0","pricing_plan_id":"cebpf4jnsgd1na2vs0mg"},{"bike_id":"85266b5f-7036-48ec-b5c5-51ce6c73fea5","system_id":"levelo_inurba_marseille","lat":43.30138,"lon":5.39848,"is_reserved":false,"is_disabled":false,"rental_uris":{"android":"levelo://app?vid=85266b5f-7036-48ec-b5c5-51ce6c73fea5","ios":"levelo://app?vid=85266b5f-7036-48ec-b5c5-51ce6c73fea5"},"vehicle_type_id":"4","last_reported":1726575380,"current_range_meters":18800,"station_id":"ce4bh0h2rcd13ifvqd40","pricing_plan_id":"cebpf4jnsgd1na2vs0mg"},{"bike_id":"8cb592d9-f82f-4171-894f-8d7ffa6525e5","system_id":"levelo_inurba_marseille","lat":43.23197,"lon":5.35543,"is_reserved":false,"is_disabled":false,"rental_uris":{"android":"levelo://app?vid=8cb592d9-f82f-4171-894f-8d7ffa6525e5","ios":"levelo://app?vid=8cb592d9-f82f-4171-894f-8d7ffa6525e5"},"vehicle_type_id":"4","last_reported":1726575380,"current_range_meters":19600,"station_id":"ce4bhu92rcd13ifvqi70","pricing_plan_id":"cebpf4jnsgd1na2vs0mg"},{"bike_id":"5d75f6aa-86df-493f-8d69-fe45e17e7161","system_id":"levelo_inurba_marseille","lat":43.27375,"lon":5.36256,"is_reserved":false,"is_disabled":false,"rental_uris":{"android":"levelo://app?vid=5d75f6aa-86df-493f-8d69-fe45e17e7161","ios":"levelo://app?vid=5d75f6aa-86df-493f-8d69-fe45e17e7161"},"vehicle_type_id":"4","last_reported":1726575380,"current_range_meters":32000,"station_id":"ce4bhbh2rcd13ifvqeo0","pricing_plan_id":"cebpf4jnsgd1na2vs0mg"},{"bike_id":"285e7841-204a-4b8e-8658-4da9bd95684e","system_id":"levelo_inurba_marseille","lat":43.32483,"lon":5.36569,"is_reserved":false,"is_disabled":false,"rental_uris":{"android":"levelo://app?vid=285e7841-204a-4b8e-8658-4da9bd95684e","ios":"levelo://app?vid=285e7841-204a-4b8e-8658-4da9bd95684e"},"vehicle_type_id":"4","last_reported":1726575380,"current_range_meters":27200,"station_id":"ce4bhs12rcd13ifvqhvg","pricing_plan_id":"cebpf4jnsgd1na2vs0mg"},{"bike_id":"277c735b-d5d8-4974-98c1-11d4365e331e","system_id":"levelo_inurba_marseille","lat":43.32544,"lon":5.41437,"is_reserved":false,"is_disabled":false,"rental_uris":{"android":"levelo://app?vid=277c735b-d5d8-4974-98c1-11d4365e331e","ios":"levelo://app?vid=277c735b-d5d8-4974-98c1-11d4365e331e"},"vehicle_type_id":"4","last_reported":1726575380,"current_range_meters":2800,"station_id":"ce4bhq12rcd13ifvqhhg","pricing_plan_id":"cebpf4jnsgd1na2vs0mg"},{"bike_id":"20a4a91d-8541-4958-9b2e-4e75165c8a2a","system_id":"levelo_inurba_marseille","lat":43.30799,"lon":5.43518,"is_reserved":false,"is_disabled":false,"rental_uris":{"android":"levelo://app?vid=20a4a91d-8541-4958-9b2e-4e75165c8a2a","ios":"levelo://app?vid=20a4a91d-8541-4958-9b2e-4e75165c8a2a"},"vehicle_type_id":"4","last_reported":1726575380,"current_range_meters":14800,"station_id":"ce4bhph2rcd13ifvqheg","pricing_plan_id":"cebpf4jnsgd1na2vs0mg"},{"bike_id":"3d1da3e0-33f4-4660-b1aa-b3a41ebbbc55","system_id":"levelo_inurba_marseille","lat":43.29052,"lon":5.381067,"is_reserved":false,"is_disabled":false,"rental_uris":{"android":"levelo://app?vid=3d1da3e0-33f4-4660-b1aa-b3a41ebbbc55","ios":"levelo://app?vid=3d1da3e0-33f4-4660-b1aa-b3a41ebbbc55"},"vehicle_type_id":"4","last_reported":1726575380,"current_range_meters":32400,"station_id":"ce4bh4p2rcd13ifvqe1g","pricing_plan_id":"cebpf4jnsgd1na2vs0mg"},{"bike_id":"c3bcca86-6294-4639-9d07-9722d40f464e","system_id":"levelo_inurba_marseille","lat":43.29897,"lon":5.43657,"is_reserved":false,"is_disabled":false,"rental_uris":{"android":"levelo://app?vid=c3bcca86-6294-4639-9d07-9722d40f464e","ios":"levelo://app?vid=c3bcca86-6294-4639-9d07-9722d40f464e"},"vehicle_type_id":"4","last_reported":1726575380,"current_range_meters":35600,"station_id":"ce4bhpp2rcd13ifvqhfg","pricing_plan_id":"cebpf4jnsgd1na2vs0mg"},{"bike_id":"b8575011-8302-48a4-8af4-a59ce79d4a2f","system_id":"levelo_inurba_marseille","lat":43.3108,"lon":5.42436,"is_reserved":false,"is_disabled":false,"rental_uris":{"android":"levelo://app?vid=b8575011-8302-48a4-8af4-a59ce79d4a2f","ios":"levelo://app?vid=b8575011-8302-48a4-8af4-a59ce79d4a2f"},"vehicle_type_id":"4","last_reported":1726575380,"current_range_meters":31200,"station_id":"ce4bhp92rcd13ifvqhag","pricing_plan_id":"cebpf4jnsgd1na2vs0mg"},{"bike_id":"846701c9-7062-4e6c-8f54-36edd13d79a4","system_id":"levelo_inurba_marseille","lat":43.336,"lon":5.41031,"is_reserved":false,"is_disabled":false,"rental_uris":{"android":"levelo://app?vid=846701c9-7062-4e6c-8f54-36edd13d79a4","ios":"levelo://app?vid=846701c9-7062-4e6c-8f54-36edd13d79a4"},"vehicle_type_id":"4","last_reported":1726575380,"current_range_meters":30000,"station_id":"ce4bhqh2rcd13ifvqhmg","pricing_plan_id":"cebpf4jnsgd1na2vs0mg"},{"bike_id":"8d4fa9ce-4f53-4bbd-8ebe-9fa61a6486de","system_id":"levelo_inurba_marseille","lat":43.27617,"lon":5.36112,"is_reserved":false,"is_disabled":false,"rental_uris":{"android":"levelo://app?vid=8d4fa9ce-4f53-4bbd-8ebe-9fa61a6486de","ios":"levelo://app?vid=8d4fa9ce-4f53-4bbd-8ebe-9fa61a6486de"},"vehicle_type_id":"4","last_reported":1726575380,"current_range_meters":17600,"station_id":"ce4bgj92rcd13ifvqbe0","pricing_plan_id":"cebpf4jnsgd1na2vs0mg"},{"bike_id":"f25b29a5-4cb5-4d1b-870c-9b57dee949d7","system_id":"levelo_inurba_marseille","lat":43.29791,"lon":5.39348,"is_reserved":false,"is_disabled":false,"rental_uris":{"android":"levelo://app?vid=f25b29a5-4cb5-4d1b-870c-9b57dee949d7","ios":"levelo://app?vid=f25b29a5-4cb5-4d1b-870c-9b57dee949d7"},"vehicle_type_id":"4","last_reported":1726575380,"current_range_meters":38800,"station_id":"chh1huq6cuj3fo74tm60","pricing_plan_id":"cebpf4jnsgd1na2vs0mg"},{"bike_id":"8a14e327-f1ba-4fa7-932f-68c0a0975b98","system_id":"levelo_inurba_marseille","lat":43.33608,"lon":5.41022,"is_reserved":false,"is_disabled":false,"rental_uris":{"android":"levelo://app?vid=8a14e327-f1ba-4fa7-932f-68c0a0975b98","ios":"levelo://app?vid=8a14e327-f1ba-4fa7-932f-68c0a0975b98"},"vehicle_type_id":"4","last_reported":1726575380,"current_range_meters":38800,"station_id":"ce4bhqh2rcd13ifvqhmg","pricing_plan_id":"cebpf4jnsgd1na2vs0mg"},{"bike_id":"8e3c84db-879d-4669-8d43-f74eed3d4c1b","system_id":"levelo_inurba_marseille","lat":43.27376,"lon":5.36262,"is_reserved":false,"is_disabled":false,"rental_uris":{"android":"levelo://app?vid=8e3c84db-879d-4669-8d43-f74eed3d4c1b","ios":"levelo://app?vid=8e3c84db-879d-4669-8d43-f74eed3d4c1b"},"vehicle_type_id":"4","last_reported":1726575380,"current_range_meters":27600,"station_id":"ce4bhbh2rcd13ifvqeo0","pricing_plan_id":"cebpf4jnsgd1na2vs0mg"},{"bike_id":"17a266da-29ed-43a1-a6d1-5081760c15f7","system_id":"levelo_inurba_marseille","lat":43.33604,"lon":5.41031,"is_reserved":false,"is_disabled":false,"rental_uris":{"android":"levelo://app?vid=17a266da-29ed-43a1-a6d1-5081760c15f7","ios":"levelo://app?vid=17a266da-29ed-43a1-a6d1-5081760c15f7"},"vehicle_type_id":"4","last_reported":1726575380,"current_range_meters":36400,"station_id":"ce4bhqh2rcd13ifvqhmg","pricing_plan_id":"cebpf4jnsgd1na2vs0mg"},{"bike_id":"b1db6496-7d7b-4acc-a88c-e5406d38e100","system_id":"levelo_inurba_marseille","lat":43.23191,"lon":5.35546,"is_reserved":false,"is_disabled":false,"rental_uris":{"android":"levelo://app?vid=b1db6496-7d7b-4acc-a88c-e5406d38e100","ios":"levelo://app?vid=b1db6496-7d7b-4acc-a88c-e5406d38e100"},"vehicle_type_id":"4","last_reported":1726575380,"current_range_meters":27600,"station_id":"ce4bhu92rcd13ifvqi70","pricing_plan_id":"cebpf4jnsgd1na2vs0mg"},{"bike_id":"2716ff05-5413-408f-9aee-b90ed0b4829f","system_id":"levelo_inurba_marseille","lat":43.27493,"lon":5.42455,"is_reserved":false,"is_disabled":false,"rental_uris":{"android":"levelo://app?vid=2716ff05-5413-408f-9aee-b90ed0b4829f","ios":"levelo://app?vid=2716ff05-5413-408f-9aee-b90ed0b4829f"},"vehicle_type_id":"4","last_reported":1726575380,"current_range_meters":24000,"station_id":"ce4bhn92rcd13ifvqgrg","pricing_plan_id":"cebpf4jnsgd1na2vs0mg"},{"bike_id":"f50081a9-392f-41e9-a79f-983b92c0d03b","system_id":"levelo_inurba_marseille","lat":43.298652,"lon":5.397348,"is_reserved":false,"is_disabled":false,"rental_uris":{"android":"levelo://app?vid=f50081a9-392f-41e9-a79f-983b92c0d03b","ios":"levelo://app?vid=f50081a9-392f-41e9-a79f-983b92c0d03b"},"vehicle_type_id":"4","last_reported":1726575380,"current_range_meters":35200,"station_id":"ce4bh0h2rcd13ifvqd50","pricing_plan_id":"cebpf4jnsgd1na2vs0mg"},{"bike_id":"733e4865-3357-4a1f-819b-4a724885d4e3","system_id":"levelo_inurba_marseille","lat":43.26923,"lon":5.38635,"is_reserved":false,"is_disabled":false,"rental_uris":{"android":"levelo://app?vid=733e4865-3357-4a1f-819b-4a724885d4e3","ios":"levelo://app?vid=733e4865-3357-4a1f-819b-4a724885d4e3"},"vehicle_type_id":"4","last_reported":1726575380,"current_range_meters":32400,"station_id":"ce4bhh92rcd13ifvqfh0","pricing_plan_id":"cebpf4jnsgd1na2vs0mg"},{"bike_id":"75f7732a-1a78-4362-baca-02fbde18fe1d","system_id":"levelo_inurba_marseille","lat":43.337444,"lon":5.374475,"is_reserved":false,"is_disabled":false,"rental_uris":{"android":"levelo://app?vid=75f7732a-1a78-4362-baca-02fbde18fe1d","ios":"levelo://app?vid=75f7732a-1a78-4362-baca-02fbde18fe1d"},"vehicle_type_id":"4","last_reported":1726575380,"current_range_meters":38800,"station_id":"ce4bh0p2rcd13ifvqd70","pricing_plan_id":"cebpf4jnsgd1na2vs0mg"},{"bike_id":"6baa22f0-81f1-4bc6-a0e3-cdd62170b76c","system_id":"levelo_inurba_marseille","lat":43.27497,"lon":5.42451,"is_reserved":false,"is_disabled":false,"rental_uris":{"android":"levelo://app?vid=6baa22f0-81f1-4bc6-a0e3-cdd62170b76c","ios":"levelo://app?vid=6baa22f0-81f1-4bc6-a0e3-cdd62170b76c"},"vehicle_type_id":"4","last_reported":1726575380,"current_range_meters":2800,"station_id":"ce4bhn92rcd13ifvqgrg","pricing_plan_id":"cebpf4jnsgd1na2vs0mg"},{"bike_id":"cc3b8af5-922b-47a4-9520-14c9cfb481c6","system_id":"levelo_inurba_marseille","lat":43.27496,"lon":5.42447,"is_reserved":false,"is_disabled":false,"rental_uris":{"android":"levelo://app?vid=cc3b8af5-922b-47a4-9520-14c9cfb481c6","ios":"levelo://app?vid=cc3b8af5-922b-47a4-9520-14c9cfb481c6"},"vehicle_type_id":"4","last_reported":1726575380,"current_range_meters":8400,"station_id":"ce4bhn92rcd13ifvqgrg","pricing_plan_id":"cebpf4jnsgd1na2vs0mg"},{"bike_id":"ce67bff4-26e3-4621-a146-5efa577872dc","system_id":"levelo_inurba_marseille","lat":43.28693,"lon":5.38091,"is_reserved":false,"is_disabled":false,"rental_uris":{"android":"levelo://app?vid=ce67bff4-26e3-4621-a146-5efa577872dc","ios":"levelo://app?vid=ce67bff4-26e3-4621-a146-5efa577872dc"},"vehicle_type_id":"4","last_reported":1726575380,"current_range_meters":14800,"station_id":"ce4bh9p2rcd13ifvqec0","pricing_plan_id":"cebpf4jnsgd1na2vs0mg"},{"bike_id":"a2ce90f0-0542-4158-a283-f607737c705c","system_id":"levelo_inurba_marseille","lat":43.31272,"lon":5.4017,"is_reserved":false,"is_disabled":false,"rental_uris":{"android":"levelo://app?vid=a2ce90f0-0542-4158-a283-f607737c705c","ios":"levelo://app?vid=a2ce90f0-0542-4158-a283-f607737c705c"},"vehicle_type_id":"4","last_reported":1726575380,"current_range_meters":20400,"station_id":"ce4bh092rcd13ifvqd30","pricing_plan_id":"cebpf4jnsgd1na2vs0mg"},{"bike_id":"30eb4fc3-75e0-4e90-932f-10d864652ad8","system_id":"levelo_inurba_marseille","lat":43.302979,"lon":5.391924,"is_reserved":false,"is_disabled":false,"rental_uris":{"android":"levelo://app?vid=30eb4fc3-75e0-4e90-932f-10d864652ad8","ios":"levelo://app?vid=30eb4fc3-75e0-4e90-932f-10d864652ad8"},"vehicle_type_id":"4","last_reported":1726575380,"current_range_meters":17200,"station_id":"ce4bgkh2rcd13ifvqbk0","pricing_plan_id":"cebpf4jnsgd1na2vs0mg"},{"bike_id":"b645ac77-0d58-4fa9-8ad3-947af8bdb1d9","system_id":"levelo_inurba_marseille","lat":43.29897,"lon":5.43669,"is_reserved":false,"is_disabled":false,"rental_uris":{"android":"levelo://app?vid=b645ac77-0d58-4fa9-8ad3-947af8bdb1d9","ios":"levelo://app?vid=b645ac77-0d58-4fa9-8ad3-947af8bdb1d9"},"vehicle_type_id":"4","last_reported":1726575380,"current_range_meters":24800,"station_id":"ce4bhpp2rcd13ifvqhfg","pricing_plan_id":"cebpf4jnsgd1na2vs0mg"},{"bike_id":"75f7f11e-9f0a-4136-85bf-0b0ce04e45cd","system_id":"levelo_inurba_marseille","lat":43.27176,"lon":5.40994,"is_reserved":false,"is_disabled":false,"rental_uris":{"android":"levelo://app?vid=75f7f11e-9f0a-4136-85bf-0b0ce04e45cd","ios":"levelo://app?vid=75f7f11e-9f0a-4136-85bf-0b0ce04e45cd"},"vehicle_type_id":"4","last_reported":1726575380,"current_range_meters":32000,"station_id":"ce4bhl12rcd13ifvqgf0","pricing_plan_id":"cebpf4jnsgd1na2vs0mg"},{"bike_id":"e9058831-efc6-4c5e-be67-72b8aa4a440b","system_id":"levelo_inurba_marseille","lat":43.29276,"lon":5.38455,"is_reserved":false,"is_disabled":false,"rental_uris":{"android":"levelo://app?vid=e9058831-efc6-4c5e-be67-72b8aa4a440b","ios":"levelo://app?vid=e9058831-efc6-4c5e-be67-72b8aa4a440b"},"vehicle_type_id":"4","last_reported":1726575380,"current_range_meters":30000,"station_id":"ce4bh692rcd13ifvqea0","pricing_plan_id":"cebpf4jnsgd1na2vs0mg"},{"bike_id":"dfd2b010-d2fb-4362-b034-681d537287af","system_id":"levelo_inurba_marseille","lat":43.25009,"lon":5.38924,"is_reserved":false,"is_disabled":false,"rental_uris":{"android":"levelo://app?vid=dfd2b010-d2fb-4362-b034-681d537287af","ios":"levelo://app?vid=dfd2b010-d2fb-4362-b034-681d537287af"},"vehicle_type_id":"4","last_reported":1726575380,"current_range_meters":36400,"station_id":"ce4bhgp2rcd13ifvqfd0","pricing_plan_id":"cebpf4jnsgd1na2vs0mg"},{"bike_id":"ebd94425-42b4-4f2a-b41b-9371f8ff4de0","system_id":"levelo_inurba_marseille","lat":43.288635,"lon":5.353671,"is_reserved":false,"is_disabled":false,"rental_uris":{"android":"levelo://app?vid=ebd94425-42b4-4f2a-b41b-9371f8ff4de0","ios":"levelo://app?vid=ebd94425-42b4-4f2a-b41b-9371f8ff4de0"},"vehicle_type_id":"4","last_reported":1726575380,"current_range_meters":30000,"station_id":"","pricing_plan_id":"cebpf4jnsgd1na2vs0mg"},{"bike_id":"a6484cba-fb5d-4c58-bda6-1991acb43b0d","system_id":"levelo_inurba_marseille","lat":43.32546,"lon":5.41435,"is_reserved":false,"is_disabled":false,"rental_uris":{"android":"levelo://app?vid=a6484cba-fb5d-4c58-bda6-1991acb43b0d","ios":"levelo://app?vid=a6484cba-fb5d-4c58-bda6-1991acb43b0d"},"vehicle_type_id":"4","last_reported":1726575380,"current_range_meters":13600,"station_id":"ce4bhqh2rcd13ifvqhmg","pricing_plan_id":"cebpf4jnsgd1na2vs0mg"},{"bike_id":"d07510fb-c4f4-4c85-81e3-a462d20e3255","system_id":"levelo_inurba_marseille","lat":43.23152,"lon":5.43712,"is_reserved":false,"is_disabled":false,"rental_uris":{"android":"levelo://app?vid=d07510fb-c4f4-4c85-81e3-a462d20e3255","ios":"levelo://app?vid=d07510fb-c4f4-4c85-81e3-a462d20e3255"},"vehicle_type_id":"4","last_reported":1726575380,"current_range_meters":29600,"station_id":"ce4bhmp2rcd13ifvqgog","pricing_plan_id":"cebpf4jnsgd1na2vs0mg"},{"bike_id":"408c5749-702c-43ea-9058-5bebe1ea2111","system_id":"levelo_inurba_marseille","lat":43.27488,"lon":5.42449,"is_reserved":false,"is_disabled":false,"rental_uris":{"android":"levelo://app?vid=408c5749-702c-43ea-9058-5bebe1ea2111","ios":"levelo://app?vid=408c5749-702c-43ea-9058-5bebe1ea2111"},"vehicle_type_id":"4","last_reported":1726575380,"current_range_meters":16000,"station_id":"ce4bhn92rcd13ifvqgrg","pricing_plan_id":"cebpf4jnsgd1na2vs0mg"},{"bike_id":"888833d6-42a0-4875-a8da-bf676f879d5a","system_id":"levelo_inurba_marseille","lat":43.22938,"lon":5.35377,"is_reserved":false,"is_disabled":false,"rental_uris":{"android":"levelo://app?vid=888833d6-42a0-4875-a8da-bf676f879d5a","ios":"levelo://app?vid=888833d6-42a0-4875-a8da-bf676f879d5a"},"vehicle_type_id":"4","last_reported":1726575380,"current_range_meters":20400,"station_id":"cpo3532slgdg3j2ikp40","pricing_plan_id":"cebpf4jnsgd1na2vs0mg"},{"bike_id":"677498c9-746b-4650-9a8e-2c7479635944","system_id":"levelo_inurba_marseille","lat":43.33026,"lon":5.39046,"is_reserved":false,"is_disabled":false,"rental_uris":{"android":"levelo://app?vid=677498c9-746b-4650-9a8e-2c7479635944","ios":"levelo://app?vid=677498c9-746b-4650-9a8e-2c7479635944"},"vehicle_type_id":"4","last_reported":1726575380,"current_range_meters":22400,"station_id":"ce4bhr92rcd13ifvqhrg","pricing_plan_id":"cebpf4jnsgd1na2vs0mg"},{"bike_id":"a8f001cc-011c-492d-845a-c4644d2a1f1e","system_id":"levelo_inurba_marseille","lat":43.3254,"lon":5.41438,"is_reserved":false,"is_disabled":false,"rental_uris":{"android":"levelo://app?vid=a8f001cc-011c-492d-845a-c4644d2a1f1e","ios":"levelo://app?vid=a8f001cc-011c-492d-845a-c4644d2a1f1e"},"vehicle_type_id":"4","last_reported":1726575380,"current_range_meters":12400,"station_id":"ce4bhq12rcd13ifvqhhg","pricing_plan_id":"cebpf4jnsgd1na2vs0mg"},{"bike_id":"7ff28338-0e02-4dfe-a0f8-dbee8c6952c3","system_id":"levelo_inurba_marseille","lat":43.24076,"lon":5.37761,"is_reserved":false,"is_disabled":false,"rental_uris":{"android":"levelo://app?vid=7ff28338-0e02-4dfe-a0f8-dbee8c6952c3","ios":"levelo://app?vid=7ff28338-0e02-4dfe-a0f8-dbee8c6952c3"},"vehicle_type_id":"4","last_reported":1726575380,"current_range_meters":14000,"station_id":"ce4bhnp2rcd13ifvqgvg","pricing_plan_id":"cebpf4jnsgd1na2vs0mg"},{"bike_id":"9e2a41e5-772b-4a7f-b985-2a4f524472e0","system_id":"levelo_inurba_marseille","lat":43.271754,"lon":5.409954,"is_reserved":false,"is_disabled":false,"rental_uris":{"android":"levelo://app?vid=9e2a41e5-772b-4a7f-b985-2a4f524472e0","ios":"levelo://app?vid=9e2a41e5-772b-4a7f-b985-2a4f524472e0"},"vehicle_type_id":"4","last_reported":1726575380,"current_range_meters":2000,"station_id":"ce4bhl12rcd13ifvqgf0","pricing_plan_id":"cebpf4jnsgd1na2vs0mg"},{"bike_id":"8bb981a8-1192-4b2a-86fe-7c6d0e323799","system_id":"levelo_inurba_marseille","lat":43.24073,"lon":5.37764,"is_reserved":false,"is_disabled":false,"rental_uris":{"android":"levelo://app?vid=8bb981a8-1192-4b2a-86fe-7c6d0e323799","ios":"levelo://app?vid=8bb981a8-1192-4b2a-86fe-7c6d0e323799"},"vehicle_type_id":"4","last_reported":1726575380,"current_range_meters":5600,"station_id":"ce4bhnp2rcd13ifvqgvg","pricing_plan_id":"cebpf4jnsgd1na2vs0mg"},{"bike_id":"c15061b3-b6e5-4fcc-b804-bf420a5b30ae","system_id":"levelo_inurba_marseille","lat":43.3078,"lon":5.37657,"is_reserved":false,"is_disabled":false,"rental_uris":{"android":"levelo://app?vid=c15061b3-b6e5-4fcc-b804-bf420a5b30ae","ios":"levelo://app?vid=c15061b3-b6e5-4fcc-b804-bf420a5b30ae"},"vehicle_type_id":"4","last_reported":1726575380,"current_range_meters":38800,"station_id":"ce4bgv92rcd13ifvqcq0","pricing_plan_id":"cebpf4jnsgd1na2vs0mg"},{"bike_id":"1f15b34f-e7dd-412e-9a61-f1067db9aac5","system_id":"levelo_inurba_marseille","lat":43.292206,"lon":5.360262,"is_reserved":false,"is_disabled":false,"rental_uris":{"android":"levelo://app?vid=1f15b34f-e7dd-412e-9a61-f1067db9aac5","ios":"levelo://app?vid=1f15b34f-e7dd-412e-9a61-f1067db9aac5"},"vehicle_type_id":"4","last_reported":1726575380,"current_range_meters":37600,"station_id":"ce4bhbh2rcd13ifvqeqg","pricing_plan_id":"cebpf4jnsgd1na2vs0mg"},{"bike_id":"ff14c5a9-5460-4d7b-9f00-20170da72cbf","system_id":"levelo_inurba_marseille","lat":43.30184,"lon":5.39341,"is_reserved":false,"is_disabled":false,"rental_uris":{"android":"levelo://app?vid=ff14c5a9-5460-4d7b-9f00-20170da72cbf","ios":"levelo://app?vid=ff14c5a9-5460-4d7b-9f00-20170da72cbf"},"vehicle_type_id":"4","last_reported":1726575380,"current_range_meters":24800,"station_id":"ce4bh0p2rcd13ifvqd70","pricing_plan_id":"cebpf4jnsgd1na2vs0mg"},{"bike_id":"05d8f5ca-3641-4331-bd9e-16e14944b5fb","system_id":"levelo_inurba_marseille","lat":43.29961,"lon":5.37187,"is_reserved":false,"is_disabled":false,"rental_uris":{"android":"levelo://app?vid=05d8f5ca-3641-4331-bd9e-16e14944b5fb","ios":"levelo://app?vid=05d8f5ca-3641-4331-bd9e-16e14944b5fb"},"vehicle_type_id":"4","last_reported":1726575380,"current_range_meters":27200,"station_id":"ce4bgr92rcd13ifvqc7g","pricing_plan_id":"cebpf4jnsgd1na2vs0mg"},{"bike_id":"7ba5a0d3-87f5-4dbc-8dc8-0d67d795da41","system_id":"levelo_inurba_marseille","lat":43.30912,"lon":5.36847,"is_reserved":false,"is_disabled":false,"rental_uris":{"android":"levelo://app?vid=7ba5a0d3-87f5-4dbc-8dc8-0d67d795da41","ios":"levelo://app?vid=7ba5a0d3-87f5-4dbc-8dc8-0d67d795da41"},"vehicle_type_id":"4","last_reported":1726575380,"current_range_meters":38800,"station_id":"ce4bgn92rcd13ifvqbvg","pricing_plan_id":"cebpf4jnsgd1na2vs0mg"},{"bike_id":"7c7890c5-09f0-4cf2-8901-9b666045eb68","system_id":"levelo_inurba_marseille","lat":43.24074,"lon":5.37761,"is_reserved":false,"is_disabled":false,"rental_uris":{"android":"levelo://app?vid=7c7890c5-09f0-4cf2-8901-9b666045eb68","ios":"levelo://app?vid=7c7890c5-09f0-4cf2-8901-9b666045eb68"},"vehicle_type_id":"4","last_reported":1726575380,"current_range_meters":4400,"station_id":"ce4bhnp2rcd13ifvqgvg","pricing_plan_id":"cebpf4jnsgd1na2vs0mg"},{"bike_id":"bdab53d1-6c0d-4e22-ae92-62ac99d9be2f","system_id":"levelo_inurba_marseille","lat":43.31234,"lon":5.3686,"is_reserved":false,"is_disabled":false,"rental_uris":{"android":"levelo://app?vid=bdab53d1-6c0d-4e22-ae92-62ac99d9be2f","ios":"levelo://app?vid=bdab53d1-6c0d-4e22-ae92-62ac99d9be2f"},"vehicle_type_id":"4","last_reported":1726575380,"current_range_meters":30400,"station_id":"ce4bgl92rcd13ifvqbq0","pricing_plan_id":"cebpf4jnsgd1na2vs0mg"},{"bike_id":"b00ffb2c-1be9-47cb-ab27-67358dd732b0","system_id":"levelo_inurba_marseille","lat":43.27663,"lon":5.38897,"is_reserved":false,"is_disabled":false,"rental_uris":{"android":"levelo://app?vid=b00ffb2c-1be9-47cb-ab27-67358dd732b0","ios":"levelo://app?vid=b00ffb2c-1be9-47cb-ab27-67358dd732b0"},"vehicle_type_id":"4","last_reported":1726575380,"current_range_meters":24400,"station_id":"ce4bhi12rcd13ifvqfo0","pricing_plan_id":"cebpf4jnsgd1na2vs0mg"},{"bike_id":"353e15fe-2552-4f2b-b735-9764eb59f8ad","system_id":"levelo_inurba_marseille","lat":43.28412,"lon":5.34976,"is_reserved":false,"is_disabled":false,"rental_uris":{"android":"levelo://app?vid=353e15fe-2552-4f2b-b735-9764eb59f8ad","ios":"levelo://app?vid=353e15fe-2552-4f2b-b735-9764eb59f8ad"},"vehicle_type_id":"4","last_reported":1726575380,"current_range_meters":22400,"station_id":"ce4bgvp2rcd13ifvqcu0","pricing_plan_id":"cebpf4jnsgd1na2vs0mg"},{"bike_id":"182d1093-90b1-4c7b-b983-e0d1fe141873","system_id":"levelo_inurba_marseille","lat":43.2512,"lon":5.40319,"is_reserved":false,"is_disabled":false,"rental_uris":{"android":"levelo://app?vid=182d1093-90b1-4c7b-b983-e0d1fe141873","ios":"levelo://app?vid=182d1093-90b1-4c7b-b983-e0d1fe141873"},"vehicle_type_id":"4","last_reported":1726575380,"current_range_meters":38800,"station_id":"ce4bhlh2rcd13ifvqgig","pricing_plan_id":"cebpf4jnsgd1na2vs0mg"},{"bike_id":"fa32bfe3-89e1-4279-8eee-5075e5e2e994","system_id":"levelo_inurba_marseille","lat":43.28474,"lon":5.38428,"is_reserved":false,"is_disabled":false,"rental_uris":{"android":"levelo://app?vid=fa32bfe3-89e1-4279-8eee-5075e5e2e994","ios":"levelo://app?vid=fa32bfe3-89e1-4279-8eee-5075e5e2e994"},"vehicle_type_id":"4","last_reported":1726575380,"current_range_meters":32800,"station_id":"ce4bh512rcd13ifvqe3g","pricing_plan_id":"cebpf4jnsgd1na2vs0mg"},{"bike_id":"6c8dcadc-a40b-41b2-acf8-3ff17cc91a7b","system_id":"levelo_inurba_marseille","lat":43.2511,"lon":5.40318,"is_reserved":false,"is_disabled":false,"rental_uris":{"android":"levelo://app?vid=6c8dcadc-a40b-41b2-acf8-3ff17cc91a7b","ios":"levelo://app?vid=6c8dcadc-a40b-41b2-acf8-3ff17cc91a7b"},"vehicle_type_id":"4","last_reported":1726575380,"current_range_meters":25600,"station_id":"ce4bhlh2rcd13ifvqgig","pricing_plan_id":"cebpf4jnsgd1na2vs0mg"},{"bike_id":"69fc45f7-dd19-4407-a454-e92646802611","system_id":"levelo_inurba_marseille","lat":43.24997,"lon":5.38925,"is_reserved":false,"is_disabled":false,"rental_uris":{"android":"levelo://app?vid=69fc45f7-dd19-4407-a454-e92646802611","ios":"levelo://app?vid=69fc45f7-dd19-4407-a454-e92646802611"},"vehicle_type_id":"4","last_reported":1726575380,"current_range_meters":12800,"station_id":"ce4bhgp2rcd13ifvqfd0","pricing_plan_id":"cebpf4jnsgd1na2vs0mg"},{"bike_id":"1de4de3a-2ef8-42cb-8c7d-7ebf1bc7e98b","system_id":"levelo_inurba_marseille","lat":43.2762,"lon":5.36108,"is_reserved":false,"is_disabled":false,"rental_uris":{"android":"levelo://app?vid=1de4de3a-2ef8-42cb-8c7d-7ebf1bc7e98b","ios":"levelo://app?vid=1de4de3a-2ef8-42cb-8c7d-7ebf1bc7e98b"},"vehicle_type_id":"4","last_reported":1726575380,"current_range_meters":30000,"station_id":"ce4bgj92rcd13ifvqbe0","pricing_plan_id":"cebpf4jnsgd1na2vs0mg"},{"bike_id":"99684f50-b398-427b-a4e9-7ca0a0382c79","system_id":"levelo_inurba_marseille","lat":43.23199,"lon":5.35547,"is_reserved":false,"is_disabled":false,"rental_uris":{"android":"levelo://app?vid=99684f50-b398-427b-a4e9-7ca0a0382c79","ios":"levelo://app?vid=99684f50-b398-427b-a4e9-7ca0a0382c79"},"vehicle_type_id":"4","last_reported":1726575380,"current_range_meters":38800,"station_id":"ce4bhu92rcd13ifvqi70","pricing_plan_id":"cebpf4jnsgd1na2vs0mg"},{"bike_id":"ee3c47d9-cc59-413e-9f90-f34da2aaad9b","system_id":"levelo_inurba_marseille","lat":43.29222,"lon":5.36051,"is_reserved":false,"is_disabled":false,"rental_uris":{"android":"levelo://app?vid=ee3c47d9-cc59-413e-9f90-f34da2aaad9b","ios":"levelo://app?vid=ee3c47d9-cc59-413e-9f90-f34da2aaad9b"},"vehicle_type_id":"4","last_reported":1726575380,"current_range_meters":32400,"station_id":"ce4bhbh2rcd13ifvqeqg","pricing_plan_id":"cebpf4jnsgd1na2vs0mg"},{"bike_id":"ced2fb85-e53b-4e94-afe5-a836d896e9cf","system_id":"levelo_inurba_marseille","lat":43.30542,"lon":5.36547,"is_reserved":false,"is_disabled":false,"rental_uris":{"android":"levelo://app?vid=ced2fb85-e53b-4e94-afe5-a836d896e9cf","ios":"levelo://app?vid=ced2fb85-e53b-4e94-afe5-a836d896e9cf"},"vehicle_type_id":"4","last_reported":1726575380,"current_range_meters":30800,"station_id":"ce4bgs12rcd13ifvqcag","pricing_plan_id":"cebpf4jnsgd1na2vs0mg"},{"bike_id":"b73d2e37-386e-486b-9df9-fda688c146f4","system_id":"levelo_inurba_marseille","lat":43.33762,"lon":5.3746,"is_reserved":false,"is_disabled":false,"rental_uris":{"android":"levelo://app?vid=b73d2e37-386e-486b-9df9-fda688c146f4","ios":"levelo://app?vid=b73d2e37-386e-486b-9df9-fda688c146f4"},"vehicle_type_id":"4","last_reported":1726575380,"current_range_meters":30000,"station_id":"","pricing_plan_id":"cebpf4jnsgd1na2vs0mg"},{"bike_id":"0a0f61f4-880f-4c12-b858-19a243d7e3f9","system_id":"levelo_inurba_marseille","lat":43.231991,"lon":5.355485,"is_reserved":false,"is_disabled":false,"rental_uris":{"android":"levelo://app?vid=0a0f61f4-880f-4c12-b858-19a243d7e3f9","ios":"levelo://app?vid=0a0f61f4-880f-4c12-b858-19a243d7e3f9"},"vehicle_type_id":"4","last_reported":1726575380,"current_range_meters":14000,"station_id":"ce4bhu92rcd13ifvqi70","pricing_plan_id":"cebpf4jnsgd1na2vs0mg"},{"bike_id":"0f4884e3-7176-4a2c-ba9f-e902a9cf439d","system_id":"levelo_inurba_marseille","lat":43.3079,"lon":5.37654,"is_reserved":false,"is_disabled":false,"rental_uris":{"android":"levelo://app?vid=0f4884e3-7176-4a2c-ba9f-e902a9cf439d","ios":"levelo://app?vid=0f4884e3-7176-4a2c-ba9f-e902a9cf439d"},"vehicle_type_id":"4","last_reported":1726575380,"current_range_meters":38800,"station_id":"ce4bgv92rcd13ifvqcq0","pricing_plan_id":"cebpf4jnsgd1na2vs0mg"},{"bike_id":"34195e9b-fc36-4b98-a05c-c2c2aad12108","system_id":"levelo_inurba_marseille","lat":43.2408,"lon":5.37747,"is_reserved":false,"is_disabled":false,"rental_uris":{"android":"levelo://app?vid=34195e9b-fc36-4b98-a05c-c2c2aad12108","ios":"levelo://app?vid=34195e9b-fc36-4b98-a05c-c2c2aad12108"},"vehicle_type_id":"4","last_reported":1726575380,"current_range_meters":27200,"station_id":"ce4bhnp2rcd13ifvqgvg","pricing_plan_id":"cebpf4jnsgd1na2vs0mg"},{"bike_id":"d4071084-e62f-4dd3-9827-2a8c5148573d","system_id":"levelo_inurba_marseille","lat":43.29804,"lon":5.38096,"is_reserved":false,"is_disabled":false,"rental_uris":{"android":"levelo://app?vid=d4071084-e62f-4dd3-9827-2a8c5148573d","ios":"levelo://app?vid=d4071084-e62f-4dd3-9827-2a8c5148573d"},"vehicle_type_id":"4","last_reported":1726575380,"current_range_meters":38400,"station_id":"ce4bgip2rcd13ifvqbb0","pricing_plan_id":"cebpf4jnsgd1na2vs0mg"},{"bike_id":"2b714e73-49f8-4f26-bb6d-7d72ce23aabc","system_id":"levelo_inurba_marseille","lat":43.23053,"lon":5.35488,"is_reserved":false,"is_disabled":false,"rental_uris":{"android":"levelo://app?vid=2b714e73-49f8-4f26-bb6d-7d72ce23aabc","ios":"levelo://app?vid=2b714e73-49f8-4f26-bb6d-7d72ce23aabc"},"vehicle_type_id":"4","last_reported":1726575380,"current_range_meters":14000,"station_id":"cpo3342slgdg3j2ifvpg","pricing_plan_id":"cebpf4jnsgd1na2vs0mg"},{"bike_id":"1e2dc843-dbeb-4046-9c43-610f71a6678e","system_id":"levelo_inurba_marseille","lat":43.290436,"lon":5.39973,"is_reserved":false,"is_disabled":false,"rental_uris":{"android":"levelo://app?vid=1e2dc843-dbeb-4046-9c43-610f71a6678e","ios":"levelo://app?vid=1e2dc843-dbeb-4046-9c43-610f71a6678e"},"vehicle_type_id":"4","last_reported":1726575380,"current_range_meters":27600,"station_id":"ce4bhg12rcd13ifvqf80","pricing_plan_id":"cebpf4jnsgd1na2vs0mg"},{"bike_id":"3dc8a05d-268b-4a33-bb8b-831348a36510","system_id":"levelo_inurba_marseille","lat":43.24666,"lon":5.38166,"is_reserved":false,"is_disabled":false,"rental_uris":{"android":"levelo://app?vid=3dc8a05d-268b-4a33-bb8b-831348a36510","ios":"levelo://app?vid=3dc8a05d-268b-4a33-bb8b-831348a36510"},"vehicle_type_id":"4","last_reported":1726575380,"current_range_meters":8000,"station_id":"ce4bhih2rcd13ifvqfr0","pricing_plan_id":"cebpf4jnsgd1na2vs0mg"},{"bike_id":"88c707c7-42fe-432b-bb6a-9867f5b394da","system_id":"levelo_inurba_marseille","lat":43.30213,"lon":5.39479,"is_reserved":false,"is_disabled":false,"rental_uris":{"android":"levelo://app?vid=88c707c7-42fe-432b-bb6a-9867f5b394da","ios":"levelo://app?vid=88c707c7-42fe-432b-bb6a-9867f5b394da"},"vehicle_type_id":"4","last_reported":1726575380,"current_range_meters":10000,"station_id":"ce4bh0p2rcd13ifvqd70","pricing_plan_id":"cebpf4jnsgd1na2vs0mg"},{"bike_id":"ad722464-32b1-4125-bf35-54f1e4aed3dd","system_id":"levelo_inurba_marseille","lat":43.24076,"lon":5.37759,"is_reserved":false,"is_disabled":false,"rental_uris":{"android":"levelo://app?vid=ad722464-32b1-4125-bf35-54f1e4aed3dd","ios":"levelo://app?vid=ad722464-32b1-4125-bf35-54f1e4aed3dd"},"vehicle_type_id":"4","last_reported":1726575380,"current_range_meters":6000,"station_id":"ce4bhnp2rcd13ifvqgvg","pricing_plan_id":"cebpf4jnsgd1na2vs0mg"},{"bike_id":"040704b3-2c1b-4498-a526-5fa515dc1006","system_id":"levelo_inurba_marseille","lat":43.23193,"lon":5.35549,"is_reserved":false,"is_disabled":false,"rental_uris":{"android":"levelo://app?vid=040704b3-2c1b-4498-a526-5fa515dc1006","ios":"levelo://app?vid=040704b3-2c1b-4498-a526-5fa515dc1006"},"vehicle_type_id":"4","last_reported":1726575380,"current_range_meters":38800,"station_id":"ce4bhu92rcd13ifvqi70","pricing_plan_id":"cebpf4jnsgd1na2vs0mg"},{"bike_id":"6898ecd2-d5f6-4299-92af-d6df00f41948","system_id":"levelo_inurba_marseille","lat":43.2408,"lon":5.37754,"is_reserved":false,"is_disabled":false,"rental_uris":{"android":"levelo://app?vid=6898ecd2-d5f6-4299-92af-d6df00f41948","ios":"levelo://app?vid=6898ecd2-d5f6-4299-92af-d6df00f41948"},"vehicle_type_id":"4","last_reported":1726575380,"current_range_meters":37600,"station_id":"ce4bhnp2rcd13ifvqgvg","pricing_plan_id":"cebpf4jnsgd1na2vs0mg"},{"bike_id":"98259101-2409-419e-9f3a-44d92ccc35ee","system_id":"levelo_inurba_marseille","lat":43.29534,"lon":5.37508,"is_reserved":false,"is_disabled":false,"rental_uris":{"android":"levelo://app?vid=98259101-2409-419e-9f3a-44d92ccc35ee","ios":"levelo://app?vid=98259101-2409-419e-9f3a-44d92ccc35ee"},"vehicle_type_id":"4","last_reported":1726575380,"current_range_meters":36000,"station_id":"ce4bgkp2rcd13ifvqbmg","pricing_plan_id":"cebpf4jnsgd1na2vs0mg"},{"bike_id":"2750f7a0-b6f2-452e-b481-0bd63501042e","system_id":"levelo_inurba_marseille","lat":43.28346,"lon":5.38107,"is_reserved":false,"is_disabled":false,"rental_uris":{"android":"levelo://app?vid=2750f7a0-b6f2-452e-b481-0bd63501042e","ios":"levelo://app?vid=2750f7a0-b6f2-452e-b481-0bd63501042e"},"vehicle_type_id":"4","last_reported":1726575380,"current_range_meters":30400,"station_id":"ce4bh412rcd13ifvqdr0","pricing_plan_id":"cebpf4jnsgd1na2vs0mg"},{"bike_id":"fed25c85-b3e7-4093-a992-a9eacb54e345","system_id":"levelo_inurba_marseille","lat":43.23196,"lon":5.35551,"is_reserved":false,"is_disabled":false,"rental_uris":{"android":"levelo://app?vid=fed25c85-b3e7-4093-a992-a9eacb54e345","ios":"levelo://app?vid=fed25c85-b3e7-4093-a992-a9eacb54e345"},"vehicle_type_id":"4","last_reported":1726575380,"current_range_meters":38000,"station_id":"ce4bhu92rcd13ifvqi70","pricing_plan_id":"cebpf4jnsgd1na2vs0mg"},{"bike_id":"f0751a2c-72b5-4327-8f94-59286725e55b","system_id":"levelo_inurba_marseille","lat":43.30923,"lon":5.379,"is_reserved":false,"is_disabled":false,"rental_uris":{"android":"levelo://app?vid=f0751a2c-72b5-4327-8f94-59286725e55b","ios":"levelo://app?vid=f0751a2c-72b5-4327-8f94-59286725e55b"},"vehicle_type_id":"4","last_reported":1726575380,"current_range_meters":22400,"station_id":"","pricing_plan_id":"cebpf4jnsgd1na2vs0mg"},{"bike_id":"f1cae6a9-a8df-4cec-b9d2-e0b8f2e6a820","system_id":"levelo_inurba_marseille","lat":43.32367,"lon":5.38882,"is_reserved":false,"is_disabled":false,"rental_uris":{"android":"levelo://app?vid=f1cae6a9-a8df-4cec-b9d2-e0b8f2e6a820","ios":"levelo://app?vid=f1cae6a9-a8df-4cec-b9d2-e0b8f2e6a820"},"vehicle_type_id":"4","last_reported":1726575380,"current_range_meters":12800,"station_id":"ce4bhqp2rcd13ifvqhog","pricing_plan_id":"cebpf4jnsgd1na2vs0mg"},{"bike_id":"5a56b1cc-f02c-4c9a-ac04-632782260db3","system_id":"levelo_inurba_marseille","lat":43.30551,"lon":5.36534,"is_reserved":false,"is_disabled":false,"rental_uris":{"android":"levelo://app?vid=5a56b1cc-f02c-4c9a-ac04-632782260db3","ios":"levelo://app?vid=5a56b1cc-f02c-4c9a-ac04-632782260db3"},"vehicle_type_id":"4","last_reported":1726575380,"current_range_meters":24000,"station_id":"ce4bgs12rcd13ifvqcag","pricing_plan_id":"cebpf4jnsgd1na2vs0mg"},{"bike_id":"221fcc26-c93a-464b-bcb1-b6e726454c0d","system_id":"levelo_inurba_marseille","lat":43.30323,"lon":5.38588,"is_reserved":false,"is_disabled":false,"rental_uris":{"android":"levelo://app?vid=221fcc26-c93a-464b-bcb1-b6e726454c0d","ios":"levelo://app?vid=221fcc26-c93a-464b-bcb1-b6e726454c0d"},"vehicle_type_id":"4","last_reported":1726575380,"current_range_meters":17600,"station_id":"","pricing_plan_id":"cebpf4jnsgd1na2vs0mg"},{"bike_id":"83713488-2ee9-4108-9cdf-604261671d91","system_id":"levelo_inurba_marseille","lat":43.29039,"lon":5.39977,"is_reserved":false,"is_disabled":false,"rental_uris":{"android":"levelo://app?vid=83713488-2ee9-4108-9cdf-604261671d91","ios":"levelo://app?vid=83713488-2ee9-4108-9cdf-604261671d91"},"vehicle_type_id":"4","last_reported":1726575380,"current_range_meters":31200,"station_id":"ce4bh392rcd13ifvqdm0","pricing_plan_id":"cebpf4jnsgd1na2vs0mg"},{"bike_id":"fb061af9-38af-4961-8010-533d471fffd8","system_id":"levelo_inurba_marseille","lat":43.286682,"lon":5.37392,"is_reserved":false,"is_disabled":false,"rental_uris":{"android":"levelo://app?vid=fb061af9-38af-4961-8010-533d471fffd8","ios":"levelo://app?vid=fb061af9-38af-4961-8010-533d471fffd8"},"vehicle_type_id":"4","last_reported":1726575380,"current_range_meters":30800,"station_id":"ce4bh3p2rcd13ifvqdq0","pricing_plan_id":"cebpf4jnsgd1na2vs0mg"},{"bike_id":"255def12-1a7e-4787-b2e4-a6a54888a394","system_id":"levelo_inurba_marseille","lat":43.32468,"lon":5.36578,"is_reserved":false,"is_disabled":false,"rental_uris":{"android":"levelo://app?vid=255def12-1a7e-4787-b2e4-a6a54888a394","ios":"levelo://app?vid=255def12-1a7e-4787-b2e4-a6a54888a394"},"vehicle_type_id":"4","last_reported":1726575380,"current_range_meters":8000,"station_id":"ce4bhs12rcd13ifvqhvg","pricing_plan_id":"cebpf4jnsgd1na2vs0mg"},{"bike_id":"6ad2fe94-195b-4d58-9ac6-d3a9675a4c80","system_id":"levelo_inurba_marseille","lat":43.30224,"lon":5.37043,"is_reserved":false,"is_disabled":false,"rental_uris":{"android":"levelo://app?vid=6ad2fe94-195b-4d58-9ac6-d3a9675a4c80","ios":"levelo://app?vid=6ad2fe94-195b-4d58-9ac6-d3a9675a4c80"},"vehicle_type_id":"4","last_reported":1726575380,"current_range_meters":10800,"station_id":"","pricing_plan_id":"cebpf4jnsgd1na2vs0mg"},{"bike_id":"6dd17a2f-59bb-4453-859d-2c09ab795824","system_id":"levelo_inurba_marseille","lat":43.33024,"lon":5.39043,"is_reserved":false,"is_disabled":false,"rental_uris":{"android":"levelo://app?vid=6dd17a2f-59bb-4453-859d-2c09ab795824","ios":"levelo://app?vid=6dd17a2f-59bb-4453-859d-2c09ab795824"},"vehicle_type_id":"4","last_reported":1726575380,"current_range_meters":30800,"station_id":"ce4bhr92rcd13ifvqhrg","pricing_plan_id":"cebpf4jnsgd1na2vs0mg"},{"bike_id":"3922915c-5935-4627-9b6b-7f88183522c3","system_id":"levelo_inurba_marseille","lat":43.3014,"lon":5.37413,"is_reserved":false,"is_disabled":false,"rental_uris":{"android":"levelo://app?vid=3922915c-5935-4627-9b6b-7f88183522c3","ios":"levelo://app?vid=3922915c-5935-4627-9b6b-7f88183522c3"},"vehicle_type_id":"4","last_reported":1726575380,"current_range_meters":15200,"station_id":"ce4bgs92rcd13ifvqcc0","pricing_plan_id":"cebpf4jnsgd1na2vs0mg"},{"bike_id":"c2ecb147-8ee1-4803-aa1c-5a9b13d8ea1c","system_id":"levelo_inurba_marseille","lat":43.23153,"lon":5.43711,"is_reserved":false,"is_disabled":false,"rental_uris":{"android":"levelo://app?vid=c2ecb147-8ee1-4803-aa1c-5a9b13d8ea1c","ios":"levelo://app?vid=c2ecb147-8ee1-4803-aa1c-5a9b13d8ea1c"},"vehicle_type_id":"4","last_reported":1726575380,"current_range_meters":39200,"station_id":"ce4bhmp2rcd13ifvqgog","pricing_plan_id":"cebpf4jnsgd1na2vs0mg"},{"bike_id":"8ac17af3-1087-4030-8684-fc752197666e","system_id":"levelo_inurba_marseille","lat":43.32369,"lon":5.3887,"is_reserved":false,"is_disabled":false,"rental_uris":{"android":"levelo://app?vid=8ac17af3-1087-4030-8684-fc752197666e","ios":"levelo://app?vid=8ac17af3-1087-4030-8684-fc752197666e"},"vehicle_type_id":"4","last_reported":1726575380,"current_range_meters":18000,"station_id":"ce4bhqp2rcd13ifvqhog","pricing_plan_id":"cebpf4jnsgd1na2vs0mg"},{"bike_id":"0153fe76-3cdd-4c50-9e42-b5a00cbef16c","system_id":"levelo_inurba_marseille","lat":43.30147,"lon":5.37417,"is_reserved":false,"is_disabled":false,"rental_uris":{"android":"levelo://app?vid=0153fe76-3cdd-4c50-9e42-b5a00cbef16c","ios":"levelo://app?vid=0153fe76-3cdd-4c50-9e42-b5a00cbef16c"},"vehicle_type_id":"4","last_reported":1726575380,"current_range_meters":38800,"station_id":"ce4bgs92rcd13ifvqcc0","pricing_plan_id":"cebpf4jnsgd1na2vs0mg"},{"bike_id":"a0da9788-6ad0-4bd2-9978-72c1654ca4ea","system_id":"levelo_inurba_marseille","lat":43.32371,"lon":5.38885,"is_reserved":false,"is_disabled":false,"rental_uris":{"android":"levelo://app?vid=a0da9788-6ad0-4bd2-9978-72c1654ca4ea","ios":"levelo://app?vid=a0da9788-6ad0-4bd2-9978-72c1654ca4ea"},"vehicle_type_id":"4","last_reported":1726575380,"current_range_meters":15200,"station_id":"ce4bhqp2rcd13ifvqhog","pricing_plan_id":"cebpf4jnsgd1na2vs0mg"},{"bike_id":"f11293b9-5944-418c-9cea-2087ec8521d3","system_id":"levelo_inurba_marseille","lat":43.31229,"lon":5.36862,"is_reserved":false,"is_disabled":false,"rental_uris":{"android":"levelo://app?vid=f11293b9-5944-418c-9cea-2087ec8521d3","ios":"levelo://app?vid=f11293b9-5944-418c-9cea-2087ec8521d3"},"vehicle_type_id":"4","last_reported":1726575380,"current_range_meters":15200,"station_id":"ce4bgl92rcd13ifvqbq0","pricing_plan_id":"cebpf4jnsgd1na2vs0mg"},{"bike_id":"7ed09a97-49e4-4ce3-8bb8-a46a9326c964","system_id":"levelo_inurba_marseille","lat":43.26211,"lon":5.37442,"is_reserved":false,"is_disabled":false,"rental_uris":{"android":"levelo://app?vid=7ed09a97-49e4-4ce3-8bb8-a46a9326c964","ios":"levelo://app?vid=7ed09a97-49e4-4ce3-8bb8-a46a9326c964"},"vehicle_type_id":"4","last_reported":1726575380,"current_range_meters":11200,"station_id":"ce4bhgp2rcd13ifvqfc0","pricing_plan_id":"cebpf4jnsgd1na2vs0mg"},{"bike_id":"d00ef931-ca94-46a5-a153-d39e1f7651c4","system_id":"levelo_inurba_marseille","lat":43.24647,"lon":5.38892,"is_reserved":false,"is_disabled":false,"rental_uris":{"android":"levelo://app?vid=d00ef931-ca94-46a5-a153-d39e1f7651c4","ios":"levelo://app?vid=d00ef931-ca94-46a5-a153-d39e1f7651c4"},"vehicle_type_id":"4","last_reported":1726575380,"current_range_meters":3600,"station_id":"ce4bhg12rcd13ifvqf60","pricing_plan_id":"cebpf4jnsgd1na2vs0mg"},{"bike_id":"0308f358-78cd-4ed3-9f73-03a0aff7b7aa","system_id":"levelo_inurba_marseille","lat":43.29896,"lon":5.43665,"is_reserved":false,"is_disabled":false,"rental_uris":{"android":"levelo://app?vid=0308f358-78cd-4ed3-9f73-03a0aff7b7aa","ios":"levelo://app?vid=0308f358-78cd-4ed3-9f73-03a0aff7b7aa"},"vehicle_type_id":"4","last_reported":1726575380,"current_range_meters":19600,"station_id":"ce4bhpp2rcd13ifvqhfg","pricing_plan_id":"cebpf4jnsgd1na2vs0mg"},{"bike_id":"a1353920-50fa-4ae3-bfe2-a263287aef30","system_id":"levelo_inurba_marseille","lat":43.30547,"lon":5.36706,"is_reserved":false,"is_disabled":false,"rental_uris":{"android":"levelo://app?vid=a1353920-50fa-4ae3-bfe2-a263287aef30","ios":"levelo://app?vid=a1353920-50fa-4ae3-bfe2-a263287aef30"},"vehicle_type_id":"4","last_reported":1726575380,"current_range_meters":34800,"station_id":"ce4bgrp2rcd13ifvqc9g","pricing_plan_id":"cebpf4jnsgd1na2vs0mg"},{"bike_id":"5fcce6cb-4cdf-428a-a03a-e73e25b2b70b","system_id":"levelo_inurba_marseille","lat":43.24181,"lon":5.39715,"is_reserved":false,"is_disabled":false,"rental_uris":{"android":"levelo://app?vid=5fcce6cb-4cdf-428a-a03a-e73e25b2b70b","ios":"levelo://app?vid=5fcce6cb-4cdf-428a-a03a-e73e25b2b70b"},"vehicle_type_id":"4","last_reported":1726575380,"current_range_meters":27600,"station_id":"ce4bhn12rcd13ifvqgpg","pricing_plan_id":"cebpf4jnsgd1na2vs0mg"},{"bike_id":"33b9f200-8d6c-4c1b-ab22-8f9259d0ebaa","system_id":"levelo_inurba_marseille","lat":43.25716,"lon":5.4111,"is_reserved":false,"is_disabled":false,"rental_uris":{"android":"levelo://app?vid=33b9f200-8d6c-4c1b-ab22-8f9259d0ebaa","ios":"levelo://app?vid=33b9f200-8d6c-4c1b-ab22-8f9259d0ebaa"},"vehicle_type_id":"4","last_reported":1726575380,"current_range_meters":38800,"station_id":"ce4bhkp2rcd13ifvqgd0","pricing_plan_id":"cebpf4jnsgd1na2vs0mg"},{"bike_id":"5b61e811-fe69-45fc-9c01-7ca98ea36a3f","system_id":"levelo_inurba_marseille","lat":43.25875,"lon":5.39894,"is_reserved":false,"is_disabled":false,"rental_uris":{"android":"levelo://app?vid=5b61e811-fe69-45fc-9c01-7ca98ea36a3f","ios":"levelo://app?vid=5b61e811-fe69-45fc-9c01-7ca98ea36a3f"},"vehicle_type_id":"4","last_reported":1726575380,"current_range_meters":16400,"station_id":"ce4bhl92rcd13ifvqghg","pricing_plan_id":"cebpf4jnsgd1na2vs0mg"},{"bike_id":"fde5818e-6dd5-451a-a8cd-16ee9d8734c7","system_id":"levelo_inurba_marseille","lat":43.295383,"lon":5.375062,"is_reserved":false,"is_disabled":false,"rental_uris":{"android":"levelo://app?vid=fde5818e-6dd5-451a-a8cd-16ee9d8734c7","ios":"levelo://app?vid=fde5818e-6dd5-451a-a8cd-16ee9d8734c7"},"vehicle_type_id":"4","last_reported":1726575380,"current_range_meters":38400,"station_id":"ce4bgkp2rcd13ifvqbmg","pricing_plan_id":"cebpf4jnsgd1na2vs0mg"},{"bike_id":"8179dbb6-aa6a-40a1-8ad7-2129bb25bf8c","system_id":"levelo_inurba_marseille","lat":43.29961,"lon":5.4132,"is_reserved":false,"is_disabled":false,"rental_uris":{"android":"levelo://app?vid=8179dbb6-aa6a-40a1-8ad7-2129bb25bf8c","ios":"levelo://app?vid=8179dbb6-aa6a-40a1-8ad7-2129bb25bf8c"},"vehicle_type_id":"4","last_reported":1726575380,"current_range_meters":9600,"station_id":"ce4bhp12rcd13ifvqh9g","pricing_plan_id":"cebpf4jnsgd1na2vs0mg"},{"bike_id":"0d830da1-088f-410f-befa-e68ac04cbdf5","system_id":"levelo_inurba_marseille","lat":43.24081,"lon":5.3775,"is_reserved":false,"is_disabled":false,"rental_uris":{"android":"levelo://app?vid=0d830da1-088f-410f-befa-e68ac04cbdf5","ios":"levelo://app?vid=0d830da1-088f-410f-befa-e68ac04cbdf5"},"vehicle_type_id":"4","last_reported":1726575380,"current_range_meters":30400,"station_id":"ce4bhnp2rcd13ifvqgvg","pricing_plan_id":"cebpf4jnsgd1na2vs0mg"},{"bike_id":"e79b5b41-a30a-4c10-a8af-bcc327b10079","system_id":"levelo_inurba_marseille","lat":43.29037,"lon":5.37563,"is_reserved":false,"is_disabled":false,"rental_uris":{"android":"levelo://app?vid=e79b5b41-a30a-4c10-a8af-bcc327b10079","ios":"levelo://app?vid=e79b5b41-a30a-4c10-a8af-bcc327b10079"},"vehicle_type_id":"4","last_reported":1726575380,"current_range_meters":32400,"station_id":"ce4bh692rcd13ifvqe90","pricing_plan_id":"cebpf4jnsgd1na2vs0mg"},{"bike_id":"65eecb51-7024-4f30-af20-d65f809bce2b","system_id":"levelo_inurba_marseille","lat":43.3138,"lon":5.38559,"is_reserved":false,"is_disabled":false,"rental_uris":{"android":"levelo://app?vid=65eecb51-7024-4f30-af20-d65f809bce2b","ios":"levelo://app?vid=65eecb51-7024-4f30-af20-d65f809bce2b"},"vehicle_type_id":"4","last_reported":1726575380,"current_range_meters":8400,"station_id":"ce4bgvp2rcd13ifvqcu0","pricing_plan_id":"cebpf4jnsgd1na2vs0mg"},{"bike_id":"7210f478-1865-4edc-8a96-94e0b5bd4be6","system_id":"levelo_inurba_marseille","lat":43.22927,"lon":5.35376,"is_reserved":false,"is_disabled":false,"rental_uris":{"android":"levelo://app?vid=7210f478-1865-4edc-8a96-94e0b5bd4be6","ios":"levelo://app?vid=7210f478-1865-4edc-8a96-94e0b5bd4be6"},"vehicle_type_id":"4","last_reported":1726575380,"current_range_meters":27600,"station_id":"cpo3532slgdg3j2ikp40","pricing_plan_id":"cebpf4jnsgd1na2vs0mg"},{"bike_id":"c034b2d4-b5bc-412f-bc1e-4b54e7a2ef44","system_id":"levelo_inurba_marseille","lat":43.27491,"lon":5.42447,"is_reserved":false,"is_disabled":false,"rental_uris":{"android":"levelo://app?vid=c034b2d4-b5bc-412f-bc1e-4b54e7a2ef44","ios":"levelo://app?vid=c034b2d4-b5bc-412f-bc1e-4b54e7a2ef44"},"vehicle_type_id":"4","last_reported":1726575380,"current_range_meters":37600,"station_id":"ce4bhn92rcd13ifvqgrg","pricing_plan_id":"cebpf4jnsgd1na2vs0mg"},{"bike_id":"93dd37e5-c30e-445f-960a-2c313f3eb6cb","system_id":"levelo_inurba_marseille","lat":43.24808,"lon":5.37456,"is_reserved":false,"is_disabled":false,"rental_uris":{"android":"levelo://app?vid=93dd37e5-c30e-445f-960a-2c313f3eb6cb","ios":"levelo://app?vid=93dd37e5-c30e-445f-960a-2c313f3eb6cb"},"vehicle_type_id":"4","last_reported":1726575380,"current_range_meters":16000,"station_id":"ce4bhgh2rcd13ifvqfb0","pricing_plan_id":"cebpf4jnsgd1na2vs0mg"},{"bike_id":"a916f344-2470-4b3c-9b4f-0e33ef18e85d","system_id":"levelo_inurba_marseille","lat":43.31715,"lon":5.43702,"is_reserved":false,"is_disabled":false,"rental_uris":{"android":"levelo://app?vid=a916f344-2470-4b3c-9b4f-0e33ef18e85d","ios":"levelo://app?vid=a916f344-2470-4b3c-9b4f-0e33ef18e85d"},"vehicle_type_id":"4","last_reported":1726575380,"current_range_meters":4400,"station_id":"ce4bhp92rcd13ifvqhcg","pricing_plan_id":"cebpf4jnsgd1na2vs0mg"},{"bike_id":"9e6acc5e-94a7-4e9f-94a9-f4362cac3b04","system_id":"levelo_inurba_marseille","lat":43.30914,"lon":5.36849,"is_reserved":false,"is_disabled":false,"rental_uris":{"android":"levelo://app?vid=9e6acc5e-94a7-4e9f-94a9-f4362cac3b04","ios":"levelo://app?vid=9e6acc5e-94a7-4e9f-94a9-f4362cac3b04"},"vehicle_type_id":"4","last_reported":1726575380,"current_range_meters":38800,"station_id":"ce4bgn92rcd13ifvqbvg","pricing_plan_id":"cebpf4jnsgd1na2vs0mg"},{"bike_id":"f5c0e1e2-2d50-430f-b096-cc74d6ddc37d","system_id":"levelo_inurba_marseille","lat":43.27494,"lon":5.4245,"is_reserved":false,"is_disabled":false,"rental_uris":{"android":"levelo://app?vid=f5c0e1e2-2d50-430f-b096-cc74d6ddc37d","ios":"levelo://app?vid=f5c0e1e2-2d50-430f-b096-cc74d6ddc37d"},"vehicle_type_id":"4","last_reported":1726575380,"current_range_meters":38800,"station_id":"ce4bhn92rcd13ifvqgrg","pricing_plan_id":"cebpf4jnsgd1na2vs0mg"},{"bike_id":"23dd0c20-fce0-40ea-aaa2-cab4c3dedbd9","system_id":"levelo_inurba_marseille","lat":43.23145,"lon":5.43723,"is_reserved":false,"is_disabled":false,"rental_uris":{"android":"levelo://app?vid=23dd0c20-fce0-40ea-aaa2-cab4c3dedbd9","ios":"levelo://app?vid=23dd0c20-fce0-40ea-aaa2-cab4c3dedbd9"},"vehicle_type_id":"4","last_reported":1726575380,"current_range_meters":10000,"station_id":"ce4bhmp2rcd13ifvqgog","pricing_plan_id":"cebpf4jnsgd1na2vs0mg"},{"bike_id":"1a72562e-4a87-4b67-a557-27799b4d5715","system_id":"levelo_inurba_marseille","lat":43.30913,"lon":5.36852,"is_reserved":false,"is_disabled":false,"rental_uris":{"android":"levelo://app?vid=1a72562e-4a87-4b67-a557-27799b4d5715","ios":"levelo://app?vid=1a72562e-4a87-4b67-a557-27799b4d5715"},"vehicle_type_id":"4","last_reported":1726575380,"current_range_meters":24800,"station_id":"ce4bgn92rcd13ifvqbvg","pricing_plan_id":"cebpf4jnsgd1na2vs0mg"},{"bike_id":"fb389055-f66c-4e32-b271-86411d587f5d","system_id":"levelo_inurba_marseille","lat":43.30317,"lon":5.36898,"is_reserved":false,"is_disabled":false,"rental_uris":{"android":"levelo://app?vid=fb389055-f66c-4e32-b271-86411d587f5d","ios":"levelo://app?vid=fb389055-f66c-4e32-b271-86411d587f5d"},"vehicle_type_id":"4","last_reported":1726575380,"current_range_meters":38800,"station_id":"ce4bgqh2rcd13ifvqc5g","pricing_plan_id":"cebpf4jnsgd1na2vs0mg"},{"bike_id":"7fcba497-92f6-42c3-8274-1655e7534e4a","system_id":"levelo_inurba_marseille","lat":43.28676,"lon":5.38663,"is_reserved":false,"is_disabled":false,"rental_uris":{"android":"levelo://app?vid=7fcba497-92f6-42c3-8274-1655e7534e4a","ios":"levelo://app?vid=7fcba497-92f6-42c3-8274-1655e7534e4a"},"vehicle_type_id":"4","last_reported":1726575380,"current_range_meters":24800,"station_id":"ce4bh492rcd13ifvqdug","pricing_plan_id":"cebpf4jnsgd1na2vs0mg"},{"bike_id":"7dd25116-4b08-418f-b59a-2cd52163c135","system_id":"levelo_inurba_marseille","lat":43.24082,"lon":5.37753,"is_reserved":false,"is_disabled":false,"rental_uris":{"android":"levelo://app?vid=7dd25116-4b08-418f-b59a-2cd52163c135","ios":"levelo://app?vid=7dd25116-4b08-418f-b59a-2cd52163c135"},"vehicle_type_id":"4","last_reported":1726575380,"current_range_meters":28400,"station_id":"ce4bhnp2rcd13ifvqgvg","pricing_plan_id":"cebpf4jnsgd1na2vs0mg"},{"bike_id":"8ea79706-33c2-4140-a630-4d917dade742","system_id":"levelo_inurba_marseille","lat":43.2315,"lon":5.43723,"is_reserved":false,"is_disabled":false,"rental_uris":{"android":"levelo://app?vid=8ea79706-33c2-4140-a630-4d917dade742","ios":"levelo://app?vid=8ea79706-33c2-4140-a630-4d917dade742"},"vehicle_type_id":"4","last_reported":1726575380,"current_range_meters":17200,"station_id":"ce4bhmp2rcd13ifvqgog","pricing_plan_id":"cebpf4jnsgd1na2vs0mg"},{"bike_id":"1f38c15a-9705-4563-aafc-3c0e4b2a60f8","system_id":"levelo_inurba_marseille","lat":43.29842,"lon":5.36257,"is_reserved":false,"is_disabled":false,"rental_uris":{"android":"levelo://app?vid=1f38c15a-9705-4563-aafc-3c0e4b2a60f8","ios":"levelo://app?vid=1f38c15a-9705-4563-aafc-3c0e4b2a60f8"},"vehicle_type_id":"4","last_reported":1726575380,"current_range_meters":38800,"station_id":"ce4bgpp2rcd13ifvqc3g","pricing_plan_id":"cebpf4jnsgd1na2vs0mg"},{"bike_id":"9a600fdb-2c6f-4714-8307-2b4445fbe0e9","system_id":"levelo_inurba_marseille","lat":43.296203,"lon":5.377013,"is_reserved":false,"is_disabled":false,"rental_uris":{"android":"levelo://app?vid=9a600fdb-2c6f-4714-8307-2b4445fbe0e9","ios":"levelo://app?vid=9a600fdb-2c6f-4714-8307-2b4445fbe0e9"},"vehicle_type_id":"4","last_reported":1726575380,"current_range_meters":16800,"station_id":"ce4bgi92rcd13ifvqb90","pricing_plan_id":"cebpf4jnsgd1na2vs0mg"},{"bike_id":"2e2c9b33-bc1f-408a-ba75-a0578fd6380e","system_id":"levelo_inurba_marseille","lat":43.28942,"lon":5.39625,"is_reserved":false,"is_disabled":false,"rental_uris":{"android":"levelo://app?vid=2e2c9b33-bc1f-408a-ba75-a0578fd6380e","ios":"levelo://app?vid=2e2c9b33-bc1f-408a-ba75-a0578fd6380e"},"vehicle_type_id":"4","last_reported":1726575380,"current_range_meters":32400,"station_id":"ce4bh3h2rcd13ifvqdn0","pricing_plan_id":"cebpf4jnsgd1na2vs0mg"},{"bike_id":"a0227d82-64c2-4d0c-8d37-bf8ad5aa88a0","system_id":"levelo_inurba_marseille","lat":43.24082,"lon":5.37736,"is_reserved":false,"is_disabled":false,"rental_uris":{"android":"levelo://app?vid=a0227d82-64c2-4d0c-8d37-bf8ad5aa88a0","ios":"levelo://app?vid=a0227d82-64c2-4d0c-8d37-bf8ad5aa88a0"},"vehicle_type_id":"4","last_reported":1726575380,"current_range_meters":8400,"station_id":"ce4bhnp2rcd13ifvqgvg","pricing_plan_id":"cebpf4jnsgd1na2vs0mg"},{"bike_id":"33b6c908-b316-43f1-9bed-2df4987833c0","system_id":"levelo_inurba_marseille","lat":43.30917,"lon":5.36845,"is_reserved":false,"is_disabled":false,"rental_uris":{"android":"levelo://app?vid=33b6c908-b316-43f1-9bed-2df4987833c0","ios":"levelo://app?vid=33b6c908-b316-43f1-9bed-2df4987833c0"},"vehicle_type_id":"4","last_reported":1726575380,"current_range_meters":28000,"station_id":"ce4bgn92rcd13ifvqbvg","pricing_plan_id":"cebpf4jnsgd1na2vs0mg"},{"bike_id":"fcc78004-b7f1-494b-afc0-f24ad3b4a54d","system_id":"levelo_inurba_marseille","lat":43.25121,"lon":5.40319,"is_reserved":false,"is_disabled":false,"rental_uris":{"android":"levelo://app?vid=fcc78004-b7f1-494b-afc0-f24ad3b4a54d","ios":"levelo://app?vid=fcc78004-b7f1-494b-afc0-f24ad3b4a54d"},"vehicle_type_id":"4","last_reported":1726575380,"current_range_meters":35600,"station_id":"ce4bhlh2rcd13ifvqgig","pricing_plan_id":"cebpf4jnsgd1na2vs0mg"},{"bike_id":"fee3d5bb-6253-48da-96ac-cce5fd5baf46","system_id":"levelo_inurba_marseille","lat":43.30554,"lon":5.3654,"is_reserved":false,"is_disabled":false,"rental_uris":{"android":"levelo://app?vid=fee3d5bb-6253-48da-96ac-cce5fd5baf46","ios":"levelo://app?vid=fee3d5bb-6253-48da-96ac-cce5fd5baf46"},"vehicle_type_id":"4","last_reported":1726575380,"current_range_meters":39200,"station_id":"ce4bgs12rcd13ifvqcag","pricing_plan_id":"cebpf4jnsgd1na2vs0mg"},{"bike_id":"54a39329-f575-4727-ac1f-a5a4ccac54db","system_id":"levelo_inurba_marseille","lat":43.33613,"lon":5.4103,"is_reserved":false,"is_disabled":false,"rental_uris":{"android":"levelo://app?vid=54a39329-f575-4727-ac1f-a5a4ccac54db","ios":"levelo://app?vid=54a39329-f575-4727-ac1f-a5a4ccac54db"},"vehicle_type_id":"4","last_reported":1726575380,"current_range_meters":38800,"station_id":"ce4bhqh2rcd13ifvqhmg","pricing_plan_id":"cebpf4jnsgd1na2vs0mg"},{"bike_id":"cbaf03bf-0340-4293-a424-18d0ef0b595f","system_id":"levelo_inurba_marseille","lat":43.29892,"lon":5.43661,"is_reserved":false,"is_disabled":false,"rental_uris":{"android":"levelo://app?vid=cbaf03bf-0340-4293-a424-18d0ef0b595f","ios":"levelo://app?vid=cbaf03bf-0340-4293-a424-18d0ef0b595f"},"vehicle_type_id":"4","last_reported":1726575380,"current_range_meters":22000,"station_id":"ce4bhpp2rcd13ifvqhfg","pricing_plan_id":"cebpf4jnsgd1na2vs0mg"},{"bike_id":"4db50d13-63f4-4275-a13f-6d1f342ac8c6","system_id":"levelo_inurba_marseille","lat":43.28612,"lon":5.35103,"is_reserved":false,"is_disabled":false,"rental_uris":{"android":"levelo://app?vid=4db50d13-63f4-4275-a13f-6d1f342ac8c6","ios":"levelo://app?vid=4db50d13-63f4-4275-a13f-6d1f342ac8c6"},"vehicle_type_id":"4","last_reported":1726575380,"current_range_meters":38800,"station_id":"ce4bhch2rcd13ifvqeug","pricing_plan_id":"cebpf4jnsgd1na2vs0mg"},{"bike_id":"49e200ca-be2e-44c1-88e1-5c0a88694170","system_id":"levelo_inurba_marseille","lat":43.30538,"lon":5.36533,"is_reserved":false,"is_disabled":false,"rental_uris":{"android":"levelo://app?vid=49e200ca-be2e-44c1-88e1-5c0a88694170","ios":"levelo://app?vid=49e200ca-be2e-44c1-88e1-5c0a88694170"},"vehicle_type_id":"4","last_reported":1726575380,"current_range_meters":34000,"station_id":"ce4bgs12rcd13ifvqcag","pricing_plan_id":"cebpf4jnsgd1na2vs0mg"},{"bike_id":"36bea050-cc1e-454a-9f4a-c3b28aca3c65","system_id":"levelo_inurba_marseille","lat":43.24071,"lon":5.37757,"is_reserved":false,"is_disabled":false,"rental_uris":{"android":"levelo://app?vid=36bea050-cc1e-454a-9f4a-c3b28aca3c65","ios":"levelo://app?vid=36bea050-cc1e-454a-9f4a-c3b28aca3c65"},"vehicle_type_id":"4","last_reported":1726575380,"current_range_meters":3200,"station_id":"ce4bhnp2rcd13ifvqgvg","pricing_plan_id":"cebpf4jnsgd1na2vs0mg"},{"bike_id":"5fed6ecc-4892-44f7-97a4-281be8b10480","system_id":"levelo_inurba_marseille","lat":43.29604,"lon":5.38106,"is_reserved":false,"is_disabled":false,"rental_uris":{"android":"levelo://app?vid=5fed6ecc-4892-44f7-97a4-281be8b10480","ios":"levelo://app?vid=5fed6ecc-4892-44f7-97a4-281be8b10480"},"vehicle_type_id":"4","last_reported":1726575380,"current_range_meters":21600,"station_id":"ce4bgl12rcd13ifvqbo0","pricing_plan_id":"cebpf4jnsgd1na2vs0mg"},{"bike_id":"d8e751ce-68d8-4843-af31-f29be99d953d","system_id":"levelo_inurba_marseille","lat":43.23962,"lon":5.3662,"is_reserved":false,"is_disabled":false,"rental_uris":{"android":"levelo://app?vid=d8e751ce-68d8-4843-af31-f29be99d953d","ios":"levelo://app?vid=d8e751ce-68d8-4843-af31-f29be99d953d"},"vehicle_type_id":"4","last_reported":1726575380,"current_range_meters":13600,"station_id":"ce4bhi12rcd13ifvqfp0","pricing_plan_id":"cebpf4jnsgd1na2vs0mg"},{"bike_id":"f78ec244-0aef-4b6c-a1be-b01f3523a44d","system_id":"levelo_inurba_marseille","lat":43.2749,"lon":5.42457,"is_reserved":false,"is_disabled":false,"rental_uris":{"android":"levelo://app?vid=f78ec244-0aef-4b6c-a1be-b01f3523a44d","ios":"levelo://app?vid=f78ec244-0aef-4b6c-a1be-b01f3523a44d"},"vehicle_type_id":"4","last_reported":1726575380,"current_range_meters":32400,"station_id":"ce4bhn92rcd13ifvqgrg","pricing_plan_id":"cebpf4jnsgd1na2vs0mg"},{"bike_id":"00c6f8e2-697f-40ab-ab80-e7a7e75cc6d7","system_id":"levelo_inurba_marseille","lat":43.32477,"lon":5.36579,"is_reserved":false,"is_disabled":false,"rental_uris":{"android":"levelo://app?vid=00c6f8e2-697f-40ab-ab80-e7a7e75cc6d7","ios":"levelo://app?vid=00c6f8e2-697f-40ab-ab80-e7a7e75cc6d7"},"vehicle_type_id":"4","last_reported":1726575380,"current_range_meters":36000,"station_id":"ce4bhs12rcd13ifvqhvg","pricing_plan_id":"cebpf4jnsgd1na2vs0mg"},{"bike_id":"31d7628c-a98b-4127-881d-92022a3abc84","system_id":"levelo_inurba_marseille","lat":43.25938,"lon":5.4091,"is_reserved":false,"is_disabled":false,"rental_uris":{"android":"levelo://app?vid=31d7628c-a98b-4127-881d-92022a3abc84","ios":"levelo://app?vid=31d7628c-a98b-4127-881d-92022a3abc84"},"vehicle_type_id":"4","last_reported":1726575380,"current_range_meters":28400,"station_id":"ce4bhm92rcd13ifvqglg","pricing_plan_id":"cebpf4jnsgd1na2vs0mg"},{"bike_id":"a3dc66ac-ec81-47a5-8dc4-56011c5e10db","system_id":"levelo_inurba_marseille","lat":43.31217,"lon":5.36868,"is_reserved":false,"is_disabled":false,"rental_uris":{"android":"levelo://app?vid=a3dc66ac-ec81-47a5-8dc4-56011c5e10db","ios":"levelo://app?vid=a3dc66ac-ec81-47a5-8dc4-56011c5e10db"},"vehicle_type_id":"4","last_reported":1726575380,"current_range_meters":32400,"station_id":"ce4bgl92rcd13ifvqbq0","pricing_plan_id":"cebpf4jnsgd1na2vs0mg"},{"bike_id":"fb6b2e20-1181-4228-aab7-94d05e809797","system_id":"levelo_inurba_marseille","lat":43.30909,"lon":5.36856,"is_reserved":false,"is_disabled":false,"rental_uris":{"android":"levelo://app?vid=fb6b2e20-1181-4228-aab7-94d05e809797","ios":"levelo://app?vid=fb6b2e20-1181-4228-aab7-94d05e809797"},"vehicle_type_id":"4","last_reported":1726575380,"current_range_meters":38800,"station_id":"ce4bgn92rcd13ifvqbvg","pricing_plan_id":"cebpf4jnsgd1na2vs0mg"},{"bike_id":"2eab0a19-e477-4b6b-a6f2-b022d82d1b38","system_id":"levelo_inurba_marseille","lat":43.29686,"lon":5.37285,"is_reserved":false,"is_disabled":false,"rental_uris":{"android":"levelo://app?vid=2eab0a19-e477-4b6b-a6f2-b022d82d1b38","ios":"levelo://app?vid=2eab0a19-e477-4b6b-a6f2-b022d82d1b38"},"vehicle_type_id":"4","last_reported":1726575380,"current_range_meters":19600,"station_id":"ce4bgk12rcd13ifvqbj0","pricing_plan_id":"cebpf4jnsgd1na2vs0mg"},{"bike_id":"5828d576-a13b-42e7-9fc3-01998a2dd81c","system_id":"levelo_inurba_marseille","lat":43.26742,"lon":5.39415,"is_reserved":false,"is_disabled":false,"rental_uris":{"android":"levelo://app?vid=5828d576-a13b-42e7-9fc3-01998a2dd81c","ios":"levelo://app?vid=5828d576-a13b-42e7-9fc3-01998a2dd81c"},"vehicle_type_id":"4","last_reported":1726575380,"current_range_meters":38800,"station_id":"ce4bhh12rcd13ifvqfg0","pricing_plan_id":"cebpf4jnsgd1na2vs0mg"},{"bike_id":"bb11e736-9a98-4d68-b71f-9421365485ff","system_id":"levelo_inurba_marseille","lat":43.29841,"lon":5.3627,"is_reserved":false,"is_disabled":false,"rental_uris":{"android":"levelo://app?vid=bb11e736-9a98-4d68-b71f-9421365485ff","ios":"levelo://app?vid=bb11e736-9a98-4d68-b71f-9421365485ff"},"vehicle_type_id":"4","last_reported":1726575380,"current_range_meters":22800,"station_id":"ce4bgpp2rcd13ifvqc3g","pricing_plan_id":"cebpf4jnsgd1na2vs0mg"},{"bike_id":"24dea8b4-f0a3-4008-b3f9-c39bfa102cec","system_id":"levelo_inurba_marseille","lat":43.25499,"lon":5.37647,"is_reserved":false,"is_disabled":false,"rental_uris":{"android":"levelo://app?vid=24dea8b4-f0a3-4008-b3f9-c39bfa102cec","ios":"levelo://app?vid=24dea8b4-f0a3-4008-b3f9-c39bfa102cec"},"vehicle_type_id":"4","last_reported":1726575380,"current_range_meters":36400,"station_id":"ce4bhh12rcd13ifvqff0","pricing_plan_id":"cebpf4jnsgd1na2vs0mg"},{"bike_id":"764492cd-7476-4794-9106-061c8cb03c80","system_id":"levelo_inurba_marseille","lat":43.27494,"lon":5.424245,"is_reserved":false,"is_disabled":false,"rental_uris":{"android":"levelo://app?vid=764492cd-7476-4794-9106-061c8cb03c80","ios":"levelo://app?vid=764492cd-7476-4794-9106-061c8cb03c80"},"vehicle_type_id":"4","last_reported":1726575380,"current_range_meters":29600,"station_id":"ce4bhn92rcd13ifvqgrg","pricing_plan_id":"cebpf4jnsgd1na2vs0mg"},{"bike_id":"d050d7b7-e817-42dd-99e2-bc8a4864acf7","system_id":"levelo_inurba_marseille","lat":43.33619,"lon":5.4103,"is_reserved":false,"is_disabled":false,"rental_uris":{"android":"levelo://app?vid=d050d7b7-e817-42dd-99e2-bc8a4864acf7","ios":"levelo://app?vid=d050d7b7-e817-42dd-99e2-bc8a4864acf7"},"vehicle_type_id":"4","last_reported":1726575380,"current_range_meters":38000,"station_id":"ce4bhqh2rcd13ifvqhmg","pricing_plan_id":"cebpf4jnsgd1na2vs0mg"},{"bike_id":"328d45f9-980e-4811-97c0-47d761861509","system_id":"levelo_inurba_marseille","lat":43.29847,"lon":5.37836,"is_reserved":false,"is_disabled":false,"rental_uris":{"android":"levelo://app?vid=328d45f9-980e-4811-97c0-47d761861509","ios":"levelo://app?vid=328d45f9-980e-4811-97c0-47d761861509"},"vehicle_type_id":"4","last_reported":1726575380,"current_range_meters":17200,"station_id":"ce4bgkh2rcd13ifvqbl0","pricing_plan_id":"cebpf4jnsgd1na2vs0mg"},{"bike_id":"6d179107-c1d4-472d-b279-92365c66e4a8","system_id":"levelo_inurba_marseille","lat":43.28341,"lon":5.38099,"is_reserved":false,"is_disabled":false,"rental_uris":{"android":"levelo://app?vid=6d179107-c1d4-472d-b279-92365c66e4a8","ios":"levelo://app?vid=6d179107-c1d4-472d-b279-92365c66e4a8"},"vehicle_type_id":"4","last_reported":1726575380,"current_range_meters":24800,"station_id":"ce4bh412rcd13ifvqdr0","pricing_plan_id":"cebpf4jnsgd1na2vs0mg"},{"bike_id":"d84d461a-0f80-4d5c-8030-45ef5ea64552","system_id":"levelo_inurba_marseille","lat":43.26216,"lon":5.3744,"is_reserved":false,"is_disabled":false,"rental_uris":{"android":"levelo://app?vid=d84d461a-0f80-4d5c-8030-45ef5ea64552","ios":"levelo://app?vid=d84d461a-0f80-4d5c-8030-45ef5ea64552"},"vehicle_type_id":"4","last_reported":1726575380,"current_range_meters":38800,"station_id":"ce4bhgp2rcd13ifvqfc0","pricing_plan_id":"cebpf4jnsgd1na2vs0mg"},{"bike_id":"215a2f25-03f9-481e-b07b-1b336f09aee9","system_id":"levelo_inurba_marseille","lat":43.22933,"lon":5.35372,"is_reserved":false,"is_disabled":false,"rental_uris":{"android":"levelo://app?vid=215a2f25-03f9-481e-b07b-1b336f09aee9","ios":"levelo://app?vid=215a2f25-03f9-481e-b07b-1b336f09aee9"},"vehicle_type_id":"4","last_reported":1726575380,"current_range_meters":26800,"station_id":"cpo3532slgdg3j2ikp40","pricing_plan_id":"cebpf4jnsgd1na2vs0mg"},{"bike_id":"00337d7f-40a9-4d5f-9f2d-ca76070ef21f","system_id":"levelo_inurba_marseille","lat":43.28613,"lon":5.35101,"is_reserved":false,"is_disabled":false,"rental_uris":{"android":"levelo://app?vid=00337d7f-40a9-4d5f-9f2d-ca76070ef21f","ios":"levelo://app?vid=00337d7f-40a9-4d5f-9f2d-ca76070ef21f"},"vehicle_type_id":"4","last_reported":1726575380,"current_range_meters":38000,"station_id":"ce4bhch2rcd13ifvqeug","pricing_plan_id":"cebpf4jnsgd1na2vs0mg"},{"bike_id":"860a5a28-67c4-4e69-8b66-bb8ec63cab91","system_id":"levelo_inurba_marseille","lat":43.317109,"lon":5.377492,"is_reserved":false,"is_disabled":false,"rental_uris":{"android":"levelo://app?vid=860a5a28-67c4-4e69-8b66-bb8ec63cab91","ios":"levelo://app?vid=860a5a28-67c4-4e69-8b66-bb8ec63cab91"},"vehicle_type_id":"4","last_reported":1726575380,"current_range_meters":24000,"station_id":"ce4bgth2rcd13ifvqch0","pricing_plan_id":"cebpf4jnsgd1na2vs0mg"},{"bike_id":"fa690805-233a-4a70-a9f3-33f1b67cdb1f","system_id":"levelo_inurba_marseille","lat":43.32281,"lon":5.38265,"is_reserved":false,"is_disabled":false,"rental_uris":{"android":"levelo://app?vid=fa690805-233a-4a70-a9f3-33f1b67cdb1f","ios":"levelo://app?vid=fa690805-233a-4a70-a9f3-33f1b67cdb1f"},"vehicle_type_id":"4","last_reported":1726575380,"current_range_meters":32800,"station_id":"ce4bhr12rcd13ifvqhqg","pricing_plan_id":"cebpf4jnsgd1na2vs0mg"},{"bike_id":"8b608b96-fedf-4511-8d4b-09bad2606e1a","system_id":"levelo_inurba_marseille","lat":43.27739,"lon":5.4113,"is_reserved":false,"is_disabled":false,"rental_uris":{"android":"levelo://app?vid=8b608b96-fedf-4511-8d4b-09bad2606e1a","ios":"levelo://app?vid=8b608b96-fedf-4511-8d4b-09bad2606e1a"},"vehicle_type_id":"4","last_reported":1726575380,"current_range_meters":9600,"station_id":"","pricing_plan_id":"cebpf4jnsgd1na2vs0mg"},{"bike_id":"5fd534b8-af1c-48a0-a66e-8265077f4ea1","system_id":"levelo_inurba_marseille","lat":43.30139,"lon":5.39849,"is_reserved":false,"is_disabled":false,"rental_uris":{"android":"levelo://app?vid=5fd534b8-af1c-48a0-a66e-8265077f4ea1","ios":"levelo://app?vid=5fd534b8-af1c-48a0-a66e-8265077f4ea1"},"vehicle_type_id":"4","last_reported":1726575380,"current_range_meters":16800,"station_id":"ce4bh0h2rcd13ifvqd40","pricing_plan_id":"cebpf4jnsgd1na2vs0mg"},{"bike_id":"2fd20e8c-8e33-413e-9486-26b4cea28154","system_id":"levelo_inurba_marseille","lat":43.32369,"lon":5.38883,"is_reserved":false,"is_disabled":false,"rental_uris":{"android":"levelo://app?vid=2fd20e8c-8e33-413e-9486-26b4cea28154","ios":"levelo://app?vid=2fd20e8c-8e33-413e-9486-26b4cea28154"},"vehicle_type_id":"4","last_reported":1726575380,"current_range_meters":7200,"station_id":"ce4bhqp2rcd13ifvqhog","pricing_plan_id":"cebpf4jnsgd1na2vs0mg"},{"bike_id":"57be3ded-1ee9-42c1-b39d-7196fdda9743","system_id":"levelo_inurba_marseille","lat":43.32291,"lon":5.38256,"is_reserved":false,"is_disabled":false,"rental_uris":{"android":"levelo://app?vid=57be3ded-1ee9-42c1-b39d-7196fdda9743","ios":"levelo://app?vid=57be3ded-1ee9-42c1-b39d-7196fdda9743"},"vehicle_type_id":"4","last_reported":1726575380,"current_range_meters":37600,"station_id":"ce4bhr12rcd13ifvqhqg","pricing_plan_id":"cebpf4jnsgd1na2vs0mg"},{"bike_id":"b277c9af-e000-4420-8c4a-bf5fcd112495","system_id":"levelo_inurba_marseille","lat":43.29021,"lon":5.38647,"is_reserved":false,"is_disabled":false,"rental_uris":{"android":"levelo://app?vid=b277c9af-e000-4420-8c4a-bf5fcd112495","ios":"levelo://app?vid=b277c9af-e000-4420-8c4a-bf5fcd112495"},"vehicle_type_id":"4","last_reported":1726575380,"current_range_meters":28800,"station_id":"ce4bh4p2rcd13ifvqe0g","pricing_plan_id":"cebpf4jnsgd1na2vs0mg"},{"bike_id":"ef2764ef-0fab-40a3-9505-6dbdd20c9a4b","system_id":"levelo_inurba_marseille","lat":43.24079,"lon":5.37753,"is_reserved":false,"is_disabled":false,"rental_uris":{"android":"levelo://app?vid=ef2764ef-0fab-40a3-9505-6dbdd20c9a4b","ios":"levelo://app?vid=ef2764ef-0fab-40a3-9505-6dbdd20c9a4b"},"vehicle_type_id":"4","last_reported":1726575380,"current_range_meters":4000,"station_id":"ce4bhnp2rcd13ifvqgvg","pricing_plan_id":"cebpf4jnsgd1na2vs0mg"},