{"last_updated":1751386465,"ttl":60,"version":"2.2","data":{"bikes":[{"bike_id":"3da29fb8-fc97-44c6-b9ac-31dd456b2fd4","system_id":"levelo_inurba_marseille","lat":43.33771,"lon":5.37424,"is_reserved":false,"is_disabled":true,"rental_uris":{"android":"levelo://app?vid=3da29fb8-fc97-44c6-b9ac-31dd456b2fd4","ios":"levelo://app?vid=3da29fb8-fc97-44c6-b9ac-31dd456b2fd4"},"vehicle_type_id":"4","last_reported":1751386466,"current_range_meters":0,"station_id":"","pricing_plan_id":"cebpf4jnsgd1na2vs0mg"},{"bike_id":"01861ad8-a8d7-4be6-816e-651927c87584","system_id":"levelo_inurba_marseille","lat":43.33751,"lon":5.37456,"is_reserved":false,"is_disabled":true,"rental_uris":{"android":"levelo://app?vid=01861ad8-a8d7-4be6-816e-651927c87584","ios":"levelo://app?vid=01861ad8-a8d7-4be6-816e-651927c87584"},"vehicle_type_id":"4","last_reported":1751386466,"current_range_meters":0,"station_id":"","pricing_plan_id":"cebpf4jnsgd1na2vs0mg"},{"bike_id":"aacf0286-b8b3-4dcc-99df-3c0d92efa356","system_id":"levelo_inurba_marseille","lat":43.32596,"lon":5.37879,"is_reserved":false,"is_disabled":true,"rental_uris":{"android":"levelo://app?vid=aacf0286-b8b3-4dcc-99df-3c0d92efa356","ios":"levelo://app?vid=aacf0286-b8b3-4dcc-99df-3c0d92efa356"},"vehicle_type_id":"4","last_reported":1751386466,"current_range_meters":0,"station_id":"","pricing_plan_id":"cebpf4jnsgd1na2vs0mg"},{"bike_id":"3168b9fb-97d2-4a0e-b7ee-673bb8cf7525","system_id":"levelo_inurba_marseille","lat":43.27762,"lon":5.35579,"is_reserved":false,"is_disabled":true,"rental_uris":{"android":"levelo://app?vid=3168b9fb-97d2-4a0e-b7ee-673bb8cf7525","ios":"levelo://app?vid=3168b9fb-97d2-4a0e-b7ee-673bb8cf7525"},"vehicle_type_id":"4","last_reported":1751386466,"current_range_meters":0,"station_id":"","pricing_plan_id":"cebpf4jnsgd1na2vs0mg"},{"bike_id":"1d934d30-6a85-4b30-9a35-9bb4ad4cb2ca","system_id":"levelo_inurba_marseille","lat":43.32717,"lon":5.42356,"is_reserved":false,"is_disabled":true,"rental_uris":{"android":"levelo://app?vid=1d934d30-6a85-4b30-9a35-9bb4ad4cb2ca","ios":"levelo://app?vid=1d934d30-6a85-4b30-9a35-9bb4ad4cb2ca"},"vehicle_type_id":"4","last_reported":1751386466,"current_range_meters":0,"station_id":"","pricing_plan_id":"cebpf4jnsgd1na2vs0mg"},{"bike_id":"3378c13c-e4e0-45be-9bfe-f3a4bc2c600e","system_id":"levelo_inurba_marseille","lat":43.29775,"lon":5.45983,"is_reserved":false,"is_disabled":true,"rental_uris":{"android":"levelo://app?vid=3378c13c-e4e0-45be-9bfe-f3a4bc2c600e","ios":"levelo://app?vid=3378c13c-e4e0-45be-9bfe-f3a4bc2c600e"},"vehicle_type_id":"4","last_reported":1751386466,"current_range_meters":0,"station_id":"","pricing_plan_id":"cebpf4jnsgd1na2vs0mg"},{"bike_id":"2ccccc82-c8a9-4c3b-909d-52c0bf697aa3","system_id":"levelo_inurba_marseille","lat":43.27637,"lon":5.35851,"is_reserved":false,"is_disabled":true,"rental_uris":{"android":"levelo://app?vid=2ccccc82-c8a9-4c3b-909d-52c0bf697aa3","ios":"levelo://app?vid=2ccccc82-c8a9-4c3b-909d-52c0bf697aa3"},"vehicle_type_id":"4","last_reported":1751386466,"current_range_meters":0,"station_id":"","pricing_plan_id":"cebpf4jnsgd1na2vs0mg"},{"bike_id":"4e23a522-1745-493d-ba79-2666579155b6","system_id":"levelo_inurba_marseille","lat":43.307948,"lon":5.376486,"is_reserved":false,"is_disabled":true,"rental_uris":{"android":"levelo://app?vid=4e23a522-1745-493d-ba79-2666579155b6","ios":"levelo://app?vid=4e23a522-1745-493d-ba79-2666579155b6"},"vehicle_type_id":"4","last_reported":1751386466,"current_range_meters":0,"station_id":"","pricing_plan_id":"cebpf4jnsgd1na2vs0mg"},{"bike_id":"c9700359-7f1e-4ea5-8eb5-d9c4ea1b8ef7","system_id":"levelo_inurba_marseille","lat":43.263088,"lon":5.373988,"is_reserved":false,"is_disabled":true,"rental_uris":{"android":"levelo://app?vid=c9700359-7f1e-4ea5-8eb5-d9c4ea1b8ef7","ios":"levelo://app?vid=c9700359-7f1e-4ea5-8eb5-d9c4ea1b8ef7"},"vehicle_type_id":"4","last_reported":1751386466,"current_range_meters":0,"station_id":"","pricing_plan_id":"cebpf4jnsgd1na2vs0mg"},{"bike_id":"3035be0e-7c3d-4f7d-a1cb-7a1af59e497b","system_id":"levelo_inurba_marseille","lat":43.2968,"lon":5.36005,"is_reserved":false,"is_disabled":true,"rental_uris":{"android":"levelo://app?vid=3035be0e-7c3d-4f7d-a1cb-7a1af59e497b","ios":"levelo://app?vid=3035be0e-7c3d-4f7d-a1cb-7a1af59e497b"},"vehicle_type_id":"4","last_reported":1751386466,"current_range_meters":0,"station_id":"","pricing_plan_id":"cebpf4jnsgd1na2vs0mg"},{"bike_id":"a74d1481-ba54-455e-8638-ecdab7db928d","system_id":"levelo_inurba_marseille","lat":43.29569,"lon":5.3752,"is_reserved":false,"is_disabled":true,"rental_uris":{"android":"levelo://app?vid=a74d1481-ba54-455e-8638-ecdab7db928d","ios":"levelo://app?vid=a74d1481-ba54-455e-8638-ecdab7db928d"},"vehicle_type_id":"4","last_reported":1751386466,"current_range_meters":0,"station_id":"ce4bgh92rcd13ifvqb50","pricing_plan_id":"cebpf4jnsgd1na2vs0mg"},{"bike_id":"fc922827-a560-40b3-a464-7d96a560fe74","system_id":"levelo_inurba_marseille","lat":43.31351,"lon":5.385035,"is_reserved":false,"is_disabled":true,"rental_uris":{"android":"levelo://app?vid=fc922827-a560-40b3-a464-7d96a560fe74","ios":"levelo://app?vid=fc922827-a560-40b3-a464-7d96a560fe74"},"vehicle_type_id":"4","last_reported":1751386466,"current_range_meters":0,"station_id":"ce4bgt92rcd13ifvqcf0","pricing_plan_id":"cebpf4jnsgd1na2vs0mg"},{"bike_id":"7bb395c1-8366-49e0-ba6f-84e2a39bf732","system_id":"levelo_inurba_marseille","lat":43.30656,"lon":5.40096,"is_reserved":false,"is_disabled":true,"rental_uris":{"android":"levelo://app?vid=7bb395c1-8366-49e0-ba6f-84e2a39bf732","ios":"levelo://app?vid=7bb395c1-8366-49e0-ba6f-84e2a39bf732"},"vehicle_type_id":"4","last_reported":1751386466,"current_range_meters":0,"station_id":"ce4bh112rcd13ifvqda0","pricing_plan_id":"cebpf4jnsgd1na2vs0mg"},{"bike_id":"a5b2a85d-6423-4de6-90ab-6a6e0601e530","system_id":"levelo_inurba_marseille","lat":43.28486,"lon":5.38415,"is_reserved":false,"is_disabled":true,"rental_uris":{"android":"levelo://app?vid=a5b2a85d-6423-4de6-90ab-6a6e0601e530","ios":"levelo://app?vid=a5b2a85d-6423-4de6-90ab-6a6e0601e530"},"vehicle_type_id":"4","last_reported":1751386466,"current_range_meters":0,"station_id":"ce4bh512rcd13ifvqe3g","pricing_plan_id":"cebpf4jnsgd1na2vs0mg"},{"bike_id":"06ead579-8483-4fb5-889d-5c4db9dd6768","system_id":"levelo_inurba_marseille","lat":43.284765,"lon":5.385655,"is_reserved":false,"is_disabled":true,"rental_uris":{"android":"levelo://app?vid=06ead579-8483-4fb5-889d-5c4db9dd6768","ios":"levelo://app?vid=06ead579-8483-4fb5-889d-5c4db9dd6768"},"vehicle_type_id":"4","last_reported":1751386466,"current_range_meters":0,"station_id":"ce4bh8p2rcd13ifvqeb0","pricing_plan_id":"cebpf4jnsgd1na2vs0mg"},{"bike_id":"161bd323-fa33-435f-86fd-deb79c80e689","system_id":"levelo_inurba_marseille","lat":43.29222,"lon":5.36057,"is_reserved":false,"is_disabled":true,"rental_uris":{"android":"levelo://app?vid=161bd323-fa33-435f-86fd-deb79c80e689","ios":"levelo://app?vid=161bd323-fa33-435f-86fd-deb79c80e689"},"vehicle_type_id":"4","last_reported":1751386466,"current_range_meters":0,"station_id":"ce4bhbh2rcd13ifvqeqg","pricing_plan_id":"cebpf4jnsgd1na2vs0mg"},{"bike_id":"178747ec-db2d-4ef2-8f8a-964a4c58f037","system_id":"levelo_inurba_marseille","lat":43.282654,"lon":5.350691,"is_reserved":false,"is_disabled":true,"rental_uris":{"android":"levelo://app?vid=178747ec-db2d-4ef2-8f8a-964a4c58f037","ios":"levelo://app?vid=178747ec-db2d-4ef2-8f8a-964a4c58f037"},"vehicle_type_id":"4","last_reported":1751386466,"current_range_meters":0,"station_id":"ce4bhbp2rcd13ifvqerg","pricing_plan_id":"cebpf4jnsgd1na2vs0mg"},{"bike_id":"5b563a74-cd06-483a-a504-286ebf491149","system_id":"levelo_inurba_marseille","lat":43.27975,"lon":5.38742,"is_reserved":false,"is_disabled":true,"rental_uris":{"android":"levelo://app?vid=5b563a74-cd06-483a-a504-286ebf491149","ios":"levelo://app?vid=5b563a74-cd06-483a-a504-286ebf491149"},"vehicle_type_id":"4","last_reported":1751386466,"current_range_meters":0,"station_id":"ce4bhg12rcd13ifvqf80","pricing_plan_id":"cebpf4jnsgd1na2vs0mg"},{"bike_id":"176584ac-9400-466a-b24f-4bbe2e0caad1","system_id":"levelo_inurba_marseille","lat":43.27186,"lon":5.40997,"is_reserved":false,"is_disabled":true,"rental_uris":{"android":"levelo://app?vid=176584ac-9400-466a-b24f-4bbe2e0caad1","ios":"levelo://app?vid=176584ac-9400-466a-b24f-4bbe2e0caad1"},"vehicle_type_id":"4","last_reported":1751386466,"current_range_meters":0,"station_id":"ce4bhl12rcd13ifvqgf0","pricing_plan_id":"cebpf4jnsgd1na2vs0mg"},{"bike_id":"e1a382cd-f04b-4bf6-bb67-2ed3a181b292","system_id":"levelo_inurba_marseille","lat":43.30417,"lon":5.41292,"is_reserved":false,"is_disabled":true,"rental_uris":{"android":"levelo://app?vid=e1a382cd-f04b-4bf6-bb67-2ed3a181b292","ios":"levelo://app?vid=e1a382cd-f04b-4bf6-bb67-2ed3a181b292"},"vehicle_type_id":"4","last_reported":1751386466,"current_range_meters":0,"station_id":"ce4bhop2rcd13ifvqh8g","pricing_plan_id":"cebpf4jnsgd1na2vs0mg"},{"bike_id":"9ea9b2f2-da6c-427c-b4f4-742ad87b4a40","system_id":"levelo_inurba_marseille","lat":43.32361,"lon":5.36769,"is_reserved":false,"is_disabled":true,"rental_uris":{"android":"levelo://app?vid=9ea9b2f2-da6c-427c-b4f4-742ad87b4a40","ios":"levelo://app?vid=9ea9b2f2-da6c-427c-b4f4-742ad87b4a40"},"vehicle_type_id":"4","last_reported":1751386466,"current_range_meters":0,"station_id":"ce4bhsh2rcd13ifvqi2g","pricing_plan_id":"cebpf4jnsgd1na2vs0mg"},{"bike_id":"f3bb54e5-5710-469b-95d1-519f2df26e28","system_id":"levelo_inurba_marseille","lat":43.30265,"lon":5.38191,"is_reserved":false,"is_disabled":true,"rental_uris":{"android":"levelo://app?vid=f3bb54e5-5710-469b-95d1-519f2df26e28","ios":"levelo://app?vid=f3bb54e5-5710-469b-95d1-519f2df26e28"},"vehicle_type_id":"4","last_reported":1751386466,"current_range_meters":400,"station_id":"","pricing_plan_id":"cebpf4jnsgd1na2vs0mg"},{"bike_id":"46ed2b9f-1912-466e-b039-bc4b03b9c281","system_id":"levelo_inurba_marseille","lat":43.23769,"lon":5.36168,"is_reserved":false,"is_disabled":true,"rental_uris":{"android":"levelo://app?vid=46ed2b9f-1912-466e-b039-bc4b03b9c281","ios":"levelo://app?vid=46ed2b9f-1912-466e-b039-bc4b03b9c281"},"vehicle_type_id":"4","last_reported":1751386466,"current_range_meters":400,"station_id":"","pricing_plan_id":"cebpf4jnsgd1na2vs0mg"},{"bike_id":"79290e16-76bc-453b-b1e1-119a8b1316df","system_id":"levelo_inurba_marseille","lat":43.288443,"lon":5.393041,"is_reserved":false,"is_disabled":true,"rental_uris":{"android":"levelo://app?vid=79290e16-76bc-453b-b1e1-119a8b1316df","ios":"levelo://app?vid=79290e16-76bc-453b-b1e1-119a8b1316df"},"vehicle_type_id":"4","last_reported":1751386466,"current_range_meters":400,"station_id":"ce4bh2p2rcd13ifvqdi0","pricing_plan_id":"cebpf4jnsgd1na2vs0mg"},{"bike_id":"27c7016c-865b-4b33-a1e6-bfe298f260c4","system_id":"levelo_inurba_marseille","lat":43.26067,"lon":5.39393,"is_reserved":false,"is_disabled":true,"rental_uris":{"android":"levelo://app?vid=27c7016c-865b-4b33-a1e6-bfe298f260c4","ios":"levelo://app?vid=27c7016c-865b-4b33-a1e6-bfe298f260c4"},"vehicle_type_id":"4","last_reported":1751386466,"current_range_meters":400,"station_id":"ce4bhh92rcd13ifvqfj0","pricing_plan_id":"cebpf4jnsgd1na2vs0mg"},{"bike_id":"104f322d-8f02-4a10-a0e0-300532e8a5ab","system_id":"levelo_inurba_marseille","lat":43.25828,"lon":5.39442,"is_reserved":false,"is_disabled":true,"rental_uris":{"android":"levelo://app?vid=104f322d-8f02-4a10-a0e0-300532e8a5ab","ios":"levelo://app?vid=104f322d-8f02-4a10-a0e0-300532e8a5ab"},"vehicle_type_id":"4","last_reported":1751386466,"current_range_meters":400,"station_id":"ce4bhip2rcd13ifvqft0","pricing_plan_id":"cebpf4jnsgd1na2vs0mg"},{"bike_id":"f7f0426a-9f49-4c11-a8ef-627be0a0c8e4","system_id":"levelo_inurba_marseille","lat":43.30141,"lon":5.38781,"is_reserved":false,"is_disabled":true,"rental_uris":{"android":"levelo://app?vid=f7f0426a-9f49-4c11-a8ef-627be0a0c8e4","ios":"levelo://app?vid=f7f0426a-9f49-4c11-a8ef-627be0a0c8e4"},"vehicle_type_id":"4","last_reported":1751386466,"current_range_meters":800,"station_id":"ce4bghh2rcd13ifvqb60","pricing_plan_id":"cebpf4jnsgd1na2vs0mg"},{"bike_id":"e307fb65-2682-4432-a0d4-41d517bfb3f7","system_id":"levelo_inurba_marseille","lat":43.29018,"lon":5.38136,"is_reserved":false,"is_disabled":true,"rental_uris":{"android":"levelo://app?vid=e307fb65-2682-4432-a0d4-41d517bfb3f7","ios":"levelo://app?vid=e307fb65-2682-4432-a0d4-41d517bfb3f7"},"vehicle_type_id":"4","last_reported":1751386466,"current_range_meters":800,"station_id":"ce4bh4p2rcd13ifvqe1g","pricing_plan_id":"cebpf4jnsgd1na2vs0mg"},{"bike_id":"06fcf5fd-1cb9-4166-b788-d98546f2da2f","system_id":"levelo_inurba_marseille","lat":43.29267,"lon":5.3844,"is_reserved":false,"is_disabled":true,"rental_uris":{"android":"levelo://app?vid=06fcf5fd-1cb9-4166-b788-d98546f2da2f","ios":"levelo://app?vid=06fcf5fd-1cb9-4166-b788-d98546f2da2f"},"vehicle_type_id":"4","last_reported":1751386466,"current_range_meters":800,"station_id":"ce4bh692rcd13ifvqea0","pricing_plan_id":"cebpf4jnsgd1na2vs0mg"},{"bike_id":"826f2657-7ff4-470c-8fb4-97c624230b1b","system_id":"levelo_inurba_marseille","lat":43.23181,"lon":5.39991,"is_reserved":false,"is_disabled":true,"rental_uris":{"android":"levelo://app?vid=826f2657-7ff4-470c-8fb4-97c624230b1b","ios":"levelo://app?vid=826f2657-7ff4-470c-8fb4-97c624230b1b"},"vehicle_type_id":"4","last_reported":1751386466,"current_range_meters":800,"station_id":"ce4bhn12rcd13ifvqgqg","pricing_plan_id":"cebpf4jnsgd1na2vs0mg"},{"bike_id":"02ef0993-02d2-4850-8181-c1a47b0ff6e1","system_id":"levelo_inurba_marseille","lat":43.28078,"lon":5.39656,"is_reserved":false,"is_disabled":true,"rental_uris":{"android":"levelo://app?vid=02ef0993-02d2-4850-8181-c1a47b0ff6e1","ios":"levelo://app?vid=02ef0993-02d2-4850-8181-c1a47b0ff6e1"},"vehicle_type_id":"4","last_reported":1751386466,"current_range_meters":800,"station_id":"ce4bho12rcd13ifvqh2g","pricing_plan_id":"cebpf4jnsgd1na2vs0mg"},{"bike_id":"c812648b-fb9b-4185-835c-e69313170382","system_id":"levelo_inurba_marseille","lat":43.27613,"lon":5.36107,"is_reserved":false,"is_disabled":true,"rental_uris":{"android":"levelo://app?vid=c812648b-fb9b-4185-835c-e69313170382","ios":"levelo://app?vid=c812648b-fb9b-4185-835c-e69313170382"},"vehicle_type_id":"4","last_reported":1751386466,"current_range_meters":1200,"station_id":"ce4bgj92rcd13ifvqbe0","pricing_plan_id":"cebpf4jnsgd1na2vs0mg"},{"bike_id":"55225e8c-12ee-44cf-962d-f6e6eda4c934","system_id":"levelo_inurba_marseille","lat":43.30952,"lon":5.39035,"is_reserved":false,"is_disabled":true,"rental_uris":{"android":"levelo://app?vid=55225e8c-12ee-44cf-962d-f6e6eda4c934","ios":"levelo://app?vid=55225e8c-12ee-44cf-962d-f6e6eda4c934"},"vehicle_type_id":"4","last_reported":1751386466,"current_range_meters":1200,"station_id":"ce4bgup2rcd13ifvqco0","pricing_plan_id":"cebpf4jnsgd1na2vs0mg"},{"bike_id":"d88b58db-cc07-4531-aace-7c8d0cdc596e","system_id":"levelo_inurba_marseille","lat":43.30248,"lon":5.40079,"is_reserved":false,"is_disabled":true,"rental_uris":{"android":"levelo://app?vid=d88b58db-cc07-4531-aace-7c8d0cdc596e","ios":"levelo://app?vid=d88b58db-cc07-4531-aace-7c8d0cdc596e"},"vehicle_type_id":"4","last_reported":1751386466,"current_range_meters":1200,"station_id":"ce4bgvh2rcd13ifvqcs0","pricing_plan_id":"cebpf4jnsgd1na2vs0mg"},{"bike_id":"fbae119e-8b96-4222-8138-fc4479346b5c","system_id":"levelo_inurba_marseille","lat":43.28407,"lon":5.37501,"is_reserved":false,"is_disabled":true,"rental_uris":{"android":"levelo://app?vid=fbae119e-8b96-4222-8138-fc4479346b5c","ios":"levelo://app?vid=fbae119e-8b96-4222-8138-fc4479346b5c"},"vehicle_type_id":"4","last_reported":1751386466,"current_range_meters":1200,"station_id":"ce4bh412rcd13ifvqds0","pricing_plan_id":"cebpf4jnsgd1na2vs0mg"},{"bike_id":"32fc786a-0a9f-45c1-902a-cd73098bf130","system_id":"levelo_inurba_marseille","lat":43.27326,"lon":5.39089,"is_reserved":false,"is_disabled":true,"rental_uris":{"android":"levelo://app?vid=32fc786a-0a9f-45c1-902a-cd73098bf130","ios":"levelo://app?vid=32fc786a-0a9f-45c1-902a-cd73098bf130"},"vehicle_type_id":"4","last_reported":1751386466,"current_range_meters":1200,"station_id":"ce4bhgp2rcd13ifvqfe0","pricing_plan_id":"cebpf4jnsgd1na2vs0mg"},{"bike_id":"bb5aaa02-fced-4db8-88fe-86c21bc0965c","system_id":"levelo_inurba_marseille","lat":43.257347,"lon":5.376621,"is_reserved":false,"is_disabled":true,"rental_uris":{"android":"levelo://app?vid=bb5aaa02-fced-4db8-88fe-86c21bc0965c","ios":"levelo://app?vid=bb5aaa02-fced-4db8-88fe-86c21bc0965c"},"vehicle_type_id":"4","last_reported":1751386466,"current_range_meters":1200,"station_id":"ce4bhh12rcd13ifvqff0","pricing_plan_id":"cebpf4jnsgd1na2vs0mg"},{"bike_id":"0137fde0-0d43-4d45-967b-1e7ecbc7c683","system_id":"levelo_inurba_marseille","lat":43.25574,"lon":5.38221,"is_reserved":false,"is_disabled":true,"rental_uris":{"android":"levelo://app?vid=0137fde0-0d43-4d45-967b-1e7ecbc7c683","ios":"levelo://app?vid=0137fde0-0d43-4d45-967b-1e7ecbc7c683"},"vehicle_type_id":"4","last_reported":1751386466,"current_range_meters":1200,"station_id":"ce4bhih2rcd13ifvqfs0","pricing_plan_id":"cebpf4jnsgd1na2vs0mg"},{"bike_id":"498f6490-9298-47d6-aab7-c02f93a32669","system_id":"levelo_inurba_marseille","lat":43.28146,"lon":5.4262,"is_reserved":false,"is_disabled":true,"rental_uris":{"android":"levelo://app?vid=498f6490-9298-47d6-aab7-c02f93a32669","ios":"levelo://app?vid=498f6490-9298-47d6-aab7-c02f93a32669"},"vehicle_type_id":"4","last_reported":1751386466,"current_range_meters":1200,"station_id":"ce4bhnh2rcd13ifvqgug","pricing_plan_id":"cebpf4jnsgd1na2vs0mg"},{"bike_id":"cafdba49-d3da-483e-9b57-d46e8f7d7a24","system_id":"levelo_inurba_marseille","lat":43.31087,"lon":5.42429,"is_reserved":false,"is_disabled":true,"rental_uris":{"android":"levelo://app?vid=cafdba49-d3da-483e-9b57-d46e8f7d7a24","ios":"levelo://app?vid=cafdba49-d3da-483e-9b57-d46e8f7d7a24"},"vehicle_type_id":"4","last_reported":1751386466,"current_range_meters":1200,"station_id":"ce4bhp92rcd13ifvqhag","pricing_plan_id":"cebpf4jnsgd1na2vs0mg"},{"bike_id":"6346854d-967c-470e-9bcf-0ee9cbb31745","system_id":"levelo_inurba_marseille","lat":43.26917,"lon":5.42029,"is_reserved":false,"is_disabled":true,"rental_uris":{"android":"levelo://app?vid=6346854d-967c-470e-9bcf-0ee9cbb31745","ios":"levelo://app?vid=6346854d-967c-470e-9bcf-0ee9cbb31745"},"vehicle_type_id":"4","last_reported":1751386466,"current_range_meters":1600,"station_id":"","pricing_plan_id":"cebpf4jnsgd1na2vs0mg"},{"bike_id":"4fed6883-c2fd-4c0e-a42b-ce8850b185cb","system_id":"levelo_inurba_marseille","lat":43.2991,"lon":5.37455,"is_reserved":false,"is_disabled":true,"rental_uris":{"android":"levelo://app?vid=4fed6883-c2fd-4c0e-a42b-ce8850b185cb","ios":"levelo://app?vid=4fed6883-c2fd-4c0e-a42b-ce8850b185cb"},"vehicle_type_id":"4","last_reported":1751386466,"current_range_meters":1600,"station_id":"ce4bgjh2rcd13ifvqbg0","pricing_plan_id":"cebpf4jnsgd1na2vs0mg"},{"bike_id":"7471a566-1698-4263-9ad3-0635a392c6f1","system_id":"levelo_inurba_marseille","lat":43.3088,"lon":5.39648,"is_reserved":false,"is_disabled":true,"rental_uris":{"android":"levelo://app?vid=7471a566-1698-4263-9ad3-0635a392c6f1","ios":"levelo://app?vid=7471a566-1698-4263-9ad3-0635a392c6f1"},"vehicle_type_id":"4","last_reported":1751386466,"current_range_meters":1600,"station_id":"ce4bh012rcd13ifvqcv0","pricing_plan_id":"cebpf4jnsgd1na2vs0mg"},{"bike_id":"619ab9b3-4e7b-4561-8309-7c4ee6a0cfb9","system_id":"levelo_inurba_marseille","lat":43.30324,"lon":5.4043,"is_reserved":false,"is_disabled":true,"rental_uris":{"android":"levelo://app?vid=619ab9b3-4e7b-4561-8309-7c4ee6a0cfb9","ios":"levelo://app?vid=619ab9b3-4e7b-4561-8309-7c4ee6a0cfb9"},"vehicle_type_id":"4","last_reported":1751386466,"current_range_meters":1600,"station_id":"ce4bh012rcd13ifvqd10","pricing_plan_id":"cebpf4jnsgd1na2vs0mg"},{"bike_id":"b430e201-5f48-410c-b50b-dbcbfc542045","system_id":"levelo_inurba_marseille","lat":43.28075,"lon":5.39666,"is_reserved":false,"is_disabled":true,"rental_uris":{"android":"levelo://app?vid=b430e201-5f48-410c-b50b-dbcbfc542045","ios":"levelo://app?vid=b430e201-5f48-410c-b50b-dbcbfc542045"},"vehicle_type_id":"4","last_reported":1751386466,"current_range_meters":1600,"station_id":"ce4bho12rcd13ifvqh2g","pricing_plan_id":"cebpf4jnsgd1na2vs0mg"},{"bike_id":"9af9c942-7275-4e93-8ad1-36fdac756eae","system_id":"levelo_inurba_marseille","lat":43.27811,"lon":5.40719,"is_reserved":false,"is_disabled":true,"rental_uris":{"android":"levelo://app?vid=9af9c942-7275-4e93-8ad1-36fdac756eae","ios":"levelo://app?vid=9af9c942-7275-4e93-8ad1-36fdac756eae"},"vehicle_type_id":"4","last_reported":1751386466,"current_range_meters":2000,"station_id":"ce4bhnh2rcd13ifvqgtg","pricing_plan_id":"cebpf4jnsgd1na2vs0mg"},{"bike_id":"bd9d37a6-b6fa-46b3-a1cf-a362321ef116","system_id":"levelo_inurba_marseille","lat":43.29863,"lon":5.37523,"is_reserved":false,"is_disabled":false,"rental_uris":{"android":"levelo://app?vid=bd9d37a6-b6fa-46b3-a1cf-a362321ef116","ios":"levelo://app?vid=bd9d37a6-b6fa-46b3-a1cf-a362321ef116"},"vehicle_type_id":"4","last_reported":1751386466,"current_range_meters":2800,"station_id":"","pricing_plan_id":"cebpf4jnsgd1na2vs0mg"},{"bike_id":"7547e1e4-2d85-4907-971d-6c8e5c4cb529","system_id":"levelo_inurba_marseille","lat":43.253654,"lon":5.375087,"is_reserved":false,"is_disabled":false,"rental_uris":{"android":"levelo://app?vid=7547e1e4-2d85-4907-971d-6c8e5c4cb529","ios":"levelo://app?vid=7547e1e4-2d85-4907-971d-6c8e5c4cb529"},"vehicle_type_id":"4","last_reported":1751386466,"current_range_meters":2800,"station_id":"","pricing_plan_id":"cebpf4jnsgd1na2vs0mg"},{"bike_id":"e5a91c12-a9d1-463a-8abe-d0dd37cf3197","system_id":"levelo_inurba_marseille","lat":43.29809,"lon":5.37785,"is_reserved":false,"is_disabled":false,"rental_uris":{"android":"levelo://app?vid=e5a91c12-a9d1-463a-8abe-d0dd37cf3197","ios":"levelo://app?vid=e5a91c12-a9d1-463a-8abe-d0dd37cf3197"},"vehicle_type_id":"4","last_reported":1751386466,"current_range_meters":2800,"station_id":"","pricing_plan_id":"cebpf4jnsgd1na2vs0mg"},{"bike_id":"d4474978-858b-49e1-9307-ef20ff1e7abe","system_id":"levelo_inurba_marseille","lat":43.2917,"lon":5.37155,"is_reserved":false,"is_disabled":false,"rental_uris":{"android":"levelo://app?vid=d4474978-858b-49e1-9307-ef20ff1e7abe","ios":"levelo://app?vid=d4474978-858b-49e1-9307-ef20ff1e7abe"},"vehicle_type_id":"4","last_reported":1751386466,"current_range_meters":2800,"station_id":"ce4bha92rcd13ifvqeh0","pricing_plan_id":"cebpf4jnsgd1na2vs0mg"},{"bike_id":"cc582789-d986-4c0b-b564-ac38d4c60af4","system_id":"levelo_inurba_marseille","lat":43.25086,"lon":5.395266,"is_reserved":false,"is_disabled":false,"rental_uris":{"android":"levelo://app?vid=cc582789-d986-4c0b-b564-ac38d4c60af4","ios":"levelo://app?vid=cc582789-d986-4c0b-b564-ac38d4c60af4"},"vehicle_type_id":"4","last_reported":1751386466,"current_range_meters":2800,"station_id":"ce4bhm12rcd13ifvqgkg","pricing_plan_id":"cebpf4jnsgd1na2vs0mg"},{"bike_id":"896c3d65-1617-4142-947c-d9932ed2b813","system_id":"levelo_inurba_marseille","lat":43.28158,"lon":5.42644,"is_reserved":false,"is_disabled":false,"rental_uris":{"android":"levelo://app?vid=896c3d65-1617-4142-947c-d9932ed2b813","ios":"levelo://app?vid=896c3d65-1617-4142-947c-d9932ed2b813"},"vehicle_type_id":"4","last_reported":1751386466,"current_range_meters":2800,"station_id":"ce4bhnh2rcd13ifvqgug","pricing_plan_id":"cebpf4jnsgd1na2vs0mg"},{"bike_id":"2fcb38b6-f8d2-4652-bc20-e977411a2d17","system_id":"levelo_inurba_marseille","lat":43.23968,"lon":5.36639,"is_reserved":false,"is_disabled":false,"rental_uris":{"android":"levelo://app?vid=2fcb38b6-f8d2-4652-bc20-e977411a2d17","ios":"levelo://app?vid=2fcb38b6-f8d2-4652-bc20-e977411a2d17"},"vehicle_type_id":"4","last_reported":1751386466,"current_range_meters":3200,"station_id":"ce4bhi12rcd13ifvqfp0","pricing_plan_id":"cebpf4jnsgd1na2vs0mg"},{"bike_id":"760a15f3-7fb1-49c2-84c7-a1d674509bb8","system_id":"levelo_inurba_marseille","lat":43.29968,"lon":5.38492,"is_reserved":false,"is_disabled":false,"rental_uris":{"android":"levelo://app?vid=760a15f3-7fb1-49c2-84c7-a1d674509bb8","ios":"levelo://app?vid=760a15f3-7fb1-49c2-84c7-a1d674509bb8"},"vehicle_type_id":"4","last_reported":1751386466,"current_range_meters":3600,"station_id":"ce4bgj92rcd13ifvqbd0","pricing_plan_id":"cebpf4jnsgd1na2vs0mg"},{"bike_id":"67927704-076f-4c96-b073-244ca7a38896","system_id":"levelo_inurba_marseille","lat":43.31273,"lon":5.40158,"is_reserved":false,"is_disabled":false,"rental_uris":{"android":"levelo://app?vid=67927704-076f-4c96-b073-244ca7a38896","ios":"levelo://app?vid=67927704-076f-4c96-b073-244ca7a38896"},"vehicle_type_id":"4","last_reported":1751386466,"current_range_meters":3600,"station_id":"ce4bh092rcd13ifvqd30","pricing_plan_id":"cebpf4jnsgd1na2vs0mg"},{"bike_id":"ac2d8b25-92ae-4234-afc9-06db951843df","system_id":"levelo_inurba_marseille","lat":43.29226,"lon":5.36052,"is_reserved":false,"is_disabled":false,"rental_uris":{"android":"levelo://app?vid=ac2d8b25-92ae-4234-afc9-06db951843df","ios":"levelo://app?vid=ac2d8b25-92ae-4234-afc9-06db951843df"},"vehicle_type_id":"4","last_reported":1751386466,"current_range_meters":3600,"station_id":"ce4bhbh2rcd13ifvqeqg","pricing_plan_id":"cebpf4jnsgd1na2vs0mg"},{"bike_id":"7c187bc2-53e8-483b-903a-4d43ca458840","system_id":"levelo_inurba_marseille","lat":43.29003,"lon":5.35607,"is_reserved":false,"is_disabled":false,"rental_uris":{"android":"levelo://app?vid=7c187bc2-53e8-483b-903a-4d43ca458840","ios":"levelo://app?vid=7c187bc2-53e8-483b-903a-4d43ca458840"},"vehicle_type_id":"4","last_reported":1751386466,"current_range_meters":4000,"station_id":"ce4bhb92rcd13ifvqen0","pricing_plan_id":"cebpf4jnsgd1na2vs0mg"},{"bike_id":"5535b375-88a8-48f2-9bbe-c408367e409a","system_id":"levelo_inurba_marseille","lat":43.31363,"lon":5.38357,"is_reserved":false,"is_disabled":false,"rental_uris":{"android":"levelo://app?vid=5535b375-88a8-48f2-9bbe-c408367e409a","ios":"levelo://app?vid=5535b375-88a8-48f2-9bbe-c408367e409a"},"vehicle_type_id":"4","last_reported":1751386466,"current_range_meters":4400,"station_id":"","pricing_plan_id":"cebpf4jnsgd1na2vs0mg"},{"bike_id":"20663112-9f23-4d93-a2b7-166b11a49e29","system_id":"levelo_inurba_marseille","lat":43.28155,"lon":5.42639,"is_reserved":false,"is_disabled":false,"rental_uris":{"android":"levelo://app?vid=20663112-9f23-4d93-a2b7-166b11a49e29","ios":"levelo://app?vid=20663112-9f23-4d93-a2b7-166b11a49e29"},"vehicle_type_id":"4","last_reported":1751386466,"current_range_meters":4400,"station_id":"ce4bhnh2rcd13ifvqgug","pricing_plan_id":"cebpf4jnsgd1na2vs0mg"},{"bike_id":"7804afc4-b4f5-4e54-aa8b-46c5a7930d41","system_id":"levelo_inurba_marseille","lat":43.28157,"lon":5.4265,"is_reserved":false,"is_disabled":false,"rental_uris":{"android":"levelo://app?vid=7804afc4-b4f5-4e54-aa8b-46c5a7930d41","ios":"levelo://app?vid=7804afc4-b4f5-4e54-aa8b-46c5a7930d41"},"vehicle_type_id":"4","last_reported":1751386466,"current_range_meters":4400,"station_id":"ce4bhnh2rcd13ifvqgug","pricing_plan_id":"cebpf4jnsgd1na2vs0mg"},{"bike_id":"06b67256-eb13-47fc-b4e9-bf2f59473653","system_id":"levelo_inurba_marseille","lat":43.27997,"lon":5.4002,"is_reserved":false,"is_disabled":false,"rental_uris":{"android":"levelo://app?vid=06b67256-eb13-47fc-b4e9-bf2f59473653","ios":"levelo://app?vid=06b67256-eb13-47fc-b4e9-bf2f59473653"},"vehicle_type_id":"4","last_reported":1751386466,"current_range_meters":4400,"station_id":"ce4bho92rcd13ifvqh4g","pricing_plan_id":"cebpf4jnsgd1na2vs0mg"},{"bike_id":"162af4e6-d224-4240-aeac-6cb0ae06de53","system_id":"levelo_inurba_marseille","lat":43.2993,"lon":5.378268,"is_reserved":false,"is_disabled":false,"rental_uris":{"android":"levelo://app?vid=162af4e6-d224-4240-aeac-6cb0ae06de53","ios":"levelo://app?vid=162af4e6-d224-4240-aeac-6cb0ae06de53"},"vehicle_type_id":"4","last_reported":1751386466,"current_range_meters":5600,"station_id":"","pricing_plan_id":"cebpf4jnsgd1na2vs0mg"},{"bike_id":"4d43c694-f8ca-49fe-b9e2-a9194a580229","system_id":"levelo_inurba_marseille","lat":43.317028,"lon":5.376727,"is_reserved":false,"is_disabled":false,"rental_uris":{"android":"levelo://app?vid=4d43c694-f8ca-49fe-b9e2-a9194a580229","ios":"levelo://app?vid=4d43c694-f8ca-49fe-b9e2-a9194a580229"},"vehicle_type_id":"4","last_reported":1751386466,"current_range_meters":5600,"station_id":"ce4bgth2rcd13ifvqch0","pricing_plan_id":"cebpf4jnsgd1na2vs0mg"},{"bike_id":"88340930-29e5-4cb4-b7cf-56895e9e388b","system_id":"levelo_inurba_marseille","lat":43.24388,"lon":5.37057,"is_reserved":false,"is_disabled":false,"rental_uris":{"android":"levelo://app?vid=88340930-29e5-4cb4-b7cf-56895e9e388b","ios":"levelo://app?vid=88340930-29e5-4cb4-b7cf-56895e9e388b"},"vehicle_type_id":"4","last_reported":1751386466,"current_range_meters":5600,"station_id":"ce4bhhh2rcd13ifvqfk0","pricing_plan_id":"cebpf4jnsgd1na2vs0mg"},{"bike_id":"a5b10495-2165-4f18-ad79-8dd74c5a406f","system_id":"levelo_inurba_marseille","lat":43.2318,"lon":5.3999,"is_reserved":false,"is_disabled":false,"rental_uris":{"android":"levelo://app?vid=a5b10495-2165-4f18-ad79-8dd74c5a406f","ios":"levelo://app?vid=a5b10495-2165-4f18-ad79-8dd74c5a406f"},"vehicle_type_id":"4","last_reported":1751386466,"current_range_meters":5600,"station_id":"ce4bhn12rcd13ifvqgqg","pricing_plan_id":"cebpf4jnsgd1na2vs0mg"},{"bike_id":"af1d3301-05e0-4532-a5fd-8fd77d53e80f","system_id":"levelo_inurba_marseille","lat":43.28455,"lon":5.3589,"is_reserved":false,"is_disabled":false,"rental_uris":{"android":"levelo://app?vid=af1d3301-05e0-4532-a5fd-8fd77d53e80f","ios":"levelo://app?vid=af1d3301-05e0-4532-a5fd-8fd77d53e80f"},"vehicle_type_id":"4","last_reported":1751386466,"current_range_meters":6000,"station_id":"ce4bhah2rcd13ifvqei0","pricing_plan_id":"cebpf4jnsgd1na2vs0mg"},{"bike_id":"429402c5-f190-4dfd-9296-d37da8babbe4","system_id":"levelo_inurba_marseille","lat":43.28255,"lon":5.35073,"is_reserved":false,"is_disabled":false,"rental_uris":{"android":"levelo://app?vid=429402c5-f190-4dfd-9296-d37da8babbe4","ios":"levelo://app?vid=429402c5-f190-4dfd-9296-d37da8babbe4"},"vehicle_type_id":"4","last_reported":1751386466,"current_range_meters":6000,"station_id":"ce4bhbp2rcd13ifvqerg","pricing_plan_id":"cebpf4jnsgd1na2vs0mg"},{"bike_id":"67ecd9d1-7b13-4228-9c60-587e1819884c","system_id":"levelo_inurba_marseille","lat":43.31116,"lon":5.37767,"is_reserved":false,"is_disabled":false,"rental_uris":{"android":"levelo://app?vid=67ecd9d1-7b13-4228-9c60-587e1819884c","ios":"levelo://app?vid=67ecd9d1-7b13-4228-9c60-587e1819884c"},"vehicle_type_id":"4","last_reported":1751386466,"current_range_meters":6400,"station_id":"ce4bgt92rcd13ifvqcg0","pricing_plan_id":"cebpf4jnsgd1na2vs0mg"},{"bike_id":"b200c2d7-6405-4661-810d-3f968e9de9ca","system_id":"levelo_inurba_marseille","lat":43.2396,"lon":5.36656,"is_reserved":false,"is_disabled":false,"rental_uris":{"android":"levelo://app?vid=b200c2d7-6405-4661-810d-3f968e9de9ca","ios":"levelo://app?vid=b200c2d7-6405-4661-810d-3f968e9de9ca"},"vehicle_type_id":"4","last_reported":1751386466,"current_range_meters":6400,"station_id":"ce4bhi12rcd13ifvqfp0","pricing_plan_id":"cebpf4jnsgd1na2vs0mg"},{"bike_id":"eeca0981-6e6b-4cc4-992c-65a8b8bbec4c","system_id":"levelo_inurba_marseille","lat":43.22943,"lon":5.35376,"is_reserved":false,"is_disabled":false,"rental_uris":{"android":"levelo://app?vid=eeca0981-6e6b-4cc4-992c-65a8b8bbec4c","ios":"levelo://app?vid=eeca0981-6e6b-4cc4-992c-65a8b8bbec4c"},"vehicle_type_id":"4","last_reported":1751386466,"current_range_meters":6400,"station_id":"cpo3532slgdg3j2ikp40","pricing_plan_id":"cebpf4jnsgd1na2vs0mg"},{"bike_id":"dfd578c6-3028-47d8-bab5-a52655cbc8c2","system_id":"levelo_inurba_marseille","lat":43.217545,"lon":5.346135,"is_reserved":false,"is_disabled":false,"rental_uris":{"android":"levelo://app?vid=dfd578c6-3028-47d8-bab5-a52655cbc8c2","ios":"levelo://app?vid=dfd578c6-3028-47d8-bab5-a52655cbc8c2"},"vehicle_type_id":"4","last_reported":1751386466,"current_range_meters":6400,"station_id":"st_cvj6r9ubvosntc0bgbag","pricing_plan_id":"cebpf4jnsgd1na2vs0mg"},{"bike_id":"17e811bd-d6f4-41fa-aba4-53fd55136f97","system_id":"levelo_inurba_marseille","lat":43.29935,"lon":5.36558,"is_reserved":false,"is_disabled":false,"rental_uris":{"android":"levelo://app?vid=17e811bd-d6f4-41fa-aba4-53fd55136f97","ios":"levelo://app?vid=17e811bd-d6f4-41fa-aba4-53fd55136f97"},"vehicle_type_id":"4","last_reported":1751386466,"current_range_meters":6800,"station_id":"ce4bgm92rcd13ifvqbr0","pricing_plan_id":"cebpf4jnsgd1na2vs0mg"},{"bike_id":"146a7f52-8d3b-4705-9ac6-37d79ce72049","system_id":"levelo_inurba_marseille","lat":43.29192,"lon":5.35804,"is_reserved":false,"is_disabled":false,"rental_uris":{"android":"levelo://app?vid=146a7f52-8d3b-4705-9ac6-37d79ce72049","ios":"levelo://app?vid=146a7f52-8d3b-4705-9ac6-37d79ce72049"},"vehicle_type_id":"4","last_reported":1751386466,"current_range_meters":6800,"station_id":"ce4bhb12rcd13ifvqel0","pricing_plan_id":"cebpf4jnsgd1na2vs0mg"},{"bike_id":"f169267c-2a86-445b-b538-be096b53f172","system_id":"levelo_inurba_marseille","lat":43.29005,"lon":5.35606,"is_reserved":false,"is_disabled":false,"rental_uris":{"android":"levelo://app?vid=f169267c-2a86-445b-b538-be096b53f172","ios":"levelo://app?vid=f169267c-2a86-445b-b538-be096b53f172"},"vehicle_type_id":"4","last_reported":1751386466,"current_range_meters":6800,"station_id":"ce4bhb92rcd13ifvqen0","pricing_plan_id":"cebpf4jnsgd1na2vs0mg"},{"bike_id":"78b7affe-64cd-4a0c-8dda-32de3e60a7a7","system_id":"levelo_inurba_marseille","lat":43.27374,"lon":5.36262,"is_reserved":false,"is_disabled":false,"rental_uris":{"android":"levelo://app?vid=78b7affe-64cd-4a0c-8dda-32de3e60a7a7","ios":"levelo://app?vid=78b7affe-64cd-4a0c-8dda-32de3e60a7a7"},"vehicle_type_id":"4","last_reported":1751386466,"current_range_meters":6800,"station_id":"ce4bhbh2rcd13ifvqeo0","pricing_plan_id":"cebpf4jnsgd1na2vs0mg"},{"bike_id":"43fcb430-53f7-4349-b49c-62f8e6ea8db4","system_id":"levelo_inurba_marseille","lat":43.28454,"lon":5.43703,"is_reserved":false,"is_disabled":false,"rental_uris":{"android":"levelo://app?vid=43fcb430-53f7-4349-b49c-62f8e6ea8db4","ios":"levelo://app?vid=43fcb430-53f7-4349-b49c-62f8e6ea8db4"},"vehicle_type_id":"4","last_reported":1751386466,"current_range_meters":7200,"station_id":"","pricing_plan_id":"cebpf4jnsgd1na2vs0mg"},{"bike_id":"b05ac08d-847b-4f20-ac36-038a0d69d167","system_id":"levelo_inurba_marseille","lat":43.28135,"lon":5.35872,"is_reserved":false,"is_disabled":false,"rental_uris":{"android":"levelo://app?vid=b05ac08d-847b-4f20-ac36-038a0d69d167","ios":"levelo://app?vid=b05ac08d-847b-4f20-ac36-038a0d69d167"},"vehicle_type_id":"4","last_reported":1751386466,"current_range_meters":7200,"station_id":"","pricing_plan_id":"cebpf4jnsgd1na2vs0mg"},{"bike_id":"f5c16f07-bc6f-4121-91a7-5ad90eec4f34","system_id":"levelo_inurba_marseille","lat":43.31193,"lon":5.37324,"is_reserved":false,"is_disabled":false,"rental_uris":{"android":"levelo://app?vid=f5c16f07-bc6f-4121-91a7-5ad90eec4f34","ios":"levelo://app?vid=f5c16f07-bc6f-4121-91a7-5ad90eec4f34"},"vehicle_type_id":"4","last_reported":1751386466,"current_range_meters":7200,"station_id":"","pricing_plan_id":"cebpf4jnsgd1na2vs0mg"},{"bike_id":"f6205f47-c2ff-4f54-965e-35ed5a971d63","system_id":"levelo_inurba_marseille","lat":43.29019,"lon":5.38644,"is_reserved":false,"is_disabled":false,"rental_uris":{"android":"levelo://app?vid=f6205f47-c2ff-4f54-965e-35ed5a971d63","ios":"levelo://app?vid=f6205f47-c2ff-4f54-965e-35ed5a971d63"},"vehicle_type_id":"4","last_reported":1751386466,"current_range_meters":7200,"station_id":"ce4bh4p2rcd13ifvqe0g","pricing_plan_id":"cebpf4jnsgd1na2vs0mg"},{"bike_id":"11590693-8f59-403f-8233-36266dcb0ddf","system_id":"levelo_inurba_marseille","lat":43.217538,"lon":5.345923,"is_reserved":false,"is_disabled":false,"rental_uris":{"android":"levelo://app?vid=11590693-8f59-403f-8233-36266dcb0ddf","ios":"levelo://app?vid=11590693-8f59-403f-8233-36266dcb0ddf"},"vehicle_type_id":"4","last_reported":1751386466,"current_range_meters":7200,"station_id":"st_cvj6r9ubvosntc0bgbag","pricing_plan_id":"cebpf4jnsgd1na2vs0mg"},{"bike_id":"f5e129c0-5303-44d4-b313-b9ac811fdde5","system_id":"levelo_inurba_marseille","lat":43.292682,"lon":5.384383,"is_reserved":false,"is_disabled":false,"rental_uris":{"android":"levelo://app?vid=f5e129c0-5303-44d4-b313-b9ac811fdde5","ios":"levelo://app?vid=f5e129c0-5303-44d4-b313-b9ac811fdde5"},"vehicle_type_id":"4","last_reported":1751386466,"current_range_meters":8000,"station_id":"","pricing_plan_id":"cebpf4jnsgd1na2vs0mg"},{"bike_id":"368a3369-6b2a-44b7-82dd-7e7a717c1fe6","system_id":"levelo_inurba_marseille","lat":43.304442,"lon":5.397297,"is_reserved":false,"is_disabled":false,"rental_uris":{"android":"levelo://app?vid=368a3369-6b2a-44b7-82dd-7e7a717c1fe6","ios":"levelo://app?vid=368a3369-6b2a-44b7-82dd-7e7a717c1fe6"},"vehicle_type_id":"4","last_reported":1751386466,"current_range_meters":8000,"station_id":"ce4bh092rcd13ifvqd20","pricing_plan_id":"cebpf4jnsgd1na2vs0mg"},{"bike_id":"b9779f37-3c3d-4410-a2bd-122f2b1f114c","system_id":"levelo_inurba_marseille","lat":43.24387,"lon":5.37059,"is_reserved":false,"is_disabled":false,"rental_uris":{"android":"levelo://app?vid=b9779f37-3c3d-4410-a2bd-122f2b1f114c","ios":"levelo://app?vid=b9779f37-3c3d-4410-a2bd-122f2b1f114c"},"vehicle_type_id":"4","last_reported":1751386466,"current_range_meters":8000,"station_id":"ce4bhhh2rcd13ifvqfk0","pricing_plan_id":"cebpf4jnsgd1na2vs0mg"},{"bike_id":"13e58bf3-a608-4c7e-a9c7-92750f1a7183","system_id":"levelo_inurba_marseille","lat":43.33631,"lon":5.41037,"is_reserved":false,"is_disabled":false,"rental_uris":{"android":"levelo://app?vid=13e58bf3-a608-4c7e-a9c7-92750f1a7183","ios":"levelo://app?vid=13e58bf3-a608-4c7e-a9c7-92750f1a7183"},"vehicle_type_id":"4","last_reported":1751386466,"current_range_meters":8000,"station_id":"ce4bhqh2rcd13ifvqhmg","pricing_plan_id":"cebpf4jnsgd1na2vs0mg"},{"bike_id":"51211d99-1f4d-48e8-b92c-3ef3243f9b1c","system_id":"levelo_inurba_marseille","lat":43.24165,"lon":5.36397,"is_reserved":false,"is_disabled":false,"rental_uris":{"android":"levelo://app?vid=51211d99-1f4d-48e8-b92c-3ef3243f9b1c","ios":"levelo://app?vid=51211d99-1f4d-48e8-b92c-3ef3243f9b1c"},"vehicle_type_id":"4","last_reported":1751386466,"current_range_meters":8000,"station_id":"cpo36qri1sfpv3e86is0","pricing_plan_id":"cebpf4jnsgd1na2vs0mg"},{"bike_id":"a2017121-8342-439c-9853-789b6ff0806f","system_id":"levelo_inurba_marseille","lat":43.21187,"lon":5.35071,"is_reserved":false,"is_disabled":false,"rental_uris":{"android":"levelo://app?vid=a2017121-8342-439c-9853-789b6ff0806f","ios":"levelo://app?vid=a2017121-8342-439c-9853-789b6ff0806f"},"vehicle_type_id":"4","last_reported":1751386466,"current_range_meters":8000,"station_id":"st_cvj6sg6p6f1abm77japg","pricing_plan_id":"cebpf4jnsgd1na2vs0mg"},{"bike_id":"860ecc02-a6d5-4fbe-ada6-b9197deada15","system_id":"levelo_inurba_marseille","lat":43.32554,"lon":5.3894,"is_reserved":false,"is_disabled":false,"rental_uris":{"android":"levelo://app?vid=860ecc02-a6d5-4fbe-ada6-b9197deada15","ios":"levelo://app?vid=860ecc02-a6d5-4fbe-ada6-b9197deada15"},"vehicle_type_id":"4","last_reported":1751386466,"current_range_meters":8800,"station_id":"","pricing_plan_id":"cebpf4jnsgd1na2vs0mg"},{"bike_id":"322e9414-cbd3-4465-a1b3-66beb3ee35e4","system_id":"levelo_inurba_marseille","lat":43.25491,"lon":5.376506,"is_reserved":false,"is_disabled":false,"rental_uris":{"android":"levelo://app?vid=322e9414-cbd3-4465-a1b3-66beb3ee35e4","ios":"levelo://app?vid=322e9414-cbd3-4465-a1b3-66beb3ee35e4"},"vehicle_type_id":"4","last_reported":1751386466,"current_range_meters":8800,"station_id":"ce4bhh12rcd13ifvqff0","pricing_plan_id":"cebpf4jnsgd1na2vs0mg"},{"bike_id":"051b780c-4523-4a73-8b25-07e20715dadf","system_id":"levelo_inurba_marseille","lat":43.25121,"lon":5.40311,"is_reserved":false,"is_disabled":false,"rental_uris":{"android":"levelo://app?vid=051b780c-4523-4a73-8b25-07e20715dadf","ios":"levelo://app?vid=051b780c-4523-4a73-8b25-07e20715dadf"},"vehicle_type_id":"4","last_reported":1751386466,"current_range_meters":8800,"station_id":"ce4bhlh2rcd13ifvqgig","pricing_plan_id":"cebpf4jnsgd1na2vs0mg"},{"bike_id":"bddc2044-c1c0-407c-95a3-98573d629b44","system_id":"levelo_inurba_marseille","lat":43.24178,"lon":5.39731,"is_reserved":false,"is_disabled":false,"rental_uris":{"android":"levelo://app?vid=bddc2044-c1c0-407c-95a3-98573d629b44","ios":"levelo://app?vid=bddc2044-c1c0-407c-95a3-98573d629b44"},"vehicle_type_id":"4","last_reported":1751386466,"current_range_meters":8800,"station_id":"ce4bhn12rcd13ifvqgpg","pricing_plan_id":"cebpf4jnsgd1na2vs0mg"},{"bike_id":"d0acbfb5-0eb3-41f0-b6bf-952ddb3ae02f","system_id":"levelo_inurba_marseille","lat":43.23199,"lon":5.35553,"is_reserved":false,"is_disabled":false,"rental_uris":{"android":"levelo://app?vid=d0acbfb5-0eb3-41f0-b6bf-952ddb3ae02f","ios":"levelo://app?vid=d0acbfb5-0eb3-41f0-b6bf-952ddb3ae02f"},"vehicle_type_id":"4","last_reported":1751386466,"current_range_meters":8800,"station_id":"ce4bhu92rcd13ifvqi70","pricing_plan_id":"cebpf4jnsgd1na2vs0mg"},{"bike_id":"8252b44a-d048-4379-9209-2efa2e627825","system_id":"levelo_inurba_marseille","lat":43.29219,"lon":5.40575,"is_reserved":false,"is_disabled":false,"rental_uris":{"android":"levelo://app?vid=8252b44a-d048-4379-9209-2efa2e627825","ios":"levelo://app?vid=8252b44a-d048-4379-9209-2efa2e627825"},"vehicle_type_id":"4","last_reported":1751386466,"current_range_meters":9200,"station_id":"","pricing_plan_id":"cebpf4jnsgd1na2vs0mg"},{"bike_id":"33beb512-bac0-49d5-9355-0a8ae1874bcb","system_id":"levelo_inurba_marseille","lat":43.26034,"lon":5.37547,"is_reserved":false,"is_disabled":false,"rental_uris":{"android":"levelo://app?vid=33beb512-bac0-49d5-9355-0a8ae1874bcb","ios":"levelo://app?vid=33beb512-bac0-49d5-9355-0a8ae1874bcb"},"vehicle_type_id":"4","last_reported":1751386466,"current_range_meters":9200,"station_id":"ce4bhgh2rcd13ifvqfa0","pricing_plan_id":"cebpf4jnsgd1na2vs0mg"},{"bike_id":"6b04a8db-f012-4ea9-88f5-d59ff3f24fd9","system_id":"levelo_inurba_marseille","lat":43.2991,"lon":5.43661,"is_reserved":false,"is_disabled":false,"rental_uris":{"android":"levelo://app?vid=6b04a8db-f012-4ea9-88f5-d59ff3f24fd9","ios":"levelo://app?vid=6b04a8db-f012-4ea9-88f5-d59ff3f24fd9"},"vehicle_type_id":"4","last_reported":1751386466,"current_range_meters":9200,"station_id":"ce4bhpp2rcd13ifvqhfg","pricing_plan_id":"cebpf4jnsgd1na2vs0mg"},{"bike_id":"ce66332f-6091-45e6-95c4-9d72c82aae63","system_id":"levelo_inurba_marseille","lat":43.28723,"lon":5.36094,"is_reserved":false,"is_disabled":false,"rental_uris":{"android":"levelo://app?vid=ce66332f-6091-45e6-95c4-9d72c82aae63","ios":"levelo://app?vid=ce66332f-6091-45e6-95c4-9d72c82aae63"},"vehicle_type_id":"4","last_reported":1751386466,"current_range_meters":9200,"station_id":"cki0cbj6b192h4jlfktg","pricing_plan_id":"cebpf4jnsgd1na2vs0mg"},{"bike_id":"f3c57067-1642-42e1-b186-dbe1600ab5c8","system_id":"levelo_inurba_marseille","lat":43.28846,"lon":5.39316,"is_reserved":false,"is_disabled":false,"rental_uris":{"android":"levelo://app?vid=f3c57067-1642-42e1-b186-dbe1600ab5c8","ios":"levelo://app?vid=f3c57067-1642-42e1-b186-dbe1600ab5c8"},"vehicle_type_id":"4","last_reported":1751386466,"current_range_meters":9600,"station_id":"ce4bh2p2rcd13ifvqdi0","pricing_plan_id":"cebpf4jnsgd1na2vs0mg"},{"bike_id":"1f1d65d6-68a3-42fa-93f2-d56169dd7d8f","system_id":"levelo_inurba_marseille","lat":43.261936,"lon":5.37446,"is_reserved":false,"is_disabled":false,"rental_uris":{"android":"levelo://app?vid=1f1d65d6-68a3-42fa-93f2-d56169dd7d8f","ios":"levelo://app?vid=1f1d65d6-68a3-42fa-93f2-d56169dd7d8f"},"vehicle_type_id":"4","last_reported":1751386466,"current_range_meters":9600,"station_id":"ce4bhgp2rcd13ifvqfc0","pricing_plan_id":"cebpf4jnsgd1na2vs0mg"},{"bike_id":"5fba6177-aa78-4856-9366-e4781b44d7ab","system_id":"levelo_inurba_marseille","lat":43.23191,"lon":5.35554,"is_reserved":false,"is_disabled":false,"rental_uris":{"android":"levelo://app?vid=5fba6177-aa78-4856-9366-e4781b44d7ab","ios":"levelo://app?vid=5fba6177-aa78-4856-9366-e4781b44d7ab"},"vehicle_type_id":"4","last_reported":1751386466,"current_range_meters":9600,"station_id":"ce4bhu92rcd13ifvqi70","pricing_plan_id":"cebpf4jnsgd1na2vs0mg"},{"bike_id":"b2ec7371-4e1a-4f7b-ae6c-60c5a54c237b","system_id":"levelo_inurba_marseille","lat":43.21225,"lon":5.35042,"is_reserved":false,"is_disabled":false,"rental_uris":{"android":"levelo://app?vid=b2ec7371-4e1a-4f7b-ae6c-60c5a54c237b","ios":"levelo://app?vid=b2ec7371-4e1a-4f7b-ae6c-60c5a54c237b"},"vehicle_type_id":"4","last_reported":1751386466,"current_range_meters":10000,"station_id":"","pricing_plan_id":"cebpf4jnsgd1na2vs0mg"},{"bike_id":"54758a34-c148-4062-8f42-fc65da2a9f68","system_id":"levelo_inurba_marseille","lat":43.29181,"lon":5.35816,"is_reserved":false,"is_disabled":false,"rental_uris":{"android":"levelo://app?vid=54758a34-c148-4062-8f42-fc65da2a9f68","ios":"levelo://app?vid=54758a34-c148-4062-8f42-fc65da2a9f68"},"vehicle_type_id":"4","last_reported":1751386466,"current_range_meters":10000,"station_id":"ce4bhb12rcd13ifvqel0","pricing_plan_id":"cebpf4jnsgd1na2vs0mg"},{"bike_id":"204e168e-83c4-47d9-a5e6-a02908dece88","system_id":"levelo_inurba_marseille","lat":43.25829,"lon":5.39435,"is_reserved":false,"is_disabled":false,"rental_uris":{"android":"levelo://app?vid=204e168e-83c4-47d9-a5e6-a02908dece88","ios":"levelo://app?vid=204e168e-83c4-47d9-a5e6-a02908dece88"},"vehicle_type_id":"4","last_reported":1751386466,"current_range_meters":10000,"station_id":"ce4bhip2rcd13ifvqft0","pricing_plan_id":"cebpf4jnsgd1na2vs0mg"},{"bike_id":"084f60eb-e737-42b9-9951-28e5f06eb4f8","system_id":"levelo_inurba_marseille","lat":43.23194,"lon":5.35543,"is_reserved":false,"is_disabled":false,"rental_uris":{"android":"levelo://app?vid=084f60eb-e737-42b9-9951-28e5f06eb4f8","ios":"levelo://app?vid=084f60eb-e737-42b9-9951-28e5f06eb4f8"},"vehicle_type_id":"4","last_reported":1751386466,"current_range_meters":10000,"station_id":"ce4bhu92rcd13ifvqi70","pricing_plan_id":"cebpf4jnsgd1na2vs0mg"},{"bike_id":"2c8067c0-1953-4d12-b129-93949bfc36f3","system_id":"levelo_inurba_marseille","lat":43.28666,"lon":5.36341,"is_reserved":false,"is_disabled":false,"rental_uris":{"android":"levelo://app?vid=2c8067c0-1953-4d12-b129-93949bfc36f3","ios":"levelo://app?vid=2c8067c0-1953-4d12-b129-93949bfc36f3"},"vehicle_type_id":"4","last_reported":1751386466,"current_range_meters":10800,"station_id":"ce4bhah2rcd13ifvqej0","pricing_plan_id":"cebpf4jnsgd1na2vs0mg"},{"bike_id":"6e82cda6-ea66-4f37-a1c3-c3ffe25de8d0","system_id":"levelo_inurba_marseille","lat":43.28403,"lon":5.34992,"is_reserved":false,"is_disabled":false,"rental_uris":{"android":"levelo://app?vid=6e82cda6-ea66-4f37-a1c3-c3ffe25de8d0","ios":"levelo://app?vid=6e82cda6-ea66-4f37-a1c3-c3ffe25de8d0"},"vehicle_type_id":"4","last_reported":1751386466,"current_range_meters":10800,"station_id":"ce4bhbh2rcd13ifvqepg","pricing_plan_id":"cebpf4jnsgd1na2vs0mg"},{"bike_id":"03b22496-0c47-4bfb-a2c9-4e153605d4fd","system_id":"levelo_inurba_marseille","lat":43.275,"lon":5.42449,"is_reserved":false,"is_disabled":false,"rental_uris":{"android":"levelo://app?vid=03b22496-0c47-4bfb-a2c9-4e153605d4fd","ios":"levelo://app?vid=03b22496-0c47-4bfb-a2c9-4e153605d4fd"},"vehicle_type_id":"4","last_reported":1751386466,"current_range_meters":10800,"station_id":"ce4bhn92rcd13ifvqgrg","pricing_plan_id":"cebpf4jnsgd1na2vs0mg"},{"bike_id":"fc4f7a6e-d30e-49c2-a3fc-521129bf8cad","system_id":"levelo_inurba_marseille","lat":43.33614,"lon":5.40981,"is_reserved":false,"is_disabled":false,"rental_uris":{"android":"levelo://app?vid=fc4f7a6e-d30e-49c2-a3fc-521129bf8cad","ios":"levelo://app?vid=fc4f7a6e-d30e-49c2-a3fc-521129bf8cad"},"vehicle_type_id":"4","last_reported":1751386466,"current_range_meters":10800,"station_id":"ce4bhqh2rcd13ifvqhmg","pricing_plan_id":"cebpf4jnsgd1na2vs0mg"},{"bike_id":"0c0ed095-209c-4f6c-8f4f-fed88856bc9f","system_id":"levelo_inurba_marseille","lat":43.30428,"lon":5.38897,"is_reserved":false,"is_disabled":false,"rental_uris":{"android":"levelo://app?vid=0c0ed095-209c-4f6c-8f4f-fed88856bc9f","ios":"levelo://app?vid=0c0ed095-209c-4f6c-8f4f-fed88856bc9f"},"vehicle_type_id":"4","last_reported":1751386466,"current_range_meters":11600,"station_id":"ce4bgk12rcd13ifvqbi0","pricing_plan_id":"cebpf4jnsgd1na2vs0mg"},{"bike_id":"4e8f2009-bd81-4fb1-bf53-9a2562646512","system_id":"levelo_inurba_marseille","lat":43.30791,"lon":5.37647,"is_reserved":false,"is_disabled":false,"rental_uris":{"android":"levelo://app?vid=4e8f2009-bd81-4fb1-bf53-9a2562646512","ios":"levelo://app?vid=4e8f2009-bd81-4fb1-bf53-9a2562646512"},"vehicle_type_id":"4","last_reported":1751386466,"current_range_meters":11600,"station_id":"ce4bgv92rcd13ifvqcq0","pricing_plan_id":"cebpf4jnsgd1na2vs0mg"},{"bike_id":"eacdff40-ffca-4f3c-a901-6126fddc1b4d","system_id":"levelo_inurba_marseille","lat":43.27381,"lon":5.36259,"is_reserved":false,"is_disabled":false,"rental_uris":{"android":"levelo://app?vid=eacdff40-ffca-4f3c-a901-6126fddc1b4d","ios":"levelo://app?vid=eacdff40-ffca-4f3c-a901-6126fddc1b4d"},"vehicle_type_id":"4","last_reported":1751386466,"current_range_meters":11600,"station_id":"ce4bhbh2rcd13ifvqeo0","pricing_plan_id":"cebpf4jnsgd1na2vs0mg"},{"bike_id":"b28aa0a0-791c-4a08-9a16-c7bf6ea0ed5a","system_id":"levelo_inurba_marseille","lat":43.22515,"lon":5.34774,"is_reserved":false,"is_disabled":false,"rental_uris":{"android":"levelo://app?vid=b28aa0a0-791c-4a08-9a16-c7bf6ea0ed5a","ios":"levelo://app?vid=b28aa0a0-791c-4a08-9a16-c7bf6ea0ed5a"},"vehicle_type_id":"4","last_reported":1751386466,"current_range_meters":11600,"station_id":"st_cvj5dfep6f1abm77gieg","pricing_plan_id":"cebpf4jnsgd1na2vs0mg"},{"bike_id":"6f5b38b0-c8b7-42ab-a114-d904ae4095f5","system_id":"levelo_inurba_marseille","lat":43.27614,"lon":5.36102,"is_reserved":false,"is_disabled":false,"rental_uris":{"android":"levelo://app?vid=6f5b38b0-c8b7-42ab-a114-d904ae4095f5","ios":"levelo://app?vid=6f5b38b0-c8b7-42ab-a114-d904ae4095f5"},"vehicle_type_id":"4","last_reported":1751386466,"current_range_meters":12000,"station_id":"ce4bgj92rcd13ifvqbe0","pricing_plan_id":"cebpf4jnsgd1na2vs0mg"},{"bike_id":"c2b72fe0-bae6-4c7b-ad48-9e771b203dc8","system_id":"levelo_inurba_marseille","lat":43.313552,"lon":5.384639,"is_reserved":false,"is_disabled":false,"rental_uris":{"android":"levelo://app?vid=c2b72fe0-bae6-4c7b-ad48-9e771b203dc8","ios":"levelo://app?vid=c2b72fe0-bae6-4c7b-ad48-9e771b203dc8"},"vehicle_type_id":"4","last_reported":1751386466,"current_range_meters":12000,"station_id":"ce4bgt92rcd13ifvqcf0","pricing_plan_id":"cebpf4jnsgd1na2vs0mg"},{"bike_id":"965ab76c-4490-41da-acf9-05ef8ff47ce0","system_id":"levelo_inurba_marseille","lat":43.28953,"lon":5.36421,"is_reserved":false,"is_disabled":false,"rental_uris":{"android":"levelo://app?vid=965ab76c-4490-41da-acf9-05ef8ff47ce0","ios":"levelo://app?vid=965ab76c-4490-41da-acf9-05ef8ff47ce0"},"vehicle_type_id":"4","last_reported":1751386466,"current_range_meters":12000,"station_id":"ce4bha92rcd13ifvqeg0","pricing_plan_id":"cebpf4jnsgd1na2vs0mg"},{"bike_id":"2b051b97-cd2b-4c4b-99f1-42c2f572b63e","system_id":"levelo_inurba_marseille","lat":43.273758,"lon":5.362456,"is_reserved":false,"is_disabled":false,"rental_uris":{"android":"levelo://app?vid=2b051b97-cd2b-4c4b-99f1-42c2f572b63e","ios":"levelo://app?vid=2b051b97-cd2b-4c4b-99f1-42c2f572b63e"},"vehicle_type_id":"4","last_reported":1751386466,"current_range_meters":12000,"station_id":"ce4bhbh2rcd13ifvqeo0","pricing_plan_id":"cebpf4jnsgd1na2vs0mg"},{"bike_id":"5bf29275-11f5-49c5-acc9-ae817fdc38f6","system_id":"levelo_inurba_marseille","lat":43.26031,"lon":5.37548,"is_reserved":false,"is_disabled":false,"rental_uris":{"android":"levelo://app?vid=5bf29275-11f5-49c5-acc9-ae817fdc38f6","ios":"levelo://app?vid=5bf29275-11f5-49c5-acc9-ae817fdc38f6"},"vehicle_type_id":"4","last_reported":1751386466,"current_range_meters":12000,"station_id":"ce4bhgh2rcd13ifvqfa0","pricing_plan_id":"cebpf4jnsgd1na2vs0mg"},{"bike_id":"68d2d657-1fa8-453a-b8d2-78e14fe6025f","system_id":"levelo_inurba_marseille","lat":43.24546,"lon":5.39521,"is_reserved":false,"is_disabled":false,"rental_uris":{"android":"levelo://app?vid=68d2d657-1fa8-453a-b8d2-78e14fe6025f","ios":"levelo://app?vid=68d2d657-1fa8-453a-b8d2-78e14fe6025f"},"vehicle_type_id":"4","last_reported":1751386466,"current_range_meters":12000,"station_id":"ce4bhlp2rcd13ifvqgjg","pricing_plan_id":"cebpf4jnsgd1na2vs0mg"},{"bike_id":"b46f372d-f35d-42ce-ba49-1c0c8442729d","system_id":"levelo_inurba_marseille","lat":43.275,"lon":5.42452,"is_reserved":false,"is_disabled":false,"rental_uris":{"android":"levelo://app?vid=b46f372d-f35d-42ce-ba49-1c0c8442729d","ios":"levelo://app?vid=b46f372d-f35d-42ce-ba49-1c0c8442729d"},"vehicle_type_id":"4","last_reported":1751386466,"current_range_meters":12000,"station_id":"ce4bhn92rcd13ifvqgrg","pricing_plan_id":"cebpf4jnsgd1na2vs0mg"},{"bike_id":"05323021-fac7-4fe8-bf8c-c07dba9fe872","system_id":"levelo_inurba_marseille","lat":43.29902,"lon":5.43666,"is_reserved":false,"is_disabled":false,"rental_uris":{"android":"levelo://app?vid=05323021-fac7-4fe8-bf8c-c07dba9fe872","ios":"levelo://app?vid=05323021-fac7-4fe8-bf8c-c07dba9fe872"},"vehicle_type_id":"4","last_reported":1751386466,"current_range_meters":12000,"station_id":"ce4bhpp2rcd13ifvqhfg","pricing_plan_id":"cebpf4jnsgd1na2vs0mg"},{"bike_id":"b58fcd9c-f51e-487c-9cf1-49362eb3ef58","system_id":"levelo_inurba_marseille","lat":43.26214,"lon":5.3745,"is_reserved":false,"is_disabled":false,"rental_uris":{"android":"levelo://app?vid=b58fcd9c-f51e-487c-9cf1-49362eb3ef58","ios":"levelo://app?vid=b58fcd9c-f51e-487c-9cf1-49362eb3ef58"},"vehicle_type_id":"4","last_reported":1751386466,"current_range_meters":12400,"station_id":"ce4bhgp2rcd13ifvqfc0","pricing_plan_id":"cebpf4jnsgd1na2vs0mg"},{"bike_id":"08202df3-b802-433f-8221-8ea179caeedc","system_id":"levelo_inurba_marseille","lat":43.27949,"lon":5.41048,"is_reserved":false,"is_disabled":false,"rental_uris":{"android":"levelo://app?vid=08202df3-b802-433f-8221-8ea179caeedc","ios":"levelo://app?vid=08202df3-b802-433f-8221-8ea179caeedc"},"vehicle_type_id":"4","last_reported":1751386466,"current_range_meters":12400,"station_id":"ce4bhnp2rcd13ifvqh0g","pricing_plan_id":"cebpf4jnsgd1na2vs0mg"},{"bike_id":"5631c7ea-fb56-4ee9-8df0-6e0aa2f0ff30","system_id":"levelo_inurba_marseille","lat":43.241707,"lon":5.363991,"is_reserved":false,"is_disabled":false,"rental_uris":{"android":"levelo://app?vid=5631c7ea-fb56-4ee9-8df0-6e0aa2f0ff30","ios":"levelo://app?vid=5631c7ea-fb56-4ee9-8df0-6e0aa2f0ff30"},"vehicle_type_id":"4","last_reported":1751386466,"current_range_meters":12400,"station_id":"cpo36qri1sfpv3e86is0","pricing_plan_id":"cebpf4jnsgd1na2vs0mg"},{"bike_id":"467f8584-1ce8-4455-bce0-4fa8c7696aab","system_id":"levelo_inurba_marseille","lat":43.30791,"lon":5.37648,"is_reserved":false,"is_disabled":false,"rental_uris":{"android":"levelo://app?vid=467f8584-1ce8-4455-bce0-4fa8c7696aab","ios":"levelo://app?vid=467f8584-1ce8-4455-bce0-4fa8c7696aab"},"vehicle_type_id":"4","last_reported":1751386466,"current_range_meters":12800,"station_id":"ce4bgv92rcd13ifvqcq0","pricing_plan_id":"cebpf4jnsgd1na2vs0mg"},{"bike_id":"6b2844c0-6ac5-4199-9267-8491b8c53fb1","system_id":"levelo_inurba_marseille","lat":43.29803,"lon":5.40393,"is_reserved":false,"is_disabled":false,"rental_uris":{"android":"levelo://app?vid=6b2844c0-6ac5-4199-9267-8491b8c53fb1","ios":"levelo://app?vid=6b2844c0-6ac5-4199-9267-8491b8c53fb1"},"vehicle_type_id":"4","last_reported":1751386466,"current_range_meters":12800,"station_id":"ce4bh112rcd13ifvqd90","pricing_plan_id":"cebpf4jnsgd1na2vs0mg"},{"bike_id":"0b0041ba-89a2-4aa1-bbb3-1439db3f8730","system_id":"levelo_inurba_marseille","lat":43.28853,"lon":5.35847,"is_reserved":false,"is_disabled":false,"rental_uris":{"android":"levelo://app?vid=0b0041ba-89a2-4aa1-bbb3-1439db3f8730","ios":"levelo://app?vid=0b0041ba-89a2-4aa1-bbb3-1439db3f8730"},"vehicle_type_id":"4","last_reported":1751386466,"current_range_meters":12800,"station_id":"ce4bhb12rcd13ifvqem0","pricing_plan_id":"cebpf4jnsgd1na2vs0mg"},{"bike_id":"e95497cd-0e47-40a6-bed5-f21c19c3a603","system_id":"levelo_inurba_marseille","lat":43.29227,"lon":5.3606,"is_reserved":false,"is_disabled":false,"rental_uris":{"android":"levelo://app?vid=e95497cd-0e47-40a6-bed5-f21c19c3a603","ios":"levelo://app?vid=e95497cd-0e47-40a6-bed5-f21c19c3a603"},"vehicle_type_id":"4","last_reported":1751386466,"current_range_meters":12800,"station_id":"ce4bhbh2rcd13ifvqeqg","pricing_plan_id":"cebpf4jnsgd1na2vs0mg"},{"bike_id":"ea959782-4591-4525-a547-71aa5dc459bd","system_id":"levelo_inurba_marseille","lat":43.28625,"lon":5.35104,"is_reserved":false,"is_disabled":false,"rental_uris":{"android":"levelo://app?vid=ea959782-4591-4525-a547-71aa5dc459bd","ios":"levelo://app?vid=ea959782-4591-4525-a547-71aa5dc459bd"},"vehicle_type_id":"4","last_reported":1751386466,"current_range_meters":12800,"station_id":"ce4bhch2rcd13ifvqeug","pricing_plan_id":"cebpf4jnsgd1na2vs0mg"},{"bike_id":"ec24542b-f40a-4c1c-b097-22d6dad283f2","system_id":"levelo_inurba_marseille","lat":43.25114,"lon":5.40341,"is_reserved":false,"is_disabled":false,"rental_uris":{"android":"levelo://app?vid=ec24542b-f40a-4c1c-b097-22d6dad283f2","ios":"levelo://app?vid=ec24542b-f40a-4c1c-b097-22d6dad283f2"},"vehicle_type_id":"4","last_reported":1751386466,"current_range_meters":12800,"station_id":"ce4bhlh2rcd13ifvqgig","pricing_plan_id":"cebpf4jnsgd1na2vs0mg"},{"bike_id":"34ef8d19-abd3-418b-af23-9942dadb071a","system_id":"levelo_inurba_marseille","lat":43.21191,"lon":5.35068,"is_reserved":false,"is_disabled":false,"rental_uris":{"android":"levelo://app?vid=34ef8d19-abd3-418b-af23-9942dadb071a","ios":"levelo://app?vid=34ef8d19-abd3-418b-af23-9942dadb071a"},"vehicle_type_id":"4","last_reported":1751386466,"current_range_meters":12800,"station_id":"st_cvj6sg6p6f1abm77japg","pricing_plan_id":"cebpf4jnsgd1na2vs0mg"},{"bike_id":"11e134fb-b7a7-4abd-b834-b96d2393a08f","system_id":"levelo_inurba_marseille","lat":43.29844,"lon":5.36265,"is_reserved":false,"is_disabled":false,"rental_uris":{"android":"levelo://app?vid=11e134fb-b7a7-4abd-b834-b96d2393a08f","ios":"levelo://app?vid=11e134fb-b7a7-4abd-b834-b96d2393a08f"},"vehicle_type_id":"4","last_reported":1751386466,"current_range_meters":13600,"station_id":"ce4bgpp2rcd13ifvqc3g","pricing_plan_id":"cebpf4jnsgd1na2vs0mg"},{"bike_id":"c8888005-1a11-4ff3-a914-5330d050040e","system_id":"levelo_inurba_marseille","lat":43.28619,"lon":5.35097,"is_reserved":false,"is_disabled":false,"rental_uris":{"android":"levelo://app?vid=c8888005-1a11-4ff3-a914-5330d050040e","ios":"levelo://app?vid=c8888005-1a11-4ff3-a914-5330d050040e"},"vehicle_type_id":"4","last_reported":1751386466,"current_range_meters":13600,"station_id":"ce4bhch2rcd13ifvqeug","pricing_plan_id":"cebpf4jnsgd1na2vs0mg"},{"bike_id":"26578b7e-f474-4eaf-9d8e-1f40b92a0f35","system_id":"levelo_inurba_marseille","lat":43.26215,"lon":5.37442,"is_reserved":false,"is_disabled":false,"rental_uris":{"android":"levelo://app?vid=26578b7e-f474-4eaf-9d8e-1f40b92a0f35","ios":"levelo://app?vid=26578b7e-f474-4eaf-9d8e-1f40b92a0f35"},"vehicle_type_id":"4","last_reported":1751386466,"current_range_meters":13600,"station_id":"ce4bhgp2rcd13ifvqfc0","pricing_plan_id":"cebpf4jnsgd1na2vs0mg"},{"bike_id":"4c9021f4-3013-4c29-a577-f865e72fae7a","system_id":"levelo_inurba_marseille","lat":43.25721,"lon":5.41111,"is_reserved":false,"is_disabled":false,"rental_uris":{"android":"levelo://app?vid=4c9021f4-3013-4c29-a577-f865e72fae7a","ios":"levelo://app?vid=4c9021f4-3013-4c29-a577-f865e72fae7a"},"vehicle_type_id":"4","last_reported":1751386466,"current_range_meters":13600,"station_id":"ce4bhkp2rcd13ifvqgd0","pricing_plan_id":"cebpf4jnsgd1na2vs0mg"},{"bike_id":"7668ad4d-e875-45c5-8cfe-d22f11274d59","system_id":"levelo_inurba_marseille","lat":43.24152,"lon":5.36422,"is_reserved":false,"is_disabled":false,"rental_uris":{"android":"levelo://app?vid=7668ad4d-e875-45c5-8cfe-d22f11274d59","ios":"levelo://app?vid=7668ad4d-e875-45c5-8cfe-d22f11274d59"},"vehicle_type_id":"4","last_reported":1751386466,"current_range_meters":13600,"station_id":"cpo36qri1sfpv3e86is0","pricing_plan_id":"cebpf4jnsgd1na2vs0mg"},{"bike_id":"82522992-39cd-4cc1-bf11-bf1394360248","system_id":"levelo_inurba_marseille","lat":43.3193,"lon":5.37457,"is_reserved":false,"is_disabled":false,"rental_uris":{"android":"levelo://app?vid=82522992-39cd-4cc1-bf11-bf1394360248","ios":"levelo://app?vid=82522992-39cd-4cc1-bf11-bf1394360248"},"vehicle_type_id":"4","last_reported":1751386466,"current_range_meters":14000,"station_id":"","pricing_plan_id":"cebpf4jnsgd1na2vs0mg"},{"bike_id":"1a1464c1-d2e3-4882-a6c1-868b7952f753","system_id":"levelo_inurba_marseille","lat":43.2971,"lon":5.37703,"is_reserved":false,"is_disabled":false,"rental_uris":{"android":"levelo://app?vid=1a1464c1-d2e3-4882-a6c1-868b7952f753","ios":"levelo://app?vid=1a1464c1-d2e3-4882-a6c1-868b7952f753"},"vehicle_type_id":"4","last_reported":1751386466,"current_range_meters":14000,"station_id":"ce4bgkh2rcd13ifvqbl0","pricing_plan_id":"cebpf4jnsgd1na2vs0mg"},{"bike_id":"5f55e236-fb45-42c1-8f03-f9ad6e07f1f2","system_id":"levelo_inurba_marseille","lat":43.31331,"lon":5.39703,"is_reserved":false,"is_disabled":false,"rental_uris":{"android":"levelo://app?vid=5f55e236-fb45-42c1-8f03-f9ad6e07f1f2","ios":"levelo://app?vid=5f55e236-fb45-42c1-8f03-f9ad6e07f1f2"},"vehicle_type_id":"4","last_reported":1751386466,"current_range_meters":14000,"station_id":"ce4bgvp2rcd13ifvqcu0","pricing_plan_id":"cebpf4jnsgd1na2vs0mg"},{"bike_id":"32daead1-daa3-4ae4-8b01-d11f1755c035","system_id":"levelo_inurba_marseille","lat":43.29016,"lon":5.35603,"is_reserved":false,"is_disabled":false,"rental_uris":{"android":"levelo://app?vid=32daead1-daa3-4ae4-8b01-d11f1755c035","ios":"levelo://app?vid=32daead1-daa3-4ae4-8b01-d11f1755c035"},"vehicle_type_id":"4","last_reported":1751386466,"current_range_meters":14000,"station_id":"ce4bhb92rcd13ifvqen0","pricing_plan_id":"cebpf4jnsgd1na2vs0mg"},{"bike_id":"574b1796-65fa-4484-afc0-58c37498601d","system_id":"levelo_inurba_marseille","lat":43.26567,"lon":5.39007,"is_reserved":false,"is_disabled":false,"rental_uris":{"android":"levelo://app?vid=574b1796-65fa-4484-afc0-58c37498601d","ios":"levelo://app?vid=574b1796-65fa-4484-afc0-58c37498601d"},"vehicle_type_id":"4","last_reported":1751386466,"current_range_meters":14000,"station_id":"ce4bhe12rcd13ifvqf30","pricing_plan_id":"cebpf4jnsgd1na2vs0mg"},{"bike_id":"9bcee31e-00e7-4776-8150-82b6a951fc76","system_id":"levelo_inurba_marseille","lat":43.255,"lon":5.3765,"is_reserved":false,"is_disabled":false,"rental_uris":{"android":"levelo://app?vid=9bcee31e-00e7-4776-8150-82b6a951fc76","ios":"levelo://app?vid=9bcee31e-00e7-4776-8150-82b6a951fc76"},"vehicle_type_id":"4","last_reported":1751386466,"current_range_meters":14000,"station_id":"ce4bhh12rcd13ifvqff0","pricing_plan_id":"cebpf4jnsgd1na2vs0mg"},{"bike_id":"779c5b5f-1ba8-40bf-9abc-2b21866a9709","system_id":"levelo_inurba_marseille","lat":43.26791,"lon":5.3942,"is_reserved":false,"is_disabled":false,"rental_uris":{"android":"levelo://app?vid=779c5b5f-1ba8-40bf-9abc-2b21866a9709","ios":"levelo://app?vid=779c5b5f-1ba8-40bf-9abc-2b21866a9709"},"vehicle_type_id":"4","last_reported":1751386466,"current_range_meters":14000,"station_id":"ce4bhh12rcd13ifvqfg0","pricing_plan_id":"cebpf4jnsgd1na2vs0mg"},{"bike_id":"137178b2-e77a-487f-8990-1036094e4c7a","system_id":"levelo_inurba_marseille","lat":43.2512,"lon":5.40317,"is_reserved":false,"is_disabled":false,"rental_uris":{"android":"levelo://app?vid=137178b2-e77a-487f-8990-1036094e4c7a","ios":"levelo://app?vid=137178b2-e77a-487f-8990-1036094e4c7a"},"vehicle_type_id":"4","last_reported":1751386466,"current_range_meters":14000,"station_id":"ce4bhlh2rcd13ifvqgig","pricing_plan_id":"cebpf4jnsgd1na2vs0mg"},{"bike_id":"859b6cf6-411c-4a6e-b2f1-d5866da46ff7","system_id":"levelo_inurba_marseille","lat":43.24157,"lon":5.3642,"is_reserved":false,"is_disabled":false,"rental_uris":{"android":"levelo://app?vid=859b6cf6-411c-4a6e-b2f1-d5866da46ff7","ios":"levelo://app?vid=859b6cf6-411c-4a6e-b2f1-d5866da46ff7"},"vehicle_type_id":"4","last_reported":1751386466,"current_range_meters":14000,"station_id":"cpo36qri1sfpv3e86is0","pricing_plan_id":"cebpf4jnsgd1na2vs0mg"},{"bike_id":"c0228700-5312-4a39-89af-ec53a5d729c5","system_id":"levelo_inurba_marseille","lat":43.28267,"lon":5.43296,"is_reserved":false,"is_disabled":false,"rental_uris":{"android":"levelo://app?vid=c0228700-5312-4a39-89af-ec53a5d729c5","ios":"levelo://app?vid=c0228700-5312-4a39-89af-ec53a5d729c5"},"vehicle_type_id":"4","last_reported":1751386466,"current_range_meters":14400,"station_id":"","pricing_plan_id":"cebpf4jnsgd1na2vs0mg"},{"bike_id":"c61036a9-1a66-4480-8bd4-cd2fb585b287","system_id":"levelo_inurba_marseille","lat":43.26993,"lon":5.40565,"is_reserved":false,"is_disabled":false,"rental_uris":{"android":"levelo://app?vid=c61036a9-1a66-4480-8bd4-cd2fb585b287","ios":"levelo://app?vid=c61036a9-1a66-4480-8bd4-cd2fb585b287"},"vehicle_type_id":"4","last_reported":1751386466,"current_range_meters":14400,"station_id":"","pricing_plan_id":"cebpf4jnsgd1na2vs0mg"},{"bike_id":"696d673f-b6ce-4c9b-8169-5400424b05f9","system_id":"levelo_inurba_marseille","lat":43.284088,"lon":5.349946,"is_reserved":false,"is_disabled":false,"rental_uris":{"android":"levelo://app?vid=696d673f-b6ce-4c9b-8169-5400424b05f9","ios":"levelo://app?vid=696d673f-b6ce-4c9b-8169-5400424b05f9"},"vehicle_type_id":"4","last_reported":1751386466,"current_range_meters":14400,"station_id":"ce4bhbh2rcd13ifvqepg","pricing_plan_id":"cebpf4jnsgd1na2vs0mg"},{"bike_id":"81992fe8-b1ca-4291-86c6-3056f2675e75","system_id":"levelo_inurba_marseille","lat":43.28409,"lon":5.34974,"is_reserved":false,"is_disabled":false,"rental_uris":{"android":"levelo://app?vid=81992fe8-b1ca-4291-86c6-3056f2675e75","ios":"levelo://app?vid=81992fe8-b1ca-4291-86c6-3056f2675e75"},"vehicle_type_id":"4","last_reported":1751386466,"current_range_meters":14400,"station_id":"ce4bhbh2rcd13ifvqepg","pricing_plan_id":"cebpf4jnsgd1na2vs0mg"},{"bike_id":"3d03fb95-8e3b-4596-876f-491b9dec2687","system_id":"levelo_inurba_marseille","lat":43.26214,"lon":5.37445,"is_reserved":false,"is_disabled":false,"rental_uris":{"android":"levelo://app?vid=3d03fb95-8e3b-4596-876f-491b9dec2687","ios":"levelo://app?vid=3d03fb95-8e3b-4596-876f-491b9dec2687"},"vehicle_type_id":"4","last_reported":1751386466,"current_range_meters":14800,"station_id":"ce4bhgp2rcd13ifvqfc0","pricing_plan_id":"cebpf4jnsgd1na2vs0mg"},{"bike_id":"64399565-293a-4e1d-be97-0043f817f968","system_id":"levelo_inurba_marseille","lat":43.30267,"lon":5.40079,"is_reserved":false,"is_disabled":false,"rental_uris":{"android":"levelo://app?vid=64399565-293a-4e1d-be97-0043f817f968","ios":"levelo://app?vid=64399565-293a-4e1d-be97-0043f817f968"},"vehicle_type_id":"4","last_reported":1751386466,"current_range_meters":15200,"station_id":"ce4bgvh2rcd13ifvqcs0","pricing_plan_id":"cebpf4jnsgd1na2vs0mg"},{"bike_id":"5e34acc0-9ea0-4722-904a-bb0c0bf431c1","system_id":"levelo_inurba_marseille","lat":43.31337,"lon":5.39687,"is_reserved":false,"is_disabled":false,"rental_uris":{"android":"levelo://app?vid=5e34acc0-9ea0-4722-904a-bb0c0bf431c1","ios":"levelo://app?vid=5e34acc0-9ea0-4722-904a-bb0c0bf431c1"},"vehicle_type_id":"4","last_reported":1751386466,"current_range_meters":15200,"station_id":"ce4bgvp2rcd13ifvqcu0","pricing_plan_id":"cebpf4jnsgd1na2vs0mg"},{"bike_id":"a35fd308-4796-4568-81ac-3cbecddda143","system_id":"levelo_inurba_marseille","lat":43.29217,"lon":5.36082,"is_reserved":false,"is_disabled":false,"rental_uris":{"android":"levelo://app?vid=a35fd308-4796-4568-81ac-3cbecddda143","ios":"levelo://app?vid=a35fd308-4796-4568-81ac-3cbecddda143"},"vehicle_type_id":"4","last_reported":1751386466,"current_range_meters":15200,"station_id":"ce4bhbh2rcd13ifvqeqg","pricing_plan_id":"cebpf4jnsgd1na2vs0mg"},{"bike_id":"87da69d2-fd7b-4c7d-85ac-91655dad04d8","system_id":"levelo_inurba_marseille","lat":43.24082,"lon":5.37751,"is_reserved":false,"is_disabled":false,"rental_uris":{"android":"levelo://app?vid=87da69d2-fd7b-4c7d-85ac-91655dad04d8","ios":"levelo://app?vid=87da69d2-fd7b-4c7d-85ac-91655dad04d8"},"vehicle_type_id":"4","last_reported":1751386466,"current_range_meters":15200,"station_id":"ce4bhnp2rcd13ifvqgvg","pricing_plan_id":"cebpf4jnsgd1na2vs0mg"},{"bike_id":"2726f14f-8d32-4e17-9b3e-62cc809675e1","system_id":"levelo_inurba_marseille","lat":43.32105,"lon":5.36784,"is_reserved":false,"is_disabled":false,"rental_uris":{"android":"levelo://app?vid=2726f14f-8d32-4e17-9b3e-62cc809675e1","ios":"levelo://app?vid=2726f14f-8d32-4e17-9b3e-62cc809675e1"},"vehicle_type_id":"4","last_reported":1751386466,"current_range_meters":15200,"station_id":"ce4bhrh2rcd13ifvqhug","pricing_plan_id":"cebpf4jnsgd1na2vs0mg"},{"bike_id":"6335e18e-9829-4571-82f7-23b6ce10fe5e","system_id":"levelo_inurba_marseille","lat":43.24165,"lon":5.36401,"is_reserved":false,"is_disabled":false,"rental_uris":{"android":"levelo://app?vid=6335e18e-9829-4571-82f7-23b6ce10fe5e","ios":"levelo://app?vid=6335e18e-9829-4571-82f7-23b6ce10fe5e"},"vehicle_type_id":"4","last_reported":1751386466,"current_range_meters":15200,"station_id":"cpo36qri1sfpv3e86is0","pricing_plan_id":"cebpf4jnsgd1na2vs0mg"},{"bike_id":"86fa6ce7-8cbe-47ff-b5d3-c2b4938fd05c","system_id":"levelo_inurba_marseille","lat":43.21203,"lon":5.35077,"is_reserved":false,"is_disabled":false,"rental_uris":{"android":"levelo://app?vid=86fa6ce7-8cbe-47ff-b5d3-c2b4938fd05c","ios":"levelo://app?vid=86fa6ce7-8cbe-47ff-b5d3-c2b4938fd05c"},"vehicle_type_id":"4","last_reported":1751386466,"current_range_meters":16000,"station_id":"","pricing_plan_id":"cebpf4jnsgd1na2vs0mg"},{"bike_id":"39b6888d-58e4-4d91-b73c-294945f07694","system_id":"levelo_inurba_marseille","lat":43.27619,"lon":5.36128,"is_reserved":false,"is_disabled":false,"rental_uris":{"android":"levelo://app?vid=39b6888d-58e4-4d91-b73c-294945f07694","ios":"levelo://app?vid=39b6888d-58e4-4d91-b73c-294945f07694"},"vehicle_type_id":"4","last_reported":1751386466,"current_range_meters":16000,"station_id":"ce4bgj92rcd13ifvqbe0","pricing_plan_id":"cebpf4jnsgd1na2vs0mg"},{"bike_id":"1bd133a6-32c5-4068-8cff-ddbe80fd0c31","system_id":"levelo_inurba_marseille","lat":43.27374,"lon":5.36261,"is_reserved":false,"is_disabled":false,"rental_uris":{"android":"levelo://app?vid=1bd133a6-32c5-4068-8cff-ddbe80fd0c31","ios":"levelo://app?vid=1bd133a6-32c5-4068-8cff-ddbe80fd0c31"},"vehicle_type_id":"4","last_reported":1751386466,"current_range_meters":16000,"station_id":"ce4bhbh2rcd13ifvqeo0","pricing_plan_id":"cebpf4jnsgd1na2vs0mg"},{"bike_id":"628a2f20-5d49-454c-81f6-0eb8e4ac8a6b","system_id":"levelo_inurba_marseille","lat":43.28268,"lon":5.3506,"is_reserved":false,"is_disabled":false,"rental_uris":{"android":"levelo://app?vid=628a2f20-5d49-454c-81f6-0eb8e4ac8a6b","ios":"levelo://app?vid=628a2f20-5d49-454c-81f6-0eb8e4ac8a6b"},"vehicle_type_id":"4","last_reported":1751386466,"current_range_meters":16000,"station_id":"ce4bhbp2rcd13ifvqerg","pricing_plan_id":"cebpf4jnsgd1na2vs0mg"},{"bike_id":"539ed013-9e80-448a-999f-a7819f54786a","system_id":"levelo_inurba_marseille","lat":43.290309,"lon":5.375668,"is_reserved":false,"is_disabled":false,"rental_uris":{"android":"levelo://app?vid=539ed013-9e80-448a-999f-a7819f54786a","ios":"levelo://app?vid=539ed013-9e80-448a-999f-a7819f54786a"},"vehicle_type_id":"4","last_reported":1751386466,"current_range_meters":16400,"station_id":"","pricing_plan_id":"cebpf4jnsgd1na2vs0mg"},{"bike_id":"60aed5b4-04a7-4930-a9c4-5540cdbcfb8b","system_id":"levelo_inurba_marseille","lat":43.337587,"lon":5.374462,"is_reserved":false,"is_disabled":false,"rental_uris":{"android":"levelo://app?vid=60aed5b4-04a7-4930-a9c4-5540cdbcfb8b","ios":"levelo://app?vid=60aed5b4-04a7-4930-a9c4-5540cdbcfb8b"},"vehicle_type_id":"4","last_reported":1751386466,"current_range_meters":16400,"station_id":"","pricing_plan_id":"cebpf4jnsgd1na2vs0mg"},{"bike_id":"56cde5d8-ec1c-4ccb-b085-a47178c7b123","system_id":"levelo_inurba_marseille","lat":43.30126,"lon":5.39873,"is_reserved":false,"is_disabled":false,"rental_uris":{"android":"levelo://app?vid=56cde5d8-ec1c-4ccb-b085-a47178c7b123","ios":"levelo://app?vid=56cde5d8-ec1c-4ccb-b085-a47178c7b123"},"vehicle_type_id":"4","last_reported":1751386466,"current_range_meters":16400,"station_id":"ce4bh0h2rcd13ifvqd40","pricing_plan_id":"cebpf4jnsgd1na2vs0mg"},{"bike_id":"ad60e878-798d-4a71-8661-f014c7990c7d","system_id":"levelo_inurba_marseille","lat":43.28261,"lon":5.35064,"is_reserved":false,"is_disabled":false,"rental_uris":{"android":"levelo://app?vid=ad60e878-798d-4a71-8661-f014c7990c7d","ios":"levelo://app?vid=ad60e878-798d-4a71-8661-f014c7990c7d"},"vehicle_type_id":"4","last_reported":1751386466,"current_range_meters":16400,"station_id":"ce4bhbp2rcd13ifvqerg","pricing_plan_id":"cebpf4jnsgd1na2vs0mg"},{"bike_id":"3c7409b9-5471-4541-adae-ed75f2da3b11","system_id":"levelo_inurba_marseille","lat":43.27994,"lon":5.41665,"is_reserved":false,"is_disabled":false,"rental_uris":{"android":"levelo://app?vid=3c7409b9-5471-4541-adae-ed75f2da3b11","ios":"levelo://app?vid=3c7409b9-5471-4541-adae-ed75f2da3b11"},"vehicle_type_id":"4","last_reported":1751386466,"current_range_meters":16400,"station_id":"ce4bho12rcd13ifvqh1g","pricing_plan_id":"cebpf4jnsgd1na2vs0mg"},{"bike_id":"49fce732-83f0-4c3a-8127-eef47cf9b2eb","system_id":"levelo_inurba_marseille","lat":43.27998,"lon":5.41664,"is_reserved":false,"is_disabled":false,"rental_uris":{"android":"levelo://app?vid=49fce732-83f0-4c3a-8127-eef47cf9b2eb","ios":"levelo://app?vid=49fce732-83f0-4c3a-8127-eef47cf9b2eb"},"vehicle_type_id":"4","last_reported":1751386466,"current_range_meters":16400,"station_id":"ce4bho12rcd13ifvqh1g","pricing_plan_id":"cebpf4jnsgd1na2vs0mg"},{"bike_id":"4885ce13-1691-4ab1-8f84-23edfb3318ba","system_id":"levelo_inurba_marseille","lat":43.23197,"lon":5.35537,"is_reserved":false,"is_disabled":false,"rental_uris":{"android":"levelo://app?vid=4885ce13-1691-4ab1-8f84-23edfb3318ba","ios":"levelo://app?vid=4885ce13-1691-4ab1-8f84-23edfb3318ba"},"vehicle_type_id":"4","last_reported":1751386466,"current_range_meters":16400,"station_id":"ce4bhu92rcd13ifvqi70","pricing_plan_id":"cebpf4jnsgd1na2vs0mg"},{"bike_id":"8233db61-1d36-41a5-a985-c98b6a5f0fb4","system_id":"levelo_inurba_marseille","lat":43.21753,"lon":5.3461,"is_reserved":false,"is_disabled":false,"rental_uris":{"android":"levelo://app?vid=8233db61-1d36-41a5-a985-c98b6a5f0fb4","ios":"levelo://app?vid=8233db61-1d36-41a5-a985-c98b6a5f0fb4"},"vehicle_type_id":"4","last_reported":1751386466,"current_range_meters":16400,"station_id":"st_cvj6r9ubvosntc0bgbag","pricing_plan_id":"cebpf4jnsgd1na2vs0mg"},{"bike_id":"a0cef316-ad95-4855-8f78-a31341a2b90e","system_id":"levelo_inurba_marseille","lat":43.312841,"lon":5.378203,"is_reserved":false,"is_disabled":false,"rental_uris":{"android":"levelo://app?vid=a0cef316-ad95-4855-8f78-a31341a2b90e","ios":"levelo://app?vid=a0cef316-ad95-4855-8f78-a31341a2b90e"},"vehicle_type_id":"4","last_reported":1751386466,"current_range_meters":16800,"station_id":"","pricing_plan_id":"cebpf4jnsgd1na2vs0mg"},{"bike_id":"f771f902-6474-4634-b945-06d1f9c4a09c","system_id":"levelo_inurba_marseille","lat":43.28661,"lon":5.36341,"is_reserved":false,"is_disabled":false,"rental_uris":{"android":"levelo://app?vid=f771f902-6474-4634-b945-06d1f9c4a09c","ios":"levelo://app?vid=f771f902-6474-4634-b945-06d1f9c4a09c"},"vehicle_type_id":"4","last_reported":1751386466,"current_range_meters":16800,"station_id":"ce4bhah2rcd13ifvqej0","pricing_plan_id":"cebpf4jnsgd1na2vs0mg"},{"bike_id":"edd3f5ea-c0b4-44a7-96c4-f5251efb23ed","system_id":"levelo_inurba_marseille","lat":43.284149,"lon":5.349885,"is_reserved":false,"is_disabled":false,"rental_uris":{"android":"levelo://app?vid=edd3f5ea-c0b4-44a7-96c4-f5251efb23ed","ios":"levelo://app?vid=edd3f5ea-c0b4-44a7-96c4-f5251efb23ed"},"vehicle_type_id":"4","last_reported":1751386466,"current_range_meters":16800,"station_id":"ce4bhbh2rcd13ifvqepg","pricing_plan_id":"cebpf4jnsgd1na2vs0mg"},{"bike_id":"a34e6786-b006-48ad-94d8-bad1c2cc64ee","system_id":"levelo_inurba_marseille","lat":43.28262,"lon":5.35065,"is_reserved":false,"is_disabled":false,"rental_uris":{"android":"levelo://app?vid=a34e6786-b006-48ad-94d8-bad1c2cc64ee","ios":"levelo://app?vid=a34e6786-b006-48ad-94d8-bad1c2cc64ee"},"vehicle_type_id":"4","last_reported":1751386466,"current_range_meters":16800,"station_id":"ce4bhbp2rcd13ifvqerg","pricing_plan_id":"cebpf4jnsgd1na2vs0mg"},{"bike_id":"1b1d2a55-7937-4e4f-8e1d-0772a66cddb7","system_id":"levelo_inurba_marseille","lat":43.2863,"lon":5.35091,"is_reserved":false,"is_disabled":false,"rental_uris":{"android":"levelo://app?vid=1b1d2a55-7937-4e4f-8e1d-0772a66cddb7","ios":"levelo://app?vid=1b1d2a55-7937-4e4f-8e1d-0772a66cddb7"},"vehicle_type_id":"4","last_reported":1751386466,"current_range_meters":16800,"station_id":"ce4bhch2rcd13ifvqeug","pricing_plan_id":"cebpf4jnsgd1na2vs0mg"},{"bike_id":"0c1b4f74-5294-4b59-932d-b742ce647d9e","system_id":"levelo_inurba_marseille","lat":43.212,"lon":5.35088,"is_reserved":false,"is_disabled":false,"rental_uris":{"android":"levelo://app?vid=0c1b4f74-5294-4b59-932d-b742ce647d9e","ios":"levelo://app?vid=0c1b4f74-5294-4b59-932d-b742ce647d9e"},"vehicle_type_id":"4","last_reported":1751386466,"current_range_meters":16800,"station_id":"st_cvj6sg6p6f1abm77japg","pricing_plan_id":"cebpf4jnsgd1na2vs0mg"},{"bike_id":"8a74f5cd-9efa-4362-bea7-a32db4dcc85c","system_id":"levelo_inurba_marseille","lat":43.21189,"lon":5.35086,"is_reserved":false,"is_disabled":false,"rental_uris":{"android":"levelo://app?vid=8a74f5cd-9efa-4362-bea7-a32db4dcc85c","ios":"levelo://app?vid=8a74f5cd-9efa-4362-bea7-a32db4dcc85c"},"vehicle_type_id":"4","last_reported":1751386466,"current_range_meters":16800,"station_id":"st_cvj6sg6p6f1abm77japg","pricing_plan_id":"cebpf4jnsgd1na2vs0mg"},{"bike_id":"b109b974-301f-4590-9bf7-f246424d79b6","system_id":"levelo_inurba_marseille","lat":43.28848,"lon":5.35842,"is_reserved":false,"is_disabled":false,"rental_uris":{"android":"levelo://app?vid=b109b974-301f-4590-9bf7-f246424d79b6","ios":"levelo://app?vid=b109b974-301f-4590-9bf7-f246424d79b6"},"vehicle_type_id":"4","last_reported":1751386466,"current_range_meters":17200,"station_id":"ce4bhb12rcd13ifvqem0","pricing_plan_id":"cebpf4jnsgd1na2vs0mg"},{"bike_id":"06138e4b-7898-487b-bfe9-9822d30f71dc","system_id":"levelo_inurba_marseille","lat":43.28844,"lon":5.35852,"is_reserved":false,"is_disabled":false,"rental_uris":{"android":"levelo://app?vid=06138e4b-7898-487b-bfe9-9822d30f71dc","ios":"levelo://app?vid=06138e4b-7898-487b-bfe9-9822d30f71dc"},"vehicle_type_id":"4","last_reported":1751386466,"current_range_meters":17200,"station_id":"ce4bhb12rcd13ifvqem0","pricing_plan_id":"cebpf4jnsgd1na2vs0mg"},{"bike_id":"9e004f46-a20a-40ec-8953-1e403b7fac4d","system_id":"levelo_inurba_marseille","lat":43.29003,"lon":5.35618,"is_reserved":false,"is_disabled":false,"rental_uris":{"android":"levelo://app?vid=9e004f46-a20a-40ec-8953-1e403b7fac4d","ios":"levelo://app?vid=9e004f46-a20a-40ec-8953-1e403b7fac4d"},"vehicle_type_id":"4","last_reported":1751386466,"current_range_meters":17200,"station_id":"ce4bhb92rcd13ifvqen0","pricing_plan_id":"cebpf4jnsgd1na2vs0mg"},{"bike_id":"c2cc3873-3136-4ba7-984d-6514f2a6bcc2","system_id":"levelo_inurba_marseille","lat":43.26692,"lon":5.3827,"is_reserved":false,"is_disabled":false,"rental_uris":{"android":"levelo://app?vid=c2cc3873-3136-4ba7-984d-6514f2a6bcc2","ios":"levelo://app?vid=c2cc3873-3136-4ba7-984d-6514f2a6bcc2"},"vehicle_type_id":"4","last_reported":1751386466,"current_range_meters":17200,"station_id":"ce4bhg92rcd13ifvqf90","pricing_plan_id":"cebpf4jnsgd1na2vs0mg"},{"bike_id":"be6e912c-cb5c-421a-8bff-c8fea69fbfbc","system_id":"levelo_inurba_marseille","lat":43.23078,"lon":5.35494,"is_reserved":false,"is_disabled":false,"rental_uris":{"android":"levelo://app?vid=be6e912c-cb5c-421a-8bff-c8fea69fbfbc","ios":"levelo://app?vid=be6e912c-cb5c-421a-8bff-c8fea69fbfbc"},"vehicle_type_id":"4","last_reported":1751386466,"current_range_meters":17200,"station_id":"cpo3342slgdg3j2ifvpg","pricing_plan_id":"cebpf4jnsgd1na2vs0mg"},{"bike_id":"cac7cff8-a910-4914-851d-cff4ba90063f","system_id":"levelo_inurba_marseille","lat":43.30464,"lon":5.37902,"is_reserved":false,"is_disabled":false,"rental_uris":{"android":"levelo://app?vid=cac7cff8-a910-4914-851d-cff4ba90063f","ios":"levelo://app?vid=cac7cff8-a910-4914-851d-cff4ba90063f"},"vehicle_type_id":"4","last_reported":1751386466,"current_range_meters":17600,"station_id":"ce4bgup2rcd13ifvqcn0","pricing_plan_id":"cebpf4jnsgd1na2vs0mg"},{"bike_id":"147beee9-0e63-41a3-a0e4-f2f1b06f7731","system_id":"levelo_inurba_marseille","lat":43.28458,"lon":5.3589,"is_reserved":false,"is_disabled":false,"rental_uris":{"android":"levelo://app?vid=147beee9-0e63-41a3-a0e4-f2f1b06f7731","ios":"levelo://app?vid=147beee9-0e63-41a3-a0e4-f2f1b06f7731"},"vehicle_type_id":"4","last_reported":1751386466,"current_range_meters":17600,"station_id":"ce4bhah2rcd13ifvqei0","pricing_plan_id":"cebpf4jnsgd1na2vs0mg"},{"bike_id":"1e6b9f52-da41-4d6b-90e7-4aee7cbf4f90","system_id":"levelo_inurba_marseille","lat":43.28604,"lon":5.351,"is_reserved":false,"is_disabled":false,"rental_uris":{"android":"levelo://app?vid=1e6b9f52-da41-4d6b-90e7-4aee7cbf4f90","ios":"levelo://app?vid=1e6b9f52-da41-4d6b-90e7-4aee7cbf4f90"},"vehicle_type_id":"4","last_reported":1751386466,"current_range_meters":17600,"station_id":"ce4bhch2rcd13ifvqeug","pricing_plan_id":"cebpf4jnsgd1na2vs0mg"},{"bike_id":"d620e1d3-96d1-4dd8-89e9-2d0bbbe82ee9","system_id":"levelo_inurba_marseille","lat":43.243723,"lon":5.370539,"is_reserved":false,"is_disabled":false,"rental_uris":{"android":"levelo://app?vid=d620e1d3-96d1-4dd8-89e9-2d0bbbe82ee9","ios":"levelo://app?vid=d620e1d3-96d1-4dd8-89e9-2d0bbbe82ee9"},"vehicle_type_id":"4","last_reported":1751386466,"current_range_meters":17600,"station_id":"ce4bhhh2rcd13ifvqfk0","pricing_plan_id":"cebpf4jnsgd1na2vs0mg"},{"bike_id":"afb78327-cc2c-423c-9e7b-9e6a58647879","system_id":"levelo_inurba_marseille","lat":43.33692,"lon":5.39214,"is_reserved":false,"is_disabled":false,"rental_uris":{"android":"levelo://app?vid=afb78327-cc2c-423c-9e7b-9e6a58647879","ios":"levelo://app?vid=afb78327-cc2c-423c-9e7b-9e6a58647879"},"vehicle_type_id":"4","last_reported":1751386466,"current_range_meters":17600,"station_id":"ce4bhr92rcd13ifvqhsg","pricing_plan_id":"cebpf4jnsgd1na2vs0mg"},{"bike_id":"3e39818d-3df9-4257-b65f-e435e2d653f4","system_id":"levelo_inurba_marseille","lat":43.26388,"lon":5.384004,"is_reserved":false,"is_disabled":false,"rental_uris":{"android":"levelo://app?vid=3e39818d-3df9-4257-b65f-e435e2d653f4","ios":"levelo://app?vid=3e39818d-3df9-4257-b65f-e435e2d653f4"},"vehicle_type_id":"4","last_reported":1751386466,"current_range_meters":18000,"station_id":"","pricing_plan_id":"cebpf4jnsgd1na2vs0mg"},{"bike_id":"fdcc33b3-b27b-4fd9-90cb-c9421efe9db6","system_id":"levelo_inurba_marseille","lat":43.278164,"lon":5.414456,"is_reserved":false,"is_disabled":false,"rental_uris":{"android":"levelo://app?vid=fdcc33b3-b27b-4fd9-90cb-c9421efe9db6","ios":"levelo://app?vid=fdcc33b3-b27b-4fd9-90cb-c9421efe9db6"},"vehicle_type_id":"4","last_reported":1751386466,"current_range_meters":18000,"station_id":"","pricing_plan_id":"cebpf4jnsgd1na2vs0mg"},{"bike_id":"f00e3044-9bd1-48b5-b342-151af21b34fa","system_id":"levelo_inurba_marseille","lat":43.299811,"lon":5.374221,"is_reserved":false,"is_disabled":false,"rental_uris":{"android":"levelo://app?vid=f00e3044-9bd1-48b5-b342-151af21b34fa","ios":"levelo://app?vid=f00e3044-9bd1-48b5-b342-151af21b34fa"},"vehicle_type_id":"4","last_reported":1751386466,"current_range_meters":18000,"station_id":"","pricing_plan_id":"cebpf4jnsgd1na2vs0mg"},{"bike_id":"2b09f7f0-84f2-4a6c-94d4-643d19c6f70c","system_id":"levelo_inurba_marseille","lat":43.30251,"lon":5.40052,"is_reserved":false,"is_disabled":false,"rental_uris":{"android":"levelo://app?vid=2b09f7f0-84f2-4a6c-94d4-643d19c6f70c","ios":"levelo://app?vid=2b09f7f0-84f2-4a6c-94d4-643d19c6f70c"},"vehicle_type_id":"4","last_reported":1751386466,"current_range_meters":18000,"station_id":"ce4bgvh2rcd13ifvqcs0","pricing_plan_id":"cebpf4jnsgd1na2vs0mg"},{"bike_id":"06582479-ddab-442b-aa48-7598470b3769","system_id":"levelo_inurba_marseille","lat":43.28415,"lon":5.34977,"is_reserved":false,"is_disabled":false,"rental_uris":{"android":"levelo://app?vid=06582479-ddab-442b-aa48-7598470b3769","ios":"levelo://app?vid=06582479-ddab-442b-aa48-7598470b3769"},"vehicle_type_id":"4","last_reported":1751386466,"current_range_meters":18000,"station_id":"ce4bhbh2rcd13ifvqepg","pricing_plan_id":"cebpf4jnsgd1na2vs0mg"},{"bike_id":"437d4bb8-f298-4c73-9b8d-920f3e983108","system_id":"levelo_inurba_marseille","lat":43.2694,"lon":5.40259,"is_reserved":false,"is_disabled":false,"rental_uris":{"android":"levelo://app?vid=437d4bb8-f298-4c73-9b8d-920f3e983108","ios":"levelo://app?vid=437d4bb8-f298-4c73-9b8d-920f3e983108"},"vehicle_type_id":"4","last_reported":1751386466,"current_range_meters":18000,"station_id":"cjm6bp8fraef2m0cb0m0","pricing_plan_id":"cebpf4jnsgd1na2vs0mg"},{"bike_id":"d0f90c24-dd03-411b-9731-55305f76b7c8","system_id":"levelo_inurba_marseille","lat":43.211925,"lon":5.350743,"is_reserved":false,"is_disabled":false,"rental_uris":{"android":"levelo://app?vid=d0f90c24-dd03-411b-9731-55305f76b7c8","ios":"levelo://app?vid=d0f90c24-dd03-411b-9731-55305f76b7c8"},"vehicle_type_id":"4","last_reported":1751386466,"current_range_meters":18000,"station_id":"st_cvj6sg6p6f1abm77japg","pricing_plan_id":"cebpf4jnsgd1na2vs0mg"},{"bike_id":"c56617b6-6ca0-442a-a9b2-24fae3d3ee48","system_id":"levelo_inurba_marseille","lat":43.29054,"lon":5.35923,"is_reserved":false,"is_disabled":false,"rental_uris":{"android":"levelo://app?vid=c56617b6-6ca0-442a-a9b2-24fae3d3ee48","ios":"levelo://app?vid=c56617b6-6ca0-442a-a9b2-24fae3d3ee48"},"vehicle_type_id":"4","last_reported":1751386466,"current_range_meters":18800,"station_id":"ce4bha92rcd13ifvqeg0","pricing_plan_id":"cebpf4jnsgd1na2vs0mg"},{"bike_id":"b69516a8-45a4-46a5-a77d-ec8bf6529d36","system_id":"levelo_inurba_marseille","lat":43.28853,"lon":5.3585,"is_reserved":false,"is_disabled":false,"rental_uris":{"android":"levelo://app?vid=b69516a8-45a4-46a5-a77d-ec8bf6529d36","ios":"levelo://app?vid=b69516a8-45a4-46a5-a77d-ec8bf6529d36"},"vehicle_type_id":"4","last_reported":1751386466,"current_range_meters":18800,"station_id":"ce4bhb12rcd13ifvqem0","pricing_plan_id":"cebpf4jnsgd1na2vs0mg"},{"bike_id":"27ee8c69-20b9-425a-ae6a-518170670268","system_id":"levelo_inurba_marseille","lat":43.284318,"lon":5.349742,"is_reserved":false,"is_disabled":false,"rental_uris":{"android":"levelo://app?vid=27ee8c69-20b9-425a-ae6a-518170670268","ios":"levelo://app?vid=27ee8c69-20b9-425a-ae6a-518170670268"},"vehicle_type_id":"4","last_reported":1751386466,"current_range_meters":18800,"station_id":"ce4bhbh2rcd13ifvqepg","pricing_plan_id":"cebpf4jnsgd1na2vs0mg"},{"bike_id":"186fb1c5-7b63-4c56-bd0c-d25199a9d131","system_id":"levelo_inurba_marseille","lat":43.28617,"lon":5.35102,"is_reserved":false,"is_disabled":false,"rental_uris":{"android":"levelo://app?vid=186fb1c5-7b63-4c56-bd0c-d25199a9d131","ios":"levelo://app?vid=186fb1c5-7b63-4c56-bd0c-d25199a9d131"},"vehicle_type_id":"4","last_reported":1751386466,"current_range_meters":18800,"station_id":"ce4bhch2rcd13ifvqeug","pricing_plan_id":"cebpf4jnsgd1na2vs0mg"},{"bike_id":"a27ff6b4-e899-4c5e-8bea-60a658eb8afc","system_id":"levelo_inurba_marseille","lat":43.28616,"lon":5.35099,"is_reserved":false,"is_disabled":false,"rental_uris":{"android":"levelo://app?vid=a27ff6b4-e899-4c5e-8bea-60a658eb8afc","ios":"levelo://app?vid=a27ff6b4-e899-4c5e-8bea-60a658eb8afc"},"vehicle_type_id":"4","last_reported":1751386466,"current_range_meters":18800,"station_id":"ce4bhch2rcd13ifvqeug","pricing_plan_id":"cebpf4jnsgd1na2vs0mg"},{"bike_id":"d8f4e68a-05c3-4caa-aa92-c12d8cb440f9","system_id":"levelo_inurba_marseille","lat":43.23968,"lon":5.36633,"is_reserved":false,"is_disabled":false,"rental_uris":{"android":"levelo://app?vid=d8f4e68a-05c3-4caa-aa92-c12d8cb440f9","ios":"levelo://app?vid=d8f4e68a-05c3-4caa-aa92-c12d8cb440f9"},"vehicle_type_id":"4","last_reported":1751386466,"current_range_meters":18800,"station_id":"ce4bhi12rcd13ifvqfp0","pricing_plan_id":"cebpf4jnsgd1na2vs0mg"},{"bike_id":"d94dd096-10fc-4e57-b3f9-d972629a418e","system_id":"levelo_inurba_marseille","lat":43.25831,"lon":5.39436,"is_reserved":false,"is_disabled":false,"rental_uris":{"android":"levelo://app?vid=d94dd096-10fc-4e57-b3f9-d972629a418e","ios":"levelo://app?vid=d94dd096-10fc-4e57-b3f9-d972629a418e"},"vehicle_type_id":"4","last_reported":1751386466,"current_range_meters":18800,"station_id":"ce4bhip2rcd13ifvqft0","pricing_plan_id":"cebpf4jnsgd1na2vs0mg"},{"bike_id":"81b9753f-aa28-4513-89a4-3ee72628d38d","system_id":"levelo_inurba_marseille","lat":43.32102,"lon":5.36795,"is_reserved":false,"is_disabled":false,"rental_uris":{"android":"levelo://app?vid=81b9753f-aa28-4513-89a4-3ee72628d38d","ios":"levelo://app?vid=81b9753f-aa28-4513-89a4-3ee72628d38d"},"vehicle_type_id":"4","last_reported":1751386466,"current_range_meters":18800,"station_id":"ce4bhrh2rcd13ifvqhug","pricing_plan_id":"cebpf4jnsgd1na2vs0mg"},{"bike_id":"03a4dc57-50e1-47bd-8554-2b5e50f7ee26","system_id":"levelo_inurba_marseille","lat":43.21192,"lon":5.35071,"is_reserved":false,"is_disabled":false,"rental_uris":{"android":"levelo://app?vid=03a4dc57-50e1-47bd-8554-2b5e50f7ee26","ios":"levelo://app?vid=03a4dc57-50e1-47bd-8554-2b5e50f7ee26"},"vehicle_type_id":"4","last_reported":1751386466,"current_range_meters":18800,"station_id":"st_cvj6sg6p6f1abm77japg","pricing_plan_id":"cebpf4jnsgd1na2vs0mg"},{"bike_id":"dbe6a7d8-6edc-4015-8658-f68eeb46a661","system_id":"levelo_inurba_marseille","lat":43.33601,"lon":5.39869,"is_reserved":false,"is_disabled":false,"rental_uris":{"android":"levelo://app?vid=dbe6a7d8-6edc-4015-8658-f68eeb46a661","ios":"levelo://app?vid=dbe6a7d8-6edc-4015-8658-f68eeb46a661"},"vehicle_type_id":"4","last_reported":1751386466,"current_range_meters":19200,"station_id":"","pricing_plan_id":"cebpf4jnsgd1na2vs0mg"},{"bike_id":"7e62b058-a7ed-4634-80f1-04d3de596de7","system_id":"levelo_inurba_marseille","lat":43.29854,"lon":5.36812,"is_reserved":false,"is_disabled":false,"rental_uris":{"android":"levelo://app?vid=7e62b058-a7ed-4634-80f1-04d3de596de7","ios":"levelo://app?vid=7e62b058-a7ed-4634-80f1-04d3de596de7"},"vehicle_type_id":"4","last_reported":1751386466,"current_range_meters":19200,"station_id":"","pricing_plan_id":"cebpf4jnsgd1na2vs0mg"},{"bike_id":"4fb5ef5d-c051-429c-ba1f-26b3489d9af5","system_id":"levelo_inurba_marseille","lat":43.29962,"lon":5.37437,"is_reserved":false,"is_disabled":false,"rental_uris":{"android":"levelo://app?vid=4fb5ef5d-c051-429c-ba1f-26b3489d9af5","ios":"levelo://app?vid=4fb5ef5d-c051-429c-ba1f-26b3489d9af5"},"vehicle_type_id":"4","last_reported":1751386466,"current_range_meters":19200,"station_id":"","pricing_plan_id":"cebpf4jnsgd1na2vs0mg"},{"bike_id":"5a9e7733-c14c-4940-bae8-5f596c70c695","system_id":"levelo_inurba_marseille","lat":43.288574,"lon":5.393158,"is_reserved":false,"is_disabled":false,"rental_uris":{"android":"levelo://app?vid=5a9e7733-c14c-4940-bae8-5f596c70c695","ios":"levelo://app?vid=5a9e7733-c14c-4940-bae8-5f596c70c695"},"vehicle_type_id":"4","last_reported":1751386466,"current_range_meters":19200,"station_id":"ce4bh2p2rcd13ifvqdi0","pricing_plan_id":"cebpf4jnsgd1na2vs0mg"},{"bike_id":"b48831cb-17bd-410e-bbd3-9d3cffecec61","system_id":"levelo_inurba_marseille","lat":43.28938,"lon":5.36637,"is_reserved":false,"is_disabled":false,"rental_uris":{"android":"levelo://app?vid=b48831cb-17bd-410e-bbd3-9d3cffecec61","ios":"levelo://app?vid=b48831cb-17bd-410e-bbd3-9d3cffecec61"},"vehicle_type_id":"4","last_reported":1751386466,"current_range_meters":19200,"station_id":"ce4bhap2rcd13ifvqek0","pricing_plan_id":"cebpf4jnsgd1na2vs0mg"},{"bike_id":"f8bb7b5b-248f-40e1-aca2-093d701fba0d","system_id":"levelo_inurba_marseille","lat":43.2886,"lon":5.35868,"is_reserved":false,"is_disabled":false,"rental_uris":{"android":"levelo://app?vid=f8bb7b5b-248f-40e1-aca2-093d701fba0d","ios":"levelo://app?vid=f8bb7b5b-248f-40e1-aca2-093d701fba0d"},"vehicle_type_id":"4","last_reported":1751386466,"current_range_meters":19200,"station_id":"ce4bhb12rcd13ifvqem0","pricing_plan_id":"cebpf4jnsgd1na2vs0mg"},{"bike_id":"ec9af982-8f91-463c-9511-937c43df6f42","system_id":"levelo_inurba_marseille","lat":43.27378,"lon":5.36256,"is_reserved":false,"is_disabled":false,"rental_uris":{"android":"levelo://app?vid=ec9af982-8f91-463c-9511-937c43df6f42","ios":"levelo://app?vid=ec9af982-8f91-463c-9511-937c43df6f42"},"vehicle_type_id":"4","last_reported":1751386466,"current_range_meters":19200,"station_id":"ce4bhbh2rcd13ifvqeo0","pricing_plan_id":"cebpf4jnsgd1na2vs0mg"},{"bike_id":"dc4251f3-81b6-4e41-b5a5-62a769c36411","system_id":"levelo_inurba_marseille","lat":43.24169,"lon":5.36415,"is_reserved":false,"is_disabled":false,"rental_uris":{"android":"levelo://app?vid=dc4251f3-81b6-4e41-b5a5-62a769c36411","ios":"levelo://app?vid=dc4251f3-81b6-4e41-b5a5-62a769c36411"},"vehicle_type_id":"4","last_reported":1751386466,"current_range_meters":19200,"station_id":"cpo36qri1sfpv3e86is0","pricing_plan_id":"cebpf4jnsgd1na2vs0mg"},{"bike_id":"ae1c182d-0a5a-4871-b62e-0240f515d4fd","system_id":"levelo_inurba_marseille","lat":43.21749,"lon":5.346013,"is_reserved":false,"is_disabled":false,"rental_uris":{"android":"levelo://app?vid=ae1c182d-0a5a-4871-b62e-0240f515d4fd","ios":"levelo://app?vid=ae1c182d-0a5a-4871-b62e-0240f515d4fd"},"vehicle_type_id":"4","last_reported":1751386466,"current_range_meters":19200,"station_id":"st_cvj6r9ubvosntc0bgbag","pricing_plan_id":"cebpf4jnsgd1na2vs0mg"},{"bike_id":"cfc0aa67-590a-4038-b894-cb7b8f074cc7","system_id":"levelo_inurba_marseille","lat":43.21758,"lon":5.34605,"is_reserved":false,"is_disabled":false,"rental_uris":{"android":"levelo://app?vid=cfc0aa67-590a-4038-b894-cb7b8f074cc7","ios":"levelo://app?vid=cfc0aa67-590a-4038-b894-cb7b8f074cc7"},"vehicle_type_id":"4","last_reported":1751386466,"current_range_meters":19200,"station_id":"st_cvj6r9ubvosntc0bgbag","pricing_plan_id":"cebpf4jnsgd1na2vs0mg"},{"bike_id":"f8a4c4c6-63e9-473b-9aa1-72a42a8c23b1","system_id":"levelo_inurba_marseille","lat":43.30325,"lon":5.40433,"is_reserved":false,"is_disabled":false,"rental_uris":{"android":"levelo://app?vid=f8a4c4c6-63e9-473b-9aa1-72a42a8c23b1","ios":"levelo://app?vid=f8a4c4c6-63e9-473b-9aa1-72a42a8c23b1"},"vehicle_type_id":"4","last_reported":1751386466,"current_range_meters":19600,"station_id":"ce4bh012rcd13ifvqd10","pricing_plan_id":"cebpf4jnsgd1na2vs0mg"},{"bike_id":"32e95b8a-2368-4221-8e36-d2eb0c4c23b7","system_id":"levelo_inurba_marseille","lat":43.27381,"lon":5.36272,"is_reserved":false,"is_disabled":false,"rental_uris":{"android":"levelo://app?vid=32e95b8a-2368-4221-8e36-d2eb0c4c23b7","ios":"levelo://app?vid=32e95b8a-2368-4221-8e36-d2eb0c4c23b7"},"vehicle_type_id":"4","last_reported":1751386466,"current_range_meters":19600,"station_id":"ce4bhbh2rcd13ifvqeo0","pricing_plan_id":"cebpf4jnsgd1na2vs0mg"},{"bike_id":"50b82030-7151-4ba0-a981-9eb0853b7d5d","system_id":"levelo_inurba_marseille","lat":43.28615,"lon":5.35101,"is_reserved":false,"is_disabled":false,"rental_uris":{"android":"levelo://app?vid=50b82030-7151-4ba0-a981-9eb0853b7d5d","ios":"levelo://app?vid=50b82030-7151-4ba0-a981-9eb0853b7d5d"},"vehicle_type_id":"4","last_reported":1751386466,"current_range_meters":19600,"station_id":"ce4bhch2rcd13ifvqeug","pricing_plan_id":"cebpf4jnsgd1na2vs0mg"},{"bike_id":"540c8558-62f6-4ac8-81c2-97c7ca322c6e","system_id":"levelo_inurba_marseille","lat":43.24388,"lon":5.37063,"is_reserved":false,"is_disabled":false,"rental_uris":{"android":"levelo://app?vid=540c8558-62f6-4ac8-81c2-97c7ca322c6e","ios":"levelo://app?vid=540c8558-62f6-4ac8-81c2-97c7ca322c6e"},"vehicle_type_id":"4","last_reported":1751386466,"current_range_meters":19600,"station_id":"ce4bhhh2rcd13ifvqfk0","pricing_plan_id":"cebpf4jnsgd1na2vs0mg"},{"bike_id":"5af1420c-c923-4d97-bfb8-5dd46fa54f2c","system_id":"levelo_inurba_marseille","lat":43.23967,"lon":5.36636,"is_reserved":false,"is_disabled":false,"rental_uris":{"android":"levelo://app?vid=5af1420c-c923-4d97-bfb8-5dd46fa54f2c","ios":"levelo://app?vid=5af1420c-c923-4d97-bfb8-5dd46fa54f2c"},"vehicle_type_id":"4","last_reported":1751386466,"current_range_meters":19600,"station_id":"ce4bhi12rcd13ifvqfp0","pricing_plan_id":"cebpf4jnsgd1na2vs0mg"},{"bike_id":"045af90d-00b2-4902-8072-20e19b1a925c","system_id":"levelo_inurba_marseille","lat":43.25582,"lon":5.38229,"is_reserved":false,"is_disabled":false,"rental_uris":{"android":"levelo://app?vid=045af90d-00b2-4902-8072-20e19b1a925c","ios":"levelo://app?vid=045af90d-00b2-4902-8072-20e19b1a925c"},"vehicle_type_id":"4","last_reported":1751386466,"current_range_meters":19600,"station_id":"ce4bhih2rcd13ifvqfs0","pricing_plan_id":"cebpf4jnsgd1na2vs0mg"},{"bike_id":"353fd6ed-5d03-41ab-8624-2754669d01a9","system_id":"levelo_inurba_marseille","lat":43.28095,"lon":5.39658,"is_reserved":false,"is_disabled":false,"rental_uris":{"android":"levelo://app?vid=353fd6ed-5d03-41ab-8624-2754669d01a9","ios":"levelo://app?vid=353fd6ed-5d03-41ab-8624-2754669d01a9"},"vehicle_type_id":"4","last_reported":1751386466,"current_range_meters":19600,"station_id":"ce4bho12rcd13ifvqh2g","pricing_plan_id":"cebpf4jnsgd1na2vs0mg"},{"bike_id":"fb80b3d9-e97e-4385-8d43-3a44a5ff8198","system_id":"levelo_inurba_marseille","lat":43.23064,"lon":5.35488,"is_reserved":false,"is_disabled":false,"rental_uris":{"android":"levelo://app?vid=fb80b3d9-e97e-4385-8d43-3a44a5ff8198","ios":"levelo://app?vid=fb80b3d9-e97e-4385-8d43-3a44a5ff8198"},"vehicle_type_id":"4","last_reported":1751386466,"current_range_meters":19600,"station_id":"cpo3342slgdg3j2ifvpg","pricing_plan_id":"cebpf4jnsgd1na2vs0mg"},{"bike_id":"16a8afe6-e43e-4d1b-a7bd-ed83d113735a","system_id":"levelo_inurba_marseille","lat":43.32436,"lon":5.41185,"is_reserved":false,"is_disabled":false,"rental_uris":{"android":"levelo://app?vid=16a8afe6-e43e-4d1b-a7bd-ed83d113735a","ios":"levelo://app?vid=16a8afe6-e43e-4d1b-a7bd-ed83d113735a"},"vehicle_type_id":"4","last_reported":1751386466,"current_range_meters":20000,"station_id":"","pricing_plan_id":"cebpf4jnsgd1na2vs0mg"},{"bike_id":"70e86ccf-9ce4-469c-bb23-0fa7747821d0","system_id":"levelo_inurba_marseille","lat":43.326227,"lon":5.410343,"is_reserved":false,"is_disabled":false,"rental_uris":{"android":"levelo://app?vid=70e86ccf-9ce4-469c-bb23-0fa7747821d0","ios":"levelo://app?vid=70e86ccf-9ce4-469c-bb23-0fa7747821d0"},"vehicle_type_id":"4","last_reported":1751386466,"current_range_meters":20000,"station_id":"","pricing_plan_id":"cebpf4jnsgd1na2vs0mg"},{"bike_id":"8e4147e3-1b40-4975-a726-63764f255202","system_id":"levelo_inurba_marseille","lat":43.276172,"lon":5.361047,"is_reserved":false,"is_disabled":false,"rental_uris":{"android":"levelo://app?vid=8e4147e3-1b40-4975-a726-63764f255202","ios":"levelo://app?vid=8e4147e3-1b40-4975-a726-63764f255202"},"vehicle_type_id":"4","last_reported":1751386466,"current_range_meters":20000,"station_id":"ce4bgj92rcd13ifvqbe0","pricing_plan_id":"cebpf4jnsgd1na2vs0mg"},{"bike_id":"e3e84ccf-767d-4de4-be2a-65724f98bbc6","system_id":"levelo_inurba_marseille","lat":43.28863,"lon":5.35847,"is_reserved":false,"is_disabled":false,"rental_uris":{"android":"levelo://app?vid=e3e84ccf-767d-4de4-be2a-65724f98bbc6","ios":"levelo://app?vid=e3e84ccf-767d-4de4-be2a-65724f98bbc6"},"vehicle_type_id":"4","last_reported":1751386466,"current_range_meters":20000,"station_id":"ce4bhb12rcd13ifvqem0","pricing_plan_id":"cebpf4jnsgd1na2vs0mg"},{"bike_id":"218fa6d1-1e97-4166-a65e-f7f93691c393","system_id":"levelo_inurba_marseille","lat":43.27377,"lon":5.3625,"is_reserved":false,"is_disabled":false,"rental_uris":{"android":"levelo://app?vid=218fa6d1-1e97-4166-a65e-f7f93691c393","ios":"levelo://app?vid=218fa6d1-1e97-4166-a65e-f7f93691c393"},