{"last_updated":1774851772,"ttl":60,"version":"2.2","data":{"bikes":[{"bike_id":"ae5fcd76-81f6-4e1c-a2c5-6b74d60536b6","system_id":"levelo_inurba_marseille","lat":43.27962,"lon":5.38748,"is_reserved":false,"is_disabled":false,"rental_uris":{"android":"levelo://app?vid=ae5fcd76-81f6-4e1c-a2c5-6b74d60536b6","ios":"levelo://app?vid=ae5fcd76-81f6-4e1c-a2c5-6b74d60536b6"},"vehicle_type_id":"4","last_reported":1774851772,"current_range_meters":2800,"station_id":"ce4bhg12rcd13ifvqf80","pricing_plan_id":"cebpf4jnsgd1na2vs0mg"},{"bike_id":"b180d627-dbdf-413b-9e4f-52a4d8c0a7ac","system_id":"levelo_inurba_marseille","lat":43.28544,"lon":5.44084,"is_reserved":false,"is_disabled":false,"rental_uris":{"android":"levelo://app?vid=b180d627-dbdf-413b-9e4f-52a4d8c0a7ac","ios":"levelo://app?vid=b180d627-dbdf-413b-9e4f-52a4d8c0a7ac"},"vehicle_type_id":"4","last_reported":1774851772,"current_range_meters":2800,"station_id":"st_d3j3df2ikq2c7380ej80","pricing_plan_id":"cebpf4jnsgd1na2vs0mg"},{"bike_id":"b3fa6212-0b48-4528-a511-cb2f1886640e","system_id":"levelo_inurba_marseille","lat":43.26051,"lon":5.39431,"is_reserved":false,"is_disabled":false,"rental_uris":{"android":"levelo://app?vid=b3fa6212-0b48-4528-a511-cb2f1886640e","ios":"levelo://app?vid=b3fa6212-0b48-4528-a511-cb2f1886640e"},"vehicle_type_id":"4","last_reported":1774851772,"current_range_meters":2800,"station_id":"ce4bhh92rcd13ifvqfj0","pricing_plan_id":"cebpf4jnsgd1na2vs0mg"},{"bike_id":"5f6a8f16-0a29-4fe1-810c-2dff4279af97","system_id":"levelo_inurba_marseille","lat":43.3118,"lon":5.38709,"is_reserved":false,"is_disabled":false,"rental_uris":{"android":"levelo://app?vid=5f6a8f16-0a29-4fe1-810c-2dff4279af97","ios":"levelo://app?vid=5f6a8f16-0a29-4fe1-810c-2dff4279af97"},"vehicle_type_id":"4","last_reported":1774851772,"current_range_meters":2800,"station_id":"ce4bgv12rcd13ifvqcp0","pricing_plan_id":"cebpf4jnsgd1na2vs0mg"},{"bike_id":"b076a70c-56ac-4d56-ab86-a7e291fc0c84","system_id":"levelo_inurba_marseille","lat":43.2511,"lon":5.40336,"is_reserved":false,"is_disabled":false,"rental_uris":{"android":"levelo://app?vid=b076a70c-56ac-4d56-ab86-a7e291fc0c84","ios":"levelo://app?vid=b076a70c-56ac-4d56-ab86-a7e291fc0c84"},"vehicle_type_id":"4","last_reported":1774851772,"current_range_meters":2800,"station_id":"ce4bhlh2rcd13ifvqgig","pricing_plan_id":"cebpf4jnsgd1na2vs0mg"},{"bike_id":"23f00a98-bea4-4237-b995-2165156e5561","system_id":"levelo_inurba_marseille","lat":43.27493,"lon":5.42446,"is_reserved":false,"is_disabled":false,"rental_uris":{"android":"levelo://app?vid=23f00a98-bea4-4237-b995-2165156e5561","ios":"levelo://app?vid=23f00a98-bea4-4237-b995-2165156e5561"},"vehicle_type_id":"4","last_reported":1774851772,"current_range_meters":2800,"station_id":"ce4bhn92rcd13ifvqgrg","pricing_plan_id":"cebpf4jnsgd1na2vs0mg"},{"bike_id":"c9ae6e5c-c5d7-47b2-a0ba-bb50dd55b846","system_id":"levelo_inurba_marseille","lat":43.25335,"lon":5.42212,"is_reserved":false,"is_disabled":false,"rental_uris":{"android":"levelo://app?vid=c9ae6e5c-c5d7-47b2-a0ba-bb50dd55b846","ios":"levelo://app?vid=c9ae6e5c-c5d7-47b2-a0ba-bb50dd55b846"},"vehicle_type_id":"4","last_reported":1774851772,"current_range_meters":2800,"station_id":"st_d2m65c5bi1j21697t3ng","pricing_plan_id":"cebpf4jnsgd1na2vs0mg"},{"bike_id":"60816a06-e1ea-4d77-ae6c-b6207a1f8c7e","system_id":"levelo_inurba_marseille","lat":43.21195,"lon":5.35078,"is_reserved":false,"is_disabled":true,"rental_uris":{"android":"levelo://app?vid=60816a06-e1ea-4d77-ae6c-b6207a1f8c7e","ios":"levelo://app?vid=60816a06-e1ea-4d77-ae6c-b6207a1f8c7e"},"vehicle_type_id":"4","last_reported":1774851772,"current_range_meters":2800,"station_id":"st_cvj6sg6p6f1abm77japg","pricing_plan_id":"cebpf4jnsgd1na2vs0mg"},{"bike_id":"b1b36613-1acd-4dcf-a023-aa5499b4c926","system_id":"levelo_inurba_marseille","lat":43.30165,"lon":5.38081,"is_reserved":false,"is_disabled":false,"rental_uris":{"android":"levelo://app?vid=b1b36613-1acd-4dcf-a023-aa5499b4c926","ios":"levelo://app?vid=b1b36613-1acd-4dcf-a023-aa5499b4c926"},"vehicle_type_id":"4","last_reported":1774851772,"current_range_meters":3200,"station_id":"ce4bgjp2rcd13ifvqbh0","pricing_plan_id":"cebpf4jnsgd1na2vs0mg"},{"bike_id":"f39be331-9cf6-4ab3-aeef-3b3cedbcc639","system_id":"levelo_inurba_marseille","lat":43.2667,"lon":5.38249,"is_reserved":false,"is_disabled":false,"rental_uris":{"android":"levelo://app?vid=f39be331-9cf6-4ab3-aeef-3b3cedbcc639","ios":"levelo://app?vid=f39be331-9cf6-4ab3-aeef-3b3cedbcc639"},"vehicle_type_id":"4","last_reported":1774851772,"current_range_meters":3200,"station_id":"ce4bhg92rcd13ifvqf90","pricing_plan_id":"cebpf4jnsgd1na2vs0mg"},{"bike_id":"75f55a23-0516-43f3-9837-68edae479e59","system_id":"levelo_inurba_marseille","lat":43.31215,"lon":5.36863,"is_reserved":false,"is_disabled":false,"rental_uris":{"android":"levelo://app?vid=75f55a23-0516-43f3-9837-68edae479e59","ios":"levelo://app?vid=75f55a23-0516-43f3-9837-68edae479e59"},"vehicle_type_id":"4","last_reported":1774851772,"current_range_meters":3200,"station_id":"ce4bgl92rcd13ifvqbq0","pricing_plan_id":"cebpf4jnsgd1na2vs0mg"},{"bike_id":"78ce74bc-8c9d-4008-acf1-b127bfc6a372","system_id":"levelo_inurba_marseille","lat":43.29734,"lon":5.42826,"is_reserved":false,"is_disabled":false,"rental_uris":{"android":"levelo://app?vid=78ce74bc-8c9d-4008-acf1-b127bfc6a372","ios":"levelo://app?vid=78ce74bc-8c9d-4008-acf1-b127bfc6a372"},"vehicle_type_id":"4","last_reported":1774851772,"current_range_meters":3600,"station_id":"","pricing_plan_id":"cebpf4jnsgd1na2vs0mg"},{"bike_id":"f477e3eb-6a5d-4abf-b91a-b49d0d121cd9","system_id":"levelo_inurba_marseille","lat":43.29957,"lon":5.38582,"is_reserved":false,"is_disabled":false,"rental_uris":{"android":"levelo://app?vid=f477e3eb-6a5d-4abf-b91a-b49d0d121cd9","ios":"levelo://app?vid=f477e3eb-6a5d-4abf-b91a-b49d0d121cd9"},"vehicle_type_id":"4","last_reported":1774851772,"current_range_meters":3600,"station_id":"","pricing_plan_id":"cebpf4jnsgd1na2vs0mg"},{"bike_id":"0166877c-e0b5-42db-a6a9-2d84715f71f7","system_id":"levelo_inurba_marseille","lat":43.33545,"lon":5.37473,"is_reserved":false,"is_disabled":false,"rental_uris":{"android":"levelo://app?vid=0166877c-e0b5-42db-a6a9-2d84715f71f7","ios":"levelo://app?vid=0166877c-e0b5-42db-a6a9-2d84715f71f7"},"vehicle_type_id":"4","last_reported":1774851772,"current_range_meters":3600,"station_id":"st_d46tts09ee8s73dlu43g","pricing_plan_id":"cebpf4jnsgd1na2vs0mg"},{"bike_id":"a4280e67-7d39-4d64-b19b-696e82d601d7","system_id":"levelo_inurba_marseille","lat":43.28577,"lon":5.441,"is_reserved":false,"is_disabled":false,"rental_uris":{"android":"levelo://app?vid=a4280e67-7d39-4d64-b19b-696e82d601d7","ios":"levelo://app?vid=a4280e67-7d39-4d64-b19b-696e82d601d7"},"vehicle_type_id":"4","last_reported":1774851772,"current_range_meters":3600,"station_id":"st_d3j3df2ikq2c7380ej80","pricing_plan_id":"cebpf4jnsgd1na2vs0mg"},{"bike_id":"e4956c66-fba0-45d5-a7d2-90ca01f34637","system_id":"levelo_inurba_marseille","lat":43.21807,"lon":5.34717,"is_reserved":false,"is_disabled":false,"rental_uris":{"android":"levelo://app?vid=e4956c66-fba0-45d5-a7d2-90ca01f34637","ios":"levelo://app?vid=e4956c66-fba0-45d5-a7d2-90ca01f34637"},"vehicle_type_id":"4","last_reported":1774851772,"current_range_meters":3600,"station_id":"","pricing_plan_id":"cebpf4jnsgd1na2vs0mg"},{"bike_id":"b05e7133-d840-46d0-b4cd-ef4cc0d5281e","system_id":"levelo_inurba_marseille","lat":43.29555,"lon":5.42292,"is_reserved":false,"is_disabled":false,"rental_uris":{"android":"levelo://app?vid=b05e7133-d840-46d0-b4cd-ef4cc0d5281e","ios":"levelo://app?vid=b05e7133-d840-46d0-b4cd-ef4cc0d5281e"},"vehicle_type_id":"4","last_reported":1774851772,"current_range_meters":3600,"station_id":"ce4bhph2rcd13ifvqhdg","pricing_plan_id":"cebpf4jnsgd1na2vs0mg"},{"bike_id":"6b1ae015-1742-4483-a44f-6df0a2aebddc","system_id":"levelo_inurba_marseille","lat":43.28611,"lon":5.39508,"is_reserved":false,"is_disabled":false,"rental_uris":{"android":"levelo://app?vid=6b1ae015-1742-4483-a44f-6df0a2aebddc","ios":"levelo://app?vid=6b1ae015-1742-4483-a44f-6df0a2aebddc"},"vehicle_type_id":"4","last_reported":1774851772,"current_range_meters":3600,"station_id":"ce4bh292rcd13ifvqdg0","pricing_plan_id":"cebpf4jnsgd1na2vs0mg"},{"bike_id":"1dc13fe4-d778-4641-b3dc-53badbf283e2","system_id":"levelo_inurba_marseille","lat":43.31185,"lon":5.38709,"is_reserved":false,"is_disabled":false,"rental_uris":{"android":"levelo://app?vid=1dc13fe4-d778-4641-b3dc-53badbf283e2","ios":"levelo://app?vid=1dc13fe4-d778-4641-b3dc-53badbf283e2"},"vehicle_type_id":"4","last_reported":1774851772,"current_range_meters":3600,"station_id":"ce4bgv12rcd13ifvqcp0","pricing_plan_id":"cebpf4jnsgd1na2vs0mg"},{"bike_id":"826ba99b-4dd1-40aa-baaa-81646a9b18f1","system_id":"levelo_inurba_marseille","lat":43.30462,"lon":5.37912,"is_reserved":false,"is_disabled":false,"rental_uris":{"android":"levelo://app?vid=826ba99b-4dd1-40aa-baaa-81646a9b18f1","ios":"levelo://app?vid=826ba99b-4dd1-40aa-baaa-81646a9b18f1"},"vehicle_type_id":"4","last_reported":1774851772,"current_range_meters":3600,"station_id":"ce4bgup2rcd13ifvqcn0","pricing_plan_id":"cebpf4jnsgd1na2vs0mg"},{"bike_id":"db3a9992-bfef-472a-8794-94f36b394631","system_id":"levelo_inurba_marseille","lat":43.26188,"lon":5.37445,"is_reserved":false,"is_disabled":false,"rental_uris":{"android":"levelo://app?vid=db3a9992-bfef-472a-8794-94f36b394631","ios":"levelo://app?vid=db3a9992-bfef-472a-8794-94f36b394631"},"vehicle_type_id":"4","last_reported":1774851772,"current_range_meters":3600,"station_id":"ce4bhgp2rcd13ifvqfc0","pricing_plan_id":"cebpf4jnsgd1na2vs0mg"},{"bike_id":"3f751f77-71f3-4d1b-af2e-71ef47bf1238","system_id":"levelo_inurba_marseille","lat":43.23776,"lon":5.36622,"is_reserved":false,"is_disabled":false,"rental_uris":{"android":"levelo://app?vid=3f751f77-71f3-4d1b-af2e-71ef47bf1238","ios":"levelo://app?vid=3f751f77-71f3-4d1b-af2e-71ef47bf1238"},"vehicle_type_id":"4","last_reported":1774851772,"current_range_meters":3600,"station_id":"st_d3nk18o9ro0c73en2l3g","pricing_plan_id":"cebpf4jnsgd1na2vs0mg"},{"bike_id":"828f8c9f-6609-4469-9389-e10f93686634","system_id":"levelo_inurba_marseille","lat":43.2959,"lon":5.38096,"is_reserved":false,"is_disabled":false,"rental_uris":{"android":"levelo://app?vid=828f8c9f-6609-4469-9389-e10f93686634","ios":"levelo://app?vid=828f8c9f-6609-4469-9389-e10f93686634"},"vehicle_type_id":"4","last_reported":1774851772,"current_range_meters":3600,"station_id":"ce4bgl12rcd13ifvqbo0","pricing_plan_id":"cebpf4jnsgd1na2vs0mg"},{"bike_id":"f0cdc608-572a-4bce-8bdf-b72600f2d847","system_id":"levelo_inurba_marseille","lat":43.29533,"lon":5.38548,"is_reserved":false,"is_disabled":false,"rental_uris":{"android":"levelo://app?vid=f0cdc608-572a-4bce-8bdf-b72600f2d847","ios":"levelo://app?vid=f0cdc608-572a-4bce-8bdf-b72600f2d847"},"vehicle_type_id":"4","last_reported":1774851772,"current_range_meters":3600,"station_id":"","pricing_plan_id":"cebpf4jnsgd1na2vs0mg"},{"bike_id":"f6303ccb-bbe7-481e-a58c-d59ed2df406a","system_id":"levelo_inurba_marseille","lat":43.27851,"lon":5.39213,"is_reserved":false,"is_disabled":false,"rental_uris":{"android":"levelo://app?vid=f6303ccb-bbe7-481e-a58c-d59ed2df406a","ios":"levelo://app?vid=f6303ccb-bbe7-481e-a58c-d59ed2df406a"},"vehicle_type_id":"4","last_reported":1774851772,"current_range_meters":4000,"station_id":"ce4bhjp2rcd13ifvqga0","pricing_plan_id":"cebpf4jnsgd1na2vs0mg"},{"bike_id":"261ccea0-60fa-4ed1-84b8-9968bb71682c","system_id":"levelo_inurba_marseille","lat":43.2465,"lon":5.38936,"is_reserved":false,"is_disabled":false,"rental_uris":{"android":"levelo://app?vid=261ccea0-60fa-4ed1-84b8-9968bb71682c","ios":"levelo://app?vid=261ccea0-60fa-4ed1-84b8-9968bb71682c"},"vehicle_type_id":"4","last_reported":1774851772,"current_range_meters":4000,"station_id":"ce4bhg12rcd13ifvqf60","pricing_plan_id":"cebpf4jnsgd1na2vs0mg"},{"bike_id":"3459e939-3bf6-4530-91d0-30c6caa2e081","system_id":"levelo_inurba_marseille","lat":43.23902,"lon":5.37433,"is_reserved":false,"is_disabled":false,"rental_uris":{"android":"levelo://app?vid=3459e939-3bf6-4530-91d0-30c6caa2e081","ios":"levelo://app?vid=3459e939-3bf6-4530-91d0-30c6caa2e081"},"vehicle_type_id":"4","last_reported":1774851772,"current_range_meters":4000,"station_id":"st_d6sm7csbq4hs73f8fpjg","pricing_plan_id":"cebpf4jnsgd1na2vs0mg"},{"bike_id":"07859429-a07e-4a2a-b04e-538693cf7e0c","system_id":"levelo_inurba_marseille","lat":43.31303,"lon":5.3782,"is_reserved":false,"is_disabled":false,"rental_uris":{"android":"levelo://app?vid=07859429-a07e-4a2a-b04e-538693cf7e0c","ios":"levelo://app?vid=07859429-a07e-4a2a-b04e-538693cf7e0c"},"vehicle_type_id":"4","last_reported":1774851772,"current_range_meters":4000,"station_id":"","pricing_plan_id":"cebpf4jnsgd1na2vs0mg"},{"bike_id":"172803f2-09bc-4b50-8460-4442ac3a6063","system_id":"levelo_inurba_marseille","lat":43.29821,"lon":5.44061,"is_reserved":false,"is_disabled":false,"rental_uris":{"android":"levelo://app?vid=172803f2-09bc-4b50-8460-4442ac3a6063","ios":"levelo://app?vid=172803f2-09bc-4b50-8460-4442ac3a6063"},"vehicle_type_id":"4","last_reported":1774851772,"current_range_meters":4000,"station_id":"st_d3jp68qikq2c7381ktn0","pricing_plan_id":"cebpf4jnsgd1na2vs0mg"},{"bike_id":"1fa9873a-d1a0-49f0-af90-1ef5ccbbd7b4","system_id":"levelo_inurba_marseille","lat":43.24665,"lon":5.38219,"is_reserved":false,"is_disabled":false,"rental_uris":{"android":"levelo://app?vid=1fa9873a-d1a0-49f0-af90-1ef5ccbbd7b4","ios":"levelo://app?vid=1fa9873a-d1a0-49f0-af90-1ef5ccbbd7b4"},"vehicle_type_id":"4","last_reported":1774851772,"current_range_meters":4000,"station_id":"ce4bhih2rcd13ifvqfr0","pricing_plan_id":"cebpf4jnsgd1na2vs0mg"},{"bike_id":"c1362592-bd1c-43ba-b3a6-fe266827320e","system_id":"levelo_inurba_marseille","lat":43.27669,"lon":5.3887,"is_reserved":false,"is_disabled":false,"rental_uris":{"android":"levelo://app?vid=c1362592-bd1c-43ba-b3a6-fe266827320e","ios":"levelo://app?vid=c1362592-bd1c-43ba-b3a6-fe266827320e"},"vehicle_type_id":"4","last_reported":1774851772,"current_range_meters":4000,"station_id":"ce4bhi12rcd13ifvqfo0","pricing_plan_id":"cebpf4jnsgd1na2vs0mg"},{"bike_id":"4e7f29d2-357a-487f-8923-aaf06a756027","system_id":"levelo_inurba_marseille","lat":43.28475,"lon":5.48387,"is_reserved":false,"is_disabled":false,"rental_uris":{"android":"levelo://app?vid=4e7f29d2-357a-487f-8923-aaf06a756027","ios":"levelo://app?vid=4e7f29d2-357a-487f-8923-aaf06a756027"},"vehicle_type_id":"4","last_reported":1774851772,"current_range_meters":4000,"station_id":"","pricing_plan_id":"cebpf4jnsgd1na2vs0mg"},{"bike_id":"a71e8aa4-748e-4885-bc6a-7187b068da32","system_id":"levelo_inurba_marseille","lat":43.25736,"lon":5.38694,"is_reserved":false,"is_disabled":false,"rental_uris":{"android":"levelo://app?vid=a71e8aa4-748e-4885-bc6a-7187b068da32","ios":"levelo://app?vid=a71e8aa4-748e-4885-bc6a-7187b068da32"},"vehicle_type_id":"4","last_reported":1774851772,"current_range_meters":4000,"station_id":"","pricing_plan_id":"cebpf4jnsgd1na2vs0mg"},{"bike_id":"5b22f4aa-ee78-4fad-8e5e-5d6f7f7d67ee","system_id":"levelo_inurba_marseille","lat":43.302592,"lon":5.400803,"is_reserved":false,"is_disabled":false,"rental_uris":{"android":"levelo://app?vid=5b22f4aa-ee78-4fad-8e5e-5d6f7f7d67ee","ios":"levelo://app?vid=5b22f4aa-ee78-4fad-8e5e-5d6f7f7d67ee"},"vehicle_type_id":"4","last_reported":1774851772,"current_range_meters":4000,"station_id":"ce4bgt92rcd13ifvqcg0","pricing_plan_id":"cebpf4jnsgd1na2vs0mg"},{"bike_id":"d5d8b5a6-4c71-4feb-ac49-e94e204b862d","system_id":"levelo_inurba_marseille","lat":43.23062,"lon":5.35496,"is_reserved":false,"is_disabled":false,"rental_uris":{"android":"levelo://app?vid=d5d8b5a6-4c71-4feb-ac49-e94e204b862d","ios":"levelo://app?vid=d5d8b5a6-4c71-4feb-ac49-e94e204b862d"},"vehicle_type_id":"4","last_reported":1774851772,"current_range_meters":4000,"station_id":"cpo3342slgdg3j2ifvpg","pricing_plan_id":"cebpf4jnsgd1na2vs0mg"},{"bike_id":"84c713b7-0b63-4bb8-a6ee-a50270e8a2cc","system_id":"levelo_inurba_marseille","lat":43.29531,"lon":5.38666,"is_reserved":false,"is_disabled":false,"rental_uris":{"android":"levelo://app?vid=84c713b7-0b63-4bb8-a6ee-a50270e8a2cc","ios":"levelo://app?vid=84c713b7-0b63-4bb8-a6ee-a50270e8a2cc"},"vehicle_type_id":"4","last_reported":1774851772,"current_range_meters":4400,"station_id":"","pricing_plan_id":"cebpf4jnsgd1na2vs0mg"},{"bike_id":"2670e006-59ab-4ccd-b7ec-c10db9dd24a8","system_id":"levelo_inurba_marseille","lat":43.24954,"lon":5.40499,"is_reserved":false,"is_disabled":false,"rental_uris":{"android":"levelo://app?vid=2670e006-59ab-4ccd-b7ec-c10db9dd24a8","ios":"levelo://app?vid=2670e006-59ab-4ccd-b7ec-c10db9dd24a8"},"vehicle_type_id":"4","last_reported":1774851772,"current_range_meters":4400,"station_id":"st_d2ngiaodas8pm72gd1h0","pricing_plan_id":"cebpf4jnsgd1na2vs0mg"},{"bike_id":"596caf79-ed27-4ba3-8aa6-ef47ae734c33","system_id":"levelo_inurba_marseille","lat":43.21191,"lon":5.35069,"is_reserved":false,"is_disabled":false,"rental_uris":{"android":"levelo://app?vid=596caf79-ed27-4ba3-8aa6-ef47ae734c33","ios":"levelo://app?vid=596caf79-ed27-4ba3-8aa6-ef47ae734c33"},"vehicle_type_id":"4","last_reported":1774851772,"current_range_meters":4400,"station_id":"st_cvj6sg6p6f1abm77japg","pricing_plan_id":"cebpf4jnsgd1na2vs0mg"},{"bike_id":"ca3ba7e3-bfab-4acb-a98b-9a67abde6b86","system_id":"levelo_inurba_marseille","lat":43.24546,"lon":5.39524,"is_reserved":false,"is_disabled":false,"rental_uris":{"android":"levelo://app?vid=ca3ba7e3-bfab-4acb-a98b-9a67abde6b86","ios":"levelo://app?vid=ca3ba7e3-bfab-4acb-a98b-9a67abde6b86"},"vehicle_type_id":"4","last_reported":1774851772,"current_range_meters":4400,"station_id":"ce4bhlp2rcd13ifvqgjg","pricing_plan_id":"cebpf4jnsgd1na2vs0mg"},{"bike_id":"500e0bd3-d9be-4236-9db6-98b3b02bd769","system_id":"levelo_inurba_marseille","lat":43.29965,"lon":5.38512,"is_reserved":false,"is_disabled":true,"rental_uris":{"android":"levelo://app?vid=500e0bd3-d9be-4236-9db6-98b3b02bd769","ios":"levelo://app?vid=500e0bd3-d9be-4236-9db6-98b3b02bd769"},"vehicle_type_id":"4","last_reported":1774851772,"current_range_meters":4400,"station_id":"ce4bgj92rcd13ifvqbd0","pricing_plan_id":"cebpf4jnsgd1na2vs0mg"},{"bike_id":"9bd73ab3-d94e-41b6-a4c4-301f19cb0898","system_id":"levelo_inurba_marseille","lat":43.30421,"lon":5.39744,"is_reserved":false,"is_disabled":true,"rental_uris":{"android":"levelo://app?vid=9bd73ab3-d94e-41b6-a4c4-301f19cb0898","ios":"levelo://app?vid=9bd73ab3-d94e-41b6-a4c4-301f19cb0898"},"vehicle_type_id":"4","last_reported":1774851772,"current_range_meters":4400,"station_id":"ce4bh092rcd13ifvqd20","pricing_plan_id":"cebpf4jnsgd1na2vs0mg"},{"bike_id":"3822ed89-8aff-49d3-9d3f-72dc30c6b081","system_id":"levelo_inurba_marseille","lat":43.27494,"lon":5.42444,"is_reserved":false,"is_disabled":false,"rental_uris":{"android":"levelo://app?vid=3822ed89-8aff-49d3-9d3f-72dc30c6b081","ios":"levelo://app?vid=3822ed89-8aff-49d3-9d3f-72dc30c6b081"},"vehicle_type_id":"4","last_reported":1774851772,"current_range_meters":4400,"station_id":"ce4bhn92rcd13ifvqgrg","pricing_plan_id":"cebpf4jnsgd1na2vs0mg"},{"bike_id":"0828e3a5-562e-4f9b-b21c-2997e3be505b","system_id":"levelo_inurba_marseille","lat":43.28409,"lon":5.34973,"is_reserved":false,"is_disabled":false,"rental_uris":{"android":"levelo://app?vid=0828e3a5-562e-4f9b-b21c-2997e3be505b","ios":"levelo://app?vid=0828e3a5-562e-4f9b-b21c-2997e3be505b"},"vehicle_type_id":"4","last_reported":1774851772,"current_range_meters":4400,"station_id":"ce4bhbh2rcd13ifvqepg","pricing_plan_id":"cebpf4jnsgd1na2vs0mg"},{"bike_id":"0c7b749c-be4c-4fcd-bb57-c9b3466e9c42","system_id":"levelo_inurba_marseille","lat":43.30363,"lon":5.41878,"is_reserved":false,"is_disabled":false,"rental_uris":{"android":"levelo://app?vid=0c7b749c-be4c-4fcd-bb57-c9b3466e9c42","ios":"levelo://app?vid=0c7b749c-be4c-4fcd-bb57-c9b3466e9c42"},"vehicle_type_id":"4","last_reported":1774851772,"current_range_meters":4400,"station_id":"ce4bhop2rcd13ifvqh7g","pricing_plan_id":"cebpf4jnsgd1na2vs0mg"},{"bike_id":"817a83eb-9b0f-4b1f-9647-810e0069827a","system_id":"levelo_inurba_marseille","lat":43.29031,"lon":5.39979,"is_reserved":false,"is_disabled":false,"rental_uris":{"android":"levelo://app?vid=817a83eb-9b0f-4b1f-9647-810e0069827a","ios":"levelo://app?vid=817a83eb-9b0f-4b1f-9647-810e0069827a"},"vehicle_type_id":"4","last_reported":1774851772,"current_range_meters":4400,"station_id":"ce4bh392rcd13ifvqdm0","pricing_plan_id":"cebpf4jnsgd1na2vs0mg"},{"bike_id":"41afc273-963e-45e1-a1be-f2a593b52cc3","system_id":"levelo_inurba_marseille","lat":43.32662,"lon":5.4099,"is_reserved":false,"is_disabled":false,"rental_uris":{"android":"levelo://app?vid=41afc273-963e-45e1-a1be-f2a593b52cc3","ios":"levelo://app?vid=41afc273-963e-45e1-a1be-f2a593b52cc3"},"vehicle_type_id":"4","last_reported":1774851772,"current_range_meters":4400,"station_id":"ce4bhpp2rcd13ifvqhgg","pricing_plan_id":"cebpf4jnsgd1na2vs0mg"},{"bike_id":"9b040b50-8e07-483a-bf29-317765646645","system_id":"levelo_inurba_marseille","lat":43.23961,"lon":5.36606,"is_reserved":false,"is_disabled":false,"rental_uris":{"android":"levelo://app?vid=9b040b50-8e07-483a-bf29-317765646645","ios":"levelo://app?vid=9b040b50-8e07-483a-bf29-317765646645"},"vehicle_type_id":"4","last_reported":1774851772,"current_range_meters":4400,"station_id":"ce4bhi12rcd13ifvqfp0","pricing_plan_id":"cebpf4jnsgd1na2vs0mg"},{"bike_id":"685f86b4-f2d8-418a-a33a-b91fe56061bd","system_id":"levelo_inurba_marseille","lat":43.26558,"lon":5.37278,"is_reserved":false,"is_disabled":false,"rental_uris":{"android":"levelo://app?vid=685f86b4-f2d8-418a-a33a-b91fe56061bd","ios":"levelo://app?vid=685f86b4-f2d8-418a-a33a-b91fe56061bd"},"vehicle_type_id":"4","last_reported":1774851772,"current_range_meters":4400,"station_id":"ce4bhg12rcd13ifvqf70","pricing_plan_id":"cebpf4jnsgd1na2vs0mg"},{"bike_id":"32e2c4c6-79dc-4a91-b67f-ba4ce7fa3566","system_id":"levelo_inurba_marseille","lat":43.29953,"lon":5.38531,"is_reserved":false,"is_disabled":false,"rental_uris":{"android":"levelo://app?vid=32e2c4c6-79dc-4a91-b67f-ba4ce7fa3566","ios":"levelo://app?vid=32e2c4c6-79dc-4a91-b67f-ba4ce7fa3566"},"vehicle_type_id":"4","last_reported":1774851772,"current_range_meters":4800,"station_id":"ce4bgj92rcd13ifvqbd0","pricing_plan_id":"cebpf4jnsgd1na2vs0mg"},{"bike_id":"d1c64fed-7130-47a8-9b17-de78bfda06d9","system_id":"levelo_inurba_marseille","lat":43.23785,"lon":5.36646,"is_reserved":false,"is_disabled":false,"rental_uris":{"android":"levelo://app?vid=d1c64fed-7130-47a8-9b17-de78bfda06d9","ios":"levelo://app?vid=d1c64fed-7130-47a8-9b17-de78bfda06d9"},"vehicle_type_id":"4","last_reported":1774851772,"current_range_meters":4800,"station_id":"st_d3nk18o9ro0c73en2l3g","pricing_plan_id":"cebpf4jnsgd1na2vs0mg"},{"bike_id":"a57e6589-3900-4d41-bd23-c149e861b5ff","system_id":"levelo_inurba_marseille","lat":43.24385,"lon":5.37052,"is_reserved":false,"is_disabled":false,"rental_uris":{"android":"levelo://app?vid=a57e6589-3900-4d41-bd23-c149e861b5ff","ios":"levelo://app?vid=a57e6589-3900-4d41-bd23-c149e861b5ff"},"vehicle_type_id":"4","last_reported":1774851772,"current_range_meters":4800,"station_id":"ce4bhhh2rcd13ifvqfk0","pricing_plan_id":"cebpf4jnsgd1na2vs0mg"},{"bike_id":"9a1e331d-1d6d-423e-90aa-210c6d33f5be","system_id":"levelo_inurba_marseille","lat":43.33269,"lon":5.37919,"is_reserved":false,"is_disabled":false,"rental_uris":{"android":"levelo://app?vid=9a1e331d-1d6d-423e-90aa-210c6d33f5be","ios":"levelo://app?vid=9a1e331d-1d6d-423e-90aa-210c6d33f5be"},"vehicle_type_id":"4","last_reported":1774851772,"current_range_meters":4800,"station_id":"","pricing_plan_id":"cebpf4jnsgd1na2vs0mg"},{"bike_id":"aa1c29f1-4185-4fd6-8ba3-e9194ce43170","system_id":"levelo_inurba_marseille","lat":43.301318,"lon":5.398517,"is_reserved":false,"is_disabled":true,"rental_uris":{"android":"levelo://app?vid=aa1c29f1-4185-4fd6-8ba3-e9194ce43170","ios":"levelo://app?vid=aa1c29f1-4185-4fd6-8ba3-e9194ce43170"},"vehicle_type_id":"4","last_reported":1774851772,"current_range_meters":4800,"station_id":"","pricing_plan_id":"cebpf4jnsgd1na2vs0mg"},{"bike_id":"d238cc42-b9be-417c-8554-da52e4baa848","system_id":"levelo_inurba_marseille","lat":43.2417,"lon":5.36405,"is_reserved":false,"is_disabled":false,"rental_uris":{"android":"levelo://app?vid=d238cc42-b9be-417c-8554-da52e4baa848","ios":"levelo://app?vid=d238cc42-b9be-417c-8554-da52e4baa848"},"vehicle_type_id":"4","last_reported":1774851772,"current_range_meters":4800,"station_id":"cpo36qri1sfpv3e86is0","pricing_plan_id":"cebpf4jnsgd1na2vs0mg"},{"bike_id":"4518d333-ae46-4f3f-82be-3d499b7bb7d5","system_id":"levelo_inurba_marseille","lat":43.23363,"lon":5.4123,"is_reserved":false,"is_disabled":true,"rental_uris":{"android":"levelo://app?vid=4518d333-ae46-4f3f-82be-3d499b7bb7d5","ios":"levelo://app?vid=4518d333-ae46-4f3f-82be-3d499b7bb7d5"},"vehicle_type_id":"4","last_reported":1774851772,"current_range_meters":4800,"station_id":"","pricing_plan_id":"cebpf4jnsgd1na2vs0mg"},{"bike_id":"56aa2b32-e01e-42c0-ac20-7596f8f8c60e","system_id":"levelo_inurba_marseille","lat":43.26562,"lon":5.37301,"is_reserved":false,"is_disabled":true,"rental_uris":{"android":"levelo://app?vid=56aa2b32-e01e-42c0-ac20-7596f8f8c60e","ios":"levelo://app?vid=56aa2b32-e01e-42c0-ac20-7596f8f8c60e"},"vehicle_type_id":"4","last_reported":1774851772,"current_range_meters":4800,"station_id":"ce4bhg12rcd13ifvqf70","pricing_plan_id":"cebpf4jnsgd1na2vs0mg"},{"bike_id":"b8ec0b9a-6353-4141-ad88-1aae2c10ae31","system_id":"levelo_inurba_marseille","lat":43.29077,"lon":5.43088,"is_reserved":false,"is_disabled":false,"rental_uris":{"android":"levelo://app?vid=b8ec0b9a-6353-4141-ad88-1aae2c10ae31","ios":"levelo://app?vid=b8ec0b9a-6353-4141-ad88-1aae2c10ae31"},"vehicle_type_id":"4","last_reported":1774851772,"current_range_meters":4800,"station_id":"","pricing_plan_id":"cebpf4jnsgd1na2vs0mg"},{"bike_id":"0beeb1a7-3c04-43a2-a7f8-69beb8048854","system_id":"levelo_inurba_marseille","lat":43.24684,"lon":5.38161,"is_reserved":false,"is_disabled":false,"rental_uris":{"android":"levelo://app?vid=0beeb1a7-3c04-43a2-a7f8-69beb8048854","ios":"levelo://app?vid=0beeb1a7-3c04-43a2-a7f8-69beb8048854"},"vehicle_type_id":"4","last_reported":1774851772,"current_range_meters":4800,"station_id":"ce4bhih2rcd13ifvqfr0","pricing_plan_id":"cebpf4jnsgd1na2vs0mg"},{"bike_id":"f3dc6696-e61b-4b66-bcd1-e83bcf1e9bcc","system_id":"levelo_inurba_marseille","lat":43.30575,"lon":5.3709,"is_reserved":false,"is_disabled":true,"rental_uris":{"android":"levelo://app?vid=f3dc6696-e61b-4b66-bcd1-e83bcf1e9bcc","ios":"levelo://app?vid=f3dc6696-e61b-4b66-bcd1-e83bcf1e9bcc"},"vehicle_type_id":"4","last_reported":1774851772,"current_range_meters":4800,"station_id":"","pricing_plan_id":"cebpf4jnsgd1na2vs0mg"},{"bike_id":"28af8d2b-5bac-433a-894a-9e17123ae234","system_id":"levelo_inurba_marseille","lat":43.28567,"lon":5.44041,"is_reserved":false,"is_disabled":false,"rental_uris":{"android":"levelo://app?vid=28af8d2b-5bac-433a-894a-9e17123ae234","ios":"levelo://app?vid=28af8d2b-5bac-433a-894a-9e17123ae234"},"vehicle_type_id":"4","last_reported":1774851772,"current_range_meters":4800,"station_id":"st_d3j3df2ikq2c7380ej80","pricing_plan_id":"cebpf4jnsgd1na2vs0mg"},{"bike_id":"c4a42eb8-878c-43b3-abfb-24d01623cc20","system_id":"levelo_inurba_marseille","lat":43.28562,"lon":5.39486,"is_reserved":false,"is_disabled":false,"rental_uris":{"android":"levelo://app?vid=c4a42eb8-878c-43b3-abfb-24d01623cc20","ios":"levelo://app?vid=c4a42eb8-878c-43b3-abfb-24d01623cc20"},"vehicle_type_id":"4","last_reported":1774851772,"current_range_meters":4800,"station_id":"ce4bh292rcd13ifvqdg0","pricing_plan_id":"cebpf4jnsgd1na2vs0mg"},{"bike_id":"d4ac0334-4fd3-41d1-a329-ac68de885b13","system_id":"levelo_inurba_marseille","lat":43.2257,"lon":5.41635,"is_reserved":false,"is_disabled":false,"rental_uris":{"android":"levelo://app?vid=d4ac0334-4fd3-41d1-a329-ac68de885b13","ios":"levelo://app?vid=d4ac0334-4fd3-41d1-a329-ac68de885b13"},"vehicle_type_id":"4","last_reported":1774851772,"current_range_meters":4800,"station_id":"st_d2o4gvlbi1j2169b742g","pricing_plan_id":"cebpf4jnsgd1na2vs0mg"},{"bike_id":"540be3e0-9d14-4ae8-a2fd-86a6498b10eb","system_id":"levelo_inurba_marseille","lat":43.27505,"lon":5.42456,"is_reserved":false,"is_disabled":false,"rental_uris":{"android":"levelo://app?vid=540be3e0-9d14-4ae8-a2fd-86a6498b10eb","ios":"levelo://app?vid=540be3e0-9d14-4ae8-a2fd-86a6498b10eb"},"vehicle_type_id":"4","last_reported":1774851772,"current_range_meters":4800,"station_id":"ce4bhn92rcd13ifvqgrg","pricing_plan_id":"cebpf4jnsgd1na2vs0mg"},{"bike_id":"1c31a953-b454-42c6-a95b-ee7916d2ff83","system_id":"levelo_inurba_marseille","lat":43.25931,"lon":5.40905,"is_reserved":false,"is_disabled":false,"rental_uris":{"android":"levelo://app?vid=1c31a953-b454-42c6-a95b-ee7916d2ff83","ios":"levelo://app?vid=1c31a953-b454-42c6-a95b-ee7916d2ff83"},"vehicle_type_id":"4","last_reported":1774851772,"current_range_meters":4800,"station_id":"ce4bhm92rcd13ifvqglg","pricing_plan_id":"cebpf4jnsgd1na2vs0mg"},{"bike_id":"0e5ccaad-77f1-40ad-ae87-580e94dbec88","system_id":"levelo_inurba_marseille","lat":43.308525,"lon":5.380937,"is_reserved":false,"is_disabled":false,"rental_uris":{"android":"levelo://app?vid=0e5ccaad-77f1-40ad-ae87-580e94dbec88","ios":"levelo://app?vid=0e5ccaad-77f1-40ad-ae87-580e94dbec88"},"vehicle_type_id":"4","last_reported":1774851772,"current_range_meters":5600,"station_id":"ce4bgt92rcd13ifvqcg0","pricing_plan_id":"cebpf4jnsgd1na2vs0mg"},{"bike_id":"ce7a3b24-907c-4d1b-affa-a23d750b357b","system_id":"levelo_inurba_marseille","lat":43.28475,"lon":5.48394,"is_reserved":false,"is_disabled":false,"rental_uris":{"android":"levelo://app?vid=ce7a3b24-907c-4d1b-affa-a23d750b357b","ios":"levelo://app?vid=ce7a3b24-907c-4d1b-affa-a23d750b357b"},"vehicle_type_id":"4","last_reported":1774851772,"current_range_meters":5600,"station_id":"","pricing_plan_id":"cebpf4jnsgd1na2vs0mg"},{"bike_id":"e8cb18d8-1065-49ec-b1d9-217635f90878","system_id":"levelo_inurba_marseille","lat":43.3257,"lon":5.36563,"is_reserved":false,"is_disabled":true,"rental_uris":{"android":"levelo://app?vid=e8cb18d8-1065-49ec-b1d9-217635f90878","ios":"levelo://app?vid=e8cb18d8-1065-49ec-b1d9-217635f90878"},"vehicle_type_id":"4","last_reported":1774851772,"current_range_meters":5600,"station_id":"","pricing_plan_id":"cebpf4jnsgd1na2vs0mg"},{"bike_id":"5e0f5a9b-6e61-40f8-a65d-d82896d97f13","system_id":"levelo_inurba_marseille","lat":43.28382,"lon":5.34991,"is_reserved":false,"is_disabled":false,"rental_uris":{"android":"levelo://app?vid=5e0f5a9b-6e61-40f8-a65d-d82896d97f13","ios":"levelo://app?vid=5e0f5a9b-6e61-40f8-a65d-d82896d97f13"},"vehicle_type_id":"4","last_reported":1774851772,"current_range_meters":5600,"station_id":"ce4bhbh2rcd13ifvqepg","pricing_plan_id":"cebpf4jnsgd1na2vs0mg"},{"bike_id":"0d128293-8160-4792-9c1e-826ac5d76c3f","system_id":"levelo_inurba_marseille","lat":43.26224,"lon":5.38816,"is_reserved":false,"is_disabled":false,"rental_uris":{"android":"levelo://app?vid=0d128293-8160-4792-9c1e-826ac5d76c3f","ios":"levelo://app?vid=0d128293-8160-4792-9c1e-826ac5d76c3f"},"vehicle_type_id":"4","last_reported":1774851772,"current_range_meters":5600,"station_id":"","pricing_plan_id":"cebpf4jnsgd1na2vs0mg"},{"bike_id":"340ca0e2-d009-4e4f-9ed1-daa5947a0e52","system_id":"levelo_inurba_marseille","lat":43.28451,"lon":5.35889,"is_reserved":false,"is_disabled":false,"rental_uris":{"android":"levelo://app?vid=340ca0e2-d009-4e4f-9ed1-daa5947a0e52","ios":"levelo://app?vid=340ca0e2-d009-4e4f-9ed1-daa5947a0e52"},"vehicle_type_id":"4","last_reported":1774851772,"current_range_meters":5600,"station_id":"ce4bhah2rcd13ifvqei0","pricing_plan_id":"cebpf4jnsgd1na2vs0mg"},{"bike_id":"a64725f4-473a-4192-84f8-9b61128ead78","system_id":"levelo_inurba_marseille","lat":43.21743,"lon":5.3459,"is_reserved":false,"is_disabled":false,"rental_uris":{"android":"levelo://app?vid=a64725f4-473a-4192-84f8-9b61128ead78","ios":"levelo://app?vid=a64725f4-473a-4192-84f8-9b61128ead78"},"vehicle_type_id":"4","last_reported":1774851772,"current_range_meters":5600,"station_id":"st_cvj6r9ubvosntc0bgbag","pricing_plan_id":"cebpf4jnsgd1na2vs0mg"},{"bike_id":"2e2f6f92-a6a4-45c0-97c3-957e3d8f2b5d","system_id":"levelo_inurba_marseille","lat":43.29353,"lon":5.38328,"is_reserved":false,"is_disabled":false,"rental_uris":{"android":"levelo://app?vid=2e2f6f92-a6a4-45c0-97c3-957e3d8f2b5d","ios":"levelo://app?vid=2e2f6f92-a6a4-45c0-97c3-957e3d8f2b5d"},"vehicle_type_id":"4","last_reported":1774851772,"current_range_meters":6000,"station_id":"","pricing_plan_id":"cebpf4jnsgd1na2vs0mg"},{"bike_id":"e4c64c7e-715d-4133-a954-c0c0ede6043f","system_id":"levelo_inurba_marseille","lat":43.23893,"lon":5.37669,"is_reserved":false,"is_disabled":false,"rental_uris":{"android":"levelo://app?vid=e4c64c7e-715d-4133-a954-c0c0ede6043f","ios":"levelo://app?vid=e4c64c7e-715d-4133-a954-c0c0ede6043f"},"vehicle_type_id":"4","last_reported":1774851772,"current_range_meters":6000,"station_id":"","pricing_plan_id":"cebpf4jnsgd1na2vs0mg"},{"bike_id":"088da119-456d-443e-9875-26e5da35283c","system_id":"levelo_inurba_marseille","lat":43.21211,"lon":5.35134,"is_reserved":false,"is_disabled":false,"rental_uris":{"android":"levelo://app?vid=088da119-456d-443e-9875-26e5da35283c","ios":"levelo://app?vid=088da119-456d-443e-9875-26e5da35283c"},"vehicle_type_id":"4","last_reported":1774851772,"current_range_meters":6000,"station_id":"st_cvj6sg6p6f1abm77japg","pricing_plan_id":"cebpf4jnsgd1na2vs0mg"},{"bike_id":"2646a24a-8789-4505-bd9c-a60cb74fd735","system_id":"levelo_inurba_marseille","lat":43.24806,"lon":5.37495,"is_reserved":false,"is_disabled":false,"rental_uris":{"android":"levelo://app?vid=2646a24a-8789-4505-bd9c-a60cb74fd735","ios":"levelo://app?vid=2646a24a-8789-4505-bd9c-a60cb74fd735"},"vehicle_type_id":"4","last_reported":1774851772,"current_range_meters":6000,"station_id":"ce4bhgh2rcd13ifvqfb0","pricing_plan_id":"cebpf4jnsgd1na2vs0mg"},{"bike_id":"44fcd759-9a56-46a2-bd02-832413de512d","system_id":"levelo_inurba_marseille","lat":43.30888,"lon":5.39655,"is_reserved":false,"is_disabled":false,"rental_uris":{"android":"levelo://app?vid=44fcd759-9a56-46a2-bd02-832413de512d","ios":"levelo://app?vid=44fcd759-9a56-46a2-bd02-832413de512d"},"vehicle_type_id":"4","last_reported":1774851772,"current_range_meters":6000,"station_id":"ce4bh012rcd13ifvqcv0","pricing_plan_id":"cebpf4jnsgd1na2vs0mg"},{"bike_id":"e4ac35e4-8859-436b-9a81-4c436fcedcff","system_id":"levelo_inurba_marseille","lat":43.28532,"lon":5.44085,"is_reserved":false,"is_disabled":false,"rental_uris":{"android":"levelo://app?vid=e4ac35e4-8859-436b-9a81-4c436fcedcff","ios":"levelo://app?vid=e4ac35e4-8859-436b-9a81-4c436fcedcff"},"vehicle_type_id":"4","last_reported":1774851772,"current_range_meters":6000,"station_id":"st_d3j3df2ikq2c7380ej80","pricing_plan_id":"cebpf4jnsgd1na2vs0mg"},{"bike_id":"710bc4b3-f058-4840-94bd-d40559a26300","system_id":"levelo_inurba_marseille","lat":43.312,"lon":5.38708,"is_reserved":false,"is_disabled":false,"rental_uris":{"android":"levelo://app?vid=710bc4b3-f058-4840-94bd-d40559a26300","ios":"levelo://app?vid=710bc4b3-f058-4840-94bd-d40559a26300"},"vehicle_type_id":"4","last_reported":1774851772,"current_range_meters":6000,"station_id":"ce4bgv12rcd13ifvqcp0","pricing_plan_id":"cebpf4jnsgd1na2vs0mg"},{"bike_id":"3534d08f-465c-4a90-8e08-626d07bffbf2","system_id":"levelo_inurba_marseille","lat":43.24661,"lon":5.38147,"is_reserved":false,"is_disabled":false,"rental_uris":{"android":"levelo://app?vid=3534d08f-465c-4a90-8e08-626d07bffbf2","ios":"levelo://app?vid=3534d08f-465c-4a90-8e08-626d07bffbf2"},"vehicle_type_id":"4","last_reported":1774851772,"current_range_meters":6000,"station_id":"ce4bhih2rcd13ifvqfr0","pricing_plan_id":"cebpf4jnsgd1na2vs0mg"},{"bike_id":"2bdfbcc0-5bd2-4334-829a-0d7beb701604","system_id":"levelo_inurba_marseille","lat":43.2963,"lon":5.37704,"is_reserved":false,"is_disabled":false,"rental_uris":{"android":"levelo://app?vid=2bdfbcc0-5bd2-4334-829a-0d7beb701604","ios":"levelo://app?vid=2bdfbcc0-5bd2-4334-829a-0d7beb701604"},"vehicle_type_id":"4","last_reported":1774851772,"current_range_meters":6000,"station_id":"ce4bgi92rcd13ifvqb90","pricing_plan_id":"cebpf4jnsgd1na2vs0mg"},{"bike_id":"d833fe9b-98f1-45e4-bf08-638fcb97699f","system_id":"levelo_inurba_marseille","lat":43.28484,"lon":5.38417,"is_reserved":false,"is_disabled":false,"rental_uris":{"android":"levelo://app?vid=d833fe9b-98f1-45e4-bf08-638fcb97699f","ios":"levelo://app?vid=d833fe9b-98f1-45e4-bf08-638fcb97699f"},"vehicle_type_id":"4","last_reported":1774851772,"current_range_meters":6000,"station_id":"ce4bh512rcd13ifvqe3g","pricing_plan_id":"cebpf4jnsgd1na2vs0mg"},{"bike_id":"4faad44a-8606-4b83-ac95-f0eb51094fd5","system_id":"levelo_inurba_marseille","lat":43.24068,"lon":5.37759,"is_reserved":false,"is_disabled":false,"rental_uris":{"android":"levelo://app?vid=4faad44a-8606-4b83-ac95-f0eb51094fd5","ios":"levelo://app?vid=4faad44a-8606-4b83-ac95-f0eb51094fd5"},"vehicle_type_id":"4","last_reported":1774851772,"current_range_meters":6000,"station_id":"ce4bhnp2rcd13ifvqgvg","pricing_plan_id":"cebpf4jnsgd1na2vs0mg"},{"bike_id":"7ff5e948-0e94-496d-8b12-67c7c2774e67","system_id":"levelo_inurba_marseille","lat":43.28521,"lon":5.44109,"is_reserved":false,"is_disabled":false,"rental_uris":{"android":"levelo://app?vid=7ff5e948-0e94-496d-8b12-67c7c2774e67","ios":"levelo://app?vid=7ff5e948-0e94-496d-8b12-67c7c2774e67"},"vehicle_type_id":"4","last_reported":1774851772,"current_range_meters":6400,"station_id":"st_d3j3df2ikq2c7380ej80","pricing_plan_id":"cebpf4jnsgd1na2vs0mg"},{"bike_id":"939f6e6d-e948-4968-9164-6c587a97e5ef","system_id":"levelo_inurba_marseille","lat":43.27811,"lon":5.40718,"is_reserved":false,"is_disabled":false,"rental_uris":{"android":"levelo://app?vid=939f6e6d-e948-4968-9164-6c587a97e5ef","ios":"levelo://app?vid=939f6e6d-e948-4968-9164-6c587a97e5ef"},"vehicle_type_id":"4","last_reported":1774851772,"current_range_meters":6400,"station_id":"ce4bhnh2rcd13ifvqgtg","pricing_plan_id":"cebpf4jnsgd1na2vs0mg"},{"bike_id":"49a82a77-f394-42b9-96ce-367ff6c7b517","system_id":"levelo_inurba_marseille","lat":43.30631,"lon":5.40077,"is_reserved":false,"is_disabled":false,"rental_uris":{"android":"levelo://app?vid=49a82a77-f394-42b9-96ce-367ff6c7b517","ios":"levelo://app?vid=49a82a77-f394-42b9-96ce-367ff6c7b517"},"vehicle_type_id":"4","last_reported":1774851772,"current_range_meters":6400,"station_id":"ce4bh112rcd13ifvqda0","pricing_plan_id":"cebpf4jnsgd1na2vs0mg"},{"bike_id":"4b12e097-ae22-4970-8984-6cb2b7206769","system_id":"levelo_inurba_marseille","lat":43.30353,"lon":5.4249,"is_reserved":false,"is_disabled":false,"rental_uris":{"android":"levelo://app?vid=4b12e097-ae22-4970-8984-6cb2b7206769","ios":"levelo://app?vid=4b12e097-ae22-4970-8984-6cb2b7206769"},"vehicle_type_id":"4","last_reported":1774851772,"current_range_meters":6400,"station_id":"ce4bhoh2rcd13ifvqh6g","pricing_plan_id":"cebpf4jnsgd1na2vs0mg"},{"bike_id":"215fb887-06ca-4716-9109-47b7d1235915","system_id":"levelo_inurba_marseille","lat":43.29525,"lon":5.39025,"is_reserved":false,"is_disabled":true,"rental_uris":{"android":"levelo://app?vid=215fb887-06ca-4716-9109-47b7d1235915","ios":"levelo://app?vid=215fb887-06ca-4716-9109-47b7d1235915"},"vehicle_type_id":"4","last_reported":1774851772,"current_range_meters":6400,"station_id":"ce4bh3p2rcd13ifvqdp0","pricing_plan_id":"cebpf4jnsgd1na2vs0mg"},{"bike_id":"96b45d31-bef5-4eeb-8979-9268c25a6fe7","system_id":"levelo_inurba_marseille","lat":43.31196,"lon":5.36854,"is_reserved":false,"is_disabled":false,"rental_uris":{"android":"levelo://app?vid=96b45d31-bef5-4eeb-8979-9268c25a6fe7","ios":"levelo://app?vid=96b45d31-bef5-4eeb-8979-9268c25a6fe7"},"vehicle_type_id":"4","last_reported":1774851772,"current_range_meters":6400,"station_id":"ce4bgl92rcd13ifvqbq0","pricing_plan_id":"cebpf4jnsgd1na2vs0mg"},{"bike_id":"dc1a1b41-e29e-4a9c-b580-0ecb33f8d6fb","system_id":"levelo_inurba_marseille","lat":43.28941,"lon":5.36633,"is_reserved":false,"is_disabled":false,"rental_uris":{"android":"levelo://app?vid=dc1a1b41-e29e-4a9c-b580-0ecb33f8d6fb","ios":"levelo://app?vid=dc1a1b41-e29e-4a9c-b580-0ecb33f8d6fb"},"vehicle_type_id":"4","last_reported":1774851772,"current_range_meters":6400,"station_id":"ce4bhap2rcd13ifvqek0","pricing_plan_id":"cebpf4jnsgd1na2vs0mg"},{"bike_id":"02217484-4f32-44c2-b7a8-2ef38d2857a8","system_id":"levelo_inurba_marseille","lat":43.25886,"lon":5.39527,"is_reserved":false,"is_disabled":false,"rental_uris":{"android":"levelo://app?vid=02217484-4f32-44c2-b7a8-2ef38d2857a8","ios":"levelo://app?vid=02217484-4f32-44c2-b7a8-2ef38d2857a8"},"vehicle_type_id":"4","last_reported":1774851772,"current_range_meters":6400,"station_id":"","pricing_plan_id":"cebpf4jnsgd1na2vs0mg"},{"bike_id":"97660c46-26b2-45fa-bf6d-c74d45b46c59","system_id":"levelo_inurba_marseille","lat":43.28227,"lon":5.39067,"is_reserved":false,"is_disabled":false,"rental_uris":{"android":"levelo://app?vid=97660c46-26b2-45fa-bf6d-c74d45b46c59","ios":"levelo://app?vid=97660c46-26b2-45fa-bf6d-c74d45b46c59"},"vehicle_type_id":"4","last_reported":1774851772,"current_range_meters":6400,"station_id":"ce4bhn92rcd13ifvqgsg","pricing_plan_id":"cebpf4jnsgd1na2vs0mg"},{"bike_id":"7c0b2dcc-e543-4bb8-98c9-d82ab1f17767","system_id":"levelo_inurba_marseille","lat":43.29022,"lon":5.38622,"is_reserved":false,"is_disabled":false,"rental_uris":{"android":"levelo://app?vid=7c0b2dcc-e543-4bb8-98c9-d82ab1f17767","ios":"levelo://app?vid=7c0b2dcc-e543-4bb8-98c9-d82ab1f17767"},"vehicle_type_id":"4","last_reported":1774851772,"current_range_meters":6400,"station_id":"ce4bh4p2rcd13ifvqe0g","pricing_plan_id":"cebpf4jnsgd1na2vs0mg"},{"bike_id":"dc79fefa-d554-4ea7-b0f6-dfb50b76419c","system_id":"levelo_inurba_marseille","lat":43.25845,"lon":5.39432,"is_reserved":false,"is_disabled":false,"rental_uris":{"android":"levelo://app?vid=dc79fefa-d554-4ea7-b0f6-dfb50b76419c","ios":"levelo://app?vid=dc79fefa-d554-4ea7-b0f6-dfb50b76419c"},"vehicle_type_id":"4","last_reported":1774851772,"current_range_meters":6400,"station_id":"ce4bhip2rcd13ifvqft0","pricing_plan_id":"cebpf4jnsgd1na2vs0mg"},{"bike_id":"0938e534-478c-4280-9f47-ff70799a655a","system_id":"levelo_inurba_marseille","lat":43.23875,"lon":5.37461,"is_reserved":false,"is_disabled":false,"rental_uris":{"android":"levelo://app?vid=0938e534-478c-4280-9f47-ff70799a655a","ios":"levelo://app?vid=0938e534-478c-4280-9f47-ff70799a655a"},"vehicle_type_id":"4","last_reported":1774851772,"current_range_meters":6400,"station_id":"st_d6sm7csbq4hs73f8fpjg","pricing_plan_id":"cebpf4jnsgd1na2vs0mg"},{"bike_id":"cee9b460-3960-4431-84b1-f885e5c227d3","system_id":"levelo_inurba_marseille","lat":43.2658,"lon":5.39041,"is_reserved":false,"is_disabled":false,"rental_uris":{"android":"levelo://app?vid=cee9b460-3960-4431-84b1-f885e5c227d3","ios":"levelo://app?vid=cee9b460-3960-4431-84b1-f885e5c227d3"},"vehicle_type_id":"4","last_reported":1774851772,"current_range_meters":6800,"station_id":"ce4bhe12rcd13ifvqf30","pricing_plan_id":"cebpf4jnsgd1na2vs0mg"},{"bike_id":"f4011c50-b77a-4a95-9061-8c55273b607b","system_id":"levelo_inurba_marseille","lat":43.30463,"lon":5.37904,"is_reserved":false,"is_disabled":false,"rental_uris":{"android":"levelo://app?vid=f4011c50-b77a-4a95-9061-8c55273b607b","ios":"levelo://app?vid=f4011c50-b77a-4a95-9061-8c55273b607b"},"vehicle_type_id":"4","last_reported":1774851772,"current_range_meters":6800,"station_id":"ce4bgup2rcd13ifvqcn0","pricing_plan_id":"cebpf4jnsgd1na2vs0mg"},{"bike_id":"88900821-ac79-4ee5-8fc9-e889474b5abd","system_id":"levelo_inurba_marseille","lat":43.28627,"lon":5.3507,"is_reserved":false,"is_disabled":false,"rental_uris":{"android":"levelo://app?vid=88900821-ac79-4ee5-8fc9-e889474b5abd","ios":"levelo://app?vid=88900821-ac79-4ee5-8fc9-e889474b5abd"},"vehicle_type_id":"4","last_reported":1774851772,"current_range_meters":6800,"station_id":"ce4bhch2rcd13ifvqeug","pricing_plan_id":"cebpf4jnsgd1na2vs0mg"},{"bike_id":"8fe266f3-c482-43a4-899c-519358ab6ba4","system_id":"levelo_inurba_marseille","lat":43.31108,"lon":5.37788,"is_reserved":false,"is_disabled":false,"rental_uris":{"android":"levelo://app?vid=8fe266f3-c482-43a4-899c-519358ab6ba4","ios":"levelo://app?vid=8fe266f3-c482-43a4-899c-519358ab6ba4"},"vehicle_type_id":"4","last_reported":1774851772,"current_range_meters":6800,"station_id":"ce4bgt92rcd13ifvqcg0","pricing_plan_id":"cebpf4jnsgd1na2vs0mg"},{"bike_id":"e027651c-1b58-49be-8465-35e7c80537f6","system_id":"levelo_inurba_marseille","lat":43.28597,"lon":5.35098,"is_reserved":false,"is_disabled":false,"rental_uris":{"android":"levelo://app?vid=e027651c-1b58-49be-8465-35e7c80537f6","ios":"levelo://app?vid=e027651c-1b58-49be-8465-35e7c80537f6"},"vehicle_type_id":"4","last_reported":1774851772,"current_range_meters":6800,"station_id":"ce4bhch2rcd13ifvqeug","pricing_plan_id":"cebpf4jnsgd1na2vs0mg"},{"bike_id":"25935fd8-662d-438b-8a78-ddcbba487562","system_id":"levelo_inurba_marseille","lat":43.2961,"lon":5.37756,"is_reserved":false,"is_disabled":false,"rental_uris":{"android":"levelo://app?vid=25935fd8-662d-438b-8a78-ddcbba487562","ios":"levelo://app?vid=25935fd8-662d-438b-8a78-ddcbba487562"},"vehicle_type_id":"4","last_reported":1774851772,"current_range_meters":6800,"station_id":"ce4bgi92rcd13ifvqb90","pricing_plan_id":"cebpf4jnsgd1na2vs0mg"},{"bike_id":"53663ac0-fb67-4fd6-93fb-505259351e45","system_id":"levelo_inurba_marseille","lat":43.26937,"lon":5.40259,"is_reserved":false,"is_disabled":false,"rental_uris":{"android":"levelo://app?vid=53663ac0-fb67-4fd6-93fb-505259351e45","ios":"levelo://app?vid=53663ac0-fb67-4fd6-93fb-505259351e45"},"vehicle_type_id":"4","last_reported":1774851772,"current_range_meters":6800,"station_id":"cjm6bp8fraef2m0cb0m0","pricing_plan_id":"cebpf4jnsgd1na2vs0mg"},{"bike_id":"1300e63d-fd58-4d12-9c81-8ae805e12074","system_id":"levelo_inurba_marseille","lat":43.28209,"lon":5.39059,"is_reserved":false,"is_disabled":false,"rental_uris":{"android":"levelo://app?vid=1300e63d-fd58-4d12-9c81-8ae805e12074","ios":"levelo://app?vid=1300e63d-fd58-4d12-9c81-8ae805e12074"},"vehicle_type_id":"4","last_reported":1774851772,"current_range_meters":6800,"station_id":"ce4bhn92rcd13ifvqgsg","pricing_plan_id":"cebpf4jnsgd1na2vs0mg"},{"bike_id":"91eafa08-026f-40c5-b5de-6910a52e733d","system_id":"levelo_inurba_marseille","lat":43.24472,"lon":5.4254,"is_reserved":false,"is_disabled":false,"rental_uris":{"android":"levelo://app?vid=91eafa08-026f-40c5-b5de-6910a52e733d","ios":"levelo://app?vid=91eafa08-026f-40c5-b5de-6910a52e733d"},"vehicle_type_id":"4","last_reported":1774851772,"current_range_meters":6800,"station_id":"st_d4a3vfp97mjs738cd8kg","pricing_plan_id":"cebpf4jnsgd1na2vs0mg"},{"bike_id":"722178ea-9ec4-4a61-a4f3-4a88327f65c6","system_id":"levelo_inurba_marseille","lat":43.32336,"lon":5.36731,"is_reserved":false,"is_disabled":false,"rental_uris":{"android":"levelo://app?vid=722178ea-9ec4-4a61-a4f3-4a88327f65c6","ios":"levelo://app?vid=722178ea-9ec4-4a61-a4f3-4a88327f65c6"},"vehicle_type_id":"4","last_reported":1774851772,"current_range_meters":6800,"station_id":"ce4bhsh2rcd13ifvqi2g","pricing_plan_id":"cebpf4jnsgd1na2vs0mg"},{"bike_id":"f16b920d-4760-44fd-92f5-b6cf293c8515","system_id":"levelo_inurba_marseille","lat":43.23197,"lon":5.35544,"is_reserved":false,"is_disabled":false,"rental_uris":{"android":"levelo://app?vid=f16b920d-4760-44fd-92f5-b6cf293c8515","ios":"levelo://app?vid=f16b920d-4760-44fd-92f5-b6cf293c8515"},"vehicle_type_id":"4","last_reported":1774851772,"current_range_meters":6800,"station_id":"ce4bhu92rcd13ifvqi70","pricing_plan_id":"cebpf4jnsgd1na2vs0mg"},{"bike_id":"67a5d5c7-3521-4623-a1ce-e8cf1f7867be","system_id":"levelo_inurba_marseille","lat":43.24463,"lon":5.42537,"is_reserved":false,"is_disabled":false,"rental_uris":{"android":"levelo://app?vid=67a5d5c7-3521-4623-a1ce-e8cf1f7867be","ios":"levelo://app?vid=67a5d5c7-3521-4623-a1ce-e8cf1f7867be"},"vehicle_type_id":"4","last_reported":1774851772,"current_range_meters":6800,"station_id":"st_d4a3vfp97mjs738cd8kg","pricing_plan_id":"cebpf4jnsgd1na2vs0mg"},{"bike_id":"849bfc41-03ac-4b99-b553-b7d8ec5920c4","system_id":"levelo_inurba_marseille","lat":43.25083,"lon":5.39505,"is_reserved":false,"is_disabled":false,"rental_uris":{"android":"levelo://app?vid=849bfc41-03ac-4b99-b553-b7d8ec5920c4","ios":"levelo://app?vid=849bfc41-03ac-4b99-b553-b7d8ec5920c4"},"vehicle_type_id":"4","last_reported":1774851772,"current_range_meters":6800,"station_id":"ce4bhm12rcd13ifvqgkg","pricing_plan_id":"cebpf4jnsgd1na2vs0mg"},{"bike_id":"f49642d7-0c88-4377-92f6-f3b93aee0876","system_id":"levelo_inurba_marseille","lat":43.29598,"lon":5.381007,"is_reserved":false,"is_disabled":true,"rental_uris":{"android":"levelo://app?vid=f49642d7-0c88-4377-92f6-f3b93aee0876","ios":"levelo://app?vid=f49642d7-0c88-4377-92f6-f3b93aee0876"},"vehicle_type_id":"4","last_reported":1774851772,"current_range_meters":6800,"station_id":"ce4bgl12rcd13ifvqbo0","pricing_plan_id":"cebpf4jnsgd1na2vs0mg"},{"bike_id":"31dcb3d6-74bd-427c-bfd6-253f1e71f3d7","system_id":"levelo_inurba_marseille","lat":43.25931,"lon":5.40911,"is_reserved":false,"is_disabled":false,"rental_uris":{"android":"levelo://app?vid=31dcb3d6-74bd-427c-bfd6-253f1e71f3d7","ios":"levelo://app?vid=31dcb3d6-74bd-427c-bfd6-253f1e71f3d7"},"vehicle_type_id":"4","last_reported":1774851772,"current_range_meters":7200,"station_id":"ce4bhm92rcd13ifvqglg","pricing_plan_id":"cebpf4jnsgd1na2vs0mg"},{"bike_id":"a7d7c775-e3ce-4737-a7aa-c26b20914e90","system_id":"levelo_inurba_marseille","lat":43.33165,"lon":5.37693,"is_reserved":false,"is_disabled":false,"rental_uris":{"android":"levelo://app?vid=a7d7c775-e3ce-4737-a7aa-c26b20914e90","ios":"levelo://app?vid=a7d7c775-e3ce-4737-a7aa-c26b20914e90"},"vehicle_type_id":"4","last_reported":1774851772,"current_range_meters":7200,"station_id":"st_d46cu089ee8s73dldbu0","pricing_plan_id":"cebpf4jnsgd1na2vs0mg"},{"bike_id":"2c7f9117-9f7a-4220-adbe-475be332f25c","system_id":"levelo_inurba_marseille","lat":43.29131,"lon":5.38073,"is_reserved":false,"is_disabled":false,"rental_uris":{"android":"levelo://app?vid=2c7f9117-9f7a-4220-adbe-475be332f25c","ios":"levelo://app?vid=2c7f9117-9f7a-4220-adbe-475be332f25c"},"vehicle_type_id":"4","last_reported":1774851772,"current_range_meters":7200,"station_id":"","pricing_plan_id":"cebpf4jnsgd1na2vs0mg"},{"bike_id":"31e81b7a-66af-477c-968a-9e76a165a287","system_id":"levelo_inurba_marseille","lat":43.29251,"lon":5.40906,"is_reserved":false,"is_disabled":false,"rental_uris":{"android":"levelo://app?vid=31e81b7a-66af-477c-968a-9e76a165a287","ios":"levelo://app?vid=31e81b7a-66af-477c-968a-9e76a165a287"},"vehicle_type_id":"4","last_reported":1774851772,"current_range_meters":7200,"station_id":"ce4bh192rcd13ifvqdc0","pricing_plan_id":"cebpf4jnsgd1na2vs0mg"},{"bike_id":"169c1d4a-c874-4f24-8a56-560e80814a9e","system_id":"levelo_inurba_marseille","lat":43.30953,"lon":5.39013,"is_reserved":false,"is_disabled":false,"rental_uris":{"android":"levelo://app?vid=169c1d4a-c874-4f24-8a56-560e80814a9e","ios":"levelo://app?vid=169c1d4a-c874-4f24-8a56-560e80814a9e"},"vehicle_type_id":"4","last_reported":1774851772,"current_range_meters":7200,"station_id":"ce4bgup2rcd13ifvqco0","pricing_plan_id":"cebpf4jnsgd1na2vs0mg"},{"bike_id":"9c8c9892-96dc-455e-ba7a-a654d9f0546a","system_id":"levelo_inurba_marseille","lat":43.28721,"lon":5.39961,"is_reserved":false,"is_disabled":false,"rental_uris":{"android":"levelo://app?vid=9c8c9892-96dc-455e-ba7a-a654d9f0546a","ios":"levelo://app?vid=9c8c9892-96dc-455e-ba7a-a654d9f0546a"},"vehicle_type_id":"4","last_reported":1774851772,"current_range_meters":7200,"station_id":"ce4bho92rcd13ifvqh3g","pricing_plan_id":"cebpf4jnsgd1na2vs0mg"},{"bike_id":"53f142a0-3955-4808-b4c6-e1524bc3e079","system_id":"levelo_inurba_marseille","lat":43.21212,"lon":5.35099,"is_reserved":false,"is_disabled":false,"rental_uris":{"android":"levelo://app?vid=53f142a0-3955-4808-b4c6-e1524bc3e079","ios":"levelo://app?vid=53f142a0-3955-4808-b4c6-e1524bc3e079"},"vehicle_type_id":"4","last_reported":1774851772,"current_range_meters":7200,"station_id":"st_cvj6sg6p6f1abm77japg","pricing_plan_id":"cebpf4jnsgd1na2vs0mg"},{"bike_id":"496cdebc-c3e4-41cb-9a9b-c6677bbdd848","system_id":"levelo_inurba_marseille","lat":43.22536,"lon":5.34832,"is_reserved":false,"is_disabled":false,"rental_uris":{"android":"levelo://app?vid=496cdebc-c3e4-41cb-9a9b-c6677bbdd848","ios":"levelo://app?vid=496cdebc-c3e4-41cb-9a9b-c6677bbdd848"},"vehicle_type_id":"4","last_reported":1774851772,"current_range_meters":7200,"station_id":"","pricing_plan_id":"cebpf4jnsgd1na2vs0mg"},{"bike_id":"2e473b1d-39dc-4686-a52e-6eb05e99392b","system_id":"levelo_inurba_marseille","lat":43.28364,"lon":5.34971,"is_reserved":false,"is_disabled":false,"rental_uris":{"android":"levelo://app?vid=2e473b1d-39dc-4686-a52e-6eb05e99392b","ios":"levelo://app?vid=2e473b1d-39dc-4686-a52e-6eb05e99392b"},"vehicle_type_id":"4","last_reported":1774851772,"current_range_meters":7200,"station_id":"","pricing_plan_id":"cebpf4jnsgd1na2vs0mg"},{"bike_id":"335d056c-bd64-4d09-a2ea-845d7caf9344","system_id":"levelo_inurba_marseille","lat":43.28614,"lon":5.35105,"is_reserved":false,"is_disabled":false,"rental_uris":{"android":"levelo://app?vid=335d056c-bd64-4d09-a2ea-845d7caf9344","ios":"levelo://app?vid=335d056c-bd64-4d09-a2ea-845d7caf9344"},"vehicle_type_id":"4","last_reported":1774851772,"current_range_meters":7200,"station_id":"ce4bhch2rcd13ifvqeug","pricing_plan_id":"cebpf4jnsgd1na2vs0mg"},{"bike_id":"c86d845d-a9a1-4000-acdd-408b4f74bb9d","system_id":"levelo_inurba_marseille","lat":43.31359,"lon":5.36706,"is_reserved":false,"is_disabled":false,"rental_uris":{"android":"levelo://app?vid=c86d845d-a9a1-4000-acdd-408b4f74bb9d","ios":"levelo://app?vid=c86d845d-a9a1-4000-acdd-408b4f74bb9d"},"vehicle_type_id":"4","last_reported":1774851772,"current_range_meters":7200,"station_id":"ce4bgr92rcd13ifvqc6g","pricing_plan_id":"cebpf4jnsgd1na2vs0mg"},{"bike_id":"25885b88-a323-45a7-9587-9cd04cb91b9a","system_id":"levelo_inurba_marseille","lat":43.29882,"lon":5.38879,"is_reserved":false,"is_disabled":true,"rental_uris":{"android":"levelo://app?vid=25885b88-a323-45a7-9587-9cd04cb91b9a","ios":"levelo://app?vid=25885b88-a323-45a7-9587-9cd04cb91b9a"},"vehicle_type_id":"4","last_reported":1774851772,"current_range_meters":7200,"station_id":"ce4bh392rcd13ifvqdl0","pricing_plan_id":"cebpf4jnsgd1na2vs0mg"},{"bike_id":"dca0e263-84b7-4dc7-affb-635c293f0879","system_id":"levelo_inurba_marseille","lat":43.29552,"lon":5.42301,"is_reserved":false,"is_disabled":false,"rental_uris":{"android":"levelo://app?vid=dca0e263-84b7-4dc7-affb-635c293f0879","ios":"levelo://app?vid=dca0e263-84b7-4dc7-affb-635c293f0879"},"vehicle_type_id":"4","last_reported":1774851772,"current_range_meters":7200,"station_id":"ce4bhph2rcd13ifvqhdg","pricing_plan_id":"cebpf4jnsgd1na2vs0mg"},{"bike_id":"59f02258-c77d-4c49-9c7b-1f67ecd2886b","system_id":"levelo_inurba_marseille","lat":43.24057,"lon":5.37739,"is_reserved":false,"is_disabled":false,"rental_uris":{"android":"levelo://app?vid=59f02258-c77d-4c49-9c7b-1f67ecd2886b","ios":"levelo://app?vid=59f02258-c77d-4c49-9c7b-1f67ecd2886b"},"vehicle_type_id":"4","last_reported":1774851772,"current_range_meters":7200,"station_id":"ce4bhnp2rcd13ifvqgvg","pricing_plan_id":"cebpf4jnsgd1na2vs0mg"},{"bike_id":"52507308-d8fb-42a5-ba86-e41205504c53","system_id":"levelo_inurba_marseille","lat":43.30038,"lon":5.39068,"is_reserved":false,"is_disabled":false,"rental_uris":{"android":"levelo://app?vid=52507308-d8fb-42a5-ba86-e41205504c53","ios":"levelo://app?vid=52507308-d8fb-42a5-ba86-e41205504c53"},"vehicle_type_id":"4","last_reported":1774851772,"current_range_meters":7200,"station_id":"ce4bh192rcd13ifvqdb0","pricing_plan_id":"cebpf4jnsgd1na2vs0mg"},{"bike_id":"4ec776a3-086c-483b-86fe-3dbf174790e8","system_id":"levelo_inurba_marseille","lat":43.31454,"lon":5.39297,"is_reserved":false,"is_disabled":false,"rental_uris":{"android":"levelo://app?vid=4ec776a3-086c-483b-86fe-3dbf174790e8","ios":"levelo://app?vid=4ec776a3-086c-483b-86fe-3dbf174790e8"},"vehicle_type_id":"4","last_reported":1774851772,"current_range_meters":7200,"station_id":"","pricing_plan_id":"cebpf4jnsgd1na2vs0mg"},{"bike_id":"e3691666-67af-4e7b-96ae-3eba13f0ed2b","system_id":"levelo_inurba_marseille","lat":43.31455,"lon":5.37299,"is_reserved":false,"is_disabled":false,"rental_uris":{"android":"levelo://app?vid=e3691666-67af-4e7b-96ae-3eba13f0ed2b","ios":"levelo://app?vid=e3691666-67af-4e7b-96ae-3eba13f0ed2b"},"vehicle_type_id":"4","last_reported":1774851772,"current_range_meters":7200,"station_id":"ce4bgt12rcd13ifvqcd0","pricing_plan_id":"cebpf4jnsgd1na2vs0mg"},{"bike_id":"3aae17fa-7bc6-455a-960a-4ceda4265238","system_id":"levelo_inurba_marseille","lat":43.32369,"lon":5.3671,"is_reserved":false,"is_disabled":false,"rental_uris":{"android":"levelo://app?vid=3aae17fa-7bc6-455a-960a-4ceda4265238","ios":"levelo://app?vid=3aae17fa-7bc6-455a-960a-4ceda4265238"},"vehicle_type_id":"4","last_reported":1774851772,"current_range_meters":7200,"station_id":"","pricing_plan_id":"cebpf4jnsgd1na2vs0mg"},{"bike_id":"609a3f51-95d7-4bff-9fb9-07e7f142b6aa","system_id":"levelo_inurba_marseille","lat":43.29729,"lon":5.37031,"is_reserved":false,"is_disabled":false,"rental_uris":{"android":"levelo://app?vid=609a3f51-95d7-4bff-9fb9-07e7f142b6aa","ios":"levelo://app?vid=609a3f51-95d7-4bff-9fb9-07e7f142b6aa"},"vehicle_type_id":"4","last_reported":1774851772,"current_range_meters":7200,"station_id":"","pricing_plan_id":"cebpf4jnsgd1na2vs0mg"},{"bike_id":"6fc52f75-ef56-4b29-85e0-0f7e3e6230ae","system_id":"levelo_inurba_marseille","lat":43.25871,"lon":5.39906,"is_reserved":false,"is_disabled":false,"rental_uris":{"android":"levelo://app?vid=6fc52f75-ef56-4b29-85e0-0f7e3e6230ae","ios":"levelo://app?vid=6fc52f75-ef56-4b29-85e0-0f7e3e6230ae"},"vehicle_type_id":"4","last_reported":1774851772,"current_range_meters":7200,"station_id":"ce4bhl92rcd13ifvqghg","pricing_plan_id":"cebpf4jnsgd1na2vs0mg"},{"bike_id":"1f7507c0-1d57-4435-a922-7c4f891a00c7","system_id":"levelo_inurba_marseille","lat":43.28792,"lon":5.35994,"is_reserved":false,"is_disabled":false,"rental_uris":{"android":"levelo://app?vid=1f7507c0-1d57-4435-a922-7c4f891a00c7","ios":"levelo://app?vid=1f7507c0-1d57-4435-a922-7c4f891a00c7"},"vehicle_type_id":"4","last_reported":1774851772,"current_range_meters":7200,"station_id":"","pricing_plan_id":"cebpf4jnsgd1na2vs0mg"},{"bike_id":"8ac426d0-5d31-4537-bc65-b1eec2515e80","system_id":"levelo_inurba_marseille","lat":43.25825,"lon":5.39433,"is_reserved":false,"is_disabled":false,"rental_uris":{"android":"levelo://app?vid=8ac426d0-5d31-4537-bc65-b1eec2515e80","ios":"levelo://app?vid=8ac426d0-5d31-4537-bc65-b1eec2515e80"},"vehicle_type_id":"4","last_reported":1774851772,"current_range_meters":8000,"station_id":"ce4bhip2rcd13ifvqft0","pricing_plan_id":"cebpf4jnsgd1na2vs0mg"},{"bike_id":"2f8a6696-f3e1-4981-a727-a5b5da08b61d","system_id":"levelo_inurba_marseille","lat":43.30457,"lon":5.37902,"is_reserved":false,"is_disabled":false,"rental_uris":{"android":"levelo://app?vid=2f8a6696-f3e1-4981-a727-a5b5da08b61d","ios":"levelo://app?vid=2f8a6696-f3e1-4981-a727-a5b5da08b61d"},"vehicle_type_id":"4","last_reported":1774851772,"current_range_meters":8000,"station_id":"ce4bgup2rcd13ifvqcn0","pricing_plan_id":"cebpf4jnsgd1na2vs0mg"},{"bike_id":"69d56898-e8e0-4706-9319-511bcac95851","system_id":"levelo_inurba_marseille","lat":43.28435,"lon":5.35026,"is_reserved":false,"is_disabled":false,"rental_uris":{"android":"levelo://app?vid=69d56898-e8e0-4706-9319-511bcac95851","ios":"levelo://app?vid=69d56898-e8e0-4706-9319-511bcac95851"},"vehicle_type_id":"4","last_reported":1774851772,"current_range_meters":8000,"station_id":"ce4bhbh2rcd13ifvqepg","pricing_plan_id":"cebpf4jnsgd1na2vs0mg"},{"bike_id":"432233ed-5eb3-457f-a1b4-4b2387145c9e","system_id":"levelo_inurba_marseille","lat":43.31165,"lon":5.38729,"is_reserved":false,"is_disabled":false,"rental_uris":{"android":"levelo://app?vid=432233ed-5eb3-457f-a1b4-4b2387145c9e","ios":"levelo://app?vid=432233ed-5eb3-457f-a1b4-4b2387145c9e"},"vehicle_type_id":"4","last_reported":1774851772,"current_range_meters":8000,"station_id":"ce4bgv12rcd13ifvqcp0","pricing_plan_id":"cebpf4jnsgd1na2vs0mg"},{"bike_id":"d04f709c-d702-4a3e-8fe6-e62255574b5f","system_id":"levelo_inurba_marseille","lat":43.30144,"lon":5.38115,"is_reserved":false,"is_disabled":false,"rental_uris":{"android":"levelo://app?vid=d04f709c-d702-4a3e-8fe6-e62255574b5f","ios":"levelo://app?vid=d04f709c-d702-4a3e-8fe6-e62255574b5f"},"vehicle_type_id":"4","last_reported":1774851772,"current_range_meters":8000,"station_id":"ce4bgjp2rcd13ifvqbh0","pricing_plan_id":"cebpf4jnsgd1na2vs0mg"},{"bike_id":"abbbcda3-bb9d-4c1e-8438-081df8f75c24","system_id":"levelo_inurba_marseille","lat":43.23791,"lon":5.36622,"is_reserved":false,"is_disabled":false,"rental_uris":{"android":"levelo://app?vid=abbbcda3-bb9d-4c1e-8438-081df8f75c24","ios":"levelo://app?vid=abbbcda3-bb9d-4c1e-8438-081df8f75c24"},"vehicle_type_id":"4","last_reported":1774851772,"current_range_meters":8000,"station_id":"st_d3nk18o9ro0c73en2l3g","pricing_plan_id":"cebpf4jnsgd1na2vs0mg"},{"bike_id":"b90caad3-7060-4253-981e-42cd0d5fd64b","system_id":"levelo_inurba_marseille","lat":43.2848,"lon":5.48395,"is_reserved":false,"is_disabled":false,"rental_uris":{"android":"levelo://app?vid=b90caad3-7060-4253-981e-42cd0d5fd64b","ios":"levelo://app?vid=b90caad3-7060-4253-981e-42cd0d5fd64b"},"vehicle_type_id":"4","last_reported":1774851772,"current_range_meters":8000,"station_id":"st_d3svhcjqgbts73a3dn0g","pricing_plan_id":"cebpf4jnsgd1na2vs0mg"},{"bike_id":"7ea68384-f694-4a28-85a7-1a4829b38dc5","system_id":"levelo_inurba_marseille","lat":43.28521,"lon":5.44092,"is_reserved":false,"is_disabled":false,"rental_uris":{"android":"levelo://app?vid=7ea68384-f694-4a28-85a7-1a4829b38dc5","ios":"levelo://app?vid=7ea68384-f694-4a28-85a7-1a4829b38dc5"},"vehicle_type_id":"4","last_reported":1774851772,"current_range_meters":8000,"station_id":"st_d3j3df2ikq2c7380ej80","pricing_plan_id":"cebpf4jnsgd1na2vs0mg"},{"bike_id":"e20c75fd-a4e5-4c13-b5fa-2be0fca62af4","system_id":"levelo_inurba_marseille","lat":43.21209,"lon":5.35058,"is_reserved":false,"is_disabled":false,"rental_uris":{"android":"levelo://app?vid=e20c75fd-a4e5-4c13-b5fa-2be0fca62af4","ios":"levelo://app?vid=e20c75fd-a4e5-4c13-b5fa-2be0fca62af4"},"vehicle_type_id":"4","last_reported":1774851772,"current_range_meters":8000,"station_id":"st_cvj6sg6p6f1abm77japg","pricing_plan_id":"cebpf4jnsgd1na2vs0mg"},{"bike_id":"14e7a081-448d-429e-8742-53ba000d00ec","system_id":"levelo_inurba_marseille","lat":43.23785,"lon":5.3663,"is_reserved":false,"is_disabled":false,"rental_uris":{"android":"levelo://app?vid=14e7a081-448d-429e-8742-53ba000d00ec","ios":"levelo://app?vid=14e7a081-448d-429e-8742-53ba000d00ec"},"vehicle_type_id":"4","last_reported":1774851772,"current_range_meters":8000,"station_id":"st_d3nk18o9ro0c73en2l3g","pricing_plan_id":"cebpf4jnsgd1na2vs0mg"},{"bike_id":"131a88d5-b5b2-4532-b511-14fa6f230522","system_id":"levelo_inurba_marseille","lat":43.33722,"lon":5.39179,"is_reserved":false,"is_disabled":false,"rental_uris":{"android":"levelo://app?vid=131a88d5-b5b2-4532-b511-14fa6f230522","ios":"levelo://app?vid=131a88d5-b5b2-4532-b511-14fa6f230522"},"vehicle_type_id":"4","last_reported":1774851772,"current_range_meters":8000,"station_id":"ce4bhr92rcd13ifvqhsg","pricing_plan_id":"cebpf4jnsgd1na2vs0mg"},{"bike_id":"3e56278a-47c3-4d27-b2a7-b0223efdc25d","system_id":"levelo_inurba_marseille","lat":43.2841,"lon":5.34987,"is_reserved":false,"is_disabled":false,"rental_uris":{"android":"levelo://app?vid=3e56278a-47c3-4d27-b2a7-b0223efdc25d","ios":"levelo://app?vid=3e56278a-47c3-4d27-b2a7-b0223efdc25d"},"vehicle_type_id":"4","last_reported":1774851772,"current_range_meters":8000,"station_id":"ce4bhbh2rcd13ifvqepg","pricing_plan_id":"cebpf4jnsgd1na2vs0mg"},{"bike_id":"c4f43044-12db-4483-aded-d8e8b5242fb6","system_id":"levelo_inurba_marseille","lat":43.29912,"lon":5.38165,"is_reserved":false,"is_disabled":false,"rental_uris":{"android":"levelo://app?vid=c4f43044-12db-4483-aded-d8e8b5242fb6","ios":"levelo://app?vid=c4f43044-12db-4483-aded-d8e8b5242fb6"},"vehicle_type_id":"4","last_reported":1774851772,"current_range_meters":8000,"station_id":"ce4bgj12rcd13ifvqbc0","pricing_plan_id":"cebpf4jnsgd1na2vs0mg"},{"bike_id":"8489331d-8f95-4b36-a026-08bb56c1991f","system_id":"levelo_inurba_marseille","lat":43.23781,"lon":5.3661,"is_reserved":false,"is_disabled":false,"rental_uris":{"android":"levelo://app?vid=8489331d-8f95-4b36-a026-08bb56c1991f","ios":"levelo://app?vid=8489331d-8f95-4b36-a026-08bb56c1991f"},"vehicle_type_id":"4","last_reported":1774851772,"current_range_meters":8000,"station_id":"st_d3nk18o9ro0c73en2l3g","pricing_plan_id":"cebpf4jnsgd1na2vs0mg"},{"bike_id":"072e3821-c77f-4817-b92a-bd9075002df6","system_id":"levelo_inurba_marseille","lat":43.28628,"lon":5.39896,"is_reserved":false,"is_disabled":false,"rental_uris":{"android":"levelo://app?vid=072e3821-c77f-4817-b92a-bd9075002df6","ios":"levelo://app?vid=072e3821-c77f-4817-b92a-bd9075002df6"},"vehicle_type_id":"4","last_reported":1774851772,"current_range_meters":8000,"station_id":"st_d4a7ka997mjs738ck50g","pricing_plan_id":"cebpf4jnsgd1na2vs0mg"},{"bike_id":"86db0319-41a7-4493-adee-c184becfe762","system_id":"levelo_inurba_marseille","lat":43.28947,"lon":5.45711,"is_reserved":false,"is_disabled":false,"rental_uris":{"android":"levelo://app?vid=86db0319-41a7-4493-adee-c184becfe762","ios":"levelo://app?vid=86db0319-41a7-4493-adee-c184becfe762"},"vehicle_type_id":"4","last_reported":1774851772,"current_range_meters":8000,"station_id":"","pricing_plan_id":"cebpf4jnsgd1na2vs0mg"},{"bike_id":"affdd64d-1281-404d-9a64-082112bcf535","system_id":"levelo_inurba_marseille","lat":43.26378,"lon":5.41086,"is_reserved":false,"is_disabled":false,"rental_uris":{"android":"levelo://app?vid=affdd64d-1281-404d-9a64-082112bcf535","ios":"levelo://app?vid=affdd64d-1281-404d-9a64-082112bcf535"},"vehicle_type_id":"4","last_reported":1774851772,"current_range_meters":8000,"station_id":"st_d4e5ca6na9uc73bfl5fg","pricing_plan_id":"cebpf4jnsgd1na2vs0mg"},{"bike_id":"de3208ad-e0aa-43cf-b3d0-9b02dc8b1328","system_id":"levelo_inurba_marseille","lat":43.24171,"lon":5.3639,"is_reserved":false,"is_disabled":false,"rental_uris":{"android":"levelo://app?vid=de3208ad-e0aa-43cf-b3d0-9b02dc8b1328","ios":"levelo://app?vid=de3208ad-e0aa-43cf-b3d0-9b02dc8b1328"},"vehicle_type_id":"4","last_reported":1774851772,"current_range_meters":8000,"station_id":"cpo36qri1sfpv3e86is0","pricing_plan_id":"cebpf4jnsgd1na2vs0mg"},{"bike_id":"aba4a31a-18d2-4cad-bb8c-30bd606f5c4c","system_id":"levelo_inurba_marseille","lat":43.24204,"lon":5.36405,"is_reserved":false,"is_disabled":false,"rental_uris":{"android":"levelo://app?vid=aba4a31a-18d2-4cad-bb8c-30bd606f5c4c","ios":"levelo://app?vid=aba4a31a-18d2-4cad-bb8c-30bd606f5c4c"},"vehicle_type_id":"4","last_reported":1774851772,"current_range_meters":8000,"station_id":"cpo36qri1sfpv3e86is0","pricing_plan_id":"cebpf4jnsgd1na2vs0mg"},{"bike_id":"71983624-569c-45d9-9fb5-891a7993a82a","system_id":"levelo_inurba_marseille","lat":43.28396,"lon":5.34991,"is_reserved":false,"is_disabled":false,"rental_uris":{"android":"levelo://app?vid=71983624-569c-45d9-9fb5-891a7993a82a","ios":"levelo://app?vid=71983624-569c-45d9-9fb5-891a7993a82a"},"vehicle_type_id":"4","last_reported":1774851772,"current_range_meters":8000,"station_id":"ce4bhbh2rcd13ifvqepg","pricing_plan_id":"cebpf4jnsgd1na2vs0mg"},{"bike_id":"db2a5d28-8d41-430d-a50a-3270fbd136e3","system_id":"levelo_inurba_marseille","lat":43.28457,"lon":5.48401,"is_reserved":false,"is_disabled":false,"rental_uris":{"android":"levelo://app?vid=db2a5d28-8d41-430d-a50a-3270fbd136e3","ios":"levelo://app?vid=db2a5d28-8d41-430d-a50a-3270fbd136e3"},"vehicle_type_id":"4","last_reported":1774851772,"current_range_meters":8400,"station_id":"st_d3svhcjqgbts73a3dn0g","pricing_plan_id":"cebpf4jnsgd1na2vs0mg"},{"bike_id":"1f632983-5db3-47dd-8d4d-7395c1a9aa86","system_id":"levelo_inurba_marseille","lat":43.24781,"lon":5.37463,"is_reserved":false,"is_disabled":false,"rental_uris":{"android":"levelo://app?vid=1f632983-5db3-47dd-8d4d-7395c1a9aa86","ios":"levelo://app?vid=1f632983-5db3-47dd-8d4d-7395c1a9aa86"},"vehicle_type_id":"4","last_reported":1774851772,"current_range_meters":8400,"station_id":"ce4bhgh2rcd13ifvqfb0","pricing_plan_id":"cebpf4jnsgd1na2vs0mg"},{"bike_id":"8429f855-c4a0-4803-9ce7-0d1fb93dbfe8","system_id":"levelo_inurba_marseille","lat":43.28479,"lon":5.4839,"is_reserved":false,"is_disabled":false,"rental_uris":{"android":"levelo://app?vid=8429f855-c4a0-4803-9ce7-0d1fb93dbfe8","ios":"levelo://app?vid=8429f855-c4a0-4803-9ce7-0d1fb93dbfe8"},"vehicle_type_id":"4","last_reported":1774851772,"current_range_meters":8400,"station_id":"","pricing_plan_id":"cebpf4jnsgd1na2vs0mg"},{"bike_id":"c6f0bfb9-609a-4cc4-9c64-edb005bc49da","system_id":"levelo_inurba_marseille","lat":43.28435,"lon":5.34967,"is_reserved":false,"is_disabled":false,"rental_uris":{"android":"levelo://app?vid=c6f0bfb9-609a-4cc4-9c64-edb005bc49da","ios":"levelo://app?vid=c6f0bfb9-609a-4cc4-9c64-edb005bc49da"},"vehicle_type_id":"4","last_reported":1774851772,"current_range_meters":8400,"station_id":"ce4bhbh2rcd13ifvqepg","pricing_plan_id":"cebpf4jnsgd1na2vs0mg"},{"bike_id":"805b1366-a6eb-4fde-a8d5-98af0890737e","system_id":"levelo_inurba_marseille","lat":43.23074,"lon":5.35504,"is_reserved":false,"is_disabled":false,"rental_uris":{"android":"levelo://app?vid=805b1366-a6eb-4fde-a8d5-98af0890737e","ios":"levelo://app?vid=805b1366-a6eb-4fde-a8d5-98af0890737e"},"vehicle_type_id":"4","last_reported":1774851772,"current_range_meters":8400,"station_id":"cpo3342slgdg3j2ifvpg","pricing_plan_id":"cebpf4jnsgd1na2vs0mg"},{"bike_id":"0dff1657-701a-46a5-aa66-060096e7915a","system_id":"levelo_inurba_marseille","lat":43.27378,"lon":5.36253,"is_reserved":false,"is_disabled":false,"rental_uris":{"android":"levelo://app?vid=0dff1657-701a-46a5-aa66-060096e7915a","ios":"levelo://app?vid=0dff1657-701a-46a5-aa66-060096e7915a"},"vehicle_type_id":"4","last_reported":1774851772,"current_range_meters":8400,"station_id":"ce4bhbh2rcd13ifvqeo0","pricing_plan_id":"cebpf4jnsgd1na2vs0mg"},{"bike_id":"989bebe7-8615-4cd7-aeef-fec5c5f64679","system_id":"levelo_inurba_marseille","lat":43.24384,"lon":5.37052,"is_reserved":false,"is_disabled":false,"rental_uris":{"android":"levelo://app?vid=989bebe7-8615-4cd7-aeef-fec5c5f64679","ios":"levelo://app?vid=989bebe7-8615-4cd7-aeef-fec5c5f64679"},"vehicle_type_id":"4","last_reported":1774851772,"current_range_meters":8400,"station_id":"ce4bhhh2rcd13ifvqfk0","pricing_plan_id":"cebpf4jnsgd1na2vs0mg"},{"bike_id":"fa2139d7-56b5-4664-870b-94753042ac1d","system_id":"levelo_inurba_marseille","lat":43.21194,"lon":5.3507,"is_reserved":false,"is_disabled":false,"rental_uris":{"android":"levelo://app?vid=fa2139d7-56b5-4664-870b-94753042ac1d","ios":"levelo://app?vid=fa2139d7-56b5-4664-870b-94753042ac1d"},"vehicle_type_id":"4","last_reported":1774851772,"current_range_meters":8400,"station_id":"st_cvj6sg6p6f1abm77japg","pricing_plan_id":"cebpf4jnsgd1na2vs0mg"},{"bike_id":"4e211019-89ce-41d1-81ac-4b00bbba195a","system_id":"levelo_inurba_marseille","lat":43.28155,"lon":5.42642,"is_reserved":false,"is_disabled":false,"rental_uris":{"android":"levelo://app?vid=4e211019-89ce-41d1-81ac-4b00bbba195a","ios":"levelo://app?vid=4e211019-89ce-41d1-81ac-4b00bbba195a"},"vehicle_type_id":"4","last_reported":1774851772,"current_range_meters":8400,"station_id":"ce4bhnh2rcd13ifvqgug","pricing_plan_id":"cebpf4jnsgd1na2vs0mg"},{"bike_id":"97ce69f1-7181-466d-9bc2-d076363b5f27","system_id":"levelo_inurba_marseille","lat":43.24168,"lon":5.36387,"is_reserved":false,"is_disabled":false,"rental_uris":{"android":"levelo://app?vid=97ce69f1-7181-466d-9bc2-d076363b5f27","ios":"levelo://app?vid=97ce69f1-7181-466d-9bc2-d076363b5f27"},"vehicle_type_id":"4","last_reported":1774851772,"current_range_meters":8400,"station_id":"cpo36qri1sfpv3e86is0","pricing_plan_id":"cebpf4jnsgd1na2vs0mg"},{"bike_id":"1227dc61-c55b-43f3-83a0-014c73aacab8","system_id":"levelo_inurba_marseille","lat":43.23966,"lon":5.36627,"is_reserved":false,"is_disabled":false,"rental_uris":{"android":"levelo://app?vid=1227dc61-c55b-43f3-83a0-014c73aacab8","ios":"levelo://app?vid=1227dc61-c55b-43f3-83a0-014c73aacab8"},"vehicle_type_id":"4","last_reported":1774851772,"current_range_meters":8400,"station_id":"ce4bhi12rcd13ifvqfp0","pricing_plan_id":"cebpf4jnsgd1na2vs0mg"},{"bike_id":"52593cc8-be01-43c1-82de-8d2841ddeb12","system_id":"levelo_inurba_marseille","lat":43.21183,"lon":5.35087,"is_reserved":false,"is_disabled":false,"rental_uris":{"android":"levelo://app?vid=52593cc8-be01-43c1-82de-8d2841ddeb12","ios":"levelo://app?vid=52593cc8-be01-43c1-82de-8d2841ddeb12"},"vehicle_type_id":"4","last_reported":1774851772,"current_range_meters":8400,"station_id":"st_cvj6sg6p6f1abm77japg","pricing_plan_id":"cebpf4jnsgd1na2vs0mg"},{"bike_id":"29049f9a-cda2-426d-9e6c-1d886e0b8215","system_id":"levelo_inurba_marseille","lat":43.29174,"lon":5.42755,"is_reserved":false,"is_disabled":false,"rental_uris":{"android":"levelo://app?vid=29049f9a-cda2-426d-9e6c-1d886e0b8215","ios":"levelo://app?vid=29049f9a-cda2-426d-9e6c-1d886e0b8215"},"vehicle_type_id":"4","last_reported":1774851772,"current_range_meters":8400,"station_id":"","pricing_plan_id":"cebpf4jnsgd1na2vs0mg"},{"bike_id":"a9d04c32-0221-44bd-bce5-055117749c29","system_id":"levelo_inurba_marseille","lat":43.30599,"lon":5.37223,"is_reserved":false,"is_disabled":false,"rental_uris":{"android":"levelo://app?vid=a9d04c32-0221-44bd-bce5-055117749c29","ios":"levelo://app?vid=a9d04c32-0221-44bd-bce5-055117749c29"},"vehicle_type_id":"4","last_reported":1774851772,"current_range_meters":8400,"station_id":"ce4bgqh2rcd13ifvqc4g","pricing_plan_id":"cebpf4jnsgd1na2vs0mg"},{"bike_id":"3ac0129c-9c97-4af6-b6ad-c66c14a5c227","system_id":"levelo_inurba_marseille","lat":43.28492,"lon":5.48408,"is_reserved":false,"is_disabled":false,"rental_uris":{"android":"levelo://app?vid=3ac0129c-9c97-4af6-b6ad-c66c14a5c227","ios":"levelo://app?vid=3ac0129c-9c97-4af6-b6ad-c66c14a5c227"},"vehicle_type_id":"4","last_reported":1774851772,"current_range_meters":8400,"station_id":"","pricing_plan_id":"cebpf4jnsgd1na2vs0mg"},{"bike_id":"607af1ff-aab8-43bb-aaad-eced7c432e4c","system_id":"levelo_inurba_marseille","lat":43.30558,"lon":5.3653,"is_reserved":false,"is_disabled":false,"rental_uris":{"android":"levelo://app?vid=607af1ff-aab8-43bb-aaad-eced7c432e4c","ios":"levelo://app?vid=607af1ff-aab8-43bb-aaad-eced7c432e4c"},"vehicle_type_id":"4","last_reported":1774851772,"current_range_meters":8400,"station_id":"ce4bgs12rcd13ifvqcag","pricing_plan_id":"cebpf4jnsgd1na2vs0mg"},{"bike_id":"e589261b-c8a2-4282-a7a8-0cffe840d18a","system_id":"levelo_inurba_marseille","lat":43.30168,"lon":5.38076,"is_reserved":false,"is_disabled":false,"rental_uris":{"android":"levelo://app?vid=e589261b-c8a2-4282-a7a8-0cffe840d18a","ios":"levelo://app?vid=e589261b-c8a2-4282-a7a8-0cffe840d18a"},"vehicle_type_id":"4","last_reported":1774851772,"current_range_meters":8400,"station_id":"ce4bgjp2rcd13ifvqbh0","pricing_plan_id":"cebpf4jnsgd1na2vs0mg"},{"bike_id":"6ec34bea-26f7-40b0-a43f-af966ce23820","system_id":"levelo_inurba_marseille","lat":43.30172,"lon":5.38087,"is_reserved":false,"is_disabled":false,"rental_uris":{"android":"levelo://app?vid=6ec34bea-26f7-40b0-a43f-af966ce23820","ios":"levelo://app?vid=6ec34bea-26f7-40b0-a43f-af966ce23820"},"vehicle_type_id":"4","last_reported":1774851772,"current_range_meters":8400,"station_id":"ce4bgjp2rcd13ifvqbh0","pricing_plan_id":"cebpf4jnsgd1na2vs0mg"},{"bike_id":"c0d049d2-9884-47fd-b25d-2edd239d3046","system_id":"levelo_inurba_marseille","lat":43.28541,"lon":5.4408,"is_reserved":false,"is_disabled":false,"rental_uris":{"android":"levelo://app?vid=c0d049d2-9884-47fd-b25d-2edd239d3046","ios":"levelo://app?vid=c0d049d2-9884-47fd-b25d-2edd239d3046"},"vehicle_type_id":"4","last_reported":1774851772,"current_range_meters":8400,"station_id":"st_d3j3df2ikq2c7380ej80","pricing_plan_id":"cebpf4jnsgd1na2vs0mg"},{"bike_id":"1f8b06bb-3f91-46ec-ae05-36fb92f0336b","system_id":"levelo_inurba_marseille","lat":43.26406,"lon":5.39881,"is_reserved":false,"is_disabled":false,"rental_uris":{"android":"levelo://app?vid=1f8b06bb-3f91-46ec-ae05-36fb92f0336b","ios":"levelo://app?vid=1f8b06bb-3f91-46ec-ae05-36fb92f0336b"},"vehicle_type_id":"4","last_reported":1774851772,"current_range_meters":8400,"station_id":"","pricing_plan_id":"cebpf4jnsgd1na2vs0mg"},{"bike_id":"579845bf-1e21-4332-8c8b-bd6f459665c1","system_id":"levelo_inurba_marseille","lat":43.24071,"lon":5.37761,"is_reserved":false,"is_disabled":false,"rental_uris":{"android":"levelo://app?vid=579845bf-1e21-4332-8c8b-bd6f459665c1","ios":"levelo://app?vid=579845bf-1e21-4332-8c8b-bd6f459665c1"},"vehicle_type_id":"4","last_reported":1774851772,"current_range_meters":8400,"station_id":"ce4bhnp2rcd13ifvqgvg","pricing_plan_id":"cebpf4jnsgd1na2vs0mg"},{"bike_id":"8b4108a6-c7e2-4043-b547-cb1e59a8963a","system_id":"levelo_inurba_marseille","lat":43.24332,"lon":5.40851,"is_reserved":false,"is_disabled":false,"rental_uris":{"android":"levelo://app?vid=8b4108a6-c7e2-4043-b547-cb1e59a8963a","ios":"levelo://app?vid=8b4108a6-c7e2-4043-b547-cb1e59a8963a"},"vehicle_type_id":"4","last_reported":1774851772,"current_range_meters":8400,"station_id":"","pricing_plan_id":"cebpf4jnsgd1na2vs0mg"},{"bike_id":"132e7de0-1c60-4e16-8ba9-01efee9304af","system_id":"levelo_inurba_marseille","lat":43.32353,"lon":5.36739,"is_reserved":false,"is_disabled":false,"rental_uris":{"android":"levelo://app?vid=132e7de0-1c60-4e16-8ba9-01efee9304af","ios":"levelo://app?vid=132e7de0-1c60-4e16-8ba9-01efee9304af"},"vehicle_type_id":"4","last_reported":1774851772,"current_range_meters":8800,"station_id":"ce4bhsh2rcd13ifvqi2g","pricing_plan_id":"cebpf4jnsgd1na2vs0mg"},{"bike_id":"1f50d665-ad56-4564-8bce-5cff2a4e2b4f","system_id":"levelo_inurba_marseille","lat":43.24167,"lon":5.39749,"is_reserved":false,"is_disabled":false,"rental_uris":{"android":"levelo://app?vid=1f50d665-ad56-4564-8bce-5cff2a4e2b4f","ios":"levelo://app?vid=1f50d665-ad56-4564-8bce-5cff2a4e2b4f"},"vehicle_type_id":"4","last_reported":1774851772,"current_range_meters":8800,"station_id":"ce4bhn12rcd13ifvqgpg","pricing_plan_id":"cebpf4jnsgd1na2vs0mg"},{"bike_id":"a4c6fdaa-8593-4093-973b-2dcd2b267824","system_id":"levelo_inurba_marseille","lat":43.29967,"lon":5.38487,"is_reserved":false,"is_disabled":true,"rental_uris":{"android":"levelo://app?vid=a4c6fdaa-8593-4093-973b-2dcd2b267824","ios":"levelo://app?vid=a4c6fdaa-8593-4093-973b-2dcd2b267824"},"vehicle_type_id":"4","last_reported":1774851772,"current_range_meters":8800,"station_id":"ce4bgj92rcd13ifvqbd0","pricing_plan_id":"cebpf4jnsgd1na2vs0mg"},{"bike_id":"0cd3323f-aa64-4958-a38e-44f580a31023","system_id":"levelo_inurba_marseille","lat":43.28945,"lon":5.36405,"is_reserved":false,"is_disabled":false,"rental_uris":{"android":"levelo://app?vid=0cd3323f-aa64-4958-a38e-44f580a31023","ios":"levelo://app?vid=0cd3323f-aa64-4958-a38e-44f580a31023"},"vehicle_type_id":"4","last_reported":1774851772,"current_range_meters":8800,"station_id":"ce4bhc92rcd13ifvqetg","pricing_plan_id":"cebpf4jnsgd1na2vs0mg"},{"bike_id":"94ebd6be-fb80-4ec3-8693-d1f514f30182","system_id":"levelo_inurba_marseille","lat":43.30546,"lon":5.36694,"is_reserved":false,"is_disabled":false,"rental_uris":{"android":"levelo://app?vid=94ebd6be-fb80-4ec3-8693-d1f514f30182","ios":"levelo://app?vid=94ebd6be-fb80-4ec3-8693-d1f514f30182"},"vehicle_type_id":"4","last_reported":1774851772,"current_range_meters":8800,"station_id":"ce4bgrp2rcd13ifvqc9g","pricing_plan_id":"cebpf4jnsgd1na2vs0mg"},{"bike_id":"ded1f352-2271-4b3b-bb5d-6818edd936ac","system_id":"levelo_inurba_marseille","lat":43.29548,"lon":5.39063,"is_reserved":false,"is_disabled":true,"rental_uris":{"android":"levelo://app?vid=ded1f352-2271-4b3b-bb5d-6818edd936ac","ios":"levelo://app?vid=ded1f352-2271-4b3b-bb5d-6818edd936ac"},"vehicle_type_id":"4","last_reported":1774851772,"current_range_meters":8800,"station_id":"ce4bh3p2rcd13ifvqdp0","pricing_plan_id":"cebpf4jnsgd1na2vs0mg"},{"bike_id":"43f797e9-ab3f-4fdc-a671-367962cc3f87","system_id":"levelo_inurba_marseille","lat":43.28336,"lon":5.38112,"is_reserved":false,"is_disabled":false,"rental_uris":{"android":"levelo://app?vid=43f797e9-ab3f-4fdc-a671-367962cc3f87","ios":"levelo://app?vid=43f797e9-ab3f-4fdc-a671-367962cc3f87"},"vehicle_type_id":"4","last_reported":1774851772,"current_range_meters":8800,"station_id":"ce4bh412rcd13ifvqdr0","pricing_plan_id":"cebpf4jnsgd1na2vs0mg"},{"bike_id":"c67c5d5c-6a86-4840-bc88-5726340ce24f","system_id":"levelo_inurba_marseille","lat":43.2391,"lon":5.37458,"is_reserved":false,"is_disabled":false,"rental_uris":{"android":"levelo://app?vid=c67c5d5c-6a86-4840-bc88-5726340ce24f","ios":"levelo://app?vid=c67c5d5c-6a86-4840-bc88-5726340ce24f"},"vehicle_type_id":"4","last_reported":1774851772,"current_range_meters":8800,"station_id":"st_d6sm7csbq4hs73f8fpjg","pricing_plan_id":"cebpf4jnsgd1na2vs0mg"},{"bike_id":"8d26c30b-3847-405c-8066-75bf15658130","system_id":"levelo_inurba_marseille","lat":43.29844,"lon":5.365,"is_reserved":false,"is_disabled":false,"rental_uris":{"android":"levelo://app?vid=8d26c30b-3847-405c-8066-75bf15658130","ios":"levelo://app?vid=8d26c30b-3847-405c-8066-75bf15658130"},"vehicle_type_id":"4","last_reported":1774851772,"current_range_meters":8800,"station_id":"","pricing_plan_id":"cebpf4jnsgd1na2vs0mg"},{"bike_id":"e2491530-7c3b-41df-80e0-1a5c4af36aa4","system_id":"levelo_inurba_marseille","lat":43.23795,"lon":5.36641,"is_reserved":false,"is_disabled":false,"rental_uris":{"android":"levelo://app?vid=e2491530-7c3b-41df-80e0-1a5c4af36aa4","ios":"levelo://app?vid=e2491530-7c3b-41df-80e0-1a5c4af36aa4"},"vehicle_type_id":"4","last_reported":1774851772,"current_range_meters":8800,"station_id":"st_d3nk18o9ro0c73en2l3g","pricing_plan_id":"cebpf4jnsgd1na2vs0mg"},{"bike_id":"b3c46102-4335-4159-9eac-fe9b0c7c6aa2","system_id":"levelo_inurba_marseille","lat":43.273708,"lon":5.362643,"is_reserved":false,"is_disabled":false,"rental_uris":{"android":"levelo://app?vid=b3c46102-4335-4159-9eac-fe9b0c7c6aa2","ios":"levelo://app?vid=b3c46102-4335-4159-9eac-fe9b0c7c6aa2"},"vehicle_type_id":"4","last_reported":1774851772,"current_range_meters":8800,"station_id":"ce4bhbh2rcd13ifvqeo0","pricing_plan_id":"cebpf4jnsgd1na2vs0mg"},{"bike_id":"11f50760-edee-4283-8816-6605d5fc07b9","system_id":"levelo_inurba_marseille","lat":43.2861,"lon":5.39891,"is_reserved":false,"is_disabled":false,"rental_uris":{"android":"levelo://app?vid=11f50760-edee-4283-8816-6605d5fc07b9","ios":"levelo://app?vid=11f50760-edee-4283-8816-6605d5fc07b9"},"vehicle_type_id":"4","last_reported":1774851772,"current_range_meters":8800,"station_id":"st_d4a7ka997mjs738ck50g","pricing_plan_id":"cebpf4jnsgd1na2vs0mg"},{"bike_id":"6cb80350-a12f-414d-8a45-edb4d9decdf0","system_id":"levelo_inurba_marseille","lat":43.28521,"lon":5.44094,"is_reserved":false,"is_disabled":false,"rental_uris":{"android":"levelo://app?vid=6cb80350-a12f-414d-8a45-edb4d9decdf0","ios":"levelo://app?vid=6cb80350-a12f-414d-8a45-edb4d9decdf0"},"vehicle_type_id":"4","last_reported":1774851772,"current_range_meters":8800,"station_id":"st_d3j3df2ikq2c7380ej80","pricing_plan_id":"cebpf4jnsgd1na2vs0mg"},{"bike_id":"53ab5b1d-cae9-45a1-acf9-cea4f7b6ff95","system_id":"levelo_inurba_marseille","lat":43.23066,"lon":5.35485,"is_reserved":false,"is_disabled":false,"rental_uris":{"android":"levelo://app?vid=53ab5b1d-cae9-45a1-acf9-cea4f7b6ff95","ios":"levelo://app?vid=53ab5b1d-cae9-45a1-acf9-cea4f7b6ff95"},"vehicle_type_id":"4","last_reported":1774851772,"current_range_meters":8800,"station_id":"cpo3342slgdg3j2ifvpg","pricing_plan_id":"cebpf4jnsgd1na2vs0mg"},{"bike_id":"90c5083d-61d7-4212-893f-2dfc58168774","system_id":"levelo_inurba_marseille","lat":43.2415,"lon":5.36408,"is_reserved":false,"is_disabled":false,"rental_uris":{"android":"levelo://app?vid=90c5083d-61d7-4212-893f-2dfc58168774","ios":"levelo://app?vid=90c5083d-61d7-4212-893f-2dfc58168774"},"vehicle_type_id":"4","last_reported":1774851772,"current_range_meters":8800,"station_id":"cpo36qri1sfpv3e86is0","pricing_plan_id":"cebpf4jnsgd1na2vs0mg"},{"bike_id":"82ffdcdd-7635-4ad6-b7af-d826108abbd3","system_id":"levelo_inurba_marseille","lat":43.284,"lon":5.37518,"is_reserved":false,"is_disabled":false,"rental_uris":{"android":"levelo://app?vid=82ffdcdd-7635-4ad6-b7af-d826108abbd3","ios":"levelo://app?vid=82ffdcdd-7635-4ad6-b7af-d826108abbd3"},"vehicle_type_id":"4","last_reported":1774851772,"current_range_meters":8800,"station_id":"ce4bh412rcd13ifvqds0","pricing_plan_id":"cebpf4jnsgd1na2vs0mg"},{"bike_id":"cace6a75-41af-4909-a80a-68d60c5c1a04","system_id":"levelo_inurba_marseille","lat":43.28428,"lon":5.3497,"is_reserved":false,"is_disabled":false,"rental_uris":{"android":"levelo://app?vid=cace6a75-41af-4909-a80a-68d60c5c1a04","ios":"levelo://app?vid=cace6a75-41af-4909-a80a-68d60c5c1a04"},"vehicle_type_id":"4","last_reported":1774851772,"current_range_meters":8800,"station_id":"ce4bhbh2rcd13ifvqepg","pricing_plan_id":"cebpf4jnsgd1na2vs0mg"},{"bike_id":"8128c6c1-3e5b-4e78-890d-753fa7f125b1","system_id":"levelo_inurba_marseille","lat":43.27445,"lon":5.39425,"is_reserved":false,"is_disabled":false,"rental_uris":{"android":"levelo://app?vid=8128c6c1-3e5b-4e78-890d-753fa7f125b1","ios":"levelo://app?vid=8128c6c1-3e5b-4e78-890d-753fa7f125b1"},"vehicle_type_id":"4","last_reported":1774851772,"current_range_meters":8800,"station_id":"ce4bhdp2rcd13ifvqf20","pricing_plan_id":"cebpf4jnsgd1na2vs0mg"},{"bike_id":"fbb8d1ee-af97-443e-a94c-eaf376f4d550","system_id":"levelo_inurba_marseille","lat":43.29945,"lon":5.36674,"is_reserved":false,"is_disabled":false,"rental_uris":{"android":"levelo://app?vid=fbb8d1ee-af97-443e-a94c-eaf376f4d550","ios":"levelo://app?vid=fbb8d1ee-af97-443e-a94c-eaf376f4d550"},"vehicle_type_id":"4","last_reported":1774851772,"current_range_meters":8800,"station_id":"","pricing_plan_id":"cebpf4jnsgd1na2vs0mg"},{"bike_id":"46f755e5-3052-4e98-a5ea-871b3fd6d31a","system_id":"levelo_inurba_marseille","lat":43.30459,"lon":5.38869,"is_reserved":false,"is_disabled":true,"rental_uris":{"android":"levelo://app?vid=46f755e5-3052-4e98-a5ea-871b3fd6d31a","ios":"levelo://app?vid=46f755e5-3052-4e98-a5ea-871b3fd6d31a"},"vehicle_type_id":"4","last_reported":1774851772,"current_range_meters":8800,"station_id":"ce4bgk12rcd13ifvqbi0","pricing_plan_id":"cebpf4jnsgd1na2vs0mg"},{"bike_id":"ff9ed2f3-0da8-47ab-a33d-e594121c791c","system_id":"levelo_inurba_marseille","lat":43.28175,"lon":5.427,"is_reserved":false,"is_disabled":false,"rental_uris":{"android":"levelo://app?vid=ff9ed2f3-0da8-47ab-a33d-e594121c791c","ios":"levelo://app?vid=ff9ed2f3-0da8-47ab-a33d-e594121c791c"},"vehicle_type_id":"4","last_reported":1774851772,"current_range_meters":8800,"station_id":"","pricing_plan_id":"cebpf4jnsgd1na2vs0mg"},{"bike_id":"335321f5-e6c9-4451-89b9-5670f0fbb4c3","system_id":"levelo_inurba_marseille","lat":43.30156,"lon":5.38082,"is_reserved":false,"is_disabled":false,"rental_uris":{"android":"levelo://app?vid=335321f5-e6c9-4451-89b9-5670f0fbb4c3","ios":"levelo://app?vid=335321f5-e6c9-4451-89b9-5670f0fbb4c3"},"vehicle_type_id":"4","last_reported":1774851772,"current_range_meters":8800,"station_id":"ce4bgjp2rcd13ifvqbh0","pricing_plan_id":"cebpf4jnsgd1na2vs0mg"},{"bike_id":"f54bfc49-c52e-433a-9661-97eeb8e5a586","system_id":"levelo_inurba_marseille","lat":43.23809,"lon":5.3662,"is_reserved":false,"is_disabled":false,"rental_uris":{"android":"levelo://app?vid=f54bfc49-c52e-433a-9661-97eeb8e5a586","ios":"levelo://app?vid=f54bfc49-c52e-433a-9661-97eeb8e5a586"},"vehicle_type_id":"4","last_reported":1774851772,"current_range_meters":8800,"station_id":"st_d3nk18o9ro0c73en2l3g","pricing_plan_id":"cebpf4jnsgd1na2vs0mg"},{"bike_id":"074f0778-d8c1-4218-a90f-5ec773f2af01","system_id":"levelo_inurba_marseille","lat":43.30731,"lon":5.4245,"is_reserved":false,"is_disabled":false,"rental_uris":{"android":"levelo://app?vid=074f0778-d8c1-4218-a90f-5ec773f2af01","ios":"levelo://app?vid=074f0778-d8c1-4218-a90f-5ec773f2af01"},"vehicle_type_id":"4","last_reported":1774851772,"current_range_meters":8800,"station_id":"st_cvj6ca6bvosntc0bfgr0","pricing_plan_id":"cebpf4jnsgd1na2vs0mg"},{"bike_id":"03ec0070-1d93-4ac5-87d3-21d47edad7cd","system_id":"levelo_inurba_marseille","lat":43.23786,"lon":5.36632,"is_reserved":false,"is_disabled":false,"rental_uris":{"android":"levelo://app?vid=03ec0070-1d93-4ac5-87d3-21d47edad7cd","ios":"levelo://app?vid=03ec0070-1d93-4ac5-87d3-21d47edad7cd"},"vehicle_type_id":"4","last_reported":1774851772,"current_range_meters":9200,"station_id":"st_d3nk18o9ro0c73en2l3g","pricing_plan_id":"cebpf4jnsgd1na2vs0mg"},{"bike_id":"7cefc45d-38f5-45cf-a99c-dfb4be1018fe","system_id":"levelo_inurba_marseille","lat":43.24457,"lon":5.42527,"is_reserved":false,"is_disabled":false,"rental_uris":{"android":"levelo://app?vid=7cefc45d-38f5-45cf-a99c-dfb4be1018fe","ios":"levelo://app?vid=7cefc45d-38f5-45cf-a99c-dfb4be1018fe"},"vehicle_type_id":"4","last_reported":1774851772,"current_range_meters":9200,"station_id":"st_d4a3vfp97mjs738cd8kg","pricing_plan_id":"cebpf4jnsgd1na2vs0mg"},{"bike_id":"bbea286a-6e48-49d8-bcfc-d69bfefa013e","system_id":"levelo_inurba_marseille","lat":43.28625,"lon":5.35129,"is_reserved":false,"is_disabled":false,"rental_uris":{"android":"levelo://app?vid=bbea286a-6e48-49d8-bcfc-d69bfefa013e","ios":"levelo://app?vid=bbea286a-6e48-49d8-bcfc-d69bfefa013e"},"vehicle_type_id":"4","last_reported":1774851772,"current_range_meters":9200,"station_id":"ce4bhch2rcd13ifvqeug","pricing_plan_id":"cebpf4jnsgd1na2vs0mg"},{"bike_id":"fe2c2d4e-ad0a-4ad1-b727-7e9a7d4ef824","system_id":"levelo_inurba_marseille","lat":43.28482,"lon":5.48394,"is_reserved":false,"is_disabled":false,"rental_uris":{"android":"levelo://app?vid=fe2c2d4e-ad0a-4ad1-b727-7e9a7d4ef824","ios":"levelo://app?vid=fe2c2d4e-ad0a-4ad1-b727-7e9a7d4ef824"},"vehicle_type_id":"4","last_reported":1774851772,"current_range_meters":9200,"station_id":"","pricing_plan_id":"cebpf4jnsgd1na2vs0mg"},{"bike_id":"5ae1cde3-c020-448f-8cff-83f80611c531","system_id":"levelo_inurba_marseille","lat":43.24461,"lon":5.42553,"is_reserved":false,"is_disabled":false,"rental_uris":{"android":"levelo://app?vid=5ae1cde3-c020-448f-8cff-83f80611c531","ios":"levelo://app?vid=5ae1cde3-c020-448f-8cff-83f80611c531"},"vehicle_type_id":"4","last_reported":1774851772,"current_range_meters":9200,"station_id":"st_d4a3vfp97mjs738cd8kg","pricing_plan_id":"cebpf4jnsgd1na2vs0mg"},{"bike_id":"0309819b-864b-493c-9997-23e96c3b068e","system_id":"levelo_inurba_marseille","lat":43.30468,"lon":5.37901,"is_reserved":false,"is_disabled":false,"rental_uris":{"android":"levelo://app?vid=0309819b-864b-493c-9997-23e96c3b068e","ios":"levelo://app?vid=0309819b-864b-493c-9997-23e96c3b068e"},"vehicle_type_id":"4","last_reported":1774851772,"current_range_meters":9200,"station_id":"ce4bgup2rcd13ifvqcn0","pricing_plan_id":"cebpf4jnsgd1na2vs0mg"},{"bike_id":"1b8594e0-48e7-43ca-9fa9-8687339ae8c8","system_id":"levelo_inurba_marseille","lat":43.3116,"lon":5.38713,"is_reserved":false,"is_disabled":false,"rental_uris":{"android":"levelo://app?vid=1b8594e0-48e7-43ca-9fa9-8687339ae8c8","ios":"levelo://app?vid=1b8594e0-48e7-43ca-9fa9-8687339ae8c8"},"vehicle_type_id":"4","last_reported":1774851772,"current_range_meters":9200,"station_id":"ce4bgv12rcd13ifvqcp0","pricing_plan_id":"cebpf4jnsgd1na2vs0mg"},{"bike_id":"57a31671-07ac-494c-895d-e0576641700b","system_id":"levelo_inurba_marseille","lat":43.23971,"lon":5.36633,"is_reserved":false,"is_disabled":false,"rental_uris":{"android":"levelo://app?vid=57a31671-07ac-494c-895d-e0576641700b","ios":"levelo://app?vid=57a31671-07ac-494c-895d-e0576641700b"},"vehicle_type_id":"4","last_reported":1774851772,"current_range_meters":9200,"station_id":"ce4bhi12rcd13ifvqfp0","pricing_plan_id":"cebpf4jnsgd1na2vs0mg"},{"bike_id":"29914e06-f1d1-4878-b2b6-747c8c11a3ab","system_id":"levelo_inurba_marseille","lat":43.28936,"lon":5.36624,"is_reserved":false,"is_disabled":false,"rental_uris":{"android":"levelo://app?vid=29914e06-f1d1-4878-b2b6-747c8c11a3ab","ios":"levelo://app?vid=29914e06-f1d1-4878-b2b6-747c8c11a3ab"},"vehicle_type_id":"4","last_reported":1774851772,"current_range_meters":9200,"station_id":"ce4bhap2rcd13ifvqek0","pricing_plan_id":"cebpf4jnsgd1na2vs0mg"},{"bike_id":"cb88b7c0-158f-47d6-b62a-c3ee88f004a1","system_id":"levelo_inurba_marseille","lat":43.24475,"lon":5.42562,"is_reserved":false,"is_disabled":false,"rental_uris":{"android":"levelo://app?vid=cb88b7c0-158f-47d6-b62a-c3ee88f004a1","ios":"levelo://app?vid=cb88b7c0-158f-47d6-b62a-c3ee88f004a1"},"vehicle_type_id":"4","last_reported":1774851772,"current_range_meters":9200,"station_id":"st_d4a3vfp97mjs738cd8kg","pricing_plan_id":"cebpf4jnsgd1na2vs0mg"},{"bike_id":"c4b95ebd-7f1d-45da-a00b-69d6d7c574e4","system_id":"levelo_inurba_marseille","lat":43.24419,"lon":5.37135,"is_reserved":false,"is_disabled":false,"rental_uris":{"android":"levelo://app?vid=c4b95ebd-7f1d-45da-a00b-69d6d7c574e4","ios":"levelo://app?vid=c4b95ebd-7f1d-45da-a00b-69d6d7c574e4"},"vehicle_type_id":"4","last_reported":1774851772,"current_range_meters":9200,"station_id":"","pricing_plan_id":"cebpf4jnsgd1na2vs0mg"},{"bike_id":"227cc43c-6fb3-476a-abb2-74c924061fb2","system_id":"levelo_inurba_marseille","lat":43.22565,"lon":5.41628,"is_reserved":false,"is_disabled":false,"rental_uris":{"android":"levelo://app?vid=227cc43c-6fb3-476a-abb2-74c924061fb2","ios":"levelo://app?vid=227cc43c-6fb3-476a-abb2-74c924061fb2"},"vehicle_type_id":"4","last_reported":1774851772,"current_range_meters":9200,"station_id":"st_d2o4gvlbi1j2169b742g","pricing_plan_id":"cebpf4jnsgd1na2vs0mg"},{"bike_id":"59c75e7d-0307-426b-9dda-f872b053db00","system_id":"levelo_inurba_marseille","lat":43.23887,"lon":5.37436,"is_reserved":false,"is_disabled":false,"rental_uris":{"android":"levelo://app?vid=59c75e7d-0307-426b-9dda-f872b053db00","ios":"levelo://app?vid=59c75e7d-0307-426b-9dda-f872b053db00"},"vehicle_type_id":"4","last_reported":1774851772,"current_range_meters":9200,"station_id":"st_d6sm7csbq4hs73f8fpjg","pricing_plan_id":"cebpf4jnsgd1na2vs0mg"},{"bike_id":"aca6641d-7d59-4b6d-aca8-5ef46eb491ec","system_id":"levelo_inurba_marseille","lat":43.23102,"lon":5.35503,"is_reserved":false,"is_disabled":false,"rental_uris":{"android":"levelo://app?vid=aca6641d-7d59-4b6d-aca8-5ef46eb491ec","ios":"levelo://app?vid=aca6641d-7d59-4b6d-aca8-5ef46eb491ec"},"vehicle_type_id":"4","last_reported":1774851772,"current_range_meters":9200,"station_id":"","pricing_plan_id":"cebpf4jnsgd1na2vs0mg"},{"bike_id":"d175c754-8563-4b72-ba16-a3e037f90e46","system_id":"levelo_inurba_marseille","lat":43.27115,"lon":5.39147,"is_reserved":false,"is_disabled":false,"rental_uris":{"android":"levelo://app?vid=d175c754-8563-4b72-ba16-a3e037f90e46","ios":"levelo://app?vid=d175c754-8563-4b72-ba16-a3e037f90e46"},"vehicle_type_id":"4","last_reported":1774851772,"current_range_meters":9200,"station_id":"","pricing_plan_id":"cebpf4jnsgd1na2vs0mg"},{"bike_id":"cde37b3d-5bf8-45ad-ae5c-441c1680e201","system_id":"levelo_inurba_marseille","lat":43.27914,"lon":5.39125,"is_reserved":false,"is_disabled":false,"rental_uris":{"android":"levelo://app?vid=cde37b3d-5bf8-45ad-ae5c-441c1680e201","ios":"levelo://app?vid=cde37b3d-5bf8-45ad-ae5c-441c1680e201"},"vehicle_type_id":"4","last_reported":1774851772,"current_range_meters":9600,"station_id":"","pricing_plan_id":"cebpf4jnsgd1na2vs0mg"},{"bike_id":"42ed0164-ae8c-4bd0-af7d-a1a8b3b7141e","system_id":"levelo_inurba_marseille","lat":43.30897,"lon":5.39643,"is_reserved":false,"is_disabled":false,"rental_uris":{"android":"levelo://app?vid=42ed0164-ae8c-4bd0-af7d-a1a8b3b7141e","ios":"levelo://app?vid=42ed0164-ae8c-4bd0-af7d-a1a8b3b7141e"},"vehicle_type_id":"4","last_reported":1774851772,"current_range_meters":9600,"station_id":"ce4bh012rcd13ifvqcv0","pricing_plan_id":"cebpf4jnsgd1na2vs0mg"},{"bike_id":"4977f95e-718a-4120-8926-2364059fe1a3","system_id":"levelo_inurba_marseille","lat":43.26684,"lon":5.38267,"is_reserved":false,"is_disabled":false,"rental_uris":{"android":"levelo://app?vid=4977f95e-718a-4120-8926-2364059fe1a3","ios":"levelo://app?vid=4977f95e-718a-4120-8926-2364059fe1a3"},"vehicle_type_id":"4","last_reported":1774851772,"current_range_meters":9600,"station_id":"","pricing_plan_id":"cebpf4jnsgd1na2vs0mg"},{"bike_id":"046881a8-ab16-4490-bda4-767f874d1bc8","system_id":"levelo_inurba_marseille","lat":43.287178,"lon":5.360977,"is_reserved":false,"is_disabled":false,"rental_uris":{"android":"levelo://app?vid=046881a8-ab16-4490-bda4-767f874d1bc8","ios":"levelo://app?vid=046881a8-ab16-4490-bda4-767f874d1bc8"},"vehicle_type_id":"4","last_reported":1774851772,"current_range_meters":9600,"station_id":"","pricing_plan_id":"cebpf4jnsgd1na2vs0mg"},{"bike_id":"b05b257c-8a11-428d-b93f-02b4e7b7816b","system_id":"levelo_inurba_marseille","lat":43.28571,"lon":5.395,"is_reserved":false,"is_disabled":false,"rental_uris":{"android":"levelo://app?vid=b05b257c-8a11-428d-b93f-02b4e7b7816b","ios":"levelo://app?vid=b05b257c-8a11-428d-b93f-02b4e7b7816b"},"vehicle_type_id":"4","last_reported":1774851772,"current_range_meters":9600,"station_id":"ce4bh292rcd13ifvqdg0","pricing_plan_id":"cebpf4jnsgd1na2vs0mg"},{"bike_id":"b6cc933c-6bc2-4eef-9a7c-4e6a85131db4","system_id":"levelo_inurba_marseille","lat":43.24166,"lon":5.36389,"is_reserved":false,"is_disabled":false,"rental_uris":{"android":"levelo://app?vid=b6cc933c-6bc2-4eef-9a7c-4e6a85131db4","ios":"levelo://app?vid=b6cc933c-6bc2-4eef-9a7c-4e6a85131db4"},"vehicle_type_id":"4","last_reported":1774851772,"current_range_meters":9600,"station_id":"cpo36qri1sfpv3e86is0","pricing_plan_id":"cebpf4jnsgd1na2vs0mg"},{"bike_id":"2c9a0922-0198-4256-b2ac-2c0d229a41e5","system_id":"levelo_inurba_marseille","lat":43.31381,"lon":5.36723,"is_reserved":false,"is_disabled":false,"rental_uris":{"android":"levelo://app?vid=2c9a0922-0198-4256-b2ac-2c0d229a41e5","ios":"levelo://app?vid=2c9a0922-0198-4256-b2ac-2c0d229a41e5"},"vehicle_type_id":"4","last_reported":1774851772,"current_range_meters":9600,"station_id":"ce4bgr92rcd13ifvqc6g","pricing_plan_id":"cebpf4jnsgd1na2vs0mg"},{"bike_id":"ccf225b1-f4e7-468c-b7be-f7e3965c10ed","system_id":"levelo_inurba_marseille","lat":43.26206,"lon":5.37938,"is_reserved":false,"is_disabled":false,"rental_uris":{"android":"levelo://app?vid=ccf225b1-f4e7-468c-b7be-f7e3965c10ed","ios":"levelo://app?vid=ccf225b1-f4e7-468c-b7be-f7e3965c10ed"},"vehicle_type_id":"4","last_reported":1774851772,"current_range_meters":9600,"station_id":"ce4bhjp2rcd13ifvqg90","pricing_plan_id":"cebpf4jnsgd1na2vs0mg"},{"bike_id":"9c1440ce-c955-43db-9800-7794805da744","system_id":"levelo_inurba_marseille","lat":43.23975,"lon":5.36647,"is_reserved":false,"is_disabled":false,"rental_uris":{"android":"levelo://app?vid=9c1440ce-c955-43db-9800-7794805da744","ios":"levelo://app?vid=9c1440ce-c955-43db-9800-7794805da744"},"vehicle_type_id":"4","last_reported":1774851772,"current_range_meters":9600,"station_id":"ce4bhi12rcd13ifvqfp0","pricing_plan_id":"cebpf4jnsgd1na2vs0mg"},{"bike_id":"29a16c1e-e09b-4ac9-8506-6e4d5ff46c53","system_id":"levelo_inurba_marseille","lat":43.28404,"lon":5.37533,"is_reserved":false,"is_disabled":true,"rental_uris":{"android":"levelo://app?vid=29a16c1e-e09b-4ac9-8506-6e4d5ff46c53","ios":"levelo://app?vid=29a16c1e-e09b-4ac9-8506-6e4d5ff46c53"},"vehicle_type_id":"4","last_reported":1774851772,"current_range_meters":9600,"station_id":"ce4bh412rcd13ifvqds0","pricing_plan_id":"cebpf4jnsgd1na2vs0mg"},{"bike_id":"d653ed05-f213-45fd-84c6-b781deb83672","system_id":"levelo_inurba_marseille","lat":43.22574,"lon":5.41647,"is_reserved":false,"is_disabled":true,"rental_uris":{"android":"levelo://app?vid=d653ed05-f213-45fd-84c6-b781deb83672","ios":"levelo://app?vid=d653ed05-f213-45fd-84c6-b781deb83672"},