{"last_updated":1750774287,"ttl":60,"version":"2.2","data":{"bikes":[{"bike_id":"3da29fb8-fc97-44c6-b9ac-31dd456b2fd4","system_id":"levelo_inurba_marseille","lat":43.33771,"lon":5.37424,"is_reserved":false,"is_disabled":true,"rental_uris":{"android":"levelo://app?vid=3da29fb8-fc97-44c6-b9ac-31dd456b2fd4","ios":"levelo://app?vid=3da29fb8-fc97-44c6-b9ac-31dd456b2fd4"},"vehicle_type_id":"4","last_reported":1750774287,"current_range_meters":0,"station_id":"","pricing_plan_id":"cebpf4jnsgd1na2vs0mg"},{"bike_id":"01861ad8-a8d7-4be6-816e-651927c87584","system_id":"levelo_inurba_marseille","lat":43.33751,"lon":5.37456,"is_reserved":false,"is_disabled":true,"rental_uris":{"android":"levelo://app?vid=01861ad8-a8d7-4be6-816e-651927c87584","ios":"levelo://app?vid=01861ad8-a8d7-4be6-816e-651927c87584"},"vehicle_type_id":"4","last_reported":1750774287,"current_range_meters":0,"station_id":"","pricing_plan_id":"cebpf4jnsgd1na2vs0mg"},{"bike_id":"f0a1d594-9817-42ab-a8d6-aea4947e8858","system_id":"levelo_inurba_marseille","lat":43.28812,"lon":5.43414,"is_reserved":false,"is_disabled":true,"rental_uris":{"android":"levelo://app?vid=f0a1d594-9817-42ab-a8d6-aea4947e8858","ios":"levelo://app?vid=f0a1d594-9817-42ab-a8d6-aea4947e8858"},"vehicle_type_id":"4","last_reported":1750774287,"current_range_meters":0,"station_id":"","pricing_plan_id":"cebpf4jnsgd1na2vs0mg"},{"bike_id":"62a493c7-4534-4419-ad43-0582de34a72a","system_id":"levelo_inurba_marseille","lat":43.21366,"lon":5.355183,"is_reserved":false,"is_disabled":true,"rental_uris":{"android":"levelo://app?vid=62a493c7-4534-4419-ad43-0582de34a72a","ios":"levelo://app?vid=62a493c7-4534-4419-ad43-0582de34a72a"},"vehicle_type_id":"4","last_reported":1750774287,"current_range_meters":0,"station_id":"","pricing_plan_id":"cebpf4jnsgd1na2vs0mg"},{"bike_id":"139d47bd-ff87-42d8-a4c6-89da4be6f80c","system_id":"levelo_inurba_marseille","lat":43.27962,"lon":5.44252,"is_reserved":false,"is_disabled":true,"rental_uris":{"android":"levelo://app?vid=139d47bd-ff87-42d8-a4c6-89da4be6f80c","ios":"levelo://app?vid=139d47bd-ff87-42d8-a4c6-89da4be6f80c"},"vehicle_type_id":"4","last_reported":1750774287,"current_range_meters":0,"station_id":"","pricing_plan_id":"cebpf4jnsgd1na2vs0mg"},{"bike_id":"d07b07aa-5732-4368-b606-c642421b7603","system_id":"levelo_inurba_marseille","lat":43.34335,"lon":5.34919,"is_reserved":false,"is_disabled":true,"rental_uris":{"android":"levelo://app?vid=d07b07aa-5732-4368-b606-c642421b7603","ios":"levelo://app?vid=d07b07aa-5732-4368-b606-c642421b7603"},"vehicle_type_id":"4","last_reported":1750774287,"current_range_meters":0,"station_id":"","pricing_plan_id":"cebpf4jnsgd1na2vs0mg"},{"bike_id":"d6ce388f-ca76-4c7c-9e3f-e6b4d12862f1","system_id":"levelo_inurba_marseille","lat":43.24464,"lon":5.41462,"is_reserved":false,"is_disabled":true,"rental_uris":{"android":"levelo://app?vid=d6ce388f-ca76-4c7c-9e3f-e6b4d12862f1","ios":"levelo://app?vid=d6ce388f-ca76-4c7c-9e3f-e6b4d12862f1"},"vehicle_type_id":"4","last_reported":1750774287,"current_range_meters":0,"station_id":"","pricing_plan_id":"cebpf4jnsgd1na2vs0mg"},{"bike_id":"3a3a1818-f20a-442b-bfcf-0e0a18008f43","system_id":"levelo_inurba_marseille","lat":43.26612,"lon":5.37491,"is_reserved":false,"is_disabled":true,"rental_uris":{"android":"levelo://app?vid=3a3a1818-f20a-442b-bfcf-0e0a18008f43","ios":"levelo://app?vid=3a3a1818-f20a-442b-bfcf-0e0a18008f43"},"vehicle_type_id":"4","last_reported":1750774287,"current_range_meters":0,"station_id":"","pricing_plan_id":"cebpf4jnsgd1na2vs0mg"},{"bike_id":"11d160d1-34e0-4ce8-9789-9603b74a4446","system_id":"levelo_inurba_marseille","lat":43.32706,"lon":5.3749,"is_reserved":false,"is_disabled":true,"rental_uris":{"android":"levelo://app?vid=11d160d1-34e0-4ce8-9789-9603b74a4446","ios":"levelo://app?vid=11d160d1-34e0-4ce8-9789-9603b74a4446"},"vehicle_type_id":"4","last_reported":1750774287,"current_range_meters":0,"station_id":"","pricing_plan_id":"cebpf4jnsgd1na2vs0mg"},{"bike_id":"d6609b4f-333b-43c1-9ebe-8726f5e76e88","system_id":"levelo_inurba_marseille","lat":43.337444,"lon":5.374475,"is_reserved":false,"is_disabled":true,"rental_uris":{"android":"levelo://app?vid=d6609b4f-333b-43c1-9ebe-8726f5e76e88","ios":"levelo://app?vid=d6609b4f-333b-43c1-9ebe-8726f5e76e88"},"vehicle_type_id":"4","last_reported":1750774287,"current_range_meters":0,"station_id":"","pricing_plan_id":"cebpf4jnsgd1na2vs0mg"},{"bike_id":"9cb193d0-906b-4ac2-85c5-eea810b1d20f","system_id":"levelo_inurba_marseille","lat":43.29413,"lon":5.43184,"is_reserved":false,"is_disabled":true,"rental_uris":{"android":"levelo://app?vid=9cb193d0-906b-4ac2-85c5-eea810b1d20f","ios":"levelo://app?vid=9cb193d0-906b-4ac2-85c5-eea810b1d20f"},"vehicle_type_id":"4","last_reported":1750774287,"current_range_meters":0,"station_id":"","pricing_plan_id":"cebpf4jnsgd1na2vs0mg"},{"bike_id":"bd17737b-22d2-4e4f-88e8-4eb661d864c4","system_id":"levelo_inurba_marseille","lat":43.29174,"lon":5.46072,"is_reserved":false,"is_disabled":true,"rental_uris":{"android":"levelo://app?vid=bd17737b-22d2-4e4f-88e8-4eb661d864c4","ios":"levelo://app?vid=bd17737b-22d2-4e4f-88e8-4eb661d864c4"},"vehicle_type_id":"4","last_reported":1750774287,"current_range_meters":0,"station_id":"","pricing_plan_id":"cebpf4jnsgd1na2vs0mg"},{"bike_id":"0032b41f-e702-48e0-a561-160b8fb6cb78","system_id":"levelo_inurba_marseille","lat":43.28906,"lon":5.39052,"is_reserved":false,"is_disabled":true,"rental_uris":{"android":"levelo://app?vid=0032b41f-e702-48e0-a561-160b8fb6cb78","ios":"levelo://app?vid=0032b41f-e702-48e0-a561-160b8fb6cb78"},"vehicle_type_id":"4","last_reported":1750774287,"current_range_meters":0,"station_id":"","pricing_plan_id":"cebpf4jnsgd1na2vs0mg"},{"bike_id":"3d07ef76-af52-42e0-81f1-5f4963c9ee29","system_id":"levelo_inurba_marseille","lat":43.294701,"lon":5.438349,"is_reserved":false,"is_disabled":true,"rental_uris":{"android":"levelo://app?vid=3d07ef76-af52-42e0-81f1-5f4963c9ee29","ios":"levelo://app?vid=3d07ef76-af52-42e0-81f1-5f4963c9ee29"},"vehicle_type_id":"4","last_reported":1750774287,"current_range_meters":0,"station_id":"","pricing_plan_id":"cebpf4jnsgd1na2vs0mg"},{"bike_id":"0c86cdad-b64a-47bf-ba91-5b398064181c","system_id":"levelo_inurba_marseille","lat":43.384196,"lon":5.358629,"is_reserved":false,"is_disabled":true,"rental_uris":{"android":"levelo://app?vid=0c86cdad-b64a-47bf-ba91-5b398064181c","ios":"levelo://app?vid=0c86cdad-b64a-47bf-ba91-5b398064181c"},"vehicle_type_id":"4","last_reported":1750774287,"current_range_meters":0,"station_id":"","pricing_plan_id":"cebpf4jnsgd1na2vs0mg"},{"bike_id":"634e6e77-ad5e-474d-8dc2-a11851887988","system_id":"levelo_inurba_marseille","lat":43.29261,"lon":5.37613,"is_reserved":false,"is_disabled":true,"rental_uris":{"android":"levelo://app?vid=634e6e77-ad5e-474d-8dc2-a11851887988","ios":"levelo://app?vid=634e6e77-ad5e-474d-8dc2-a11851887988"},"vehicle_type_id":"4","last_reported":1750774287,"current_range_meters":0,"station_id":"ce4bgi12rcd13ifvqb80","pricing_plan_id":"cebpf4jnsgd1na2vs0mg"},{"bike_id":"a912f0e0-3623-4388-941e-44d9122f7051","system_id":"levelo_inurba_marseille","lat":43.298008,"lon":5.381129,"is_reserved":false,"is_disabled":false,"rental_uris":{"android":"levelo://app?vid=a912f0e0-3623-4388-941e-44d9122f7051","ios":"levelo://app?vid=a912f0e0-3623-4388-941e-44d9122f7051"},"vehicle_type_id":"4","last_reported":1750774287,"current_range_meters":0,"station_id":"ce4bgip2rcd13ifvqbb0","pricing_plan_id":"cebpf4jnsgd1na2vs0mg"},{"bike_id":"1099e6d2-49b9-4f7c-8898-bd4895328cae","system_id":"levelo_inurba_marseille","lat":43.29373,"lon":5.37844,"is_reserved":false,"is_disabled":true,"rental_uris":{"android":"levelo://app?vid=1099e6d2-49b9-4f7c-8898-bd4895328cae","ios":"levelo://app?vid=1099e6d2-49b9-4f7c-8898-bd4895328cae"},"vehicle_type_id":"4","last_reported":1750774287,"current_range_meters":0,"station_id":"ce4bgjh2rcd13ifvqbf0","pricing_plan_id":"cebpf4jnsgd1na2vs0mg"},{"bike_id":"f2a81b54-dfea-403c-8ff1-72fb7049d907","system_id":"levelo_inurba_marseille","lat":43.30302,"lon":5.3922,"is_reserved":false,"is_disabled":true,"rental_uris":{"android":"levelo://app?vid=f2a81b54-dfea-403c-8ff1-72fb7049d907","ios":"levelo://app?vid=f2a81b54-dfea-403c-8ff1-72fb7049d907"},"vehicle_type_id":"4","last_reported":1750774287,"current_range_meters":0,"station_id":"ce4bgkh2rcd13ifvqbk0","pricing_plan_id":"cebpf4jnsgd1na2vs0mg"},{"bike_id":"3b786da0-6dbe-47fc-a1ed-73ea471b429b","system_id":"levelo_inurba_marseille","lat":43.30323,"lon":5.39209,"is_reserved":false,"is_disabled":true,"rental_uris":{"android":"levelo://app?vid=3b786da0-6dbe-47fc-a1ed-73ea471b429b","ios":"levelo://app?vid=3b786da0-6dbe-47fc-a1ed-73ea471b429b"},"vehicle_type_id":"4","last_reported":1750774287,"current_range_meters":0,"station_id":"ce4bgkh2rcd13ifvqbk0","pricing_plan_id":"cebpf4jnsgd1na2vs0mg"},{"bike_id":"596adbef-1608-4bb2-b9cc-064dfc8db81e","system_id":"levelo_inurba_marseille","lat":43.3054,"lon":5.36707,"is_reserved":false,"is_disabled":true,"rental_uris":{"android":"levelo://app?vid=596adbef-1608-4bb2-b9cc-064dfc8db81e","ios":"levelo://app?vid=596adbef-1608-4bb2-b9cc-064dfc8db81e"},"vehicle_type_id":"4","last_reported":1750774287,"current_range_meters":0,"station_id":"ce4bgrp2rcd13ifvqc9g","pricing_plan_id":"cebpf4jnsgd1na2vs0mg"},{"bike_id":"9a0444bd-8b32-4243-8099-971bb043bb1f","system_id":"levelo_inurba_marseille","lat":43.30797,"lon":5.38149,"is_reserved":false,"is_disabled":true,"rental_uris":{"android":"levelo://app?vid=9a0444bd-8b32-4243-8099-971bb043bb1f","ios":"levelo://app?vid=9a0444bd-8b32-4243-8099-971bb043bb1f"},"vehicle_type_id":"4","last_reported":1750774287,"current_range_meters":0,"station_id":"ce4bgt12rcd13ifvqce0","pricing_plan_id":"cebpf4jnsgd1na2vs0mg"},{"bike_id":"6aedfa7f-5ffa-4bfa-b8ed-d00ec3be673e","system_id":"levelo_inurba_marseille","lat":43.30949,"lon":5.3903,"is_reserved":false,"is_disabled":true,"rental_uris":{"android":"levelo://app?vid=6aedfa7f-5ffa-4bfa-b8ed-d00ec3be673e","ios":"levelo://app?vid=6aedfa7f-5ffa-4bfa-b8ed-d00ec3be673e"},"vehicle_type_id":"4","last_reported":1750774287,"current_range_meters":0,"station_id":"ce4bgup2rcd13ifvqco0","pricing_plan_id":"cebpf4jnsgd1na2vs0mg"},{"bike_id":"4a6ed2df-b59f-46d2-8e77-2a06604d607b","system_id":"levelo_inurba_marseille","lat":43.3107,"lon":5.38351,"is_reserved":false,"is_disabled":true,"rental_uris":{"android":"levelo://app?vid=4a6ed2df-b59f-46d2-8e77-2a06604d607b","ios":"levelo://app?vid=4a6ed2df-b59f-46d2-8e77-2a06604d607b"},"vehicle_type_id":"4","last_reported":1750774287,"current_range_meters":0,"station_id":"ce4bgv92rcd13ifvqcr0","pricing_plan_id":"cebpf4jnsgd1na2vs0mg"},{"bike_id":"bf455bed-cacf-49bf-9177-1d14c5ca7d2d","system_id":"levelo_inurba_marseille","lat":43.3093,"lon":5.40157,"is_reserved":false,"is_disabled":true,"rental_uris":{"android":"levelo://app?vid=bf455bed-cacf-49bf-9177-1d14c5ca7d2d","ios":"levelo://app?vid=bf455bed-cacf-49bf-9177-1d14c5ca7d2d"},"vehicle_type_id":"4","last_reported":1750774287,"current_range_meters":0,"station_id":"ce4bgvp2rcd13ifvqct0","pricing_plan_id":"cebpf4jnsgd1na2vs0mg"},{"bike_id":"87961d0c-e178-41be-a9fd-c9ae443fa961","system_id":"levelo_inurba_marseille","lat":43.29412,"lon":5.38631,"is_reserved":false,"is_disabled":true,"rental_uris":{"android":"levelo://app?vid=87961d0c-e178-41be-a9fd-c9ae443fa961","ios":"levelo://app?vid=87961d0c-e178-41be-a9fd-c9ae443fa961"},"vehicle_type_id":"4","last_reported":1750774287,"current_range_meters":0,"station_id":"ce4bh2h2rcd13ifvqdh0","pricing_plan_id":"cebpf4jnsgd1na2vs0mg"},{"bike_id":"c4a21c70-48e7-4d5f-ad89-8b3272526dd3","system_id":"levelo_inurba_marseille","lat":43.28697,"lon":5.37389,"is_reserved":false,"is_disabled":true,"rental_uris":{"android":"levelo://app?vid=c4a21c70-48e7-4d5f-ad89-8b3272526dd3","ios":"levelo://app?vid=c4a21c70-48e7-4d5f-ad89-8b3272526dd3"},"vehicle_type_id":"4","last_reported":1750774287,"current_range_meters":0,"station_id":"ce4bh3p2rcd13ifvqdq0","pricing_plan_id":"cebpf4jnsgd1na2vs0mg"},{"bike_id":"128ccd1f-6ebd-484b-affa-a17ae2bbcb45","system_id":"levelo_inurba_marseille","lat":43.28502,"lon":5.38555,"is_reserved":false,"is_disabled":true,"rental_uris":{"android":"levelo://app?vid=128ccd1f-6ebd-484b-affa-a17ae2bbcb45","ios":"levelo://app?vid=128ccd1f-6ebd-484b-affa-a17ae2bbcb45"},"vehicle_type_id":"4","last_reported":1750774287,"current_range_meters":0,"station_id":"ce4bh8p2rcd13ifvqeb0","pricing_plan_id":"cebpf4jnsgd1na2vs0mg"},{"bike_id":"a224e210-3cd0-42b2-ae33-aa82113f74f0","system_id":"levelo_inurba_marseille","lat":43.28107,"lon":5.37823,"is_reserved":false,"is_disabled":true,"rental_uris":{"android":"levelo://app?vid=a224e210-3cd0-42b2-ae33-aa82113f74f0","ios":"levelo://app?vid=a224e210-3cd0-42b2-ae33-aa82113f74f0"},"vehicle_type_id":"4","last_reported":1750774287,"current_range_meters":0,"station_id":"ce4bha12rcd13ifvqee0","pricing_plan_id":"cebpf4jnsgd1na2vs0mg"},{"bike_id":"bb119695-732a-4133-bbf0-f9560fe20ba1","system_id":"levelo_inurba_marseille","lat":43.28421,"lon":5.34976,"is_reserved":false,"is_disabled":true,"rental_uris":{"android":"levelo://app?vid=bb119695-732a-4133-bbf0-f9560fe20ba1","ios":"levelo://app?vid=bb119695-732a-4133-bbf0-f9560fe20ba1"},"vehicle_type_id":"4","last_reported":1750774287,"current_range_meters":0,"station_id":"ce4bhbh2rcd13ifvqepg","pricing_plan_id":"cebpf4jnsgd1na2vs0mg"},{"bike_id":"74628af9-da00-4b63-bc45-d55e4cecde08","system_id":"levelo_inurba_marseille","lat":43.29224,"lon":5.36077,"is_reserved":false,"is_disabled":true,"rental_uris":{"android":"levelo://app?vid=74628af9-da00-4b63-bc45-d55e4cecde08","ios":"levelo://app?vid=74628af9-da00-4b63-bc45-d55e4cecde08"},"vehicle_type_id":"4","last_reported":1750774287,"current_range_meters":0,"station_id":"ce4bhbh2rcd13ifvqeqg","pricing_plan_id":"cebpf4jnsgd1na2vs0mg"},{"bike_id":"e70c11dc-291d-439d-ab2d-b164f3000389","system_id":"levelo_inurba_marseille","lat":43.29214,"lon":5.36056,"is_reserved":false,"is_disabled":true,"rental_uris":{"android":"levelo://app?vid=e70c11dc-291d-439d-ab2d-b164f3000389","ios":"levelo://app?vid=e70c11dc-291d-439d-ab2d-b164f3000389"},"vehicle_type_id":"4","last_reported":1750774287,"current_range_meters":0,"station_id":"ce4bhbh2rcd13ifvqeqg","pricing_plan_id":"cebpf4jnsgd1na2vs0mg"},{"bike_id":"f49c8040-187f-4ad2-b6b7-8a07c039a61c","system_id":"levelo_inurba_marseille","lat":43.29226,"lon":5.36048,"is_reserved":false,"is_disabled":true,"rental_uris":{"android":"levelo://app?vid=f49c8040-187f-4ad2-b6b7-8a07c039a61c","ios":"levelo://app?vid=f49c8040-187f-4ad2-b6b7-8a07c039a61c"},"vehicle_type_id":"4","last_reported":1750774287,"current_range_meters":0,"station_id":"ce4bhbh2rcd13ifvqeqg","pricing_plan_id":"cebpf4jnsgd1na2vs0mg"},{"bike_id":"7ddb5384-6eb7-494e-8b8a-ef0139ad56d7","system_id":"levelo_inurba_marseille","lat":43.29233,"lon":5.36102,"is_reserved":false,"is_disabled":true,"rental_uris":{"android":"levelo://app?vid=7ddb5384-6eb7-494e-8b8a-ef0139ad56d7","ios":"levelo://app?vid=7ddb5384-6eb7-494e-8b8a-ef0139ad56d7"},"vehicle_type_id":"4","last_reported":1750774287,"current_range_meters":0,"station_id":"ce4bhbh2rcd13ifvqeqg","pricing_plan_id":"cebpf4jnsgd1na2vs0mg"},{"bike_id":"37ee370b-4b15-4733-b969-d4513e8ff439","system_id":"levelo_inurba_marseille","lat":43.28617,"lon":5.35105,"is_reserved":false,"is_disabled":true,"rental_uris":{"android":"levelo://app?vid=37ee370b-4b15-4733-b969-d4513e8ff439","ios":"levelo://app?vid=37ee370b-4b15-4733-b969-d4513e8ff439"},"vehicle_type_id":"4","last_reported":1750774287,"current_range_meters":0,"station_id":"ce4bhch2rcd13ifvqeug","pricing_plan_id":"cebpf4jnsgd1na2vs0mg"},{"bike_id":"848dcd79-b36c-4f66-8cfe-3c9135658c93","system_id":"levelo_inurba_marseille","lat":43.28614,"lon":5.35101,"is_reserved":false,"is_disabled":true,"rental_uris":{"android":"levelo://app?vid=848dcd79-b36c-4f66-8cfe-3c9135658c93","ios":"levelo://app?vid=848dcd79-b36c-4f66-8cfe-3c9135658c93"},"vehicle_type_id":"4","last_reported":1750774287,"current_range_meters":0,"station_id":"ce4bhch2rcd13ifvqeug","pricing_plan_id":"cebpf4jnsgd1na2vs0mg"},{"bike_id":"522da623-432e-4027-9e16-e9c880f1d37b","system_id":"levelo_inurba_marseille","lat":43.27836,"lon":5.39198,"is_reserved":false,"is_disabled":true,"rental_uris":{"android":"levelo://app?vid=522da623-432e-4027-9e16-e9c880f1d37b","ios":"levelo://app?vid=522da623-432e-4027-9e16-e9c880f1d37b"},"vehicle_type_id":"4","last_reported":1750774287,"current_range_meters":0,"station_id":"ce4bhjp2rcd13ifvqga0","pricing_plan_id":"cebpf4jnsgd1na2vs0mg"},{"bike_id":"67de2a11-350d-4aa0-bb07-bffb1929fb06","system_id":"levelo_inurba_marseille","lat":43.25929,"lon":5.40914,"is_reserved":false,"is_disabled":true,"rental_uris":{"android":"levelo://app?vid=67de2a11-350d-4aa0-bb07-bffb1929fb06","ios":"levelo://app?vid=67de2a11-350d-4aa0-bb07-bffb1929fb06"},"vehicle_type_id":"4","last_reported":1750774287,"current_range_meters":0,"station_id":"ce4bhm92rcd13ifvqglg","pricing_plan_id":"cebpf4jnsgd1na2vs0mg"},{"bike_id":"87083476-8ff8-4872-805d-8fac97de45bb","system_id":"levelo_inurba_marseille","lat":43.24096,"lon":5.3774,"is_reserved":false,"is_disabled":true,"rental_uris":{"android":"levelo://app?vid=87083476-8ff8-4872-805d-8fac97de45bb","ios":"levelo://app?vid=87083476-8ff8-4872-805d-8fac97de45bb"},"vehicle_type_id":"4","last_reported":1750774287,"current_range_meters":0,"station_id":"ce4bhnp2rcd13ifvqgvg","pricing_plan_id":"cebpf4jnsgd1na2vs0mg"},{"bike_id":"9f3359f4-4b24-4cb1-a098-d4708cecf345","system_id":"levelo_inurba_marseille","lat":43.32537,"lon":5.41423,"is_reserved":false,"is_disabled":true,"rental_uris":{"android":"levelo://app?vid=9f3359f4-4b24-4cb1-a098-d4708cecf345","ios":"levelo://app?vid=9f3359f4-4b24-4cb1-a098-d4708cecf345"},"vehicle_type_id":"4","last_reported":1750774287,"current_range_meters":0,"station_id":"ce4bhq12rcd13ifvqhhg","pricing_plan_id":"cebpf4jnsgd1na2vs0mg"},{"bike_id":"cf0eab26-b7d1-4b13-a38a-4ab94638fe2a","system_id":"levelo_inurba_marseille","lat":43.32379,"lon":5.40585,"is_reserved":false,"is_disabled":true,"rental_uris":{"android":"levelo://app?vid=cf0eab26-b7d1-4b13-a38a-4ab94638fe2a","ios":"levelo://app?vid=cf0eab26-b7d1-4b13-a38a-4ab94638fe2a"},"vehicle_type_id":"4","last_reported":1750774287,"current_range_meters":0,"station_id":"ce4bhq92rcd13ifvqhjg","pricing_plan_id":"cebpf4jnsgd1na2vs0mg"},{"bike_id":"a3a4a021-3222-4a77-9e81-f902285c3795","system_id":"levelo_inurba_marseille","lat":43.32482,"lon":5.36575,"is_reserved":false,"is_disabled":true,"rental_uris":{"android":"levelo://app?vid=a3a4a021-3222-4a77-9e81-f902285c3795","ios":"levelo://app?vid=a3a4a021-3222-4a77-9e81-f902285c3795"},"vehicle_type_id":"4","last_reported":1750774287,"current_range_meters":0,"station_id":"ce4bhs12rcd13ifvqhvg","pricing_plan_id":"cebpf4jnsgd1na2vs0mg"},{"bike_id":"4a3b6871-8241-46bf-9ef4-8e46286432a8","system_id":"levelo_inurba_marseille","lat":43.30034,"lon":5.40172,"is_reserved":false,"is_disabled":true,"rental_uris":{"android":"levelo://app?vid=4a3b6871-8241-46bf-9ef4-8e46286432a8","ios":"levelo://app?vid=4a3b6871-8241-46bf-9ef4-8e46286432a8"},"vehicle_type_id":"4","last_reported":1750774287,"current_range_meters":400,"station_id":"","pricing_plan_id":"cebpf4jnsgd1na2vs0mg"},{"bike_id":"caa82dc5-ed9c-424b-9374-82b980a3d5bc","system_id":"levelo_inurba_marseille","lat":43.29225,"lon":5.38422,"is_reserved":false,"is_disabled":true,"rental_uris":{"android":"levelo://app?vid=caa82dc5-ed9c-424b-9374-82b980a3d5bc","ios":"levelo://app?vid=caa82dc5-ed9c-424b-9374-82b980a3d5bc"},"vehicle_type_id":"4","last_reported":1750774287,"current_range_meters":400,"station_id":"ce4bh692rcd13ifvqea0","pricing_plan_id":"cebpf4jnsgd1na2vs0mg"},{"bike_id":"966c3118-e338-4bd3-95cd-4bbc489a0396","system_id":"levelo_inurba_marseille","lat":43.28936,"lon":5.36629,"is_reserved":false,"is_disabled":true,"rental_uris":{"android":"levelo://app?vid=966c3118-e338-4bd3-95cd-4bbc489a0396","ios":"levelo://app?vid=966c3118-e338-4bd3-95cd-4bbc489a0396"},"vehicle_type_id":"4","last_reported":1750774287,"current_range_meters":400,"station_id":"ce4bhap2rcd13ifvqek0","pricing_plan_id":"cebpf4jnsgd1na2vs0mg"},{"bike_id":"538980fd-6498-4a23-a3a3-4b16626ab2f0","system_id":"levelo_inurba_marseille","lat":43.29535,"lon":5.38536,"is_reserved":false,"is_disabled":true,"rental_uris":{"android":"levelo://app?vid=538980fd-6498-4a23-a3a3-4b16626ab2f0","ios":"levelo://app?vid=538980fd-6498-4a23-a3a3-4b16626ab2f0"},"vehicle_type_id":"4","last_reported":1750774287,"current_range_meters":800,"station_id":"ce4bgih2rcd13ifvqba0","pricing_plan_id":"cebpf4jnsgd1na2vs0mg"},{"bike_id":"441c609c-8a37-4c32-8b39-f27e4a828bcf","system_id":"levelo_inurba_marseille","lat":43.30142,"lon":5.374222,"is_reserved":false,"is_disabled":true,"rental_uris":{"android":"levelo://app?vid=441c609c-8a37-4c32-8b39-f27e4a828bcf","ios":"levelo://app?vid=441c609c-8a37-4c32-8b39-f27e4a828bcf"},"vehicle_type_id":"4","last_reported":1750774287,"current_range_meters":800,"station_id":"ce4bgs92rcd13ifvqcc0","pricing_plan_id":"cebpf4jnsgd1na2vs0mg"},{"bike_id":"ebaadc84-bc1f-4856-abd6-9ecdd8991fc6","system_id":"levelo_inurba_marseille","lat":43.291446,"lon":5.380676,"is_reserved":false,"is_disabled":true,"rental_uris":{"android":"levelo://app?vid=ebaadc84-bc1f-4856-abd6-9ecdd8991fc6","ios":"levelo://app?vid=ebaadc84-bc1f-4856-abd6-9ecdd8991fc6"},"vehicle_type_id":"4","last_reported":1750774287,"current_range_meters":800,"station_id":"ce4bh512rcd13ifvqe2g","pricing_plan_id":"cebpf4jnsgd1na2vs0mg"},{"bike_id":"aef54b54-b24d-4abd-b788-9f0d120c6dd5","system_id":"levelo_inurba_marseille","lat":43.30138,"lon":5.3878,"is_reserved":false,"is_disabled":true,"rental_uris":{"android":"levelo://app?vid=aef54b54-b24d-4abd-b788-9f0d120c6dd5","ios":"levelo://app?vid=aef54b54-b24d-4abd-b788-9f0d120c6dd5"},"vehicle_type_id":"4","last_reported":1750774287,"current_range_meters":1200,"station_id":"ce4bghh2rcd13ifvqb60","pricing_plan_id":"cebpf4jnsgd1na2vs0mg"},{"bike_id":"c7169a8e-a91d-474d-abd8-a235daec6171","system_id":"levelo_inurba_marseille","lat":43.30473,"lon":5.37895,"is_reserved":false,"is_disabled":true,"rental_uris":{"android":"levelo://app?vid=c7169a8e-a91d-474d-abd8-a235daec6171","ios":"levelo://app?vid=c7169a8e-a91d-474d-abd8-a235daec6171"},"vehicle_type_id":"4","last_reported":1750774287,"current_range_meters":1200,"station_id":"ce4bgup2rcd13ifvqcn0","pricing_plan_id":"cebpf4jnsgd1na2vs0mg"},{"bike_id":"05edebc5-779b-4134-8502-f9698d7ca601","system_id":"levelo_inurba_marseille","lat":43.26218,"lon":5.40434,"is_reserved":false,"is_disabled":true,"rental_uris":{"android":"levelo://app?vid=05edebc5-779b-4134-8502-f9698d7ca601","ios":"levelo://app?vid=05edebc5-779b-4134-8502-f9698d7ca601"},"vehicle_type_id":"4","last_reported":1750774287,"current_range_meters":1200,"station_id":"ce4bhmh2rcd13ifvqgmg","pricing_plan_id":"cebpf4jnsgd1na2vs0mg"},{"bike_id":"85c58f10-925d-4344-b389-09267487a6fc","system_id":"levelo_inurba_marseille","lat":43.21139,"lon":5.41928,"is_reserved":false,"is_disabled":true,"rental_uris":{"android":"levelo://app?vid=85c58f10-925d-4344-b389-09267487a6fc","ios":"levelo://app?vid=85c58f10-925d-4344-b389-09267487a6fc"},"vehicle_type_id":"4","last_reported":1750774287,"current_range_meters":1600,"station_id":"","pricing_plan_id":"cebpf4jnsgd1na2vs0mg"},{"bike_id":"489abb1d-e358-4ba3-8e92-5fc34f71b016","system_id":"levelo_inurba_marseille","lat":43.28418,"lon":5.34993,"is_reserved":false,"is_disabled":true,"rental_uris":{"android":"levelo://app?vid=489abb1d-e358-4ba3-8e92-5fc34f71b016","ios":"levelo://app?vid=489abb1d-e358-4ba3-8e92-5fc34f71b016"},"vehicle_type_id":"4","last_reported":1750774287,"current_range_meters":1600,"station_id":"ce4bhbh2rcd13ifvqepg","pricing_plan_id":"cebpf4jnsgd1na2vs0mg"},{"bike_id":"05e2a034-8959-4158-8a3b-af279c84e7d4","system_id":"levelo_inurba_marseille","lat":43.316986,"lon":5.404887,"is_reserved":false,"is_disabled":true,"rental_uris":{"android":"levelo://app?vid=05e2a034-8959-4158-8a3b-af279c84e7d4","ios":"levelo://app?vid=05e2a034-8959-4158-8a3b-af279c84e7d4"},"vehicle_type_id":"4","last_reported":1750774287,"current_range_meters":2000,"station_id":"","pricing_plan_id":"cebpf4jnsgd1na2vs0mg"},{"bike_id":"64bd8467-762e-400f-bf41-041f9d645b16","system_id":"levelo_inurba_marseille","lat":43.29908,"lon":5.38138,"is_reserved":false,"is_disabled":false,"rental_uris":{"android":"levelo://app?vid=64bd8467-762e-400f-bf41-041f9d645b16","ios":"levelo://app?vid=64bd8467-762e-400f-bf41-041f9d645b16"},"vehicle_type_id":"4","last_reported":1750774287,"current_range_meters":2000,"station_id":"ce4bgj12rcd13ifvqbc0","pricing_plan_id":"cebpf4jnsgd1na2vs0mg"},{"bike_id":"792cd44f-b885-4f67-b26c-375b4230a83e","system_id":"levelo_inurba_marseille","lat":43.28421,"lon":5.35,"is_reserved":false,"is_disabled":true,"rental_uris":{"android":"levelo://app?vid=792cd44f-b885-4f67-b26c-375b4230a83e","ios":"levelo://app?vid=792cd44f-b885-4f67-b26c-375b4230a83e"},"vehicle_type_id":"4","last_reported":1750774287,"current_range_meters":2000,"station_id":"ce4bhbh2rcd13ifvqepg","pricing_plan_id":"cebpf4jnsgd1na2vs0mg"},{"bike_id":"de002d9d-83b0-41e6-99fe-f9eb013d6ff3","system_id":"levelo_inurba_marseille","lat":43.21769,"lon":5.34606,"is_reserved":false,"is_disabled":true,"rental_uris":{"android":"levelo://app?vid=de002d9d-83b0-41e6-99fe-f9eb013d6ff3","ios":"levelo://app?vid=de002d9d-83b0-41e6-99fe-f9eb013d6ff3"},"vehicle_type_id":"4","last_reported":1750774287,"current_range_meters":2000,"station_id":"st_cvj6r9ubvosntc0bgbag","pricing_plan_id":"cebpf4jnsgd1na2vs0mg"},{"bike_id":"adb14e12-762f-44e9-959a-b7191d76c184","system_id":"levelo_inurba_marseille","lat":43.29498,"lon":5.38046,"is_reserved":false,"is_disabled":false,"rental_uris":{"android":"levelo://app?vid=adb14e12-762f-44e9-959a-b7191d76c184","ios":"levelo://app?vid=adb14e12-762f-44e9-959a-b7191d76c184"},"vehicle_type_id":"4","last_reported":1750774287,"current_range_meters":2800,"station_id":"","pricing_plan_id":"cebpf4jnsgd1na2vs0mg"},{"bike_id":"713f9eaf-72b4-43bb-b15c-1d73e436aa74","system_id":"levelo_inurba_marseille","lat":43.28707,"lon":5.37403,"is_reserved":false,"is_disabled":false,"rental_uris":{"android":"levelo://app?vid=713f9eaf-72b4-43bb-b15c-1d73e436aa74","ios":"levelo://app?vid=713f9eaf-72b4-43bb-b15c-1d73e436aa74"},"vehicle_type_id":"4","last_reported":1750774287,"current_range_meters":2800,"station_id":"ce4bh3p2rcd13ifvqdq0","pricing_plan_id":"cebpf4jnsgd1na2vs0mg"},{"bike_id":"022a7c23-f045-4d56-9eda-6c0c915eddbe","system_id":"levelo_inurba_marseille","lat":43.30219,"lon":5.39477,"is_reserved":false,"is_disabled":false,"rental_uris":{"android":"levelo://app?vid=022a7c23-f045-4d56-9eda-6c0c915eddbe","ios":"levelo://app?vid=022a7c23-f045-4d56-9eda-6c0c915eddbe"},"vehicle_type_id":"4","last_reported":1750774287,"current_range_meters":3200,"station_id":"ce4bh0p2rcd13ifvqd70","pricing_plan_id":"cebpf4jnsgd1na2vs0mg"},{"bike_id":"e78dfe2e-3d80-4111-844d-299a9a60e298","system_id":"levelo_inurba_marseille","lat":43.26551,"lon":5.37284,"is_reserved":false,"is_disabled":false,"rental_uris":{"android":"levelo://app?vid=e78dfe2e-3d80-4111-844d-299a9a60e298","ios":"levelo://app?vid=e78dfe2e-3d80-4111-844d-299a9a60e298"},"vehicle_type_id":"4","last_reported":1750774287,"current_range_meters":3200,"station_id":"ce4bhg12rcd13ifvqf70","pricing_plan_id":"cebpf4jnsgd1na2vs0mg"},{"bike_id":"dec574c8-08a3-4f6f-b3c9-8525842adf72","system_id":"levelo_inurba_marseille","lat":43.25492,"lon":5.37649,"is_reserved":false,"is_disabled":false,"rental_uris":{"android":"levelo://app?vid=dec574c8-08a3-4f6f-b3c9-8525842adf72","ios":"levelo://app?vid=dec574c8-08a3-4f6f-b3c9-8525842adf72"},"vehicle_type_id":"4","last_reported":1750774287,"current_range_meters":3200,"station_id":"ce4bhh12rcd13ifvqff0","pricing_plan_id":"cebpf4jnsgd1na2vs0mg"},{"bike_id":"8c6de0c1-9eaf-4c18-8155-d956789067ae","system_id":"levelo_inurba_marseille","lat":43.27949,"lon":5.44253,"is_reserved":false,"is_disabled":false,"rental_uris":{"android":"levelo://app?vid=8c6de0c1-9eaf-4c18-8155-d956789067ae","ios":"levelo://app?vid=8c6de0c1-9eaf-4c18-8155-d956789067ae"},"vehicle_type_id":"4","last_reported":1750774287,"current_range_meters":3600,"station_id":"","pricing_plan_id":"cebpf4jnsgd1na2vs0mg"},{"bike_id":"a9e5e555-fdaf-49c0-b286-f0f2659b17d0","system_id":"levelo_inurba_marseille","lat":43.28316,"lon":5.43257,"is_reserved":false,"is_disabled":false,"rental_uris":{"android":"levelo://app?vid=a9e5e555-fdaf-49c0-b286-f0f2659b17d0","ios":"levelo://app?vid=a9e5e555-fdaf-49c0-b286-f0f2659b17d0"},"vehicle_type_id":"4","last_reported":1750774287,"current_range_meters":3600,"station_id":"","pricing_plan_id":"cebpf4jnsgd1na2vs0mg"},{"bike_id":"02722b93-ff31-493b-9e6e-7498fb60f248","system_id":"levelo_inurba_marseille","lat":43.28462,"lon":5.35881,"is_reserved":false,"is_disabled":false,"rental_uris":{"android":"levelo://app?vid=02722b93-ff31-493b-9e6e-7498fb60f248","ios":"levelo://app?vid=02722b93-ff31-493b-9e6e-7498fb60f248"},"vehicle_type_id":"4","last_reported":1750774287,"current_range_meters":3600,"station_id":"ce4bhah2rcd13ifvqei0","pricing_plan_id":"cebpf4jnsgd1na2vs0mg"},{"bike_id":"55cd03b1-ca40-4445-8748-fc637fbd1cd3","system_id":"levelo_inurba_marseille","lat":43.29967,"lon":5.38496,"is_reserved":false,"is_disabled":false,"rental_uris":{"android":"levelo://app?vid=55cd03b1-ca40-4445-8748-fc637fbd1cd3","ios":"levelo://app?vid=55cd03b1-ca40-4445-8748-fc637fbd1cd3"},"vehicle_type_id":"4","last_reported":1750774287,"current_range_meters":4000,"station_id":"ce4bgj92rcd13ifvqbd0","pricing_plan_id":"cebpf4jnsgd1na2vs0mg"},{"bike_id":"e1e01088-b4f5-44f4-bb31-ce991da80881","system_id":"levelo_inurba_marseille","lat":43.28105,"lon":5.37833,"is_reserved":false,"is_disabled":false,"rental_uris":{"android":"levelo://app?vid=e1e01088-b4f5-44f4-bb31-ce991da80881","ios":"levelo://app?vid=e1e01088-b4f5-44f4-bb31-ce991da80881"},"vehicle_type_id":"4","last_reported":1750774287,"current_range_meters":4000,"station_id":"ce4bha12rcd13ifvqee0","pricing_plan_id":"cebpf4jnsgd1na2vs0mg"},{"bike_id":"5d4fd5b9-2814-4df0-ad68-0a0d71fc0a93","system_id":"levelo_inurba_marseille","lat":43.27373,"lon":5.36259,"is_reserved":false,"is_disabled":false,"rental_uris":{"android":"levelo://app?vid=5d4fd5b9-2814-4df0-ad68-0a0d71fc0a93","ios":"levelo://app?vid=5d4fd5b9-2814-4df0-ad68-0a0d71fc0a93"},"vehicle_type_id":"4","last_reported":1750774287,"current_range_meters":4000,"station_id":"ce4bhbh2rcd13ifvqeo0","pricing_plan_id":"cebpf4jnsgd1na2vs0mg"},{"bike_id":"8eebd78b-7b69-47a4-a1af-2596e4a5df68","system_id":"levelo_inurba_marseille","lat":43.30101,"lon":5.37525,"is_reserved":false,"is_disabled":false,"rental_uris":{"android":"levelo://app?vid=8eebd78b-7b69-47a4-a1af-2596e4a5df68","ios":"levelo://app?vid=8eebd78b-7b69-47a4-a1af-2596e4a5df68"},"vehicle_type_id":"4","last_reported":1750774287,"current_range_meters":4800,"station_id":"","pricing_plan_id":"cebpf4jnsgd1na2vs0mg"},{"bike_id":"17d0afaa-6951-4dde-a43d-60017e75021c","system_id":"levelo_inurba_marseille","lat":43.291681,"lon":5.421175,"is_reserved":false,"is_disabled":false,"rental_uris":{"android":"levelo://app?vid=17d0afaa-6951-4dde-a43d-60017e75021c","ios":"levelo://app?vid=17d0afaa-6951-4dde-a43d-60017e75021c"},"vehicle_type_id":"4","last_reported":1750774287,"current_range_meters":4800,"station_id":"","pricing_plan_id":"cebpf4jnsgd1na2vs0mg"},{"bike_id":"a0058783-9f9b-4e97-bcb9-db3a226856ac","system_id":"levelo_inurba_marseille","lat":43.29958,"lon":5.38507,"is_reserved":false,"is_disabled":false,"rental_uris":{"android":"levelo://app?vid=a0058783-9f9b-4e97-bcb9-db3a226856ac","ios":"levelo://app?vid=a0058783-9f9b-4e97-bcb9-db3a226856ac"},"vehicle_type_id":"4","last_reported":1750774287,"current_range_meters":4800,"station_id":"ce4bgj92rcd13ifvqbd0","pricing_plan_id":"cebpf4jnsgd1na2vs0mg"},{"bike_id":"3bd497f9-5587-4926-bb9f-c768f6b10953","system_id":"levelo_inurba_marseille","lat":43.29,"lon":5.35619,"is_reserved":false,"is_disabled":false,"rental_uris":{"android":"levelo://app?vid=3bd497f9-5587-4926-bb9f-c768f6b10953","ios":"levelo://app?vid=3bd497f9-5587-4926-bb9f-c768f6b10953"},"vehicle_type_id":"4","last_reported":1750774287,"current_range_meters":4800,"station_id":"ce4bhb92rcd13ifvqen0","pricing_plan_id":"cebpf4jnsgd1na2vs0mg"},{"bike_id":"b3953c60-ad51-4cd3-996c-1dd24bd662fb","system_id":"levelo_inurba_marseille","lat":43.27373,"lon":5.36254,"is_reserved":false,"is_disabled":false,"rental_uris":{"android":"levelo://app?vid=b3953c60-ad51-4cd3-996c-1dd24bd662fb","ios":"levelo://app?vid=b3953c60-ad51-4cd3-996c-1dd24bd662fb"},"vehicle_type_id":"4","last_reported":1750774287,"current_range_meters":4800,"station_id":"ce4bhbh2rcd13ifvqeo0","pricing_plan_id":"cebpf4jnsgd1na2vs0mg"},{"bike_id":"63e4f06c-5dc9-4748-a65d-44622a9e45df","system_id":"levelo_inurba_marseille","lat":43.240467,"lon":5.377508,"is_reserved":false,"is_disabled":false,"rental_uris":{"android":"levelo://app?vid=63e4f06c-5dc9-4748-a65d-44622a9e45df","ios":"levelo://app?vid=63e4f06c-5dc9-4748-a65d-44622a9e45df"},"vehicle_type_id":"4","last_reported":1750774287,"current_range_meters":4800,"station_id":"ce4bhnp2rcd13ifvqgvg","pricing_plan_id":"cebpf4jnsgd1na2vs0mg"},{"bike_id":"09f210b5-cd23-4e94-9515-9b82509e40a2","system_id":"levelo_inurba_marseille","lat":43.3042,"lon":5.41284,"is_reserved":false,"is_disabled":false,"rental_uris":{"android":"levelo://app?vid=09f210b5-cd23-4e94-9515-9b82509e40a2","ios":"levelo://app?vid=09f210b5-cd23-4e94-9515-9b82509e40a2"},"vehicle_type_id":"4","last_reported":1750774287,"current_range_meters":4800,"station_id":"ce4bhop2rcd13ifvqh8g","pricing_plan_id":"cebpf4jnsgd1na2vs0mg"},{"bike_id":"039cd907-b326-4ccb-a2fa-7dff88431c61","system_id":"levelo_inurba_marseille","lat":43.21748,"lon":5.34597,"is_reserved":false,"is_disabled":false,"rental_uris":{"android":"levelo://app?vid=039cd907-b326-4ccb-a2fa-7dff88431c61","ios":"levelo://app?vid=039cd907-b326-4ccb-a2fa-7dff88431c61"},"vehicle_type_id":"4","last_reported":1750774287,"current_range_meters":5600,"station_id":"","pricing_plan_id":"cebpf4jnsgd1na2vs0mg"},{"bike_id":"0d1488b5-0180-475b-af39-a4e3705a3387","system_id":"levelo_inurba_marseille","lat":43.2841,"lon":5.34994,"is_reserved":false,"is_disabled":false,"rental_uris":{"android":"levelo://app?vid=0d1488b5-0180-475b-af39-a4e3705a3387","ios":"levelo://app?vid=0d1488b5-0180-475b-af39-a4e3705a3387"},"vehicle_type_id":"4","last_reported":1750774287,"current_range_meters":5600,"station_id":"ce4bhbh2rcd13ifvqepg","pricing_plan_id":"cebpf4jnsgd1na2vs0mg"},{"bike_id":"4a72354b-1f37-47be-9816-cbfa2930fd7b","system_id":"levelo_inurba_marseille","lat":43.3031,"lon":5.36881,"is_reserved":false,"is_disabled":false,"rental_uris":{"android":"levelo://app?vid=4a72354b-1f37-47be-9816-cbfa2930fd7b","ios":"levelo://app?vid=4a72354b-1f37-47be-9816-cbfa2930fd7b"},"vehicle_type_id":"4","last_reported":1750774287,"current_range_meters":6000,"station_id":"ce4bgqh2rcd13ifvqc5g","pricing_plan_id":"cebpf4jnsgd1na2vs0mg"},{"bike_id":"d903efb1-bfa7-4c80-8768-c25bac834edb","system_id":"levelo_inurba_marseille","lat":43.30251,"lon":5.40056,"is_reserved":false,"is_disabled":false,"rental_uris":{"android":"levelo://app?vid=d903efb1-bfa7-4c80-8768-c25bac834edb","ios":"levelo://app?vid=d903efb1-bfa7-4c80-8768-c25bac834edb"},"vehicle_type_id":"4","last_reported":1750774287,"current_range_meters":6000,"station_id":"ce4bgvh2rcd13ifvqcs0","pricing_plan_id":"cebpf4jnsgd1na2vs0mg"},{"bike_id":"297542c2-3fb4-423b-8aa4-45c4b5d3d1e2","system_id":"levelo_inurba_marseille","lat":43.26232,"lon":5.40452,"is_reserved":false,"is_disabled":false,"rental_uris":{"android":"levelo://app?vid=297542c2-3fb4-423b-8aa4-45c4b5d3d1e2","ios":"levelo://app?vid=297542c2-3fb4-423b-8aa4-45c4b5d3d1e2"},"vehicle_type_id":"4","last_reported":1750774287,"current_range_meters":6000,"station_id":"ce4bhmh2rcd13ifvqgmg","pricing_plan_id":"cebpf4jnsgd1na2vs0mg"},{"bike_id":"6ed60de0-d4d8-4bcf-87eb-77bc6bd99ae7","system_id":"levelo_inurba_marseille","lat":43.30857,"lon":5.38202,"is_reserved":false,"is_disabled":false,"rental_uris":{"android":"levelo://app?vid=6ed60de0-d4d8-4bcf-87eb-77bc6bd99ae7","ios":"levelo://app?vid=6ed60de0-d4d8-4bcf-87eb-77bc6bd99ae7"},"vehicle_type_id":"4","last_reported":1750774287,"current_range_meters":6400,"station_id":"","pricing_plan_id":"cebpf4jnsgd1na2vs0mg"},{"bike_id":"70764641-799a-4261-99bd-903918c1b74a","system_id":"levelo_inurba_marseille","lat":43.32891,"lon":5.38414,"is_reserved":false,"is_disabled":false,"rental_uris":{"android":"levelo://app?vid=70764641-799a-4261-99bd-903918c1b74a","ios":"levelo://app?vid=70764641-799a-4261-99bd-903918c1b74a"},"vehicle_type_id":"4","last_reported":1750774287,"current_range_meters":6400,"station_id":"","pricing_plan_id":"cebpf4jnsgd1na2vs0mg"},{"bike_id":"20942cfe-936a-46ca-b62e-9ad2167bf510","system_id":"levelo_inurba_marseille","lat":43.321,"lon":5.36774,"is_reserved":false,"is_disabled":false,"rental_uris":{"android":"levelo://app?vid=20942cfe-936a-46ca-b62e-9ad2167bf510","ios":"levelo://app?vid=20942cfe-936a-46ca-b62e-9ad2167bf510"},"vehicle_type_id":"4","last_reported":1750774287,"current_range_meters":6400,"station_id":"ce4bhrh2rcd13ifvqhug","pricing_plan_id":"cebpf4jnsgd1na2vs0mg"},{"bike_id":"731cfc1c-ce02-45e6-96c6-649bf7c83d3c","system_id":"levelo_inurba_marseille","lat":43.301365,"lon":5.398658,"is_reserved":false,"is_disabled":false,"rental_uris":{"android":"levelo://app?vid=731cfc1c-ce02-45e6-96c6-649bf7c83d3c","ios":"levelo://app?vid=731cfc1c-ce02-45e6-96c6-649bf7c83d3c"},"vehicle_type_id":"4","last_reported":1750774287,"current_range_meters":6800,"station_id":"ce4bh0h2rcd13ifvqd40","pricing_plan_id":"cebpf4jnsgd1na2vs0mg"},{"bike_id":"20342d48-2000-4f3f-bce8-b4e4b4513355","system_id":"levelo_inurba_marseille","lat":43.28853,"lon":5.35844,"is_reserved":false,"is_disabled":false,"rental_uris":{"android":"levelo://app?vid=20342d48-2000-4f3f-bce8-b4e4b4513355","ios":"levelo://app?vid=20342d48-2000-4f3f-bce8-b4e4b4513355"},"vehicle_type_id":"4","last_reported":1750774287,"current_range_meters":6800,"station_id":"ce4bhb12rcd13ifvqem0","pricing_plan_id":"cebpf4jnsgd1na2vs0mg"},{"bike_id":"fb3f42ee-bcd2-4c0d-abd9-87af3e8a1f7e","system_id":"levelo_inurba_marseille","lat":43.28418,"lon":5.3499,"is_reserved":false,"is_disabled":false,"rental_uris":{"android":"levelo://app?vid=fb3f42ee-bcd2-4c0d-abd9-87af3e8a1f7e","ios":"levelo://app?vid=fb3f42ee-bcd2-4c0d-abd9-87af3e8a1f7e"},"vehicle_type_id":"4","last_reported":1750774287,"current_range_meters":6800,"station_id":"ce4bhbh2rcd13ifvqepg","pricing_plan_id":"cebpf4jnsgd1na2vs0mg"},{"bike_id":"d1dbc170-fe56-4491-9a11-c3d149082527","system_id":"levelo_inurba_marseille","lat":43.32473,"lon":5.36571,"is_reserved":false,"is_disabled":false,"rental_uris":{"android":"levelo://app?vid=d1dbc170-fe56-4491-9a11-c3d149082527","ios":"levelo://app?vid=d1dbc170-fe56-4491-9a11-c3d149082527"},"vehicle_type_id":"4","last_reported":1750774287,"current_range_meters":6800,"station_id":"ce4bhs12rcd13ifvqhvg","pricing_plan_id":"cebpf4jnsgd1na2vs0mg"},{"bike_id":"fb7bbb04-add0-4320-9050-8a64a9e68046","system_id":"levelo_inurba_marseille","lat":43.29717,"lon":5.36594,"is_reserved":false,"is_disabled":false,"rental_uris":{"android":"levelo://app?vid=fb7bbb04-add0-4320-9050-8a64a9e68046","ios":"levelo://app?vid=fb7bbb04-add0-4320-9050-8a64a9e68046"},"vehicle_type_id":"4","last_reported":1750774287,"current_range_meters":7200,"station_id":"ce4bgn12rcd13ifvqbt0","pricing_plan_id":"cebpf4jnsgd1na2vs0mg"},{"bike_id":"3e0c4bba-a7c6-4808-baa7-3f35b4ab5805","system_id":"levelo_inurba_marseille","lat":43.26783,"lon":5.39418,"is_reserved":false,"is_disabled":false,"rental_uris":{"android":"levelo://app?vid=3e0c4bba-a7c6-4808-baa7-3f35b4ab5805","ios":"levelo://app?vid=3e0c4bba-a7c6-4808-baa7-3f35b4ab5805"},"vehicle_type_id":"4","last_reported":1750774287,"current_range_meters":7200,"station_id":"ce4bhh12rcd13ifvqfg0","pricing_plan_id":"cebpf4jnsgd1na2vs0mg"},{"bike_id":"c1fc8077-07cb-4f17-9ca4-3e5f2ae85de8","system_id":"levelo_inurba_marseille","lat":43.26062,"lon":5.39397,"is_reserved":false,"is_disabled":false,"rental_uris":{"android":"levelo://app?vid=c1fc8077-07cb-4f17-9ca4-3e5f2ae85de8","ios":"levelo://app?vid=c1fc8077-07cb-4f17-9ca4-3e5f2ae85de8"},"vehicle_type_id":"4","last_reported":1750774287,"current_range_meters":7200,"station_id":"ce4bhh92rcd13ifvqfj0","pricing_plan_id":"cebpf4jnsgd1na2vs0mg"},{"bike_id":"8527eef5-3a92-4bba-b4de-34be96ff921e","system_id":"levelo_inurba_marseille","lat":43.32471,"lon":5.36583,"is_reserved":false,"is_disabled":false,"rental_uris":{"android":"levelo://app?vid=8527eef5-3a92-4bba-b4de-34be96ff921e","ios":"levelo://app?vid=8527eef5-3a92-4bba-b4de-34be96ff921e"},"vehicle_type_id":"4","last_reported":1750774287,"current_range_meters":7200,"station_id":"ce4bhs12rcd13ifvqhvg","pricing_plan_id":"cebpf4jnsgd1na2vs0mg"},{"bike_id":"763475c0-a5de-4444-b5fb-a67ccd172449","system_id":"levelo_inurba_marseille","lat":43.25871,"lon":5.38085,"is_reserved":false,"is_disabled":false,"rental_uris":{"android":"levelo://app?vid=763475c0-a5de-4444-b5fb-a67ccd172449","ios":"levelo://app?vid=763475c0-a5de-4444-b5fb-a67ccd172449"},"vehicle_type_id":"4","last_reported":1750774287,"current_range_meters":8000,"station_id":"","pricing_plan_id":"cebpf4jnsgd1na2vs0mg"},{"bike_id":"d2956739-dfc1-48cd-b85b-e83cfeedddc5","system_id":"levelo_inurba_marseille","lat":43.31243,"lon":5.36905,"is_reserved":false,"is_disabled":false,"rental_uris":{"android":"levelo://app?vid=d2956739-dfc1-48cd-b85b-e83cfeedddc5","ios":"levelo://app?vid=d2956739-dfc1-48cd-b85b-e83cfeedddc5"},"vehicle_type_id":"4","last_reported":1750774287,"current_range_meters":8000,"station_id":"ce4bgl92rcd13ifvqbq0","pricing_plan_id":"cebpf4jnsgd1na2vs0mg"},{"bike_id":"7fcec441-3397-4b1e-91c5-b67d2543aaa2","system_id":"levelo_inurba_marseille","lat":43.28421,"lon":5.34999,"is_reserved":false,"is_disabled":false,"rental_uris":{"android":"levelo://app?vid=7fcec441-3397-4b1e-91c5-b67d2543aaa2","ios":"levelo://app?vid=7fcec441-3397-4b1e-91c5-b67d2543aaa2"},"vehicle_type_id":"4","last_reported":1750774287,"current_range_meters":8000,"station_id":"ce4bhbh2rcd13ifvqepg","pricing_plan_id":"cebpf4jnsgd1na2vs0mg"},{"bike_id":"8b964ade-b36e-4afc-b646-3414d72ed7fb","system_id":"levelo_inurba_marseille","lat":43.31717,"lon":5.42399,"is_reserved":false,"is_disabled":false,"rental_uris":{"android":"levelo://app?vid=8b964ade-b36e-4afc-b646-3414d72ed7fb","ios":"levelo://app?vid=8b964ade-b36e-4afc-b646-3414d72ed7fb"},"vehicle_type_id":"4","last_reported":1750774287,"current_range_meters":8000,"station_id":"ce4bhp92rcd13ifvqhbg","pricing_plan_id":"cebpf4jnsgd1na2vs0mg"},{"bike_id":"32ddb5ab-1e75-4f8f-82ac-ce90ca1d4bb8","system_id":"levelo_inurba_marseille","lat":43.32318,"lon":5.40614,"is_reserved":false,"is_disabled":false,"rental_uris":{"android":"levelo://app?vid=32ddb5ab-1e75-4f8f-82ac-ce90ca1d4bb8","ios":"levelo://app?vid=32ddb5ab-1e75-4f8f-82ac-ce90ca1d4bb8"},"vehicle_type_id":"4","last_reported":1750774287,"current_range_meters":8000,"station_id":"ce4bhq92rcd13ifvqhjg","pricing_plan_id":"cebpf4jnsgd1na2vs0mg"},{"bike_id":"465d2323-f97d-48b0-a820-bc5fa54ae0fa","system_id":"levelo_inurba_marseille","lat":43.28387,"lon":5.46008,"is_reserved":false,"is_disabled":false,"rental_uris":{"android":"levelo://app?vid=465d2323-f97d-48b0-a820-bc5fa54ae0fa","ios":"levelo://app?vid=465d2323-f97d-48b0-a820-bc5fa54ae0fa"},"vehicle_type_id":"4","last_reported":1750774287,"current_range_meters":8400,"station_id":"","pricing_plan_id":"cebpf4jnsgd1na2vs0mg"},{"bike_id":"588a5867-9970-4e05-8294-dd4e9469e6e5","system_id":"levelo_inurba_marseille","lat":43.26565,"lon":5.37284,"is_reserved":false,"is_disabled":false,"rental_uris":{"android":"levelo://app?vid=588a5867-9970-4e05-8294-dd4e9469e6e5","ios":"levelo://app?vid=588a5867-9970-4e05-8294-dd4e9469e6e5"},"vehicle_type_id":"4","last_reported":1750774287,"current_range_meters":8400,"station_id":"ce4bhg12rcd13ifvqf70","pricing_plan_id":"cebpf4jnsgd1na2vs0mg"},{"bike_id":"ea59d985-db53-4f29-8c73-f523181e9295","system_id":"levelo_inurba_marseille","lat":43.26194,"lon":5.37444,"is_reserved":false,"is_disabled":false,"rental_uris":{"android":"levelo://app?vid=ea59d985-db53-4f29-8c73-f523181e9295","ios":"levelo://app?vid=ea59d985-db53-4f29-8c73-f523181e9295"},"vehicle_type_id":"4","last_reported":1750774287,"current_range_meters":8400,"station_id":"ce4bhgp2rcd13ifvqfc0","pricing_plan_id":"cebpf4jnsgd1na2vs0mg"},{"bike_id":"5d0a1dbe-7092-4878-b5ee-2c624e80051c","system_id":"levelo_inurba_marseille","lat":43.25724,"lon":5.41108,"is_reserved":false,"is_disabled":false,"rental_uris":{"android":"levelo://app?vid=5d0a1dbe-7092-4878-b5ee-2c624e80051c","ios":"levelo://app?vid=5d0a1dbe-7092-4878-b5ee-2c624e80051c"},"vehicle_type_id":"4","last_reported":1750774287,"current_range_meters":8400,"station_id":"ce4bhkp2rcd13ifvqgd0","pricing_plan_id":"cebpf4jnsgd1na2vs0mg"},{"bike_id":"af1ee2aa-9649-4a84-92f8-a833c0e1efe3","system_id":"levelo_inurba_marseille","lat":43.323526,"lon":5.367486,"is_reserved":false,"is_disabled":false,"rental_uris":{"android":"levelo://app?vid=af1ee2aa-9649-4a84-92f8-a833c0e1efe3","ios":"levelo://app?vid=af1ee2aa-9649-4a84-92f8-a833c0e1efe3"},"vehicle_type_id":"4","last_reported":1750774287,"current_range_meters":8400,"station_id":"ce4bhsh2rcd13ifvqi2g","pricing_plan_id":"cebpf4jnsgd1na2vs0mg"},{"bike_id":"113b198a-6e1b-46eb-8e6f-7d0d14639408","system_id":"levelo_inurba_marseille","lat":43.2877,"lon":5.36365,"is_reserved":false,"is_disabled":false,"rental_uris":{"android":"levelo://app?vid=113b198a-6e1b-46eb-8e6f-7d0d14639408","ios":"levelo://app?vid=113b198a-6e1b-46eb-8e6f-7d0d14639408"},"vehicle_type_id":"4","last_reported":1750774287,"current_range_meters":8800,"station_id":"","pricing_plan_id":"cebpf4jnsgd1na2vs0mg"},{"bike_id":"0d6d3920-e87e-424a-993b-cf3811806526","system_id":"levelo_inurba_marseille","lat":43.2737,"lon":5.36254,"is_reserved":false,"is_disabled":false,"rental_uris":{"android":"levelo://app?vid=0d6d3920-e87e-424a-993b-cf3811806526","ios":"levelo://app?vid=0d6d3920-e87e-424a-993b-cf3811806526"},"vehicle_type_id":"4","last_reported":1750774287,"current_range_meters":8800,"station_id":"ce4bhbh2rcd13ifvqeo0","pricing_plan_id":"cebpf4jnsgd1na2vs0mg"},{"bike_id":"9cc121d2-6f7c-4a1d-85b1-bfc468eb6b81","system_id":"levelo_inurba_marseille","lat":43.26212,"lon":5.37439,"is_reserved":false,"is_disabled":false,"rental_uris":{"android":"levelo://app?vid=9cc121d2-6f7c-4a1d-85b1-bfc468eb6b81","ios":"levelo://app?vid=9cc121d2-6f7c-4a1d-85b1-bfc468eb6b81"},"vehicle_type_id":"4","last_reported":1750774287,"current_range_meters":8800,"station_id":"ce4bhgp2rcd13ifvqfc0","pricing_plan_id":"cebpf4jnsgd1na2vs0mg"},{"bike_id":"65db9cbd-7fb2-4cbb-9337-cd4905bc593a","system_id":"levelo_inurba_marseille","lat":43.23968,"lon":5.3664,"is_reserved":false,"is_disabled":false,"rental_uris":{"android":"levelo://app?vid=65db9cbd-7fb2-4cbb-9337-cd4905bc593a","ios":"levelo://app?vid=65db9cbd-7fb2-4cbb-9337-cd4905bc593a"},"vehicle_type_id":"4","last_reported":1750774287,"current_range_meters":8800,"station_id":"ce4bhi12rcd13ifvqfp0","pricing_plan_id":"cebpf4jnsgd1na2vs0mg"},{"bike_id":"087f2159-7753-4646-b13a-36c8508d6b4f","system_id":"levelo_inurba_marseille","lat":43.324908,"lon":5.365559,"is_reserved":false,"is_disabled":false,"rental_uris":{"android":"levelo://app?vid=087f2159-7753-4646-b13a-36c8508d6b4f","ios":"levelo://app?vid=087f2159-7753-4646-b13a-36c8508d6b4f"},"vehicle_type_id":"4","last_reported":1750774287,"current_range_meters":8800,"station_id":"ce4bhs12rcd13ifvqhvg","pricing_plan_id":"cebpf4jnsgd1na2vs0mg"},{"bike_id":"fb98db90-5c2c-4a99-b10a-f61c2f3a931d","system_id":"levelo_inurba_marseille","lat":43.28584,"lon":5.37059,"is_reserved":false,"is_disabled":false,"rental_uris":{"android":"levelo://app?vid=fb98db90-5c2c-4a99-b10a-f61c2f3a931d","ios":"levelo://app?vid=fb98db90-5c2c-4a99-b10a-f61c2f3a931d"},"vehicle_type_id":"4","last_reported":1750774287,"current_range_meters":8800,"station_id":"ce4bht12rcd13ifvqi60","pricing_plan_id":"cebpf4jnsgd1na2vs0mg"},{"bike_id":"50e1d66c-6a2d-4063-b7b2-2a86f24b826b","system_id":"levelo_inurba_marseille","lat":43.268,"lon":5.40258,"is_reserved":false,"is_disabled":false,"rental_uris":{"android":"levelo://app?vid=50e1d66c-6a2d-4063-b7b2-2a86f24b826b","ios":"levelo://app?vid=50e1d66c-6a2d-4063-b7b2-2a86f24b826b"},"vehicle_type_id":"4","last_reported":1750774287,"current_range_meters":8800,"station_id":"ce501612rcd8frsf0b60","pricing_plan_id":"cebpf4jnsgd1na2vs0mg"},{"bike_id":"a092c41c-0118-4d86-b43e-981a2615e33e","system_id":"levelo_inurba_marseille","lat":43.34684,"lon":5.34577,"is_reserved":false,"is_disabled":false,"rental_uris":{"android":"levelo://app?vid=a092c41c-0118-4d86-b43e-981a2615e33e","ios":"levelo://app?vid=a092c41c-0118-4d86-b43e-981a2615e33e"},"vehicle_type_id":"4","last_reported":1750774287,"current_range_meters":9200,"station_id":"","pricing_plan_id":"cebpf4jnsgd1na2vs0mg"},{"bike_id":"e127ef7e-24d3-4248-81fa-66c5e7c3e582","system_id":"levelo_inurba_marseille","lat":43.296134,"lon":5.379397,"is_reserved":false,"is_disabled":false,"rental_uris":{"android":"levelo://app?vid=e127ef7e-24d3-4248-81fa-66c5e7c3e582","ios":"levelo://app?vid=e127ef7e-24d3-4248-81fa-66c5e7c3e582"},"vehicle_type_id":"4","last_reported":1750774287,"current_range_meters":9200,"station_id":"","pricing_plan_id":"cebpf4jnsgd1na2vs0mg"},{"bike_id":"0e701dcf-2620-42ce-bfb6-3ffe713c339b","system_id":"levelo_inurba_marseille","lat":43.22715,"lon":5.34898,"is_reserved":false,"is_disabled":false,"rental_uris":{"android":"levelo://app?vid=0e701dcf-2620-42ce-bfb6-3ffe713c339b","ios":"levelo://app?vid=0e701dcf-2620-42ce-bfb6-3ffe713c339b"},"vehicle_type_id":"4","last_reported":1750774287,"current_range_meters":9200,"station_id":"","pricing_plan_id":"cebpf4jnsgd1na2vs0mg"},{"bike_id":"0e8d5a55-0a0e-400a-ac5f-e6c775b0b2a2","system_id":"levelo_inurba_marseille","lat":43.27634,"lon":5.36124,"is_reserved":false,"is_disabled":false,"rental_uris":{"android":"levelo://app?vid=0e8d5a55-0a0e-400a-ac5f-e6c775b0b2a2","ios":"levelo://app?vid=0e8d5a55-0a0e-400a-ac5f-e6c775b0b2a2"},"vehicle_type_id":"4","last_reported":1750774287,"current_range_meters":9200,"station_id":"ce4bgj92rcd13ifvqbe0","pricing_plan_id":"cebpf4jnsgd1na2vs0mg"},{"bike_id":"23eda1de-7440-4504-9e5b-607db57c6e71","system_id":"levelo_inurba_marseille","lat":43.3136,"lon":5.36717,"is_reserved":false,"is_disabled":false,"rental_uris":{"android":"levelo://app?vid=23eda1de-7440-4504-9e5b-607db57c6e71","ios":"levelo://app?vid=23eda1de-7440-4504-9e5b-607db57c6e71"},"vehicle_type_id":"4","last_reported":1750774287,"current_range_meters":9200,"station_id":"ce4bgr92rcd13ifvqc6g","pricing_plan_id":"cebpf4jnsgd1na2vs0mg"},{"bike_id":"0f8a17d8-ca6e-4acb-9bb7-92544d829fbf","system_id":"levelo_inurba_marseille","lat":43.31374,"lon":5.36693,"is_reserved":false,"is_disabled":false,"rental_uris":{"android":"levelo://app?vid=0f8a17d8-ca6e-4acb-9bb7-92544d829fbf","ios":"levelo://app?vid=0f8a17d8-ca6e-4acb-9bb7-92544d829fbf"},"vehicle_type_id":"4","last_reported":1750774287,"current_range_meters":9200,"station_id":"ce4bgr92rcd13ifvqc6g","pricing_plan_id":"cebpf4jnsgd1na2vs0mg"},{"bike_id":"f983a0fb-636f-405c-ab98-86949a5b62d5","system_id":"levelo_inurba_marseille","lat":43.303294,"lon":5.404377,"is_reserved":false,"is_disabled":false,"rental_uris":{"android":"levelo://app?vid=f983a0fb-636f-405c-ab98-86949a5b62d5","ios":"levelo://app?vid=f983a0fb-636f-405c-ab98-86949a5b62d5"},"vehicle_type_id":"4","last_reported":1750774287,"current_range_meters":9200,"station_id":"ce4bh012rcd13ifvqd10","pricing_plan_id":"cebpf4jnsgd1na2vs0mg"},{"bike_id":"96f011d6-9709-41a4-8e18-d697e19e74e6","system_id":"levelo_inurba_marseille","lat":43.24185,"lon":5.3972,"is_reserved":false,"is_disabled":false,"rental_uris":{"android":"levelo://app?vid=96f011d6-9709-41a4-8e18-d697e19e74e6","ios":"levelo://app?vid=96f011d6-9709-41a4-8e18-d697e19e74e6"},"vehicle_type_id":"4","last_reported":1750774287,"current_range_meters":9200,"station_id":"ce4bhn12rcd13ifvqgpg","pricing_plan_id":"cebpf4jnsgd1na2vs0mg"},{"bike_id":"e1b4e5f4-9a3a-4a63-a4a7-9b06872742ef","system_id":"levelo_inurba_marseille","lat":43.28159,"lon":5.42644,"is_reserved":false,"is_disabled":false,"rental_uris":{"android":"levelo://app?vid=e1b4e5f4-9a3a-4a63-a4a7-9b06872742ef","ios":"levelo://app?vid=e1b4e5f4-9a3a-4a63-a4a7-9b06872742ef"},"vehicle_type_id":"4","last_reported":1750774287,"current_range_meters":9200,"station_id":"ce4bhnh2rcd13ifvqgug","pricing_plan_id":"cebpf4jnsgd1na2vs0mg"},{"bike_id":"2a961b82-84c1-4285-85b0-4bdba9e1eaa9","system_id":"levelo_inurba_marseille","lat":43.29191,"lon":5.39313,"is_reserved":false,"is_disabled":false,"rental_uris":{"android":"levelo://app?vid=2a961b82-84c1-4285-85b0-4bdba9e1eaa9","ios":"levelo://app?vid=2a961b82-84c1-4285-85b0-4bdba9e1eaa9"},"vehicle_type_id":"4","last_reported":1750774287,"current_range_meters":9600,"station_id":"ce4bh192rcd13ifvqdd0","pricing_plan_id":"cebpf4jnsgd1na2vs0mg"},{"bike_id":"f763b2fa-793b-4526-b043-1022bfb8b79f","system_id":"levelo_inurba_marseille","lat":43.28691,"lon":5.37388,"is_reserved":false,"is_disabled":false,"rental_uris":{"android":"levelo://app?vid=f763b2fa-793b-4526-b043-1022bfb8b79f","ios":"levelo://app?vid=f763b2fa-793b-4526-b043-1022bfb8b79f"},"vehicle_type_id":"4","last_reported":1750774287,"current_range_meters":9600,"station_id":"ce4bh3p2rcd13ifvqdq0","pricing_plan_id":"cebpf4jnsgd1na2vs0mg"},{"bike_id":"5ce7f209-82f1-42ee-b8d2-cd610c98cdb5","system_id":"levelo_inurba_marseille","lat":43.27913,"lon":5.39582,"is_reserved":false,"is_disabled":false,"rental_uris":{"android":"levelo://app?vid=5ce7f209-82f1-42ee-b8d2-cd610c98cdb5","ios":"levelo://app?vid=5ce7f209-82f1-42ee-b8d2-cd610c98cdb5"},"vehicle_type_id":"4","last_reported":1750774287,"current_range_meters":9600,"station_id":"ce4bhf92rcd13ifvqf40","pricing_plan_id":"cebpf4jnsgd1na2vs0mg"},{"bike_id":"cf4df708-b53f-4b70-b463-a9d5f81fd205","system_id":"levelo_inurba_marseille","lat":43.3249,"lon":5.36594,"is_reserved":false,"is_disabled":false,"rental_uris":{"android":"levelo://app?vid=cf4df708-b53f-4b70-b463-a9d5f81fd205","ios":"levelo://app?vid=cf4df708-b53f-4b70-b463-a9d5f81fd205"},"vehicle_type_id":"4","last_reported":1750774287,"current_range_meters":9600,"station_id":"ce4bhs12rcd13ifvqhvg","pricing_plan_id":"cebpf4jnsgd1na2vs0mg"},{"bike_id":"a49aa821-9808-45d8-a334-66b4d91bc9c1","system_id":"levelo_inurba_marseille","lat":43.23191,"lon":5.35554,"is_reserved":false,"is_disabled":false,"rental_uris":{"android":"levelo://app?vid=a49aa821-9808-45d8-a334-66b4d91bc9c1","ios":"levelo://app?vid=a49aa821-9808-45d8-a334-66b4d91bc9c1"},"vehicle_type_id":"4","last_reported":1750774287,"current_range_meters":9600,"station_id":"ce4bhu92rcd13ifvqi70","pricing_plan_id":"cebpf4jnsgd1na2vs0mg"},{"bike_id":"cada33e7-7feb-4285-bb16-b2e63d63815b","system_id":"levelo_inurba_marseille","lat":43.23691,"lon":5.39143,"is_reserved":false,"is_disabled":false,"rental_uris":{"android":"levelo://app?vid=cada33e7-7feb-4285-bb16-b2e63d63815b","ios":"levelo://app?vid=cada33e7-7feb-4285-bb16-b2e63d63815b"},"vehicle_type_id":"4","last_reported":1750774287,"current_range_meters":10000,"station_id":"","pricing_plan_id":"cebpf4jnsgd1na2vs0mg"},{"bike_id":"faa4da36-c6bd-43aa-a0b2-8e22ed43a7cb","system_id":"levelo_inurba_marseille","lat":43.306,"lon":5.37225,"is_reserved":false,"is_disabled":false,"rental_uris":{"android":"levelo://app?vid=faa4da36-c6bd-43aa-a0b2-8e22ed43a7cb","ios":"levelo://app?vid=faa4da36-c6bd-43aa-a0b2-8e22ed43a7cb"},"vehicle_type_id":"4","last_reported":1750774287,"current_range_meters":10000,"station_id":"ce4bgqh2rcd13ifvqc4g","pricing_plan_id":"cebpf4jnsgd1na2vs0mg"},{"bike_id":"69b4d5d0-8b75-459b-9e80-c45f0045f808","system_id":"levelo_inurba_marseille","lat":43.28483,"lon":5.38585,"is_reserved":false,"is_disabled":false,"rental_uris":{"android":"levelo://app?vid=69b4d5d0-8b75-459b-9e80-c45f0045f808","ios":"levelo://app?vid=69b4d5d0-8b75-459b-9e80-c45f0045f808"},"vehicle_type_id":"4","last_reported":1750774287,"current_range_meters":10000,"station_id":"ce4bh8p2rcd13ifvqeb0","pricing_plan_id":"cebpf4jnsgd1na2vs0mg"},{"bike_id":"532bb59d-a14d-4777-8486-3efe415fb6f1","system_id":"levelo_inurba_marseille","lat":43.24389,"lon":5.37064,"is_reserved":false,"is_disabled":false,"rental_uris":{"android":"levelo://app?vid=532bb59d-a14d-4777-8486-3efe415fb6f1","ios":"levelo://app?vid=532bb59d-a14d-4777-8486-3efe415fb6f1"},"vehicle_type_id":"4","last_reported":1750774287,"current_range_meters":10000,"station_id":"ce4bhhh2rcd13ifvqfk0","pricing_plan_id":"cebpf4jnsgd1na2vs0mg"},{"bike_id":"1a5e6da0-f0b0-4546-a2bf-205777cb24be","system_id":"levelo_inurba_marseille","lat":43.27217,"lon":5.3917,"is_reserved":false,"is_disabled":false,"rental_uris":{"android":"levelo://app?vid=1a5e6da0-f0b0-4546-a2bf-205777cb24be","ios":"levelo://app?vid=1a5e6da0-f0b0-4546-a2bf-205777cb24be"},"vehicle_type_id":"4","last_reported":1750774287,"current_range_meters":10000,"station_id":"ce4bhhp2rcd13ifvqfm0","pricing_plan_id":"cebpf4jnsgd1na2vs0mg"},{"bike_id":"9cbfca37-79c0-44f9-95d6-990931823967","system_id":"levelo_inurba_marseille","lat":43.3189,"lon":5.40727,"is_reserved":false,"is_disabled":false,"rental_uris":{"android":"levelo://app?vid=9cbfca37-79c0-44f9-95d6-990931823967","ios":"levelo://app?vid=9cbfca37-79c0-44f9-95d6-990931823967"},"vehicle_type_id":"4","last_reported":1750774287,"current_range_meters":10000,"station_id":"ce4bhq12rcd13ifvqhig","pricing_plan_id":"cebpf4jnsgd1na2vs0mg"},{"bike_id":"82daa609-66e4-4b91-8a1c-a20f4b557675","system_id":"levelo_inurba_marseille","lat":43.30336,"lon":5.36691,"is_reserved":false,"is_disabled":false,"rental_uris":{"android":"levelo://app?vid=82daa609-66e4-4b91-8a1c-a20f4b557675","ios":"levelo://app?vid=82daa609-66e4-4b91-8a1c-a20f4b557675"},"vehicle_type_id":"4","last_reported":1750774287,"current_range_meters":10800,"station_id":"","pricing_plan_id":"cebpf4jnsgd1na2vs0mg"},{"bike_id":"07417bdd-df4e-418a-87fd-97658b744ed4","system_id":"levelo_inurba_marseille","lat":43.30888,"lon":5.39645,"is_reserved":false,"is_disabled":false,"rental_uris":{"android":"levelo://app?vid=07417bdd-df4e-418a-87fd-97658b744ed4","ios":"levelo://app?vid=07417bdd-df4e-418a-87fd-97658b744ed4"},"vehicle_type_id":"4","last_reported":1750774287,"current_range_meters":10800,"station_id":"ce4bh012rcd13ifvqcv0","pricing_plan_id":"cebpf4jnsgd1na2vs0mg"},{"bike_id":"a23f790a-1a5e-4e66-b1ab-8996a6723a62","system_id":"levelo_inurba_marseille","lat":43.2465,"lon":5.38888,"is_reserved":false,"is_disabled":false,"rental_uris":{"android":"levelo://app?vid=a23f790a-1a5e-4e66-b1ab-8996a6723a62","ios":"levelo://app?vid=a23f790a-1a5e-4e66-b1ab-8996a6723a62"},"vehicle_type_id":"4","last_reported":1750774287,"current_range_meters":10800,"station_id":"ce4bhg12rcd13ifvqf60","pricing_plan_id":"cebpf4jnsgd1na2vs0mg"},{"bike_id":"39a26595-b92c-423a-a1cc-3c701e66b5be","system_id":"levelo_inurba_marseille","lat":43.26926,"lon":5.38918,"is_reserved":false,"is_disabled":false,"rental_uris":{"android":"levelo://app?vid=39a26595-b92c-423a-a1cc-3c701e66b5be","ios":"levelo://app?vid=39a26595-b92c-423a-a1cc-3c701e66b5be"},"vehicle_type_id":"4","last_reported":1750774287,"current_range_meters":10800,"station_id":"ce4bhhh2rcd13ifvqfl0","pricing_plan_id":"cebpf4jnsgd1na2vs0mg"},{"bike_id":"20ee7690-aced-4e48-9e5e-0d7fdfa26dae","system_id":"levelo_inurba_marseille","lat":43.33718,"lon":5.39196,"is_reserved":false,"is_disabled":false,"rental_uris":{"android":"levelo://app?vid=20ee7690-aced-4e48-9e5e-0d7fdfa26dae","ios":"levelo://app?vid=20ee7690-aced-4e48-9e5e-0d7fdfa26dae"},"vehicle_type_id":"4","last_reported":1750774287,"current_range_meters":10800,"station_id":"ce4bhr92rcd13ifvqhsg","pricing_plan_id":"cebpf4jnsgd1na2vs0mg"},{"bike_id":"5a3c89c2-3450-4abf-8f80-3c018505aaa7","system_id":"levelo_inurba_marseille","lat":43.32097,"lon":5.36759,"is_reserved":false,"is_disabled":false,"rental_uris":{"android":"levelo://app?vid=5a3c89c2-3450-4abf-8f80-3c018505aaa7","ios":"levelo://app?vid=5a3c89c2-3450-4abf-8f80-3c018505aaa7"},"vehicle_type_id":"4","last_reported":1750774287,"current_range_meters":10800,"station_id":"ce4bhrh2rcd13ifvqhug","pricing_plan_id":"cebpf4jnsgd1na2vs0mg"},{"bike_id":"ba7009b7-dbb9-4c29-8645-d0a68dca7b4f","system_id":"levelo_inurba_marseille","lat":43.312975,"lon":5.445535,"is_reserved":false,"is_disabled":false,"rental_uris":{"android":"levelo://app?vid=ba7009b7-dbb9-4c29-8645-d0a68dca7b4f","ios":"levelo://app?vid=ba7009b7-dbb9-4c29-8645-d0a68dca7b4f"},"vehicle_type_id":"4","last_reported":1750774287,"current_range_meters":11200,"station_id":"","pricing_plan_id":"cebpf4jnsgd1na2vs0mg"},{"bike_id":"9b1bc4d3-5db3-411e-ac42-24dc355754ea","system_id":"levelo_inurba_marseille","lat":43.30612,"lon":5.37223,"is_reserved":false,"is_disabled":false,"rental_uris":{"android":"levelo://app?vid=9b1bc4d3-5db3-411e-ac42-24dc355754ea","ios":"levelo://app?vid=9b1bc4d3-5db3-411e-ac42-24dc355754ea"},"vehicle_type_id":"4","last_reported":1750774287,"current_range_meters":11200,"station_id":"ce4bgqh2rcd13ifvqc4g","pricing_plan_id":"cebpf4jnsgd1na2vs0mg"},{"bike_id":"450a3642-ad05-4765-9a3a-f8f356367bc2","system_id":"levelo_inurba_marseille","lat":43.30577,"lon":5.36534,"is_reserved":false,"is_disabled":false,"rental_uris":{"android":"levelo://app?vid=450a3642-ad05-4765-9a3a-f8f356367bc2","ios":"levelo://app?vid=450a3642-ad05-4765-9a3a-f8f356367bc2"},"vehicle_type_id":"4","last_reported":1750774287,"current_range_meters":11200,"station_id":"ce4bgs12rcd13ifvqcag","pricing_plan_id":"cebpf4jnsgd1na2vs0mg"},{"bike_id":"97a870d7-4236-48f1-bab8-7cd40b6faccc","system_id":"levelo_inurba_marseille","lat":43.29814,"lon":5.40393,"is_reserved":false,"is_disabled":false,"rental_uris":{"android":"levelo://app?vid=97a870d7-4236-48f1-bab8-7cd40b6faccc","ios":"levelo://app?vid=97a870d7-4236-48f1-bab8-7cd40b6faccc"},"vehicle_type_id":"4","last_reported":1750774287,"current_range_meters":11200,"station_id":"ce4bh112rcd13ifvqd90","pricing_plan_id":"cebpf4jnsgd1na2vs0mg"},{"bike_id":"3dfcb7e9-de0c-4b7a-9ff4-cdf1e6bd5b73","system_id":"levelo_inurba_marseille","lat":43.30219,"lon":5.39466,"is_reserved":false,"is_disabled":false,"rental_uris":{"android":"levelo://app?vid=3dfcb7e9-de0c-4b7a-9ff4-cdf1e6bd5b73","ios":"levelo://app?vid=3dfcb7e9-de0c-4b7a-9ff4-cdf1e6bd5b73"},"vehicle_type_id":"4","last_reported":1750774287,"current_range_meters":11600,"station_id":"ce4bh0p2rcd13ifvqd70","pricing_plan_id":"cebpf4jnsgd1na2vs0mg"},{"bike_id":"8703a0b9-0d09-48b3-938b-800a9ab674ba","system_id":"levelo_inurba_marseille","lat":43.23963,"lon":5.36624,"is_reserved":false,"is_disabled":false,"rental_uris":{"android":"levelo://app?vid=8703a0b9-0d09-48b3-938b-800a9ab674ba","ios":"levelo://app?vid=8703a0b9-0d09-48b3-938b-800a9ab674ba"},"vehicle_type_id":"4","last_reported":1750774287,"current_range_meters":11600,"station_id":"ce4bhi12rcd13ifvqfp0","pricing_plan_id":"cebpf4jnsgd1na2vs0mg"},{"bike_id":"4a598fe0-e40e-4f66-92a6-73a6fc446751","system_id":"levelo_inurba_marseille","lat":43.25727,"lon":5.41112,"is_reserved":false,"is_disabled":false,"rental_uris":{"android":"levelo://app?vid=4a598fe0-e40e-4f66-92a6-73a6fc446751","ios":"levelo://app?vid=4a598fe0-e40e-4f66-92a6-73a6fc446751"},"vehicle_type_id":"4","last_reported":1750774287,"current_range_meters":11600,"station_id":"ce4bhkp2rcd13ifvqgd0","pricing_plan_id":"cebpf4jnsgd1na2vs0mg"},{"bike_id":"c6c7b929-26ed-4696-9996-8fc006eb331a","system_id":"levelo_inurba_marseille","lat":43.24087,"lon":5.37757,"is_reserved":false,"is_disabled":false,"rental_uris":{"android":"levelo://app?vid=c6c7b929-26ed-4696-9996-8fc006eb331a","ios":"levelo://app?vid=c6c7b929-26ed-4696-9996-8fc006eb331a"},"vehicle_type_id":"4","last_reported":1750774287,"current_range_meters":11600,"station_id":"ce4bhnp2rcd13ifvqgvg","pricing_plan_id":"cebpf4jnsgd1na2vs0mg"},{"bike_id":"d3b4acd1-475d-43e1-bb04-3b5b22c96457","system_id":"levelo_inurba_marseille","lat":43.298954,"lon":5.436715,"is_reserved":false,"is_disabled":false,"rental_uris":{"android":"levelo://app?vid=d3b4acd1-475d-43e1-bb04-3b5b22c96457","ios":"levelo://app?vid=d3b4acd1-475d-43e1-bb04-3b5b22c96457"},"vehicle_type_id":"4","last_reported":1750774287,"current_range_meters":11600,"station_id":"ce4bhpp2rcd13ifvqhfg","pricing_plan_id":"cebpf4jnsgd1na2vs0mg"},{"bike_id":"4ea81869-22a1-4d42-a179-0e8d28091f20","system_id":"levelo_inurba_marseille","lat":43.26208,"lon":5.37423,"is_reserved":false,"is_disabled":false,"rental_uris":{"android":"levelo://app?vid=4ea81869-22a1-4d42-a179-0e8d28091f20","ios":"levelo://app?vid=4ea81869-22a1-4d42-a179-0e8d28091f20"},"vehicle_type_id":"4","last_reported":1750774287,"current_range_meters":12000,"station_id":"ce4bhgp2rcd13ifvqfc0","pricing_plan_id":"cebpf4jnsgd1na2vs0mg"},{"bike_id":"3e0f5345-cfae-479a-9b41-9237c8726756","system_id":"levelo_inurba_marseille","lat":43.29682,"lon":5.36331,"is_reserved":false,"is_disabled":false,"rental_uris":{"android":"levelo://app?vid=3e0f5345-cfae-479a-9b41-9237c8726756","ios":"levelo://app?vid=3e0f5345-cfae-479a-9b41-9237c8726756"},"vehicle_type_id":"4","last_reported":1750774287,"current_range_meters":12400,"station_id":"","pricing_plan_id":"cebpf4jnsgd1na2vs0mg"},{"bike_id":"095eabd1-5dcf-4106-9219-bdac4470d970","system_id":"levelo_inurba_marseille","lat":43.32825,"lon":5.43378,"is_reserved":false,"is_disabled":false,"rental_uris":{"android":"levelo://app?vid=095eabd1-5dcf-4106-9219-bdac4470d970","ios":"levelo://app?vid=095eabd1-5dcf-4106-9219-bdac4470d970"},"vehicle_type_id":"4","last_reported":1750774287,"current_range_meters":12400,"station_id":"","pricing_plan_id":"cebpf4jnsgd1na2vs0mg"},{"bike_id":"ea58c5af-7e24-472a-9042-4626112e91cb","system_id":"levelo_inurba_marseille","lat":43.291979,"lon":5.358054,"is_reserved":false,"is_disabled":false,"rental_uris":{"android":"levelo://app?vid=ea58c5af-7e24-472a-9042-4626112e91cb","ios":"levelo://app?vid=ea58c5af-7e24-472a-9042-4626112e91cb"},"vehicle_type_id":"4","last_reported":1750774287,"current_range_meters":12400,"station_id":"","pricing_plan_id":"cebpf4jnsgd1na2vs0mg"},{"bike_id":"d70e0914-9fd4-49df-907d-381e2fca4050","system_id":"levelo_inurba_marseille","lat":43.30299,"lon":5.39217,"is_reserved":false,"is_disabled":false,"rental_uris":{"android":"levelo://app?vid=d70e0914-9fd4-49df-907d-381e2fca4050","ios":"levelo://app?vid=d70e0914-9fd4-49df-907d-381e2fca4050"},"vehicle_type_id":"4","last_reported":1750774287,"current_range_meters":12400,"station_id":"ce4bgkh2rcd13ifvqbk0","pricing_plan_id":"cebpf4jnsgd1na2vs0mg"},{"bike_id":"110229a7-70cc-4508-9725-32d48e9c8d8d","system_id":"levelo_inurba_marseille","lat":43.31252,"lon":5.36889,"is_reserved":false,"is_disabled":false,"rental_uris":{"android":"levelo://app?vid=110229a7-70cc-4508-9725-32d48e9c8d8d","ios":"levelo://app?vid=110229a7-70cc-4508-9725-32d48e9c8d8d"},"vehicle_type_id":"4","last_reported":1750774287,"current_range_meters":12400,"station_id":"ce4bgl92rcd13ifvqbq0","pricing_plan_id":"cebpf4jnsgd1na2vs0mg"},{"bike_id":"164c7a34-df19-47c5-ae04-5b4c4fb4d924","system_id":"levelo_inurba_marseille","lat":43.26195,"lon":5.37449,"is_reserved":false,"is_disabled":false,"rental_uris":{"android":"levelo://app?vid=164c7a34-df19-47c5-ae04-5b4c4fb4d924","ios":"levelo://app?vid=164c7a34-df19-47c5-ae04-5b4c4fb4d924"},"vehicle_type_id":"4","last_reported":1750774287,"current_range_meters":12400,"station_id":"ce4bhgp2rcd13ifvqfc0","pricing_plan_id":"cebpf4jnsgd1na2vs0mg"},{"bike_id":"d4314e46-ddd9-4777-8e95-5e961c218a4a","system_id":"levelo_inurba_marseille","lat":43.26209,"lon":5.37445,"is_reserved":false,"is_disabled":false,"rental_uris":{"android":"levelo://app?vid=d4314e46-ddd9-4777-8e95-5e961c218a4a","ios":"levelo://app?vid=d4314e46-ddd9-4777-8e95-5e961c218a4a"},"vehicle_type_id":"4","last_reported":1750774287,"current_range_meters":12400,"station_id":"ce4bhgp2rcd13ifvqfc0","pricing_plan_id":"cebpf4jnsgd1na2vs0mg"},{"bike_id":"b6b861fa-fd27-43ad-89fb-4be1a264be92","system_id":"levelo_inurba_marseille","lat":43.25307,"lon":5.37497,"is_reserved":false,"is_disabled":false,"rental_uris":{"android":"levelo://app?vid=b6b861fa-fd27-43ad-89fb-4be1a264be92","ios":"levelo://app?vid=b6b861fa-fd27-43ad-89fb-4be1a264be92"},"vehicle_type_id":"4","last_reported":1750774287,"current_range_meters":12800,"station_id":"","pricing_plan_id":"cebpf4jnsgd1na2vs0mg"},{"bike_id":"7c3f6852-4f29-42a9-a8c1-e2b82bb43fcf","system_id":"levelo_inurba_marseille","lat":43.292504,"lon":5.426587,"is_reserved":false,"is_disabled":false,"rental_uris":{"android":"levelo://app?vid=7c3f6852-4f29-42a9-a8c1-e2b82bb43fcf","ios":"levelo://app?vid=7c3f6852-4f29-42a9-a8c1-e2b82bb43fcf"},"vehicle_type_id":"4","last_reported":1750774287,"current_range_meters":12800,"station_id":"","pricing_plan_id":"cebpf4jnsgd1na2vs0mg"},{"bike_id":"d6d0f443-06ce-4c8f-bcbc-9b23cf2fb96f","system_id":"levelo_inurba_marseille","lat":43.30904,"lon":5.39652,"is_reserved":false,"is_disabled":false,"rental_uris":{"android":"levelo://app?vid=d6d0f443-06ce-4c8f-bcbc-9b23cf2fb96f","ios":"levelo://app?vid=d6d0f443-06ce-4c8f-bcbc-9b23cf2fb96f"},"vehicle_type_id":"4","last_reported":1750774287,"current_range_meters":12800,"station_id":"ce4bh012rcd13ifvqcv0","pricing_plan_id":"cebpf4jnsgd1na2vs0mg"},{"bike_id":"8fcf9235-d0d4-440b-86ef-f82f3e99a6ba","system_id":"levelo_inurba_marseille","lat":43.28704,"lon":5.37375,"is_reserved":false,"is_disabled":false,"rental_uris":{"android":"levelo://app?vid=8fcf9235-d0d4-440b-86ef-f82f3e99a6ba","ios":"levelo://app?vid=8fcf9235-d0d4-440b-86ef-f82f3e99a6ba"},"vehicle_type_id":"4","last_reported":1750774287,"current_range_meters":13600,"station_id":"ce4bh3p2rcd13ifvqdq0","pricing_plan_id":"cebpf4jnsgd1na2vs0mg"},{"bike_id":"e8803cb1-88d0-47ab-aec2-11e1cc125e32","system_id":"levelo_inurba_marseille","lat":43.2927,"lon":5.38446,"is_reserved":false,"is_disabled":false,"rental_uris":{"android":"levelo://app?vid=e8803cb1-88d0-47ab-aec2-11e1cc125e32","ios":"levelo://app?vid=e8803cb1-88d0-47ab-aec2-11e1cc125e32"},"vehicle_type_id":"4","last_reported":1750774287,"current_range_meters":13600,"station_id":"ce4bh692rcd13ifvqea0","pricing_plan_id":"cebpf4jnsgd1na2vs0mg"},{"bike_id":"11ebf4fb-e752-44af-81e3-7d28e8eee9cc","system_id":"levelo_inurba_marseille","lat":43.28114,"lon":5.43211,"is_reserved":false,"is_disabled":false,"rental_uris":{"android":"levelo://app?vid=11ebf4fb-e752-44af-81e3-7d28e8eee9cc","ios":"levelo://app?vid=11ebf4fb-e752-44af-81e3-7d28e8eee9cc"},"vehicle_type_id":"4","last_reported":1750774287,"current_range_meters":14000,"station_id":"","pricing_plan_id":"cebpf4jnsgd1na2vs0mg"},{"bike_id":"f7d21a52-3225-4396-9d12-a1ed5d91e907","system_id":"levelo_inurba_marseille","lat":43.29173,"lon":5.38576,"is_reserved":false,"is_disabled":false,"rental_uris":{"android":"levelo://app?vid=f7d21a52-3225-4396-9d12-a1ed5d91e907","ios":"levelo://app?vid=f7d21a52-3225-4396-9d12-a1ed5d91e907"},"vehicle_type_id":"4","last_reported":1750774287,"current_range_meters":14000,"station_id":"","pricing_plan_id":"cebpf4jnsgd1na2vs0mg"},{"bike_id":"172c7176-24c2-4bb8-9b7b-2e62ec97ec07","system_id":"levelo_inurba_marseille","lat":43.29005,"lon":5.3561,"is_reserved":false,"is_disabled":false,"rental_uris":{"android":"levelo://app?vid=172c7176-24c2-4bb8-9b7b-2e62ec97ec07","ios":"levelo://app?vid=172c7176-24c2-4bb8-9b7b-2e62ec97ec07"},"vehicle_type_id":"4","last_reported":1750774287,"current_range_meters":14000,"station_id":"ce4bhb92rcd13ifvqen0","pricing_plan_id":"cebpf4jnsgd1na2vs0mg"},{"bike_id":"d0f08da7-250d-4291-81da-3121fa482eef","system_id":"levelo_inurba_marseille","lat":43.27899,"lon":5.38017,"is_reserved":false,"is_disabled":false,"rental_uris":{"android":"levelo://app?vid=d0f08da7-250d-4291-81da-3121fa482eef","ios":"levelo://app?vid=d0f08da7-250d-4291-81da-3121fa482eef"},"vehicle_type_id":"4","last_reported":1750774287,"current_range_meters":14000,"station_id":"ce4bhf92rcd13ifvqf50","pricing_plan_id":"cebpf4jnsgd1na2vs0mg"},{"bike_id":"5ebd1eae-dba3-4d92-bb1c-1c8296830819","system_id":"levelo_inurba_marseille","lat":43.27185,"lon":5.41,"is_reserved":false,"is_disabled":false,"rental_uris":{"android":"levelo://app?vid=5ebd1eae-dba3-4d92-bb1c-1c8296830819","ios":"levelo://app?vid=5ebd1eae-dba3-4d92-bb1c-1c8296830819"},"vehicle_type_id":"4","last_reported":1750774287,"current_range_meters":14000,"station_id":"ce4bhl12rcd13ifvqgf0","pricing_plan_id":"cebpf4jnsgd1na2vs0mg"},{"bike_id":"bbe5adaa-78a7-41b2-97ed-0ea6ea9d5a37","system_id":"levelo_inurba_marseille","lat":43.27936,"lon":5.41029,"is_reserved":false,"is_disabled":false,"rental_uris":{"android":"levelo://app?vid=bbe5adaa-78a7-41b2-97ed-0ea6ea9d5a37","ios":"levelo://app?vid=bbe5adaa-78a7-41b2-97ed-0ea6ea9d5a37"},"vehicle_type_id":"4","last_reported":1750774287,"current_range_meters":14000,"station_id":"ce4bhnp2rcd13ifvqh0g","pricing_plan_id":"cebpf4jnsgd1na2vs0mg"},{"bike_id":"d73e9bbc-c090-470a-8032-f86234a90165","system_id":"levelo_inurba_marseille","lat":43.2893,"lon":5.36311,"is_reserved":false,"is_disabled":false,"rental_uris":{"android":"levelo://app?vid=d73e9bbc-c090-470a-8032-f86234a90165","ios":"levelo://app?vid=d73e9bbc-c090-470a-8032-f86234a90165"},"vehicle_type_id":"4","last_reported":1750774287,"current_range_meters":14400,"station_id":"","pricing_plan_id":"cebpf4jnsgd1na2vs0mg"},{"bike_id":"9a6d7acc-8967-4c42-9cda-2007df7adfad","system_id":"levelo_inurba_marseille","lat":43.28845,"lon":5.35913,"is_reserved":false,"is_disabled":false,"rental_uris":{"android":"levelo://app?vid=9a6d7acc-8967-4c42-9cda-2007df7adfad","ios":"levelo://app?vid=9a6d7acc-8967-4c42-9cda-2007df7adfad"},"vehicle_type_id":"4","last_reported":1750774287,"current_range_meters":14400,"station_id":"ce4bhb12rcd13ifvqem0","pricing_plan_id":"cebpf4jnsgd1na2vs0mg"},{"bike_id":"a1f29b14-dc91-4a0d-8142-aa8ed1b7f8a4","system_id":"levelo_inurba_marseille","lat":43.28412,"lon":5.35001,"is_reserved":false,"is_disabled":false,"rental_uris":{"android":"levelo://app?vid=a1f29b14-dc91-4a0d-8142-aa8ed1b7f8a4","ios":"levelo://app?vid=a1f29b14-dc91-4a0d-8142-aa8ed1b7f8a4"},"vehicle_type_id":"4","last_reported":1750774287,"current_range_meters":14400,"station_id":"ce4bhbh2rcd13ifvqepg","pricing_plan_id":"cebpf4jnsgd1na2vs0mg"},{"bike_id":"cef721fd-afe4-48d0-89b0-0777a634e87f","system_id":"levelo_inurba_marseille","lat":43.244,"lon":5.37109,"is_reserved":false,"is_disabled":false,"rental_uris":{"android":"levelo://app?vid=cef721fd-afe4-48d0-89b0-0777a634e87f","ios":"levelo://app?vid=cef721fd-afe4-48d0-89b0-0777a634e87f"},"vehicle_type_id":"4","last_reported":1750774287,"current_range_meters":14400,"station_id":"ce4bhhh2rcd13ifvqfk0","pricing_plan_id":"cebpf4jnsgd1na2vs0mg"},{"bike_id":"a8ebd866-9094-47dc-a8f9-9661c5b3f2b6","system_id":"levelo_inurba_marseille","lat":43.31317,"lon":5.39671,"is_reserved":false,"is_disabled":false,"rental_uris":{"android":"levelo://app?vid=a8ebd866-9094-47dc-a8f9-9661c5b3f2b6","ios":"levelo://app?vid=a8ebd866-9094-47dc-a8f9-9661c5b3f2b6"},"vehicle_type_id":"4","last_reported":1750774287,"current_range_meters":14800,"station_id":"","pricing_plan_id":"cebpf4jnsgd1na2vs0mg"},{"bike_id":"f30b7e2c-e6a8-47ac-9582-47bca9aac1bf","system_id":"levelo_inurba_marseille","lat":43.33161,"lon":5.38185,"is_reserved":false,"is_disabled":false,"rental_uris":{"android":"levelo://app?vid=f30b7e2c-e6a8-47ac-9582-47bca9aac1bf","ios":"levelo://app?vid=f30b7e2c-e6a8-47ac-9582-47bca9aac1bf"},"vehicle_type_id":"4","last_reported":1750774287,"current_range_meters":14800,"station_id":"","pricing_plan_id":"cebpf4jnsgd1na2vs0mg"},{"bike_id":"cc1d4dd9-4e03-4866-b18b-0f17e577a4bf","system_id":"levelo_inurba_marseille","lat":43.31096,"lon":5.38375,"is_reserved":false,"is_disabled":false,"rental_uris":{"android":"levelo://app?vid=cc1d4dd9-4e03-4866-b18b-0f17e577a4bf","ios":"levelo://app?vid=cc1d4dd9-4e03-4866-b18b-0f17e577a4bf"},"vehicle_type_id":"4","last_reported":1750774287,"current_range_meters":14800,"station_id":"ce4bgv92rcd13ifvqcr0","pricing_plan_id":"cebpf4jnsgd1na2vs0mg"},{"bike_id":"4303d4e9-2ac3-41af-96f2-89b3da5bb484","system_id":"levelo_inurba_marseille","lat":43.306676,"lon":5.400528,"is_reserved":false,"is_disabled":false,"rental_uris":{"android":"levelo://app?vid=4303d4e9-2ac3-41af-96f2-89b3da5bb484","ios":"levelo://app?vid=4303d4e9-2ac3-41af-96f2-89b3da5bb484"},"vehicle_type_id":"4","last_reported":1750774287,"current_range_meters":14800,"station_id":"ce4bh112rcd13ifvqda0","pricing_plan_id":"cebpf4jnsgd1na2vs0mg"},{"bike_id":"42c30b9e-1557-4809-911b-aa587146d14e","system_id":"levelo_inurba_marseille","lat":43.26211,"lon":5.37443,"is_reserved":false,"is_disabled":false,"rental_uris":{"android":"levelo://app?vid=42c30b9e-1557-4809-911b-aa587146d14e","ios":"levelo://app?vid=42c30b9e-1557-4809-911b-aa587146d14e"},"vehicle_type_id":"4","last_reported":1750774287,"current_range_meters":14800,"station_id":"ce4bhgp2rcd13ifvqfc0","pricing_plan_id":"cebpf4jnsgd1na2vs0mg"},{"bike_id":"4b47b9f9-987b-46bb-8f60-2a8129991d7b","system_id":"levelo_inurba_marseille","lat":43.27493,"lon":5.42449,"is_reserved":false,"is_disabled":false,"rental_uris":{"android":"levelo://app?vid=4b47b9f9-987b-46bb-8f60-2a8129991d7b","ios":"levelo://app?vid=4b47b9f9-987b-46bb-8f60-2a8129991d7b"},"vehicle_type_id":"4","last_reported":1750774287,"current_range_meters":14800,"station_id":"ce4bhn92rcd13ifvqgrg","pricing_plan_id":"cebpf4jnsgd1na2vs0mg"},{"bike_id":"35b14479-4a4d-4383-83de-c7fea66894b3","system_id":"levelo_inurba_marseille","lat":43.29887,"lon":5.43638,"is_reserved":false,"is_disabled":false,"rental_uris":{"android":"levelo://app?vid=35b14479-4a4d-4383-83de-c7fea66894b3","ios":"levelo://app?vid=35b14479-4a4d-4383-83de-c7fea66894b3"},"vehicle_type_id":"4","last_reported":1750774287,"current_range_meters":14800,"station_id":"ce4bhpp2rcd13ifvqhfg","pricing_plan_id":"cebpf4jnsgd1na2vs0mg"},{"bike_id":"7ea3c9bd-f9bd-438e-b9e1-cdbe4f91c60d","system_id":"levelo_inurba_marseille","lat":43.2288,"lon":5.35299,"is_reserved":false,"is_disabled":false,"rental_uris":{"android":"levelo://app?vid=7ea3c9bd-f9bd-438e-b9e1-cdbe4f91c60d","ios":"levelo://app?vid=7ea3c9bd-f9bd-438e-b9e1-cdbe4f91c60d"},"vehicle_type_id":"4","last_reported":1750774287,"current_range_meters":15200,"station_id":"","pricing_plan_id":"cebpf4jnsgd1na2vs0mg"},{"bike_id":"51df9c8d-f116-4628-8c40-f3171ceea641","system_id":"levelo_inurba_marseille","lat":43.28116,"lon":5.44596,"is_reserved":false,"is_disabled":false,"rental_uris":{"android":"levelo://app?vid=51df9c8d-f116-4628-8c40-f3171ceea641","ios":"levelo://app?vid=51df9c8d-f116-4628-8c40-f3171ceea641"},"vehicle_type_id":"4","last_reported":1750774287,"current_range_meters":15200,"station_id":"","pricing_plan_id":"cebpf4jnsgd1na2vs0mg"},{"bike_id":"6af11411-eaec-434d-8aec-5ac25bed1ca3","system_id":"levelo_inurba_marseille","lat":43.31341,"lon":5.36733,"is_reserved":false,"is_disabled":false,"rental_uris":{"android":"levelo://app?vid=6af11411-eaec-434d-8aec-5ac25bed1ca3","ios":"levelo://app?vid=6af11411-eaec-434d-8aec-5ac25bed1ca3"},"vehicle_type_id":"4","last_reported":1750774287,"current_range_meters":15200,"station_id":"ce4bgr92rcd13ifvqc6g","pricing_plan_id":"cebpf4jnsgd1na2vs0mg"},{"bike_id":"f1a9f4bc-3b3c-40f9-9364-ccd037f9647e","system_id":"levelo_inurba_marseille","lat":43.30173,"lon":5.36626,"is_reserved":false,"is_disabled":false,"rental_uris":{"android":"levelo://app?vid=f1a9f4bc-3b3c-40f9-9364-ccd037f9647e","ios":"levelo://app?vid=f1a9f4bc-3b3c-40f9-9364-ccd037f9647e"},"vehicle_type_id":"4","last_reported":1750774287,"current_range_meters":15200,"station_id":"ce4bgrh2rcd13ifvqc8g","pricing_plan_id":"cebpf4jnsgd1na2vs0mg"},{"bike_id":"ced3cc38-5b5a-41c8-94c7-103406e9f85e","system_id":"levelo_inurba_marseille","lat":43.291759,"lon":5.356142,"is_reserved":false,"is_disabled":false,"rental_uris":{"android":"levelo://app?vid=ced3cc38-5b5a-41c8-94c7-103406e9f85e","ios":"levelo://app?vid=ced3cc38-5b5a-41c8-94c7-103406e9f85e"},"vehicle_type_id":"4","last_reported":1750774287,"current_range_meters":15200,"station_id":"ce4bhbh2rcd13ifvqepg","pricing_plan_id":"cebpf4jnsgd1na2vs0mg"},{"bike_id":"dcea2875-9940-4f02-8737-a6af2c676998","system_id":"levelo_inurba_marseille","lat":43.29275,"lon":5.36844,"is_reserved":false,"is_disabled":false,"rental_uris":{"android":"levelo://app?vid=dcea2875-9940-4f02-8737-a6af2c676998","ios":"levelo://app?vid=dcea2875-9940-4f02-8737-a6af2c676998"},"vehicle_type_id":"4","last_reported":1750774287,"current_range_meters":15200,"station_id":"ce4bhbp2rcd13ifvqesg","pricing_plan_id":"cebpf4jnsgd1na2vs0mg"},{"bike_id":"37639598-87cb-49f2-bb28-e8116a49605f","system_id":"levelo_inurba_marseille","lat":43.22522,"lon":5.34803,"is_reserved":false,"is_disabled":false,"rental_uris":{"android":"levelo://app?vid=37639598-87cb-49f2-bb28-e8116a49605f","ios":"levelo://app?vid=37639598-87cb-49f2-bb28-e8116a49605f"},"vehicle_type_id":"4","last_reported":1750774287,"current_range_meters":16000,"station_id":"","pricing_plan_id":"cebpf4jnsgd1na2vs0mg"},{"bike_id":"51b217be-9488-41c1-b083-6d728251b280","system_id":"levelo_inurba_marseille","lat":43.24319,"lon":5.36893,"is_reserved":false,"is_disabled":false,"rental_uris":{"android":"levelo://app?vid=51b217be-9488-41c1-b083-6d728251b280","ios":"levelo://app?vid=51b217be-9488-41c1-b083-6d728251b280"},"vehicle_type_id":"4","last_reported":1750774287,"current_range_meters":16000,"station_id":"","pricing_plan_id":"cebpf4jnsgd1na2vs0mg"},{"bike_id":"ff1500cc-ac8f-45c9-881c-9fd6595094a3","system_id":"levelo_inurba_marseille","lat":43.318173,"lon":5.401698,"is_reserved":false,"is_disabled":false,"rental_uris":{"android":"levelo://app?vid=ff1500cc-ac8f-45c9-881c-9fd6595094a3","ios":"levelo://app?vid=ff1500cc-ac8f-45c9-881c-9fd6595094a3"},"vehicle_type_id":"4","last_reported":1750774287,"current_range_meters":16000,"station_id":"","pricing_plan_id":"cebpf4jnsgd1na2vs0mg"},{"bike_id":"59c21f39-3d5a-426b-abdf-1d0302e97330","system_id":"levelo_inurba_marseille","lat":43.27058,"lon":5.42244,"is_reserved":false,"is_disabled":false,"rental_uris":{"android":"levelo://app?vid=59c21f39-3d5a-426b-abdf-1d0302e97330","ios":"levelo://app?vid=59c21f39-3d5a-426b-abdf-1d0302e97330"},"vehicle_type_id":"4","last_reported":1750774287,"current_range_meters":16000,"station_id":"ce4bhk92rcd13ifvqgb0","pricing_plan_id":"cebpf4jnsgd1na2vs0mg"},{"bike_id":"8cd3e3ea-2346-42fe-bba2-e7a68790f830","system_id":"levelo_inurba_marseille","lat":43.25925,"lon":5.40905,"is_reserved":false,"is_disabled":false,"rental_uris":{"android":"levelo://app?vid=8cd3e3ea-2346-42fe-bba2-e7a68790f830","ios":"levelo://app?vid=8cd3e3ea-2346-42fe-bba2-e7a68790f830"},"vehicle_type_id":"4","last_reported":1750774287,"current_range_meters":16000,"station_id":"ce4bhm92rcd13ifvqglg","pricing_plan_id":"cebpf4jnsgd1na2vs0mg"},{"bike_id":"af112b62-19de-41d4-b8d7-e14d0172315d","system_id":"levelo_inurba_marseille","lat":43.32734,"lon":5.39225,"is_reserved":false,"is_disabled":false,"rental_uris":{"android":"levelo://app?vid=af112b62-19de-41d4-b8d7-e14d0172315d","ios":"levelo://app?vid=af112b62-19de-41d4-b8d7-e14d0172315d"},"vehicle_type_id":"4","last_reported":1750774287,"current_range_meters":16400,"station_id":"","pricing_plan_id":"cebpf4jnsgd1na2vs0mg"},{"bike_id":"9d17ba94-28b9-4307-96c9-7a19692d51f0","system_id":"levelo_inurba_marseille","lat":43.33096,"lon":5.39384,"is_reserved":false,"is_disabled":false,"rental_uris":{"android":"levelo://app?vid=9d17ba94-28b9-4307-96c9-7a19692d51f0","ios":"levelo://app?vid=9d17ba94-28b9-4307-96c9-7a19692d51f0"},"vehicle_type_id":"4","last_reported":1750774287,"current_range_meters":16400,"station_id":"","pricing_plan_id":"cebpf4jnsgd1na2vs0mg"},{"bike_id":"2241dc8c-0e5c-458e-a9d3-17736fdc5355","system_id":"levelo_inurba_marseille","lat":43.30909,"lon":5.36855,"is_reserved":false,"is_disabled":false,"rental_uris":{"android":"levelo://app?vid=2241dc8c-0e5c-458e-a9d3-17736fdc5355","ios":"levelo://app?vid=2241dc8c-0e5c-458e-a9d3-17736fdc5355"},"vehicle_type_id":"4","last_reported":1750774287,"current_range_meters":16400,"station_id":"ce4bgn92rcd13ifvqbvg","pricing_plan_id":"cebpf4jnsgd1na2vs0mg"},{"bike_id":"c914e3b0-05db-4580-afaa-00d7c4367a4f","system_id":"levelo_inurba_marseille","lat":43.298737,"lon":5.39765,"is_reserved":false,"is_disabled":false,"rental_uris":{"android":"levelo://app?vid=c914e3b0-05db-4580-afaa-00d7c4367a4f","ios":"levelo://app?vid=c914e3b0-05db-4580-afaa-00d7c4367a4f"},"vehicle_type_id":"4","last_reported":1750774287,"current_range_meters":16400,"station_id":"ce4bh0h2rcd13ifvqd50","pricing_plan_id":"cebpf4jnsgd1na2vs0mg"},{"bike_id":"a2795f7d-7cbc-4e4c-a22f-2a7dcbd8eef6","system_id":"levelo_inurba_marseille","lat":43.28413,"lon":5.34982,"is_reserved":false,"is_disabled":false,"rental_uris":{"android":"levelo://app?vid=a2795f7d-7cbc-4e4c-a22f-2a7dcbd8eef6","ios":"levelo://app?vid=a2795f7d-7cbc-4e4c-a22f-2a7dcbd8eef6"},"vehicle_type_id":"4","last_reported":1750774287,"current_range_meters":16400,"station_id":"ce4bhbh2rcd13ifvqepg","pricing_plan_id":"cebpf4jnsgd1na2vs0mg"},{"bike_id":"1b7566e7-c2bc-4b1b-bfda-b1dcbe82d575","system_id":"levelo_inurba_marseille","lat":43.24543,"lon":5.39524,"is_reserved":false,"is_disabled":false,"rental_uris":{"android":"levelo://app?vid=1b7566e7-c2bc-4b1b-bfda-b1dcbe82d575","ios":"levelo://app?vid=1b7566e7-c2bc-4b1b-bfda-b1dcbe82d575"},"vehicle_type_id":"4","last_reported":1750774287,"current_range_meters":16400,"station_id":"ce4bhlp2rcd13ifvqgjg","pricing_plan_id":"cebpf4jnsgd1na2vs0mg"},{"bike_id":"b8ce578d-7cf5-4a38-bd36-6a6897c9f454","system_id":"levelo_inurba_marseille","lat":43.29898,"lon":5.43687,"is_reserved":false,"is_disabled":false,"rental_uris":{"android":"levelo://app?vid=b8ce578d-7cf5-4a38-bd36-6a6897c9f454","ios":"levelo://app?vid=b8ce578d-7cf5-4a38-bd36-6a6897c9f454"},"vehicle_type_id":"4","last_reported":1750774287,"current_range_meters":16400,"station_id":"ce4bhpp2rcd13ifvqhfg","pricing_plan_id":"cebpf4jnsgd1na2vs0mg"},{"bike_id":"f1d9ee1e-40b0-4436-9add-400906aba09e","system_id":"levelo_inurba_marseille","lat":43.32494,"lon":5.3658,"is_reserved":false,"is_disabled":false,"rental_uris":{"android":"levelo://app?vid=f1d9ee1e-40b0-4436-9add-400906aba09e","ios":"levelo://app?vid=f1d9ee1e-40b0-4436-9add-400906aba09e"},"vehicle_type_id":"4","last_reported":1750774287,"current_range_meters":16400,"station_id":"ce4bhs12rcd13ifvqhvg","pricing_plan_id":"cebpf4jnsgd1na2vs0mg"},{"bike_id":"24bec0ac-4c6c-4842-80e7-9983c2b33e58","system_id":"levelo_inurba_marseille","lat":43.21199,"lon":5.35071,"is_reserved":false,"is_disabled":false,"rental_uris":{"android":"levelo://app?vid=24bec0ac-4c6c-4842-80e7-9983c2b33e58","ios":"levelo://app?vid=24bec0ac-4c6c-4842-80e7-9983c2b33e58"},"vehicle_type_id":"4","last_reported":1750774287,"current_range_meters":16800,"station_id":"","pricing_plan_id":"cebpf4jnsgd1na2vs0mg"},{"bike_id":"5884fe4c-9df5-482f-9f2a-30cf5f273d63","system_id":"levelo_inurba_marseille","lat":43.31478,"lon":5.37292,"is_reserved":false,"is_disabled":false,"rental_uris":{"android":"levelo://app?vid=5884fe4c-9df5-482f-9f2a-30cf5f273d63","ios":"levelo://app?vid=5884fe4c-9df5-482f-9f2a-30cf5f273d63"},"vehicle_type_id":"4","last_reported":1750774287,"current_range_meters":16800,"station_id":"ce4bgt12rcd13ifvqcd0","pricing_plan_id":"cebpf4jnsgd1na2vs0mg"},{"bike_id":"6e6a7c74-a44e-46b1-b378-8172835d1f59","system_id":"levelo_inurba_marseille","lat":43.243768,"lon":5.370687,"is_reserved":false,"is_disabled":false,"rental_uris":{"android":"levelo://app?vid=6e6a7c74-a44e-46b1-b378-8172835d1f59","ios":"levelo://app?vid=6e6a7c74-a44e-46b1-b378-8172835d1f59"},"vehicle_type_id":"4","last_reported":1750774287,"current_range_meters":16800,"station_id":"cpo3532slgdg3j2ikp40","pricing_plan_id":"cebpf4jnsgd1na2vs0mg"},{"bike_id":"26a14eba-87a9-47b8-9607-30bd0042d428","system_id":"levelo_inurba_marseille","lat":43.31454,"lon":5.39439,"is_reserved":false,"is_disabled":false,"rental_uris":{"android":"levelo://app?vid=26a14eba-87a9-47b8-9607-30bd0042d428","ios":"levelo://app?vid=26a14eba-87a9-47b8-9607-30bd0042d428"},"vehicle_type_id":"4","last_reported":1750774287,"current_range_meters":17200,"station_id":"","pricing_plan_id":"cebpf4jnsgd1na2vs0mg"},{"bike_id":"b661e39b-4538-41ad-8526-3c320e3612d3","system_id":"levelo_inurba_marseille","lat":43.28409,"lon":5.34994,"is_reserved":false,"is_disabled":false,"rental_uris":{"android":"levelo://app?vid=b661e39b-4538-41ad-8526-3c320e3612d3","ios":"levelo://app?vid=b661e39b-4538-41ad-8526-3c320e3612d3"},"vehicle_type_id":"4","last_reported":1750774287,"current_range_meters":17200,"station_id":"ce4bhbh2rcd13ifvqepg","pricing_plan_id":"cebpf4jnsgd1na2vs0mg"},{"bike_id":"18159001-eb37-49d6-b053-eb5f781a420d","system_id":"levelo_inurba_marseille","lat":43.25719,"lon":5.41119,"is_reserved":false,"is_disabled":false,"rental_uris":{"android":"levelo://app?vid=18159001-eb37-49d6-b053-eb5f781a420d","ios":"levelo://app?vid=18159001-eb37-49d6-b053-eb5f781a420d"},"vehicle_type_id":"4","last_reported":1750774287,"current_range_meters":17200,"station_id":"ce4bhkp2rcd13ifvqgd0","pricing_plan_id":"cebpf4jnsgd1na2vs0mg"},{"bike_id":"d74b5439-d9cb-4f24-acf7-364ad990775f","system_id":"levelo_inurba_marseille","lat":43.28441,"lon":5.39207,"is_reserved":false,"is_disabled":false,"rental_uris":{"android":"levelo://app?vid=d74b5439-d9cb-4f24-acf7-364ad990775f","ios":"levelo://app?vid=d74b5439-d9cb-4f24-acf7-364ad990775f"},"vehicle_type_id":"4","last_reported":1750774287,"current_range_meters":17200,"station_id":"ce4bhoh2rcd13ifvqh5g","pricing_plan_id":"cebpf4jnsgd1na2vs0mg"},{"bike_id":"e2f5b300-4a63-4778-aada-c29a8a0ea1e8","system_id":"levelo_inurba_marseille","lat":43.32575,"lon":5.39256,"is_reserved":false,"is_disabled":false,"rental_uris":{"android":"levelo://app?vid=e2f5b300-4a63-4778-aada-c29a8a0ea1e8","ios":"levelo://app?vid=e2f5b300-4a63-4778-aada-c29a8a0ea1e8"},"vehicle_type_id":"4","last_reported":1750774287,"current_range_meters":17600,"station_id":"","pricing_plan_id":"cebpf4jnsgd1na2vs0mg"},{"bike_id":"b5c0817f-f2d2-4dc2-9d8f-9f5f5d328b47","system_id":"levelo_inurba_marseille","lat":43.29533,"lon":5.38533,"is_reserved":false,"is_disabled":false,"rental_uris":{"android":"levelo://app?vid=b5c0817f-f2d2-4dc2-9d8f-9f5f5d328b47","ios":"levelo://app?vid=b5c0817f-f2d2-4dc2-9d8f-9f5f5d328b47"},"vehicle_type_id":"4","last_reported":1750774287,"current_range_meters":17600,"station_id":"ce4bgih2rcd13ifvqba0","pricing_plan_id":"cebpf4jnsgd1na2vs0mg"},{"bike_id":"6c8eb40a-0f2f-4533-9d48-18e5995e3782","system_id":"levelo_inurba_marseille","lat":43.29714,"lon":5.37686,"is_reserved":false,"is_disabled":false,"rental_uris":{"android":"levelo://app?vid=6c8eb40a-0f2f-4533-9d48-18e5995e3782","ios":"levelo://app?vid=6c8eb40a-0f2f-4533-9d48-18e5995e3782"},"vehicle_type_id":"4","last_reported":1750774287,"current_range_meters":17600,"station_id":"ce4bgkh2rcd13ifvqbl0","pricing_plan_id":"cebpf4jnsgd1na2vs0mg"},{"bike_id":"53e6d29f-abce-4954-9035-1519b2229f1c","system_id":"levelo_inurba_marseille","lat":43.30932,"lon":5.40143,"is_reserved":false,"is_disabled":false,"rental_uris":{"android":"levelo://app?vid=53e6d29f-abce-4954-9035-1519b2229f1c","ios":"levelo://app?vid=53e6d29f-abce-4954-9035-1519b2229f1c"},"vehicle_type_id":"4","last_reported":1750774287,"current_range_meters":17600,"station_id":"ce4bgvp2rcd13ifvqct0","pricing_plan_id":"cebpf4jnsgd1na2vs0mg"},{"bike_id":"398dfd31-01f3-4ef3-a41f-79cd96baad79","system_id":"levelo_inurba_marseille","lat":43.30107,"lon":5.39918,"is_reserved":false,"is_disabled":false,"rental_uris":{"android":"levelo://app?vid=398dfd31-01f3-4ef3-a41f-79cd96baad79","ios":"levelo://app?vid=398dfd31-01f3-4ef3-a41f-79cd96baad79"},"vehicle_type_id":"4","last_reported":1750774287,"current_range_meters":17600,"station_id":"ce4bh0h2rcd13ifvqd40","pricing_plan_id":"cebpf4jnsgd1na2vs0mg"},{"bike_id":"494c7c4d-1583-46b9-8cac-213fbc88866a","system_id":"levelo_inurba_marseille","lat":43.29276,"lon":5.38437,"is_reserved":false,"is_disabled":false,"rental_uris":{"android":"levelo://app?vid=494c7c4d-1583-46b9-8cac-213fbc88866a","ios":"levelo://app?vid=494c7c4d-1583-46b9-8cac-213fbc88866a"},"vehicle_type_id":"4","last_reported":1750774287,"current_range_meters":17600,"station_id":"ce4bh692rcd13ifvqea0","pricing_plan_id":"cebpf4jnsgd1na2vs0mg"},{"bike_id":"602ab407-a79a-4fc2-8a9b-df3168b09d43","system_id":"levelo_inurba_marseille","lat":43.32387,"lon":5.36781,"is_reserved":false,"is_disabled":false,"rental_uris":{"android":"levelo://app?vid=602ab407-a79a-4fc2-8a9b-df3168b09d43","ios":"levelo://app?vid=602ab407-a79a-4fc2-8a9b-df3168b09d43"},"vehicle_type_id":"4","last_reported":1750774287,"current_range_meters":17600,"station_id":"ce4bhsh2rcd13ifvqi2g","pricing_plan_id":"cebpf4jnsgd1na2vs0mg"},{"bike_id":"e3cbe31d-3f2f-4c4c-a959-3bdba55d2dad","system_id":"levelo_inurba_marseille","lat":43.22925,"lon":5.353838,"is_reserved":false,"is_disabled":false,"rental_uris":{"android":"levelo://app?vid=e3cbe31d-3f2f-4c4c-a959-3bdba55d2dad","ios":"levelo://app?vid=e3cbe31d-3f2f-4c4c-a959-3bdba55d2dad"},"vehicle_type_id":"4","last_reported":1750774287,"current_range_meters":17600,"station_id":"cpo3532slgdg3j2ikp40","pricing_plan_id":"cebpf4jnsgd1na2vs0mg"},{"bike_id":"8fcb85f5-1c32-420d-b47a-da50b371b726","system_id":"levelo_inurba_marseille","lat":43.22921,"lon":5.35382,"is_reserved":false,"is_disabled":false,"rental_uris":{"android":"levelo://app?vid=8fcb85f5-1c32-420d-b47a-da50b371b726","ios":"levelo://app?vid=8fcb85f5-1c32-420d-b47a-da50b371b726"},"vehicle_type_id":"4","last_reported":1750774287,"current_range_meters":17600,"station_id":"cpo3532slgdg3j2ikp40","pricing_plan_id":"cebpf4jnsgd1na2vs0mg"},{"bike_id":"6d66f760-917a-49b1-b200-d585832e6166","system_id":"levelo_inurba_marseille","lat":43.229285,"lon":5.353694,"is_reserved":false,"is_disabled":false,"rental_uris":{"android":"levelo://app?vid=6d66f760-917a-49b1-b200-d585832e6166","ios":"levelo://app?vid=6d66f760-917a-49b1-b200-d585832e6166"},"vehicle_type_id":"4","last_reported":1750774287,"current_range_meters":17600,"station_id":"cpo3532slgdg3j2ikp40","pricing_plan_id":"cebpf4jnsgd1na2vs0mg"},{"bike_id":"ec1bbb20-efbe-404b-8beb-e922e0200c0c","system_id":"levelo_inurba_marseille","lat":43.29971,"lon":5.37037,"is_reserved":false,"is_disabled":false,"rental_uris":{"android":"levelo://app?vid=ec1bbb20-efbe-404b-8beb-e922e0200c0c","ios":"levelo://app?vid=ec1bbb20-efbe-404b-8beb-e922e0200c0c"},"vehicle_type_id":"4","last_reported":1750774287,"current_range_meters":18000,"station_id":"","pricing_plan_id":"cebpf4jnsgd1na2vs0mg"},{"bike_id":"85c306c7-6bce-41a6-a47e-c7cc95f9dbaf","system_id":"levelo_inurba_marseille","lat":43.29531,"lon":5.38541,"is_reserved":false,"is_disabled":false,"rental_uris":{"android":"levelo://app?vid=85c306c7-6bce-41a6-a47e-c7cc95f9dbaf","ios":"levelo://app?vid=85c306c7-6bce-41a6-a47e-c7cc95f9dbaf"},"vehicle_type_id":"4","last_reported":1750774287,"current_range_meters":18000,"station_id":"ce4bgih2rcd13ifvqba0","pricing_plan_id":"cebpf4jnsgd1na2vs0mg"},{"bike_id":"bbb78b67-ce19-4b52-97a6-b06213e08554","system_id":"levelo_inurba_marseille","lat":43.31508,"lon":5.37307,"is_reserved":false,"is_disabled":false,"rental_uris":{"android":"levelo://app?vid=bbb78b67-ce19-4b52-97a6-b06213e08554","ios":"levelo://app?vid=bbb78b67-ce19-4b52-97a6-b06213e08554"},"vehicle_type_id":"4","last_reported":1750774287,"current_range_meters":18000,"station_id":"ce4bgt12rcd13ifvqcd0","pricing_plan_id":"cebpf4jnsgd1na2vs0mg"},{"bike_id":"707ba524-9686-4a9b-ba72-2ad3b143c134","system_id":"levelo_inurba_marseille","lat":43.31493,"lon":5.37286,"is_reserved":false,"is_disabled":false,"rental_uris":{"android":"levelo://app?vid=707ba524-9686-4a9b-ba72-2ad3b143c134","ios":"levelo://app?vid=707ba524-9686-4a9b-ba72-2ad3b143c134"},"vehicle_type_id":"4","last_reported":1750774287,"current_range_meters":18000,"station_id":"ce4bgt12rcd13ifvqcd0","pricing_plan_id":"cebpf4jnsgd1na2vs0mg"},{"bike_id":"f7e5103c-802a-4eab-973a-14f837db0b6b","system_id":"levelo_inurba_marseille","lat":43.30928,"lon":5.40148,"is_reserved":false,"is_disabled":false,"rental_uris":{"android":"levelo://app?vid=f7e5103c-802a-4eab-973a-14f837db0b6b","ios":"levelo://app?vid=f7e5103c-802a-4eab-973a-14f837db0b6b"},"vehicle_type_id":"4","last_reported":1750774287,"current_range_meters":18000,"station_id":"ce4bgvp2rcd13ifvqct0","pricing_plan_id":"cebpf4jnsgd1na2vs0mg"},{"bike_id":"78e9dd26-915c-48ae-936d-219551dd3a1f","system_id":"levelo_inurba_marseille","lat":43.24178,"lon":5.39723,"is_reserved":false,"is_disabled":false,"rental_uris":{"android":"levelo://app?vid=78e9dd26-915c-48ae-936d-219551dd3a1f","ios":"levelo://app?vid=78e9dd26-915c-48ae-936d-219551dd3a1f"},"vehicle_type_id":"4","last_reported":1750774287,"current_range_meters":18000,"station_id":"ce4bhn12rcd13ifvqgpg","pricing_plan_id":"cebpf4jnsgd1na2vs0mg"},{"bike_id":"3b951d47-daef-4f47-9b11-1cb55583c0cc","system_id":"levelo_inurba_marseille","lat":43.211968,"lon":5.350684,"is_reserved":false,"is_disabled":false,"rental_uris":{"android":"levelo://app?vid=3b951d47-daef-4f47-9b11-1cb55583c0cc","ios":"levelo://app?vid=3b951d47-daef-4f47-9b11-1cb55583c0cc"},"vehicle_type_id":"4","last_reported":1750774287,"current_range_meters":18000,"station_id":"st_cvj6sg6p6f1abm77japg","pricing_plan_id":"cebpf4jnsgd1na2vs0mg"},{"bike_id":"e73521a0-5be6-4c9c-a4dd-712691198031","system_id":"levelo_inurba_marseille","lat":43.29486,"lon":5.37522,"is_reserved":false,"is_disabled":false,"rental_uris":{"android":"levelo://app?vid=e73521a0-5be6-4c9c-a4dd-712691198031","ios":"levelo://app?vid=e73521a0-5be6-4c9c-a4dd-712691198031"},"vehicle_type_id":"4","last_reported":1750774287,"current_range_meters":18800,"station_id":"ce4bgkp2rcd13ifvqbmg","pricing_plan_id":"cebpf4jnsgd1na2vs0mg"},{"bike_id":"51b9029c-a8b4-49be-88a9-639814edcae4","system_id":"levelo_inurba_marseille","lat":43.2842,"lon":5.35008,"is_reserved":false,"is_disabled":false,"rental_uris":{"android":"levelo://app?vid=51b9029c-a8b4-49be-88a9-639814edcae4","ios":"levelo://app?vid=51b9029c-a8b4-49be-88a9-639814edcae4"},"vehicle_type_id":"4","last_reported":1750774287,"current_range_meters":18800,"station_id":"ce4bhbh2rcd13ifvqepg","pricing_plan_id":"cebpf4jnsgd1na2vs0mg"},{"bike_id":"078cf81b-188d-498a-8ecb-3fc39c0906f6","system_id":"levelo_inurba_marseille","lat":43.28263,"lon":5.35061,"is_reserved":false,"is_disabled":false,"rental_uris":{"android":"levelo://app?vid=078cf81b-188d-498a-8ecb-3fc39c0906f6","ios":"levelo://app?vid=078cf81b-188d-498a-8ecb-3fc39c0906f6"},"vehicle_type_id":"4","last_reported":1750774287,"current_range_meters":18800,"station_id":"ce4bhbp2rcd13ifvqerg","pricing_plan_id":"cebpf4jnsgd1na2vs0mg"},{"bike_id":"98bf659d-1d57-4a5f-ad26-ad18821d34f1","system_id":"levelo_inurba_marseille","lat":43.26549,"lon":5.37284,"is_reserved":false,"is_disabled":false,"rental_uris":{"android":"levelo://app?vid=98bf659d-1d57-4a5f-ad26-ad18821d34f1","ios":"levelo://app?vid=98bf659d-1d57-4a5f-ad26-ad18821d34f1"},"vehicle_type_id":"4","last_reported":1750774287,"current_range_meters":18800,"station_id":"ce4bhg12rcd13ifvqf70","pricing_plan_id":"cebpf4jnsgd1na2vs0mg"},{"bike_id":"3b92bc40-d3b5-4060-b3a7-d807cf614ab4","system_id":"levelo_inurba_marseille","lat":43.22928,"lon":5.35376,"is_reserved":false,"is_disabled":false,"rental_uris":{"android":"levelo://app?vid=3b92bc40-d3b5-4060-b3a7-d807cf614ab4","ios":"levelo://app?vid=3b92bc40-d3b5-4060-b3a7-d807cf614ab4"},"vehicle_type_id":"4","last_reported":1750774287,"current_range_meters":18800,"station_id":"cpo3532slgdg3j2ikp40","pricing_plan_id":"cebpf4jnsgd1na2vs0mg"},{"bike_id":"fc1021d2-7bd8-41cc-a566-5df5c9bc4ea6","system_id":"levelo_inurba_marseille","lat":43.21197,"lon":5.3508,"is_reserved":false,"is_disabled":false,"rental_uris":{"android":"levelo://app?vid=fc1021d2-7bd8-41cc-a566-5df5c9bc4ea6","ios":"levelo://app?vid=fc1021d2-7bd8-41cc-a566-5df5c9bc4ea6"},