{"last_updated":1733923252,"ttl":60,"version":"2.2","data":{"bikes":[{"bike_id":"15abf248-f1ac-47c7-8842-d6916bd89c27","system_id":"levelo_inurba_marseille","lat":43.26684,"lon":5.38256,"is_reserved":false,"is_disabled":false,"rental_uris":{"android":"levelo://app?vid=15abf248-f1ac-47c7-8842-d6916bd89c27","ios":"levelo://app?vid=15abf248-f1ac-47c7-8842-d6916bd89c27"},"vehicle_type_id":"4","last_reported":1733923252,"current_range_meters":39200,"station_id":"ce4bhg92rcd13ifvqf90","pricing_plan_id":"cebpf4jnsgd1na2vs0mg"},{"bike_id":"09183cc6-6364-47a9-a9c9-034bdfa6c43c","system_id":"levelo_inurba_marseille","lat":43.282686,"lon":5.350724,"is_reserved":false,"is_disabled":false,"rental_uris":{"android":"levelo://app?vid=09183cc6-6364-47a9-a9c9-034bdfa6c43c","ios":"levelo://app?vid=09183cc6-6364-47a9-a9c9-034bdfa6c43c"},"vehicle_type_id":"4","last_reported":1733923252,"current_range_meters":39200,"station_id":"ce4bhbp2rcd13ifvqerg","pricing_plan_id":"cebpf4jnsgd1na2vs0mg"},{"bike_id":"15b6f56a-fad1-4f70-a7fb-6fe1c65798e2","system_id":"levelo_inurba_marseille","lat":43.32449,"lon":5.3656,"is_reserved":false,"is_disabled":false,"rental_uris":{"android":"levelo://app?vid=15b6f56a-fad1-4f70-a7fb-6fe1c65798e2","ios":"levelo://app?vid=15b6f56a-fad1-4f70-a7fb-6fe1c65798e2"},"vehicle_type_id":"4","last_reported":1733923252,"current_range_meters":39200,"station_id":"ce4bhs12rcd13ifvqhvg","pricing_plan_id":"cebpf4jnsgd1na2vs0mg"},{"bike_id":"b266efff-3a14-4d1a-a25a-c68ad062a1f4","system_id":"levelo_inurba_marseille","lat":43.24165,"lon":5.36396,"is_reserved":false,"is_disabled":false,"rental_uris":{"android":"levelo://app?vid=b266efff-3a14-4d1a-a25a-c68ad062a1f4","ios":"levelo://app?vid=b266efff-3a14-4d1a-a25a-c68ad062a1f4"},"vehicle_type_id":"4","last_reported":1733923252,"current_range_meters":9600,"station_id":"cpo36qri1sfpv3e86is0","pricing_plan_id":"cebpf4jnsgd1na2vs0mg"},{"bike_id":"a75d4dd4-ddd5-4eba-a98a-762c43283593","system_id":"levelo_inurba_marseille","lat":43.26055,"lon":5.3939,"is_reserved":false,"is_disabled":false,"rental_uris":{"android":"levelo://app?vid=a75d4dd4-ddd5-4eba-a98a-762c43283593","ios":"levelo://app?vid=a75d4dd4-ddd5-4eba-a98a-762c43283593"},"vehicle_type_id":"4","last_reported":1733923252,"current_range_meters":36000,"station_id":"ce4bhh92rcd13ifvqfj0","pricing_plan_id":"cebpf4jnsgd1na2vs0mg"},{"bike_id":"976f4069-6a86-4106-9efa-e4dc3f376846","system_id":"levelo_inurba_marseille","lat":43.2897,"lon":5.37825,"is_reserved":false,"is_disabled":false,"rental_uris":{"android":"levelo://app?vid=976f4069-6a86-4106-9efa-e4dc3f376846","ios":"levelo://app?vid=976f4069-6a86-4106-9efa-e4dc3f376846"},"vehicle_type_id":"4","last_reported":1733923252,"current_range_meters":25200,"station_id":"ce4bh9p2rcd13ifvqed0","pricing_plan_id":"cebpf4jnsgd1na2vs0mg"},{"bike_id":"d2f1571d-283c-4c18-8286-c166d40c3210","system_id":"levelo_inurba_marseille","lat":43.34145,"lon":5.40915,"is_reserved":false,"is_disabled":false,"rental_uris":{"android":"levelo://app?vid=d2f1571d-283c-4c18-8286-c166d40c3210","ios":"levelo://app?vid=d2f1571d-283c-4c18-8286-c166d40c3210"},"vehicle_type_id":"4","last_reported":1733923252,"current_range_meters":19600,"station_id":"ce4bhqh2rcd13ifvqhlg","pricing_plan_id":"cebpf4jnsgd1na2vs0mg"},{"bike_id":"21a7376e-5c33-4a56-91a8-da4065619153","system_id":"levelo_inurba_marseille","lat":43.30154,"lon":5.3738,"is_reserved":false,"is_disabled":false,"rental_uris":{"android":"levelo://app?vid=21a7376e-5c33-4a56-91a8-da4065619153","ios":"levelo://app?vid=21a7376e-5c33-4a56-91a8-da4065619153"},"vehicle_type_id":"4","last_reported":1733923252,"current_range_meters":24000,"station_id":"ce4bgs92rcd13ifvqcc0","pricing_plan_id":"cebpf4jnsgd1na2vs0mg"},{"bike_id":"2525bf92-7c3a-4f73-8ffa-805f23bcd7ed","system_id":"levelo_inurba_marseille","lat":43.29469,"lon":5.3753,"is_reserved":false,"is_disabled":false,"rental_uris":{"android":"levelo://app?vid=2525bf92-7c3a-4f73-8ffa-805f23bcd7ed","ios":"levelo://app?vid=2525bf92-7c3a-4f73-8ffa-805f23bcd7ed"},"vehicle_type_id":"4","last_reported":1733923252,"current_range_meters":25200,"station_id":"","pricing_plan_id":"cebpf4jnsgd1na2vs0mg"},{"bike_id":"980f96eb-32c9-4906-98f6-c44dbf4c84a1","system_id":"levelo_inurba_marseille","lat":43.27455,"lon":5.40073,"is_reserved":false,"is_disabled":true,"rental_uris":{"android":"levelo://app?vid=980f96eb-32c9-4906-98f6-c44dbf4c84a1","ios":"levelo://app?vid=980f96eb-32c9-4906-98f6-c44dbf4c84a1"},"vehicle_type_id":"4","last_reported":1733923252,"current_range_meters":0,"station_id":"","pricing_plan_id":"cebpf4jnsgd1na2vs0mg"},{"bike_id":"6b6689b2-3111-402f-abcd-bd92f86de8f2","system_id":"levelo_inurba_marseille","lat":43.27066,"lon":5.42284,"is_reserved":false,"is_disabled":false,"rental_uris":{"android":"levelo://app?vid=6b6689b2-3111-402f-abcd-bd92f86de8f2","ios":"levelo://app?vid=6b6689b2-3111-402f-abcd-bd92f86de8f2"},"vehicle_type_id":"4","last_reported":1733923252,"current_range_meters":25600,"station_id":"ce4bhk92rcd13ifvqgb0","pricing_plan_id":"cebpf4jnsgd1na2vs0mg"},{"bike_id":"c3e315e5-cdf2-4a8f-92d6-767a1e200bcc","system_id":"levelo_inurba_marseille","lat":43.27068,"lon":5.42282,"is_reserved":false,"is_disabled":false,"rental_uris":{"android":"levelo://app?vid=c3e315e5-cdf2-4a8f-92d6-767a1e200bcc","ios":"levelo://app?vid=c3e315e5-cdf2-4a8f-92d6-767a1e200bcc"},"vehicle_type_id":"4","last_reported":1733923252,"current_range_meters":13600,"station_id":"ce4bhk92rcd13ifvqgb0","pricing_plan_id":"cebpf4jnsgd1na2vs0mg"},{"bike_id":"4cfb5bbc-2bce-4e1f-b573-ab8ac7e72da7","system_id":"levelo_inurba_marseille","lat":43.25121,"lon":5.40323,"is_reserved":false,"is_disabled":false,"rental_uris":{"android":"levelo://app?vid=4cfb5bbc-2bce-4e1f-b573-ab8ac7e72da7","ios":"levelo://app?vid=4cfb5bbc-2bce-4e1f-b573-ab8ac7e72da7"},"vehicle_type_id":"4","last_reported":1733923252,"current_range_meters":20800,"station_id":"ce4bhlh2rcd13ifvqgig","pricing_plan_id":"cebpf4jnsgd1na2vs0mg"},{"bike_id":"f13bfc2b-74bb-4227-8236-6cc51258b5ec","system_id":"levelo_inurba_marseille","lat":43.26547,"lon":5.37306,"is_reserved":false,"is_disabled":false,"rental_uris":{"android":"levelo://app?vid=f13bfc2b-74bb-4227-8236-6cc51258b5ec","ios":"levelo://app?vid=f13bfc2b-74bb-4227-8236-6cc51258b5ec"},"vehicle_type_id":"4","last_reported":1733923252,"current_range_meters":17600,"station_id":"ce4bhg12rcd13ifvqf70","pricing_plan_id":"cebpf4jnsgd1na2vs0mg"},{"bike_id":"d36df271-fbf7-4bbc-b33a-49e5b065f0e9","system_id":"levelo_inurba_marseille","lat":43.27076,"lon":5.42273,"is_reserved":false,"is_disabled":false,"rental_uris":{"android":"levelo://app?vid=d36df271-fbf7-4bbc-b33a-49e5b065f0e9","ios":"levelo://app?vid=d36df271-fbf7-4bbc-b33a-49e5b065f0e9"},"vehicle_type_id":"4","last_reported":1733923252,"current_range_meters":29600,"station_id":"ce4bhk92rcd13ifvqgb0","pricing_plan_id":"cebpf4jnsgd1na2vs0mg"},{"bike_id":"1ee87c9f-af02-4ad1-9ac7-3dc4b1f33736","system_id":"levelo_inurba_marseille","lat":43.28394,"lon":5.37529,"is_reserved":false,"is_disabled":false,"rental_uris":{"android":"levelo://app?vid=1ee87c9f-af02-4ad1-9ac7-3dc4b1f33736","ios":"levelo://app?vid=1ee87c9f-af02-4ad1-9ac7-3dc4b1f33736"},"vehicle_type_id":"4","last_reported":1733923252,"current_range_meters":13600,"station_id":"ce4bh412rcd13ifvqds0","pricing_plan_id":"cebpf4jnsgd1na2vs0mg"},{"bike_id":"25718d55-a555-469e-b0a9-3496aaf7b973","system_id":"levelo_inurba_marseille","lat":43.25871,"lon":5.39892,"is_reserved":false,"is_disabled":false,"rental_uris":{"android":"levelo://app?vid=25718d55-a555-469e-b0a9-3496aaf7b973","ios":"levelo://app?vid=25718d55-a555-469e-b0a9-3496aaf7b973"},"vehicle_type_id":"4","last_reported":1733923252,"current_range_meters":13600,"station_id":"ce4bhl92rcd13ifvqghg","pricing_plan_id":"cebpf4jnsgd1na2vs0mg"},{"bike_id":"02cd74ce-505b-4e2e-a550-d836395d3c98","system_id":"levelo_inurba_marseille","lat":43.30672,"lon":5.40113,"is_reserved":false,"is_disabled":false,"rental_uris":{"android":"levelo://app?vid=02cd74ce-505b-4e2e-a550-d836395d3c98","ios":"levelo://app?vid=02cd74ce-505b-4e2e-a550-d836395d3c98"},"vehicle_type_id":"4","last_reported":1733923252,"current_range_meters":38400,"station_id":"ce4bh112rcd13ifvqda0","pricing_plan_id":"cebpf4jnsgd1na2vs0mg"},{"bike_id":"0a731ad1-9472-4ee6-8424-bb6823427d23","system_id":"levelo_inurba_marseille","lat":43.28938,"lon":5.36635,"is_reserved":false,"is_disabled":true,"rental_uris":{"android":"levelo://app?vid=0a731ad1-9472-4ee6-8424-bb6823427d23","ios":"levelo://app?vid=0a731ad1-9472-4ee6-8424-bb6823427d23"},"vehicle_type_id":"4","last_reported":1733923252,"current_range_meters":0,"station_id":"ce4bhap2rcd13ifvqek0","pricing_plan_id":"cebpf4jnsgd1na2vs0mg"},{"bike_id":"490fe497-a624-4452-83e9-33130a74cc8a","system_id":"levelo_inurba_marseille","lat":43.28932,"lon":5.36636,"is_reserved":false,"is_disabled":false,"rental_uris":{"android":"levelo://app?vid=490fe497-a624-4452-83e9-33130a74cc8a","ios":"levelo://app?vid=490fe497-a624-4452-83e9-33130a74cc8a"},"vehicle_type_id":"4","last_reported":1733923252,"current_range_meters":30000,"station_id":"ce4bhap2rcd13ifvqek0","pricing_plan_id":"cebpf4jnsgd1na2vs0mg"},{"bike_id":"fd71dd19-9a3b-4ab7-8622-bc8844396964","system_id":"levelo_inurba_marseille","lat":43.30133,"lon":5.37448,"is_reserved":false,"is_disabled":false,"rental_uris":{"android":"levelo://app?vid=fd71dd19-9a3b-4ab7-8622-bc8844396964","ios":"levelo://app?vid=fd71dd19-9a3b-4ab7-8622-bc8844396964"},"vehicle_type_id":"4","last_reported":1733923252,"current_range_meters":24000,"station_id":"ce4bgs92rcd13ifvqcc0","pricing_plan_id":"cebpf4jnsgd1na2vs0mg"},{"bike_id":"e2565130-2ecb-4813-9810-1d289b826439","system_id":"levelo_inurba_marseille","lat":43.31326,"lon":5.39689,"is_reserved":false,"is_disabled":false,"rental_uris":{"android":"levelo://app?vid=e2565130-2ecb-4813-9810-1d289b826439","ios":"levelo://app?vid=e2565130-2ecb-4813-9810-1d289b826439"},"vehicle_type_id":"4","last_reported":1733923252,"current_range_meters":22800,"station_id":"ce4bgvp2rcd13ifvqcu0","pricing_plan_id":"cebpf4jnsgd1na2vs0mg"},{"bike_id":"c83b6b3e-5296-41f7-938d-6e972ea88b24","system_id":"levelo_inurba_marseille","lat":43.31226,"lon":5.368717,"is_reserved":false,"is_disabled":false,"rental_uris":{"android":"levelo://app?vid=c83b6b3e-5296-41f7-938d-6e972ea88b24","ios":"levelo://app?vid=c83b6b3e-5296-41f7-938d-6e972ea88b24"},"vehicle_type_id":"4","last_reported":1733923252,"current_range_meters":37600,"station_id":"ce4bgl92rcd13ifvqbq0","pricing_plan_id":"cebpf4jnsgd1na2vs0mg"},{"bike_id":"372de1a4-3ac2-4efb-ac30-95df488d8180","system_id":"levelo_inurba_marseille","lat":43.25444,"lon":5.37826,"is_reserved":false,"is_disabled":false,"rental_uris":{"android":"levelo://app?vid=372de1a4-3ac2-4efb-ac30-95df488d8180","ios":"levelo://app?vid=372de1a4-3ac2-4efb-ac30-95df488d8180"},"vehicle_type_id":"4","last_reported":1733923252,"current_range_meters":9200,"station_id":"","pricing_plan_id":"cebpf4jnsgd1na2vs0mg"},{"bike_id":"3660a68e-019e-40c8-a98b-d1f56975d36b","system_id":"levelo_inurba_marseille","lat":43.26957,"lon":5.38625,"is_reserved":false,"is_disabled":false,"rental_uris":{"android":"levelo://app?vid=3660a68e-019e-40c8-a98b-d1f56975d36b","ios":"levelo://app?vid=3660a68e-019e-40c8-a98b-d1f56975d36b"},"vehicle_type_id":"4","last_reported":1733923252,"current_range_meters":10000,"station_id":"ce4bhn12rcd13ifvqgqg","pricing_plan_id":"cebpf4jnsgd1na2vs0mg"},{"bike_id":"09711f44-6989-4446-b8a6-e708f49d50ff","system_id":"levelo_inurba_marseille","lat":43.2789,"lon":5.38015,"is_reserved":false,"is_disabled":false,"rental_uris":{"android":"levelo://app?vid=09711f44-6989-4446-b8a6-e708f49d50ff","ios":"levelo://app?vid=09711f44-6989-4446-b8a6-e708f49d50ff"},"vehicle_type_id":"4","last_reported":1733923252,"current_range_meters":38400,"station_id":"ce4bhf92rcd13ifvqf50","pricing_plan_id":"cebpf4jnsgd1na2vs0mg"},{"bike_id":"1b502474-2e11-43a3-922a-75f5113deb81","system_id":"levelo_inurba_marseille","lat":43.25931,"lon":5.4091,"is_reserved":false,"is_disabled":false,"rental_uris":{"android":"levelo://app?vid=1b502474-2e11-43a3-922a-75f5113deb81","ios":"levelo://app?vid=1b502474-2e11-43a3-922a-75f5113deb81"},"vehicle_type_id":"4","last_reported":1733923252,"current_range_meters":28800,"station_id":"ce4bhm92rcd13ifvqglg","pricing_plan_id":"cebpf4jnsgd1na2vs0mg"},{"bike_id":"fe4cab58-ba30-4c78-b62f-d4434eea7628","system_id":"levelo_inurba_marseille","lat":43.29439,"lon":5.39779,"is_reserved":false,"is_disabled":true,"rental_uris":{"android":"levelo://app?vid=fe4cab58-ba30-4c78-b62f-d4434eea7628","ios":"levelo://app?vid=fe4cab58-ba30-4c78-b62f-d4434eea7628"},"vehicle_type_id":"4","last_reported":1733923252,"current_range_meters":35600,"station_id":"ce4bh3h2rcd13ifvqdo0","pricing_plan_id":"cebpf4jnsgd1na2vs0mg"},{"bike_id":"187a9cac-9fe7-4437-bc4f-beab8d1e51ae","system_id":"levelo_inurba_marseille","lat":43.29554,"lon":5.4226,"is_reserved":false,"is_disabled":false,"rental_uris":{"android":"levelo://app?vid=187a9cac-9fe7-4437-bc4f-beab8d1e51ae","ios":"levelo://app?vid=187a9cac-9fe7-4437-bc4f-beab8d1e51ae"},"vehicle_type_id":"4","last_reported":1733923252,"current_range_meters":38800,"station_id":"ce4bhph2rcd13ifvqhdg","pricing_plan_id":"cebpf4jnsgd1na2vs0mg"},{"bike_id":"8f0149a9-093b-4975-bff8-ca7f7f3f8eb6","system_id":"levelo_inurba_marseille","lat":43.31366,"lon":5.36703,"is_reserved":false,"is_disabled":false,"rental_uris":{"android":"levelo://app?vid=8f0149a9-093b-4975-bff8-ca7f7f3f8eb6","ios":"levelo://app?vid=8f0149a9-093b-4975-bff8-ca7f7f3f8eb6"},"vehicle_type_id":"4","last_reported":1733923252,"current_range_meters":10800,"station_id":"ce4bgr92rcd13ifvqc6g","pricing_plan_id":"cebpf4jnsgd1na2vs0mg"},{"bike_id":"75052bfa-918d-4a31-83e0-d5491c3908ab","system_id":"levelo_inurba_marseille","lat":43.34146,"lon":5.40901,"is_reserved":false,"is_disabled":false,"rental_uris":{"android":"levelo://app?vid=75052bfa-918d-4a31-83e0-d5491c3908ab","ios":"levelo://app?vid=75052bfa-918d-4a31-83e0-d5491c3908ab"},"vehicle_type_id":"4","last_reported":1733923252,"current_range_meters":30000,"station_id":"ce4bhqh2rcd13ifvqhlg","pricing_plan_id":"cebpf4jnsgd1na2vs0mg"},{"bike_id":"8979b88b-e0c9-465c-b920-54c929607786","system_id":"levelo_inurba_marseille","lat":43.30399,"lon":5.368,"is_reserved":false,"is_disabled":false,"rental_uris":{"android":"levelo://app?vid=8979b88b-e0c9-465c-b920-54c929607786","ios":"levelo://app?vid=8979b88b-e0c9-465c-b920-54c929607786"},"vehicle_type_id":"4","last_reported":1733923252,"current_range_meters":19600,"station_id":"","pricing_plan_id":"cebpf4jnsgd1na2vs0mg"},{"bike_id":"16c257ca-efe3-49cc-a372-28c1d575a23d","system_id":"levelo_inurba_marseille","lat":43.26941,"lon":5.38646,"is_reserved":false,"is_disabled":true,"rental_uris":{"android":"levelo://app?vid=16c257ca-efe3-49cc-a372-28c1d575a23d","ios":"levelo://app?vid=16c257ca-efe3-49cc-a372-28c1d575a23d"},"vehicle_type_id":"4","last_reported":1733923252,"current_range_meters":1200,"station_id":"ce4bhh92rcd13ifvqfh0","pricing_plan_id":"cebpf4jnsgd1na2vs0mg"},{"bike_id":"7ef97a84-dfe5-460d-9f07-1129f5fa87f4","system_id":"levelo_inurba_marseille","lat":43.2467,"lon":5.38163,"is_reserved":false,"is_disabled":false,"rental_uris":{"android":"levelo://app?vid=7ef97a84-dfe5-460d-9f07-1129f5fa87f4","ios":"levelo://app?vid=7ef97a84-dfe5-460d-9f07-1129f5fa87f4"},"vehicle_type_id":"4","last_reported":1733923252,"current_range_meters":37600,"station_id":"ce4bhih2rcd13ifvqfr0","pricing_plan_id":"cebpf4jnsgd1na2vs0mg"},{"bike_id":"eaa5756b-7d04-477a-b759-0c566d61850d","system_id":"levelo_inurba_marseille","lat":43.27992,"lon":5.40024,"is_reserved":false,"is_disabled":true,"rental_uris":{"android":"levelo://app?vid=eaa5756b-7d04-477a-b759-0c566d61850d","ios":"levelo://app?vid=eaa5756b-7d04-477a-b759-0c566d61850d"},"vehicle_type_id":"4","last_reported":1733923252,"current_range_meters":37600,"station_id":"ce4bho92rcd13ifvqh4g","pricing_plan_id":"cebpf4jnsgd1na2vs0mg"},{"bike_id":"03854ab6-9f42-4955-b580-421cf978eeb8","system_id":"levelo_inurba_marseille","lat":43.3248,"lon":5.36571,"is_reserved":false,"is_disabled":false,"rental_uris":{"android":"levelo://app?vid=03854ab6-9f42-4955-b580-421cf978eeb8","ios":"levelo://app?vid=03854ab6-9f42-4955-b580-421cf978eeb8"},"vehicle_type_id":"4","last_reported":1733923252,"current_range_meters":32400,"station_id":"ce4bhs12rcd13ifvqhvg","pricing_plan_id":"cebpf4jnsgd1na2vs0mg"},{"bike_id":"c85f036b-31a5-4275-81fb-651d87f33f09","system_id":"levelo_inurba_marseille","lat":43.25444,"lon":5.38206,"is_reserved":false,"is_disabled":false,"rental_uris":{"android":"levelo://app?vid=c85f036b-31a5-4275-81fb-651d87f33f09","ios":"levelo://app?vid=c85f036b-31a5-4275-81fb-651d87f33f09"},"vehicle_type_id":"4","last_reported":1733923252,"current_range_meters":37600,"station_id":"","pricing_plan_id":"cebpf4jnsgd1na2vs0mg"},{"bike_id":"eedaa0dc-42dc-491d-9600-c264f7e3bd7d","system_id":"levelo_inurba_marseille","lat":43.25574,"lon":5.3825,"is_reserved":false,"is_disabled":false,"rental_uris":{"android":"levelo://app?vid=eedaa0dc-42dc-491d-9600-c264f7e3bd7d","ios":"levelo://app?vid=eedaa0dc-42dc-491d-9600-c264f7e3bd7d"},"vehicle_type_id":"4","last_reported":1733923252,"current_range_meters":29600,"station_id":"ce4bhih2rcd13ifvqfs0","pricing_plan_id":"cebpf4jnsgd1na2vs0mg"},{"bike_id":"f9e18ffd-78f2-4b90-b114-1d56947110dc","system_id":"levelo_inurba_marseille","lat":43.3116,"lon":5.38716,"is_reserved":false,"is_disabled":false,"rental_uris":{"android":"levelo://app?vid=f9e18ffd-78f2-4b90-b114-1d56947110dc","ios":"levelo://app?vid=f9e18ffd-78f2-4b90-b114-1d56947110dc"},"vehicle_type_id":"4","last_reported":1733923252,"current_range_meters":28000,"station_id":"ce4bgv12rcd13ifvqcp0","pricing_plan_id":"cebpf4jnsgd1na2vs0mg"},{"bike_id":"2cbb7eea-3dcb-41d0-809e-24f454a1c1c7","system_id":"levelo_inurba_marseille","lat":43.30117,"lon":5.38128,"is_reserved":false,"is_disabled":true,"rental_uris":{"android":"levelo://app?vid=2cbb7eea-3dcb-41d0-809e-24f454a1c1c7","ios":"levelo://app?vid=2cbb7eea-3dcb-41d0-809e-24f454a1c1c7"},"vehicle_type_id":"4","last_reported":1733923252,"current_range_meters":22800,"station_id":"ce4bgjp2rcd13ifvqbh0","pricing_plan_id":"cebpf4jnsgd1na2vs0mg"},{"bike_id":"90324b92-2d52-4f43-bd59-91b2038c3497","system_id":"levelo_inurba_marseille","lat":43.28947,"lon":5.36633,"is_reserved":false,"is_disabled":true,"rental_uris":{"android":"levelo://app?vid=90324b92-2d52-4f43-bd59-91b2038c3497","ios":"levelo://app?vid=90324b92-2d52-4f43-bd59-91b2038c3497"},"vehicle_type_id":"4","last_reported":1733923252,"current_range_meters":30400,"station_id":"","pricing_plan_id":"cebpf4jnsgd1na2vs0mg"},{"bike_id":"3b933c1c-ec5b-4fd7-9e9d-68c9321eb9df","system_id":"levelo_inurba_marseille","lat":43.31344,"lon":5.3671,"is_reserved":false,"is_disabled":false,"rental_uris":{"android":"levelo://app?vid=3b933c1c-ec5b-4fd7-9e9d-68c9321eb9df","ios":"levelo://app?vid=3b933c1c-ec5b-4fd7-9e9d-68c9321eb9df"},"vehicle_type_id":"4","last_reported":1733923252,"current_range_meters":28000,"station_id":"ce4bgr92rcd13ifvqc6g","pricing_plan_id":"cebpf4jnsgd1na2vs0mg"},{"bike_id":"bd1b036b-f963-4f84-afbb-8b444826acd5","system_id":"levelo_inurba_marseille","lat":43.28406,"lon":5.37519,"is_reserved":false,"is_disabled":false,"rental_uris":{"android":"levelo://app?vid=bd1b036b-f963-4f84-afbb-8b444826acd5","ios":"levelo://app?vid=bd1b036b-f963-4f84-afbb-8b444826acd5"},"vehicle_type_id":"4","last_reported":1733923252,"current_range_meters":20800,"station_id":"ce4bh412rcd13ifvqds0","pricing_plan_id":"cebpf4jnsgd1na2vs0mg"},{"bike_id":"c8adfc07-b220-45fc-b8d2-2c34000cd717","system_id":"levelo_inurba_marseille","lat":43.27607,"lon":5.36127,"is_reserved":false,"is_disabled":false,"rental_uris":{"android":"levelo://app?vid=c8adfc07-b220-45fc-b8d2-2c34000cd717","ios":"levelo://app?vid=c8adfc07-b220-45fc-b8d2-2c34000cd717"},"vehicle_type_id":"4","last_reported":1733923252,"current_range_meters":16800,"station_id":"ce4bgj92rcd13ifvqbe0","pricing_plan_id":"cebpf4jnsgd1na2vs0mg"},{"bike_id":"6faa6ee7-a588-4286-8e0c-a7deeaae5bab","system_id":"levelo_inurba_marseille","lat":43.2736,"lon":5.3626,"is_reserved":false,"is_disabled":false,"rental_uris":{"android":"levelo://app?vid=6faa6ee7-a588-4286-8e0c-a7deeaae5bab","ios":"levelo://app?vid=6faa6ee7-a588-4286-8e0c-a7deeaae5bab"},"vehicle_type_id":"4","last_reported":1733923252,"current_range_meters":38800,"station_id":"ce4bhbh2rcd13ifvqeo0","pricing_plan_id":"cebpf4jnsgd1na2vs0mg"},{"bike_id":"65ec1fbe-1744-4dfc-9781-955e0bc89a2b","system_id":"levelo_inurba_marseille","lat":43.32476,"lon":5.36568,"is_reserved":false,"is_disabled":false,"rental_uris":{"android":"levelo://app?vid=65ec1fbe-1744-4dfc-9781-955e0bc89a2b","ios":"levelo://app?vid=65ec1fbe-1744-4dfc-9781-955e0bc89a2b"},"vehicle_type_id":"4","last_reported":1733923252,"current_range_meters":17600,"station_id":"ce4bhs12rcd13ifvqhvg","pricing_plan_id":"cebpf4jnsgd1na2vs0mg"},{"bike_id":"91003ad4-ef41-4b2a-9ce5-d3fe6513ec8c","system_id":"levelo_inurba_marseille","lat":43.30414,"lon":5.41287,"is_reserved":false,"is_disabled":false,"rental_uris":{"android":"levelo://app?vid=91003ad4-ef41-4b2a-9ce5-d3fe6513ec8c","ios":"levelo://app?vid=91003ad4-ef41-4b2a-9ce5-d3fe6513ec8c"},"vehicle_type_id":"4","last_reported":1733923252,"current_range_meters":38000,"station_id":"ce4bhop2rcd13ifvqh8g","pricing_plan_id":"cebpf4jnsgd1na2vs0mg"},{"bike_id":"30b7f7b0-cffb-44e8-9e23-86428fe1183d","system_id":"levelo_inurba_marseille","lat":43.23065,"lon":5.35509,"is_reserved":false,"is_disabled":false,"rental_uris":{"android":"levelo://app?vid=30b7f7b0-cffb-44e8-9e23-86428fe1183d","ios":"levelo://app?vid=30b7f7b0-cffb-44e8-9e23-86428fe1183d"},"vehicle_type_id":"4","last_reported":1733923252,"current_range_meters":14000,"station_id":"cpo3342slgdg3j2ifvpg","pricing_plan_id":"cebpf4jnsgd1na2vs0mg"},{"bike_id":"a8b664e8-08b7-4cc9-b971-a063618684ea","system_id":"levelo_inurba_marseille","lat":43.27808,"lon":5.40721,"is_reserved":false,"is_disabled":false,"rental_uris":{"android":"levelo://app?vid=a8b664e8-08b7-4cc9-b971-a063618684ea","ios":"levelo://app?vid=a8b664e8-08b7-4cc9-b971-a063618684ea"},"vehicle_type_id":"4","last_reported":1733923252,"current_range_meters":38400,"station_id":"ce4bhnh2rcd13ifvqgtg","pricing_plan_id":"cebpf4jnsgd1na2vs0mg"},{"bike_id":"9b00ac67-eb07-4d0d-971e-5e7263a6201d","system_id":"levelo_inurba_marseille","lat":43.29706,"lon":5.37696,"is_reserved":false,"is_disabled":false,"rental_uris":{"android":"levelo://app?vid=9b00ac67-eb07-4d0d-971e-5e7263a6201d","ios":"levelo://app?vid=9b00ac67-eb07-4d0d-971e-5e7263a6201d"},"vehicle_type_id":"4","last_reported":1733923252,"current_range_meters":19600,"station_id":"ce4bgkh2rcd13ifvqbl0","pricing_plan_id":"cebpf4jnsgd1na2vs0mg"},{"bike_id":"3525db53-1a03-423d-94da-dfa27d380ac3","system_id":"levelo_inurba_marseille","lat":43.25946,"lon":5.39871,"is_reserved":false,"is_disabled":false,"rental_uris":{"android":"levelo://app?vid=3525db53-1a03-423d-94da-dfa27d380ac3","ios":"levelo://app?vid=3525db53-1a03-423d-94da-dfa27d380ac3"},"vehicle_type_id":"4","last_reported":1733923252,"current_range_meters":34800,"station_id":"ce4bhl92rcd13ifvqghg","pricing_plan_id":"cebpf4jnsgd1na2vs0mg"},{"bike_id":"37c24fb4-833e-40bd-980a-1101a7b442d5","system_id":"levelo_inurba_marseille","lat":43.30284,"lon":5.39226,"is_reserved":false,"is_disabled":false,"rental_uris":{"android":"levelo://app?vid=37c24fb4-833e-40bd-980a-1101a7b442d5","ios":"levelo://app?vid=37c24fb4-833e-40bd-980a-1101a7b442d5"},"vehicle_type_id":"4","last_reported":1733923252,"current_range_meters":32400,"station_id":"ce4bgkh2rcd13ifvqbk0","pricing_plan_id":"cebpf4jnsgd1na2vs0mg"},{"bike_id":"3a685c7a-625a-44cc-9bcc-e3c92d177840","system_id":"levelo_inurba_marseille","lat":43.28711,"lon":5.37935,"is_reserved":false,"is_disabled":false,"rental_uris":{"android":"levelo://app?vid=3a685c7a-625a-44cc-9bcc-e3c92d177840","ios":"levelo://app?vid=3a685c7a-625a-44cc-9bcc-e3c92d177840"},"vehicle_type_id":"4","last_reported":1733923252,"current_range_meters":4800,"station_id":"ce4bh9p2rcd13ifvqec0","pricing_plan_id":"cebpf4jnsgd1na2vs0mg"},{"bike_id":"fbcdd296-ae21-42a8-948f-df139a75391a","system_id":"levelo_inurba_marseille","lat":43.29915,"lon":5.37476,"is_reserved":false,"is_disabled":false,"rental_uris":{"android":"levelo://app?vid=fbcdd296-ae21-42a8-948f-df139a75391a","ios":"levelo://app?vid=fbcdd296-ae21-42a8-948f-df139a75391a"},"vehicle_type_id":"4","last_reported":1733923252,"current_range_meters":33600,"station_id":"ce4bgjh2rcd13ifvqbg0","pricing_plan_id":"cebpf4jnsgd1na2vs0mg"},{"bike_id":"381b1859-0dd6-421b-8977-1f4dd556b6cd","system_id":"levelo_inurba_marseille","lat":43.30887,"lon":5.37197,"is_reserved":false,"is_disabled":false,"rental_uris":{"android":"levelo://app?vid=381b1859-0dd6-421b-8977-1f4dd556b6cd","ios":"levelo://app?vid=381b1859-0dd6-421b-8977-1f4dd556b6cd"},"vehicle_type_id":"4","last_reported":1733923252,"current_range_meters":16800,"station_id":"ce4bguh2rcd13ifvqckg","pricing_plan_id":"cebpf4jnsgd1na2vs0mg"},{"bike_id":"2e36a5ec-85ce-44ac-a1d9-54a8e609efa1","system_id":"levelo_inurba_marseille","lat":43.24171,"lon":5.36388,"is_reserved":false,"is_disabled":false,"rental_uris":{"android":"levelo://app?vid=2e36a5ec-85ce-44ac-a1d9-54a8e609efa1","ios":"levelo://app?vid=2e36a5ec-85ce-44ac-a1d9-54a8e609efa1"},"vehicle_type_id":"4","last_reported":1733923252,"current_range_meters":16800,"station_id":"cpo36qri1sfpv3e86is0","pricing_plan_id":"cebpf4jnsgd1na2vs0mg"},{"bike_id":"35f921ba-c539-4bb2-8335-67a0fa178b4d","system_id":"levelo_inurba_marseille","lat":43.30141,"lon":5.37424,"is_reserved":false,"is_disabled":false,"rental_uris":{"android":"levelo://app?vid=35f921ba-c539-4bb2-8335-67a0fa178b4d","ios":"levelo://app?vid=35f921ba-c539-4bb2-8335-67a0fa178b4d"},"vehicle_type_id":"4","last_reported":1733923252,"current_range_meters":27200,"station_id":"ce4bgs92rcd13ifvqcc0","pricing_plan_id":"cebpf4jnsgd1na2vs0mg"},{"bike_id":"0f17d2c4-bf96-42e6-978b-f52d4d5288cd","system_id":"levelo_inurba_marseille","lat":43.30309,"lon":5.40443,"is_reserved":false,"is_disabled":true,"rental_uris":{"android":"levelo://app?vid=0f17d2c4-bf96-42e6-978b-f52d4d5288cd","ios":"levelo://app?vid=0f17d2c4-bf96-42e6-978b-f52d4d5288cd"},"vehicle_type_id":"4","last_reported":1733923252,"current_range_meters":34000,"station_id":"ce4bh012rcd13ifvqd10","pricing_plan_id":"cebpf4jnsgd1na2vs0mg"},{"bike_id":"055ecd6d-eb29-427a-91ef-ded7a467b1be","system_id":"levelo_inurba_marseille","lat":43.28691,"lon":5.38649,"is_reserved":false,"is_disabled":true,"rental_uris":{"android":"levelo://app?vid=055ecd6d-eb29-427a-91ef-ded7a467b1be","ios":"levelo://app?vid=055ecd6d-eb29-427a-91ef-ded7a467b1be"},"vehicle_type_id":"4","last_reported":1733923252,"current_range_meters":38800,"station_id":"ce4bh492rcd13ifvqdug","pricing_plan_id":"cebpf4jnsgd1na2vs0mg"},{"bike_id":"9f97bc61-e7eb-4861-8880-368545206066","system_id":"levelo_inurba_marseille","lat":43.27426,"lon":5.39424,"is_reserved":false,"is_disabled":false,"rental_uris":{"android":"levelo://app?vid=9f97bc61-e7eb-4861-8880-368545206066","ios":"levelo://app?vid=9f97bc61-e7eb-4861-8880-368545206066"},"vehicle_type_id":"4","last_reported":1733923252,"current_range_meters":38000,"station_id":"ce4bhdp2rcd13ifvqf20","pricing_plan_id":"cebpf4jnsgd1na2vs0mg"},{"bike_id":"2196553f-7f0d-4eea-9854-82ea53b19b52","system_id":"levelo_inurba_marseille","lat":43.31504,"lon":5.37281,"is_reserved":false,"is_disabled":false,"rental_uris":{"android":"levelo://app?vid=2196553f-7f0d-4eea-9854-82ea53b19b52","ios":"levelo://app?vid=2196553f-7f0d-4eea-9854-82ea53b19b52"},"vehicle_type_id":"4","last_reported":1733923252,"current_range_meters":38800,"station_id":"ce4bgt12rcd13ifvqcd0","pricing_plan_id":"cebpf4jnsgd1na2vs0mg"},{"bike_id":"e9b08cca-37ab-4633-8ff7-2d0a0a0131fe","system_id":"levelo_inurba_marseille","lat":43.26784,"lon":5.40244,"is_reserved":false,"is_disabled":false,"rental_uris":{"android":"levelo://app?vid=e9b08cca-37ab-4633-8ff7-2d0a0a0131fe","ios":"levelo://app?vid=e9b08cca-37ab-4633-8ff7-2d0a0a0131fe"},"vehicle_type_id":"4","last_reported":1733923252,"current_range_meters":27600,"station_id":"ce501612rcd8frsf0b60","pricing_plan_id":"cebpf4jnsgd1na2vs0mg"},{"bike_id":"b1704e06-3ae3-4455-a517-a4600fc51933","system_id":"levelo_inurba_marseille","lat":43.30523,"lon":5.36538,"is_reserved":false,"is_disabled":false,"rental_uris":{"android":"levelo://app?vid=b1704e06-3ae3-4455-a517-a4600fc51933","ios":"levelo://app?vid=b1704e06-3ae3-4455-a517-a4600fc51933"},"vehicle_type_id":"4","last_reported":1733923252,"current_range_meters":27600,"station_id":"ce4bgs12rcd13ifvqcag","pricing_plan_id":"cebpf4jnsgd1na2vs0mg"},{"bike_id":"af67ac53-ba21-4ff0-8334-95679e9ff2cc","system_id":"levelo_inurba_marseille","lat":43.278805,"lon":5.388003,"is_reserved":false,"is_disabled":true,"rental_uris":{"android":"levelo://app?vid=af67ac53-ba21-4ff0-8334-95679e9ff2cc","ios":"levelo://app?vid=af67ac53-ba21-4ff0-8334-95679e9ff2cc"},"vehicle_type_id":"4","last_reported":1733923252,"current_range_meters":0,"station_id":"","pricing_plan_id":"cebpf4jnsgd1na2vs0mg"},{"bike_id":"ab6bb814-6be0-4a23-8be0-7c219c550454","system_id":"levelo_inurba_marseille","lat":43.2944,"lon":5.39766,"is_reserved":false,"is_disabled":true,"rental_uris":{"android":"levelo://app?vid=ab6bb814-6be0-4a23-8be0-7c219c550454","ios":"levelo://app?vid=ab6bb814-6be0-4a23-8be0-7c219c550454"},"vehicle_type_id":"4","last_reported":1733923252,"current_range_meters":1200,"station_id":"ce4bh3h2rcd13ifvqdo0","pricing_plan_id":"cebpf4jnsgd1na2vs0mg"},{"bike_id":"18ada20a-4ef8-4428-90ba-1063b2ab4fb7","system_id":"levelo_inurba_marseille","lat":43.29563,"lon":5.39972,"is_reserved":false,"is_disabled":true,"rental_uris":{"android":"levelo://app?vid=18ada20a-4ef8-4428-90ba-1063b2ab4fb7","ios":"levelo://app?vid=18ada20a-4ef8-4428-90ba-1063b2ab4fb7"},"vehicle_type_id":"4","last_reported":1733923252,"current_range_meters":36800,"station_id":"ce4bh312rcd13ifvqdj0","pricing_plan_id":"cebpf4jnsgd1na2vs0mg"},{"bike_id":"309c6ca2-0724-4df4-b751-fca7c30f4de6","system_id":"levelo_inurba_marseille","lat":43.2572,"lon":5.41111,"is_reserved":false,"is_disabled":false,"rental_uris":{"android":"levelo://app?vid=309c6ca2-0724-4df4-b751-fca7c30f4de6","ios":"levelo://app?vid=309c6ca2-0724-4df4-b751-fca7c30f4de6"},"vehicle_type_id":"4","last_reported":1733923252,"current_range_meters":24400,"station_id":"ce4bhkp2rcd13ifvqgd0","pricing_plan_id":"cebpf4jnsgd1na2vs0mg"},{"bike_id":"c3f87c2d-f647-4d71-89d3-fc010d8ba668","system_id":"levelo_inurba_marseille","lat":43.28477,"lon":5.38431,"is_reserved":false,"is_disabled":true,"rental_uris":{"android":"levelo://app?vid=c3f87c2d-f647-4d71-89d3-fc010d8ba668","ios":"levelo://app?vid=c3f87c2d-f647-4d71-89d3-fc010d8ba668"},"vehicle_type_id":"4","last_reported":1733923252,"current_range_meters":0,"station_id":"ce4bh512rcd13ifvqe3g","pricing_plan_id":"cebpf4jnsgd1na2vs0mg"},{"bike_id":"ad53aee5-a729-48be-8206-ea00c2981c19","system_id":"levelo_inurba_marseille","lat":43.305,"lon":5.36521,"is_reserved":false,"is_disabled":true,"rental_uris":{"android":"levelo://app?vid=ad53aee5-a729-48be-8206-ea00c2981c19","ios":"levelo://app?vid=ad53aee5-a729-48be-8206-ea00c2981c19"},"vehicle_type_id":"4","last_reported":1733923252,"current_range_meters":0,"station_id":"","pricing_plan_id":"cebpf4jnsgd1na2vs0mg"},{"bike_id":"0b3eeec8-03fc-4ec9-a747-da2e101f987f","system_id":"levelo_inurba_marseille","lat":43.2396,"lon":5.36631,"is_reserved":false,"is_disabled":false,"rental_uris":{"android":"levelo://app?vid=0b3eeec8-03fc-4ec9-a747-da2e101f987f","ios":"levelo://app?vid=0b3eeec8-03fc-4ec9-a747-da2e101f987f"},"vehicle_type_id":"4","last_reported":1733923252,"current_range_meters":30800,"station_id":"ce4bhi12rcd13ifvqfp0","pricing_plan_id":"cebpf4jnsgd1na2vs0mg"},{"bike_id":"bf685501-15c9-48c5-9dc4-de72909678bb","system_id":"levelo_inurba_marseille","lat":43.28101,"lon":5.37849,"is_reserved":false,"is_disabled":false,"rental_uris":{"android":"levelo://app?vid=bf685501-15c9-48c5-9dc4-de72909678bb","ios":"levelo://app?vid=bf685501-15c9-48c5-9dc4-de72909678bb"},"vehicle_type_id":"4","last_reported":1733923252,"current_range_meters":39200,"station_id":"ce4bha12rcd13ifvqee0","pricing_plan_id":"cebpf4jnsgd1na2vs0mg"},{"bike_id":"e48d11a8-2fa3-466d-a01e-e802f216b7be","system_id":"levelo_inurba_marseille","lat":43.30541,"lon":5.36565,"is_reserved":false,"is_disabled":true,"rental_uris":{"android":"levelo://app?vid=e48d11a8-2fa3-466d-a01e-e802f216b7be","ios":"levelo://app?vid=e48d11a8-2fa3-466d-a01e-e802f216b7be"},"vehicle_type_id":"4","last_reported":1733923252,"current_range_meters":1200,"station_id":"ce4bgs12rcd13ifvqcag","pricing_plan_id":"cebpf4jnsgd1na2vs0mg"},{"bike_id":"2fd29c45-f498-4d96-85cc-be23b873263b","system_id":"levelo_inurba_marseille","lat":43.30312,"lon":5.36896,"is_reserved":false,"is_disabled":false,"rental_uris":{"android":"levelo://app?vid=2fd29c45-f498-4d96-85cc-be23b873263b","ios":"levelo://app?vid=2fd29c45-f498-4d96-85cc-be23b873263b"},"vehicle_type_id":"4","last_reported":1733923252,"current_range_meters":37600,"station_id":"ce4bgqh2rcd13ifvqc5g","pricing_plan_id":"cebpf4jnsgd1na2vs0mg"},{"bike_id":"cd664d3d-8647-4996-b35b-672ecc7a7b0f","system_id":"levelo_inurba_marseille","lat":43.26551,"lon":5.37283,"is_reserved":false,"is_disabled":false,"rental_uris":{"android":"levelo://app?vid=cd664d3d-8647-4996-b35b-672ecc7a7b0f","ios":"levelo://app?vid=cd664d3d-8647-4996-b35b-672ecc7a7b0f"},"vehicle_type_id":"4","last_reported":1733923252,"current_range_meters":28400,"station_id":"ce4bhg12rcd13ifvqf70","pricing_plan_id":"cebpf4jnsgd1na2vs0mg"},{"bike_id":"fde22f28-ab37-4918-89e3-d2242e8ab44a","system_id":"levelo_inurba_marseille","lat":43.29595,"lon":5.37758,"is_reserved":false,"is_disabled":false,"rental_uris":{"android":"levelo://app?vid=fde22f28-ab37-4918-89e3-d2242e8ab44a","ios":"levelo://app?vid=fde22f28-ab37-4918-89e3-d2242e8ab44a"},"vehicle_type_id":"4","last_reported":1733923252,"current_range_meters":38800,"station_id":"","pricing_plan_id":"cebpf4jnsgd1na2vs0mg"},{"bike_id":"ab9a49f1-8fb6-4a54-aaac-4d61e228b89d","system_id":"levelo_inurba_marseille","lat":43.28928,"lon":5.36643,"is_reserved":false,"is_disabled":false,"rental_uris":{"android":"levelo://app?vid=ab9a49f1-8fb6-4a54-aaac-4d61e228b89d","ios":"levelo://app?vid=ab9a49f1-8fb6-4a54-aaac-4d61e228b89d"},"vehicle_type_id":"4","last_reported":1733923252,"current_range_meters":3600,"station_id":"ce4bhap2rcd13ifvqek0","pricing_plan_id":"cebpf4jnsgd1na2vs0mg"},{"bike_id":"ced1b738-acd6-49c9-941d-141d7bee0398","system_id":"levelo_inurba_marseille","lat":43.29033,"lon":5.3756,"is_reserved":false,"is_disabled":false,"rental_uris":{"android":"levelo://app?vid=ced1b738-acd6-49c9-941d-141d7bee0398","ios":"levelo://app?vid=ced1b738-acd6-49c9-941d-141d7bee0398"},"vehicle_type_id":"4","last_reported":1733923252,"current_range_meters":35600,"station_id":"ce4bh692rcd13ifvqe90","pricing_plan_id":"cebpf4jnsgd1na2vs0mg"},{"bike_id":"cefa54cb-a0bd-4d51-b13e-03ea2047e36f","system_id":"levelo_inurba_marseille","lat":43.29553,"lon":5.37519,"is_reserved":false,"is_disabled":true,"rental_uris":{"android":"levelo://app?vid=cefa54cb-a0bd-4d51-b13e-03ea2047e36f","ios":"levelo://app?vid=cefa54cb-a0bd-4d51-b13e-03ea2047e36f"},"vehicle_type_id":"4","last_reported":1733923252,"current_range_meters":32800,"station_id":"ce4bgh92rcd13ifvqb50","pricing_plan_id":"cebpf4jnsgd1na2vs0mg"},{"bike_id":"0af1466e-bb15-4b7b-a481-9e52ac8458d7","system_id":"levelo_inurba_marseille","lat":43.31997,"lon":5.38155,"is_reserved":false,"is_disabled":false,"rental_uris":{"android":"levelo://app?vid=0af1466e-bb15-4b7b-a481-9e52ac8458d7","ios":"levelo://app?vid=0af1466e-bb15-4b7b-a481-9e52ac8458d7"},"vehicle_type_id":"4","last_reported":1733923252,"current_range_meters":32000,"station_id":"ce4bhr12rcd13ifvqhpg","pricing_plan_id":"cebpf4jnsgd1na2vs0mg"},{"bike_id":"b8e3a311-f02b-4399-af7b-1bfb5506fa2a","system_id":"levelo_inurba_marseille","lat":43.24646,"lon":5.38897,"is_reserved":false,"is_disabled":false,"rental_uris":{"android":"levelo://app?vid=b8e3a311-f02b-4399-af7b-1bfb5506fa2a","ios":"levelo://app?vid=b8e3a311-f02b-4399-af7b-1bfb5506fa2a"},"vehicle_type_id":"4","last_reported":1733923252,"current_range_meters":28400,"station_id":"ce4bhg12rcd13ifvqf60","pricing_plan_id":"cebpf4jnsgd1na2vs0mg"},{"bike_id":"0819c574-c550-4f68-9dac-3c1b3fdf0d04","system_id":"levelo_inurba_marseille","lat":43.322859,"lon":5.382742,"is_reserved":false,"is_disabled":false,"rental_uris":{"android":"levelo://app?vid=0819c574-c550-4f68-9dac-3c1b3fdf0d04","ios":"levelo://app?vid=0819c574-c550-4f68-9dac-3c1b3fdf0d04"},"vehicle_type_id":"4","last_reported":1733923252,"current_range_meters":38800,"station_id":"ce4bhr12rcd13ifvqhqg","pricing_plan_id":"cebpf4jnsgd1na2vs0mg"},{"bike_id":"40aa3401-ee50-4d6d-8cdb-064bb29e5ead","system_id":"levelo_inurba_marseille","lat":43.324815,"lon":5.365675,"is_reserved":false,"is_disabled":false,"rental_uris":{"android":"levelo://app?vid=40aa3401-ee50-4d6d-8cdb-064bb29e5ead","ios":"levelo://app?vid=40aa3401-ee50-4d6d-8cdb-064bb29e5ead"},"vehicle_type_id":"4","last_reported":1733923252,"current_range_meters":39200,"station_id":"ce4bhs12rcd13ifvqhvg","pricing_plan_id":"cebpf4jnsgd1na2vs0mg"},{"bike_id":"c8000abf-7b04-4aa2-881e-f0c5fefdd95b","system_id":"levelo_inurba_marseille","lat":43.31991,"lon":5.38171,"is_reserved":false,"is_disabled":false,"rental_uris":{"android":"levelo://app?vid=c8000abf-7b04-4aa2-881e-f0c5fefdd95b","ios":"levelo://app?vid=c8000abf-7b04-4aa2-881e-f0c5fefdd95b"},"vehicle_type_id":"4","last_reported":1733923252,"current_range_meters":19600,"station_id":"ce4bhr12rcd13ifvqhpg","pricing_plan_id":"cebpf4jnsgd1na2vs0mg"},{"bike_id":"4b968b39-8472-4063-b8d3-b31a0a3baa0d","system_id":"levelo_inurba_marseille","lat":43.27071,"lon":5.4228,"is_reserved":false,"is_disabled":false,"rental_uris":{"android":"levelo://app?vid=4b968b39-8472-4063-b8d3-b31a0a3baa0d","ios":"levelo://app?vid=4b968b39-8472-4063-b8d3-b31a0a3baa0d"},"vehicle_type_id":"4","last_reported":1733923252,"current_range_meters":32400,"station_id":"ce4bhk92rcd13ifvqgb0","pricing_plan_id":"cebpf4jnsgd1na2vs0mg"},{"bike_id":"6ee59775-fc90-4fdd-b45e-fc74b74f1368","system_id":"levelo_inurba_marseille","lat":43.29971,"lon":5.38497,"is_reserved":false,"is_disabled":true,"rental_uris":{"android":"levelo://app?vid=6ee59775-fc90-4fdd-b45e-fc74b74f1368","ios":"levelo://app?vid=6ee59775-fc90-4fdd-b45e-fc74b74f1368"},"vehicle_type_id":"4","last_reported":1733923252,"current_range_meters":33200,"station_id":"ce4bgj92rcd13ifvqbd0","pricing_plan_id":"cebpf4jnsgd1na2vs0mg"},{"bike_id":"c39a9363-c699-4f71-9224-f8e58cfb6cbe","system_id":"levelo_inurba_marseille","lat":43.30883,"lon":5.37196,"is_reserved":false,"is_disabled":false,"rental_uris":{"android":"levelo://app?vid=c39a9363-c699-4f71-9224-f8e58cfb6cbe","ios":"levelo://app?vid=c39a9363-c699-4f71-9224-f8e58cfb6cbe"},"vehicle_type_id":"4","last_reported":1733923252,"current_range_meters":35600,"station_id":"ce4bguh2rcd13ifvqckg","pricing_plan_id":"cebpf4jnsgd1na2vs0mg"},{"bike_id":"7415e546-3b44-4c09-ab81-67543def4c63","system_id":"levelo_inurba_marseille","lat":43.30655,"lon":5.40112,"is_reserved":false,"is_disabled":false,"rental_uris":{"android":"levelo://app?vid=7415e546-3b44-4c09-ab81-67543def4c63","ios":"levelo://app?vid=7415e546-3b44-4c09-ab81-67543def4c63"},"vehicle_type_id":"4","last_reported":1733923252,"current_range_meters":30400,"station_id":"ce4bh112rcd13ifvqda0","pricing_plan_id":"cebpf4jnsgd1na2vs0mg"},{"bike_id":"6effa2b2-fcd2-4282-90bc-a0986a819336","system_id":"levelo_inurba_marseille","lat":43.24386,"lon":5.37061,"is_reserved":false,"is_disabled":false,"rental_uris":{"android":"levelo://app?vid=6effa2b2-fcd2-4282-90bc-a0986a819336","ios":"levelo://app?vid=6effa2b2-fcd2-4282-90bc-a0986a819336"},"vehicle_type_id":"4","last_reported":1733923252,"current_range_meters":10000,"station_id":"ce4bhhh2rcd13ifvqfk0","pricing_plan_id":"cebpf4jnsgd1na2vs0mg"},{"bike_id":"50b714ae-96e6-4593-bfba-7d9f49fa5482","system_id":"levelo_inurba_marseille","lat":43.23962,"lon":5.36639,"is_reserved":false,"is_disabled":false,"rental_uris":{"android":"levelo://app?vid=50b714ae-96e6-4593-bfba-7d9f49fa5482","ios":"levelo://app?vid=50b714ae-96e6-4593-bfba-7d9f49fa5482"},"vehicle_type_id":"4","last_reported":1733923252,"current_range_meters":39200,"station_id":"ce4bhi12rcd13ifvqfp0","pricing_plan_id":"cebpf4jnsgd1na2vs0mg"},{"bike_id":"338411d9-dcc3-4ff8-b277-679a00a24582","system_id":"levelo_inurba_marseille","lat":43.31356,"lon":5.36709,"is_reserved":false,"is_disabled":false,"rental_uris":{"android":"levelo://app?vid=338411d9-dcc3-4ff8-b277-679a00a24582","ios":"levelo://app?vid=338411d9-dcc3-4ff8-b277-679a00a24582"},"vehicle_type_id":"4","last_reported":1733923252,"current_range_meters":39200,"station_id":"ce4bgr92rcd13ifvqc6g","pricing_plan_id":"cebpf4jnsgd1na2vs0mg"},{"bike_id":"440c0882-719b-4b38-aba1-872c74c75218","system_id":"levelo_inurba_marseille","lat":43.32285,"lon":5.38239,"is_reserved":false,"is_disabled":false,"rental_uris":{"android":"levelo://app?vid=440c0882-719b-4b38-aba1-872c74c75218","ios":"levelo://app?vid=440c0882-719b-4b38-aba1-872c74c75218"},"vehicle_type_id":"4","last_reported":1733923252,"current_range_meters":38800,"station_id":"ce4bhr12rcd13ifvqhqg","pricing_plan_id":"cebpf4jnsgd1na2vs0mg"},{"bike_id":"043b6990-a2d9-4323-9fb9-2f90f599ded1","system_id":"levelo_inurba_marseille","lat":43.26028,"lon":5.37579,"is_reserved":false,"is_disabled":false,"rental_uris":{"android":"levelo://app?vid=043b6990-a2d9-4323-9fb9-2f90f599ded1","ios":"levelo://app?vid=043b6990-a2d9-4323-9fb9-2f90f599ded1"},"vehicle_type_id":"4","last_reported":1733923252,"current_range_meters":38800,"station_id":"ce4bhgh2rcd13ifvqfa0","pricing_plan_id":"cebpf4jnsgd1na2vs0mg"},{"bike_id":"7449bee4-197c-442a-ad91-b46089dfd704","system_id":"levelo_inurba_marseille","lat":43.26592,"lon":5.39064,"is_reserved":false,"is_disabled":false,"rental_uris":{"android":"levelo://app?vid=7449bee4-197c-442a-ad91-b46089dfd704","ios":"levelo://app?vid=7449bee4-197c-442a-ad91-b46089dfd704"},"vehicle_type_id":"4","last_reported":1733923252,"current_range_meters":36000,"station_id":"ce4bhe12rcd13ifvqf30","pricing_plan_id":"cebpf4jnsgd1na2vs0mg"},{"bike_id":"accc15c2-75c8-4823-a61f-1d4d7e399167","system_id":"levelo_inurba_marseille","lat":43.29415,"lon":5.38623,"is_reserved":false,"is_disabled":true,"rental_uris":{"android":"levelo://app?vid=accc15c2-75c8-4823-a61f-1d4d7e399167","ios":"levelo://app?vid=accc15c2-75c8-4823-a61f-1d4d7e399167"},"vehicle_type_id":"4","last_reported":1733923252,"current_range_meters":11200,"station_id":"ce4bh2h2rcd13ifvqdh0","pricing_plan_id":"cebpf4jnsgd1na2vs0mg"},{"bike_id":"775440f2-8b23-4abe-bb5a-c9c8ad09f60f","system_id":"levelo_inurba_marseille","lat":43.25596,"lon":5.38245,"is_reserved":false,"is_disabled":false,"rental_uris":{"android":"levelo://app?vid=775440f2-8b23-4abe-bb5a-c9c8ad09f60f","ios":"levelo://app?vid=775440f2-8b23-4abe-bb5a-c9c8ad09f60f"},"vehicle_type_id":"4","last_reported":1733923252,"current_range_meters":28000,"station_id":"ce4bhih2rcd13ifvqfs0","pricing_plan_id":"cebpf4jnsgd1na2vs0mg"},{"bike_id":"1dcb3730-1dbc-4158-85c7-65de2c8645d2","system_id":"levelo_inurba_marseille","lat":43.29551,"lon":5.42283,"is_reserved":false,"is_disabled":false,"rental_uris":{"android":"levelo://app?vid=1dcb3730-1dbc-4158-85c7-65de2c8645d2","ios":"levelo://app?vid=1dcb3730-1dbc-4158-85c7-65de2c8645d2"},"vehicle_type_id":"4","last_reported":1733923252,"current_range_meters":36800,"station_id":"ce4bhph2rcd13ifvqhdg","pricing_plan_id":"cebpf4jnsgd1na2vs0mg"},{"bike_id":"69cbca89-5862-49d5-b525-87f1dabcd7eb","system_id":"levelo_inurba_marseille","lat":43.29629,"lon":5.3772,"is_reserved":false,"is_disabled":false,"rental_uris":{"android":"levelo://app?vid=69cbca89-5862-49d5-b525-87f1dabcd7eb","ios":"levelo://app?vid=69cbca89-5862-49d5-b525-87f1dabcd7eb"},"vehicle_type_id":"4","last_reported":1733923252,"current_range_meters":30800,"station_id":"ce4bgi92rcd13ifvqb90","pricing_plan_id":"cebpf4jnsgd1na2vs0mg"},{"bike_id":"cb6b98a1-43d7-4238-80c2-749167267ffc","system_id":"levelo_inurba_marseille","lat":43.30111,"lon":5.37441,"is_reserved":false,"is_disabled":false,"rental_uris":{"android":"levelo://app?vid=cb6b98a1-43d7-4238-80c2-749167267ffc","ios":"levelo://app?vid=cb6b98a1-43d7-4238-80c2-749167267ffc"},"vehicle_type_id":"4","last_reported":1733923252,"current_range_meters":38400,"station_id":"ce4bgs92rcd13ifvqcc0","pricing_plan_id":"cebpf4jnsgd1na2vs0mg"},{"bike_id":"e966d2c7-c9e1-4cb1-9a39-6325607b0be4","system_id":"levelo_inurba_marseille","lat":43.337444,"lon":5.374475,"is_reserved":false,"is_disabled":true,"rental_uris":{"android":"levelo://app?vid=e966d2c7-c9e1-4cb1-9a39-6325607b0be4","ios":"levelo://app?vid=e966d2c7-c9e1-4cb1-9a39-6325607b0be4"},"vehicle_type_id":"4","last_reported":1733923252,"current_range_meters":0,"station_id":"","pricing_plan_id":"cebpf4jnsgd1na2vs0mg"},{"bike_id":"2959d5d4-47f0-4d97-9053-e5d67719a7f5","system_id":"levelo_inurba_marseille","lat":43.24378,"lon":5.37087,"is_reserved":false,"is_disabled":false,"rental_uris":{"android":"levelo://app?vid=2959d5d4-47f0-4d97-9053-e5d67719a7f5","ios":"levelo://app?vid=2959d5d4-47f0-4d97-9053-e5d67719a7f5"},"vehicle_type_id":"4","last_reported":1733923252,"current_range_meters":36400,"station_id":"ce4bhhh2rcd13ifvqfk0","pricing_plan_id":"cebpf4jnsgd1na2vs0mg"},{"bike_id":"8e5b419b-3f4f-43c8-a354-6be99079fa49","system_id":"levelo_inurba_marseille","lat":43.2834,"lon":5.38078,"is_reserved":false,"is_disabled":false,"rental_uris":{"android":"levelo://app?vid=8e5b419b-3f4f-43c8-a354-6be99079fa49","ios":"levelo://app?vid=8e5b419b-3f4f-43c8-a354-6be99079fa49"},"vehicle_type_id":"4","last_reported":1733923252,"current_range_meters":10000,"station_id":"ce4bh412rcd13ifvqdr0","pricing_plan_id":"cebpf4jnsgd1na2vs0mg"},{"bike_id":"f0a4f587-2333-4a7a-8819-09121e495e1b","system_id":"levelo_inurba_marseille","lat":43.22923,"lon":5.35382,"is_reserved":false,"is_disabled":false,"rental_uris":{"android":"levelo://app?vid=f0a4f587-2333-4a7a-8819-09121e495e1b","ios":"levelo://app?vid=f0a4f587-2333-4a7a-8819-09121e495e1b"},"vehicle_type_id":"4","last_reported":1733923252,"current_range_meters":14000,"station_id":"cpo3532slgdg3j2ikp40","pricing_plan_id":"cebpf4jnsgd1na2vs0mg"},{"bike_id":"9c064e71-dc3d-4f5d-85cf-2f30028daf7c","system_id":"levelo_inurba_marseille","lat":43.3095,"lon":5.3902,"is_reserved":false,"is_disabled":false,"rental_uris":{"android":"levelo://app?vid=9c064e71-dc3d-4f5d-85cf-2f30028daf7c","ios":"levelo://app?vid=9c064e71-dc3d-4f5d-85cf-2f30028daf7c"},"vehicle_type_id":"4","last_reported":1733923252,"current_range_meters":30800,"station_id":"ce4bgup2rcd13ifvqco0","pricing_plan_id":"cebpf4jnsgd1na2vs0mg"},{"bike_id":"17f59de1-b3ce-4e3a-95ec-402199b35e46","system_id":"levelo_inurba_marseille","lat":43.24646,"lon":5.38903,"is_reserved":false,"is_disabled":false,"rental_uris":{"android":"levelo://app?vid=17f59de1-b3ce-4e3a-95ec-402199b35e46","ios":"levelo://app?vid=17f59de1-b3ce-4e3a-95ec-402199b35e46"},"vehicle_type_id":"4","last_reported":1733923252,"current_range_meters":31200,"station_id":"ce4bhg12rcd13ifvqf60","pricing_plan_id":"cebpf4jnsgd1na2vs0mg"},{"bike_id":"7b6aa142-ca01-40d6-b323-bb3f666c0a85","system_id":"levelo_inurba_marseille","lat":43.28481,"lon":5.38412,"is_reserved":false,"is_disabled":true,"rental_uris":{"android":"levelo://app?vid=7b6aa142-ca01-40d6-b323-bb3f666c0a85","ios":"levelo://app?vid=7b6aa142-ca01-40d6-b323-bb3f666c0a85"},"vehicle_type_id":"4","last_reported":1733923252,"current_range_meters":400,"station_id":"ce4bh512rcd13ifvqe3g","pricing_plan_id":"cebpf4jnsgd1na2vs0mg"},{"bike_id":"ba8161c7-4a94-40c7-998e-0e585e2c4d1b","system_id":"levelo_inurba_marseille","lat":43.27068,"lon":5.4228,"is_reserved":false,"is_disabled":false,"rental_uris":{"android":"levelo://app?vid=ba8161c7-4a94-40c7-998e-0e585e2c4d1b","ios":"levelo://app?vid=ba8161c7-4a94-40c7-998e-0e585e2c4d1b"},"vehicle_type_id":"4","last_reported":1733923252,"current_range_meters":37600,"station_id":"ce4bhk92rcd13ifvqgb0","pricing_plan_id":"cebpf4jnsgd1na2vs0mg"},{"bike_id":"44eeb44f-4cc1-44a5-af5a-bab86f160608","system_id":"levelo_inurba_marseille","lat":43.30785,"lon":5.37645,"is_reserved":false,"is_disabled":false,"rental_uris":{"android":"levelo://app?vid=44eeb44f-4cc1-44a5-af5a-bab86f160608","ios":"levelo://app?vid=44eeb44f-4cc1-44a5-af5a-bab86f160608"},"vehicle_type_id":"4","last_reported":1733923252,"current_range_meters":18800,"station_id":"ce4bgv92rcd13ifvqcq0","pricing_plan_id":"cebpf4jnsgd1na2vs0mg"},{"bike_id":"fe4d47c1-dfb5-4e68-bfe4-126efd20c0c3","system_id":"levelo_inurba_marseille","lat":43.30723,"lon":5.37384,"is_reserved":false,"is_disabled":false,"rental_uris":{"android":"levelo://app?vid=fe4d47c1-dfb5-4e68-bfe4-126efd20c0c3","ios":"levelo://app?vid=fe4d47c1-dfb5-4e68-bfe4-126efd20c0c3"},"vehicle_type_id":"4","last_reported":1733923252,"current_range_meters":26000,"station_id":"","pricing_plan_id":"cebpf4jnsgd1na2vs0mg"},{"bike_id":"05a25ed4-2e6a-4c18-bb82-1b033bbb0d61","system_id":"levelo_inurba_marseille","lat":43.27571,"lon":5.40891,"is_reserved":false,"is_disabled":true,"rental_uris":{"android":"levelo://app?vid=05a25ed4-2e6a-4c18-bb82-1b033bbb0d61","ios":"levelo://app?vid=05a25ed4-2e6a-4c18-bb82-1b033bbb0d61"},"vehicle_type_id":"4","last_reported":1733923252,"current_range_meters":1200,"station_id":"","pricing_plan_id":"cebpf4jnsgd1na2vs0mg"},{"bike_id":"587ab355-fbe7-47eb-becd-0127e923d688","system_id":"levelo_inurba_marseille","lat":43.26193,"lon":5.37449,"is_reserved":false,"is_disabled":false,"rental_uris":{"android":"levelo://app?vid=587ab355-fbe7-47eb-becd-0127e923d688","ios":"levelo://app?vid=587ab355-fbe7-47eb-becd-0127e923d688"},"vehicle_type_id":"4","last_reported":1733923252,"current_range_meters":4800,"station_id":"ce4bhgp2rcd13ifvqfc0","pricing_plan_id":"cebpf4jnsgd1na2vs0mg"},{"bike_id":"6ff14452-c0da-4450-a686-37d47545a0bd","system_id":"levelo_inurba_marseille","lat":43.26036,"lon":5.37558,"is_reserved":false,"is_disabled":false,"rental_uris":{"android":"levelo://app?vid=6ff14452-c0da-4450-a686-37d47545a0bd","ios":"levelo://app?vid=6ff14452-c0da-4450-a686-37d47545a0bd"},"vehicle_type_id":"4","last_reported":1733923252,"current_range_meters":36400,"station_id":"ce4bhgh2rcd13ifvqfa0","pricing_plan_id":"cebpf4jnsgd1na2vs0mg"},{"bike_id":"2b86a06b-0c45-476d-bae4-74fd0f12286a","system_id":"levelo_inurba_marseille","lat":43.23191,"lon":5.35556,"is_reserved":false,"is_disabled":false,"rental_uris":{"android":"levelo://app?vid=2b86a06b-0c45-476d-bae4-74fd0f12286a","ios":"levelo://app?vid=2b86a06b-0c45-476d-bae4-74fd0f12286a"},"vehicle_type_id":"4","last_reported":1733923252,"current_range_meters":38800,"station_id":"ce4bhu92rcd13ifvqi70","pricing_plan_id":"cebpf4jnsgd1na2vs0mg"},{"bike_id":"097a41bf-6635-41a6-b7a7-1173cae29ada","system_id":"levelo_inurba_marseille","lat":43.22937,"lon":5.35373,"is_reserved":false,"is_disabled":false,"rental_uris":{"android":"levelo://app?vid=097a41bf-6635-41a6-b7a7-1173cae29ada","ios":"levelo://app?vid=097a41bf-6635-41a6-b7a7-1173cae29ada"},"vehicle_type_id":"4","last_reported":1733923252,"current_range_meters":38800,"station_id":"cpo3532slgdg3j2ikp40","pricing_plan_id":"cebpf4jnsgd1na2vs0mg"},{"bike_id":"a90ab59e-9775-4bc6-a3e9-285e464122de","system_id":"levelo_inurba_marseille","lat":43.24649,"lon":5.3889,"is_reserved":false,"is_disabled":false,"rental_uris":{"android":"levelo://app?vid=a90ab59e-9775-4bc6-a3e9-285e464122de","ios":"levelo://app?vid=a90ab59e-9775-4bc6-a3e9-285e464122de"},"vehicle_type_id":"4","last_reported":1733923252,"current_range_meters":38800,"station_id":"ce4bhg12rcd13ifvqf60","pricing_plan_id":"cebpf4jnsgd1na2vs0mg"},{"bike_id":"376f2b68-1f59-4b7d-9e21-d9e16058592a","system_id":"levelo_inurba_marseille","lat":43.31373,"lon":5.3673,"is_reserved":false,"is_disabled":false,"rental_uris":{"android":"levelo://app?vid=376f2b68-1f59-4b7d-9e21-d9e16058592a","ios":"levelo://app?vid=376f2b68-1f59-4b7d-9e21-d9e16058592a"},"vehicle_type_id":"4","last_reported":1733923252,"current_range_meters":39200,"station_id":"ce4bgr92rcd13ifvqc6g","pricing_plan_id":"cebpf4jnsgd1na2vs0mg"},{"bike_id":"b527fb3a-beee-43ab-ad58-3d1f3e829bc3","system_id":"levelo_inurba_marseille","lat":43.30533,"lon":5.36552,"is_reserved":false,"is_disabled":false,"rental_uris":{"android":"levelo://app?vid=b527fb3a-beee-43ab-ad58-3d1f3e829bc3","ios":"levelo://app?vid=b527fb3a-beee-43ab-ad58-3d1f3e829bc3"},"vehicle_type_id":"4","last_reported":1733923252,"current_range_meters":26800,"station_id":"ce4bgs12rcd13ifvqcag","pricing_plan_id":"cebpf4jnsgd1na2vs0mg"},{"bike_id":"ecbfdd4f-3cf1-4aaf-9870-6003b673629b","system_id":"levelo_inurba_marseille","lat":43.28809,"lon":5.35866,"is_reserved":false,"is_disabled":true,"rental_uris":{"android":"levelo://app?vid=ecbfdd4f-3cf1-4aaf-9870-6003b673629b","ios":"levelo://app?vid=ecbfdd4f-3cf1-4aaf-9870-6003b673629b"},"vehicle_type_id":"4","last_reported":1733923252,"current_range_meters":1600,"station_id":"ce4bhb12rcd13ifvqem0","pricing_plan_id":"cebpf4jnsgd1na2vs0mg"},{"bike_id":"e4cb8bd5-a099-4059-b35e-b61eff301434","system_id":"levelo_inurba_marseille","lat":43.2812,"lon":5.37855,"is_reserved":false,"is_disabled":false,"rental_uris":{"android":"levelo://app?vid=e4cb8bd5-a099-4059-b35e-b61eff301434","ios":"levelo://app?vid=e4cb8bd5-a099-4059-b35e-b61eff301434"},"vehicle_type_id":"4","last_reported":1733923252,"current_range_meters":38800,"station_id":"ce4bha12rcd13ifvqee0","pricing_plan_id":"cebpf4jnsgd1na2vs0mg"},{"bike_id":"0d514f68-29b7-4049-844a-493370863f98","system_id":"levelo_inurba_marseille","lat":43.28341,"lon":5.38111,"is_reserved":false,"is_disabled":true,"rental_uris":{"android":"levelo://app?vid=0d514f68-29b7-4049-844a-493370863f98","ios":"levelo://app?vid=0d514f68-29b7-4049-844a-493370863f98"},"vehicle_type_id":"4","last_reported":1733923252,"current_range_meters":25600,"station_id":"ce4bh412rcd13ifvqdr0","pricing_plan_id":"cebpf4jnsgd1na2vs0mg"},{"bike_id":"acd24011-2e36-48fd-a475-73f1f754a91c","system_id":"levelo_inurba_marseille","lat":43.29898,"lon":5.39759,"is_reserved":false,"is_disabled":true,"rental_uris":{"android":"levelo://app?vid=acd24011-2e36-48fd-a475-73f1f754a91c","ios":"levelo://app?vid=acd24011-2e36-48fd-a475-73f1f754a91c"},"vehicle_type_id":"4","last_reported":1733923252,"current_range_meters":38800,"station_id":"ce4bh0h2rcd13ifvqd50","pricing_plan_id":"cebpf4jnsgd1na2vs0mg"},{"bike_id":"ecea4a3f-9d5c-4d8c-b4fa-69645984925f","system_id":"levelo_inurba_marseille","lat":43.24994,"lon":5.38917,"is_reserved":false,"is_disabled":false,"rental_uris":{"android":"levelo://app?vid=ecea4a3f-9d5c-4d8c-b4fa-69645984925f","ios":"levelo://app?vid=ecea4a3f-9d5c-4d8c-b4fa-69645984925f"},"vehicle_type_id":"4","last_reported":1733923252,"current_range_meters":38400,"station_id":"ce4bhgp2rcd13ifvqfd0","pricing_plan_id":"cebpf4jnsgd1na2vs0mg"},{"bike_id":"59e13011-fa46-4381-bc6f-319b07779c96","system_id":"levelo_inurba_marseille","lat":43.28652,"lon":5.3636,"is_reserved":false,"is_disabled":true,"rental_uris":{"android":"levelo://app?vid=59e13011-fa46-4381-bc6f-319b07779c96","ios":"levelo://app?vid=59e13011-fa46-4381-bc6f-319b07779c96"},"vehicle_type_id":"4","last_reported":1733923252,"current_range_meters":37600,"station_id":"ce4bhah2rcd13ifvqej0","pricing_plan_id":"cebpf4jnsgd1na2vs0mg"},{"bike_id":"e352ab5d-4a37-440f-8624-42641e0723dd","system_id":"levelo_inurba_marseille","lat":43.24543,"lon":5.39527,"is_reserved":false,"is_disabled":false,"rental_uris":{"android":"levelo://app?vid=e352ab5d-4a37-440f-8624-42641e0723dd","ios":"levelo://app?vid=e352ab5d-4a37-440f-8624-42641e0723dd"},"vehicle_type_id":"4","last_reported":1733923252,"current_range_meters":22000,"station_id":"ce4bhlp2rcd13ifvqgjg","pricing_plan_id":"cebpf4jnsgd1na2vs0mg"},{"bike_id":"9a6253bb-0476-45c3-afc7-3df49d8ed73c","system_id":"levelo_inurba_marseille","lat":43.32528,"lon":5.4143,"is_reserved":false,"is_disabled":false,"rental_uris":{"android":"levelo://app?vid=9a6253bb-0476-45c3-afc7-3df49d8ed73c","ios":"levelo://app?vid=9a6253bb-0476-45c3-afc7-3df49d8ed73c"},"vehicle_type_id":"4","last_reported":1733923252,"current_range_meters":12000,"station_id":"ce4bhq12rcd13ifvqhhg","pricing_plan_id":"cebpf4jnsgd1na2vs0mg"},{"bike_id":"3c8863ec-71ea-493f-813a-831fdeafa962","system_id":"levelo_inurba_marseille","lat":43.29353,"lon":5.37854,"is_reserved":false,"is_disabled":false,"rental_uris":{"android":"levelo://app?vid=3c8863ec-71ea-493f-813a-831fdeafa962","ios":"levelo://app?vid=3c8863ec-71ea-493f-813a-831fdeafa962"},"vehicle_type_id":"4","last_reported":1733923252,"current_range_meters":36800,"station_id":"ce4bgjh2rcd13ifvqbf0","pricing_plan_id":"cebpf4jnsgd1na2vs0mg"},{"bike_id":"e2a77f5d-1d63-4243-bf72-8b9ec30686b1","system_id":"levelo_inurba_marseille","lat":43.28705,"lon":5.3791,"is_reserved":false,"is_disabled":true,"rental_uris":{"android":"levelo://app?vid=e2a77f5d-1d63-4243-bf72-8b9ec30686b1","ios":"levelo://app?vid=e2a77f5d-1d63-4243-bf72-8b9ec30686b1"},"vehicle_type_id":"4","last_reported":1733923252,"current_range_meters":36800,"station_id":"ce4bh9p2rcd13ifvqec0","pricing_plan_id":"cebpf4jnsgd1na2vs0mg"},{"bike_id":"ff7d4410-1909-4554-8c3a-3b031f5075e0","system_id":"levelo_inurba_marseille","lat":43.30442,"lon":5.3792,"is_reserved":false,"is_disabled":true,"rental_uris":{"android":"levelo://app?vid=ff7d4410-1909-4554-8c3a-3b031f5075e0","ios":"levelo://app?vid=ff7d4410-1909-4554-8c3a-3b031f5075e0"},"vehicle_type_id":"4","last_reported":1733923252,"current_range_meters":0,"station_id":"ce4bgup2rcd13ifvqcn0","pricing_plan_id":"cebpf4jnsgd1na2vs0mg"},{"bike_id":"da5aa15d-01ed-457e-a3a2-68eb9cdb2dfc","system_id":"levelo_inurba_marseille","lat":43.31995,"lon":5.381,"is_reserved":false,"is_disabled":false,"rental_uris":{"android":"levelo://app?vid=da5aa15d-01ed-457e-a3a2-68eb9cdb2dfc","ios":"levelo://app?vid=da5aa15d-01ed-457e-a3a2-68eb9cdb2dfc"},"vehicle_type_id":"4","last_reported":1733923252,"current_range_meters":16000,"station_id":"ce4bhr12rcd13ifvqhpg","pricing_plan_id":"cebpf4jnsgd1na2vs0mg"},{"bike_id":"ba3a2f7b-6f5b-423a-b0d6-6de8a02d7b6f","system_id":"levelo_inurba_marseille","lat":43.25865,"lon":5.39902,"is_reserved":false,"is_disabled":false,"rental_uris":{"android":"levelo://app?vid=ba3a2f7b-6f5b-423a-b0d6-6de8a02d7b6f","ios":"levelo://app?vid=ba3a2f7b-6f5b-423a-b0d6-6de8a02d7b6f"},"vehicle_type_id":"4","last_reported":1733923252,"current_range_meters":32400,"station_id":"ce4bhl92rcd13ifvqghg","pricing_plan_id":"cebpf4jnsgd1na2vs0mg"},{"bike_id":"03114dea-01a7-49f5-bdd8-59b8b0f022b6","system_id":"levelo_inurba_marseille","lat":43.29965,"lon":5.37166,"is_reserved":false,"is_disabled":false,"rental_uris":{"android":"levelo://app?vid=03114dea-01a7-49f5-bdd8-59b8b0f022b6","ios":"levelo://app?vid=03114dea-01a7-49f5-bdd8-59b8b0f022b6"},"vehicle_type_id":"4","last_reported":1733923252,"current_range_meters":26000,"station_id":"ce4bgr92rcd13ifvqc7g","pricing_plan_id":"cebpf4jnsgd1na2vs0mg"},{"bike_id":"2eedbb18-eb6a-4fa1-8897-f77e911ff285","system_id":"levelo_inurba_marseille","lat":43.32546,"lon":5.41438,"is_reserved":false,"is_disabled":false,"rental_uris":{"android":"levelo://app?vid=2eedbb18-eb6a-4fa1-8897-f77e911ff285","ios":"levelo://app?vid=2eedbb18-eb6a-4fa1-8897-f77e911ff285"},"vehicle_type_id":"4","last_reported":1733923252,"current_range_meters":38800,"station_id":"ce4bhq12rcd13ifvqhhg","pricing_plan_id":"cebpf4jnsgd1na2vs0mg"},{"bike_id":"a66c4b95-337e-4b9a-950c-e8c8d8e7a3a1","system_id":"levelo_inurba_marseille","lat":43.324799,"lon":5.365716,"is_reserved":false,"is_disabled":true,"rental_uris":{"android":"levelo://app?vid=a66c4b95-337e-4b9a-950c-e8c8d8e7a3a1","ios":"levelo://app?vid=a66c4b95-337e-4b9a-950c-e8c8d8e7a3a1"},"vehicle_type_id":"4","last_reported":1733923252,"current_range_meters":0,"station_id":"","pricing_plan_id":"cebpf4jnsgd1na2vs0mg"},{"bike_id":"b8a8e903-358c-4853-81b0-e99aeaec8699","system_id":"levelo_inurba_marseille","lat":43.241633,"lon":5.363998,"is_reserved":false,"is_disabled":false,"rental_uris":{"android":"levelo://app?vid=b8a8e903-358c-4853-81b0-e99aeaec8699","ios":"levelo://app?vid=b8a8e903-358c-4853-81b0-e99aeaec8699"},"vehicle_type_id":"4","last_reported":1733923252,"current_range_meters":26000,"station_id":"cpo36qri1sfpv3e86is0","pricing_plan_id":"cebpf4jnsgd1na2vs0mg"},{"bike_id":"2ed7839b-5815-46ec-8288-ac8ac565f4e7","system_id":"levelo_inurba_marseille","lat":43.3372,"lon":5.39179,"is_reserved":false,"is_disabled":false,"rental_uris":{"android":"levelo://app?vid=2ed7839b-5815-46ec-8288-ac8ac565f4e7","ios":"levelo://app?vid=2ed7839b-5815-46ec-8288-ac8ac565f4e7"},"vehicle_type_id":"4","last_reported":1733923252,"current_range_meters":38000,"station_id":"ce4bhr92rcd13ifvqhsg","pricing_plan_id":"cebpf4jnsgd1na2vs0mg"},{"bike_id":"bfc76370-fa16-482e-83b3-587225c23f25","system_id":"levelo_inurba_marseille","lat":43.28956,"lon":5.36588,"is_reserved":false,"is_disabled":false,"rental_uris":{"android":"levelo://app?vid=bfc76370-fa16-482e-83b3-587225c23f25","ios":"levelo://app?vid=bfc76370-fa16-482e-83b3-587225c23f25"},"vehicle_type_id":"4","last_reported":1733923252,"current_range_meters":38800,"station_id":"ce4bhap2rcd13ifvqek0","pricing_plan_id":"cebpf4jnsgd1na2vs0mg"},{"bike_id":"78446110-5bc9-4782-9951-0004299f66bc","system_id":"levelo_inurba_marseille","lat":43.24144,"lon":5.36429,"is_reserved":false,"is_disabled":false,"rental_uris":{"android":"levelo://app?vid=78446110-5bc9-4782-9951-0004299f66bc","ios":"levelo://app?vid=78446110-5bc9-4782-9951-0004299f66bc"},"vehicle_type_id":"4","last_reported":1733923252,"current_range_meters":32000,"station_id":"cpo36qri1sfpv3e86is0","pricing_plan_id":"cebpf4jnsgd1na2vs0mg"},{"bike_id":"68e9f2e8-7f58-4282-a6a3-bce0647110f9","system_id":"levelo_inurba_marseille","lat":43.2396,"lon":5.3663,"is_reserved":false,"is_disabled":false,"rental_uris":{"android":"levelo://app?vid=68e9f2e8-7f58-4282-a6a3-bce0647110f9","ios":"levelo://app?vid=68e9f2e8-7f58-4282-a6a3-bce0647110f9"},"vehicle_type_id":"4","last_reported":1733923252,"current_range_meters":22400,"station_id":"ce4bhi12rcd13ifvqfp0","pricing_plan_id":"cebpf4jnsgd1na2vs0mg"},{"bike_id":"b9dff6d2-4a4a-4c29-8dc1-17c8b7beb2e0","system_id":"levelo_inurba_marseille","lat":43.30963,"lon":5.39023,"is_reserved":false,"is_disabled":false,"rental_uris":{"android":"levelo://app?vid=b9dff6d2-4a4a-4c29-8dc1-17c8b7beb2e0","ios":"levelo://app?vid=b9dff6d2-4a4a-4c29-8dc1-17c8b7beb2e0"},"vehicle_type_id":"4","last_reported":1733923252,"current_range_meters":38800,"station_id":"ce4bgup2rcd13ifvqco0","pricing_plan_id":"cebpf4jnsgd1na2vs0mg"},{"bike_id":"3c7d8956-07af-4408-ae94-63514d5e362d","system_id":"levelo_inurba_marseille","lat":43.24649,"lon":5.38908,"is_reserved":false,"is_disabled":false,"rental_uris":{"android":"levelo://app?vid=3c7d8956-07af-4408-ae94-63514d5e362d","ios":"levelo://app?vid=3c7d8956-07af-4408-ae94-63514d5e362d"},"vehicle_type_id":"4","last_reported":1733923252,"current_range_meters":39200,"station_id":"ce4bhg12rcd13ifvqf60","pricing_plan_id":"cebpf4jnsgd1na2vs0mg"},{"bike_id":"089f28aa-f5df-4829-81ad-55d7b094e527","system_id":"levelo_inurba_marseille","lat":43.2406,"lon":5.37768,"is_reserved":false,"is_disabled":false,"rental_uris":{"android":"levelo://app?vid=089f28aa-f5df-4829-81ad-55d7b094e527","ios":"levelo://app?vid=089f28aa-f5df-4829-81ad-55d7b094e527"},"vehicle_type_id":"4","last_reported":1733923252,"current_range_meters":38400,"station_id":"ce4bhnp2rcd13ifvqgvg","pricing_plan_id":"cebpf4jnsgd1na2vs0mg"},{"bike_id":"283a5610-2280-4861-ac18-a5b90ef7ea36","system_id":"levelo_inurba_marseille","lat":43.32658,"lon":5.40991,"is_reserved":false,"is_disabled":false,"rental_uris":{"android":"levelo://app?vid=283a5610-2280-4861-ac18-a5b90ef7ea36","ios":"levelo://app?vid=283a5610-2280-4861-ac18-a5b90ef7ea36"},"vehicle_type_id":"4","last_reported":1733923252,"current_range_meters":38000,"station_id":"ce4bhpp2rcd13ifvqhgg","pricing_plan_id":"cebpf4jnsgd1na2vs0mg"},{"bike_id":"24458f39-080f-419e-bcea-bfe1005d81b0","system_id":"levelo_inurba_marseille","lat":43.26554,"lon":5.37287,"is_reserved":false,"is_disabled":false,"rental_uris":{"android":"levelo://app?vid=24458f39-080f-419e-bcea-bfe1005d81b0","ios":"levelo://app?vid=24458f39-080f-419e-bcea-bfe1005d81b0"},"vehicle_type_id":"4","last_reported":1733923252,"current_range_meters":24800,"station_id":"ce4bhg12rcd13ifvqf70","pricing_plan_id":"cebpf4jnsgd1na2vs0mg"},{"bike_id":"36e3167a-8293-418c-b384-6536090e3648","system_id":"levelo_inurba_marseille","lat":43.23957,"lon":5.36633,"is_reserved":false,"is_disabled":false,"rental_uris":{"android":"levelo://app?vid=36e3167a-8293-418c-b384-6536090e3648","ios":"levelo://app?vid=36e3167a-8293-418c-b384-6536090e3648"},"vehicle_type_id":"4","last_reported":1733923252,"current_range_meters":38400,"station_id":"ce4bhi12rcd13ifvqfp0","pricing_plan_id":"cebpf4jnsgd1na2vs0mg"},{"bike_id":"97bbbaf5-9a2e-483d-9312-63f8ea177b90","system_id":"levelo_inurba_marseille","lat":43.30139,"lon":5.3741,"is_reserved":false,"is_disabled":false,"rental_uris":{"android":"levelo://app?vid=97bbbaf5-9a2e-483d-9312-63f8ea177b90","ios":"levelo://app?vid=97bbbaf5-9a2e-483d-9312-63f8ea177b90"},"vehicle_type_id":"4","last_reported":1733923252,"current_range_meters":18000,"station_id":"ce4bgs92rcd13ifvqcc0","pricing_plan_id":"cebpf4jnsgd1na2vs0mg"},{"bike_id":"5b0a19cf-627c-4500-b5bc-8b818bc56f6c","system_id":"levelo_inurba_marseille","lat":43.29565,"lon":5.37526,"is_reserved":false,"is_disabled":false,"rental_uris":{"android":"levelo://app?vid=5b0a19cf-627c-4500-b5bc-8b818bc56f6c","ios":"levelo://app?vid=5b0a19cf-627c-4500-b5bc-8b818bc56f6c"},"vehicle_type_id":"4","last_reported":1733923252,"current_range_meters":38800,"station_id":"ce4bgh92rcd13ifvqb50","pricing_plan_id":"cebpf4jnsgd1na2vs0mg"},{"bike_id":"9de685e0-ba91-4e9f-9fcf-9f463cc6c282","system_id":"levelo_inurba_marseille","lat":43.30915,"lon":5.37162,"is_reserved":false,"is_disabled":false,"rental_uris":{"android":"levelo://app?vid=9de685e0-ba91-4e9f-9fcf-9f463cc6c282","ios":"levelo://app?vid=9de685e0-ba91-4e9f-9fcf-9f463cc6c282"},"vehicle_type_id":"4","last_reported":1733923252,"current_range_meters":4400,"station_id":"ce4bguh2rcd13ifvqckg","pricing_plan_id":"cebpf4jnsgd1na2vs0mg"},{"bike_id":"ab1c6a12-19ac-4afb-af5f-776c48efacd2","system_id":"levelo_inurba_marseille","lat":43.23189,"lon":5.35568,"is_reserved":false,"is_disabled":false,"rental_uris":{"android":"levelo://app?vid=ab1c6a12-19ac-4afb-af5f-776c48efacd2","ios":"levelo://app?vid=ab1c6a12-19ac-4afb-af5f-776c48efacd2"},"vehicle_type_id":"4","last_reported":1733923252,"current_range_meters":20000,"station_id":"ce4bhu92rcd13ifvqi70","pricing_plan_id":"cebpf4jnsgd1na2vs0mg"},{"bike_id":"2f827028-5d3f-4047-a1dd-6ad1d2f3b3a6","system_id":"levelo_inurba_marseille","lat":43.28932,"lon":5.36645,"is_reserved":false,"is_disabled":false,"rental_uris":{"android":"levelo://app?vid=2f827028-5d3f-4047-a1dd-6ad1d2f3b3a6","ios":"levelo://app?vid=2f827028-5d3f-4047-a1dd-6ad1d2f3b3a6"},"vehicle_type_id":"4","last_reported":1733923252,"current_range_meters":28800,"station_id":"ce4bhap2rcd13ifvqek0","pricing_plan_id":"cebpf4jnsgd1na2vs0mg"},{"bike_id":"8a2a88c2-141e-4ddf-8ddd-f8286e039c11","system_id":"levelo_inurba_marseille","lat":43.25495,"lon":5.37662,"is_reserved":false,"is_disabled":false,"rental_uris":{"android":"levelo://app?vid=8a2a88c2-141e-4ddf-8ddd-f8286e039c11","ios":"levelo://app?vid=8a2a88c2-141e-4ddf-8ddd-f8286e039c11"},"vehicle_type_id":"4","last_reported":1733923252,"current_range_meters":38800,"station_id":"ce4bhh12rcd13ifvqff0","pricing_plan_id":"cebpf4jnsgd1na2vs0mg"},{"bike_id":"81b6c4a9-91e3-4880-b813-0f09b303e51c","system_id":"levelo_inurba_marseille","lat":43.28408,"lon":5.37519,"is_reserved":false,"is_disabled":false,"rental_uris":{"android":"levelo://app?vid=81b6c4a9-91e3-4880-b813-0f09b303e51c","ios":"levelo://app?vid=81b6c4a9-91e3-4880-b813-0f09b303e51c"},"vehicle_type_id":"4","last_reported":1733923252,"current_range_meters":11200,"station_id":"ce4bh412rcd13ifvqds0","pricing_plan_id":"cebpf4jnsgd1na2vs0mg"},{"bike_id":"235a27c5-32a3-4841-a68d-f35363ff4e8b","system_id":"levelo_inurba_marseille","lat":43.26555,"lon":5.37278,"is_reserved":false,"is_disabled":false,"rental_uris":{"android":"levelo://app?vid=235a27c5-32a3-4841-a68d-f35363ff4e8b","ios":"levelo://app?vid=235a27c5-32a3-4841-a68d-f35363ff4e8b"},"vehicle_type_id":"4","last_reported":1733923252,"current_range_meters":28000,"station_id":"ce4bhg12rcd13ifvqf70","pricing_plan_id":"cebpf4jnsgd1na2vs0mg"},{"bike_id":"fda630f2-b49c-4edb-82f5-a87f4ff6bfb5","system_id":"levelo_inurba_marseille","lat":43.2466,"lon":5.38164,"is_reserved":false,"is_disabled":false,"rental_uris":{"android":"levelo://app?vid=fda630f2-b49c-4edb-82f5-a87f4ff6bfb5","ios":"levelo://app?vid=fda630f2-b49c-4edb-82f5-a87f4ff6bfb5"},"vehicle_type_id":"4","last_reported":1733923252,"current_range_meters":38800,"station_id":"ce4bhih2rcd13ifvqfr0","pricing_plan_id":"cebpf4jnsgd1na2vs0mg"},{"bike_id":"a50c814f-db67-44ee-8e17-3276e8cc4f09","system_id":"levelo_inurba_marseille","lat":43.34141,"lon":5.40913,"is_reserved":false,"is_disabled":false,"rental_uris":{"android":"levelo://app?vid=a50c814f-db67-44ee-8e17-3276e8cc4f09","ios":"levelo://app?vid=a50c814f-db67-44ee-8e17-3276e8cc4f09"},"vehicle_type_id":"4","last_reported":1733923252,"current_range_meters":25200,"station_id":"ce4bhqh2rcd13ifvqhlg","pricing_plan_id":"cebpf4jnsgd1na2vs0mg"},{"bike_id":"285b8f17-d68e-4b4d-ad40-bd0e09d7c577","system_id":"levelo_inurba_marseille","lat":43.24648,"lon":5.38895,"is_reserved":false,"is_disabled":false,"rental_uris":{"android":"levelo://app?vid=285b8f17-d68e-4b4d-ad40-bd0e09d7c577","ios":"levelo://app?vid=285b8f17-d68e-4b4d-ad40-bd0e09d7c577"},"vehicle_type_id":"4","last_reported":1733923252,"current_range_meters":20800,"station_id":"ce4bhg12rcd13ifvqf60","pricing_plan_id":"cebpf4jnsgd1na2vs0mg"},{"bike_id":"3da93476-9d75-48f5-809e-7aed5a43e98a","system_id":"levelo_inurba_marseille","lat":43.25924,"lon":5.40913,"is_reserved":false,"is_disabled":false,"rental_uris":{"android":"levelo://app?vid=3da93476-9d75-48f5-809e-7aed5a43e98a","ios":"levelo://app?vid=3da93476-9d75-48f5-809e-7aed5a43e98a"},"vehicle_type_id":"4","last_reported":1733923252,"current_range_meters":26800,"station_id":"ce4bhm92rcd13ifvqglg","pricing_plan_id":"cebpf4jnsgd1na2vs0mg"},{"bike_id":"c3a91d8c-588a-40ca-bd64-a4c8d4b1b5b3","system_id":"levelo_inurba_marseille","lat":43.23075,"lon":5.35495,"is_reserved":false,"is_disabled":false,"rental_uris":{"android":"levelo://app?vid=c3a91d8c-588a-40ca-bd64-a4c8d4b1b5b3","ios":"levelo://app?vid=c3a91d8c-588a-40ca-bd64-a4c8d4b1b5b3"},"vehicle_type_id":"4","last_reported":1733923252,"current_range_meters":30800,"station_id":"cpo3342slgdg3j2ifvpg","pricing_plan_id":"cebpf4jnsgd1na2vs0mg"},{"bike_id":"eb3701d5-0c2b-4e17-b89f-3436e512ea59","system_id":"levelo_inurba_marseille","lat":43.24167,"lon":5.39712,"is_reserved":false,"is_disabled":false,"rental_uris":{"android":"levelo://app?vid=eb3701d5-0c2b-4e17-b89f-3436e512ea59","ios":"levelo://app?vid=eb3701d5-0c2b-4e17-b89f-3436e512ea59"},"vehicle_type_id":"4","last_reported":1733923252,"current_range_meters":24000,"station_id":"ce4bhn12rcd13ifvqgpg","pricing_plan_id":"cebpf4jnsgd1na2vs0mg"},{"bike_id":"881524d6-1030-4172-9fdc-ca6a0fc65d03","system_id":"levelo_inurba_marseille","lat":43.25913,"lon":5.40914,"is_reserved":false,"is_disabled":false,"rental_uris":{"android":"levelo://app?vid=881524d6-1030-4172-9fdc-ca6a0fc65d03","ios":"levelo://app?vid=881524d6-1030-4172-9fdc-ca6a0fc65d03"},"vehicle_type_id":"4","last_reported":1733923252,"current_range_meters":25200,"station_id":"ce4bhm92rcd13ifvqglg","pricing_plan_id":"cebpf4jnsgd1na2vs0mg"},{"bike_id":"44d51fde-212f-4eb7-b1c0-456cea9c506c","system_id":"levelo_inurba_marseille","lat":43.26215,"lon":5.37473,"is_reserved":false,"is_disabled":false,"rental_uris":{"android":"levelo://app?vid=44d51fde-212f-4eb7-b1c0-456cea9c506c","ios":"levelo://app?vid=44d51fde-212f-4eb7-b1c0-456cea9c506c"},"vehicle_type_id":"4","last_reported":1733923252,"current_range_meters":37600,"station_id":"ce4bhgp2rcd13ifvqfc0","pricing_plan_id":"cebpf4jnsgd1na2vs0mg"},{"bike_id":"ee0186ce-5ee6-443a-aa7c-853a1e294ff2","system_id":"levelo_inurba_marseille","lat":43.29606,"lon":5.37716,"is_reserved":false,"is_disabled":true,"rental_uris":{"android":"levelo://app?vid=ee0186ce-5ee6-443a-aa7c-853a1e294ff2","ios":"levelo://app?vid=ee0186ce-5ee6-443a-aa7c-853a1e294ff2"},"vehicle_type_id":"4","last_reported":1733923252,"current_range_meters":24000,"station_id":"ce4bgi92rcd13ifvqb90","pricing_plan_id":"cebpf4jnsgd1na2vs0mg"},{"bike_id":"78899a8f-cebd-461d-b2aa-a490349a7945","system_id":"levelo_inurba_marseille","lat":43.31499,"lon":5.37308,"is_reserved":false,"is_disabled":false,"rental_uris":{"android":"levelo://app?vid=78899a8f-cebd-461d-b2aa-a490349a7945","ios":"levelo://app?vid=78899a8f-cebd-461d-b2aa-a490349a7945"},"vehicle_type_id":"4","last_reported":1733923252,"current_range_meters":36400,"station_id":"ce4bgt12rcd13ifvqcd0","pricing_plan_id":"cebpf4jnsgd1na2vs0mg"},{"bike_id":"e8fd4573-cd0a-4332-a1bc-7df1db67a34d","system_id":"levelo_inurba_marseille","lat":43.295787,"lon":5.375013,"is_reserved":false,"is_disabled":false,"rental_uris":{"android":"levelo://app?vid=e8fd4573-cd0a-4332-a1bc-7df1db67a34d","ios":"levelo://app?vid=e8fd4573-cd0a-4332-a1bc-7df1db67a34d"},"vehicle_type_id":"4","last_reported":1733923252,"current_range_meters":38800,"station_id":"ce4bgh92rcd13ifvqb50","pricing_plan_id":"cebpf4jnsgd1na2vs0mg"},{"bike_id":"922b1f7a-1f93-498e-90f4-e7a54d8a9ec1","system_id":"levelo_inurba_marseille","lat":43.23061,"lon":5.3549,"is_reserved":false,"is_disabled":false,"rental_uris":{"android":"levelo://app?vid=922b1f7a-1f93-498e-90f4-e7a54d8a9ec1","ios":"levelo://app?vid=922b1f7a-1f93-498e-90f4-e7a54d8a9ec1"},"vehicle_type_id":"4","last_reported":1733923252,"current_range_meters":30800,"station_id":"cpo3342slgdg3j2ifvpg","pricing_plan_id":"cebpf4jnsgd1na2vs0mg"},{"bike_id":"c52476ce-10e7-4f26-a146-7fe32616bd28","system_id":"levelo_inurba_marseille","lat":43.2909,"lon":5.38132,"is_reserved":false,"is_disabled":false,"rental_uris":{"android":"levelo://app?vid=c52476ce-10e7-4f26-a146-7fe32616bd28","ios":"levelo://app?vid=c52476ce-10e7-4f26-a146-7fe32616bd28"},"vehicle_type_id":"4","last_reported":1733923252,"current_range_meters":24000,"station_id":"ce4bh512rcd13ifvqe2g","pricing_plan_id":"cebpf4jnsgd1na2vs0mg"},{"bike_id":"c1b9b931-540c-4384-83ce-80601be836f7","system_id":"levelo_inurba_marseille","lat":43.29219,"lon":5.36059,"is_reserved":false,"is_disabled":false,"rental_uris":{"android":"levelo://app?vid=c1b9b931-540c-4384-83ce-80601be836f7","ios":"levelo://app?vid=c1b9b931-540c-4384-83ce-80601be836f7"},"vehicle_type_id":"4","last_reported":1733923252,"current_range_meters":36400,"station_id":"ce4bhbh2rcd13ifvqeqg","pricing_plan_id":"cebpf4jnsgd1na2vs0mg"},{"bike_id":"4f515456-ddcc-4d0c-8899-e0b1ea8475c1","system_id":"levelo_inurba_marseille","lat":43.28081,"lon":5.39665,"is_reserved":false,"is_disabled":false,"rental_uris":{"android":"levelo://app?vid=4f515456-ddcc-4d0c-8899-e0b1ea8475c1","ios":"levelo://app?vid=4f515456-ddcc-4d0c-8899-e0b1ea8475c1"},"vehicle_type_id":"4","last_reported":1733923252,"current_range_meters":38000,"station_id":"ce4bho12rcd13ifvqh2g","pricing_plan_id":"cebpf4jnsgd1na2vs0mg"},{"bike_id":"ddaf425f-0b35-49c2-a4a7-24dfe0c7d446","system_id":"levelo_inurba_marseille","lat":43.23146,"lon":5.4373,"is_reserved":false,"is_disabled":true,"rental_uris":{"android":"levelo://app?vid=ddaf425f-0b35-49c2-a4a7-24dfe0c7d446","ios":"levelo://app?vid=ddaf425f-0b35-49c2-a4a7-24dfe0c7d446"},"vehicle_type_id":"4","last_reported":1733923252,"current_range_meters":0,"station_id":"ce4bhmp2rcd13ifvqgog","pricing_plan_id":"cebpf4jnsgd1na2vs0mg"},{"bike_id":"681ff763-33e6-432b-ac11-d93b153dd8c6","system_id":"levelo_inurba_marseille","lat":43.28432,"lon":5.39186,"is_reserved":false,"is_disabled":false,"rental_uris":{"android":"levelo://app?vid=681ff763-33e6-432b-ac11-d93b153dd8c6","ios":"levelo://app?vid=681ff763-33e6-432b-ac11-d93b153dd8c6"},"vehicle_type_id":"4","last_reported":1733923252,"current_range_meters":38800,"station_id":"ce4bhoh2rcd13ifvqh5g","pricing_plan_id":"cebpf4jnsgd1na2vs0mg"},{"bike_id":"2f3e740d-607a-419d-8eca-14438d0834ab","system_id":"levelo_inurba_marseille","lat":43.29262,"lon":5.40914,"is_reserved":false,"is_disabled":false,"rental_uris":{"android":"levelo://app?vid=2f3e740d-607a-419d-8eca-14438d0834ab","ios":"levelo://app?vid=2f3e740d-607a-419d-8eca-14438d0834ab"},"vehicle_type_id":"4","last_reported":1733923252,"current_range_meters":32400,"station_id":"ce4bh192rcd13ifvqdc0","pricing_plan_id":"cebpf4jnsgd1na2vs0mg"},{"bike_id":"b99edf37-8db5-403f-94fa-20a3d66813b1","system_id":"levelo_inurba_marseille","lat":43.2857,"lon":5.39524,"is_reserved":false,"is_disabled":true,"rental_uris":{"android":"levelo://app?vid=b99edf37-8db5-403f-94fa-20a3d66813b1","ios":"levelo://app?vid=b99edf37-8db5-403f-94fa-20a3d66813b1"},"vehicle_type_id":"4","last_reported":1733923252,"current_range_meters":0,"station_id":"ce4bh292rcd13ifvqdg0","pricing_plan_id":"cebpf4jnsgd1na2vs0mg"},{"bike_id":"76a900bb-7dc9-4429-932c-6a92dbc95a5c","system_id":"levelo_inurba_marseille","lat":43.29536,"lon":5.42267,"is_reserved":false,"is_disabled":false,"rental_uris":{"android":"levelo://app?vid=76a900bb-7dc9-4429-932c-6a92dbc95a5c","ios":"levelo://app?vid=76a900bb-7dc9-4429-932c-6a92dbc95a5c"},"vehicle_type_id":"4","last_reported":1733923252,"current_range_meters":37600,"station_id":"ce4bhph2rcd13ifvqhdg","pricing_plan_id":"cebpf4jnsgd1na2vs0mg"},{"bike_id":"187c7542-8c74-4ba1-ae4b-824d5ef42b87","system_id":"levelo_inurba_marseille","lat":43.28109,"lon":5.37829,"is_reserved":false,"is_disabled":false,"rental_uris":{"android":"levelo://app?vid=187c7542-8c74-4ba1-ae4b-824d5ef42b87","ios":"levelo://app?vid=187c7542-8c74-4ba1-ae4b-824d5ef42b87"},"vehicle_type_id":"4","last_reported":1733923252,"current_range_meters":18800,"station_id":"ce4bha12rcd13ifvqee0","pricing_plan_id":"cebpf4jnsgd1na2vs0mg"},{"bike_id":"5956455f-aea4-4a11-84fe-b26e045bdde1","system_id":"levelo_inurba_marseille","lat":43.29359,"lon":5.37842,"is_reserved":false,"is_disabled":false,"rental_uris":{"android":"levelo://app?vid=5956455f-aea4-4a11-84fe-b26e045bdde1","ios":"levelo://app?vid=5956455f-aea4-4a11-84fe-b26e045bdde1"},"vehicle_type_id":"4","last_reported":1733923252,"current_range_meters":7200,"station_id":"ce4bgjh2rcd13ifvqbf0","pricing_plan_id":"cebpf4jnsgd1na2vs0mg"},{"bike_id":"8ffaa481-deec-48f6-9e30-c0bd791cbb75","system_id":"levelo_inurba_marseille","lat":43.28623,"lon":5.35102,"is_reserved":false,"is_disabled":false,"rental_uris":{"android":"levelo://app?vid=8ffaa481-deec-48f6-9e30-c0bd791cbb75","ios":"levelo://app?vid=8ffaa481-deec-48f6-9e30-c0bd791cbb75"},"vehicle_type_id":"4","last_reported":1733923252,"current_range_meters":26800,"station_id":"ce4bhch2rcd13ifvqeug","pricing_plan_id":"cebpf4jnsgd1na2vs0mg"},{"bike_id":"16492b5b-37d8-452f-8923-009b71c8397d","system_id":"levelo_inurba_marseille","lat":43.25578,"lon":5.38239,"is_reserved":false,"is_disabled":false,"rental_uris":{"android":"levelo://app?vid=16492b5b-37d8-452f-8923-009b71c8397d","ios":"levelo://app?vid=16492b5b-37d8-452f-8923-009b71c8397d"},"vehicle_type_id":"4","last_reported":1733923252,"current_range_meters":30400,"station_id":"ce4bhih2rcd13ifvqfs0","pricing_plan_id":"cebpf4jnsgd1na2vs0mg"},{"bike_id":"11df489c-50c5-425a-83f7-eabdec0ad821","system_id":"levelo_inurba_marseille","lat":43.27495,"lon":5.42455,"is_reserved":false,"is_disabled":true,"rental_uris":{"android":"levelo://app?vid=11df489c-50c5-425a-83f7-eabdec0ad821","ios":"levelo://app?vid=11df489c-50c5-425a-83f7-eabdec0ad821"},"vehicle_type_id":"4","last_reported":1733923252,"current_range_meters":0,"station_id":"ce4bhn92rcd13ifvqgrg","pricing_plan_id":"cebpf4jnsgd1na2vs0mg"},{"bike_id":"4d9975b2-8caf-4dfe-9202-9f11fbd0b727","system_id":"levelo_inurba_marseille","lat":43.29522,"lon":5.37501,"is_reserved":false,"is_disabled":true,"rental_uris":{"android":"levelo://app?vid=4d9975b2-8caf-4dfe-9202-9f11fbd0b727","ios":"levelo://app?vid=4d9975b2-8caf-4dfe-9202-9f11fbd0b727"},"vehicle_type_id":"4","last_reported":1733923252,"current_range_meters":22000,"station_id":"ce4bgkp2rcd13ifvqbmg","pricing_plan_id":"cebpf4jnsgd1na2vs0mg"},{"bike_id":"a5589391-a7e4-412b-9a87-f917b2322580","system_id":"levelo_inurba_marseille","lat":43.23063,"lon":5.35507,"is_reserved":false,"is_disabled":false,"rental_uris":{"android":"levelo://app?vid=a5589391-a7e4-412b-9a87-f917b2322580","ios":"levelo://app?vid=a5589391-a7e4-412b-9a87-f917b2322580"},"vehicle_type_id":"4","last_reported":1733923252,"current_range_meters":20800,"station_id":"cpo3342slgdg3j2ifvpg","pricing_plan_id":"cebpf4jnsgd1na2vs0mg"},{"bike_id":"6cc0d4fa-1597-4908-97bd-4249a4f0d6ef","system_id":"levelo_inurba_marseille","lat":43.29265,"lon":5.40155,"is_reserved":false,"is_disabled":true,"rental_uris":{"android":"levelo://app?vid=6cc0d4fa-1597-4908-97bd-4249a4f0d6ef","ios":"levelo://app?vid=6cc0d4fa-1597-4908-97bd-4249a4f0d6ef"},"vehicle_type_id":"4","last_reported":1733923252,"current_range_meters":0,"station_id":"ce4bh312rcd13ifvqdk0","pricing_plan_id":"cebpf4jnsgd1na2vs0mg"},{"bike_id":"3ce63487-f42b-418a-9b3f-bc2742aa1aea","system_id":"levelo_inurba_marseille","lat":43.257294,"lon":5.411094,"is_reserved":false,"is_disabled":false,"rental_uris":{"android":"levelo://app?vid=3ce63487-f42b-418a-9b3f-bc2742aa1aea","ios":"levelo://app?vid=3ce63487-f42b-418a-9b3f-bc2742aa1aea"},"vehicle_type_id":"4","last_reported":1733923252,"current_range_meters":29600,"station_id":"ce4bhkp2rcd13ifvqgd0","pricing_plan_id":"cebpf4jnsgd1na2vs0mg"},{"bike_id":"02b8551d-674d-4ff8-a7f6-6e131626695d","system_id":"levelo_inurba_marseille","lat":43.28926,"lon":5.36419,"is_reserved":false,"is_disabled":false,"rental_uris":{"android":"levelo://app?vid=02b8551d-674d-4ff8-a7f6-6e131626695d","ios":"levelo://app?vid=02b8551d-674d-4ff8-a7f6-6e131626695d"},"vehicle_type_id":"4","last_reported":1733923252,"current_range_meters":39200,"station_id":"ce4bhc92rcd13ifvqetg","pricing_plan_id":"cebpf4jnsgd1na2vs0mg"},{"bike_id":"fa15d8a2-28b7-498f-924f-f222c63b613c","system_id":"levelo_inurba_marseille","lat":43.2862,"lon":5.35107,"is_reserved":false,"is_disabled":true,"rental_uris":{"android":"levelo://app?vid=fa15d8a2-28b7-498f-924f-f222c63b613c","ios":"levelo://app?vid=fa15d8a2-28b7-498f-924f-f222c63b613c"},"vehicle_type_id":"4","last_reported":1733923252,"current_range_meters":0,"station_id":"ce4bhch2rcd13ifvqeug","pricing_plan_id":"cebpf4jnsgd1na2vs0mg"},{"bike_id":"a6a1ab3a-d66e-4e67-9272-c9c6f0d2850c","system_id":"levelo_inurba_marseille","lat":43.28918,"lon":5.36413,"is_reserved":false,"is_disabled":false,"rental_uris":{"android":"levelo://app?vid=a6a1ab3a-d66e-4e67-9272-c9c6f0d2850c","ios":"levelo://app?vid=a6a1ab3a-d66e-4e67-9272-c9c6f0d2850c"},"vehicle_type_id":"4","last_reported":1733923252,"current_range_meters":9600,"station_id":"ce4bhc92rcd13ifvqetg","pricing_plan_id":"cebpf4jnsgd1na2vs0mg"},{"bike_id":"08d6e4ca-9c70-4ce6-a251-da02ad6c3602","system_id":"levelo_inurba_marseille","lat":43.26255,"lon":5.39133,"is_reserved":false,"is_disabled":true,"rental_uris":{"android":"levelo://app?vid=08d6e4ca-9c70-4ce6-a251-da02ad6c3602","ios":"levelo://app?vid=08d6e4ca-9c70-4ce6-a251-da02ad6c3602"},"vehicle_type_id":"4","last_reported":1733923252,"current_range_meters":0,"station_id":"","pricing_plan_id":"cebpf4jnsgd1na2vs0mg"},{"bike_id":"f0c464ce-39f8-467b-b4d1-563eae914556","system_id":"levelo_inurba_marseille","lat":43.27616,"lon":5.36107,"is_reserved":false,"is_disabled":false,"rental_uris":{"android":"levelo://app?vid=f0c464ce-39f8-467b-b4d1-563eae914556","ios":"levelo://app?vid=f0c464ce-39f8-467b-b4d1-563eae914556"},"vehicle_type_id":"4","last_reported":1733923252,"current_range_meters":18800,"station_id":"ce4bgj92rcd13ifvqbe0","pricing_plan_id":"cebpf4jnsgd1na2vs0mg"},{"bike_id":"872290f2-fce4-4df8-9f05-b188d70223da","system_id":"levelo_inurba_marseille","lat":43.2803,"lon":5.36942,"is_reserved":false,"is_disabled":false,"rental_uris":{"android":"levelo://app?vid=872290f2-fce4-4df8-9f05-b188d70223da","ios":"levelo://app?vid=872290f2-fce4-4df8-9f05-b188d70223da"},"vehicle_type_id":"4","last_reported":1733923252,"current_range_meters":28800,"station_id":"ce4bha12rcd13ifvqef0","pricing_plan_id":"cebpf4jnsgd1na2vs0mg"},{"bike_id":"ef2e4d02-4e3d-4ae3-8e33-8bbac60b45f5","system_id":"levelo_inurba_marseille","lat":43.29774,"lon":5.38107,"is_reserved":false,"is_disabled":true,"rental_uris":{"android":"levelo://app?vid=ef2e4d02-4e3d-4ae3-8e33-8bbac60b45f5","ios":"levelo://app?vid=ef2e4d02-4e3d-4ae3-8e33-8bbac60b45f5"},"vehicle_type_id":"4","last_reported":1733923252,"current_range_meters":1600,"station_id":"ce4bgip2rcd13ifvqbb0","pricing_plan_id":"cebpf4jnsgd1na2vs0mg"},{"bike_id":"1ad2f202-ff7e-490c-9df3-6c3b06a498a9","system_id":"levelo_inurba_marseille","lat":43.33777,"lon":5.37431,"is_reserved":false,"is_disabled":false,"rental_uris":{"android":"levelo://app?vid=1ad2f202-ff7e-490c-9df3-6c3b06a498a9","ios":"levelo://app?vid=1ad2f202-ff7e-490c-9df3-6c3b06a498a9"},"vehicle_type_id":"4","last_reported":1733923252,"current_range_meters":26800,"station_id":"","pricing_plan_id":"cebpf4jnsgd1na2vs0mg"},{"bike_id":"ef43fa11-fb30-4803-b5c6-338c311062b8","system_id":"levelo_inurba_marseille","lat":43.311667,"lon":5.387253,"is_reserved":false,"is_disabled":false,"rental_uris":{"android":"levelo://app?vid=ef43fa11-fb30-4803-b5c6-338c311062b8","ios":"levelo://app?vid=ef43fa11-fb30-4803-b5c6-338c311062b8"},"vehicle_type_id":"4","last_reported":1733923252,"current_range_meters":35600,"station_id":"ce4bgv12rcd13ifvqcp0","pricing_plan_id":"cebpf4jnsgd1na2vs0mg"},{"bike_id":"c817a008-82e7-4827-b128-ad4b94c4a148","system_id":"levelo_inurba_marseille","lat":43.23964,"lon":5.3663,"is_reserved":false,"is_disabled":false,"rental_uris":{"android":"levelo://app?vid=c817a008-82e7-4827-b128-ad4b94c4a148","ios":"levelo://app?vid=c817a008-82e7-4827-b128-ad4b94c4a148"},"vehicle_type_id":"4","last_reported":1733923252,"current_range_meters":23200,"station_id":"ce4bhi12rcd13ifvqfp0","pricing_plan_id":"cebpf4jnsgd1na2vs0mg"},{"bike_id":"5fee01e0-a9ce-45a3-a2bf-0cdd473fe63e","system_id":"levelo_inurba_marseille","lat":43.3108,"lon":5.42433,"is_reserved":false,"is_disabled":false,"rental_uris":{"android":"levelo://app?vid=5fee01e0-a9ce-45a3-a2bf-0cdd473fe63e","ios":"levelo://app?vid=5fee01e0-a9ce-45a3-a2bf-0cdd473fe63e"},"vehicle_type_id":"4","last_reported":1733923252,"current_range_meters":16000,"station_id":"ce4bhp92rcd13ifvqhag","pricing_plan_id":"cebpf4jnsgd1na2vs0mg"},{"bike_id":"712c8ff0-b622-45a1-b70d-8e75c6101d19","system_id":"levelo_inurba_marseille","lat":43.30435,"lon":5.39747,"is_reserved":false,"is_disabled":false,"rental_uris":{"android":"levelo://app?vid=712c8ff0-b622-45a1-b70d-8e75c6101d19","ios":"levelo://app?vid=712c8ff0-b622-45a1-b70d-8e75c6101d19"},"vehicle_type_id":"4","last_reported":1733923252,"current_range_meters":22000,"station_id":"ce4bh092rcd13ifvqd20","pricing_plan_id":"cebpf4jnsgd1na2vs0mg"},{"bike_id":"3c4a8fd6-cb22-4fc1-baaf-ad407065215b","system_id":"levelo_inurba_marseille","lat":43.23194,"lon":5.35551,"is_reserved":false,"is_disabled":false,"rental_uris":{"android":"levelo://app?vid=3c4a8fd6-cb22-4fc1-baaf-ad407065215b","ios":"levelo://app?vid=3c4a8fd6-cb22-4fc1-baaf-ad407065215b"},"vehicle_type_id":"4","last_reported":1733923252,"current_range_meters":23200,"station_id":"ce4bhu92rcd13ifvqi70","pricing_plan_id":"cebpf4jnsgd1na2vs0mg"},{"bike_id":"66fcf980-b99d-47cd-92bd-a45b22419df9","system_id":"levelo_inurba_marseille","lat":43.33598,"lon":5.41036,"is_reserved":false,"is_disabled":false,"rental_uris":{"android":"levelo://app?vid=66fcf980-b99d-47cd-92bd-a45b22419df9","ios":"levelo://app?vid=66fcf980-b99d-47cd-92bd-a45b22419df9"},"vehicle_type_id":"4","last_reported":1733923252,"current_range_meters":30400,"station_id":"ce4bhqh2rcd13ifvqhmg","pricing_plan_id":"cebpf4jnsgd1na2vs0mg"},{"bike_id":"e26cabe1-b06d-463e-aab8-18f9f075ea99","system_id":"levelo_inurba_marseille","lat":43.30661,"lon":5.4009,"is_reserved":false,"is_disabled":false,"rental_uris":{"android":"levelo://app?vid=e26cabe1-b06d-463e-aab8-18f9f075ea99","ios":"levelo://app?vid=e26cabe1-b06d-463e-aab8-18f9f075ea99"},"vehicle_type_id":"4","last_reported":1733923252,"current_range_meters":34800,"station_id":"ce4bh112rcd13ifvqda0","pricing_plan_id":"cebpf4jnsgd1na2vs0mg"},{"bike_id":"46b2fdec-0870-4ae2-84dc-b1f57512351e","system_id":"levelo_inurba_marseille","lat":43.337444,"lon":5.374475,"is_reserved":false,"is_disabled":true,"rental_uris":{"android":"levelo://app?vid=46b2fdec-0870-4ae2-84dc-b1f57512351e","ios":"levelo://app?vid=46b2fdec-0870-4ae2-84dc-b1f57512351e"},"vehicle_type_id":"4","last_reported":1733923252,"current_range_meters":0,"station_id":"","pricing_plan_id":"cebpf4jnsgd1na2vs0mg"},{"bike_id":"fbc71618-f8a7-49e0-b90f-194ba1dacbf5","system_id":"levelo_inurba_marseille","lat":43.27806,"lon":5.40716,"is_reserved":false,"is_disabled":false,"rental_uris":{"android":"levelo://app?vid=fbc71618-f8a7-49e0-b90f-194ba1dacbf5","ios":"levelo://app?vid=fbc71618-f8a7-49e0-b90f-194ba1dacbf5"},"vehicle_type_id":"4","last_reported":1733923252,"current_range_meters":36800,"station_id":"ce4bhnh2rcd13ifvqgtg","pricing_plan_id":"cebpf4jnsgd1na2vs0mg"},{"bike_id":"fa35d2a3-74a0-4945-9b04-061824848898","system_id":"levelo_inurba_marseille","lat":43.31377,"lon":5.36693,"is_reserved":false,"is_disabled":false,"rental_uris":{"android":"levelo://app?vid=fa35d2a3-74a0-4945-9b04-061824848898","ios":"levelo://app?vid=fa35d2a3-74a0-4945-9b04-061824848898"},"vehicle_type_id":"4","last_reported":1733923252,"current_range_meters":18000,"station_id":"ce4bgr92rcd13ifvqc6g","pricing_plan_id":"cebpf4jnsgd1na2vs0mg"},{"bike_id":"87865f7d-5b8a-404d-b1b7-0e47324e1271","system_id":"levelo_inurba_marseille","lat":43.337444,"lon":5.374475,"is_reserved":false,"is_disabled":false,"rental_uris":{"android":"levelo://app?vid=87865f7d-5b8a-404d-b1b7-0e47324e1271","ios":"levelo://app?vid=87865f7d-5b8a-404d-b1b7-0e47324e1271"},"vehicle_type_id":"4","last_reported":1733923252,"current_range_meters":38400,"station_id":"","pricing_plan_id":"cebpf4jnsgd1na2vs0mg"},{"bike_id":"8b93c002-91eb-48ca-a3ec-47514fa292b3","system_id":"levelo_inurba_marseille","lat":43.30199,"lon":5.39452,"is_reserved":false,"is_disabled":true,"rental_uris":{"android":"levelo://app?vid=8b93c002-91eb-48ca-a3ec-47514fa292b3","ios":"levelo://app?vid=8b93c002-91eb-48ca-a3ec-47514fa292b3"},"vehicle_type_id":"4","last_reported":1733923252,"current_range_meters":400,"station_id":"ce4bh0p2rcd13ifvqd70","pricing_plan_id":"cebpf4jnsgd1na2vs0mg"},{"bike_id":"a75d3fb5-03a9-40bd-a1a8-05e40514d572","system_id":"levelo_inurba_marseille","lat":43.27168,"lon":5.40996,"is_reserved":false,"is_disabled":false,"rental_uris":{"android":"levelo://app?vid=a75d3fb5-03a9-40bd-a1a8-05e40514d572","ios":"levelo://app?vid=a75d3fb5-03a9-40bd-a1a8-05e40514d572"},"vehicle_type_id":"4","last_reported":1733923252,"current_range_meters":36800,"station_id":"ce4bhl12rcd13ifvqgf0","pricing_plan_id":"cebpf4jnsgd1na2vs0mg"},{"bike_id":"1e8fe257-e2eb-41d7-88a1-7895d02e6cad","system_id":"levelo_inurba_marseille","lat":43.27372,"lon":5.36266,"is_reserved":false,"is_disabled":false,"rental_uris":{"android":"levelo://app?vid=1e8fe257-e2eb-41d7-88a1-7895d02e6cad","ios":"levelo://app?vid=1e8fe257-e2eb-41d7-88a1-7895d02e6cad"},"vehicle_type_id":"4","last_reported":1733923252,"current_range_meters":29600,"station_id":"ce4bhbh2rcd13ifvqeo0","pricing_plan_id":"cebpf4jnsgd1na2vs0mg"},{"bike_id":"2ebd2fc6-13ac-4b60-8a2e-07cab16d51cc","system_id":"levelo_inurba_marseille","lat":43.24647,"lon":5.38904,"is_reserved":false,"is_disabled":false,"rental_uris":{"android":"levelo://app?vid=2ebd2fc6-13ac-4b60-8a2e-07cab16d51cc","ios":"levelo://app?vid=2ebd2fc6-13ac-4b60-8a2e-07cab16d51cc"},"vehicle_type_id":"4","last_reported":1733923252,"current_range_meters":23200,"station_id":"ce4bhg12rcd13ifvqf60","pricing_plan_id":"cebpf4jnsgd1na2vs0mg"},{"bike_id":"55721269-6850-4ddc-a6e4-24d5b3426ec9","system_id":"levelo_inurba_marseille","lat":43.29745,"lon":5.3769,"is_reserved":false,"is_disabled":false,"rental_uris":{"android":"levelo://app?vid=55721269-6850-4ddc-a6e4-24d5b3426ec9","ios":"levelo://app?vid=55721269-6850-4ddc-a6e4-24d5b3426ec9"},"vehicle_type_id":"4","last_reported":1733923252,"current_range_meters":38800,"station_id":"ce4bgkh2rcd13ifvqbl0","pricing_plan_id":"cebpf4jnsgd1na2vs0mg"},{"bike_id":"37681a73-64ca-4af2-aa07-57c646cc09e9","system_id":"levelo_inurba_marseille","lat":43.23177,"lon":5.35592,"is_reserved":false,"is_disabled":false,"rental_uris":{"android":"levelo://app?vid=37681a73-64ca-4af2-aa07-57c646cc09e9","ios":"levelo://app?vid=37681a73-64ca-4af2-aa07-57c646cc09e9"},"vehicle_type_id":"4","last_reported":1733923252,"current_range_meters":14000,"station_id":"ce4bhu92rcd13ifvqi70","pricing_plan_id":"cebpf4jnsgd1na2vs0mg"},{"bike_id":"fde47c74-48b7-42f3-bbc4-822a8ba605d1","system_id":"levelo_inurba_marseille","lat":43.29965,"lon":5.37243,"is_reserved":false,"is_disabled":false,"rental_uris":{"android":"levelo://app?vid=fde47c74-48b7-42f3-bbc4-822a8ba605d1","ios":"levelo://app?vid=fde47c74-48b7-42f3-bbc4-822a8ba605d1"},"vehicle_type_id":"4","last_reported":1733923252,"current_range_meters":4000,"station_id":"ce4bgr92rcd13ifvqc7g","pricing_plan_id":"cebpf4jnsgd1na2vs0mg"},{"bike_id":"cfeef1d2-86d9-4c1b-8076-adb2f0d09c18","system_id":"levelo_inurba_marseille","lat":43.2947,"lon":5.37699,"is_reserved":false,"is_disabled":true,"rental_uris":{"android":"levelo://app?vid=cfeef1d2-86d9-4c1b-8076-adb2f0d09c18","ios":"levelo://app?vid=cfeef1d2-86d9-4c1b-8076-adb2f0d09c18"},"vehicle_type_id":"4","last_reported":1733923252,"current_range_meters":0,"station_id":"","pricing_plan_id":"cebpf4jnsgd1na2vs0mg"},{"bike_id":"6d05f7ba-808a-4403-b1f3-f8483fec843c","system_id":"levelo_inurba_marseille","lat":43.23229,"lon":5.35495,"is_reserved":false,"is_disabled":false,"rental_uris":{"android":"levelo://app?vid=6d05f7ba-808a-4403-b1f3-f8483fec843c","ios":"levelo://app?vid=6d05f7ba-808a-4403-b1f3-f8483fec843c"},"vehicle_type_id":"4","last_reported":1733923252,"current_range_meters":37600,"station_id":"ce4bhu92rcd13ifvqi70","pricing_plan_id":"cebpf4jnsgd1na2vs0mg"},{"bike_id":"d2f36225-6b0a-4432-80cc-86c2d8cc85d1","system_id":"levelo_inurba_marseille","lat":43.30121,"lon":5.37427,"is_reserved":false,"is_disabled":false,"rental_uris":{"android":"levelo://app?vid=d2f36225-6b0a-4432-80cc-86c2d8cc85d1","ios":"levelo://app?vid=d2f36225-6b0a-4432-80cc-86c2d8cc85d1"},"vehicle_type_id":"4","last_reported":1733923252,"current_range_meters":8800,"station_id":"ce4bgs92rcd13ifvqcc0","pricing_plan_id":"cebpf4jnsgd1na2vs0mg"},{"bike_id":"057457d5-d6de-4b24-acf4-d0f8d71f1a53","system_id":"levelo_inurba_marseille","lat":43.28094,"lon":5.37866,"is_reserved":false,"is_disabled":false,"rental_uris":{"android":"levelo://app?vid=057457d5-d6de-4b24-acf4-d0f8d71f1a53","ios":"levelo://app?vid=057457d5-d6de-4b24-acf4-d0f8d71f1a53"},"vehicle_type_id":"4","last_reported":1733923252,"current_range_meters":30800,"station_id":"ce4bha12rcd13ifvqee0","pricing_plan_id":"cebpf4jnsgd1na2vs0mg"},{"bike_id":"5137b643-f444-4318-a66b-2b2970621c82","system_id":"levelo_inurba_marseille","lat":43.30112,"lon":5.38131,"is_reserved":false,"is_disabled":false,"rental_uris":{"android":"levelo://app?vid=5137b643-f444-4318-a66b-2b2970621c82","ios":"levelo://app?vid=5137b643-f444-4318-a66b-2b2970621c82"},"vehicle_type_id":"4","last_reported":1733923252,"current_range_meters":19200,"station_id":"ce4bgjp2rcd13ifvqbh0","pricing_plan_id":"cebpf4jnsgd1na2vs0mg"},{"bike_id":"08595f37-404a-46f2-b805-853a25c1ebe7","system_id":"levelo_inurba_marseille","lat":43.26549,"lon":5.37317,"is_reserved":false,"is_disabled":false,"rental_uris":{"android":"levelo://app?vid=08595f37-404a-46f2-b805-853a25c1ebe7","ios":"levelo://app?vid=08595f37-404a-46f2-b805-853a25c1ebe7"},"vehicle_type_id":"4","last_reported":1733923252,"current_range_meters":18000,"station_id":"ce4bhg12rcd13ifvqf70","pricing_plan_id":"cebpf4jnsgd1na2vs0mg"},{"bike_id":"9d5fa22f-b349-42f6-abc1-dcec0a7eafbf","system_id":"levelo_inurba_marseille","lat":43.29846,"lon":5.36288,"is_reserved":false,"is_disabled":false,"rental_uris":{"android":"levelo://app?vid=9d5fa22f-b349-42f6-abc1-dcec0a7eafbf","ios":"levelo://app?vid=9d5fa22f-b349-42f6-abc1-dcec0a7eafbf"},"vehicle_type_id":"4","last_reported":1733923252,"current_range_meters":6400,"station_id":"ce4bgpp2rcd13ifvqc3g","pricing_plan_id":"cebpf4jnsgd1na2vs0mg"},{"bike_id":"9c8c1480-9ffa-4086-913c-c2125a6eb848","system_id":"levelo_inurba_marseille","lat":43.22933,"lon":5.35379,"is_reserved":false,"is_disabled":true,"rental_uris":{"android":"levelo://app?vid=9c8c1480-9ffa-4086-913c-c2125a6eb848","ios":"levelo://app?vid=9c8c1480-9ffa-4086-913c-c2125a6eb848"},"vehicle_type_id":"4","last_reported":1733923252,"current_range_meters":800,"station_id":"cpo3532slgdg3j2ikp40","pricing_plan_id":"cebpf4jnsgd1na2vs0mg"},{"bike_id":"9ee18792-72aa-45dd-8c33-87cda588ffa1","system_id":"levelo_inurba_marseille","lat":43.30151,"lon":5.3809,"is_reserved":false,"is_disabled":false,"rental_uris":{"android":"levelo://app?vid=9ee18792-72aa-45dd-8c33-87cda588ffa1","ios":"levelo://app?vid=9ee18792-72aa-45dd-8c33-87cda588ffa1"},"vehicle_type_id":"4","last_reported":1733923252,"current_range_meters":38800,"station_id":"ce4bgjp2rcd13ifvqbh0","pricing_plan_id":"cebpf4jnsgd1na2vs0mg"},{"bike_id":"c00736be-6a25-481f-8b03-352ea58881fc","system_id":"levelo_inurba_marseille","lat":43.25869,"lon":5.39897,"is_reserved":false,"is_disabled":false,"rental_uris":{"android":"levelo://app?vid=c00736be-6a25-481f-8b03-352ea58881fc","ios":"levelo://app?vid=c00736be-6a25-481f-8b03-352ea58881fc"},"vehicle_type_id":"4","last_reported":1733923252,"current_range_meters":31200,"station_id":"ce4bhl92rcd13ifvqghg","pricing_plan_id":"cebpf4jnsgd1na2vs0mg"},{"bike_id":"2b419b1f-6ce5-466f-812b-808a9151124c","system_id":"levelo_inurba_marseille","lat":43.29618,"lon":5.37158,"is_reserved":false,"is_disabled":false,"rental_uris":{"android":"levelo://app?vid=2b419b1f-6ce5-466f-812b-808a9151124c","ios":"levelo://app?vid=2b419b1f-6ce5-466f-812b-808a9151124c"},"vehicle_type_id":"4","last_reported":1733923252,"current_range_meters":37600,"station_id":"ce4bgnh2rcd13ifvqc0g","pricing_plan_id":"cebpf4jnsgd1na2vs0mg"},{"bike_id":"aad293c2-ec35-4892-9633-a4160c1b87a3","system_id":"levelo_inurba_marseille","lat":43.31166,"lon":5.38717,"is_reserved":false,"is_disabled":false,"rental_uris":{"android":"levelo://app?vid=aad293c2-ec35-4892-9633-a4160c1b87a3","ios":"levelo://app?vid=aad293c2-ec35-4892-9633-a4160c1b87a3"},"vehicle_type_id":"4","last_reported":1733923252,"current_range_meters":9200,"station_id":"ce4bgv12rcd13ifvqcp0","pricing_plan_id":"cebpf4jnsgd1na2vs0mg"},{"bike_id":"9ac7fa6e-2578-4832-8168-ade341fdc585","system_id":"levelo_inurba_marseille","lat":43.2841,"lon":5.428961,"is_reserved":false,"is_disabled":true,"rental_uris":{"android":"levelo://app?vid=9ac7fa6e-2578-4832-8168-ade341fdc585","ios":"levelo://app?vid=9ac7fa6e-2578-4832-8168-ade341fdc585"},"vehicle_type_id":"4","last_reported":1733923252,"current_range_meters":0,"station_id":"","pricing_plan_id":"cebpf4jnsgd1na2vs0mg"},{"bike_id":"5b93766f-d0f8-4bca-bc57-e286c063ce96","system_id":"levelo_inurba_marseille","lat":43.29547,"lon":5.42285,"is_reserved":false,"is_disabled":false,"rental_uris":{"android":"levelo://app?vid=5b93766f-d0f8-4bca-bc57-e286c063ce96","ios":"levelo://app?vid=5b93766f-d0f8-4bca-bc57-e286c063ce96"},