{"last_updated":1739362671,"ttl":60,"version":"2.2","data":{"bikes":[{"bike_id":"9ae4959d-6de9-4c98-bb63-3a430a52595d","system_id":"levelo_inurba_marseille","lat":43.31349,"lon":5.3672,"is_reserved":false,"is_disabled":false,"rental_uris":{"android":"levelo://app?vid=9ae4959d-6de9-4c98-bb63-3a430a52595d","ios":"levelo://app?vid=9ae4959d-6de9-4c98-bb63-3a430a52595d"},"vehicle_type_id":"4","last_reported":1739362672,"current_range_meters":17600,"station_id":"ce4bgr92rcd13ifvqc6g","pricing_plan_id":"cebpf4jnsgd1na2vs0mg"},{"bike_id":"7803dd1a-a242-4883-848b-e4cbfccf197b","system_id":"levelo_inurba_marseille","lat":43.31347,"lon":5.36721,"is_reserved":false,"is_disabled":false,"rental_uris":{"android":"levelo://app?vid=7803dd1a-a242-4883-848b-e4cbfccf197b","ios":"levelo://app?vid=7803dd1a-a242-4883-848b-e4cbfccf197b"},"vehicle_type_id":"4","last_reported":1739362672,"current_range_meters":8800,"station_id":"ce4bgr92rcd13ifvqc6g","pricing_plan_id":"cebpf4jnsgd1na2vs0mg"},{"bike_id":"a173b609-6f6c-45fd-922e-a3a0e329e57c","system_id":"levelo_inurba_marseille","lat":43.24071,"lon":5.37761,"is_reserved":false,"is_disabled":false,"rental_uris":{"android":"levelo://app?vid=a173b609-6f6c-45fd-922e-a3a0e329e57c","ios":"levelo://app?vid=a173b609-6f6c-45fd-922e-a3a0e329e57c"},"vehicle_type_id":"4","last_reported":1739362672,"current_range_meters":38800,"station_id":"ce4bhnp2rcd13ifvqgvg","pricing_plan_id":"cebpf4jnsgd1na2vs0mg"},{"bike_id":"9c9e6dfa-122e-4154-8057-4016db8e7671","system_id":"levelo_inurba_marseille","lat":43.33753,"lon":5.39198,"is_reserved":false,"is_disabled":false,"rental_uris":{"android":"levelo://app?vid=9c9e6dfa-122e-4154-8057-4016db8e7671","ios":"levelo://app?vid=9c9e6dfa-122e-4154-8057-4016db8e7671"},"vehicle_type_id":"4","last_reported":1739362672,"current_range_meters":38000,"station_id":"ce4bhr92rcd13ifvqhsg","pricing_plan_id":"cebpf4jnsgd1na2vs0mg"},{"bike_id":"d5c8b014-4ad0-4ada-ab08-e631886858c2","system_id":"levelo_inurba_marseille","lat":43.29504,"lon":5.375,"is_reserved":false,"is_disabled":false,"rental_uris":{"android":"levelo://app?vid=d5c8b014-4ad0-4ada-ab08-e631886858c2","ios":"levelo://app?vid=d5c8b014-4ad0-4ada-ab08-e631886858c2"},"vehicle_type_id":"4","last_reported":1739362672,"current_range_meters":30400,"station_id":"ce4bgkp2rcd13ifvqbmg","pricing_plan_id":"cebpf4jnsgd1na2vs0mg"},{"bike_id":"f6ef4f9a-c914-4d4b-a06e-00485b64285e","system_id":"levelo_inurba_marseille","lat":43.32457,"lon":5.36603,"is_reserved":false,"is_disabled":false,"rental_uris":{"android":"levelo://app?vid=f6ef4f9a-c914-4d4b-a06e-00485b64285e","ios":"levelo://app?vid=f6ef4f9a-c914-4d4b-a06e-00485b64285e"},"vehicle_type_id":"4","last_reported":1739362672,"current_range_meters":38800,"station_id":"ce4bhs12rcd13ifvqhvg","pricing_plan_id":"cebpf4jnsgd1na2vs0mg"},{"bike_id":"d4a8521c-c54c-4fbb-8f3c-fd7527641f17","system_id":"levelo_inurba_marseille","lat":43.30154,"lon":5.39846,"is_reserved":false,"is_disabled":false,"rental_uris":{"android":"levelo://app?vid=d4a8521c-c54c-4fbb-8f3c-fd7527641f17","ios":"levelo://app?vid=d4a8521c-c54c-4fbb-8f3c-fd7527641f17"},"vehicle_type_id":"4","last_reported":1739362672,"current_range_meters":39200,"station_id":"ce4bh0h2rcd13ifvqd40","pricing_plan_id":"cebpf4jnsgd1na2vs0mg"},{"bike_id":"154c3d10-560a-48c8-8975-f28b510614e3","system_id":"levelo_inurba_marseille","lat":43.30311,"lon":5.37709,"is_reserved":false,"is_disabled":false,"rental_uris":{"android":"levelo://app?vid=154c3d10-560a-48c8-8975-f28b510614e3","ios":"levelo://app?vid=154c3d10-560a-48c8-8975-f28b510614e3"},"vehicle_type_id":"4","last_reported":1739362672,"current_range_meters":28800,"station_id":"ce4bguh2rcd13ifvqcj0","pricing_plan_id":"cebpf4jnsgd1na2vs0mg"},{"bike_id":"8b1c9bed-283d-4644-9673-1058c0737c9c","system_id":"levelo_inurba_marseille","lat":43.30462,"lon":5.37898,"is_reserved":false,"is_disabled":false,"rental_uris":{"android":"levelo://app?vid=8b1c9bed-283d-4644-9673-1058c0737c9c","ios":"levelo://app?vid=8b1c9bed-283d-4644-9673-1058c0737c9c"},"vehicle_type_id":"4","last_reported":1739362672,"current_range_meters":38800,"station_id":"ce4bgup2rcd13ifvqcn0","pricing_plan_id":"cebpf4jnsgd1na2vs0mg"},{"bike_id":"b7cf5641-2280-4db0-b863-a6be969febe9","system_id":"levelo_inurba_marseille","lat":43.28978,"lon":5.42425,"is_reserved":false,"is_disabled":false,"rental_uris":{"android":"levelo://app?vid=b7cf5641-2280-4db0-b863-a6be969febe9","ios":"levelo://app?vid=b7cf5641-2280-4db0-b863-a6be969febe9"},"vehicle_type_id":"4","last_reported":1739362672,"current_range_meters":30400,"station_id":"ce4bhnh2rcd13ifvqgug","pricing_plan_id":"cebpf4jnsgd1na2vs0mg"},{"bike_id":"f711750d-fe6b-4e97-a163-0212ddabd620","system_id":"levelo_inurba_marseille","lat":43.3046,"lon":5.37907,"is_reserved":false,"is_disabled":false,"rental_uris":{"android":"levelo://app?vid=f711750d-fe6b-4e97-a163-0212ddabd620","ios":"levelo://app?vid=f711750d-fe6b-4e97-a163-0212ddabd620"},"vehicle_type_id":"4","last_reported":1739362672,"current_range_meters":17600,"station_id":"ce4bgup2rcd13ifvqcn0","pricing_plan_id":"cebpf4jnsgd1na2vs0mg"},{"bike_id":"b7e5ed26-b327-48d1-b3da-d61a2e48fa80","system_id":"levelo_inurba_marseille","lat":43.31277,"lon":5.40165,"is_reserved":false,"is_disabled":false,"rental_uris":{"android":"levelo://app?vid=b7e5ed26-b327-48d1-b3da-d61a2e48fa80","ios":"levelo://app?vid=b7e5ed26-b327-48d1-b3da-d61a2e48fa80"},"vehicle_type_id":"4","last_reported":1739362672,"current_range_meters":33600,"station_id":"ce4bh092rcd13ifvqd30","pricing_plan_id":"cebpf4jnsgd1na2vs0mg"},{"bike_id":"9e4564f0-0519-46c9-beea-73f529a3ce6a","system_id":"levelo_inurba_marseille","lat":43.24807,"lon":5.37461,"is_reserved":false,"is_disabled":false,"rental_uris":{"android":"levelo://app?vid=9e4564f0-0519-46c9-beea-73f529a3ce6a","ios":"levelo://app?vid=9e4564f0-0519-46c9-beea-73f529a3ce6a"},"vehicle_type_id":"4","last_reported":1739362672,"current_range_meters":28400,"station_id":"ce4bhgh2rcd13ifvqfb0","pricing_plan_id":"cebpf4jnsgd1na2vs0mg"},{"bike_id":"e8b98b7c-5d68-4a57-8bb7-0cc04267f30a","system_id":"levelo_inurba_marseille","lat":43.28006,"lon":5.40021,"is_reserved":false,"is_disabled":false,"rental_uris":{"android":"levelo://app?vid=e8b98b7c-5d68-4a57-8bb7-0cc04267f30a","ios":"levelo://app?vid=e8b98b7c-5d68-4a57-8bb7-0cc04267f30a"},"vehicle_type_id":"4","last_reported":1739362672,"current_range_meters":24400,"station_id":"ce4bho92rcd13ifvqh4g","pricing_plan_id":"cebpf4jnsgd1na2vs0mg"},{"bike_id":"a94d2018-f678-4713-bf2d-5da0b28f3e59","system_id":"levelo_inurba_marseille","lat":43.29775,"lon":5.37119,"is_reserved":false,"is_disabled":false,"rental_uris":{"android":"levelo://app?vid=a94d2018-f678-4713-bf2d-5da0b28f3e59","ios":"levelo://app?vid=a94d2018-f678-4713-bf2d-5da0b28f3e59"},"vehicle_type_id":"4","last_reported":1739362672,"current_range_meters":34000,"station_id":"ce4bgop2rcd13ifvqc1g","pricing_plan_id":"cebpf4jnsgd1na2vs0mg"},{"bike_id":"3df3041b-27b7-4def-8d60-99d6191bfdce","system_id":"levelo_inurba_marseille","lat":43.27509,"lon":5.42464,"is_reserved":false,"is_disabled":false,"rental_uris":{"android":"levelo://app?vid=3df3041b-27b7-4def-8d60-99d6191bfdce","ios":"levelo://app?vid=3df3041b-27b7-4def-8d60-99d6191bfdce"},"vehicle_type_id":"4","last_reported":1739362672,"current_range_meters":38800,"station_id":"ce4bhn92rcd13ifvqgrg","pricing_plan_id":"cebpf4jnsgd1na2vs0mg"},{"bike_id":"a832a774-4cc9-4cea-8617-d1834a9e1812","system_id":"levelo_inurba_marseille","lat":43.28619,"lon":5.35103,"is_reserved":false,"is_disabled":false,"rental_uris":{"android":"levelo://app?vid=a832a774-4cc9-4cea-8617-d1834a9e1812","ios":"levelo://app?vid=a832a774-4cc9-4cea-8617-d1834a9e1812"},"vehicle_type_id":"4","last_reported":1739362672,"current_range_meters":37600,"station_id":"ce4bhch2rcd13ifvqeug","pricing_plan_id":"cebpf4jnsgd1na2vs0mg"},{"bike_id":"33ad253b-8e86-4ab6-b2cf-f0d61d9f366b","system_id":"levelo_inurba_marseille","lat":43.31758,"lon":5.39018,"is_reserved":false,"is_disabled":false,"rental_uris":{"android":"levelo://app?vid=33ad253b-8e86-4ab6-b2cf-f0d61d9f366b","ios":"levelo://app?vid=33ad253b-8e86-4ab6-b2cf-f0d61d9f366b"},"vehicle_type_id":"4","last_reported":1739362672,"current_range_meters":7200,"station_id":"ce4bhqp2rcd13ifvqhng","pricing_plan_id":"cebpf4jnsgd1na2vs0mg"},{"bike_id":"a9eb76ae-d2f9-4fe3-87ec-b061f4429926","system_id":"levelo_inurba_marseille","lat":43.27369,"lon":5.36243,"is_reserved":false,"is_disabled":false,"rental_uris":{"android":"levelo://app?vid=a9eb76ae-d2f9-4fe3-87ec-b061f4429926","ios":"levelo://app?vid=a9eb76ae-d2f9-4fe3-87ec-b061f4429926"},"vehicle_type_id":"4","last_reported":1739362672,"current_range_meters":35600,"station_id":"ce4bhbh2rcd13ifvqeo0","pricing_plan_id":"cebpf4jnsgd1na2vs0mg"},{"bike_id":"26c79ef5-6f5f-49d9-b4aa-17fb6a7df4bb","system_id":"levelo_inurba_marseille","lat":43.29849,"lon":5.36289,"is_reserved":false,"is_disabled":false,"rental_uris":{"android":"levelo://app?vid=26c79ef5-6f5f-49d9-b4aa-17fb6a7df4bb","ios":"levelo://app?vid=26c79ef5-6f5f-49d9-b4aa-17fb6a7df4bb"},"vehicle_type_id":"4","last_reported":1739362672,"current_range_meters":38400,"station_id":"ce4bgpp2rcd13ifvqc3g","pricing_plan_id":"cebpf4jnsgd1na2vs0mg"},{"bike_id":"39e55a90-fe76-4904-bf9c-9841fe168f13","system_id":"levelo_inurba_marseille","lat":43.337263,"lon":5.391863,"is_reserved":false,"is_disabled":false,"rental_uris":{"android":"levelo://app?vid=39e55a90-fe76-4904-bf9c-9841fe168f13","ios":"levelo://app?vid=39e55a90-fe76-4904-bf9c-9841fe168f13"},"vehicle_type_id":"4","last_reported":1739362672,"current_range_meters":38800,"station_id":"ce4bhr92rcd13ifvqhsg","pricing_plan_id":"cebpf4jnsgd1na2vs0mg"},{"bike_id":"eec468ad-aacf-440e-a48a-55131fe76d5f","system_id":"levelo_inurba_marseille","lat":43.23178,"lon":5.39988,"is_reserved":false,"is_disabled":false,"rental_uris":{"android":"levelo://app?vid=eec468ad-aacf-440e-a48a-55131fe76d5f","ios":"levelo://app?vid=eec468ad-aacf-440e-a48a-55131fe76d5f"},"vehicle_type_id":"4","last_reported":1739362672,"current_range_meters":20000,"station_id":"ce4bhn12rcd13ifvqgqg","pricing_plan_id":"cebpf4jnsgd1na2vs0mg"},{"bike_id":"8bc42e94-1322-42ab-8325-b3ee1e30df55","system_id":"levelo_inurba_marseille","lat":43.26501,"lon":5.39539,"is_reserved":false,"is_disabled":true,"rental_uris":{"android":"levelo://app?vid=8bc42e94-1322-42ab-8325-b3ee1e30df55","ios":"levelo://app?vid=8bc42e94-1322-42ab-8325-b3ee1e30df55"},"vehicle_type_id":"4","last_reported":1739362672,"current_range_meters":400,"station_id":"ce4bhi12rcd13ifvqfq0","pricing_plan_id":"cebpf4jnsgd1na2vs0mg"},{"bike_id":"5917b50e-263d-44f0-bc92-9b811108e42d","system_id":"levelo_inurba_marseille","lat":43.3028,"lon":5.37712,"is_reserved":false,"is_disabled":false,"rental_uris":{"android":"levelo://app?vid=5917b50e-263d-44f0-bc92-9b811108e42d","ios":"levelo://app?vid=5917b50e-263d-44f0-bc92-9b811108e42d"},"vehicle_type_id":"4","last_reported":1739362672,"current_range_meters":26800,"station_id":"ce4bguh2rcd13ifvqcj0","pricing_plan_id":"cebpf4jnsgd1na2vs0mg"},{"bike_id":"731da6c6-f7ca-4a26-90c2-82e3497d26ff","system_id":"levelo_inurba_marseille","lat":43.31338,"lon":5.36729,"is_reserved":false,"is_disabled":false,"rental_uris":{"android":"levelo://app?vid=731da6c6-f7ca-4a26-90c2-82e3497d26ff","ios":"levelo://app?vid=731da6c6-f7ca-4a26-90c2-82e3497d26ff"},"vehicle_type_id":"4","last_reported":1739362672,"current_range_meters":30000,"station_id":"ce4bgr92rcd13ifvqc6g","pricing_plan_id":"cebpf4jnsgd1na2vs0mg"},{"bike_id":"9259a6aa-9930-4e48-b365-8afc48a92395","system_id":"levelo_inurba_marseille","lat":43.2441,"lon":5.3704,"is_reserved":false,"is_disabled":false,"rental_uris":{"android":"levelo://app?vid=9259a6aa-9930-4e48-b365-8afc48a92395","ios":"levelo://app?vid=9259a6aa-9930-4e48-b365-8afc48a92395"},"vehicle_type_id":"4","last_reported":1739362672,"current_range_meters":32000,"station_id":"ce4bhhh2rcd13ifvqfk0","pricing_plan_id":"cebpf4jnsgd1na2vs0mg"},{"bike_id":"bc0beb7a-5b3e-44a0-bc68-16dd218ec9dd","system_id":"levelo_inurba_marseille","lat":43.30135,"lon":5.37397,"is_reserved":false,"is_disabled":true,"rental_uris":{"android":"levelo://app?vid=bc0beb7a-5b3e-44a0-bc68-16dd218ec9dd","ios":"levelo://app?vid=bc0beb7a-5b3e-44a0-bc68-16dd218ec9dd"},"vehicle_type_id":"4","last_reported":1739362672,"current_range_meters":38800,"station_id":"ce4bgs92rcd13ifvqcc0","pricing_plan_id":"cebpf4jnsgd1na2vs0mg"},{"bike_id":"bf8cd02e-ccdc-4523-894a-3fce83d782e3","system_id":"levelo_inurba_marseille","lat":43.33738,"lon":5.3919,"is_reserved":false,"is_disabled":false,"rental_uris":{"android":"levelo://app?vid=bf8cd02e-ccdc-4523-894a-3fce83d782e3","ios":"levelo://app?vid=bf8cd02e-ccdc-4523-894a-3fce83d782e3"},"vehicle_type_id":"4","last_reported":1739362672,"current_range_meters":38800,"station_id":"ce4bhr92rcd13ifvqhsg","pricing_plan_id":"cebpf4jnsgd1na2vs0mg"},{"bike_id":"b737ae82-c86e-4ede-80b2-31fc6f755e14","system_id":"levelo_inurba_marseille","lat":43.29543,"lon":5.3855,"is_reserved":false,"is_disabled":true,"rental_uris":{"android":"levelo://app?vid=b737ae82-c86e-4ede-80b2-31fc6f755e14","ios":"levelo://app?vid=b737ae82-c86e-4ede-80b2-31fc6f755e14"},"vehicle_type_id":"4","last_reported":1739362672,"current_range_meters":38800,"station_id":"ce4bgih2rcd13ifvqba0","pricing_plan_id":"cebpf4jnsgd1na2vs0mg"},{"bike_id":"bcc7ecb4-9444-4036-8a30-ab99226278c9","system_id":"levelo_inurba_marseille","lat":43.26207,"lon":5.37927,"is_reserved":false,"is_disabled":false,"rental_uris":{"android":"levelo://app?vid=bcc7ecb4-9444-4036-8a30-ab99226278c9","ios":"levelo://app?vid=bcc7ecb4-9444-4036-8a30-ab99226278c9"},"vehicle_type_id":"4","last_reported":1739362672,"current_range_meters":37600,"station_id":"ce4bhjp2rcd13ifvqg90","pricing_plan_id":"cebpf4jnsgd1na2vs0mg"},{"bike_id":"20cff2ea-df40-43e9-9e60-e9c41ce0ec64","system_id":"levelo_inurba_marseille","lat":43.23153,"lon":5.43722,"is_reserved":false,"is_disabled":false,"rental_uris":{"android":"levelo://app?vid=20cff2ea-df40-43e9-9e60-e9c41ce0ec64","ios":"levelo://app?vid=20cff2ea-df40-43e9-9e60-e9c41ce0ec64"},"vehicle_type_id":"4","last_reported":1739362672,"current_range_meters":38800,"station_id":"ce4bhmp2rcd13ifvqgog","pricing_plan_id":"cebpf4jnsgd1na2vs0mg"},{"bike_id":"bf88b2c4-d38a-4e13-8503-d608afb92950","system_id":"levelo_inurba_marseille","lat":43.28582,"lon":5.39493,"is_reserved":false,"is_disabled":false,"rental_uris":{"android":"levelo://app?vid=bf88b2c4-d38a-4e13-8503-d608afb92950","ios":"levelo://app?vid=bf88b2c4-d38a-4e13-8503-d608afb92950"},"vehicle_type_id":"4","last_reported":1739362672,"current_range_meters":37600,"station_id":"ce4bh292rcd13ifvqdg0","pricing_plan_id":"cebpf4jnsgd1na2vs0mg"},{"bike_id":"c179f179-1614-4d6a-9586-627695823c73","system_id":"levelo_inurba_marseille","lat":43.26807,"lon":5.40266,"is_reserved":false,"is_disabled":false,"rental_uris":{"android":"levelo://app?vid=c179f179-1614-4d6a-9586-627695823c73","ios":"levelo://app?vid=c179f179-1614-4d6a-9586-627695823c73"},"vehicle_type_id":"4","last_reported":1739362672,"current_range_meters":26800,"station_id":"ce501612rcd8frsf0b60","pricing_plan_id":"cebpf4jnsgd1na2vs0mg"},{"bike_id":"c573048d-b0bb-4a11-b456-07d3f804372d","system_id":"levelo_inurba_marseille","lat":43.28839,"lon":5.39327,"is_reserved":false,"is_disabled":false,"rental_uris":{"android":"levelo://app?vid=c573048d-b0bb-4a11-b456-07d3f804372d","ios":"levelo://app?vid=c573048d-b0bb-4a11-b456-07d3f804372d"},"vehicle_type_id":"4","last_reported":1739362672,"current_range_meters":33200,"station_id":"ce4bh2p2rcd13ifvqdi0","pricing_plan_id":"cebpf4jnsgd1na2vs0mg"},{"bike_id":"679b51a7-0864-4c79-a75b-8b937ab8b8fc","system_id":"levelo_inurba_marseille","lat":43.24546,"lon":5.39524,"is_reserved":false,"is_disabled":false,"rental_uris":{"android":"levelo://app?vid=679b51a7-0864-4c79-a75b-8b937ab8b8fc","ios":"levelo://app?vid=679b51a7-0864-4c79-a75b-8b937ab8b8fc"},"vehicle_type_id":"4","last_reported":1739362672,"current_range_meters":24400,"station_id":"ce4bhlp2rcd13ifvqgjg","pricing_plan_id":"cebpf4jnsgd1na2vs0mg"},{"bike_id":"3900d08b-8693-4bd9-848b-faf62990505d","system_id":"levelo_inurba_marseille","lat":43.30151,"lon":5.39844,"is_reserved":false,"is_disabled":false,"rental_uris":{"android":"levelo://app?vid=3900d08b-8693-4bd9-848b-faf62990505d","ios":"levelo://app?vid=3900d08b-8693-4bd9-848b-faf62990505d"},"vehicle_type_id":"4","last_reported":1739362672,"current_range_meters":38800,"station_id":"ce4bh0h2rcd13ifvqd40","pricing_plan_id":"cebpf4jnsgd1na2vs0mg"},{"bike_id":"6bc9e302-8d2f-4714-956e-a635d55ad857","system_id":"levelo_inurba_marseille","lat":43.29727,"lon":5.36634,"is_reserved":false,"is_disabled":false,"rental_uris":{"android":"levelo://app?vid=6bc9e302-8d2f-4714-956e-a635d55ad857","ios":"levelo://app?vid=6bc9e302-8d2f-4714-956e-a635d55ad857"},"vehicle_type_id":"4","last_reported":1739362672,"current_range_meters":38400,"station_id":"ce4bgn12rcd13ifvqbt0","pricing_plan_id":"cebpf4jnsgd1na2vs0mg"},{"bike_id":"ccfa7f3d-d0da-45a7-b714-03e25a4d2531","system_id":"levelo_inurba_marseille","lat":43.29304,"lon":5.37472,"is_reserved":false,"is_disabled":false,"rental_uris":{"android":"levelo://app?vid=ccfa7f3d-d0da-45a7-b714-03e25a4d2531","ios":"levelo://app?vid=ccfa7f3d-d0da-45a7-b714-03e25a4d2531"},"vehicle_type_id":"4","last_reported":1739362672,"current_range_meters":37600,"station_id":"ce4bgi12rcd13ifvqb70","pricing_plan_id":"cebpf4jnsgd1na2vs0mg"},{"bike_id":"9e301dac-087e-4a6b-83f6-e426c12a8afd","system_id":"levelo_inurba_marseille","lat":43.29566,"lon":5.37542,"is_reserved":false,"is_disabled":false,"rental_uris":{"android":"levelo://app?vid=9e301dac-087e-4a6b-83f6-e426c12a8afd","ios":"levelo://app?vid=9e301dac-087e-4a6b-83f6-e426c12a8afd"},"vehicle_type_id":"4","last_reported":1739362672,"current_range_meters":28400,"station_id":"ce4bgh92rcd13ifvqb50","pricing_plan_id":"cebpf4jnsgd1na2vs0mg"},{"bike_id":"0946e1d0-cc5c-4db2-a494-cafba877eb11","system_id":"levelo_inurba_marseille","lat":43.30469,"lon":5.379,"is_reserved":false,"is_disabled":false,"rental_uris":{"android":"levelo://app?vid=0946e1d0-cc5c-4db2-a494-cafba877eb11","ios":"levelo://app?vid=0946e1d0-cc5c-4db2-a494-cafba877eb11"},"vehicle_type_id":"4","last_reported":1739362672,"current_range_meters":38800,"station_id":"ce4bgup2rcd13ifvqcn0","pricing_plan_id":"cebpf4jnsgd1na2vs0mg"},{"bike_id":"7b1e2f05-6986-46db-b8dd-d601ef4739a9","system_id":"levelo_inurba_marseille","lat":43.29008,"lon":5.35606,"is_reserved":false,"is_disabled":false,"rental_uris":{"android":"levelo://app?vid=7b1e2f05-6986-46db-b8dd-d601ef4739a9","ios":"levelo://app?vid=7b1e2f05-6986-46db-b8dd-d601ef4739a9"},"vehicle_type_id":"4","last_reported":1739362672,"current_range_meters":32800,"station_id":"ce4bhb92rcd13ifvqen0","pricing_plan_id":"cebpf4jnsgd1na2vs0mg"},{"bike_id":"02451db6-91ee-4f9a-b443-a4ac662c5553","system_id":"levelo_inurba_marseille","lat":43.30416,"lon":5.39752,"is_reserved":false,"is_disabled":false,"rental_uris":{"android":"levelo://app?vid=02451db6-91ee-4f9a-b443-a4ac662c5553","ios":"levelo://app?vid=02451db6-91ee-4f9a-b443-a4ac662c5553"},"vehicle_type_id":"4","last_reported":1739362672,"current_range_meters":38800,"station_id":"ce4bh092rcd13ifvqd20","pricing_plan_id":"cebpf4jnsgd1na2vs0mg"},{"bike_id":"5ec5dad3-2aa4-4468-abda-cdb85c06529e","system_id":"levelo_inurba_marseille","lat":43.29957,"lon":5.37136,"is_reserved":false,"is_disabled":false,"rental_uris":{"android":"levelo://app?vid=5ec5dad3-2aa4-4468-abda-cdb85c06529e","ios":"levelo://app?vid=5ec5dad3-2aa4-4468-abda-cdb85c06529e"},"vehicle_type_id":"4","last_reported":1739362672,"current_range_meters":38800,"station_id":"ce4bgr92rcd13ifvqc7g","pricing_plan_id":"cebpf4jnsgd1na2vs0mg"},{"bike_id":"eea61a1f-5b0e-429d-9057-8240cffa0c54","system_id":"levelo_inurba_marseille","lat":43.28695,"lon":5.39984,"is_reserved":false,"is_disabled":false,"rental_uris":{"android":"levelo://app?vid=eea61a1f-5b0e-429d-9057-8240cffa0c54","ios":"levelo://app?vid=eea61a1f-5b0e-429d-9057-8240cffa0c54"},"vehicle_type_id":"4","last_reported":1739362672,"current_range_meters":36000,"station_id":"ce4bho92rcd13ifvqh3g","pricing_plan_id":"cebpf4jnsgd1na2vs0mg"},{"bike_id":"1abe2258-cb0f-4672-9569-519c505ed71d","system_id":"levelo_inurba_marseille","lat":43.31275,"lon":5.40161,"is_reserved":false,"is_disabled":false,"rental_uris":{"android":"levelo://app?vid=1abe2258-cb0f-4672-9569-519c505ed71d","ios":"levelo://app?vid=1abe2258-cb0f-4672-9569-519c505ed71d"},"vehicle_type_id":"4","last_reported":1739362672,"current_range_meters":39200,"station_id":"ce4bh092rcd13ifvqd30","pricing_plan_id":"cebpf4jnsgd1na2vs0mg"},{"bike_id":"ab8f3c83-9161-425d-b710-29b064905cf2","system_id":"levelo_inurba_marseille","lat":43.29784,"lon":5.39337,"is_reserved":false,"is_disabled":false,"rental_uris":{"android":"levelo://app?vid=ab8f3c83-9161-425d-b710-29b064905cf2","ios":"levelo://app?vid=ab8f3c83-9161-425d-b710-29b064905cf2"},"vehicle_type_id":"4","last_reported":1739362672,"current_range_meters":34000,"station_id":"chh1huq6cuj3fo74tm60","pricing_plan_id":"cebpf4jnsgd1na2vs0mg"},{"bike_id":"a2a08fcd-04e1-4ee2-a32c-2ec48be6c552","system_id":"levelo_inurba_marseille","lat":43.26948,"lon":5.38625,"is_reserved":false,"is_disabled":false,"rental_uris":{"android":"levelo://app?vid=a2a08fcd-04e1-4ee2-a32c-2ec48be6c552","ios":"levelo://app?vid=a2a08fcd-04e1-4ee2-a32c-2ec48be6c552"},"vehicle_type_id":"4","last_reported":1739362672,"current_range_meters":3200,"station_id":"ce4bhh92rcd13ifvqfh0","pricing_plan_id":"cebpf4jnsgd1na2vs0mg"},{"bike_id":"f61f0289-db11-4f78-af36-f70fd4404161","system_id":"levelo_inurba_marseille","lat":43.290051,"lon":5.356176,"is_reserved":false,"is_disabled":true,"rental_uris":{"android":"levelo://app?vid=f61f0289-db11-4f78-af36-f70fd4404161","ios":"levelo://app?vid=f61f0289-db11-4f78-af36-f70fd4404161"},"vehicle_type_id":"4","last_reported":1739362672,"current_range_meters":34800,"station_id":"","pricing_plan_id":"cebpf4jnsgd1na2vs0mg"},{"bike_id":"39a640ed-fd8c-4b56-84e0-fe67663afd2d","system_id":"levelo_inurba_marseille","lat":43.2315,"lon":5.43711,"is_reserved":false,"is_disabled":false,"rental_uris":{"android":"levelo://app?vid=39a640ed-fd8c-4b56-84e0-fe67663afd2d","ios":"levelo://app?vid=39a640ed-fd8c-4b56-84e0-fe67663afd2d"},"vehicle_type_id":"4","last_reported":1739362672,"current_range_meters":28000,"station_id":"ce4bhmp2rcd13ifvqgog","pricing_plan_id":"cebpf4jnsgd1na2vs0mg"},{"bike_id":"b03c6d48-9fd6-4bf2-bc41-8e49175a4e58","system_id":"levelo_inurba_marseille","lat":43.32659,"lon":5.41017,"is_reserved":false,"is_disabled":false,"rental_uris":{"android":"levelo://app?vid=b03c6d48-9fd6-4bf2-bc41-8e49175a4e58","ios":"levelo://app?vid=b03c6d48-9fd6-4bf2-bc41-8e49175a4e58"},"vehicle_type_id":"4","last_reported":1739362672,"current_range_meters":38400,"station_id":"ce4bhpp2rcd13ifvqhgg","pricing_plan_id":"cebpf4jnsgd1na2vs0mg"},{"bike_id":"76ebc75d-2fe5-45e0-9f44-dea2f5f86814","system_id":"levelo_inurba_marseille","lat":43.24393,"lon":5.37052,"is_reserved":false,"is_disabled":false,"rental_uris":{"android":"levelo://app?vid=76ebc75d-2fe5-45e0-9f44-dea2f5f86814","ios":"levelo://app?vid=76ebc75d-2fe5-45e0-9f44-dea2f5f86814"},"vehicle_type_id":"4","last_reported":1739362672,"current_range_meters":28400,"station_id":"ce4bhhh2rcd13ifvqfk0","pricing_plan_id":"cebpf4jnsgd1na2vs0mg"},{"bike_id":"7e4baaff-43df-45ac-ba99-60d4ee3b5a14","system_id":"levelo_inurba_marseille","lat":43.32471,"lon":5.36578,"is_reserved":false,"is_disabled":false,"rental_uris":{"android":"levelo://app?vid=7e4baaff-43df-45ac-ba99-60d4ee3b5a14","ios":"levelo://app?vid=7e4baaff-43df-45ac-ba99-60d4ee3b5a14"},"vehicle_type_id":"4","last_reported":1739362672,"current_range_meters":8000,"station_id":"ce4bhs12rcd13ifvqhvg","pricing_plan_id":"cebpf4jnsgd1na2vs0mg"},{"bike_id":"76305925-afef-4e0d-9960-6de968abbadf","system_id":"levelo_inurba_marseille","lat":43.248173,"lon":5.374727,"is_reserved":false,"is_disabled":false,"rental_uris":{"android":"levelo://app?vid=76305925-afef-4e0d-9960-6de968abbadf","ios":"levelo://app?vid=76305925-afef-4e0d-9960-6de968abbadf"},"vehicle_type_id":"4","last_reported":1739362672,"current_range_meters":34800,"station_id":"ce4bhgh2rcd13ifvqfb0","pricing_plan_id":"cebpf4jnsgd1na2vs0mg"},{"bike_id":"1fb1a03a-258b-416a-92dc-66b98dcbe7d9","system_id":"levelo_inurba_marseille","lat":43.33732,"lon":5.39193,"is_reserved":false,"is_disabled":false,"rental_uris":{"android":"levelo://app?vid=1fb1a03a-258b-416a-92dc-66b98dcbe7d9","ios":"levelo://app?vid=1fb1a03a-258b-416a-92dc-66b98dcbe7d9"},"vehicle_type_id":"4","last_reported":1739362672,"current_range_meters":38800,"station_id":"ce4bhr92rcd13ifvqhsg","pricing_plan_id":"cebpf4jnsgd1na2vs0mg"},{"bike_id":"80b55b9b-3311-4f84-bd1e-e3b2f430b33c","system_id":"levelo_inurba_marseille","lat":43.30569,"lon":5.367,"is_reserved":false,"is_disabled":false,"rental_uris":{"android":"levelo://app?vid=80b55b9b-3311-4f84-bd1e-e3b2f430b33c","ios":"levelo://app?vid=80b55b9b-3311-4f84-bd1e-e3b2f430b33c"},"vehicle_type_id":"4","last_reported":1739362672,"current_range_meters":39200,"station_id":"ce4bgrp2rcd13ifvqc9g","pricing_plan_id":"cebpf4jnsgd1na2vs0mg"},{"bike_id":"51ab7186-5043-4bed-baca-73708608a302","system_id":"levelo_inurba_marseille","lat":43.29584,"lon":5.37026,"is_reserved":false,"is_disabled":true,"rental_uris":{"android":"levelo://app?vid=51ab7186-5043-4bed-baca-73708608a302","ios":"levelo://app?vid=51ab7186-5043-4bed-baca-73708608a302"},"vehicle_type_id":"4","last_reported":1739362672,"current_range_meters":3200,"station_id":"","pricing_plan_id":"cebpf4jnsgd1na2vs0mg"},{"bike_id":"84872d9b-91b7-4414-9e06-2769a0d267ac","system_id":"levelo_inurba_marseille","lat":43.29282,"lon":5.40127,"is_reserved":false,"is_disabled":true,"rental_uris":{"android":"levelo://app?vid=84872d9b-91b7-4414-9e06-2769a0d267ac","ios":"levelo://app?vid=84872d9b-91b7-4414-9e06-2769a0d267ac"},"vehicle_type_id":"4","last_reported":1739362672,"current_range_meters":38800,"station_id":"ce4bh312rcd13ifvqdk0","pricing_plan_id":"cebpf4jnsgd1na2vs0mg"},{"bike_id":"253b04c3-cc55-4e99-b603-8b20485c3594","system_id":"levelo_inurba_marseille","lat":43.28472,"lon":5.38572,"is_reserved":false,"is_disabled":false,"rental_uris":{"android":"levelo://app?vid=253b04c3-cc55-4e99-b603-8b20485c3594","ios":"levelo://app?vid=253b04c3-cc55-4e99-b603-8b20485c3594"},"vehicle_type_id":"4","last_reported":1739362672,"current_range_meters":38800,"station_id":"ce4bh8p2rcd13ifvqeb0","pricing_plan_id":"cebpf4jnsgd1na2vs0mg"},{"bike_id":"29193829-f227-47f7-9b77-dc131bef961e","system_id":"levelo_inurba_marseille","lat":43.29532,"lon":5.37508,"is_reserved":false,"is_disabled":false,"rental_uris":{"android":"levelo://app?vid=29193829-f227-47f7-9b77-dc131bef961e","ios":"levelo://app?vid=29193829-f227-47f7-9b77-dc131bef961e"},"vehicle_type_id":"4","last_reported":1739362672,"current_range_meters":22800,"station_id":"ce4bgkp2rcd13ifvqbmg","pricing_plan_id":"cebpf4jnsgd1na2vs0mg"},{"bike_id":"4a64ece0-ade0-4398-bd9a-7915c991c761","system_id":"levelo_inurba_marseille","lat":43.32486,"lon":5.36572,"is_reserved":false,"is_disabled":false,"rental_uris":{"android":"levelo://app?vid=4a64ece0-ade0-4398-bd9a-7915c991c761","ios":"levelo://app?vid=4a64ece0-ade0-4398-bd9a-7915c991c761"},"vehicle_type_id":"4","last_reported":1739362672,"current_range_meters":10800,"station_id":"ce4bhs12rcd13ifvqhvg","pricing_plan_id":"cebpf4jnsgd1na2vs0mg"},{"bike_id":"621496cd-27b7-4d54-8ba1-2247625ec6b0","system_id":"levelo_inurba_marseille","lat":43.29165,"lon":5.3717,"is_reserved":false,"is_disabled":false,"rental_uris":{"android":"levelo://app?vid=621496cd-27b7-4d54-8ba1-2247625ec6b0","ios":"levelo://app?vid=621496cd-27b7-4d54-8ba1-2247625ec6b0"},"vehicle_type_id":"4","last_reported":1739362672,"current_range_meters":32000,"station_id":"ce4bha92rcd13ifvqeh0","pricing_plan_id":"cebpf4jnsgd1na2vs0mg"},{"bike_id":"bc51da8d-60bc-461e-86ee-349740100db4","system_id":"levelo_inurba_marseille","lat":43.25826,"lon":5.3943,"is_reserved":false,"is_disabled":false,"rental_uris":{"android":"levelo://app?vid=bc51da8d-60bc-461e-86ee-349740100db4","ios":"levelo://app?vid=bc51da8d-60bc-461e-86ee-349740100db4"},"vehicle_type_id":"4","last_reported":1739362672,"current_range_meters":34800,"station_id":"ce4bhip2rcd13ifvqft0","pricing_plan_id":"cebpf4jnsgd1na2vs0mg"},{"bike_id":"3022a390-1c44-4221-b627-b981bb6953c7","system_id":"levelo_inurba_marseille","lat":43.28006,"lon":5.40021,"is_reserved":false,"is_disabled":false,"rental_uris":{"android":"levelo://app?vid=3022a390-1c44-4221-b627-b981bb6953c7","ios":"levelo://app?vid=3022a390-1c44-4221-b627-b981bb6953c7"},"vehicle_type_id":"4","last_reported":1739362672,"current_range_meters":24800,"station_id":"ce4bho92rcd13ifvqh4g","pricing_plan_id":"cebpf4jnsgd1na2vs0mg"},{"bike_id":"f7cd2f79-78bc-4162-a0ec-72719ede3443","system_id":"levelo_inurba_marseille","lat":43.28722,"lon":5.3998,"is_reserved":false,"is_disabled":false,"rental_uris":{"android":"levelo://app?vid=f7cd2f79-78bc-4162-a0ec-72719ede3443","ios":"levelo://app?vid=f7cd2f79-78bc-4162-a0ec-72719ede3443"},"vehicle_type_id":"4","last_reported":1739362672,"current_range_meters":24800,"station_id":"ce4bho92rcd13ifvqh3g","pricing_plan_id":"cebpf4jnsgd1na2vs0mg"},{"bike_id":"d1e173a7-7a13-459d-aa61-e912781d87f3","system_id":"levelo_inurba_marseille","lat":43.27322,"lon":5.39097,"is_reserved":false,"is_disabled":false,"rental_uris":{"android":"levelo://app?vid=d1e173a7-7a13-459d-aa61-e912781d87f3","ios":"levelo://app?vid=d1e173a7-7a13-459d-aa61-e912781d87f3"},"vehicle_type_id":"4","last_reported":1739362672,"current_range_meters":28000,"station_id":"ce4bhgp2rcd13ifvqfe0","pricing_plan_id":"cebpf4jnsgd1na2vs0mg"},{"bike_id":"10dce821-bd6f-48b5-a755-f2a3c840842c","system_id":"levelo_inurba_marseille","lat":43.23143,"lon":5.43727,"is_reserved":false,"is_disabled":true,"rental_uris":{"android":"levelo://app?vid=10dce821-bd6f-48b5-a755-f2a3c840842c","ios":"levelo://app?vid=10dce821-bd6f-48b5-a755-f2a3c840842c"},"vehicle_type_id":"4","last_reported":1739362672,"current_range_meters":0,"station_id":"ce4bhmp2rcd13ifvqgog","pricing_plan_id":"cebpf4jnsgd1na2vs0mg"},{"bike_id":"de77abfa-6f74-40e9-8131-b7884eda37eb","system_id":"levelo_inurba_marseille","lat":43.29944,"lon":5.39418,"is_reserved":false,"is_disabled":false,"rental_uris":{"android":"levelo://app?vid=de77abfa-6f74-40e9-8131-b7884eda37eb","ios":"levelo://app?vid=de77abfa-6f74-40e9-8131-b7884eda37eb"},"vehicle_type_id":"4","last_reported":1739362672,"current_range_meters":25600,"station_id":"","pricing_plan_id":"cebpf4jnsgd1na2vs0mg"},{"bike_id":"71814b93-120c-4d9f-92d9-68aad7e70d4c","system_id":"levelo_inurba_marseille","lat":43.28,"lon":5.40009,"is_reserved":false,"is_disabled":false,"rental_uris":{"android":"levelo://app?vid=71814b93-120c-4d9f-92d9-68aad7e70d4c","ios":"levelo://app?vid=71814b93-120c-4d9f-92d9-68aad7e70d4c"},"vehicle_type_id":"4","last_reported":1739362672,"current_range_meters":36000,"station_id":"ce4bho92rcd13ifvqh4g","pricing_plan_id":"cebpf4jnsgd1na2vs0mg"},{"bike_id":"aa081435-b5f9-4834-b16c-7f35c836b33a","system_id":"levelo_inurba_marseille","lat":43.30132,"lon":5.37424,"is_reserved":false,"is_disabled":false,"rental_uris":{"android":"levelo://app?vid=aa081435-b5f9-4834-b16c-7f35c836b33a","ios":"levelo://app?vid=aa081435-b5f9-4834-b16c-7f35c836b33a"},"vehicle_type_id":"4","last_reported":1739362672,"current_range_meters":37600,"station_id":"ce4bgs92rcd13ifvqcc0","pricing_plan_id":"cebpf4jnsgd1na2vs0mg"},{"bike_id":"ee079ffa-4416-4a91-bc98-3bd665acea3b","system_id":"levelo_inurba_marseille","lat":43.3376,"lon":5.39186,"is_reserved":false,"is_disabled":false,"rental_uris":{"android":"levelo://app?vid=ee079ffa-4416-4a91-bc98-3bd665acea3b","ios":"levelo://app?vid=ee079ffa-4416-4a91-bc98-3bd665acea3b"},"vehicle_type_id":"4","last_reported":1739362672,"current_range_meters":38800,"station_id":"ce4bhr92rcd13ifvqhsg","pricing_plan_id":"cebpf4jnsgd1na2vs0mg"},{"bike_id":"1fa82dc6-47d4-4356-bbca-393bf4461726","system_id":"levelo_inurba_marseille","lat":43.23957,"lon":5.36642,"is_reserved":false,"is_disabled":false,"rental_uris":{"android":"levelo://app?vid=1fa82dc6-47d4-4356-bbca-393bf4461726","ios":"levelo://app?vid=1fa82dc6-47d4-4356-bbca-393bf4461726"},"vehicle_type_id":"4","last_reported":1739362672,"current_range_meters":13600,"station_id":"ce4bhi12rcd13ifvqfp0","pricing_plan_id":"cebpf4jnsgd1na2vs0mg"},{"bike_id":"f6dc41f0-062a-4dd8-aad2-697bedd794c5","system_id":"levelo_inurba_marseille","lat":43.31713,"lon":5.37746,"is_reserved":false,"is_disabled":false,"rental_uris":{"android":"levelo://app?vid=f6dc41f0-062a-4dd8-aad2-697bedd794c5","ios":"levelo://app?vid=f6dc41f0-062a-4dd8-aad2-697bedd794c5"},"vehicle_type_id":"4","last_reported":1739362672,"current_range_meters":12000,"station_id":"ce4bgth2rcd13ifvqch0","pricing_plan_id":"cebpf4jnsgd1na2vs0mg"},{"bike_id":"42d75ddc-d462-40bc-a7f3-a489a173066f","system_id":"levelo_inurba_marseille","lat":43.28725,"lon":5.36088,"is_reserved":false,"is_disabled":false,"rental_uris":{"android":"levelo://app?vid=42d75ddc-d462-40bc-a7f3-a489a173066f","ios":"levelo://app?vid=42d75ddc-d462-40bc-a7f3-a489a173066f"},"vehicle_type_id":"4","last_reported":1739362672,"current_range_meters":26000,"station_id":"cki0cbj6b192h4jlfktg","pricing_plan_id":"cebpf4jnsgd1na2vs0mg"},{"bike_id":"4dfeaad9-f59c-4ae6-bbd7-1f043a24a5ad","system_id":"levelo_inurba_marseille","lat":43.27829,"lon":5.39209,"is_reserved":false,"is_disabled":false,"rental_uris":{"android":"levelo://app?vid=4dfeaad9-f59c-4ae6-bbd7-1f043a24a5ad","ios":"levelo://app?vid=4dfeaad9-f59c-4ae6-bbd7-1f043a24a5ad"},"vehicle_type_id":"4","last_reported":1739362672,"current_range_meters":30000,"station_id":"ce4bhjp2rcd13ifvqga0","pricing_plan_id":"cebpf4jnsgd1na2vs0mg"},{"bike_id":"23d748fe-d2fd-4357-8c0a-18133dabd7ec","system_id":"levelo_inurba_marseille","lat":43.32462,"lon":5.36552,"is_reserved":false,"is_disabled":false,"rental_uris":{"android":"levelo://app?vid=23d748fe-d2fd-4357-8c0a-18133dabd7ec","ios":"levelo://app?vid=23d748fe-d2fd-4357-8c0a-18133dabd7ec"},"vehicle_type_id":"4","last_reported":1739362672,"current_range_meters":38800,"station_id":"ce4bhs12rcd13ifvqhvg","pricing_plan_id":"cebpf4jnsgd1na2vs0mg"},{"bike_id":"bc9b283e-d1e3-4ecc-baae-e649ca388761","system_id":"levelo_inurba_marseille","lat":43.30134,"lon":5.37426,"is_reserved":false,"is_disabled":false,"rental_uris":{"android":"levelo://app?vid=bc9b283e-d1e3-4ecc-baae-e649ca388761","ios":"levelo://app?vid=bc9b283e-d1e3-4ecc-baae-e649ca388761"},"vehicle_type_id":"4","last_reported":1739362672,"current_range_meters":33200,"station_id":"ce4bgs92rcd13ifvqcc0","pricing_plan_id":"cebpf4jnsgd1na2vs0mg"},{"bike_id":"3adb6699-f719-4456-92ab-1968693e97fb","system_id":"levelo_inurba_marseille","lat":43.24165,"lon":5.36403,"is_reserved":false,"is_disabled":false,"rental_uris":{"android":"levelo://app?vid=3adb6699-f719-4456-92ab-1968693e97fb","ios":"levelo://app?vid=3adb6699-f719-4456-92ab-1968693e97fb"},"vehicle_type_id":"4","last_reported":1739362672,"current_range_meters":27600,"station_id":"cpo36qri1sfpv3e86is0","pricing_plan_id":"cebpf4jnsgd1na2vs0mg"},{"bike_id":"2db28ac3-3674-40f3-802b-a0f35e971790","system_id":"levelo_inurba_marseille","lat":43.27916,"lon":5.39586,"is_reserved":false,"is_disabled":false,"rental_uris":{"android":"levelo://app?vid=2db28ac3-3674-40f3-802b-a0f35e971790","ios":"levelo://app?vid=2db28ac3-3674-40f3-802b-a0f35e971790"},"vehicle_type_id":"4","last_reported":1739362672,"current_range_meters":8400,"station_id":"ce4bhf92rcd13ifvqf40","pricing_plan_id":"cebpf4jnsgd1na2vs0mg"},{"bike_id":"496fa2ad-a547-4095-b8b9-a29f1a78ab4b","system_id":"levelo_inurba_marseille","lat":43.2784,"lon":5.40736,"is_reserved":false,"is_disabled":false,"rental_uris":{"android":"levelo://app?vid=496fa2ad-a547-4095-b8b9-a29f1a78ab4b","ios":"levelo://app?vid=496fa2ad-a547-4095-b8b9-a29f1a78ab4b"},"vehicle_type_id":"4","last_reported":1739362672,"current_range_meters":32800,"station_id":"ce4bhnh2rcd13ifvqgtg","pricing_plan_id":"cebpf4jnsgd1na2vs0mg"},{"bike_id":"2d708f40-fafd-4352-afb2-83f671d6d30f","system_id":"levelo_inurba_marseille","lat":43.29608,"lon":5.37725,"is_reserved":false,"is_disabled":false,"rental_uris":{"android":"levelo://app?vid=2d708f40-fafd-4352-afb2-83f671d6d30f","ios":"levelo://app?vid=2d708f40-fafd-4352-afb2-83f671d6d30f"},"vehicle_type_id":"4","last_reported":1739362672,"current_range_meters":18000,"station_id":"ce4bgi92rcd13ifvqb90","pricing_plan_id":"cebpf4jnsgd1na2vs0mg"},{"bike_id":"49755494-159f-4648-b2cf-3265a6a32989","system_id":"levelo_inurba_marseille","lat":43.28125,"lon":5.37825,"is_reserved":false,"is_disabled":true,"rental_uris":{"android":"levelo://app?vid=49755494-159f-4648-b2cf-3265a6a32989","ios":"levelo://app?vid=49755494-159f-4648-b2cf-3265a6a32989"},"vehicle_type_id":"4","last_reported":1739362672,"current_range_meters":27600,"station_id":"ce4bha12rcd13ifvqee0","pricing_plan_id":"cebpf4jnsgd1na2vs0mg"},{"bike_id":"149626b9-1ac5-4f2c-ad21-b13aaef1dba9","system_id":"levelo_inurba_marseille","lat":43.28602,"lon":5.37073,"is_reserved":false,"is_disabled":false,"rental_uris":{"android":"levelo://app?vid=149626b9-1ac5-4f2c-ad21-b13aaef1dba9","ios":"levelo://app?vid=149626b9-1ac5-4f2c-ad21-b13aaef1dba9"},"vehicle_type_id":"4","last_reported":1739362672,"current_range_meters":14000,"station_id":"ce4bht12rcd13ifvqi60","pricing_plan_id":"cebpf4jnsgd1na2vs0mg"},{"bike_id":"211cb129-dca9-4da8-8639-5498c4f8bbc8","system_id":"levelo_inurba_marseille","lat":43.23058,"lon":5.35499,"is_reserved":false,"is_disabled":false,"rental_uris":{"android":"levelo://app?vid=211cb129-dca9-4da8-8639-5498c4f8bbc8","ios":"levelo://app?vid=211cb129-dca9-4da8-8639-5498c4f8bbc8"},"vehicle_type_id":"4","last_reported":1739362672,"current_range_meters":26000,"station_id":"cpo3342slgdg3j2ifvpg","pricing_plan_id":"cebpf4jnsgd1na2vs0mg"},{"bike_id":"cd3701ec-6330-43da-90d3-12ed199018ac","system_id":"levelo_inurba_marseille","lat":43.29797,"lon":5.38101,"is_reserved":false,"is_disabled":false,"rental_uris":{"android":"levelo://app?vid=cd3701ec-6330-43da-90d3-12ed199018ac","ios":"levelo://app?vid=cd3701ec-6330-43da-90d3-12ed199018ac"},"vehicle_type_id":"4","last_reported":1739362672,"current_range_meters":23200,"station_id":"ce4bgip2rcd13ifvqbb0","pricing_plan_id":"cebpf4jnsgd1na2vs0mg"},{"bike_id":"3d01ee57-be5d-4165-815d-c5b06c8be331","system_id":"levelo_inurba_marseille","lat":43.25018,"lon":5.38928,"is_reserved":false,"is_disabled":false,"rental_uris":{"android":"levelo://app?vid=3d01ee57-be5d-4165-815d-c5b06c8be331","ios":"levelo://app?vid=3d01ee57-be5d-4165-815d-c5b06c8be331"},"vehicle_type_id":"4","last_reported":1739362672,"current_range_meters":38800,"station_id":"ce4bhgp2rcd13ifvqfd0","pricing_plan_id":"cebpf4jnsgd1na2vs0mg"},{"bike_id":"d1eb830f-39bb-4473-a7f4-9f01996a13b6","system_id":"levelo_inurba_marseille","lat":43.30788,"lon":5.37664,"is_reserved":false,"is_disabled":false,"rental_uris":{"android":"levelo://app?vid=d1eb830f-39bb-4473-a7f4-9f01996a13b6","ios":"levelo://app?vid=d1eb830f-39bb-4473-a7f4-9f01996a13b6"},"vehicle_type_id":"4","last_reported":1739362672,"current_range_meters":36400,"station_id":"ce4bgv92rcd13ifvqcq0","pricing_plan_id":"cebpf4jnsgd1na2vs0mg"},{"bike_id":"08c3f891-e9d2-4ad5-b530-29881ae4b8aa","system_id":"levelo_inurba_marseille","lat":43.26933,"lon":5.40252,"is_reserved":false,"is_disabled":false,"rental_uris":{"android":"levelo://app?vid=08c3f891-e9d2-4ad5-b530-29881ae4b8aa","ios":"levelo://app?vid=08c3f891-e9d2-4ad5-b530-29881ae4b8aa"},"vehicle_type_id":"4","last_reported":1739362672,"current_range_meters":30800,"station_id":"cjm6bp8fraef2m0cb0m0","pricing_plan_id":"cebpf4jnsgd1na2vs0mg"},{"bike_id":"41a7db97-5ec2-4803-8049-fdd6221c005f","system_id":"levelo_inurba_marseille","lat":43.30299,"lon":5.39201,"is_reserved":false,"is_disabled":false,"rental_uris":{"android":"levelo://app?vid=41a7db97-5ec2-4803-8049-fdd6221c005f","ios":"levelo://app?vid=41a7db97-5ec2-4803-8049-fdd6221c005f"},"vehicle_type_id":"4","last_reported":1739362672,"current_range_meters":39200,"station_id":"ce4bgkh2rcd13ifvqbk0","pricing_plan_id":"cebpf4jnsgd1na2vs0mg"},{"bike_id":"c07ffd3b-1b45-4f4f-af96-2b31373f9d65","system_id":"levelo_inurba_marseille","lat":43.24166,"lon":5.36391,"is_reserved":false,"is_disabled":false,"rental_uris":{"android":"levelo://app?vid=c07ffd3b-1b45-4f4f-af96-2b31373f9d65","ios":"levelo://app?vid=c07ffd3b-1b45-4f4f-af96-2b31373f9d65"},"vehicle_type_id":"4","last_reported":1739362672,"current_range_meters":28000,"station_id":"cpo36qri1sfpv3e86is0","pricing_plan_id":"cebpf4jnsgd1na2vs0mg"},{"bike_id":"76ed4e97-7fa9-4836-bcd3-e52753ef31b4","system_id":"levelo_inurba_marseille","lat":43.29856,"lon":5.36275,"is_reserved":false,"is_disabled":false,"rental_uris":{"android":"levelo://app?vid=76ed4e97-7fa9-4836-bcd3-e52753ef31b4","ios":"levelo://app?vid=76ed4e97-7fa9-4836-bcd3-e52753ef31b4"},"vehicle_type_id":"4","last_reported":1739362672,"current_range_meters":38400,"station_id":"ce4bgpp2rcd13ifvqc3g","pricing_plan_id":"cebpf4jnsgd1na2vs0mg"},{"bike_id":"0394e382-bfa8-498f-a327-0051b826b287","system_id":"levelo_inurba_marseille","lat":43.29887,"lon":5.39746,"is_reserved":false,"is_disabled":false,"rental_uris":{"android":"levelo://app?vid=0394e382-bfa8-498f-a327-0051b826b287","ios":"levelo://app?vid=0394e382-bfa8-498f-a327-0051b826b287"},"vehicle_type_id":"4","last_reported":1739362672,"current_range_meters":24800,"station_id":"ce4bh0h2rcd13ifvqd50","pricing_plan_id":"cebpf4jnsgd1na2vs0mg"},{"bike_id":"2074baf4-8b25-4a98-be95-05ac45b40ae1","system_id":"levelo_inurba_marseille","lat":43.31752,"lon":5.39028,"is_reserved":false,"is_disabled":true,"rental_uris":{"android":"levelo://app?vid=2074baf4-8b25-4a98-be95-05ac45b40ae1","ios":"levelo://app?vid=2074baf4-8b25-4a98-be95-05ac45b40ae1"},"vehicle_type_id":"4","last_reported":1739362672,"current_range_meters":38000,"station_id":"ce4bhqp2rcd13ifvqhng","pricing_plan_id":"cebpf4jnsgd1na2vs0mg"},{"bike_id":"d32849cf-4c14-4032-9063-172d06d3f04f","system_id":"levelo_inurba_marseille","lat":43.23191,"lon":5.3556,"is_reserved":false,"is_disabled":false,"rental_uris":{"android":"levelo://app?vid=d32849cf-4c14-4032-9063-172d06d3f04f","ios":"levelo://app?vid=d32849cf-4c14-4032-9063-172d06d3f04f"},"vehicle_type_id":"4","last_reported":1739362672,"current_range_meters":31200,"station_id":"ce4bhu92rcd13ifvqi70","pricing_plan_id":"cebpf4jnsgd1na2vs0mg"},{"bike_id":"2ff86c0c-69fd-4294-8842-114f3593748f","system_id":"levelo_inurba_marseille","lat":43.313651,"lon":5.367291,"is_reserved":false,"is_disabled":false,"rental_uris":{"android":"levelo://app?vid=2ff86c0c-69fd-4294-8842-114f3593748f","ios":"levelo://app?vid=2ff86c0c-69fd-4294-8842-114f3593748f"},"vehicle_type_id":"4","last_reported":1739362672,"current_range_meters":36800,"station_id":"ce4bgr92rcd13ifvqc6g","pricing_plan_id":"cebpf4jnsgd1na2vs0mg"},{"bike_id":"59712fab-814c-4c2e-83b1-0a7468567838","system_id":"levelo_inurba_marseille","lat":43.296,"lon":5.3773,"is_reserved":false,"is_disabled":false,"rental_uris":{"android":"levelo://app?vid=59712fab-814c-4c2e-83b1-0a7468567838","ios":"levelo://app?vid=59712fab-814c-4c2e-83b1-0a7468567838"},"vehicle_type_id":"4","last_reported":1739362672,"current_range_meters":36400,"station_id":"ce4bgi92rcd13ifvqb90","pricing_plan_id":"cebpf4jnsgd1na2vs0mg"},{"bike_id":"1718508b-a124-4004-b648-bc715139650e","system_id":"levelo_inurba_marseille","lat":43.28953,"lon":5.36402,"is_reserved":false,"is_disabled":false,"rental_uris":{"android":"levelo://app?vid=1718508b-a124-4004-b648-bc715139650e","ios":"levelo://app?vid=1718508b-a124-4004-b648-bc715139650e"},"vehicle_type_id":"4","last_reported":1739362672,"current_range_meters":38800,"station_id":"ce4bhc92rcd13ifvqetg","pricing_plan_id":"cebpf4jnsgd1na2vs0mg"},{"bike_id":"536366d2-282b-48e8-9268-35b7ee369088","system_id":"levelo_inurba_marseille","lat":43.24997,"lon":5.38938,"is_reserved":false,"is_disabled":false,"rental_uris":{"android":"levelo://app?vid=536366d2-282b-48e8-9268-35b7ee369088","ios":"levelo://app?vid=536366d2-282b-48e8-9268-35b7ee369088"},"vehicle_type_id":"4","last_reported":1739362672,"current_range_meters":30400,"station_id":"ce4bhgp2rcd13ifvqfd0","pricing_plan_id":"cebpf4jnsgd1na2vs0mg"},{"bike_id":"09a31e22-31a3-4a8b-a8f3-c6b84a9cc357","system_id":"levelo_inurba_marseille","lat":43.2758,"lon":5.38434,"is_reserved":false,"is_disabled":false,"rental_uris":{"android":"levelo://app?vid=09a31e22-31a3-4a8b-a8f3-c6b84a9cc357","ios":"levelo://app?vid=09a31e22-31a3-4a8b-a8f3-c6b84a9cc357"},"vehicle_type_id":"4","last_reported":1739362672,"current_range_meters":24400,"station_id":"ce4bhh92rcd13ifvqfi0","pricing_plan_id":"cebpf4jnsgd1na2vs0mg"},{"bike_id":"b7cfafc0-fba3-47fa-8c3d-d96c6bee1f7a","system_id":"levelo_inurba_marseille","lat":43.24394,"lon":5.37058,"is_reserved":false,"is_disabled":false,"rental_uris":{"android":"levelo://app?vid=b7cfafc0-fba3-47fa-8c3d-d96c6bee1f7a","ios":"levelo://app?vid=b7cfafc0-fba3-47fa-8c3d-d96c6bee1f7a"},"vehicle_type_id":"4","last_reported":1739362672,"current_range_meters":30400,"station_id":"ce4bhhh2rcd13ifvqfk0","pricing_plan_id":"cebpf4jnsgd1na2vs0mg"},{"bike_id":"9ba133ba-7b58-4607-8737-7fb5bce66e58","system_id":"levelo_inurba_marseille","lat":43.24406,"lon":5.37051,"is_reserved":false,"is_disabled":false,"rental_uris":{"android":"levelo://app?vid=9ba133ba-7b58-4607-8737-7fb5bce66e58","ios":"levelo://app?vid=9ba133ba-7b58-4607-8737-7fb5bce66e58"},"vehicle_type_id":"4","last_reported":1739362672,"current_range_meters":38800,"station_id":"ce4bhhh2rcd13ifvqfk0","pricing_plan_id":"cebpf4jnsgd1na2vs0mg"},{"bike_id":"24d2a29b-fa24-4c85-a726-541b11d56bc0","system_id":"levelo_inurba_marseille","lat":43.3141,"lon":5.36769,"is_reserved":false,"is_disabled":false,"rental_uris":{"android":"levelo://app?vid=24d2a29b-fa24-4c85-a726-541b11d56bc0","ios":"levelo://app?vid=24d2a29b-fa24-4c85-a726-541b11d56bc0"},"vehicle_type_id":"4","last_reported":1739362672,"current_range_meters":14000,"station_id":"ce4bgr92rcd13ifvqc6g","pricing_plan_id":"cebpf4jnsgd1na2vs0mg"},{"bike_id":"3e05173f-c640-4ed3-a2ba-c06426ae393a","system_id":"levelo_inurba_marseille","lat":43.29866,"lon":5.39725,"is_reserved":false,"is_disabled":false,"rental_uris":{"android":"levelo://app?vid=3e05173f-c640-4ed3-a2ba-c06426ae393a","ios":"levelo://app?vid=3e05173f-c640-4ed3-a2ba-c06426ae393a"},"vehicle_type_id":"4","last_reported":1739362672,"current_range_meters":39200,"station_id":"ce4bh0h2rcd13ifvqd50","pricing_plan_id":"cebpf4jnsgd1na2vs0mg"},{"bike_id":"8ec577f3-8ca3-449b-97e8-b869a3caa09d","system_id":"levelo_inurba_marseille","lat":43.29556,"lon":5.37513,"is_reserved":false,"is_disabled":false,"rental_uris":{"android":"levelo://app?vid=8ec577f3-8ca3-449b-97e8-b869a3caa09d","ios":"levelo://app?vid=8ec577f3-8ca3-449b-97e8-b869a3caa09d"},"vehicle_type_id":"4","last_reported":1739362672,"current_range_meters":20400,"station_id":"ce4bgh92rcd13ifvqb50","pricing_plan_id":"cebpf4jnsgd1na2vs0mg"},{"bike_id":"23d59a8b-a09b-49a8-b576-8d7779cdbe88","system_id":"levelo_inurba_marseille","lat":43.304807,"lon":5.37913,"is_reserved":false,"is_disabled":false,"rental_uris":{"android":"levelo://app?vid=23d59a8b-a09b-49a8-b576-8d7779cdbe88","ios":"levelo://app?vid=23d59a8b-a09b-49a8-b576-8d7779cdbe88"},"vehicle_type_id":"4","last_reported":1739362672,"current_range_meters":35600,"station_id":"ce4bgup2rcd13ifvqcn0","pricing_plan_id":"cebpf4jnsgd1na2vs0mg"},{"bike_id":"14b2070b-6ddc-42e3-b1e8-9c0cbc081f72","system_id":"levelo_inurba_marseille","lat":43.33723,"lon":5.39191,"is_reserved":false,"is_disabled":false,"rental_uris":{"android":"levelo://app?vid=14b2070b-6ddc-42e3-b1e8-9c0cbc081f72","ios":"levelo://app?vid=14b2070b-6ddc-42e3-b1e8-9c0cbc081f72"},"vehicle_type_id":"4","last_reported":1739362672,"current_range_meters":38800,"station_id":"ce4bhr92rcd13ifvqhsg","pricing_plan_id":"cebpf4jnsgd1na2vs0mg"},{"bike_id":"c6e99a2c-3bd1-4c10-a474-c1beaeede241","system_id":"levelo_inurba_marseille","lat":43.28475,"lon":5.3841,"is_reserved":false,"is_disabled":false,"rental_uris":{"android":"levelo://app?vid=c6e99a2c-3bd1-4c10-a474-c1beaeede241","ios":"levelo://app?vid=c6e99a2c-3bd1-4c10-a474-c1beaeede241"},"vehicle_type_id":"4","last_reported":1739362672,"current_range_meters":8400,"station_id":"ce4bh512rcd13ifvqe3g","pricing_plan_id":"cebpf4jnsgd1na2vs0mg"},{"bike_id":"60116ccd-1168-4e38-83b4-1466c0e08dd1","system_id":"levelo_inurba_marseille","lat":43.29529,"lon":5.38548,"is_reserved":false,"is_disabled":false,"rental_uris":{"android":"levelo://app?vid=60116ccd-1168-4e38-83b4-1466c0e08dd1","ios":"levelo://app?vid=60116ccd-1168-4e38-83b4-1466c0e08dd1"},"vehicle_type_id":"4","last_reported":1739362672,"current_range_meters":20800,"station_id":"ce4bgih2rcd13ifvqba0","pricing_plan_id":"cebpf4jnsgd1na2vs0mg"},{"bike_id":"fb3e0432-9f45-4033-b4f3-12d79e0be8d3","system_id":"levelo_inurba_marseille","lat":43.3025,"lon":5.40053,"is_reserved":false,"is_disabled":true,"rental_uris":{"android":"levelo://app?vid=fb3e0432-9f45-4033-b4f3-12d79e0be8d3","ios":"levelo://app?vid=fb3e0432-9f45-4033-b4f3-12d79e0be8d3"},"vehicle_type_id":"4","last_reported":1739362672,"current_range_meters":1200,"station_id":"ce4bgvh2rcd13ifvqcs0","pricing_plan_id":"cebpf4jnsgd1na2vs0mg"},{"bike_id":"72dcdbd8-6454-45d9-a70f-b140c9e866d2","system_id":"levelo_inurba_marseille","lat":43.29904,"lon":5.43661,"is_reserved":false,"is_disabled":false,"rental_uris":{"android":"levelo://app?vid=72dcdbd8-6454-45d9-a70f-b140c9e866d2","ios":"levelo://app?vid=72dcdbd8-6454-45d9-a70f-b140c9e866d2"},"vehicle_type_id":"4","last_reported":1739362672,"current_range_meters":39200,"station_id":"ce4bhpp2rcd13ifvqhfg","pricing_plan_id":"cebpf4jnsgd1na2vs0mg"},{"bike_id":"a0e5c70d-bbf8-45fe-9643-a700291c2a1a","system_id":"levelo_inurba_marseille","lat":43.26681,"lon":5.3827,"is_reserved":false,"is_disabled":false,"rental_uris":{"android":"levelo://app?vid=a0e5c70d-bbf8-45fe-9643-a700291c2a1a","ios":"levelo://app?vid=a0e5c70d-bbf8-45fe-9643-a700291c2a1a"},"vehicle_type_id":"4","last_reported":1739362672,"current_range_meters":38400,"station_id":"ce4bhg92rcd13ifvqf90","pricing_plan_id":"cebpf4jnsgd1na2vs0mg"},{"bike_id":"c6db21d7-d9e3-4a71-aaf3-94276ad01457","system_id":"levelo_inurba_marseille","lat":43.32913,"lon":5.36043,"is_reserved":false,"is_disabled":false,"rental_uris":{"android":"levelo://app?vid=c6db21d7-d9e3-4a71-aaf3-94276ad01457","ios":"levelo://app?vid=c6db21d7-d9e3-4a71-aaf3-94276ad01457"},"vehicle_type_id":"4","last_reported":1739362672,"current_range_meters":36800,"station_id":"","pricing_plan_id":"cebpf4jnsgd1na2vs0mg"},{"bike_id":"d21c3397-ad14-4333-8365-8dddc770a7ca","system_id":"levelo_inurba_marseille","lat":43.28011,"lon":5.38725,"is_reserved":false,"is_disabled":false,"rental_uris":{"android":"levelo://app?vid=d21c3397-ad14-4333-8365-8dddc770a7ca","ios":"levelo://app?vid=d21c3397-ad14-4333-8365-8dddc770a7ca"},"vehicle_type_id":"4","last_reported":1739362672,"current_range_meters":22800,"station_id":"ce4bhg12rcd13ifvqf80","pricing_plan_id":"cebpf4jnsgd1na2vs0mg"},{"bike_id":"acd088e7-dc82-4cb8-8e19-47754c61567c","system_id":"levelo_inurba_marseille","lat":43.31336,"lon":5.36732,"is_reserved":false,"is_disabled":false,"rental_uris":{"android":"levelo://app?vid=acd088e7-dc82-4cb8-8e19-47754c61567c","ios":"levelo://app?vid=acd088e7-dc82-4cb8-8e19-47754c61567c"},"vehicle_type_id":"4","last_reported":1739362672,"current_range_meters":34800,"station_id":"ce4bgr92rcd13ifvqc6g","pricing_plan_id":"cebpf4jnsgd1na2vs0mg"},{"bike_id":"37fee8de-7920-4095-90fd-dbb82aabca95","system_id":"levelo_inurba_marseille","lat":43.31347,"lon":5.36665,"is_reserved":false,"is_disabled":false,"rental_uris":{"android":"levelo://app?vid=37fee8de-7920-4095-90fd-dbb82aabca95","ios":"levelo://app?vid=37fee8de-7920-4095-90fd-dbb82aabca95"},"vehicle_type_id":"4","last_reported":1739362672,"current_range_meters":28400,"station_id":"ce4bgr92rcd13ifvqc6g","pricing_plan_id":"cebpf4jnsgd1na2vs0mg"},{"bike_id":"201b14f4-65c7-45ff-8010-fe136e6675ac","system_id":"levelo_inurba_marseille","lat":43.24183,"lon":5.39719,"is_reserved":false,"is_disabled":false,"rental_uris":{"android":"levelo://app?vid=201b14f4-65c7-45ff-8010-fe136e6675ac","ios":"levelo://app?vid=201b14f4-65c7-45ff-8010-fe136e6675ac"},"vehicle_type_id":"4","last_reported":1739362672,"current_range_meters":20800,"station_id":"ce4bhn12rcd13ifvqgpg","pricing_plan_id":"cebpf4jnsgd1na2vs0mg"},{"bike_id":"f4379ffa-d405-4bc5-bc54-4ecf2b401aef","system_id":"levelo_inurba_marseille","lat":43.30968,"lon":5.39054,"is_reserved":false,"is_disabled":false,"rental_uris":{"android":"levelo://app?vid=f4379ffa-d405-4bc5-bc54-4ecf2b401aef","ios":"levelo://app?vid=f4379ffa-d405-4bc5-bc54-4ecf2b401aef"},"vehicle_type_id":"4","last_reported":1739362672,"current_range_meters":38000,"station_id":"","pricing_plan_id":"cebpf4jnsgd1na2vs0mg"},{"bike_id":"6e7d3d9b-4a1e-44cb-a74d-08fc3df39ea4","system_id":"levelo_inurba_marseille","lat":43.25716,"lon":5.41112,"is_reserved":false,"is_disabled":false,"rental_uris":{"android":"levelo://app?vid=6e7d3d9b-4a1e-44cb-a74d-08fc3df39ea4","ios":"levelo://app?vid=6e7d3d9b-4a1e-44cb-a74d-08fc3df39ea4"},"vehicle_type_id":"4","last_reported":1739362672,"current_range_meters":24000,"station_id":"ce4bhkp2rcd13ifvqgd0","pricing_plan_id":"cebpf4jnsgd1na2vs0mg"},{"bike_id":"ddbfc913-16cf-4d9f-a892-35d08e1e6767","system_id":"levelo_inurba_marseille","lat":43.29599,"lon":5.3675,"is_reserved":false,"is_disabled":false,"rental_uris":{"android":"levelo://app?vid=ddbfc913-16cf-4d9f-a892-35d08e1e6767","ios":"levelo://app?vid=ddbfc913-16cf-4d9f-a892-35d08e1e6767"},"vehicle_type_id":"4","last_reported":1739362672,"current_range_meters":11200,"station_id":"ce4bgph2rcd13ifvqc2g","pricing_plan_id":"cebpf4jnsgd1na2vs0mg"},{"bike_id":"0a77f424-9d7d-4010-bd33-1687a2ffd57e","system_id":"levelo_inurba_marseille","lat":43.2481,"lon":5.37447,"is_reserved":false,"is_disabled":false,"rental_uris":{"android":"levelo://app?vid=0a77f424-9d7d-4010-bd33-1687a2ffd57e","ios":"levelo://app?vid=0a77f424-9d7d-4010-bd33-1687a2ffd57e"},"vehicle_type_id":"4","last_reported":1739362672,"current_range_meters":10000,"station_id":"ce4bhgh2rcd13ifvqfb0","pricing_plan_id":"cebpf4jnsgd1na2vs0mg"},{"bike_id":"7ceeb2e5-8673-48b0-9f08-9e1430bd1bc6","system_id":"levelo_inurba_marseille","lat":43.2844,"lon":5.38478,"is_reserved":false,"is_disabled":false,"rental_uris":{"android":"levelo://app?vid=7ceeb2e5-8673-48b0-9f08-9e1430bd1bc6","ios":"levelo://app?vid=7ceeb2e5-8673-48b0-9f08-9e1430bd1bc6"},"vehicle_type_id":"4","last_reported":1739362672,"current_range_meters":38800,"station_id":"","pricing_plan_id":"cebpf4jnsgd1na2vs0mg"},{"bike_id":"c2250f20-2283-4e17-b7ce-382f2f740aa1","system_id":"levelo_inurba_marseille","lat":43.24812,"lon":5.37457,"is_reserved":false,"is_disabled":false,"rental_uris":{"android":"levelo://app?vid=c2250f20-2283-4e17-b7ce-382f2f740aa1","ios":"levelo://app?vid=c2250f20-2283-4e17-b7ce-382f2f740aa1"},"vehicle_type_id":"4","last_reported":1739362672,"current_range_meters":39200,"station_id":"ce4bhgh2rcd13ifvqfb0","pricing_plan_id":"cebpf4jnsgd1na2vs0mg"},{"bike_id":"4bbd744f-d066-40c6-adb0-590ab819737a","system_id":"levelo_inurba_marseille","lat":43.28669,"lon":5.38665,"is_reserved":false,"is_disabled":false,"rental_uris":{"android":"levelo://app?vid=4bbd744f-d066-40c6-adb0-590ab819737a","ios":"levelo://app?vid=4bbd744f-d066-40c6-adb0-590ab819737a"},"vehicle_type_id":"4","last_reported":1739362672,"current_range_meters":38400,"station_id":"ce4bh492rcd13ifvqdug","pricing_plan_id":"cebpf4jnsgd1na2vs0mg"},{"bike_id":"d52467fa-3015-4742-aee2-f7ab48c12d28","system_id":"levelo_inurba_marseille","lat":43.30303,"lon":5.36904,"is_reserved":false,"is_disabled":false,"rental_uris":{"android":"levelo://app?vid=d52467fa-3015-4742-aee2-f7ab48c12d28","ios":"levelo://app?vid=d52467fa-3015-4742-aee2-f7ab48c12d28"},"vehicle_type_id":"4","last_reported":1739362672,"current_range_meters":15200,"station_id":"ce4bgqh2rcd13ifvqc5g","pricing_plan_id":"cebpf4jnsgd1na2vs0mg"},{"bike_id":"e724c158-8da2-43cc-bc59-c978dbcb31dd","system_id":"levelo_inurba_marseille","lat":43.30139,"lon":5.3806,"is_reserved":false,"is_disabled":false,"rental_uris":{"android":"levelo://app?vid=e724c158-8da2-43cc-bc59-c978dbcb31dd","ios":"levelo://app?vid=e724c158-8da2-43cc-bc59-c978dbcb31dd"},"vehicle_type_id":"4","last_reported":1739362672,"current_range_meters":35200,"station_id":"ce4bgjp2rcd13ifvqbh0","pricing_plan_id":"cebpf4jnsgd1na2vs0mg"},{"bike_id":"45ca2203-7967-4801-af76-28ad9d10e17c","system_id":"levelo_inurba_marseille","lat":43.28351,"lon":5.38621,"is_reserved":false,"is_disabled":false,"rental_uris":{"android":"levelo://app?vid=45ca2203-7967-4801-af76-28ad9d10e17c","ios":"levelo://app?vid=45ca2203-7967-4801-af76-28ad9d10e17c"},"vehicle_type_id":"4","last_reported":1739362672,"current_range_meters":38000,"station_id":"ce4bh492rcd13ifvqdvg","pricing_plan_id":"cebpf4jnsgd1na2vs0mg"},{"bike_id":"d90f5d94-8ef0-493b-aff2-02a20d5fc838","system_id":"levelo_inurba_marseille","lat":43.28943,"lon":5.36639,"is_reserved":false,"is_disabled":false,"rental_uris":{"android":"levelo://app?vid=d90f5d94-8ef0-493b-aff2-02a20d5fc838","ios":"levelo://app?vid=d90f5d94-8ef0-493b-aff2-02a20d5fc838"},"vehicle_type_id":"4","last_reported":1739362672,"current_range_meters":30000,"station_id":"ce4bhap2rcd13ifvqek0","pricing_plan_id":"cebpf4jnsgd1na2vs0mg"},{"bike_id":"d008ba12-ce87-4465-8396-20ff187b9783","system_id":"levelo_inurba_marseille","lat":43.30373,"lon":5.41894,"is_reserved":false,"is_disabled":false,"rental_uris":{"android":"levelo://app?vid=d008ba12-ce87-4465-8396-20ff187b9783","ios":"levelo://app?vid=d008ba12-ce87-4465-8396-20ff187b9783"},"vehicle_type_id":"4","last_reported":1739362672,"current_range_meters":37600,"station_id":"ce4bhop2rcd13ifvqh7g","pricing_plan_id":"cebpf4jnsgd1na2vs0mg"},{"bike_id":"f85fd452-5bde-4296-ab83-dac7111c9b77","system_id":"levelo_inurba_marseille","lat":43.32539,"lon":5.41431,"is_reserved":false,"is_disabled":false,"rental_uris":{"android":"levelo://app?vid=f85fd452-5bde-4296-ab83-dac7111c9b77","ios":"levelo://app?vid=f85fd452-5bde-4296-ab83-dac7111c9b77"},"vehicle_type_id":"4","last_reported":1739362672,"current_range_meters":36000,"station_id":"ce4bhq12rcd13ifvqhhg","pricing_plan_id":"cebpf4jnsgd1na2vs0mg"},{"bike_id":"d3b58dda-3b0c-4227-b0cb-8890146ef189","system_id":"levelo_inurba_marseille","lat":43.30539,"lon":5.36534,"is_reserved":false,"is_disabled":false,"rental_uris":{"android":"levelo://app?vid=d3b58dda-3b0c-4227-b0cb-8890146ef189","ios":"levelo://app?vid=d3b58dda-3b0c-4227-b0cb-8890146ef189"},"vehicle_type_id":"4","last_reported":1739362672,"current_range_meters":38800,"station_id":"ce4bgs12rcd13ifvqcag","pricing_plan_id":"cebpf4jnsgd1na2vs0mg"},{"bike_id":"30b76049-e41b-4adb-862f-755fe2524e05","system_id":"levelo_inurba_marseille","lat":43.288513,"lon":5.393247,"is_reserved":false,"is_disabled":true,"rental_uris":{"android":"levelo://app?vid=30b76049-e41b-4adb-862f-755fe2524e05","ios":"levelo://app?vid=30b76049-e41b-4adb-862f-755fe2524e05"},"vehicle_type_id":"4","last_reported":1739362672,"current_range_meters":36400,"station_id":"","pricing_plan_id":"cebpf4jnsgd1na2vs0mg"},{"bike_id":"ade06ca6-bdca-4ac1-94f5-3a928e853a5c","system_id":"levelo_inurba_marseille","lat":43.28479,"lon":5.38417,"is_reserved":false,"is_disabled":false,"rental_uris":{"android":"levelo://app?vid=ade06ca6-bdca-4ac1-94f5-3a928e853a5c","ios":"levelo://app?vid=ade06ca6-bdca-4ac1-94f5-3a928e853a5c"},"vehicle_type_id":"4","last_reported":1739362672,"current_range_meters":30800,"station_id":"ce4bh512rcd13ifvqe3g","pricing_plan_id":"cebpf4jnsgd1na2vs0mg"},{"bike_id":"b5c6d8e3-df4e-4921-be7d-a4e22b9e9116","system_id":"levelo_inurba_marseille","lat":43.30556,"lon":5.36706,"is_reserved":false,"is_disabled":false,"rental_uris":{"android":"levelo://app?vid=b5c6d8e3-df4e-4921-be7d-a4e22b9e9116","ios":"levelo://app?vid=b5c6d8e3-df4e-4921-be7d-a4e22b9e9116"},"vehicle_type_id":"4","last_reported":1739362672,"current_range_meters":20400,"station_id":"ce4bgrp2rcd13ifvqc9g","pricing_plan_id":"cebpf4jnsgd1na2vs0mg"},{"bike_id":"86a3e793-aa0e-4be2-a5ae-ebbf4b19b476","system_id":"levelo_inurba_marseille","lat":43.29529,"lon":5.38545,"is_reserved":false,"is_disabled":false,"rental_uris":{"android":"levelo://app?vid=86a3e793-aa0e-4be2-a5ae-ebbf4b19b476","ios":"levelo://app?vid=86a3e793-aa0e-4be2-a5ae-ebbf4b19b476"},"vehicle_type_id":"4","last_reported":1739362672,"current_range_meters":28800,"station_id":"ce4bgih2rcd13ifvqba0","pricing_plan_id":"cebpf4jnsgd1na2vs0mg"},{"bike_id":"dd77d9b1-3fcc-489f-ae09-be267a74a694","system_id":"levelo_inurba_marseille","lat":43.29676,"lon":5.373,"is_reserved":false,"is_disabled":false,"rental_uris":{"android":"levelo://app?vid=dd77d9b1-3fcc-489f-ae09-be267a74a694","ios":"levelo://app?vid=dd77d9b1-3fcc-489f-ae09-be267a74a694"},"vehicle_type_id":"4","last_reported":1739362672,"current_range_meters":38000,"station_id":"ce4bgk12rcd13ifvqbj0","pricing_plan_id":"cebpf4jnsgd1na2vs0mg"},{"bike_id":"9abdd401-b944-4a18-bc78-d55306443036","system_id":"levelo_inurba_marseille","lat":43.30462,"lon":5.37919,"is_reserved":false,"is_disabled":false,"rental_uris":{"android":"levelo://app?vid=9abdd401-b944-4a18-bc78-d55306443036","ios":"levelo://app?vid=9abdd401-b944-4a18-bc78-d55306443036"},"vehicle_type_id":"4","last_reported":1739362672,"current_range_meters":11600,"station_id":"ce4bgup2rcd13ifvqcn0","pricing_plan_id":"cebpf4jnsgd1na2vs0mg"},{"bike_id":"549e7fd2-ea6c-4bb4-a199-a8fc722f1288","system_id":"levelo_inurba_marseille","lat":43.28694,"lon":5.37382,"is_reserved":false,"is_disabled":false,"rental_uris":{"android":"levelo://app?vid=549e7fd2-ea6c-4bb4-a199-a8fc722f1288","ios":"levelo://app?vid=549e7fd2-ea6c-4bb4-a199-a8fc722f1288"},"vehicle_type_id":"4","last_reported":1739362672,"current_range_meters":35200,"station_id":"ce4bh3p2rcd13ifvqdq0","pricing_plan_id":"cebpf4jnsgd1na2vs0mg"},{"bike_id":"6f6dba09-9ceb-4ec0-a4eb-10d8b83b36e7","system_id":"levelo_inurba_marseille","lat":43.295227,"lon":5.390535,"is_reserved":false,"is_disabled":false,"rental_uris":{"android":"levelo://app?vid=6f6dba09-9ceb-4ec0-a4eb-10d8b83b36e7","ios":"levelo://app?vid=6f6dba09-9ceb-4ec0-a4eb-10d8b83b36e7"},"vehicle_type_id":"4","last_reported":1739362672,"current_range_meters":36000,"station_id":"ce4bh3p2rcd13ifvqdp0","pricing_plan_id":"cebpf4jnsgd1na2vs0mg"},{"bike_id":"6ac8ed50-e559-41da-9f09-049c8152642a","system_id":"levelo_inurba_marseille","lat":43.28277,"lon":5.35064,"is_reserved":false,"is_disabled":false,"rental_uris":{"android":"levelo://app?vid=6ac8ed50-e559-41da-9f09-049c8152642a","ios":"levelo://app?vid=6ac8ed50-e559-41da-9f09-049c8152642a"},"vehicle_type_id":"4","last_reported":1739362672,"current_range_meters":21600,"station_id":"ce4bhbp2rcd13ifvqerg","pricing_plan_id":"cebpf4jnsgd1na2vs0mg"},{"bike_id":"6dba28b7-02b9-4b59-9d6d-a9d4179bfb24","system_id":"levelo_inurba_marseille","lat":43.29318,"lon":5.37188,"is_reserved":false,"is_disabled":false,"rental_uris":{"android":"levelo://app?vid=6dba28b7-02b9-4b59-9d6d-a9d4179bfb24","ios":"levelo://app?vid=6dba28b7-02b9-4b59-9d6d-a9d4179bfb24"},"vehicle_type_id":"4","last_reported":1739362672,"current_range_meters":38800,"station_id":"ce4bgh92rcd13ifvqb40","pricing_plan_id":"cebpf4jnsgd1na2vs0mg"},{"bike_id":"87b12664-364b-4d5c-9305-ea1eaf32be2a","system_id":"levelo_inurba_marseille","lat":43.2895,"lon":5.39731,"is_reserved":false,"is_disabled":false,"rental_uris":{"android":"levelo://app?vid=87b12664-364b-4d5c-9305-ea1eaf32be2a","ios":"levelo://app?vid=87b12664-364b-4d5c-9305-ea1eaf32be2a"},"vehicle_type_id":"4","last_reported":1739362672,"current_range_meters":32400,"station_id":"ce4bgjh2rcd13ifvqbf0","pricing_plan_id":"cebpf4jnsgd1na2vs0mg"},{"bike_id":"017c7154-481b-45a2-ab83-d5a473f21711","system_id":"levelo_inurba_marseille","lat":43.28722,"lon":5.3608,"is_reserved":false,"is_disabled":false,"rental_uris":{"android":"levelo://app?vid=017c7154-481b-45a2-ab83-d5a473f21711","ios":"levelo://app?vid=017c7154-481b-45a2-ab83-d5a473f21711"},"vehicle_type_id":"4","last_reported":1739362672,"current_range_meters":39200,"station_id":"cki0cbj6b192h4jlfktg","pricing_plan_id":"cebpf4jnsgd1na2vs0mg"},{"bike_id":"e7317b5b-173d-4060-8e4e-467fa10d516f","system_id":"levelo_inurba_marseille","lat":43.30241,"lon":5.40072,"is_reserved":false,"is_disabled":true,"rental_uris":{"android":"levelo://app?vid=e7317b5b-173d-4060-8e4e-467fa10d516f","ios":"levelo://app?vid=e7317b5b-173d-4060-8e4e-467fa10d516f"},"vehicle_type_id":"4","last_reported":1739362672,"current_range_meters":8000,"station_id":"ce4bgvh2rcd13ifvqcs0","pricing_plan_id":"cebpf4jnsgd1na2vs0mg"},{"bike_id":"83930399-1738-4435-81c0-df3ce39f48fe","system_id":"levelo_inurba_marseille","lat":43.29014,"lon":5.35612,"is_reserved":false,"is_disabled":false,"rental_uris":{"android":"levelo://app?vid=83930399-1738-4435-81c0-df3ce39f48fe","ios":"levelo://app?vid=83930399-1738-4435-81c0-df3ce39f48fe"},"vehicle_type_id":"4","last_reported":1739362672,"current_range_meters":16800,"station_id":"ce4bhb92rcd13ifvqen0","pricing_plan_id":"cebpf4jnsgd1na2vs0mg"},{"bike_id":"11d0e484-9f72-4924-9c89-a026f85ce928","system_id":"levelo_inurba_marseille","lat":43.29571,"lon":5.37529,"is_reserved":false,"is_disabled":false,"rental_uris":{"android":"levelo://app?vid=11d0e484-9f72-4924-9c89-a026f85ce928","ios":"levelo://app?vid=11d0e484-9f72-4924-9c89-a026f85ce928"},"vehicle_type_id":"4","last_reported":1739362672,"current_range_meters":17600,"station_id":"ce4bgh92rcd13ifvqb50","pricing_plan_id":"cebpf4jnsgd1na2vs0mg"},{"bike_id":"04d4b8ab-1d4d-44ab-9d49-e10f569c0553","system_id":"levelo_inurba_marseille","lat":43.29847,"lon":5.36264,"is_reserved":false,"is_disabled":false,"rental_uris":{"android":"levelo://app?vid=04d4b8ab-1d4d-44ab-9d49-e10f569c0553","ios":"levelo://app?vid=04d4b8ab-1d4d-44ab-9d49-e10f569c0553"},"vehicle_type_id":"4","last_reported":1739362672,"current_range_meters":33600,"station_id":"ce4bgpp2rcd13ifvqc3g","pricing_plan_id":"cebpf4jnsgd1na2vs0mg"},{"bike_id":"7758a3af-2af0-46c6-af72-aa71f1edaeb1","system_id":"levelo_inurba_marseille","lat":43.3266,"lon":5.40995,"is_reserved":false,"is_disabled":false,"rental_uris":{"android":"levelo://app?vid=7758a3af-2af0-46c6-af72-aa71f1edaeb1","ios":"levelo://app?vid=7758a3af-2af0-46c6-af72-aa71f1edaeb1"},"vehicle_type_id":"4","last_reported":1739362672,"current_range_meters":34000,"station_id":"ce4bhpp2rcd13ifvqhgg","pricing_plan_id":"cebpf4jnsgd1na2vs0mg"},{"bike_id":"02185e1f-8f2d-4166-b82a-9c67e778c7a6","system_id":"levelo_inurba_marseille","lat":43.28488,"lon":5.38425,"is_reserved":false,"is_disabled":false,"rental_uris":{"android":"levelo://app?vid=02185e1f-8f2d-4166-b82a-9c67e778c7a6","ios":"levelo://app?vid=02185e1f-8f2d-4166-b82a-9c67e778c7a6"},"vehicle_type_id":"4","last_reported":1739362672,"current_range_meters":30400,"station_id":"ce4bh512rcd13ifvqe3g","pricing_plan_id":"cebpf4jnsgd1na2vs0mg"},{"bike_id":"1c67d2ae-100f-4ce1-b57e-34aa13591143","system_id":"levelo_inurba_marseille","lat":43.30256,"lon":5.40063,"is_reserved":false,"is_disabled":false,"rental_uris":{"android":"levelo://app?vid=1c67d2ae-100f-4ce1-b57e-34aa13591143","ios":"levelo://app?vid=1c67d2ae-100f-4ce1-b57e-34aa13591143"},"vehicle_type_id":"4","last_reported":1739362672,"current_range_meters":35200,"station_id":"ce4bgvh2rcd13ifvqcs0","pricing_plan_id":"cebpf4jnsgd1na2vs0mg"},{"bike_id":"c4813b27-4250-43ea-8be5-ccd7321d2af3","system_id":"levelo_inurba_marseille","lat":43.28211,"lon":5.36995,"is_reserved":false,"is_disabled":false,"rental_uris":{"android":"levelo://app?vid=c4813b27-4250-43ea-8be5-ccd7321d2af3","ios":"levelo://app?vid=c4813b27-4250-43ea-8be5-ccd7321d2af3"},"vehicle_type_id":"4","last_reported":1739362672,"current_range_meters":17600,"station_id":"","pricing_plan_id":"cebpf4jnsgd1na2vs0mg"},{"bike_id":"87671df1-0575-4c1b-9230-115ab0f108f4","system_id":"levelo_inurba_marseille","lat":43.24811,"lon":5.37456,"is_reserved":false,"is_disabled":false,"rental_uris":{"android":"levelo://app?vid=87671df1-0575-4c1b-9230-115ab0f108f4","ios":"levelo://app?vid=87671df1-0575-4c1b-9230-115ab0f108f4"},"vehicle_type_id":"4","last_reported":1739362672,"current_range_meters":38800,"station_id":"ce4bhgh2rcd13ifvqfb0","pricing_plan_id":"cebpf4jnsgd1na2vs0mg"},{"bike_id":"2f6ca5c9-7339-425d-96d9-1012c8a7d24d","system_id":"levelo_inurba_marseille","lat":43.23158,"lon":5.43736,"is_reserved":false,"is_disabled":false,"rental_uris":{"android":"levelo://app?vid=2f6ca5c9-7339-425d-96d9-1012c8a7d24d","ios":"levelo://app?vid=2f6ca5c9-7339-425d-96d9-1012c8a7d24d"},"vehicle_type_id":"4","last_reported":1739362672,"current_range_meters":20000,"station_id":"ce4bhmp2rcd13ifvqgog","pricing_plan_id":"cebpf4jnsgd1na2vs0mg"},{"bike_id":"b708dfd5-be04-464e-bcbb-1586d908f28d","system_id":"levelo_inurba_marseille","lat":43.30891,"lon":5.39651,"is_reserved":false,"is_disabled":false,"rental_uris":{"android":"levelo://app?vid=b708dfd5-be04-464e-bcbb-1586d908f28d","ios":"levelo://app?vid=b708dfd5-be04-464e-bcbb-1586d908f28d"},"vehicle_type_id":"4","last_reported":1739362672,"current_range_meters":30800,"station_id":"ce4bh012rcd13ifvqcv0","pricing_plan_id":"cebpf4jnsgd1na2vs0mg"},{"bike_id":"d687362b-027a-4d53-b0c7-647f0afbee39","system_id":"levelo_inurba_marseille","lat":43.293124,"lon":5.371788,"is_reserved":false,"is_disabled":false,"rental_uris":{"android":"levelo://app?vid=d687362b-027a-4d53-b0c7-647f0afbee39","ios":"levelo://app?vid=d687362b-027a-4d53-b0c7-647f0afbee39"},"vehicle_type_id":"4","last_reported":1739362672,"current_range_meters":38000,"station_id":"ce4bgh92rcd13ifvqb40","pricing_plan_id":"cebpf4jnsgd1na2vs0mg"},{"bike_id":"36ff92ad-ebc1-4fd8-8dd7-e924b8bea389","system_id":"levelo_inurba_marseille","lat":43.30469,"lon":5.37893,"is_reserved":false,"is_disabled":true,"rental_uris":{"android":"levelo://app?vid=36ff92ad-ebc1-4fd8-8dd7-e924b8bea389","ios":"levelo://app?vid=36ff92ad-ebc1-4fd8-8dd7-e924b8bea389"},"vehicle_type_id":"4","last_reported":1739362672,"current_range_meters":17600,"station_id":"ce4bho92rcd13ifvqh3g","pricing_plan_id":"cebpf4jnsgd1na2vs0mg"},{"bike_id":"3ba1b6bc-2bbc-4bef-a553-4e901f534eea","system_id":"levelo_inurba_marseille","lat":43.28715,"lon":5.40001,"is_reserved":false,"is_disabled":false,"rental_uris":{"android":"levelo://app?vid=3ba1b6bc-2bbc-4bef-a553-4e901f534eea","ios":"levelo://app?vid=3ba1b6bc-2bbc-4bef-a553-4e901f534eea"},"vehicle_type_id":"4","last_reported":1739362672,"current_range_meters":17600,"station_id":"ce4bho92rcd13ifvqh3g","pricing_plan_id":"cebpf4jnsgd1na2vs0mg"},{"bike_id":"7399132f-cac0-47dd-97c2-a8a020c2c9ec","system_id":"levelo_inurba_marseille","lat":43.25948,"lon":5.40895,"is_reserved":false,"is_disabled":false,"rental_uris":{"android":"levelo://app?vid=7399132f-cac0-47dd-97c2-a8a020c2c9ec","ios":"levelo://app?vid=7399132f-cac0-47dd-97c2-a8a020c2c9ec"},"vehicle_type_id":"4","last_reported":1739362672,"current_range_meters":30400,"station_id":"ce4bhm92rcd13ifvqglg","pricing_plan_id":"cebpf4jnsgd1na2vs0mg"},{"bike_id":"2c27f1df-0c75-4df0-8fa2-7fffe3fbcebe","system_id":"levelo_inurba_marseille","lat":43.30149,"lon":5.3807,"is_reserved":false,"is_disabled":false,"rental_uris":{"android":"levelo://app?vid=2c27f1df-0c75-4df0-8fa2-7fffe3fbcebe","ios":"levelo://app?vid=2c27f1df-0c75-4df0-8fa2-7fffe3fbcebe"},"vehicle_type_id":"4","last_reported":1739362672,"current_range_meters":18000,"station_id":"ce4bgjp2rcd13ifvqbh0","pricing_plan_id":"cebpf4jnsgd1na2vs0mg"},{"bike_id":"ca8a5279-544b-4153-bef1-c9511e7c0ee9","system_id":"levelo_inurba_marseille","lat":43.23133,"lon":5.43715,"is_reserved":false,"is_disabled":false,"rental_uris":{"android":"levelo://app?vid=ca8a5279-544b-4153-bef1-c9511e7c0ee9","ios":"levelo://app?vid=ca8a5279-544b-4153-bef1-c9511e7c0ee9"},"vehicle_type_id":"4","last_reported":1739362672,"current_range_meters":12800,"station_id":"ce4bhmp2rcd13ifvqgog","pricing_plan_id":"cebpf4jnsgd1na2vs0mg"},{"bike_id":"9996157f-25d4-4b42-b3b3-540e8965c829","system_id":"levelo_inurba_marseille","lat":43.292844,"lon":5.401137,"is_reserved":false,"is_disabled":false,"rental_uris":{"android":"levelo://app?vid=9996157f-25d4-4b42-b3b3-540e8965c829","ios":"levelo://app?vid=9996157f-25d4-4b42-b3b3-540e8965c829"},"vehicle_type_id":"4","last_reported":1739362672,"current_range_meters":31200,"station_id":"ce4bh312rcd13ifvqdk0","pricing_plan_id":"cebpf4jnsgd1na2vs0mg"},{"bike_id":"d25ee3e8-855e-4c6c-a4d7-6dd3de45a53d","system_id":"levelo_inurba_marseille","lat":43.27983,"lon":5.41664,"is_reserved":false,"is_disabled":false,"rental_uris":{"android":"levelo://app?vid=d25ee3e8-855e-4c6c-a4d7-6dd3de45a53d","ios":"levelo://app?vid=d25ee3e8-855e-4c6c-a4d7-6dd3de45a53d"},"vehicle_type_id":"4","last_reported":1739362672,"current_range_meters":35200,"station_id":"ce4bho12rcd13ifvqh1g","pricing_plan_id":"cebpf4jnsgd1na2vs0mg"},{"bike_id":"9fed654b-a9a2-4678-b0e2-a67ae396ab1c","system_id":"levelo_inurba_marseille","lat":43.31493,"lon":5.37312,"is_reserved":false,"is_disabled":false,"rental_uris":{"android":"levelo://app?vid=9fed654b-a9a2-4678-b0e2-a67ae396ab1c","ios":"levelo://app?vid=9fed654b-a9a2-4678-b0e2-a67ae396ab1c"},"vehicle_type_id":"4","last_reported":1739362672,"current_range_meters":23200,"station_id":"ce4bgt12rcd13ifvqcd0","pricing_plan_id":"cebpf4jnsgd1na2vs0mg"},{"bike_id":"ed524d48-7f6e-4ed6-b5a4-217506bf7015","system_id":"levelo_inurba_marseille","lat":43.2558,"lon":5.38244,"is_reserved":false,"is_disabled":false,"rental_uris":{"android":"levelo://app?vid=ed524d48-7f6e-4ed6-b5a4-217506bf7015","ios":"levelo://app?vid=ed524d48-7f6e-4ed6-b5a4-217506bf7015"},"vehicle_type_id":"4","last_reported":1739362672,"current_range_meters":36800,"station_id":"ce4bhih2rcd13ifvqfs0","pricing_plan_id":"cebpf4jnsgd1na2vs0mg"},{"bike_id":"f12e0a33-a630-40e5-8aa7-57f837f047f6","system_id":"levelo_inurba_marseille","lat":43.30787,"lon":5.3765,"is_reserved":false,"is_disabled":false,"rental_uris":{"android":"levelo://app?vid=f12e0a33-a630-40e5-8aa7-57f837f047f6","ios":"levelo://app?vid=f12e0a33-a630-40e5-8aa7-57f837f047f6"},"vehicle_type_id":"4","last_reported":1739362672,"current_range_meters":24400,"station_id":"ce4bgv92rcd13ifvqcq0","pricing_plan_id":"cebpf4jnsgd1na2vs0mg"},{"bike_id":"ee2e1f34-7a57-4fc7-881f-b33a3e6cdadf","system_id":"levelo_inurba_marseille","lat":43.29645,"lon":5.37163,"is_reserved":false,"is_disabled":false,"rental_uris":{"android":"levelo://app?vid=ee2e1f34-7a57-4fc7-881f-b33a3e6cdadf","ios":"levelo://app?vid=ee2e1f34-7a57-4fc7-881f-b33a3e6cdadf"},"vehicle_type_id":"4","last_reported":1739362672,"current_range_meters":36000,"station_id":"ce4bgnh2rcd13ifvqc0g","pricing_plan_id":"cebpf4jnsgd1na2vs0mg"},{"bike_id":"a839bfaf-06c5-46d4-8542-37d7c1b2a0bb","system_id":"levelo_inurba_marseille","lat":43.30467,"lon":5.37916,"is_reserved":false,"is_disabled":false,"rental_uris":{"android":"levelo://app?vid=a839bfaf-06c5-46d4-8542-37d7c1b2a0bb","ios":"levelo://app?vid=a839bfaf-06c5-46d4-8542-37d7c1b2a0bb"},"vehicle_type_id":"4","last_reported":1739362672,"current_range_meters":28000,"station_id":"ce4bgup2rcd13ifvqcn0","pricing_plan_id":"cebpf4jnsgd1na2vs0mg"},{"bike_id":"8d2d4012-ff69-4800-927a-45caff6cd054","system_id":"levelo_inurba_marseille","lat":43.23139,"lon":5.43709,"is_reserved":false,"is_disabled":false,"rental_uris":{"android":"levelo://app?vid=8d2d4012-ff69-4800-927a-45caff6cd054","ios":"levelo://app?vid=8d2d4012-ff69-4800-927a-45caff6cd054"},"vehicle_type_id":"4","last_reported":1739362672,"current_range_meters":16400,"station_id":"ce4bhmp2rcd13ifvqgog","pricing_plan_id":"cebpf4jnsgd1na2vs0mg"},{"bike_id":"1ec14052-2d33-4aa1-9ab8-58cc71db74d1","system_id":"levelo_inurba_marseille","lat":43.24168,"lon":5.36399,"is_reserved":false,"is_disabled":false,"rental_uris":{"android":"levelo://app?vid=1ec14052-2d33-4aa1-9ab8-58cc71db74d1","ios":"levelo://app?vid=1ec14052-2d33-4aa1-9ab8-58cc71db74d1"},"vehicle_type_id":"4","last_reported":1739362672,"current_range_meters":10000,"station_id":"cpo36qri1sfpv3e86is0","pricing_plan_id":"cebpf4jnsgd1na2vs0mg"},{"bike_id":"6e58a69c-2a4e-4c49-840d-6e728a603acb","system_id":"levelo_inurba_marseille","lat":43.23068,"lon":5.35465,"is_reserved":false,"is_disabled":false,"rental_uris":{"android":"levelo://app?vid=6e58a69c-2a4e-4c49-840d-6e728a603acb","ios":"levelo://app?vid=6e58a69c-2a4e-4c49-840d-6e728a603acb"},"vehicle_type_id":"4","last_reported":1739362672,"current_range_meters":9200,"station_id":"cpo3342slgdg3j2ifvpg","pricing_plan_id":"cebpf4jnsgd1na2vs0mg"},{"bike_id":"714e823e-a106-446c-93c5-a960f9e5752a","system_id":"levelo_inurba_marseille","lat":43.30597,"lon":5.39357,"is_reserved":false,"is_disabled":false,"rental_uris":{"android":"levelo://app?vid=714e823e-a106-446c-93c5-a960f9e5752a","ios":"levelo://app?vid=714e823e-a106-446c-93c5-a960f9e5752a"},"vehicle_type_id":"4","last_reported":1739362672,"current_range_meters":28400,"station_id":"ce4bh0p2rcd13ifvqd80","pricing_plan_id":"cebpf4jnsgd1na2vs0mg"},{"bike_id":"f7c01e3a-d99c-4085-a1fe-90d1ff291b72","system_id":"levelo_inurba_marseille","lat":43.24402,"lon":5.37047,"is_reserved":false,"is_disabled":false,"rental_uris":{"android":"levelo://app?vid=f7c01e3a-d99c-4085-a1fe-90d1ff291b72","ios":"levelo://app?vid=f7c01e3a-d99c-4085-a1fe-90d1ff291b72"},"vehicle_type_id":"4","last_reported":1739362672,"current_range_meters":38800,"station_id":"ce4bhhh2rcd13ifvqfk0","pricing_plan_id":"cebpf4jnsgd1na2vs0mg"},{"bike_id":"b1eb35ad-9a73-4409-95ee-f4201ec6fc01","system_id":"levelo_inurba_marseille","lat":43.33604,"lon":5.41034,"is_reserved":false,"is_disabled":false,"rental_uris":{"android":"levelo://app?vid=b1eb35ad-9a73-4409-95ee-f4201ec6fc01","ios":"levelo://app?vid=b1eb35ad-9a73-4409-95ee-f4201ec6fc01"},"vehicle_type_id":"4","last_reported":1739362672,"current_range_meters":6400,"station_id":"ce4bhqh2rcd13ifvqhmg","pricing_plan_id":"cebpf4jnsgd1na2vs0mg"},{"bike_id":"3b223bb0-9a60-42b1-b1a9-6cf049a5235d","system_id":"levelo_inurba_marseille","lat":43.24396,"lon":5.3706,"is_reserved":false,"is_disabled":false,"rental_uris":{"android":"levelo://app?vid=3b223bb0-9a60-42b1-b1a9-6cf049a5235d","ios":"levelo://app?vid=3b223bb0-9a60-42b1-b1a9-6cf049a5235d"},"vehicle_type_id":"4","last_reported":1739362672,"current_range_meters":19600,"station_id":"ce4bhhh2rcd13ifvqfk0","pricing_plan_id":"cebpf4jnsgd1na2vs0mg"},{"bike_id":"9f775cbc-7442-45e8-8191-513a864b8ba1","system_id":"levelo_inurba_marseille","lat":43.28933,"lon":5.36389,"is_reserved":false,"is_disabled":false,"rental_uris":{"android":"levelo://app?vid=9f775cbc-7442-45e8-8191-513a864b8ba1","ios":"levelo://app?vid=9f775cbc-7442-45e8-8191-513a864b8ba1"},"vehicle_type_id":"4","last_reported":1739362672,"current_range_meters":34000,"station_id":"ce4bhc92rcd13ifvqetg","pricing_plan_id":"cebpf4jnsgd1na2vs0mg"},{"bike_id":"fc855d4e-cf92-48ad-b751-57eb2469a89a","system_id":"levelo_inurba_marseille","lat":43.324656,"lon":5.365826,"is_reserved":false,"is_disabled":false,"rental_uris":{"android":"levelo://app?vid=fc855d4e-cf92-48ad-b751-57eb2469a89a","ios":"levelo://app?vid=fc855d4e-cf92-48ad-b751-57eb2469a89a"},"vehicle_type_id":"4","last_reported":1739362672,"current_range_meters":38800,"station_id":"ce4bhs12rcd13ifvqhvg","pricing_plan_id":"cebpf4jnsgd1na2vs0mg"},{"bike_id":"79df8d93-a019-4f4d-ad9b-607d770a7910","system_id":"levelo_inurba_marseille","lat":43.29392,"lon":5.38895,"is_reserved":false,"is_disabled":false,"rental_uris":{"android":"levelo://app?vid=79df8d93-a019-4f4d-ad9b-607d770a7910","ios":"levelo://app?vid=79df8d93-a019-4f4d-ad9b-607d770a7910"},"vehicle_type_id":"4","last_reported":1739362672,"current_range_meters":22000,"station_id":"","pricing_plan_id":"cebpf4jnsgd1na2vs0mg"},{"bike_id":"eefbb263-393d-4e57-9638-f71d68745d96","system_id":"levelo_inurba_marseille","lat":43.30879,"lon":5.3963,"is_reserved":false,"is_disabled":false,"rental_uris":{"android":"levelo://app?vid=eefbb263-393d-4e57-9638-f71d68745d96","ios":"levelo://app?vid=eefbb263-393d-4e57-9638-f71d68745d96"},"vehicle_type_id":"4","last_reported":1739362672,"current_range_meters":38800,"station_id":"ce4bh012rcd13ifvqcv0","pricing_plan_id":"cebpf4jnsgd1na2vs0mg"},{"bike_id":"9b02ba68-14be-47ff-96d9-441235861991","system_id":"levelo_inurba_marseille","lat":43.30535,"lon":5.36531,"is_reserved":false,"is_disabled":false,"rental_uris":{"android":"levelo://app?vid=9b02ba68-14be-47ff-96d9-441235861991","ios":"levelo://app?vid=9b02ba68-14be-47ff-96d9-441235861991"},"vehicle_type_id":"4","last_reported":1739362672,"current_range_meters":35200,"station_id":"ce4bgs12rcd13ifvqcag","pricing_plan_id":"cebpf4jnsgd1na2vs0mg"},{"bike_id":"8e3d9685-a8bf-4a5d-ba58-02bc4dfd2de6","system_id":"levelo_inurba_marseille","lat":43.24062,"lon":5.37768,"is_reserved":false,"is_disabled":false,"rental_uris":{"android":"levelo://app?vid=8e3d9685-a8bf-4a5d-ba58-02bc4dfd2de6","ios":"levelo://app?vid=8e3d9685-a8bf-4a5d-ba58-02bc4dfd2de6"},"vehicle_type_id":"4","last_reported":1739362672,"current_range_meters":30000,"station_id":"ce4bhnp2rcd13ifvqgvg","pricing_plan_id":"cebpf4jnsgd1na2vs0mg"},{"bike_id":"18db5a5b-698f-4b53-a652-998bb2486d1b","system_id":"levelo_inurba_marseille","lat":43.30919,"lon":5.40159,"is_reserved":false,"is_disabled":false,"rental_uris":{"android":"levelo://app?vid=18db5a5b-698f-4b53-a652-998bb2486d1b","ios":"levelo://app?vid=18db5a5b-698f-4b53-a652-998bb2486d1b"},"vehicle_type_id":"4","last_reported":1739362672,"current_range_meters":36000,"station_id":"ce4bgvp2rcd13ifvqct0","pricing_plan_id":"cebpf4jnsgd1na2vs0mg"},{"bike_id":"9b2f27b9-cc53-4a28-88cb-f588fa596c80","system_id":"levelo_inurba_marseille","lat":43.29962,"lon":5.37169,"is_reserved":false,"is_disabled":false,"rental_uris":{"android":"levelo://app?vid=9b2f27b9-cc53-4a28-88cb-f588fa596c80","ios":"levelo://app?vid=9b2f27b9-cc53-4a28-88cb-f588fa596c80"},"vehicle_type_id":"4","last_reported":1739362672,"current_range_meters":38800,"station_id":"ce4bgr92rcd13ifvqc7g","pricing_plan_id":"cebpf4jnsgd1na2vs0mg"},{"bike_id":"9e959baa-c12c-421b-ae7e-498336eaac08","system_id":"levelo_inurba_marseille","lat":43.25001,"lon":5.38928,"is_reserved":false,"is_disabled":false,"rental_uris":{"android":"levelo://app?vid=9e959baa-c12c-421b-ae7e-498336eaac08","ios":"levelo://app?vid=9e959baa-c12c-421b-ae7e-498336eaac08"},"vehicle_type_id":"4","last_reported":1739362672,"current_range_meters":30400,"station_id":"ce4bhgp2rcd13ifvqfd0","pricing_plan_id":"cebpf4jnsgd1na2vs0mg"},{"bike_id":"9b0280b4-aeb8-46a3-a65a-c21f0aabe7c1","system_id":"levelo_inurba_marseille","lat":43.29292,"lon":5.37443,"is_reserved":false,"is_disabled":false,"rental_uris":{"android":"levelo://app?vid=9b0280b4-aeb8-46a3-a65a-c21f0aabe7c1","ios":"levelo://app?vid=9b0280b4-aeb8-46a3-a65a-c21f0aabe7c1"},"vehicle_type_id":"4","last_reported":1739362672,"current_range_meters":38800,"station_id":"ce4bgi12rcd13ifvqb70","pricing_plan_id":"cebpf4jnsgd1na2vs0mg"},{"bike_id":"95238438-aee1-472d-8c03-6f5da0f062d1","system_id":"levelo_inurba_marseille","lat":43.31383,"lon":5.3673,"is_reserved":false,"is_disabled":false,"rental_uris":{"android":"levelo://app?vid=95238438-aee1-472d-8c03-6f5da0f062d1","ios":"levelo://app?vid=95238438-aee1-472d-8c03-6f5da0f062d1"},"vehicle_type_id":"4","last_reported":1739362672,"current_range_meters":16400,"station_id":"","pricing_plan_id":"cebpf4jnsgd1na2vs0mg"},{"bike_id":"7eddb3ef-cd0f-4eb9-bab7-1bc913811b09","system_id":"levelo_inurba_marseille","lat":43.29879,"lon":5.3973,"is_reserved":false,"is_disabled":false,"rental_uris":{"android":"levelo://app?vid=7eddb3ef-cd0f-4eb9-bab7-1bc913811b09","ios":"levelo://app?vid=7eddb3ef-cd0f-4eb9-bab7-1bc913811b09"},"vehicle_type_id":"4","last_reported":1739362672,"current_range_meters":18000,"station_id":"ce4bh0h2rcd13ifvqd50","pricing_plan_id":"cebpf4jnsgd1na2vs0mg"},{"bike_id":"b1898baf-b8a9-4a30-b162-de94b403ca66","system_id":"levelo_inurba_marseille","lat":43.30469,"lon":5.37915,"is_reserved":false,"is_disabled":false,"rental_uris":{"android":"levelo://app?vid=b1898baf-b8a9-4a30-b162-de94b403ca66","ios":"levelo://app?vid=b1898baf-b8a9-4a30-b162-de94b403ca66"},"vehicle_type_id":"4","last_reported":1739362672,"current_range_meters":37600,"station_id":"ce4bgup2rcd13ifvqcn0","pricing_plan_id":"cebpf4jnsgd1na2vs0mg"},{"bike_id":"b0b937cb-3ada-41b7-9bd4-0b703be0c2a5","system_id":"levelo_inurba_marseille","lat":43.23149,"lon":5.43719,"is_reserved":false,"is_disabled":false,"rental_uris":{"android":"levelo://app?vid=b0b937cb-3ada-41b7-9bd4-0b703be0c2a5","ios":"levelo://app?vid=b0b937cb-3ada-41b7-9bd4-0b703be0c2a5"},"vehicle_type_id":"4","last_reported":1739362672,"current_range_meters":11200,"station_id":"ce4bhmp2rcd13ifvqgog","pricing_plan_id":"cebpf4jnsgd1na2vs0mg"},{"bike_id":"dd7e4e2f-f2db-4c41-9b95-8e20b6da1267","system_id":"levelo_inurba_marseille","lat":43.32523,"lon":5.36559,"is_reserved":false,"is_disabled":false,"rental_uris":{"android":"levelo://app?vid=dd7e4e2f-f2db-4c41-9b95-8e20b6da1267","ios":"levelo://app?vid=dd7e4e2f-f2db-4c41-9b95-8e20b6da1267"},"vehicle_type_id":"4","last_reported":1739362672,"current_range_meters":12400,"station_id":"","pricing_plan_id":"cebpf4jnsgd1na2vs0mg"},{"bike_id":"d06b3b54-dc24-493e-97db-e54b37ab5416","system_id":"levelo_inurba_marseille","lat":43.30553,"lon":5.36552,"is_reserved":false,"is_disabled":false,"rental_uris":{"android":"levelo://app?vid=d06b3b54-dc24-493e-97db-e54b37ab5416","ios":"levelo://app?vid=d06b3b54-dc24-493e-97db-e54b37ab5416"},"vehicle_type_id":"4","last_reported":1739362672,"current_range_meters":26800,"station_id":"ce4bgs12rcd13ifvqcag","pricing_plan_id":"cebpf4jnsgd1na2vs0mg"},{"bike_id":"2be4dbfc-7e93-4e6f-9560-70325676a877","system_id":"levelo_inurba_marseille","lat":43.28663,"lon":5.37373,"is_reserved":false,"is_disabled":false,"rental_uris":{"android":"levelo://app?vid=2be4dbfc-7e93-4e6f-9560-70325676a877","ios":"levelo://app?vid=2be4dbfc-7e93-4e6f-9560-70325676a877"},"vehicle_type_id":"4","last_reported":1739362672,"current_range_meters":30800,"station_id":"ce4bh3p2rcd13ifvqdq0","pricing_plan_id":"cebpf4jnsgd1na2vs0mg"},{"bike_id":"0a7d28ac-16e5-459a-9e3d-51b36dee94ec","system_id":"levelo_inurba_marseille","lat":43.30569,"lon":5.36522,"is_reserved":false,"is_disabled":false,"rental_uris":{"android":"levelo://app?vid=0a7d28ac-16e5-459a-9e3d-51b36dee94ec","ios":"levelo://app?vid=0a7d28ac-16e5-459a-9e3d-51b36dee94ec"},"vehicle_type_id":"4","last_reported":1739362672,"current_range_meters":25200,"station_id":"ce4bgs12rcd13ifvqcag","pricing_plan_id":"cebpf4jnsgd1na2vs0mg"},{"bike_id":"15ee7139-10dc-4fac-a480-f569a3ba5357","system_id":"levelo_inurba_marseille","lat":43.30142,"lon":5.38098,"is_reserved":false,"is_disabled":false,"rental_uris":{"android":"levelo://app?vid=15ee7139-10dc-4fac-a480-f569a3ba5357","ios":"levelo://app?vid=15ee7139-10dc-4fac-a480-f569a3ba5357"},"vehicle_type_id":"4","last_reported":1739362672,"current_range_meters":38800,"station_id":"ce4bgjp2rcd13ifvqbh0","pricing_plan_id":"cebpf4jnsgd1na2vs0mg"},{"bike_id":"91efa81f-bcfa-46f6-bc90-09ce14e94cb8","system_id":"levelo_inurba_marseille","lat":43.29796,"lon":5.38075,"is_reserved":false,"is_disabled":false,"rental_uris":{"android":"levelo://app?vid=91efa81f-bcfa-46f6-bc90-09ce14e94cb8","ios":"levelo://app?vid=91efa81f-bcfa-46f6-bc90-09ce14e94cb8"},"vehicle_type_id":"4","last_reported":1739362672,"current_range_meters":38400,"station_id":"ce4bgip2rcd13ifvqbb0","pricing_plan_id":"cebpf4jnsgd1na2vs0mg"},{"bike_id":"ab909ba3-48d2-452b-b4b4-0bfd6be14168","system_id":"levelo_inurba_marseille","lat":43.33608,"lon":5.41024,"is_reserved":false,"is_disabled":false,"rental_uris":{"android":"levelo://app?vid=ab909ba3-48d2-452b-b4b4-0bfd6be14168","ios":"levelo://app?vid=ab909ba3-48d2-452b-b4b4-0bfd6be14168"},"vehicle_type_id":"4","last_reported":1739362672,"current_range_meters":38800,"station_id":"ce4bhqh2rcd13ifvqhmg","pricing_plan_id":"cebpf4jnsgd1na2vs0mg"},{"bike_id":"beac2093-e3f1-4a43-875b-f5700b6484b8","system_id":"levelo_inurba_marseille","lat":43.32534,"lon":5.414393,"is_reserved":false,"is_disabled":false,"rental_uris":{"android":"levelo://app?vid=beac2093-e3f1-4a43-875b-f5700b6484b8","ios":"levelo://app?vid=beac2093-e3f1-4a43-875b-f5700b6484b8"},"vehicle_type_id":"4","last_reported":1739362672,"current_range_meters":32800,"station_id":"ce4bhq12rcd13ifvqhhg","pricing_plan_id":"cebpf4jnsgd1na2vs0mg"},{"bike_id":"0fb30756-cd50-4cd1-ba06-1ebd026d9274","system_id":"levelo_inurba_marseille","lat":43.25006,"lon":5.38934,"is_reserved":false,"is_disabled":false,"rental_uris":{"android":"levelo://app?vid=0fb30756-cd50-4cd1-ba06-1ebd026d9274","ios":"levelo://app?vid=0fb30756-cd50-4cd1-ba06-1ebd026d9274"},"vehicle_type_id":"4","last_reported":1739362672,"current_range_meters":27200,"station_id":"ce4bhgp2rcd13ifvqfd0","pricing_plan_id":"cebpf4jnsgd1na2vs0mg"},{"bike_id":"acf8e538-ea0c-4f40-8d50-7cd79bd6eb74","system_id":"levelo_inurba_marseille","lat":43.32656,"lon":5.40997,"is_reserved":false,"is_disabled":false,"rental_uris":{"android":"levelo://app?vid=acf8e538-ea0c-4f40-8d50-7cd79bd6eb74","ios":"levelo://app?vid=acf8e538-ea0c-4f40-8d50-7cd79bd6eb74"},"vehicle_type_id":"4","last_reported":1739362672,"current_range_meters":34800,"station_id":"ce4bhpp2rcd13ifvqhgg","pricing_plan_id":"cebpf4jnsgd1na2vs0mg"},{"bike_id":"7c3c4b99-3abd-4de1-8e23-5a78f9f0e362","system_id":"levelo_inurba_marseille","lat":43.29166,"lon":5.37162,"is_reserved":false,"is_disabled":false,"rental_uris":{"android":"levelo://app?vid=7c3c4b99-3abd-4de1-8e23-5a78f9f0e362","ios":"levelo://app?vid=7c3c4b99-3abd-4de1-8e23-5a78f9f0e362"},"vehicle_type_id":"4","last_reported":1739362672,"current_range_meters":26800,"station_id":"ce4bha92rcd13ifvqeh0","pricing_plan_id":"cebpf4jnsgd1na2vs0mg"},{"bike_id":"b0f70249-6360-4dc3-a83a-fd73a6b534c8","system_id":"levelo_inurba_marseille","lat":43.32161,"lon":5.38464,"is_reserved":false,"is_disabled":false,"rental_uris":{"android":"levelo://app?vid=b0f70249-6360-4dc3-a83a-fd73a6b534c8","ios":"levelo://app?vid=b0f70249-6360-4dc3-a83a-fd73a6b534c8"},"vehicle_type_id":"4","last_reported":1739362672,"current_range_meters":33600,"station_id":"","pricing_plan_id":"cebpf4jnsgd1na2vs0mg"},{"bike_id":"54ce597b-1ca1-4d62-923d-d4b29eec04b3","system_id":"levelo_inurba_marseille","lat":43.31131,"lon":5.38261,"is_reserved":false,"is_disabled":false,"rental_uris":{"android":"levelo://app?vid=54ce597b-1ca1-4d62-923d-d4b29eec04b3","ios":"levelo://app?vid=54ce597b-1ca1-4d62-923d-d4b29eec04b3"},"vehicle_type_id":"4","last_reported":1739362672,"current_range_meters":15200,"station_id":"","pricing_plan_id":"cebpf4jnsgd1na2vs0mg"},{"bike_id":"11b7bd60-6cc5-4382-b828-9206a2bbb87c","system_id":"levelo_inurba_marseille","lat":43.27054,"lon":5.42281,"is_reserved":false,"is_disabled":false,"rental_uris":{"android":"levelo://app?vid=11b7bd60-6cc5-4382-b828-9206a2bbb87c","ios":"levelo://app?vid=11b7bd60-6cc5-4382-b828-9206a2bbb87c"},"vehicle_type_id":"4","last_reported":1739362672,"current_range_meters":18000,"station_id":"ce4bhk92rcd13ifvqgb0","pricing_plan_id":"cebpf4jnsgd1na2vs0mg"},{"bike_id":"ef21d2aa-e17b-4739-a1c8-6fbc2e9df327","system_id":"levelo_inurba_marseille","lat":43.25001,"lon":5.38928,"is_reserved":false,"is_disabled":false,"rental_uris":{"android":"levelo://app?vid=ef21d2aa-e17b-4739-a1c8-6fbc2e9df327","ios":"levelo://app?vid=ef21d2aa-e17b-4739-a1c8-6fbc2e9df327"},"vehicle_type_id":"4","last_reported":1739362672,"current_range_meters":32000,"station_id":"ce4bhgp2rcd13ifvqfd0","pricing_plan_id":"cebpf4jnsgd1na2vs0mg"},{"bike_id":"71ae8788-ed57-4df6-805f-27ca1e8f5e3c","system_id":"levelo_inurba_marseille","lat":43.29188,"lon":5.35808,"is_reserved":false,"is_disabled":false,"rental_uris":{"android":"levelo://app?vid=71ae8788-ed57-4df6-805f-27ca1e8f5e3c","ios":"levelo://app?vid=71ae8788-ed57-4df6-805f-27ca1e8f5e3c"},"vehicle_type_id":"4","last_reported":1739362672,"current_range_meters":29600,"station_id":"ce4bhb12rcd13ifvqel0","pricing_plan_id":"cebpf4jnsgd1na2vs0mg"},{"bike_id":"e09e0c1a-4e03-41a6-8f38-cffd074b465f","system_id":"levelo_inurba_marseille","lat":43.23063,"lon":5.35494,"is_reserved":false,"is_disabled":false,"rental_uris":{"android":"levelo://app?vid=e09e0c1a-4e03-41a6-8f38-cffd074b465f","ios":"levelo://app?vid=e09e0c1a-4e03-41a6-8f38-cffd074b465f"},"vehicle_type_id":"4","last_reported":1739362672,"current_range_meters":16000,"station_id":"cpo3342slgdg3j2ifvpg","pricing_plan_id":"cebpf4jnsgd1na2vs0mg"},{"bike_id":"4985f4e8-357c-45d1-92f1-5e51b059536f","system_id":"levelo_inurba_marseille","lat":43.30534,"lon":5.36504,"is_reserved":false,"is_disabled":false,"rental_uris":{"android":"levelo://app?vid=4985f4e8-357c-45d1-92f1-5e51b059536f","ios":"levelo://app?vid=4985f4e8-357c-45d1-92f1-5e51b059536f"},"vehicle_type_id":"4","last_reported":1739362672,"current_range_meters":10800,"station_id":"","pricing_plan_id":"cebpf4jnsgd1na2vs0mg"},{"bike_id":"1816de7e-d993-47e9-af2b-6ccea723f2c8","system_id":"levelo_inurba_marseille","lat":43.309493,"lon":5.39043,"is_reserved":false,"is_disabled":false,"rental_uris":{"android":"levelo://app?vid=1816de7e-d993-47e9-af2b-6ccea723f2c8","ios":"levelo://app?vid=1816de7e-d993-47e9-af2b-6ccea723f2c8"},"vehicle_type_id":"4","last_reported":1739362672,"current_range_meters":30400,"station_id":"ce4bgup2rcd13ifvqco0","pricing_plan_id":"cebpf4jnsgd1na2vs0mg"},{"bike_id":"58a923a1-50e5-4bcc-a5c7-59fd5ea18680","system_id":"levelo_inurba_marseille","lat":43.23152,"lon":5.43718,"is_reserved":false,"is_disabled":false,"rental_uris":{"android":"levelo://app?vid=58a923a1-50e5-4bcc-a5c7-59fd5ea18680","ios":"levelo://app?vid=58a923a1-50e5-4bcc-a5c7-59fd5ea18680"},"vehicle_type_id":"4","last_reported":1739362672,"current_range_meters":20000,"station_id":"ce4bhmp2rcd13ifvqgog","pricing_plan_id":"cebpf4jnsgd1na2vs0mg"},{"bike_id":"c292f505-0f54-46f2-827e-f686b8d7486a","system_id":"levelo_inurba_marseille","lat":43.28971,"lon":5.37835,"is_reserved":false,"is_disabled":false,"rental_uris":{"android":"levelo://app?vid=c292f505-0f54-46f2-827e-f686b8d7486a","ios":"levelo://app?vid=c292f505-0f54-46f2-827e-f686b8d7486a"},"vehicle_type_id":"4","last_reported":1739362672,"current_range_meters":26000,"station_id":"ce4bh9p2rcd13ifvqed0","pricing_plan_id":"cebpf4jnsgd1na2vs0mg"},{"bike_id":"51d770a2-dd16-4796-a058-ebfc42d09fdc","system_id":"levelo_inurba_marseille","lat":43.29901,"lon":5.37475,"is_reserved":false,"is_disabled":false,"rental_uris":{"android":"levelo://app?vid=51d770a2-dd16-4796-a058-ebfc42d09fdc","ios":"levelo://app?vid=51d770a2-dd16-4796-a058-ebfc42d09fdc"},"vehicle_type_id":"4","last_reported":1739362672,"current_range_meters":29600,"station_id":"ce4bgjh2rcd13ifvqbg0","pricing_plan_id":"cebpf4jnsgd1na2vs0mg"},{"bike_id":"60273a6b-5e20-49a3-aa83-8d6ecaeab2c0","system_id":"levelo_inurba_marseille","lat":43.3148,"lon":5.37308,"is_reserved":false,"is_disabled":false,"rental_uris":{"android":"levelo://app?vid=60273a6b-5e20-49a3-aa83-8d6ecaeab2c0","ios":"levelo://app?vid=60273a6b-5e20-49a3-aa83-8d6ecaeab2c0"},"vehicle_type_id":"4","last_reported":1739362672,"current_range_meters":22400,"station_id":"ce4bgt12rcd13ifvqcd0","pricing_plan_id":"cebpf4jnsgd1na2vs0mg"},{"bike_id":"bedc90d0-b231-4246-af0c-3abc4601c6a0","system_id":"levelo_inurba_marseille","lat":43.29062,"lon":5.37171,"is_reserved":false,"is_disabled":false,"rental_uris":{"android":"levelo://app?vid=bedc90d0-b231-4246-af0c-3abc4601c6a0","ios":"levelo://app?vid=bedc90d0-b231-4246-af0c-3abc4601c6a0"},"vehicle_type_id":"4","last_reported":1739362672,"current_range_meters":28800,"station_id":"ce4bh5p2rcd13ifvqe4g","pricing_plan_id":"cebpf4jnsgd1na2vs0mg"},{"bike_id":"9fcdab55-6d1d-456d-84cd-a4b15d39fdcf","system_id":"levelo_inurba_marseille","lat":43.25,"lon":5.38943,"is_reserved":false,"is_disabled":false,"rental_uris":{"android":"levelo://app?vid=9fcdab55-6d1d-456d-84cd-a4b15d39fdcf","ios":"levelo://app?vid=9fcdab55-6d1d-456d-84cd-a4b15d39fdcf"},"vehicle_type_id":"4","last_reported":1739362672,"current_range_meters":8000,"station_id":"ce4bhgp2rcd13ifvqfd0","pricing_plan_id":"cebpf4jnsgd1na2vs0mg"},{"bike_id":"13d964e3-b6cd-4072-8cf7-fea6f5b2c126","system_id":"levelo_inurba_marseille","lat":43.28706,"lon":5.37383,"is_reserved":false,"is_disabled":false,"rental_uris":{"android":"levelo://app?vid=13d964e3-b6cd-4072-8cf7-fea6f5b2c126","ios":"levelo://app?vid=13d964e3-b6cd-4072-8cf7-fea6f5b2c126"},"vehicle_type_id":"4","last_reported":1739362672,"current_range_meters":24000,"station_id":"ce4bh3p2rcd13ifvqdq0","pricing_plan_id":"cebpf4jnsgd1na2vs0mg"},{"bike_id":"619581f3-dc46-4c56-8038-13beaa6d0afa","system_id":"levelo_inurba_marseille","lat":43.31993,"lon":5.38146,"is_reserved":false,"is_disabled":false,"rental_uris":{"android":"levelo://app?vid=619581f3-dc46-4c56-8038-13beaa6d0afa","ios":"levelo://app?vid=619581f3-dc46-4c56-8038-13beaa6d0afa"},"vehicle_type_id":"4","last_reported":1739362672,"current_range_meters":37600,"station_id":"ce4bhr12rcd13ifvqhpg","pricing_plan_id":"cebpf4jnsgd1na2vs0mg"},{"bike_id":"18d2ffa0-63d8-4406-8447-0b13621962de","system_id":"levelo_inurba_marseille","lat":43.30464,"lon":5.37906,"is_reserved":false,"is_disabled":false,"rental_uris":{"android":"levelo://app?vid=18d2ffa0-63d8-4406-8447-0b13621962de","ios":"levelo://app?vid=18d2ffa0-63d8-4406-8447-0b13621962de"},"vehicle_type_id":"4","last_reported":1739362672,"current_range_meters":9200,"station_id":"ce4bgup2rcd13ifvqcn0","pricing_plan_id":"cebpf4jnsgd1na2vs0mg"},{"bike_id":"4c748b8c-8641-4774-a00f-530bbf3a1b6d","system_id":"levelo_inurba_marseille","lat":43.2972,"lon":5.36609,"is_reserved":false,"is_disabled":false,"rental_uris":{"android":"levelo://app?vid=4c748b8c-8641-4774-a00f-530bbf3a1b6d","ios":"levelo://app?vid=4c748b8c-8641-4774-a00f-530bbf3a1b6d"},"vehicle_type_id":"4","last_reported":1739362672,"current_range_meters":38000,"station_id":"ce4bgn12rcd13ifvqbt0","pricing_plan_id":"cebpf4jnsgd1na2vs0mg"},{"bike_id":"a59c7fe8-20d3-4b82-b3d8-4059e1af07d3","system_id":"levelo_inurba_marseille","lat":43.23963,"lon":5.36633,"is_reserved":false,"is_disabled":false,"rental_uris":{"android":"levelo://app?vid=a59c7fe8-20d3-4b82-b3d8-4059e1af07d3","ios":"levelo://app?vid=a59c7fe8-20d3-4b82-b3d8-4059e1af07d3"},"vehicle_type_id":"4","last_reported":1739362672,"current_range_meters":7200,"station_id":"ce4bhi12rcd13ifvqfp0","pricing_plan_id":"cebpf4jnsgd1na2vs0mg"},{"bike_id":"f17f084e-b6c7-45c8-92c0-b718ab2f3029","system_id":"levelo_inurba_marseille","lat":43.243868,"lon":5.370618,"is_reserved":false,"is_disabled":false,"rental_uris":{"android":"levelo://app?vid=f17f084e-b6c7-45c8-92c0-b718ab2f3029","ios":"levelo://app?vid=f17f084e-b6c7-45c8-92c0-b718ab2f3029"},"vehicle_type_id":"4","last_reported":1739362672,"current_range_meters":33200,"station_id":"ce4bhhh2rcd13ifvqfk0","pricing_plan_id":"cebpf4jnsgd1na2vs0mg"},{"bike_id":"d3460b7b-e380-4b3a-92a9-5f7cd890c05f","system_id":"levelo_inurba_marseille","lat":43.2315,"lon":5.43707,"is_reserved":false,"is_disabled":false,"rental_uris":{"android":"levelo://app?vid=d3460b7b-e380-4b3a-92a9-5f7cd890c05f","ios":"levelo://app?vid=d3460b7b-e380-4b3a-92a9-5f7cd890c05f"},"vehicle_type_id":"4","last_reported":1739362672,"current_range_meters":19200,"station_id":"ce4bhmp2rcd13ifvqgog","pricing_plan_id":"cebpf4jnsgd1na2vs0mg"},{"bike_id":"d81e91d8-e797-42a2-b210-b4bb3dc89a0c","system_id":"levelo_inurba_marseille","lat":43.30431,"lon":5.39745,"is_reserved":false,"is_disabled":false,"rental_uris":{"android":"levelo://app?vid=d81e91d8-e797-42a2-b210-b4bb3dc89a0c","ios":"levelo://app?vid=d81e91d8-e797-42a2-b210-b4bb3dc89a0c"},"vehicle_type_id":"4","last_reported":1739362672,"current_range_meters":24800,"station_id":"ce4bh092rcd13ifvqd20","pricing_plan_id":"cebpf4jnsgd1na2vs0mg"},