{"last_updated":1702915747,"ttl":30,"version":"2.2","data":{"bikes":[{"bike_id":"cf624abd-fa3e-44af-96c5-a8578c60442e","system_id":"levelo_inurba_marseille","lat":43.314811,"lon":5.373104,"is_reserved":false,"is_disabled":false,"rental_uris":{"android":"levelo://app?vid=cf624abd-fa3e-44af-96c5-a8578c60442e","ios":"levelo://app?vid=cf624abd-fa3e-44af-96c5-a8578c60442e"},"vehicle_type_id":"4","last_reported":1702915747,"current_range_meters":21600,"station_id":"ce4bgt12rcd13ifvqcd0","pricing_plan_id":"free"},{"bike_id":"955e4ab2-16e5-44e8-a986-a2f50ff96c06","system_id":"levelo_inurba_marseille","lat":43.305382,"lon":5.365389,"is_reserved":false,"is_disabled":false,"rental_uris":{"android":"levelo://app?vid=955e4ab2-16e5-44e8-a986-a2f50ff96c06","ios":"levelo://app?vid=955e4ab2-16e5-44e8-a986-a2f50ff96c06"},"vehicle_type_id":"4","last_reported":1702915747,"current_range_meters":7200,"station_id":"","pricing_plan_id":"free"},{"bike_id":"e4e22efc-6241-4bd0-bc0c-80dcf1669b9a","system_id":"levelo_inurba_marseille","lat":43.305233,"lon":5.366994,"is_reserved":false,"is_disabled":false,"rental_uris":{"android":"levelo://app?vid=e4e22efc-6241-4bd0-bc0c-80dcf1669b9a","ios":"levelo://app?vid=e4e22efc-6241-4bd0-bc0c-80dcf1669b9a"},"vehicle_type_id":"4","last_reported":1702915747,"current_range_meters":0,"station_id":"ce4bgrp2rcd13ifvqc9g","pricing_plan_id":"free"},{"bike_id":"a84811b0-7962-4e0c-b8a5-45b49542f75a","system_id":"levelo_inurba_marseille","lat":43.311152,"lon":5.377714,"is_reserved":false,"is_disabled":false,"rental_uris":{"android":"levelo://app?vid=a84811b0-7962-4e0c-b8a5-45b49542f75a","ios":"levelo://app?vid=a84811b0-7962-4e0c-b8a5-45b49542f75a"},"vehicle_type_id":"4","last_reported":1702915747,"current_range_meters":18400,"station_id":"ce4bgt92rcd13ifvqcg0","pricing_plan_id":"free"},{"bike_id":"c6b54e31-95c0-43f4-b783-c079fec8fee2","system_id":"levelo_inurba_marseille","lat":43.307945,"lon":5.376487,"is_reserved":false,"is_disabled":false,"rental_uris":{"android":"levelo://app?vid=c6b54e31-95c0-43f4-b783-c079fec8fee2","ios":"levelo://app?vid=c6b54e31-95c0-43f4-b783-c079fec8fee2"},"vehicle_type_id":"4","last_reported":1702915747,"current_range_meters":5600,"station_id":"ce4bgv92rcd13ifvqcq0","pricing_plan_id":"free"},{"bike_id":"6600cc4e-24f6-43bb-8c56-cf091d842009","system_id":"levelo_inurba_marseille","lat":43.307945,"lon":5.376487,"is_reserved":false,"is_disabled":false,"rental_uris":{"android":"levelo://app?vid=6600cc4e-24f6-43bb-8c56-cf091d842009","ios":"levelo://app?vid=6600cc4e-24f6-43bb-8c56-cf091d842009"},"vehicle_type_id":"4","last_reported":1702915747,"current_range_meters":25600,"station_id":"ce4bgv92rcd13ifvqcq0","pricing_plan_id":"free"},{"bike_id":"0347294b-2523-49f1-b765-4732b50d00b6","system_id":"levelo_inurba_marseille","lat":43.317075,"lon":5.377367,"is_reserved":false,"is_disabled":false,"rental_uris":{"android":"levelo://app?vid=0347294b-2523-49f1-b765-4732b50d00b6","ios":"levelo://app?vid=0347294b-2523-49f1-b765-4732b50d00b6"},"vehicle_type_id":"4","last_reported":1702915747,"current_range_meters":30400,"station_id":"ce4bgth2rcd13ifvqch0","pricing_plan_id":"free"},{"bike_id":"f845128f-13fd-450d-911c-c17198a8712f","system_id":"levelo_inurba_marseille","lat":43.317075,"lon":5.377367,"is_reserved":false,"is_disabled":false,"rental_uris":{"android":"levelo://app?vid=f845128f-13fd-450d-911c-c17198a8712f","ios":"levelo://app?vid=f845128f-13fd-450d-911c-c17198a8712f"},"vehicle_type_id":"4","last_reported":1702915747,"current_range_meters":31200,"station_id":"ce4bgth2rcd13ifvqch0","pricing_plan_id":"free"},{"bike_id":"1dedfdd2-2c7e-418e-8b1b-fbaefa4c01fe","system_id":"levelo_inurba_marseille","lat":43.301429,"lon":5.37413,"is_reserved":false,"is_disabled":false,"rental_uris":{"android":"levelo://app?vid=1dedfdd2-2c7e-418e-8b1b-fbaefa4c01fe","ios":"levelo://app?vid=1dedfdd2-2c7e-418e-8b1b-fbaefa4c01fe"},"vehicle_type_id":"4","last_reported":1702915747,"current_range_meters":24000,"station_id":"ce4bgs92rcd13ifvqcc0","pricing_plan_id":"free"},{"bike_id":"e948b30d-1a90-481c-97a4-344af8a38ce0","system_id":"levelo_inurba_marseille","lat":43.3081,"lon":5.38148,"is_reserved":false,"is_disabled":false,"rental_uris":{"android":"levelo://app?vid=e948b30d-1a90-481c-97a4-344af8a38ce0","ios":"levelo://app?vid=e948b30d-1a90-481c-97a4-344af8a38ce0"},"vehicle_type_id":"4","last_reported":1702915747,"current_range_meters":20400,"station_id":"ce4bgt12rcd13ifvqce0","pricing_plan_id":"free"},{"bike_id":"56ef7c39-1b68-4528-80fe-33634e407f55","system_id":"levelo_inurba_marseille","lat":43.3079,"lon":5.38159,"is_reserved":false,"is_disabled":false,"rental_uris":{"android":"levelo://app?vid=56ef7c39-1b68-4528-80fe-33634e407f55","ios":"levelo://app?vid=56ef7c39-1b68-4528-80fe-33634e407f55"},"vehicle_type_id":"4","last_reported":1702915747,"current_range_meters":19200,"station_id":"ce4bgt12rcd13ifvqce0","pricing_plan_id":"free"},{"bike_id":"cc174b3b-0e30-49ec-b7d3-5ac427ad6836","system_id":"levelo_inurba_marseille","lat":43.304606,"lon":5.379026,"is_reserved":false,"is_disabled":false,"rental_uris":{"android":"levelo://app?vid=cc174b3b-0e30-49ec-b7d3-5ac427ad6836","ios":"levelo://app?vid=cc174b3b-0e30-49ec-b7d3-5ac427ad6836"},"vehicle_type_id":"4","last_reported":1702915747,"current_range_meters":0,"station_id":"ce4bgup2rcd13ifvqcn0","pricing_plan_id":"free"},{"bike_id":"8b97c3f1-bb5f-4c4b-bae8-74bcb68230ca","system_id":"levelo_inurba_marseille","lat":43.310643,"lon":5.383337,"is_reserved":false,"is_disabled":false,"rental_uris":{"android":"levelo://app?vid=8b97c3f1-bb5f-4c4b-bae8-74bcb68230ca","ios":"levelo://app?vid=8b97c3f1-bb5f-4c4b-bae8-74bcb68230ca"},"vehicle_type_id":"4","last_reported":1702915747,"current_range_meters":800,"station_id":"","pricing_plan_id":"free"},{"bike_id":"07a376be-02e2-44de-a85d-9e028c589ebd","system_id":"levelo_inurba_marseille","lat":43.32483,"lon":5.3656,"is_reserved":false,"is_disabled":false,"rental_uris":{"android":"levelo://app?vid=07a376be-02e2-44de-a85d-9e028c589ebd","ios":"levelo://app?vid=07a376be-02e2-44de-a85d-9e028c589ebd"},"vehicle_type_id":"4","last_reported":1702915747,"current_range_meters":5200,"station_id":"ce4bhs12rcd13ifvqhvg","pricing_plan_id":"free"},{"bike_id":"b085c773-49ee-4e78-9355-2417e8ec0fa6","system_id":"levelo_inurba_marseille","lat":43.30143,"lon":5.37413,"is_reserved":false,"is_disabled":false,"rental_uris":{"android":"levelo://app?vid=b085c773-49ee-4e78-9355-2417e8ec0fa6","ios":"levelo://app?vid=b085c773-49ee-4e78-9355-2417e8ec0fa6"},"vehicle_type_id":"4","last_reported":1702915747,"current_range_meters":0,"station_id":"ce4bgs92rcd13ifvqcc0","pricing_plan_id":"free"},{"bike_id":"f691ac51-0275-4c3c-818f-06b2b2b47444","system_id":"levelo_inurba_marseille","lat":43.31996,"lon":5.38161,"is_reserved":false,"is_disabled":false,"rental_uris":{"android":"levelo://app?vid=f691ac51-0275-4c3c-818f-06b2b2b47444","ios":"levelo://app?vid=f691ac51-0275-4c3c-818f-06b2b2b47444"},"vehicle_type_id":"4","last_reported":1702915747,"current_range_meters":26800,"station_id":"ce4bhr12rcd13ifvqhpg","pricing_plan_id":"free"},{"bike_id":"ab1d7514-e7a8-4260-863a-2bec54a995e0","system_id":"levelo_inurba_marseille","lat":43.31992,"lon":5.38165,"is_reserved":false,"is_disabled":false,"rental_uris":{"android":"levelo://app?vid=ab1d7514-e7a8-4260-863a-2bec54a995e0","ios":"levelo://app?vid=ab1d7514-e7a8-4260-863a-2bec54a995e0"},"vehicle_type_id":"4","last_reported":1702915747,"current_range_meters":20400,"station_id":"ce4bhr12rcd13ifvqhpg","pricing_plan_id":"free"},{"bike_id":"79d134e8-1110-478e-a3f7-ea1b4593016a","system_id":"levelo_inurba_marseille","lat":43.313571,"lon":5.384829,"is_reserved":false,"is_disabled":false,"rental_uris":{"android":"levelo://app?vid=79d134e8-1110-478e-a3f7-ea1b4593016a","ios":"levelo://app?vid=79d134e8-1110-478e-a3f7-ea1b4593016a"},"vehicle_type_id":"4","last_reported":1702915747,"current_range_meters":14000,"station_id":"ce4bgt92rcd13ifvqcf0","pricing_plan_id":"free"},{"bike_id":"2f2a86c7-f45d-462e-b2d6-90b507f567ee","system_id":"levelo_inurba_marseille","lat":43.299724,"lon":5.371829,"is_reserved":false,"is_disabled":false,"rental_uris":{"android":"levelo://app?vid=2f2a86c7-f45d-462e-b2d6-90b507f567ee","ios":"levelo://app?vid=2f2a86c7-f45d-462e-b2d6-90b507f567ee"},"vehicle_type_id":"4","last_reported":1702915747,"current_range_meters":26800,"station_id":"ce4bgr92rcd13ifvqc7g","pricing_plan_id":"free"},{"bike_id":"503c12bb-5cf5-429e-8d82-ae2b2790c9d3","system_id":"levelo_inurba_marseille","lat":43.299724,"lon":5.371829,"is_reserved":false,"is_disabled":false,"rental_uris":{"android":"levelo://app?vid=503c12bb-5cf5-429e-8d82-ae2b2790c9d3","ios":"levelo://app?vid=503c12bb-5cf5-429e-8d82-ae2b2790c9d3"},"vehicle_type_id":"4","last_reported":1702915747,"current_range_meters":24800,"station_id":"ce4bgr92rcd13ifvqc7g","pricing_plan_id":"free"},{"bike_id":"58964417-d611-4878-b14e-6202aa088dde","system_id":"levelo_inurba_marseille","lat":43.31191,"lon":5.38674,"is_reserved":false,"is_disabled":false,"rental_uris":{"android":"levelo://app?vid=58964417-d611-4878-b14e-6202aa088dde","ios":"levelo://app?vid=58964417-d611-4878-b14e-6202aa088dde"},"vehicle_type_id":"4","last_reported":1702915747,"current_range_meters":30800,"station_id":"","pricing_plan_id":"free"},{"bike_id":"819cb438-2e9c-4e0b-902b-5e19ef554d5c","system_id":"levelo_inurba_marseille","lat":43.305445,"lon":5.384362,"is_reserved":false,"is_disabled":false,"rental_uris":{"android":"levelo://app?vid=819cb438-2e9c-4e0b-902b-5e19ef554d5c","ios":"levelo://app?vid=819cb438-2e9c-4e0b-902b-5e19ef554d5c"},"vehicle_type_id":"4","last_reported":1702915747,"current_range_meters":6400,"station_id":"ce4bgg92rcd13ifvqb30","pricing_plan_id":"free"},{"bike_id":"7bb282b1-cad0-4425-b391-272afa0285a3","system_id":"levelo_inurba_marseille","lat":43.299243,"lon":5.37481,"is_reserved":false,"is_disabled":false,"rental_uris":{"android":"levelo://app?vid=7bb282b1-cad0-4425-b391-272afa0285a3","ios":"levelo://app?vid=7bb282b1-cad0-4425-b391-272afa0285a3"},"vehicle_type_id":"4","last_reported":1702915747,"current_range_meters":1600,"station_id":"ce4bgjh2rcd13ifvqbg0","pricing_plan_id":"free"},{"bike_id":"ed49036c-0c11-4b84-8cc7-67f5af153e9c","system_id":"levelo_inurba_marseille","lat":43.297794,"lon":5.370888,"is_reserved":false,"is_disabled":false,"rental_uris":{"android":"levelo://app?vid=ed49036c-0c11-4b84-8cc7-67f5af153e9c","ios":"levelo://app?vid=ed49036c-0c11-4b84-8cc7-67f5af153e9c"},"vehicle_type_id":"4","last_reported":1702915747,"current_range_meters":15600,"station_id":"ce4bgop2rcd13ifvqc1g","pricing_plan_id":"free"},{"bike_id":"ccdf5426-4bc7-414f-92ca-b2392b87bef3","system_id":"levelo_inurba_marseille","lat":43.297774,"lon":5.370875,"is_reserved":false,"is_disabled":false,"rental_uris":{"android":"levelo://app?vid=ccdf5426-4bc7-414f-92ca-b2392b87bef3","ios":"levelo://app?vid=ccdf5426-4bc7-414f-92ca-b2392b87bef3"},"vehicle_type_id":"4","last_reported":1702915747,"current_range_meters":14800,"station_id":"ce4bgop2rcd13ifvqc1g","pricing_plan_id":"free"},{"bike_id":"93060846-bfa8-4872-b9e5-b8f2de881e93","system_id":"levelo_inurba_marseille","lat":43.293009,"lon":5.374584,"is_reserved":false,"is_disabled":false,"rental_uris":{"android":"levelo://app?vid=93060846-bfa8-4872-b9e5-b8f2de881e93","ios":"levelo://app?vid=93060846-bfa8-4872-b9e5-b8f2de881e93"},"vehicle_type_id":"4","last_reported":1702915747,"current_range_meters":17200,"station_id":"ce4bgi12rcd13ifvqb70","pricing_plan_id":"free"},{"bike_id":"e921c7e5-6d45-4563-be8d-0c2b274c0ee4","system_id":"levelo_inurba_marseille","lat":43.296921,"lon":5.376579,"is_reserved":false,"is_disabled":false,"rental_uris":{"android":"levelo://app?vid=e921c7e5-6d45-4563-be8d-0c2b274c0ee4","ios":"levelo://app?vid=e921c7e5-6d45-4563-be8d-0c2b274c0ee4"},"vehicle_type_id":"4","last_reported":1702915747,"current_range_meters":11600,"station_id":"ce4bgkh2rcd13ifvqbl0","pricing_plan_id":"free"},{"bike_id":"4d43f0a5-81c6-4989-a212-d3751e70b4c9","system_id":"levelo_inurba_marseille","lat":43.296131,"lon":5.370773,"is_reserved":false,"is_disabled":false,"rental_uris":{"android":"levelo://app?vid=4d43f0a5-81c6-4989-a212-d3751e70b4c9","ios":"levelo://app?vid=4d43f0a5-81c6-4989-a212-d3751e70b4c9"},"vehicle_type_id":"4","last_reported":1702915747,"current_range_meters":26000,"station_id":"ce4bgnh2rcd13ifvqc0g","pricing_plan_id":"free"},{"bike_id":"ea6f46a4-dd60-43a7-b6cd-bf75df1f9470","system_id":"levelo_inurba_marseille","lat":43.296921,"lon":5.376579,"is_reserved":false,"is_disabled":false,"rental_uris":{"android":"levelo://app?vid=ea6f46a4-dd60-43a7-b6cd-bf75df1f9470","ios":"levelo://app?vid=ea6f46a4-dd60-43a7-b6cd-bf75df1f9470"},"vehicle_type_id":"4","last_reported":1702915747,"current_range_meters":0,"station_id":"ce4bgkh2rcd13ifvqbl0","pricing_plan_id":"free"},{"bike_id":"090ab4b7-94db-4262-905b-2b317af0d03a","system_id":"levelo_inurba_marseille","lat":43.29704,"lon":5.37702,"is_reserved":false,"is_disabled":false,"rental_uris":{"android":"levelo://app?vid=090ab4b7-94db-4262-905b-2b317af0d03a","ios":"levelo://app?vid=090ab4b7-94db-4262-905b-2b317af0d03a"},"vehicle_type_id":"4","last_reported":1702915747,"current_range_meters":12000,"station_id":"ce4bgkh2rcd13ifvqbl0","pricing_plan_id":"free"},{"bike_id":"fa9e6159-1bec-4a2d-afa0-1c60e63d0ec9","system_id":"levelo_inurba_marseille","lat":43.29803,"lon":5.3808,"is_reserved":false,"is_disabled":false,"rental_uris":{"android":"levelo://app?vid=fa9e6159-1bec-4a2d-afa0-1c60e63d0ec9","ios":"levelo://app?vid=fa9e6159-1bec-4a2d-afa0-1c60e63d0ec9"},"vehicle_type_id":"4","last_reported":1702915747,"current_range_meters":31200,"station_id":"ce4bgip2rcd13ifvqbb0","pricing_plan_id":"free"},{"bike_id":"99d4f4c6-4916-4a39-a7a7-1eddbb54dd59","system_id":"levelo_inurba_marseille","lat":43.298003,"lon":5.380942,"is_reserved":false,"is_disabled":false,"rental_uris":{"android":"levelo://app?vid=99d4f4c6-4916-4a39-a7a7-1eddbb54dd59","ios":"levelo://app?vid=99d4f4c6-4916-4a39-a7a7-1eddbb54dd59"},"vehicle_type_id":"4","last_reported":1702915747,"current_range_meters":24000,"station_id":"ce4bgip2rcd13ifvqbb0","pricing_plan_id":"free"},{"bike_id":"64b5e050-5758-45f2-bc85-9d36ff321d04","system_id":"levelo_inurba_marseille","lat":43.297927,"lon":5.380966,"is_reserved":false,"is_disabled":false,"rental_uris":{"android":"levelo://app?vid=64b5e050-5758-45f2-bc85-9d36ff321d04","ios":"levelo://app?vid=64b5e050-5758-45f2-bc85-9d36ff321d04"},"vehicle_type_id":"4","last_reported":1702915747,"current_range_meters":2000,"station_id":"","pricing_plan_id":"free"},{"bike_id":"954eb373-30a5-4f29-9acc-b9f873d16c3f","system_id":"levelo_inurba_marseille","lat":43.29568,"lon":5.37515,"is_reserved":false,"is_disabled":false,"rental_uris":{"android":"levelo://app?vid=954eb373-30a5-4f29-9acc-b9f873d16c3f","ios":"levelo://app?vid=954eb373-30a5-4f29-9acc-b9f873d16c3f"},"vehicle_type_id":"4","last_reported":1702915747,"current_range_meters":0,"station_id":"ce4bgh92rcd13ifvqb50","pricing_plan_id":"free"},{"bike_id":"7852b4d4-dc4a-4005-a0aa-4c43e867d5c5","system_id":"levelo_inurba_marseille","lat":43.295748,"lon":5.37522,"is_reserved":false,"is_disabled":false,"rental_uris":{"android":"levelo://app?vid=7852b4d4-dc4a-4005-a0aa-4c43e867d5c5","ios":"levelo://app?vid=7852b4d4-dc4a-4005-a0aa-4c43e867d5c5"},"vehicle_type_id":"4","last_reported":1702915747,"current_range_meters":16400,"station_id":"ce4bgh92rcd13ifvqb50","pricing_plan_id":"free"},{"bike_id":"5fdb774e-4e2d-45c8-9483-870a234ade74","system_id":"levelo_inurba_marseille","lat":43.32362,"lon":5.38884,"is_reserved":false,"is_disabled":false,"rental_uris":{"android":"levelo://app?vid=5fdb774e-4e2d-45c8-9483-870a234ade74","ios":"levelo://app?vid=5fdb774e-4e2d-45c8-9483-870a234ade74"},"vehicle_type_id":"4","last_reported":1702915747,"current_range_meters":19200,"station_id":"ce4bhqp2rcd13ifvqhog","pricing_plan_id":"free"},{"bike_id":"e1fbe03f-2f56-4996-841a-3ecd4e28ed8a","system_id":"levelo_inurba_marseille","lat":43.32367,"lon":5.388836,"is_reserved":false,"is_disabled":false,"rental_uris":{"android":"levelo://app?vid=e1fbe03f-2f56-4996-841a-3ecd4e28ed8a","ios":"levelo://app?vid=e1fbe03f-2f56-4996-841a-3ecd4e28ed8a"},"vehicle_type_id":"4","last_reported":1702915747,"current_range_meters":22400,"station_id":"ce4bhqp2rcd13ifvqhog","pricing_plan_id":"free"},{"bike_id":"2924eda7-0c4d-4e6d-b45c-1d63ad636eb7","system_id":"levelo_inurba_marseille","lat":43.293259,"lon":5.371586,"is_reserved":false,"is_disabled":false,"rental_uris":{"android":"levelo://app?vid=2924eda7-0c4d-4e6d-b45c-1d63ad636eb7","ios":"levelo://app?vid=2924eda7-0c4d-4e6d-b45c-1d63ad636eb7"},"vehicle_type_id":"4","last_reported":1702915747,"current_range_meters":17600,"station_id":"ce4bgh92rcd13ifvqb40","pricing_plan_id":"free"},{"bike_id":"d7828e30-7e14-4f15-a529-42dc25357cb4","system_id":"levelo_inurba_marseille","lat":43.293259,"lon":5.371586,"is_reserved":false,"is_disabled":false,"rental_uris":{"android":"levelo://app?vid=d7828e30-7e14-4f15-a529-42dc25357cb4","ios":"levelo://app?vid=d7828e30-7e14-4f15-a529-42dc25357cb4"},"vehicle_type_id":"4","last_reported":1702915747,"current_range_meters":30400,"station_id":"ce4bgh92rcd13ifvqb40","pricing_plan_id":"free"},{"bike_id":"eeca627f-33da-4b22-974a-75037ad7575f","system_id":"levelo_inurba_marseille","lat":43.292749,"lon":5.368402,"is_reserved":false,"is_disabled":false,"rental_uris":{"android":"levelo://app?vid=eeca627f-33da-4b22-974a-75037ad7575f","ios":"levelo://app?vid=eeca627f-33da-4b22-974a-75037ad7575f"},"vehicle_type_id":"4","last_reported":1702915747,"current_range_meters":12000,"station_id":"ce4bhbp2rcd13ifvqesg","pricing_plan_id":"free"},{"bike_id":"20c00798-f748-4513-93c5-723e0128bf47","system_id":"levelo_inurba_marseille","lat":43.2927,"lon":5.36839,"is_reserved":false,"is_disabled":false,"rental_uris":{"android":"levelo://app?vid=20c00798-f748-4513-93c5-723e0128bf47","ios":"levelo://app?vid=20c00798-f748-4513-93c5-723e0128bf47"},"vehicle_type_id":"4","last_reported":1702915747,"current_range_meters":20800,"station_id":"ce4bhbp2rcd13ifvqesg","pricing_plan_id":"free"},{"bike_id":"81fff5aa-5722-4b3c-9779-4729ffdffbae","system_id":"levelo_inurba_marseille","lat":43.302992,"lon":5.392136,"is_reserved":false,"is_disabled":false,"rental_uris":{"android":"levelo://app?vid=81fff5aa-5722-4b3c-9779-4729ffdffbae","ios":"levelo://app?vid=81fff5aa-5722-4b3c-9779-4729ffdffbae"},"vehicle_type_id":"4","last_reported":1702915747,"current_range_meters":17200,"station_id":"ce4bgkh2rcd13ifvqbk0","pricing_plan_id":"free"},{"bike_id":"699eacdf-8c12-4d96-be50-1b26174e96dd","system_id":"levelo_inurba_marseille","lat":43.2936,"lon":5.37835,"is_reserved":false,"is_disabled":false,"rental_uris":{"android":"levelo://app?vid=699eacdf-8c12-4d96-be50-1b26174e96dd","ios":"levelo://app?vid=699eacdf-8c12-4d96-be50-1b26174e96dd"},"vehicle_type_id":"4","last_reported":1702915747,"current_range_meters":2800,"station_id":"ce4bgjh2rcd13ifvqbf0","pricing_plan_id":"free"},{"bike_id":"b45f7df4-0c44-4352-a4c2-e1e7cf9dd3b4","system_id":"levelo_inurba_marseille","lat":43.2936,"lon":5.37835,"is_reserved":false,"is_disabled":false,"rental_uris":{"android":"levelo://app?vid=b45f7df4-0c44-4352-a4c2-e1e7cf9dd3b4","ios":"levelo://app?vid=b45f7df4-0c44-4352-a4c2-e1e7cf9dd3b4"},"vehicle_type_id":"4","last_reported":1702915747,"current_range_meters":23200,"station_id":"ce4bgjh2rcd13ifvqbf0","pricing_plan_id":"free"},{"bike_id":"86df3b72-d2e0-46ca-a761-c03b991492d2","system_id":"levelo_inurba_marseille","lat":43.300852,"lon":5.390859,"is_reserved":false,"is_disabled":false,"rental_uris":{"android":"levelo://app?vid=86df3b72-d2e0-46ca-a761-c03b991492d2","ios":"levelo://app?vid=86df3b72-d2e0-46ca-a761-c03b991492d2"},"vehicle_type_id":"4","last_reported":1702915747,"current_range_meters":1600,"station_id":"ce4bh192rcd13ifvqdb0","pricing_plan_id":"free"},{"bike_id":"6baf720b-e32f-4980-a28f-c9072d343ce7","system_id":"levelo_inurba_marseille","lat":43.2936,"lon":5.37835,"is_reserved":false,"is_disabled":false,"rental_uris":{"android":"levelo://app?vid=6baf720b-e32f-4980-a28f-c9072d343ce7","ios":"levelo://app?vid=6baf720b-e32f-4980-a28f-c9072d343ce7"},"vehicle_type_id":"4","last_reported":1702915747,"current_range_meters":4400,"station_id":"ce4bgjh2rcd13ifvqbf0","pricing_plan_id":"free"},{"bike_id":"416ac2e3-5ee3-4927-b5e8-f6dd424317f6","system_id":"levelo_inurba_marseille","lat":43.29875,"lon":5.3891,"is_reserved":false,"is_disabled":false,"rental_uris":{"android":"levelo://app?vid=416ac2e3-5ee3-4927-b5e8-f6dd424317f6","ios":"levelo://app?vid=416ac2e3-5ee3-4927-b5e8-f6dd424317f6"},"vehicle_type_id":"4","last_reported":1702915747,"current_range_meters":22000,"station_id":"","pricing_plan_id":"free"},{"bike_id":"2dda5b9b-170c-4869-9962-d6c75fe23d40","system_id":"levelo_inurba_marseille","lat":43.29194,"lon":5.35808,"is_reserved":false,"is_disabled":false,"rental_uris":{"android":"levelo://app?vid=2dda5b9b-170c-4869-9962-d6c75fe23d40","ios":"levelo://app?vid=2dda5b9b-170c-4869-9962-d6c75fe23d40"},"vehicle_type_id":"4","last_reported":1702915747,"current_range_meters":20000,"station_id":"ce4bhb12rcd13ifvqel0","pricing_plan_id":"free"},{"bike_id":"5e12d40d-fc03-4c9f-8b92-9750452c7656","system_id":"levelo_inurba_marseille","lat":43.29529,"lon":5.385581,"is_reserved":false,"is_disabled":false,"rental_uris":{"android":"levelo://app?vid=5e12d40d-fc03-4c9f-8b92-9750452c7656","ios":"levelo://app?vid=5e12d40d-fc03-4c9f-8b92-9750452c7656"},"vehicle_type_id":"4","last_reported":1702915747,"current_range_meters":18400,"station_id":"ce4bgih2rcd13ifvqba0","pricing_plan_id":"free"},{"bike_id":"f2c6b8bb-6307-463a-be92-070953345243","system_id":"levelo_inurba_marseille","lat":43.290779,"lon":5.371482,"is_reserved":false,"is_disabled":false,"rental_uris":{"android":"levelo://app?vid=f2c6b8bb-6307-463a-be92-070953345243","ios":"levelo://app?vid=f2c6b8bb-6307-463a-be92-070953345243"},"vehicle_type_id":"4","last_reported":1702915747,"current_range_meters":28400,"station_id":"ce4bh5p2rcd13ifvqe4g","pricing_plan_id":"free"},{"bike_id":"0a6846ef-e9dc-47b2-b1a7-2583912d5ef9","system_id":"levelo_inurba_marseille","lat":43.29532,"lon":5.38558,"is_reserved":false,"is_disabled":false,"rental_uris":{"android":"levelo://app?vid=0a6846ef-e9dc-47b2-b1a7-2583912d5ef9","ios":"levelo://app?vid=0a6846ef-e9dc-47b2-b1a7-2583912d5ef9"},"vehicle_type_id":"4","last_reported":1702915747,"current_range_meters":0,"station_id":"ce4bgih2rcd13ifvqba0","pricing_plan_id":"free"},{"bike_id":"fa7f0877-3e5d-4ac5-9b9e-fc19b733fc13","system_id":"levelo_inurba_marseille","lat":43.302008,"lon":5.394694,"is_reserved":false,"is_disabled":false,"rental_uris":{"android":"levelo://app?vid=fa7f0877-3e5d-4ac5-9b9e-fc19b733fc13","ios":"levelo://app?vid=fa7f0877-3e5d-4ac5-9b9e-fc19b733fc13"},"vehicle_type_id":"4","last_reported":1702915747,"current_range_meters":17200,"station_id":"ce4bh0p2rcd13ifvqd70","pricing_plan_id":"free"},{"bike_id":"39e7e071-f11e-4340-b855-0f33ce5c5f69","system_id":"levelo_inurba_marseille","lat":43.290631,"lon":5.359244,"is_reserved":false,"is_disabled":false,"rental_uris":{"android":"levelo://app?vid=39e7e071-f11e-4340-b855-0f33ce5c5f69","ios":"levelo://app?vid=39e7e071-f11e-4340-b855-0f33ce5c5f69"},"vehicle_type_id":"4","last_reported":1702915747,"current_range_meters":12800,"station_id":"ce4bha92rcd13ifvqeg0","pricing_plan_id":"free"},{"bike_id":"8ca93b15-c4b5-466f-8ce0-b780906ae199","system_id":"levelo_inurba_marseille","lat":43.290624,"lon":5.359245,"is_reserved":false,"is_disabled":false,"rental_uris":{"android":"levelo://app?vid=8ca93b15-c4b5-466f-8ce0-b780906ae199","ios":"levelo://app?vid=8ca93b15-c4b5-466f-8ce0-b780906ae199"},"vehicle_type_id":"4","last_reported":1702915747,"current_range_meters":26800,"station_id":"ce4bha92rcd13ifvqeg0","pricing_plan_id":"free"},{"bike_id":"8361779f-dd81-44a0-86f7-bc7bcd35eb2f","system_id":"levelo_inurba_marseille","lat":43.290327,"lon":5.375711,"is_reserved":false,"is_disabled":false,"rental_uris":{"android":"levelo://app?vid=8361779f-dd81-44a0-86f7-bc7bcd35eb2f","ios":"levelo://app?vid=8361779f-dd81-44a0-86f7-bc7bcd35eb2f"},"vehicle_type_id":"4","last_reported":1702915747,"current_range_meters":21600,"station_id":"ce4bh692rcd13ifvqe90","pricing_plan_id":"free"},{"bike_id":"3675561d-df1a-46b5-9442-14692f2d5bc0","system_id":"levelo_inurba_marseille","lat":43.292644,"lon":5.384257,"is_reserved":false,"is_disabled":false,"rental_uris":{"android":"levelo://app?vid=3675561d-df1a-46b5-9442-14692f2d5bc0","ios":"levelo://app?vid=3675561d-df1a-46b5-9442-14692f2d5bc0"},"vehicle_type_id":"4","last_reported":1702915747,"current_range_meters":31200,"station_id":"ce4bh692rcd13ifvqea0","pricing_plan_id":"free"},{"bike_id":"ec69d6be-7cd2-4e69-9946-a9d13e3dd11a","system_id":"levelo_inurba_marseille","lat":43.304296,"lon":5.397513,"is_reserved":false,"is_disabled":false,"rental_uris":{"android":"levelo://app?vid=ec69d6be-7cd2-4e69-9946-a9d13e3dd11a","ios":"levelo://app?vid=ec69d6be-7cd2-4e69-9946-a9d13e3dd11a"},"vehicle_type_id":"4","last_reported":1702915747,"current_range_meters":30400,"station_id":"ce4bh092rcd13ifvqd20","pricing_plan_id":"free"},{"bike_id":"91f0c767-faab-460c-9abe-c78c9bfe1b8c","system_id":"levelo_inurba_marseille","lat":43.292644,"lon":5.384257,"is_reserved":false,"is_disabled":false,"rental_uris":{"android":"levelo://app?vid=91f0c767-faab-460c-9abe-c78c9bfe1b8c","ios":"levelo://app?vid=91f0c767-faab-460c-9abe-c78c9bfe1b8c"},"vehicle_type_id":"4","last_reported":1702915747,"current_range_meters":16000,"station_id":"ce4bh692rcd13ifvqea0","pricing_plan_id":"free"},{"bike_id":"9b109012-9c64-4d1c-b173-7849c6a32ee2","system_id":"levelo_inurba_marseille","lat":43.290032,"lon":5.356143,"is_reserved":false,"is_disabled":false,"rental_uris":{"android":"levelo://app?vid=9b109012-9c64-4d1c-b173-7849c6a32ee2","ios":"levelo://app?vid=9b109012-9c64-4d1c-b173-7849c6a32ee2"},"vehicle_type_id":"4","last_reported":1702915747,"current_range_meters":0,"station_id":"ce4bhb92rcd13ifvqen0","pricing_plan_id":"free"},{"bike_id":"f44ee945-bd63-4f6c-8914-5f31df6b27ac","system_id":"levelo_inurba_marseille","lat":43.29003,"lon":5.35612,"is_reserved":false,"is_disabled":false,"rental_uris":{"android":"levelo://app?vid=f44ee945-bd63-4f6c-8914-5f31df6b27ac","ios":"levelo://app?vid=f44ee945-bd63-4f6c-8914-5f31df6b27ac"},"vehicle_type_id":"4","last_reported":1702915747,"current_range_meters":0,"station_id":"ce4bhb92rcd13ifvqen0","pricing_plan_id":"free"},{"bike_id":"a8e7546c-efff-4ca7-8f91-378b503d2494","system_id":"levelo_inurba_marseille","lat":43.29522,"lon":5.390193,"is_reserved":false,"is_disabled":false,"rental_uris":{"android":"levelo://app?vid=a8e7546c-efff-4ca7-8f91-378b503d2494","ios":"levelo://app?vid=a8e7546c-efff-4ca7-8f91-378b503d2494"},"vehicle_type_id":"4","last_reported":1702915747,"current_range_meters":31200,"station_id":"ce4bh3p2rcd13ifvqdp0","pricing_plan_id":"free"},{"bike_id":"a1c0eb06-cdfa-43dd-97b8-d7d94e844f25","system_id":"levelo_inurba_marseille","lat":43.290094,"lon":5.381264,"is_reserved":false,"is_disabled":false,"rental_uris":{"android":"levelo://app?vid=a1c0eb06-cdfa-43dd-97b8-d7d94e844f25","ios":"levelo://app?vid=a1c0eb06-cdfa-43dd-97b8-d7d94e844f25"},"vehicle_type_id":"4","last_reported":1702915747,"current_range_meters":20000,"station_id":"ce4bh4p2rcd13ifvqe1g","pricing_plan_id":"free"},{"bike_id":"852ff1bd-4553-40f0-a2da-d39573555a35","system_id":"levelo_inurba_marseille","lat":43.28854,"lon":5.35864,"is_reserved":false,"is_disabled":false,"rental_uris":{"android":"levelo://app?vid=852ff1bd-4553-40f0-a2da-d39573555a35","ios":"levelo://app?vid=852ff1bd-4553-40f0-a2da-d39573555a35"},"vehicle_type_id":"4","last_reported":1702915747,"current_range_meters":0,"station_id":"ce4bhb12rcd13ifvqem0","pricing_plan_id":"free"},{"bike_id":"3c4e13a1-5867-4217-8dca-7de7014c8615","system_id":"levelo_inurba_marseille","lat":43.28851,"lon":5.35855,"is_reserved":false,"is_disabled":false,"rental_uris":{"android":"levelo://app?vid=3c4e13a1-5867-4217-8dca-7de7014c8615","ios":"levelo://app?vid=3c4e13a1-5867-4217-8dca-7de7014c8615"},"vehicle_type_id":"4","last_reported":1702915747,"current_range_meters":2400,"station_id":"ce4bhb12rcd13ifvqem0","pricing_plan_id":"free"},{"bike_id":"1ac6cf2c-bc1c-4414-94f8-d2e1c434733b","system_id":"levelo_inurba_marseille","lat":43.288403,"lon":5.3587,"is_reserved":false,"is_disabled":false,"rental_uris":{"android":"levelo://app?vid=1ac6cf2c-bc1c-4414-94f8-d2e1c434733b","ios":"levelo://app?vid=1ac6cf2c-bc1c-4414-94f8-d2e1c434733b"},"vehicle_type_id":"4","last_reported":1702915747,"current_range_meters":7600,"station_id":"ce4bhb12rcd13ifvqem0","pricing_plan_id":"free"},{"bike_id":"2ce4cefa-498a-4d27-b6ef-37c8637a9c9a","system_id":"levelo_inurba_marseille","lat":43.337405,"lon":5.374605,"is_reserved":false,"is_disabled":false,"rental_uris":{"android":"levelo://app?vid=2ce4cefa-498a-4d27-b6ef-37c8637a9c9a","ios":"levelo://app?vid=2ce4cefa-498a-4d27-b6ef-37c8637a9c9a"},"vehicle_type_id":"4","last_reported":1702915747,"current_range_meters":30000,"station_id":"","pricing_plan_id":"free"},{"bike_id":"1095f329-4523-4741-a454-4ad50fbfc666","system_id":"levelo_inurba_marseille","lat":43.312609,"lon":5.401662,"is_reserved":false,"is_disabled":false,"rental_uris":{"android":"levelo://app?vid=1095f329-4523-4741-a454-4ad50fbfc666","ios":"levelo://app?vid=1095f329-4523-4741-a454-4ad50fbfc666"},"vehicle_type_id":"4","last_reported":1702915747,"current_range_meters":14800,"station_id":"ce4bh092rcd13ifvqd30","pricing_plan_id":"free"},{"bike_id":"d83dc7ba-82fa-4e8b-89fe-c0b5bd95d556","system_id":"levelo_inurba_marseille","lat":43.306353,"lon":5.400803,"is_reserved":false,"is_disabled":false,"rental_uris":{"android":"levelo://app?vid=d83dc7ba-82fa-4e8b-89fe-c0b5bd95d556","ios":"levelo://app?vid=d83dc7ba-82fa-4e8b-89fe-c0b5bd95d556"},"vehicle_type_id":"4","last_reported":1702915747,"current_range_meters":31200,"station_id":"ce4bh112rcd13ifvqda0","pricing_plan_id":"free"},{"bike_id":"a6251603-bd21-4050-b0f6-92c10d3007e8","system_id":"levelo_inurba_marseille","lat":43.30635,"lon":5.40085,"is_reserved":false,"is_disabled":false,"rental_uris":{"android":"levelo://app?vid=a6251603-bd21-4050-b0f6-92c10d3007e8","ios":"levelo://app?vid=a6251603-bd21-4050-b0f6-92c10d3007e8"},"vehicle_type_id":"4","last_reported":1702915747,"current_range_meters":21600,"station_id":"ce4bh112rcd13ifvqda0","pricing_plan_id":"free"},{"bike_id":"fc8d24bb-0c26-4688-9bac-affcc075aa4d","system_id":"levelo_inurba_marseille","lat":43.33764,"lon":5.37454,"is_reserved":false,"is_disabled":false,"rental_uris":{"android":"levelo://app?vid=fc8d24bb-0c26-4688-9bac-affcc075aa4d","ios":"levelo://app?vid=fc8d24bb-0c26-4688-9bac-affcc075aa4d"},"vehicle_type_id":"4","last_reported":1702915747,"current_range_meters":26000,"station_id":"","pricing_plan_id":"free"},{"bike_id":"bb7f590a-7dfb-490a-a7e1-6f7667c80c8e","system_id":"levelo_inurba_marseille","lat":43.30646,"lon":5.40094,"is_reserved":false,"is_disabled":false,"rental_uris":{"android":"levelo://app?vid=bb7f590a-7dfb-490a-a7e1-6f7667c80c8e","ios":"levelo://app?vid=bb7f590a-7dfb-490a-a7e1-6f7667c80c8e"},"vehicle_type_id":"4","last_reported":1702915747,"current_range_meters":26000,"station_id":"ce4bh112rcd13ifvqda0","pricing_plan_id":"free"},{"bike_id":"fc7a04d7-a1ce-4604-99b6-d97b31636a57","system_id":"levelo_inurba_marseille","lat":43.306445,"lon":5.40094,"is_reserved":false,"is_disabled":false,"rental_uris":{"android":"levelo://app?vid=fc7a04d7-a1ce-4604-99b6-d97b31636a57","ios":"levelo://app?vid=fc7a04d7-a1ce-4604-99b6-d97b31636a57"},"vehicle_type_id":"4","last_reported":1702915747,"current_range_meters":23200,"station_id":"ce4bh112rcd13ifvqda0","pricing_plan_id":"free"},{"bike_id":"498545b5-fdff-4c85-af17-cb33d09cd6fb","system_id":"levelo_inurba_marseille","lat":43.30644,"lon":5.40098,"is_reserved":false,"is_disabled":false,"rental_uris":{"android":"levelo://app?vid=498545b5-fdff-4c85-af17-cb33d09cd6fb","ios":"levelo://app?vid=498545b5-fdff-4c85-af17-cb33d09cd6fb"},"vehicle_type_id":"4","last_reported":1702915747,"current_range_meters":400,"station_id":"ce4bh112rcd13ifvqda0","pricing_plan_id":"free"},{"bike_id":"4fe37183-220c-457f-9160-2f0b74752835","system_id":"levelo_inurba_marseille","lat":43.28727,"lon":5.36078,"is_reserved":false,"is_disabled":false,"rental_uris":{"android":"levelo://app?vid=4fe37183-220c-457f-9160-2f0b74752835","ios":"levelo://app?vid=4fe37183-220c-457f-9160-2f0b74752835"},"vehicle_type_id":"4","last_reported":1702915747,"current_range_meters":10800,"station_id":"cki0cbj6b192h4jlfktg","pricing_plan_id":"free"},{"bike_id":"906e7035-6466-4459-9506-4026fe333bf1","system_id":"levelo_inurba_marseille","lat":43.298681,"lon":5.397225,"is_reserved":false,"is_disabled":false,"rental_uris":{"android":"levelo://app?vid=906e7035-6466-4459-9506-4026fe333bf1","ios":"levelo://app?vid=906e7035-6466-4459-9506-4026fe333bf1"},"vehicle_type_id":"4","last_reported":1702915747,"current_range_meters":8400,"station_id":"ce4bh0h2rcd13ifvqd50","pricing_plan_id":"free"},{"bike_id":"df610cac-8127-473a-a35c-50a3df832f07","system_id":"levelo_inurba_marseille","lat":43.28746,"lon":5.37646,"is_reserved":false,"is_disabled":false,"rental_uris":{"android":"levelo://app?vid=df610cac-8127-473a-a35c-50a3df832f07","ios":"levelo://app?vid=df610cac-8127-473a-a35c-50a3df832f07"},"vehicle_type_id":"4","last_reported":1702915747,"current_range_meters":25600,"station_id":"","pricing_plan_id":"free"},{"bike_id":"c19c79a8-775d-4da1-b291-f35d57d67324","system_id":"levelo_inurba_marseille","lat":43.286591,"lon":5.363346,"is_reserved":false,"is_disabled":false,"rental_uris":{"android":"levelo://app?vid=c19c79a8-775d-4da1-b291-f35d57d67324","ios":"levelo://app?vid=c19c79a8-775d-4da1-b291-f35d57d67324"},"vehicle_type_id":"4","last_reported":1702915747,"current_range_meters":5200,"station_id":"ce4bhah2rcd13ifvqej0","pricing_plan_id":"free"},{"bike_id":"43538ac9-57bd-4c4c-aeb9-5a46e3e9d331","system_id":"levelo_inurba_marseille","lat":43.286591,"lon":5.363346,"is_reserved":false,"is_disabled":false,"rental_uris":{"android":"levelo://app?vid=43538ac9-57bd-4c4c-aeb9-5a46e3e9d331","ios":"levelo://app?vid=43538ac9-57bd-4c4c-aeb9-5a46e3e9d331"},"vehicle_type_id":"4","last_reported":1702915747,"current_range_meters":20000,"station_id":"ce4bhah2rcd13ifvqej0","pricing_plan_id":"free"},{"bike_id":"d7e8055d-8385-414b-a464-4f4c9fda54a6","system_id":"levelo_inurba_marseille","lat":43.286591,"lon":5.363346,"is_reserved":false,"is_disabled":false,"rental_uris":{"android":"levelo://app?vid=d7e8055d-8385-414b-a464-4f4c9fda54a6","ios":"levelo://app?vid=d7e8055d-8385-414b-a464-4f4c9fda54a6"},"vehicle_type_id":"4","last_reported":1702915747,"current_range_meters":26800,"station_id":"ce4bhah2rcd13ifvqej0","pricing_plan_id":"free"},{"bike_id":"e0673af2-eb0a-4153-8ea7-3d0552c862c8","system_id":"levelo_inurba_marseille","lat":43.295194,"lon":5.39397,"is_reserved":false,"is_disabled":false,"rental_uris":{"android":"levelo://app?vid=e0673af2-eb0a-4153-8ea7-3d0552c862c8","ios":"levelo://app?vid=e0673af2-eb0a-4153-8ea7-3d0552c862c8"},"vehicle_type_id":"4","last_reported":1702915747,"current_range_meters":20400,"station_id":"ce4bh292rcd13ifvqdf0","pricing_plan_id":"free"},{"bike_id":"8f5ddd5b-29c1-4d53-84ee-7d2af3c33be3","system_id":"levelo_inurba_marseille","lat":43.302759,"lon":5.400793,"is_reserved":false,"is_disabled":false,"rental_uris":{"android":"levelo://app?vid=8f5ddd5b-29c1-4d53-84ee-7d2af3c33be3","ios":"levelo://app?vid=8f5ddd5b-29c1-4d53-84ee-7d2af3c33be3"},"vehicle_type_id":"4","last_reported":1702915747,"current_range_meters":8400,"station_id":"ce4bgvh2rcd13ifvqcs0","pricing_plan_id":"free"},{"bike_id":"3c65b6e7-d8bc-4f54-8635-0843ebf27265","system_id":"levelo_inurba_marseille","lat":43.286039,"lon":5.370679,"is_reserved":false,"is_disabled":false,"rental_uris":{"android":"levelo://app?vid=3c65b6e7-d8bc-4f54-8635-0843ebf27265","ios":"levelo://app?vid=3c65b6e7-d8bc-4f54-8635-0843ebf27265"},"vehicle_type_id":"4","last_reported":1702915747,"current_range_meters":13600,"station_id":"ce4bht12rcd13ifvqi60","pricing_plan_id":"free"},{"bike_id":"edd44af9-0436-4d9d-9fab-7ea287d0960a","system_id":"levelo_inurba_marseille","lat":43.286039,"lon":5.370681,"is_reserved":false,"is_disabled":false,"rental_uris":{"android":"levelo://app?vid=edd44af9-0436-4d9d-9fab-7ea287d0960a","ios":"levelo://app?vid=edd44af9-0436-4d9d-9fab-7ea287d0960a"},"vehicle_type_id":"4","last_reported":1702915747,"current_range_meters":20000,"station_id":"ce4bht12rcd13ifvqi60","pricing_plan_id":"free"},{"bike_id":"860a9534-24ee-4e25-b146-f4076d4f544c","system_id":"levelo_inurba_marseille","lat":43.286039,"lon":5.370681,"is_reserved":false,"is_disabled":false,"rental_uris":{"android":"levelo://app?vid=860a9534-24ee-4e25-b146-f4076d4f544c","ios":"levelo://app?vid=860a9534-24ee-4e25-b146-f4076d4f544c"},"vehicle_type_id":"4","last_reported":1702915747,"current_range_meters":18800,"station_id":"ce4bht12rcd13ifvqi60","pricing_plan_id":"free"},{"bike_id":"02844626-d630-42f5-8656-638ffe25e75a","system_id":"levelo_inurba_marseille","lat":43.287185,"lon":5.379373,"is_reserved":false,"is_disabled":false,"rental_uris":{"android":"levelo://app?vid=02844626-d630-42f5-8656-638ffe25e75a","ios":"levelo://app?vid=02844626-d630-42f5-8656-638ffe25e75a"},"vehicle_type_id":"4","last_reported":1702915747,"current_range_meters":13600,"station_id":"ce4bh9p2rcd13ifvqec0","pricing_plan_id":"free"},{"bike_id":"df0ce0b0-8ace-4435-bd6a-465884fb3816","system_id":"levelo_inurba_marseille","lat":43.284534,"lon":5.358662,"is_reserved":false,"is_disabled":false,"rental_uris":{"android":"levelo://app?vid=df0ce0b0-8ace-4435-bd6a-465884fb3816","ios":"levelo://app?vid=df0ce0b0-8ace-4435-bd6a-465884fb3816"},"vehicle_type_id":"4","last_reported":1702915747,"current_range_meters":31200,"station_id":"ce4bhah2rcd13ifvqei0","pricing_plan_id":"free"},{"bike_id":"c6ac5712-cbfa-46e7-8e63-8e15274cb6b0","system_id":"levelo_inurba_marseille","lat":43.284538,"lon":5.358657,"is_reserved":false,"is_disabled":false,"rental_uris":{"android":"levelo://app?vid=c6ac5712-cbfa-46e7-8e63-8e15274cb6b0","ios":"levelo://app?vid=c6ac5712-cbfa-46e7-8e63-8e15274cb6b0"},"vehicle_type_id":"4","last_reported":1702915747,"current_range_meters":13600,"station_id":"ce4bhah2rcd13ifvqei0","pricing_plan_id":"free"},{"bike_id":"7bdb2ec0-8784-4227-b9c0-acc867888987","system_id":"levelo_inurba_marseille","lat":43.294314,"lon":5.397498,"is_reserved":false,"is_disabled":false,"rental_uris":{"android":"levelo://app?vid=7bdb2ec0-8784-4227-b9c0-acc867888987","ios":"levelo://app?vid=7bdb2ec0-8784-4227-b9c0-acc867888987"},"vehicle_type_id":"4","last_reported":1702915747,"current_range_meters":2000,"station_id":"ce4bh3h2rcd13ifvqdo0","pricing_plan_id":"free"},{"bike_id":"67973ff0-942f-44ae-b7e3-1f8fbfa5219e","system_id":"levelo_inurba_marseille","lat":43.28617,"lon":5.35105,"is_reserved":false,"is_disabled":false,"rental_uris":{"android":"levelo://app?vid=67973ff0-942f-44ae-b7e3-1f8fbfa5219e","ios":"levelo://app?vid=67973ff0-942f-44ae-b7e3-1f8fbfa5219e"},"vehicle_type_id":"4","last_reported":1702915747,"current_range_meters":16000,"station_id":"ce4bhch2rcd13ifvqeug","pricing_plan_id":"free"},{"bike_id":"0defacfc-85ba-4d9b-9aba-955ee8606894","system_id":"levelo_inurba_marseille","lat":43.295713,"lon":5.399639,"is_reserved":false,"is_disabled":false,"rental_uris":{"android":"levelo://app?vid=0defacfc-85ba-4d9b-9aba-955ee8606894","ios":"levelo://app?vid=0defacfc-85ba-4d9b-9aba-955ee8606894"},"vehicle_type_id":"4","last_reported":1702915747,"current_range_meters":4400,"station_id":"ce4bh312rcd13ifvqdj0","pricing_plan_id":"free"},{"bike_id":"2dfa5049-0e1b-4839-b5c3-156910a65dbd","system_id":"levelo_inurba_marseille","lat":43.33218,"lon":5.397067,"is_reserved":false,"is_disabled":false,"rental_uris":{"android":"levelo://app?vid=2dfa5049-0e1b-4839-b5c3-156910a65dbd","ios":"levelo://app?vid=2dfa5049-0e1b-4839-b5c3-156910a65dbd"},"vehicle_type_id":"4","last_reported":1702915747,"current_range_meters":4800,"station_id":"","pricing_plan_id":"free"},{"bike_id":"c489507f-c310-4fc6-9558-9b80a81af1d9","system_id":"levelo_inurba_marseille","lat":43.323464,"lon":5.406297,"is_reserved":false,"is_disabled":false,"rental_uris":{"android":"levelo://app?vid=c489507f-c310-4fc6-9558-9b80a81af1d9","ios":"levelo://app?vid=c489507f-c310-4fc6-9558-9b80a81af1d9"},"vehicle_type_id":"4","last_reported":1702915747,"current_range_meters":30000,"station_id":"ce4bhq92rcd13ifvqhjg","pricing_plan_id":"free"},{"bike_id":"2919631a-5f21-4cf6-930a-50f71929b7b5","system_id":"levelo_inurba_marseille","lat":43.29795,"lon":5.404086,"is_reserved":false,"is_disabled":false,"rental_uris":{"android":"levelo://app?vid=2919631a-5f21-4cf6-930a-50f71929b7b5","ios":"levelo://app?vid=2919631a-5f21-4cf6-930a-50f71929b7b5"},"vehicle_type_id":"4","last_reported":1702915747,"current_range_meters":22800,"station_id":"ce4bh112rcd13ifvqd90","pricing_plan_id":"free"},{"bike_id":"4750a7db-0b58-45be-b2a6-7f7ae8d3db56","system_id":"levelo_inurba_marseille","lat":43.284219,"lon":5.3497,"is_reserved":false,"is_disabled":false,"rental_uris":{"android":"levelo://app?vid=4750a7db-0b58-45be-b2a6-7f7ae8d3db56","ios":"levelo://app?vid=4750a7db-0b58-45be-b2a6-7f7ae8d3db56"},"vehicle_type_id":"4","last_reported":1702915747,"current_range_meters":26000,"station_id":"ce4bhbh2rcd13ifvqepg","pricing_plan_id":"free"},{"bike_id":"1a23e290-f5d2-46d4-8f68-0532ce140f03","system_id":"levelo_inurba_marseille","lat":43.284219,"lon":5.3497,"is_reserved":false,"is_disabled":false,"rental_uris":{"android":"levelo://app?vid=1a23e290-f5d2-46d4-8f68-0532ce140f03","ios":"levelo://app?vid=1a23e290-f5d2-46d4-8f68-0532ce140f03"},"vehicle_type_id":"4","last_reported":1702915747,"current_range_meters":28000,"station_id":"ce4bhbh2rcd13ifvqepg","pricing_plan_id":"free"},{"bike_id":"63937f00-79aa-4dea-877e-5d1eecd0759e","system_id":"levelo_inurba_marseille","lat":43.306412,"lon":5.401035,"is_reserved":false,"is_disabled":false,"rental_uris":{"android":"levelo://app?vid=63937f00-79aa-4dea-877e-5d1eecd0759e","ios":"levelo://app?vid=63937f00-79aa-4dea-877e-5d1eecd0759e"},"vehicle_type_id":"4","last_reported":1702915747,"current_range_meters":26400,"station_id":"ce4bh112rcd13ifvqda0","pricing_plan_id":"free"},{"bike_id":"b8a7f913-d0e1-46c0-963e-2b0140f7af58","system_id":"levelo_inurba_marseille","lat":43.292724,"lon":5.401131,"is_reserved":false,"is_disabled":false,"rental_uris":{"android":"levelo://app?vid=b8a7f913-d0e1-46c0-963e-2b0140f7af58","ios":"levelo://app?vid=b8a7f913-d0e1-46c0-963e-2b0140f7af58"},"vehicle_type_id":"4","last_reported":1702915747,"current_range_meters":30000,"station_id":"ce4bh312rcd13ifvqdk0","pricing_plan_id":"free"},{"bike_id":"3a4e84dc-e1d4-4c37-bfe1-5fe7c4527ca0","system_id":"levelo_inurba_marseille","lat":43.282754,"lon":5.350519,"is_reserved":false,"is_disabled":false,"rental_uris":{"android":"levelo://app?vid=3a4e84dc-e1d4-4c37-bfe1-5fe7c4527ca0","ios":"levelo://app?vid=3a4e84dc-e1d4-4c37-bfe1-5fe7c4527ca0"},"vehicle_type_id":"4","last_reported":1702915747,"current_range_meters":4400,"station_id":"ce4bhbp2rcd13ifvqerg","pricing_plan_id":"free"},{"bike_id":"f16e532e-2051-4061-a2ae-e50ec6ccaa6e","system_id":"levelo_inurba_marseille","lat":43.282754,"lon":5.350519,"is_reserved":false,"is_disabled":false,"rental_uris":{"android":"levelo://app?vid=f16e532e-2051-4061-a2ae-e50ec6ccaa6e","ios":"levelo://app?vid=f16e532e-2051-4061-a2ae-e50ec6ccaa6e"},"vehicle_type_id":"4","last_reported":1702915747,"current_range_meters":16800,"station_id":"ce4bhbp2rcd13ifvqerg","pricing_plan_id":"free"},{"bike_id":"92edf5aa-896a-4407-acd0-fd91b877728d","system_id":"levelo_inurba_marseille","lat":43.282754,"lon":5.350519,"is_reserved":false,"is_disabled":false,"rental_uris":{"android":"levelo://app?vid=92edf5aa-896a-4407-acd0-fd91b877728d","ios":"levelo://app?vid=92edf5aa-896a-4407-acd0-fd91b877728d"},"vehicle_type_id":"4","last_reported":1702915747,"current_range_meters":22000,"station_id":"ce4bhbp2rcd13ifvqerg","pricing_plan_id":"free"},{"bike_id":"6e3999d1-922c-4193-8e90-3729d2424e80","system_id":"levelo_inurba_marseille","lat":43.28039,"lon":5.369297,"is_reserved":false,"is_disabled":false,"rental_uris":{"android":"levelo://app?vid=6e3999d1-922c-4193-8e90-3729d2424e80","ios":"levelo://app?vid=6e3999d1-922c-4193-8e90-3729d2424e80"},"vehicle_type_id":"4","last_reported":1702915747,"current_range_meters":8800,"station_id":"ce4bha12rcd13ifvqef0","pricing_plan_id":"free"},{"bike_id":"9e085c70-0615-48e6-9ad0-801d3c502116","system_id":"levelo_inurba_marseille","lat":43.280382,"lon":5.369291,"is_reserved":false,"is_disabled":false,"rental_uris":{"android":"levelo://app?vid=9e085c70-0615-48e6-9ad0-801d3c502116","ios":"levelo://app?vid=9e085c70-0615-48e6-9ad0-801d3c502116"},"vehicle_type_id":"4","last_reported":1702915747,"current_range_meters":8800,"station_id":"ce4bha12rcd13ifvqef0","pricing_plan_id":"free"},{"bike_id":"af8184af-2ba5-444b-8a0e-28c4024ae32a","system_id":"levelo_inurba_marseille","lat":43.296263,"lon":5.40601,"is_reserved":false,"is_disabled":false,"rental_uris":{"android":"levelo://app?vid=af8184af-2ba5-444b-8a0e-28c4024ae32a","ios":"levelo://app?vid=af8184af-2ba5-444b-8a0e-28c4024ae32a"},"vehicle_type_id":"4","last_reported":1702915747,"current_range_meters":1200,"station_id":"ce4bh0h2rcd13ifvqd60","pricing_plan_id":"free"},{"bike_id":"75dede48-c910-4d87-944d-c04014a37f27","system_id":"levelo_inurba_marseille","lat":43.284462,"lon":5.392121,"is_reserved":false,"is_disabled":false,"rental_uris":{"android":"levelo://app?vid=75dede48-c910-4d87-944d-c04014a37f27","ios":"levelo://app?vid=75dede48-c910-4d87-944d-c04014a37f27"},"vehicle_type_id":"4","last_reported":1702915747,"current_range_meters":10000,"station_id":"ce4bhoh2rcd13ifvqh5g","pricing_plan_id":"free"},{"bike_id":"d3301f3f-7c06-4799-b59d-dc459b64142f","system_id":"levelo_inurba_marseille","lat":43.28573,"lon":5.394992,"is_reserved":false,"is_disabled":false,"rental_uris":{"android":"levelo://app?vid=d3301f3f-7c06-4799-b59d-dc459b64142f","ios":"levelo://app?vid=d3301f3f-7c06-4799-b59d-dc459b64142f"},"vehicle_type_id":"4","last_reported":1702915747,"current_range_meters":21600,"station_id":"ce4bh292rcd13ifvqdg0","pricing_plan_id":"free"},{"bike_id":"a5db961a-5f2d-473a-8e24-984f2b4e2ddb","system_id":"levelo_inurba_marseille","lat":43.30421,"lon":5.41288,"is_reserved":false,"is_disabled":false,"rental_uris":{"android":"levelo://app?vid=a5db961a-5f2d-473a-8e24-984f2b4e2ddb","ios":"levelo://app?vid=a5db961a-5f2d-473a-8e24-984f2b4e2ddb"},"vehicle_type_id":"4","last_reported":1702915747,"current_range_meters":18400,"station_id":"ce4bhop2rcd13ifvqh8g","pricing_plan_id":"free"},{"bike_id":"6968aa60-fcac-4e85-a54e-4a2c1101ee9e","system_id":"levelo_inurba_marseille","lat":43.3042,"lon":5.41292,"is_reserved":false,"is_disabled":false,"rental_uris":{"android":"levelo://app?vid=6968aa60-fcac-4e85-a54e-4a2c1101ee9e","ios":"levelo://app?vid=6968aa60-fcac-4e85-a54e-4a2c1101ee9e"},"vehicle_type_id":"4","last_reported":1702915747,"current_range_meters":24800,"station_id":"ce4bhop2rcd13ifvqh8g","pricing_plan_id":"free"},{"bike_id":"f1d2142b-b297-4f5a-8765-0bf0e0e13ab7","system_id":"levelo_inurba_marseille","lat":43.30417,"lon":5.41291,"is_reserved":false,"is_disabled":false,"rental_uris":{"android":"levelo://app?vid=f1d2142b-b297-4f5a-8765-0bf0e0e13ab7","ios":"levelo://app?vid=f1d2142b-b297-4f5a-8765-0bf0e0e13ab7"},"vehicle_type_id":"4","last_reported":1702915747,"current_range_meters":6400,"station_id":"ce4bhop2rcd13ifvqh8g","pricing_plan_id":"free"},{"bike_id":"7b0884bc-c147-4c4b-8ace-9eca2c883b59","system_id":"levelo_inurba_marseille","lat":43.292571,"lon":5.409107,"is_reserved":false,"is_disabled":false,"rental_uris":{"android":"levelo://app?vid=7b0884bc-c147-4c4b-8ace-9eca2c883b59","ios":"levelo://app?vid=7b0884bc-c147-4c4b-8ace-9eca2c883b59"},"vehicle_type_id":"4","last_reported":1702915747,"current_range_meters":17200,"station_id":"ce4bh192rcd13ifvqdc0","pricing_plan_id":"free"},{"bike_id":"b8e0ea48-ffe0-4b2a-bd6b-adfe728715a5","system_id":"levelo_inurba_marseille","lat":43.276179,"lon":5.361009,"is_reserved":false,"is_disabled":false,"rental_uris":{"android":"levelo://app?vid=b8e0ea48-ffe0-4b2a-bd6b-adfe728715a5","ios":"levelo://app?vid=b8e0ea48-ffe0-4b2a-bd6b-adfe728715a5"},"vehicle_type_id":"4","last_reported":1702915747,"current_range_meters":21600,"station_id":"ce4bgj92rcd13ifvqbe0","pricing_plan_id":"free"},{"bike_id":"276dacab-8848-4c1e-8da6-9c8835102321","system_id":"levelo_inurba_marseille","lat":43.27613,"lon":5.36109,"is_reserved":false,"is_disabled":false,"rental_uris":{"android":"levelo://app?vid=276dacab-8848-4c1e-8da6-9c8835102321","ios":"levelo://app?vid=276dacab-8848-4c1e-8da6-9c8835102321"},"vehicle_type_id":"4","last_reported":1702915747,"current_range_meters":24800,"station_id":"ce4bgj92rcd13ifvqbe0","pricing_plan_id":"free"},{"bike_id":"06d6d0a7-5a4c-4ff6-a91a-ac2bb0e711e7","system_id":"levelo_inurba_marseille","lat":43.27609,"lon":5.36103,"is_reserved":false,"is_disabled":false,"rental_uris":{"android":"levelo://app?vid=06d6d0a7-5a4c-4ff6-a91a-ac2bb0e711e7","ios":"levelo://app?vid=06d6d0a7-5a4c-4ff6-a91a-ac2bb0e711e7"},"vehicle_type_id":"4","last_reported":1702915747,"current_range_meters":8400,"station_id":"ce4bgj92rcd13ifvqbe0","pricing_plan_id":"free"},{"bike_id":"c21f256f-1f87-4bcc-9611-654382a858a2","system_id":"levelo_inurba_marseille","lat":43.280784,"lon":5.396622,"is_reserved":false,"is_disabled":false,"rental_uris":{"android":"levelo://app?vid=c21f256f-1f87-4bcc-9611-654382a858a2","ios":"levelo://app?vid=c21f256f-1f87-4bcc-9611-654382a858a2"},"vehicle_type_id":"4","last_reported":1702915747,"current_range_meters":24400,"station_id":"ce4bho12rcd13ifvqh2g","pricing_plan_id":"free"},{"bike_id":"510fb32a-395c-4fa8-a6f6-7135260e69f8","system_id":"levelo_inurba_marseille","lat":43.280784,"lon":5.396622,"is_reserved":false,"is_disabled":false,"rental_uris":{"android":"levelo://app?vid=510fb32a-395c-4fa8-a6f6-7135260e69f8","ios":"levelo://app?vid=510fb32a-395c-4fa8-a6f6-7135260e69f8"},"vehicle_type_id":"4","last_reported":1702915747,"current_range_meters":30800,"station_id":"ce4bho12rcd13ifvqh2g","pricing_plan_id":"free"},{"bike_id":"7034f5d8-0e88-400a-b656-e777dec392ca","system_id":"levelo_inurba_marseille","lat":43.278401,"lon":5.392152,"is_reserved":false,"is_disabled":false,"rental_uris":{"android":"levelo://app?vid=7034f5d8-0e88-400a-b656-e777dec392ca","ios":"levelo://app?vid=7034f5d8-0e88-400a-b656-e777dec392ca"},"vehicle_type_id":"4","last_reported":1702915747,"current_range_meters":16800,"station_id":"ce4bhjp2rcd13ifvqga0","pricing_plan_id":"free"},{"bike_id":"0cf403f8-9992-471b-b83e-97c5b20efdb5","system_id":"levelo_inurba_marseille","lat":43.273609,"lon":5.362708,"is_reserved":false,"is_disabled":false,"rental_uris":{"android":"levelo://app?vid=0cf403f8-9992-471b-b83e-97c5b20efdb5","ios":"levelo://app?vid=0cf403f8-9992-471b-b83e-97c5b20efdb5"},"vehicle_type_id":"4","last_reported":1702915747,"current_range_meters":1600,"station_id":"ce4bhbh2rcd13ifvqeo0","pricing_plan_id":"free"},{"bike_id":"8b7163c8-747c-4e96-8584-c017d4b913c7","system_id":"levelo_inurba_marseille","lat":43.273613,"lon":5.362705,"is_reserved":false,"is_disabled":false,"rental_uris":{"android":"levelo://app?vid=8b7163c8-747c-4e96-8584-c017d4b913c7","ios":"levelo://app?vid=8b7163c8-747c-4e96-8584-c017d4b913c7"},"vehicle_type_id":"4","last_reported":1702915747,"current_range_meters":0,"station_id":"ce4bhbh2rcd13ifvqeo0","pricing_plan_id":"free"},{"bike_id":"35817c3a-d578-4678-acdb-a7450c8bb983","system_id":"levelo_inurba_marseille","lat":43.273609,"lon":5.362708,"is_reserved":false,"is_disabled":false,"rental_uris":{"android":"levelo://app?vid=35817c3a-d578-4678-acdb-a7450c8bb983","ios":"levelo://app?vid=35817c3a-d578-4678-acdb-a7450c8bb983"},"vehicle_type_id":"4","last_reported":1702915747,"current_range_meters":17200,"station_id":"ce4bhbh2rcd13ifvqeo0","pricing_plan_id":"free"},{"bike_id":"48a237c5-208a-49c6-8966-f5a96d2fbfb8","system_id":"levelo_inurba_marseille","lat":43.275625,"lon":5.384392,"is_reserved":false,"is_disabled":false,"rental_uris":{"android":"levelo://app?vid=48a237c5-208a-49c6-8966-f5a96d2fbfb8","ios":"levelo://app?vid=48a237c5-208a-49c6-8966-f5a96d2fbfb8"},"vehicle_type_id":"4","last_reported":1702915747,"current_range_meters":26000,"station_id":"ce4bhh92rcd13ifvqfi0","pricing_plan_id":"free"},{"bike_id":"ba23a49f-f752-40f9-b881-d731ba920e07","system_id":"levelo_inurba_marseille","lat":43.324176,"lon":5.419996,"is_reserved":false,"is_disabled":false,"rental_uris":{"android":"levelo://app?vid=ba23a49f-f752-40f9-b881-d731ba920e07","ios":"levelo://app?vid=ba23a49f-f752-40f9-b881-d731ba920e07"},"vehicle_type_id":"4","last_reported":1702915747,"current_range_meters":28000,"station_id":"","pricing_plan_id":"free"},{"bike_id":"45669a11-f945-4e3c-89e6-8a7ec3366831","system_id":"levelo_inurba_marseille","lat":43.279952,"lon":5.400085,"is_reserved":false,"is_disabled":false,"rental_uris":{"android":"levelo://app?vid=45669a11-f945-4e3c-89e6-8a7ec3366831","ios":"levelo://app?vid=45669a11-f945-4e3c-89e6-8a7ec3366831"},"vehicle_type_id":"4","last_reported":1702915747,"current_range_meters":30400,"station_id":"ce4bho92rcd13ifvqh4g","pricing_plan_id":"free"},{"bike_id":"c86c6c50-f70e-4473-a698-ebe42bdc8921","system_id":"levelo_inurba_marseille","lat":43.279975,"lon":5.40009,"is_reserved":false,"is_disabled":false,"rental_uris":{"android":"levelo://app?vid=c86c6c50-f70e-4473-a698-ebe42bdc8921","ios":"levelo://app?vid=c86c6c50-f70e-4473-a698-ebe42bdc8921"},"vehicle_type_id":"4","last_reported":1702915747,"current_range_meters":25600,"station_id":"ce4bho92rcd13ifvqh4g","pricing_plan_id":"free"},{"bike_id":"3ca2c2d2-99b0-4aa6-a05d-e30f02e6a7fb","system_id":"levelo_inurba_marseille","lat":43.276092,"lon":5.395289,"is_reserved":false,"is_disabled":false,"rental_uris":{"android":"levelo://app?vid=3ca2c2d2-99b0-4aa6-a05d-e30f02e6a7fb","ios":"levelo://app?vid=3ca2c2d2-99b0-4aa6-a05d-e30f02e6a7fb"},"vehicle_type_id":"4","last_reported":1702915747,"current_range_meters":12800,"station_id":"","pricing_plan_id":"free"},{"bike_id":"fb094048-824a-49d1-905f-084ec3753a88","system_id":"levelo_inurba_marseille","lat":43.295523,"lon":5.422926,"is_reserved":false,"is_disabled":false,"rental_uris":{"android":"levelo://app?vid=fb094048-824a-49d1-905f-084ec3753a88","ios":"levelo://app?vid=fb094048-824a-49d1-905f-084ec3753a88"},"vehicle_type_id":"4","last_reported":1702915747,"current_range_meters":24400,"station_id":"ce4bhph2rcd13ifvqhdg","pricing_plan_id":"free"},{"bike_id":"9cbe5e87-404e-4c09-afbe-5ee44247e5dc","system_id":"levelo_inurba_marseille","lat":43.295523,"lon":5.422926,"is_reserved":false,"is_disabled":false,"rental_uris":{"android":"levelo://app?vid=9cbe5e87-404e-4c09-afbe-5ee44247e5dc","ios":"levelo://app?vid=9cbe5e87-404e-4c09-afbe-5ee44247e5dc"},"vehicle_type_id":"4","last_reported":1702915747,"current_range_meters":31200,"station_id":"ce4bhph2rcd13ifvqhdg","pricing_plan_id":"free"},{"bike_id":"628a1844-4de6-4ff8-b7b8-44bb12a39376","system_id":"levelo_inurba_marseille","lat":43.295511,"lon":5.422926,"is_reserved":false,"is_disabled":false,"rental_uris":{"android":"levelo://app?vid=628a1844-4de6-4ff8-b7b8-44bb12a39376","ios":"levelo://app?vid=628a1844-4de6-4ff8-b7b8-44bb12a39376"},"vehicle_type_id":"4","last_reported":1702915747,"current_range_meters":31200,"station_id":"ce4bhph2rcd13ifvqhdg","pricing_plan_id":"free"},{"bike_id":"c5b44840-1601-43ac-abe9-c1e5b739efac","system_id":"levelo_inurba_marseille","lat":43.295523,"lon":5.422926,"is_reserved":false,"is_disabled":false,"rental_uris":{"android":"levelo://app?vid=c5b44840-1601-43ac-abe9-c1e5b739efac","ios":"levelo://app?vid=c5b44840-1601-43ac-abe9-c1e5b739efac"},"vehicle_type_id":"4","last_reported":1702915747,"current_range_meters":26400,"station_id":"ce4bhph2rcd13ifvqhdg","pricing_plan_id":"free"},{"bike_id":"35f4c7df-1dd1-49cd-b086-e9b64d14ba25","system_id":"levelo_inurba_marseille","lat":43.295511,"lon":5.422926,"is_reserved":false,"is_disabled":false,"rental_uris":{"android":"levelo://app?vid=35f4c7df-1dd1-49cd-b086-e9b64d14ba25","ios":"levelo://app?vid=35f4c7df-1dd1-49cd-b086-e9b64d14ba25"},"vehicle_type_id":"4","last_reported":1702915747,"current_range_meters":26000,"station_id":"ce4bhph2rcd13ifvqhdg","pricing_plan_id":"free"},{"bike_id":"9b8f5ce3-81d5-4ecb-80a2-771cfce35fc0","system_id":"levelo_inurba_marseille","lat":43.29547,"lon":5.42283,"is_reserved":false,"is_disabled":false,"rental_uris":{"android":"levelo://app?vid=9b8f5ce3-81d5-4ecb-80a2-771cfce35fc0","ios":"levelo://app?vid=9b8f5ce3-81d5-4ecb-80a2-771cfce35fc0"},"vehicle_type_id":"4","last_reported":1702915747,"current_range_meters":25600,"station_id":"ce4bhph2rcd13ifvqhdg","pricing_plan_id":"free"},{"bike_id":"71f60542-d421-4821-85b4-0f51f2732a03","system_id":"levelo_inurba_marseille","lat":43.295523,"lon":5.422926,"is_reserved":false,"is_disabled":false,"rental_uris":{"android":"levelo://app?vid=71f60542-d421-4821-85b4-0f51f2732a03","ios":"levelo://app?vid=71f60542-d421-4821-85b4-0f51f2732a03"},"vehicle_type_id":"4","last_reported":1702915747,"current_range_meters":18800,"station_id":"ce4bhph2rcd13ifvqhdg","pricing_plan_id":"free"},{"bike_id":"7c5e5a9a-9f39-4a14-9573-d5b8ab599dd5","system_id":"levelo_inurba_marseille","lat":43.27188,"lon":5.39224,"is_reserved":false,"is_disabled":false,"rental_uris":{"android":"levelo://app?vid=7c5e5a9a-9f39-4a14-9573-d5b8ab599dd5","ios":"levelo://app?vid=7c5e5a9a-9f39-4a14-9573-d5b8ab599dd5"},"vehicle_type_id":"4","last_reported":1702915747,"current_range_meters":13600,"station_id":"ce4bhhp2rcd13ifvqfm0","pricing_plan_id":"free"},{"bike_id":"cd56c42d-3593-48f6-8db3-56be682349c5","system_id":"levelo_inurba_marseille","lat":43.278128,"lon":5.407195,"is_reserved":false,"is_disabled":false,"rental_uris":{"android":"levelo://app?vid=cd56c42d-3593-48f6-8db3-56be682349c5","ios":"levelo://app?vid=cd56c42d-3593-48f6-8db3-56be682349c5"},"vehicle_type_id":"4","last_reported":1702915747,"current_range_meters":19600,"station_id":"ce4bhnh2rcd13ifvqgtg","pricing_plan_id":"free"},{"bike_id":"93a98c92-4490-4d78-a0b9-2ad0636f76cf","system_id":"levelo_inurba_marseille","lat":43.278128,"lon":5.407195,"is_reserved":false,"is_disabled":false,"rental_uris":{"android":"levelo://app?vid=93a98c92-4490-4d78-a0b9-2ad0636f76cf","ios":"levelo://app?vid=93a98c92-4490-4d78-a0b9-2ad0636f76cf"},"vehicle_type_id":"4","last_reported":1702915747,"current_range_meters":31200,"station_id":"ce4bhnh2rcd13ifvqgtg","pricing_plan_id":"free"},{"bike_id":"0dd289f2-7f07-4556-8e26-e0ef8090caba","system_id":"levelo_inurba_marseille","lat":43.279515,"lon":5.410479,"is_reserved":false,"is_disabled":false,"rental_uris":{"android":"levelo://app?vid=0dd289f2-7f07-4556-8e26-e0ef8090caba","ios":"levelo://app?vid=0dd289f2-7f07-4556-8e26-e0ef8090caba"},"vehicle_type_id":"4","last_reported":1702915747,"current_range_meters":26800,"station_id":"ce4bhnp2rcd13ifvqh0g","pricing_plan_id":"free"},{"bike_id":"afdf8d71-0089-4945-808d-55f4ba7b5c10","system_id":"levelo_inurba_marseille","lat":43.279465,"lon":5.410561,"is_reserved":false,"is_disabled":false,"rental_uris":{"android":"levelo://app?vid=afdf8d71-0089-4945-808d-55f4ba7b5c10","ios":"levelo://app?vid=afdf8d71-0089-4945-808d-55f4ba7b5c10"},"vehicle_type_id":"4","last_reported":1702915747,"current_range_meters":400,"station_id":"ce4bhnp2rcd13ifvqh0g","pricing_plan_id":"free"},{"bike_id":"db774753-4382-453e-a138-c32d538f9839","system_id":"levelo_inurba_marseille","lat":43.358673,"lon":5.356887,"is_reserved":false,"is_disabled":false,"rental_uris":{"android":"levelo://app?vid=db774753-4382-453e-a138-c32d538f9839","ios":"levelo://app?vid=db774753-4382-453e-a138-c32d538f9839"},"vehicle_type_id":"4","last_reported":1702915747,"current_range_meters":9200,"station_id":"","pricing_plan_id":"free"},{"bike_id":"9436d345-9d91-4051-88b1-f2b1aa986eb7","system_id":"levelo_inurba_marseille","lat":43.26681,"lon":5.382694,"is_reserved":false,"is_disabled":false,"rental_uris":{"android":"levelo://app?vid=9436d345-9d91-4051-88b1-f2b1aa986eb7","ios":"levelo://app?vid=9436d345-9d91-4051-88b1-f2b1aa986eb7"},"vehicle_type_id":"4","last_reported":1702915747,"current_range_meters":16000,"station_id":"ce4bhg92rcd13ifvqf90","pricing_plan_id":"free"},{"bike_id":"56e180ac-ce86-4148-88bc-4f495eb3a024","system_id":"levelo_inurba_marseille","lat":43.26556,"lon":5.37283,"is_reserved":false,"is_disabled":false,"rental_uris":{"android":"levelo://app?vid=56e180ac-ce86-4148-88bc-4f495eb3a024","ios":"levelo://app?vid=56e180ac-ce86-4148-88bc-4f495eb3a024"},"vehicle_type_id":"4","last_reported":1702915747,"current_range_meters":21600,"station_id":"ce4bhg12rcd13ifvqf70","pricing_plan_id":"free"},{"bike_id":"fde6c817-536e-45f8-8fe1-bd882d8737c8","system_id":"levelo_inurba_marseille","lat":43.267791,"lon":5.394166,"is_reserved":false,"is_disabled":false,"rental_uris":{"android":"levelo://app?vid=fde6c817-536e-45f8-8fe1-bd882d8737c8","ios":"levelo://app?vid=fde6c817-536e-45f8-8fe1-bd882d8737c8"},"vehicle_type_id":"4","last_reported":1702915747,"current_range_meters":28400,"station_id":"ce4bhh12rcd13ifvqfg0","pricing_plan_id":"free"},{"bike_id":"466690a2-4b95-45a5-99d5-fe1c8e366a12","system_id":"levelo_inurba_marseille","lat":43.26577,"lon":5.39015,"is_reserved":false,"is_disabled":false,"rental_uris":{"android":"levelo://app?vid=466690a2-4b95-45a5-99d5-fe1c8e366a12","ios":"levelo://app?vid=466690a2-4b95-45a5-99d5-fe1c8e366a12"},"vehicle_type_id":"4","last_reported":1702915747,"current_range_meters":13600,"station_id":"ce4bhe12rcd13ifvqf30","pricing_plan_id":"free"},{"bike_id":"dea6d4bf-6bd3-4e00-ab36-832382195e1c","system_id":"levelo_inurba_marseille","lat":43.308051,"lon":5.43527,"is_reserved":false,"is_disabled":false,"rental_uris":{"android":"levelo://app?vid=dea6d4bf-6bd3-4e00-ab36-832382195e1c","ios":"levelo://app?vid=dea6d4bf-6bd3-4e00-ab36-832382195e1c"},"vehicle_type_id":"4","last_reported":1702915747,"current_range_meters":29600,"station_id":"ce4bhph2rcd13ifvqheg","pricing_plan_id":"free"},{"bike_id":"47b4007b-fe9c-4c34-9d2d-a2b0a9d61f63","system_id":"levelo_inurba_marseille","lat":43.308051,"lon":5.43527,"is_reserved":false,"is_disabled":false,"rental_uris":{"android":"levelo://app?vid=47b4007b-fe9c-4c34-9d2d-a2b0a9d61f63","ios":"levelo://app?vid=47b4007b-fe9c-4c34-9d2d-a2b0a9d61f63"},"vehicle_type_id":"4","last_reported":1702915747,"current_range_meters":27200,"station_id":"ce4bhph2rcd13ifvqheg","pricing_plan_id":"free"},{"bike_id":"64bca003-65ce-4837-b825-8806bb123511","system_id":"levelo_inurba_marseille","lat":43.26564,"lon":5.39014,"is_reserved":false,"is_disabled":false,"rental_uris":{"android":"levelo://app?vid=64bca003-65ce-4837-b825-8806bb123511","ios":"levelo://app?vid=64bca003-65ce-4837-b825-8806bb123511"},"vehicle_type_id":"4","last_reported":1702915747,"current_range_meters":10400,"station_id":"ce4bhe12rcd13ifvqf30","pricing_plan_id":"free"},{"bike_id":"c2877c7c-9cd1-4693-ab93-a45856b89052","system_id":"levelo_inurba_marseille","lat":43.26562,"lon":5.39013,"is_reserved":false,"is_disabled":false,"rental_uris":{"android":"levelo://app?vid=c2877c7c-9cd1-4693-ab93-a45856b89052","ios":"levelo://app?vid=c2877c7c-9cd1-4693-ab93-a45856b89052"},"vehicle_type_id":"4","last_reported":1702915747,"current_range_meters":21600,"station_id":"ce4bhe12rcd13ifvqf30","pricing_plan_id":"free"},{"bike_id":"fc54f15d-57d6-40a5-ba49-b0d117fb54cc","system_id":"levelo_inurba_marseille","lat":43.26947,"lon":5.40246,"is_reserved":false,"is_disabled":false,"rental_uris":{"android":"levelo://app?vid=fc54f15d-57d6-40a5-ba49-b0d117fb54cc","ios":"levelo://app?vid=fc54f15d-57d6-40a5-ba49-b0d117fb54cc"},"vehicle_type_id":"4","last_reported":1702915747,"current_range_meters":16400,"station_id":"cjm6bp8fraef2m0cb0m0","pricing_plan_id":"free"},{"bike_id":"ef5ed519-67a8-42f1-8f70-facee3ad3241","system_id":"levelo_inurba_marseille","lat":43.26949,"lon":5.40262,"is_reserved":false,"is_disabled":false,"rental_uris":{"android":"levelo://app?vid=ef5ed519-67a8-42f1-8f70-facee3ad3241","ios":"levelo://app?vid=ef5ed519-67a8-42f1-8f70-facee3ad3241"},"vehicle_type_id":"4","last_reported":1702915747,"current_range_meters":19200,"station_id":"cjm6bp8fraef2m0cb0m0","pricing_plan_id":"free"},{"bike_id":"a4cc3643-0b78-49ea-bb69-072a51937fbe","system_id":"levelo_inurba_marseille","lat":43.26189,"lon":5.37439,"is_reserved":false,"is_disabled":false,"rental_uris":{"android":"levelo://app?vid=a4cc3643-0b78-49ea-bb69-072a51937fbe","ios":"levelo://app?vid=a4cc3643-0b78-49ea-bb69-072a51937fbe"},"vehicle_type_id":"4","last_reported":1702915747,"current_range_meters":24400,"station_id":"","pricing_plan_id":"free"},{"bike_id":"59ed3d71-abe4-4dd1-aa56-b610fabd8418","system_id":"levelo_inurba_marseille","lat":43.26188,"lon":5.37443,"is_reserved":false,"is_disabled":false,"rental_uris":{"android":"levelo://app?vid=59ed3d71-abe4-4dd1-aa56-b610fabd8418","ios":"levelo://app?vid=59ed3d71-abe4-4dd1-aa56-b610fabd8418"},"vehicle_type_id":"4","last_reported":1702915747,"current_range_meters":16400,"station_id":"ce4bhgp2rcd13ifvqfc0","pricing_plan_id":"free"},{"bike_id":"dbbaba6f-b15d-47b5-bd21-9b5fba7c0c2f","system_id":"levelo_inurba_marseille","lat":43.26188,"lon":5.37444,"is_reserved":false,"is_disabled":false,"rental_uris":{"android":"levelo://app?vid=dbbaba6f-b15d-47b5-bd21-9b5fba7c0c2f","ios":"levelo://app?vid=dbbaba6f-b15d-47b5-bd21-9b5fba7c0c2f"},"vehicle_type_id":"4","last_reported":1702915747,"current_range_meters":800,"station_id":"ce4bhgp2rcd13ifvqfc0","pricing_plan_id":"free"},{"bike_id":"ee1964dd-bd19-4163-8977-66dfe213996c","system_id":"levelo_inurba_marseille","lat":43.26187,"lon":5.37443,"is_reserved":false,"is_disabled":false,"rental_uris":{"android":"levelo://app?vid=ee1964dd-bd19-4163-8977-66dfe213996c","ios":"levelo://app?vid=ee1964dd-bd19-4163-8977-66dfe213996c"},"vehicle_type_id":"4","last_reported":1702915747,"current_range_meters":31200,"station_id":"ce4bhgp2rcd13ifvqfc0","pricing_plan_id":"free"},{"bike_id":"524ed846-4fbf-4d2f-8a66-ae44c466484e","system_id":"levelo_inurba_marseille","lat":43.26184,"lon":5.37444,"is_reserved":false,"is_disabled":false,"rental_uris":{"android":"levelo://app?vid=524ed846-4fbf-4d2f-8a66-ae44c466484e","ios":"levelo://app?vid=524ed846-4fbf-4d2f-8a66-ae44c466484e"},"vehicle_type_id":"4","last_reported":1702915747,"current_range_meters":29200,"station_id":"ce4bhgp2rcd13ifvqfc0","pricing_plan_id":"free"},{"bike_id":"aed94823-987c-4f39-a8b9-00dab2638955","system_id":"levelo_inurba_marseille","lat":43.26183,"lon":5.37446,"is_reserved":false,"is_disabled":false,"rental_uris":{"android":"levelo://app?vid=aed94823-987c-4f39-a8b9-00dab2638955","ios":"levelo://app?vid=aed94823-987c-4f39-a8b9-00dab2638955"},"vehicle_type_id":"4","last_reported":1702915747,"current_range_meters":1200,"station_id":"ce4bhgp2rcd13ifvqfc0","pricing_plan_id":"free"},{"bike_id":"3965030c-a434-4f7c-80e8-4c16964e43ba","system_id":"levelo_inurba_marseille","lat":43.261782,"lon":5.374515,"is_reserved":false,"is_disabled":false,"rental_uris":{"android":"levelo://app?vid=3965030c-a434-4f7c-80e8-4c16964e43ba","ios":"levelo://app?vid=3965030c-a434-4f7c-80e8-4c16964e43ba"},"vehicle_type_id":"4","last_reported":1702915747,"current_range_meters":31200,"station_id":"ce4bhgp2rcd13ifvqfc0","pricing_plan_id":"free"},{"bike_id":"703b6509-8c35-4db9-ad24-8c18ddb8785e","system_id":"levelo_inurba_marseille","lat":43.26202,"lon":5.379299,"is_reserved":false,"is_disabled":false,"rental_uris":{"android":"levelo://app?vid=703b6509-8c35-4db9-ad24-8c18ddb8785e","ios":"levelo://app?vid=703b6509-8c35-4db9-ad24-8c18ddb8785e"},"vehicle_type_id":"4","last_reported":1702915747,"current_range_meters":31200,"station_id":"ce4bhjp2rcd13ifvqg90","pricing_plan_id":"free"},{"bike_id":"a9b751c7-fb62-4d8d-bf57-cafc734585f9","system_id":"levelo_inurba_marseille","lat":43.26202,"lon":5.379299,"is_reserved":false,"is_disabled":false,"rental_uris":{"android":"levelo://app?vid=a9b751c7-fb62-4d8d-bf57-cafc734585f9","ios":"levelo://app?vid=a9b751c7-fb62-4d8d-bf57-cafc734585f9"},"vehicle_type_id":"4","last_reported":1702915747,"current_range_meters":31200,"station_id":"ce4bhjp2rcd13ifvqg90","pricing_plan_id":"free"},{"bike_id":"7f0a85fc-e9b1-422b-b922-07a060dc7b5a","system_id":"levelo_inurba_marseille","lat":43.271368,"lon":5.40928,"is_reserved":false,"is_disabled":false,"rental_uris":{"android":"levelo://app?vid=7f0a85fc-e9b1-422b-b922-07a060dc7b5a","ios":"levelo://app?vid=7f0a85fc-e9b1-422b-b922-07a060dc7b5a"},"vehicle_type_id":"4","last_reported":1702915747,"current_range_meters":23600,"station_id":"ce4bhl12rcd13ifvqgf0","pricing_plan_id":"free"},{"bike_id":"efc3d962-79f5-4e55-a99e-141d60477628","system_id":"levelo_inurba_marseille","lat":43.267959,"lon":5.402687,"is_reserved":false,"is_disabled":false,"rental_uris":{"android":"levelo://app?vid=efc3d962-79f5-4e55-a99e-141d60477628","ios":"levelo://app?vid=efc3d962-79f5-4e55-a99e-141d60477628"},"vehicle_type_id":"4","last_reported":1702915747,"current_range_meters":6000,"station_id":"ce501612rcd8frsf0b60","pricing_plan_id":"free"},{"bike_id":"71561640-6952-426a-88e2-a4f5b28e1f23","system_id":"levelo_inurba_marseille","lat":43.26505,"lon":5.39536,"is_reserved":false,"is_disabled":false,"rental_uris":{"android":"levelo://app?vid=71561640-6952-426a-88e2-a4f5b28e1f23","ios":"levelo://app?vid=71561640-6952-426a-88e2-a4f5b28e1f23"},"vehicle_type_id":"4","last_reported":1702915747,"current_range_meters":400,"station_id":"","pricing_plan_id":"free"},{"bike_id":"8b000818-ee66-4afa-956c-06d1feec8088","system_id":"levelo_inurba_marseille","lat":43.298768,"lon":5.43643,"is_reserved":false,"is_disabled":false,"rental_uris":{"android":"levelo://app?vid=8b000818-ee66-4afa-956c-06d1feec8088","ios":"levelo://app?vid=8b000818-ee66-4afa-956c-06d1feec8088"},"vehicle_type_id":"4","last_reported":1702915747,"current_range_meters":31600,"station_id":"ce4bhpp2rcd13ifvqhfg","pricing_plan_id":"free"},{"bike_id":"be3c7518-3a90-4ace-b263-cbe424279bc2","system_id":"levelo_inurba_marseille","lat":43.298768,"lon":5.43643,"is_reserved":false,"is_disabled":false,"rental_uris":{"android":"levelo://app?vid=be3c7518-3a90-4ace-b263-cbe424279bc2","ios":"levelo://app?vid=be3c7518-3a90-4ace-b263-cbe424279bc2"},"vehicle_type_id":"4","last_reported":1702915747,"current_range_meters":30000,"station_id":"ce4bhpp2rcd13ifvqhfg","pricing_plan_id":"free"},{"bike_id":"76346036-12b6-4dcc-86d0-232802e30c75","system_id":"levelo_inurba_marseille","lat":43.298768,"lon":5.43643,"is_reserved":false,"is_disabled":false,"rental_uris":{"android":"levelo://app?vid=76346036-12b6-4dcc-86d0-232802e30c75","ios":"levelo://app?vid=76346036-12b6-4dcc-86d0-232802e30c75"},"vehicle_type_id":"4","last_reported":1702915747,"current_range_meters":12800,"station_id":"ce4bhpp2rcd13ifvqhfg","pricing_plan_id":"free"},{"bike_id":"a4975794-e88f-4155-947c-264e12be34c5","system_id":"levelo_inurba_marseille","lat":43.298768,"lon":5.43643,"is_reserved":false,"is_disabled":false,"rental_uris":{"android":"levelo://app?vid=a4975794-e88f-4155-947c-264e12be34c5","ios":"levelo://app?vid=a4975794-e88f-4155-947c-264e12be34c5"},"vehicle_type_id":"4","last_reported":1702915747,"current_range_meters":16800,"station_id":"ce4bhpp2rcd13ifvqhfg","pricing_plan_id":"free"},{"bike_id":"3a6a45a0-22df-4a85-86d4-e6095ebe26d6","system_id":"levelo_inurba_marseille","lat":43.260225,"lon":5.375455,"is_reserved":false,"is_disabled":false,"rental_uris":{"android":"levelo://app?vid=3a6a45a0-22df-4a85-86d4-e6095ebe26d6","ios":"levelo://app?vid=3a6a45a0-22df-4a85-86d4-e6095ebe26d6"},"vehicle_type_id":"4","last_reported":1702915747,"current_range_meters":25600,"station_id":"ce4bhgh2rcd13ifvqfa0","pricing_plan_id":"free"},{"bike_id":"ddd2ff55-e767-42d7-8fb1-dee0291dab21","system_id":"levelo_inurba_marseille","lat":43.275028,"lon":5.424534,"is_reserved":false,"is_disabled":false,"rental_uris":{"android":"levelo://app?vid=ddd2ff55-e767-42d7-8fb1-dee0291dab21","ios":"levelo://app?vid=ddd2ff55-e767-42d7-8fb1-dee0291dab21"},"vehicle_type_id":"4","last_reported":1702915747,"current_range_meters":10400,"station_id":"ce4bhn92rcd13ifvqgrg","pricing_plan_id":"free"},{"bike_id":"5748f024-cb14-4811-ba9f-53ccd133f604","system_id":"levelo_inurba_marseille","lat":43.25577,"lon":5.38228,"is_reserved":false,"is_disabled":false,"rental_uris":{"android":"levelo://app?vid=5748f024-cb14-4811-ba9f-53ccd133f604","ios":"levelo://app?vid=5748f024-cb14-4811-ba9f-53ccd133f604"},"vehicle_type_id":"4","last_reported":1702915747,"current_range_meters":21200,"station_id":"ce4bhih2rcd13ifvqfs0","pricing_plan_id":"free"},{"bike_id":"fdceae04-adce-4951-89fc-a39188c2b1d8","system_id":"levelo_inurba_marseille","lat":43.25577,"lon":5.38232,"is_reserved":false,"is_disabled":false,"rental_uris":{"android":"levelo://app?vid=fdceae04-adce-4951-89fc-a39188c2b1d8","ios":"levelo://app?vid=fdceae04-adce-4951-89fc-a39188c2b1d8"},"vehicle_type_id":"4","last_reported":1702915747,"current_range_meters":15600,"station_id":"ce4bhih2rcd13ifvqfs0","pricing_plan_id":"free"},{"bike_id":"08b4ffeb-415c-4730-8354-a065ed94ddaf","system_id":"levelo_inurba_marseille","lat":43.255044,"lon":5.376539,"is_reserved":false,"is_disabled":false,"rental_uris":{"android":"levelo://app?vid=08b4ffeb-415c-4730-8354-a065ed94ddaf","ios":"levelo://app?vid=08b4ffeb-415c-4730-8354-a065ed94ddaf"},"vehicle_type_id":"4","last_reported":1702915747,"current_range_meters":23200,"station_id":"ce4bhh12rcd13ifvqff0","pricing_plan_id":"free"},{"bike_id":"69601c4d-b7f7-4608-bb20-aab86ec3022c","system_id":"levelo_inurba_marseille","lat":43.258224,"lon":5.394369,"is_reserved":false,"is_disabled":false,"rental_uris":{"android":"levelo://app?vid=69601c4d-b7f7-4608-bb20-aab86ec3022c","ios":"levelo://app?vid=69601c4d-b7f7-4608-bb20-aab86ec3022c"},"vehicle_type_id":"4","last_reported":1702915747,"current_range_meters":17200,"station_id":"ce4bhip2rcd13ifvqft0","pricing_plan_id":"free"},{"bike_id":"c89dcb56-7515-448e-b5f6-fb6ed21417b0","system_id":"levelo_inurba_marseille","lat":43.25503,"lon":5.37651,"is_reserved":false,"is_disabled":false,"rental_uris":{"android":"levelo://app?vid=c89dcb56-7515-448e-b5f6-fb6ed21417b0","ios":"levelo://app?vid=c89dcb56-7515-448e-b5f6-fb6ed21417b0"},"vehicle_type_id":"4","last_reported":1702915747,"current_range_meters":28000,"station_id":"ce4bhh12rcd13ifvqff0","pricing_plan_id":"free"},{"bike_id":"29a9c5c8-a202-4a42-82bd-8f2dc973454b","system_id":"levelo_inurba_marseille","lat":43.25502,"lon":5.37649,"is_reserved":false,"is_disabled":false,"rental_uris":{"android":"levelo://app?vid=29a9c5c8-a202-4a42-82bd-8f2dc973454b","ios":"levelo://app?vid=29a9c5c8-a202-4a42-82bd-8f2dc973454b"},"vehicle_type_id":"4","last_reported":1702915747,"current_range_meters":30000,"station_id":"ce4bhh12rcd13ifvqff0","pricing_plan_id":"free"},{"bike_id":"e4fb6b2d-07f6-4da4-a336-07bcc7900bb3","system_id":"levelo_inurba_marseille","lat":43.25502,"lon":5.37652,"is_reserved":false,"is_disabled":false,"rental_uris":{"android":"levelo://app?vid=e4fb6b2d-07f6-4da4-a336-07bcc7900bb3","ios":"levelo://app?vid=e4fb6b2d-07f6-4da4-a336-07bcc7900bb3"},"vehicle_type_id":"4","last_reported":1702915747,"current_range_meters":18800,"station_id":"ce4bhh12rcd13ifvqff0","pricing_plan_id":"free"},{"bike_id":"554b9716-3962-44dd-9cdb-dc4e11773c87","system_id":"levelo_inurba_marseille","lat":43.25502,"lon":5.37653,"is_reserved":false,"is_disabled":false,"rental_uris":{"android":"levelo://app?vid=554b9716-3962-44dd-9cdb-dc4e11773c87","ios":"levelo://app?vid=554b9716-3962-44dd-9cdb-dc4e11773c87"},"vehicle_type_id":"4","last_reported":1702915747,"current_range_meters":29600,"station_id":"ce4bhh12rcd13ifvqff0","pricing_plan_id":"free"},{"bike_id":"2a49bcf8-fdfb-41e1-91bd-16a50274d949","system_id":"levelo_inurba_marseille","lat":43.25501,"lon":5.37657,"is_reserved":false,"is_disabled":false,"rental_uris":{"android":"levelo://app?vid=2a49bcf8-fdfb-41e1-91bd-16a50274d949","ios":"levelo://app?vid=2a49bcf8-fdfb-41e1-91bd-16a50274d949"},"vehicle_type_id":"4","last_reported":1702915747,"current_range_meters":27200,"station_id":"ce4bhh12rcd13ifvqff0","pricing_plan_id":"free"},{"bike_id":"1ab26662-3a45-4e48-b861-d4c7ec7307b2","system_id":"levelo_inurba_marseille","lat":43.254947,"lon":5.376454,"is_reserved":false,"is_disabled":false,"rental_uris":{"android":"levelo://app?vid=1ab26662-3a45-4e48-b861-d4c7ec7307b2","ios":"levelo://app?vid=1ab26662-3a45-4e48-b861-d4c7ec7307b2"},"vehicle_type_id":"4","last_reported":1702915747,"current_range_meters":16000,"station_id":"ce4bhh12rcd13ifvqff0","pricing_plan_id":"free"},{"bike_id":"aca2dcca-a316-4f0c-ac24-39f4a3a60bd2","system_id":"levelo_inurba_marseille","lat":43.254947,"lon":5.376454,"is_reserved":false,"is_disabled":false,"rental_uris":{"android":"levelo://app?vid=aca2dcca-a316-4f0c-ac24-39f4a3a60bd2","ios":"levelo://app?vid=aca2dcca-a316-4f0c-ac24-39f4a3a60bd2"},"vehicle_type_id":"4","last_reported":1702915747,"current_range_meters":31200,"station_id":"ce4bhh12rcd13ifvqff0","pricing_plan_id":"free"},{"bike_id":"9095d703-411e-4610-8614-8fddddb27b9c","system_id":"levelo_inurba_marseille","lat":43.254947,"lon":5.376454,"is_reserved":false,"is_disabled":false,"rental_uris":{"android":"levelo://app?vid=9095d703-411e-4610-8614-8fddddb27b9c","ios":"levelo://app?vid=9095d703-411e-4610-8614-8fddddb27b9c"},"vehicle_type_id":"4","last_reported":1702915747,"current_range_meters":18000,"station_id":"ce4bhh12rcd13ifvqff0","pricing_plan_id":"free"},{"bike_id":"aac52bef-b9e7-4c50-a992-0cdb45d18c58","system_id":"levelo_inurba_marseille","lat":43.258658,"lon":5.398935,"is_reserved":false,"is_disabled":false,"rental_uris":{"android":"levelo://app?vid=aac52bef-b9e7-4c50-a992-0cdb45d18c58","ios":"levelo://app?vid=aac52bef-b9e7-4c50-a992-0cdb45d18c58"},"vehicle_type_id":"4","last_reported":1702915747,"current_range_meters":26800,"station_id":"ce4bhl92rcd13ifvqghg","pricing_plan_id":"free"},{"bike_id":"1b5b8572-9f39-4d0f-8e18-fca8919c82a0","system_id":"levelo_inurba_marseille","lat":43.2573,"lon":5.41105,"is_reserved":false,"is_disabled":false,"rental_uris":{"android":"levelo://app?vid=1b5b8572-9f39-4d0f-8e18-fca8919c82a0","ios":"levelo://app?vid=1b5b8572-9f39-4d0f-8e18-fca8919c82a0"},"vehicle_type_id":"4","last_reported":1702915747,"current_range_meters":30000,"station_id":"ce4bhkp2rcd13ifvqgd0","pricing_plan_id":"free"},{"bike_id":"71303687-e614-4c39-9f60-cfa9d320d990","system_id":"levelo_inurba_marseille","lat":43.257079,"lon":5.411051,"is_reserved":false,"is_disabled":false,"rental_uris":{"android":"levelo://app?vid=71303687-e614-4c39-9f60-cfa9d320d990","ios":"levelo://app?vid=71303687-e614-4c39-9f60-cfa9d320d990"},"vehicle_type_id":"4","last_reported":1702915747,"current_range_meters":23600,"station_id":"ce4bhkp2rcd13ifvqgd0","pricing_plan_id":"free"},{"bike_id":"86b0222e-9893-41e3-9aa5-31dd7bec5d9b","system_id":"levelo_inurba_marseille","lat":43.257079,"lon":5.411051,"is_reserved":false,"is_disabled":false,"rental_uris":{"android":"levelo://app?vid=86b0222e-9893-41e3-9aa5-31dd7bec5d9b","ios":"levelo://app?vid=86b0222e-9893-41e3-9aa5-31dd7bec5d9b"},"vehicle_type_id":"4","last_reported":1702915747,"current_range_meters":19600,"station_id":"ce4bhkp2rcd13ifvqgd0","pricing_plan_id":"free"},{"bike_id":"663a33eb-c606-4723-9680-5e5156ad0260","system_id":"levelo_inurba_marseille","lat":43.2479,"lon":5.374457,"is_reserved":false,"is_disabled":false,"rental_uris":{"android":"levelo://app?vid=663a33eb-c606-4723-9680-5e5156ad0260","ios":"levelo://app?vid=663a33eb-c606-4723-9680-5e5156ad0260"},"vehicle_type_id":"4","last_reported":1702915747,"current_range_meters":16400,"station_id":"ce4bhgh2rcd13ifvqfb0","pricing_plan_id":"free"},{"bike_id":"3df4f2e3-eb03-4a0f-ace4-81b408692e62","system_id":"levelo_inurba_marseille","lat":43.250966,"lon":5.395186,"is_reserved":false,"is_disabled":false,"rental_uris":{"android":"levelo://app?vid=3df4f2e3-eb03-4a0f-ace4-81b408692e62","ios":"levelo://app?vid=3df4f2e3-eb03-4a0f-ace4-81b408692e62"},"vehicle_type_id":"4","last_reported":1702915747,"current_range_meters":26000,"station_id":"ce4bhm12rcd13ifvqgkg","pricing_plan_id":"free"},{"bike_id":"f7355d0c-75e0-4eb6-a66b-8a3f13e7d068","system_id":"levelo_inurba_marseille","lat":43.250966,"lon":5.395186,"is_reserved":false,"is_disabled":false,"rental_uris":{"android":"levelo://app?vid=f7355d0c-75e0-4eb6-a66b-8a3f13e7d068","ios":"levelo://app?vid=f7355d0c-75e0-4eb6-a66b-8a3f13e7d068"},"vehicle_type_id":"4","last_reported":1702915747,"current_range_meters":31200,"station_id":"ce4bhm12rcd13ifvqgkg","pricing_plan_id":"free"},{"bike_id":"8ea31b2f-4535-437e-8584-c7d188593512","system_id":"levelo_inurba_marseille","lat":43.250966,"lon":5.395186,"is_reserved":false,"is_disabled":false,"rental_uris":{"android":"levelo://app?vid=8ea31b2f-4535-437e-8584-c7d188593512","ios":"levelo://app?vid=8ea31b2f-4535-437e-8584-c7d188593512"},"vehicle_type_id":"4","last_reported":1702915747,"current_range_meters":23200,"station_id":"ce4bhm12rcd13ifvqgkg","pricing_plan_id":"free"},{"bike_id":"dd57e497-ed13-4339-91ea-ac27b19d2715","system_id":"levelo_inurba_marseille","lat":43.250966,"lon":5.395186,"is_reserved":false,"is_disabled":false,"rental_uris":{"android":"levelo://app?vid=dd57e497-ed13-4339-91ea-ac27b19d2715","ios":"levelo://app?vid=dd57e497-ed13-4339-91ea-ac27b19d2715"},"vehicle_type_id":"4","last_reported":1702915747,"current_range_meters":21200,"station_id":"ce4bhm12rcd13ifvqgkg","pricing_plan_id":"free"},{"bike_id":"36bd1032-8273-46e9-8fd7-e51f586ccc25","system_id":"levelo_inurba_marseille","lat":43.24693,"lon":5.382096,"is_reserved":false,"is_disabled":false,"rental_uris":{"android":"levelo://app?vid=36bd1032-8273-46e9-8fd7-e51f586ccc25","ios":"levelo://app?vid=36bd1032-8273-46e9-8fd7-e51f586ccc25"},"vehicle_type_id":"4","last_reported":1702915747,"current_range_meters":30400,"station_id":"ce4bhih2rcd13ifvqfr0","pricing_plan_id":"free"},{"bike_id":"78265ff5-cf55-4c96-aec7-bf8fde16e82f","system_id":"levelo_inurba_marseille","lat":43.25102,"lon":5.403214,"is_reserved":false,"is_disabled":false,"rental_uris":{"android":"levelo://app?vid=78265ff5-cf55-4c96-aec7-bf8fde16e82f","ios":"levelo://app?vid=78265ff5-cf55-4c96-aec7-bf8fde16e82f"},"vehicle_type_id":"4","last_reported":1702915747,"current_range_meters":10400,"station_id":"ce4bhlh2rcd13ifvqgig","pricing_plan_id":"free"},{"bike_id":"6bd16705-0a24-4cd3-b900-93679435395e","system_id":"levelo_inurba_marseille","lat":43.25102,"lon":5.403214,"is_reserved":false,"is_disabled":false,"rental_uris":{"android":"levelo://app?vid=6bd16705-0a24-4cd3-b900-93679435395e","ios":"levelo://app?vid=6bd16705-0a24-4cd3-b900-93679435395e"},"vehicle_type_id":"4","last_reported":1702915747,"current_range_meters":2400,"station_id":"ce4bhlh2rcd13ifvqgig","pricing_plan_id":"free"},{"bike_id":"f8025bd9-404d-4b23-a769-50ac2c4957ba","system_id":"levelo_inurba_marseille","lat":43.25102,"lon":5.403214,"is_reserved":false,"is_disabled":false,"rental_uris":{"android":"levelo://app?vid=f8025bd9-404d-4b23-a769-50ac2c4957ba","ios":"levelo://app?vid=f8025bd9-404d-4b23-a769-50ac2c4957ba"},"vehicle_type_id":"4","last_reported":1702915747,"current_range_meters":23600,"station_id":"ce4bhlh2rcd13ifvqgig","pricing_plan_id":"free"},{"bike_id":"7bf47f6d-ce3c-4fc8-9702-a182c052b743","system_id":"levelo_inurba_marseille","lat":43.246461,"lon":5.389014,"is_reserved":false,"is_disabled":false,"rental_uris":{"android":"levelo://app?vid=7bf47f6d-ce3c-4fc8-9702-a182c052b743","ios":"levelo://app?vid=7bf47f6d-ce3c-4fc8-9702-a182c052b743"},"vehicle_type_id":"4","last_reported":1702915747,"current_range_meters":27200,"station_id":"ce4bhg12rcd13ifvqf60","pricing_plan_id":"free"},{"bike_id":"9dbbbc8d-6337-4c7a-b774-a644fd36050d","system_id":"levelo_inurba_marseille","lat":43.246461,"lon":5.389014,"is_reserved":false,"is_disabled":false,"rental_uris":{"android":"levelo://app?vid=9dbbbc8d-6337-4c7a-b774-a644fd36050d","ios":"levelo://app?vid=9dbbbc8d-6337-4c7a-b774-a644fd36050d"},"vehicle_type_id":"4","last_reported":1702915747,"current_range_meters":28000,"station_id":"ce4bhg12rcd13ifvqf60","pricing_plan_id":"free"},{"bike_id":"a7cf9649-0cad-4d38-a305-316639ca82d6","system_id":"levelo_inurba_marseille","lat":43.245581,"lon":5.395069,"is_reserved":false,"is_disabled":false,"rental_uris":{"android":"levelo://app?vid=a7cf9649-0cad-4d38-a305-316639ca82d6","ios":"levelo://app?vid=a7cf9649-0cad-4d38-a305-316639ca82d6"},"vehicle_type_id":"4","last_reported":1702915747,"current_range_meters":2000,"station_id":"ce4bhlp2rcd13ifvqgjg","pricing_plan_id":"free"},{"bike_id":"8987cd02-9529-4f9c-9d30-bfb7be9047f6","system_id":"levelo_inurba_marseille","lat":43.245581,"lon":5.395069,"is_reserved":false,"is_disabled":false,"rental_uris":{"android":"levelo://app?vid=8987cd02-9529-4f9c-9d30-bfb7be9047f6","ios":"levelo://app?vid=8987cd02-9529-4f9c-9d30-bfb7be9047f6"},"vehicle_type_id":"4","last_reported":1702915747,"current_range_meters":2000,"station_id":"ce4bhlp2rcd13ifvqgjg","pricing_plan_id":"free"},{"bike_id":"48f32d20-1b87-4317-b2ab-689216209864","system_id":"levelo_inurba_marseille","lat":43.240705,"lon":5.377638,"is_reserved":false,"is_disabled":false,"rental_uris":{"android":"levelo://app?vid=48f32d20-1b87-4317-b2ab-689216209864","ios":"levelo://app?vid=48f32d20-1b87-4317-b2ab-689216209864"},"vehicle_type_id":"4","last_reported":1702915747,"current_range_meters":20400,"station_id":"ce4bhnp2rcd13ifvqgvg","pricing_plan_id":"free"},{"bike_id":"5a25fc64-b949-4103-b4e0-49efc8aa8ff4","system_id":"levelo_inurba_marseille","lat":43.239588,"lon":5.366238,"is_reserved":false,"is_disabled":false,"rental_uris":{"android":"levelo://app?vid=5a25fc64-b949-4103-b4e0-49efc8aa8ff4","ios":"levelo://app?vid=5a25fc64-b949-4103-b4e0-49efc8aa8ff4"},"vehicle_type_id":"4","last_reported":1702915747,"current_range_meters":14400,"station_id":"ce4bhi12rcd13ifvqfp0","pricing_plan_id":"free"},{"bike_id":"945031ea-46a0-45dc-b827-f2c1848c09af","system_id":"levelo_inurba_marseille","lat":43.239588,"lon":5.366238,"is_reserved":false,"is_disabled":false,"rental_uris":{"android":"levelo://app?vid=945031ea-46a0-45dc-b827-f2c1848c09af","ios":"levelo://app?vid=945031ea-46a0-45dc-b827-f2c1848c09af"},"vehicle_type_id":"4","last_reported":1702915747,"current_range_meters":31200,"station_id":"ce4bhi12rcd13ifvqfp0","pricing_plan_id":"free"},{"bike_id":"337ca3c7-9462-4737-ac66-26cb921cd8a2","system_id":"levelo_inurba_marseille","lat":43.239588,"lon":5.366238,"is_reserved":false,"is_disabled":false,"rental_uris":{"android":"levelo://app?vid=337ca3c7-9462-4737-ac66-26cb921cd8a2","ios":"levelo://app?vid=337ca3c7-9462-4737-ac66-26cb921cd8a2"},"vehicle_type_id":"4","last_reported":1702915747,"current_range_meters":30800,"station_id":"ce4bhi12rcd13ifvqfp0","pricing_plan_id":"free"},{"bike_id":"e609b561-7bb7-40d7-a876-e1b2c03ae57c","system_id":"levelo_inurba_marseille","lat":43.239588,"lon":5.366238,"is_reserved":false,"is_disabled":false,"rental_uris":{"android":"levelo://app?vid=e609b561-7bb7-40d7-a876-e1b2c03ae57c","ios":"levelo://app?vid=e609b561-7bb7-40d7-a876-e1b2c03ae57c"},"vehicle_type_id":"4","last_reported":1702915747,"current_range_meters":31200,"station_id":"ce4bhi12rcd13ifvqfp0","pricing_plan_id":"free"},{"bike_id":"49708d40-135d-4873-8096-78caaadf1004","system_id":"levelo_inurba_marseille","lat":43.239588,"lon":5.366238,"is_reserved":false,"is_disabled":false,"rental_uris":{"android":"levelo://app?vid=49708d40-135d-4873-8096-78caaadf1004","ios":"levelo://app?vid=49708d40-135d-4873-8096-78caaadf1004"},"vehicle_type_id":"4","last_reported":1702915747,"current_range_meters":24400,"station_id":"ce4bhi12rcd13ifvqfp0","pricing_plan_id":"free"},{"bike_id":"279d5192-d3ce-4a26-b2ad-1ef02b78d1d3","system_id":"levelo_inurba_marseille","lat":43.231919,"lon":5.355532,"is_reserved":false,"is_disabled":false,"rental_uris":{"android":"levelo://app?vid=279d5192-d3ce-4a26-b2ad-1ef02b78d1d3","ios":"levelo://app?vid=279d5192-d3ce-4a26-b2ad-1ef02b78d1d3"},"vehicle_type_id":"4","last_reported":1702915747,"current_range_meters":30000,"station_id":"ce4bhu92rcd13ifvqi70","pricing_plan_id":"free"},{"bike_id":"c0ab37f5-99f5-463e-a220-38ba862d5829","system_id":"levelo_inurba_marseille","lat":43.23189,"lon":5.35553,"is_reserved":false,"is_disabled":false,"rental_uris":{"android":"levelo://app?vid=c0ab37f5-99f5-463e-a220-38ba862d5829","ios":"levelo://app?vid=c0ab37f5-99f5-463e-a220-38ba862d5829"},"vehicle_type_id":"4","last_reported":1702915747,"current_range_meters":13600,"station_id":"ce4bhu92rcd13ifvqi70","pricing_plan_id":"free"},{"bike_id":"97fbb3c6-a4e9-4cc2-a716-a77bfbfd661c","system_id":"levelo_inurba_marseille","lat":43.23189,"lon":5.39981,"is_reserved":false,"is_disabled":false,"rental_uris":{"android":"levelo://app?vid=97fbb3c6-a4e9-4cc2-a716-a77bfbfd661c","ios":"levelo://app?vid=97fbb3c6-a4e9-4cc2-a716-a77bfbfd661c"},"vehicle_type_id":"4","last_reported":1702915747,"current_range_meters":15600,"station_id":"ce4bhn12rcd13ifvqgqg","pricing_plan_id":"free"},{"bike_id":"53e1fc63-c90c-440d-b1ac-15bb55db4110","system_id":"levelo_inurba_marseille","lat":43.23188,"lon":5.39995,"is_reserved":false,"is_disabled":false,"rental_uris":{"android":"levelo://app?vid=53e1fc63-c90c-440d-b1ac-15bb55db4110","ios":"levelo://app?vid=53e1fc63-c90c-440d-b1ac-15bb55db4110"},"vehicle_type_id":"4","last_reported":1702915747,"current_range_meters":14400,"station_id":"ce4bhn12rcd13ifvqgqg","pricing_plan_id":"free"},{"bike_id":"8083fec0-53ab-4ae5-9959-849fc5487faf","system_id":"levelo_inurba_marseille","lat":43.231794,"lon":5.400052,"is_reserved":false,"is_disabled":false,"rental_uris":{"android":"levelo://app?vid=8083fec0-53ab-4ae5-9959-849fc5487faf","ios":"levelo://app?vid=8083fec0-53ab-4ae5-9959-849fc5487faf"},"vehicle_type_id":"4","last_reported":1702915747,"current_range_meters":25600,"station_id":"ce4bhn12rcd13ifvqgqg","pricing_plan_id":"free"},{"bike_id":"b0bad05c-52a3-4cce-a6c6-3954af2ae0b6","system_id":"levelo_inurba_marseille","lat":43.23181,"lon":5.39992,"is_reserved":false,"is_disabled":false,"rental_uris":{"android":"levelo://app?vid=b0bad05c-52a3-4cce-a6c6-3954af2ae0b6","ios":"levelo://app?vid=b0bad05c-52a3-4cce-a6c6-3954af2ae0b6"},"vehicle_type_id":"4","last_reported":1702915747,"current_range_meters":29200,"station_id":"ce4bhn12rcd13ifvqgqg","pricing_plan_id":"free"},{"bike_id":"601d4319-b7d1-4081-845b-1d336e1f9dc4","system_id":"levelo_inurba_marseille","lat":43.24035,"lon":5.43875,"is_reserved":false,"is_disabled":false,"rental_uris":{"android":"levelo://app?vid=601d4319-b7d1-4081-845b-1d336e1f9dc4","ios":"levelo://app?vid=601d4319-b7d1-4081-845b-1d336e1f9dc4"},"vehicle_type_id":"4","last_reported":1702915747,"current_range_meters":26000,"station_id":"ce4bhn12rcd13ifvqgpg","pricing_plan_id":"free"},{"bike_id":"4ff28cf7-5df4-4ad1-b066-345de5c4646c","system_id":"levelo_inurba_marseille","lat":43.231437,"lon":5.437193,"is_reserved":false,"is_disabled":false,"rental_uris":{"android":"levelo://app?vid=4ff28cf7-5df4-4ad1-b066-345de5c4646c","ios":"levelo://app?vid=4ff28cf7-5df4-4ad1-b066-345de5c4646c"},"vehicle_type_id":"4","last_reported":1702915747,"current_range_meters":15600,"station_id":"ce4bhmp2rcd13ifvqgog","pricing_plan_id":"free"}]}}