{"last_updated":1701255959,"ttl":30,"version":"2.2","data":{"bikes":[{"bike_id":"9da95ed2-ede2-4159-b28b-f075cd64d316","system_id":"levelo_inurba_marseille","lat":43.31341,"lon":5.367098,"is_reserved":false,"is_disabled":false,"rental_uris":{"android":"levelo://app?vid=9da95ed2-ede2-4159-b28b-f075cd64d316","ios":"levelo://app?vid=9da95ed2-ede2-4159-b28b-f075cd64d316"},"vehicle_type_id":"4","last_reported":1701255959,"current_range_meters":22400,"station_id":"ce4bgr92rcd13ifvqc6g","pricing_plan_id":"free"},{"bike_id":"c84e225e-ba46-423e-a785-1fd471cdfffa","system_id":"levelo_inurba_marseille","lat":43.3134,"lon":5.3672,"is_reserved":false,"is_disabled":false,"rental_uris":{"android":"levelo://app?vid=c84e225e-ba46-423e-a785-1fd471cdfffa","ios":"levelo://app?vid=c84e225e-ba46-423e-a785-1fd471cdfffa"},"vehicle_type_id":"4","last_reported":1701255959,"current_range_meters":17600,"station_id":"ce4bgr92rcd13ifvqc6g","pricing_plan_id":"free"},{"bike_id":"31735fbd-b397-4bf4-af80-08f4cfe490fb","system_id":"levelo_inurba_marseille","lat":43.31344,"lon":5.36717,"is_reserved":false,"is_disabled":false,"rental_uris":{"android":"levelo://app?vid=31735fbd-b397-4bf4-af80-08f4cfe490fb","ios":"levelo://app?vid=31735fbd-b397-4bf4-af80-08f4cfe490fb"},"vehicle_type_id":"4","last_reported":1701255959,"current_range_meters":13600,"station_id":"ce4bgr92rcd13ifvqc6g","pricing_plan_id":"free"},{"bike_id":"f89ea172-ffc6-4428-ab95-3f52dce97dbc","system_id":"levelo_inurba_marseille","lat":43.31341,"lon":5.367098,"is_reserved":false,"is_disabled":false,"rental_uris":{"android":"levelo://app?vid=f89ea172-ffc6-4428-ab95-3f52dce97dbc","ios":"levelo://app?vid=f89ea172-ffc6-4428-ab95-3f52dce97dbc"},"vehicle_type_id":"4","last_reported":1701255959,"current_range_meters":19600,"station_id":"ce4bgr92rcd13ifvqc6g","pricing_plan_id":"free"},{"bike_id":"4ede3be8-ffbb-4fa7-8749-53300a12d77f","system_id":"levelo_inurba_marseille","lat":43.31341,"lon":5.367098,"is_reserved":false,"is_disabled":false,"rental_uris":{"android":"levelo://app?vid=4ede3be8-ffbb-4fa7-8749-53300a12d77f","ios":"levelo://app?vid=4ede3be8-ffbb-4fa7-8749-53300a12d77f"},"vehicle_type_id":"4","last_reported":1701255959,"current_range_meters":19600,"station_id":"ce4bgr92rcd13ifvqc6g","pricing_plan_id":"free"},{"bike_id":"72a784a3-f81a-46f2-a6b2-c728e8be72cb","system_id":"levelo_inurba_marseille","lat":43.31341,"lon":5.367098,"is_reserved":false,"is_disabled":false,"rental_uris":{"android":"levelo://app?vid=72a784a3-f81a-46f2-a6b2-c728e8be72cb","ios":"levelo://app?vid=72a784a3-f81a-46f2-a6b2-c728e8be72cb"},"vehicle_type_id":"4","last_reported":1701255959,"current_range_meters":7200,"station_id":"ce4bgr92rcd13ifvqc6g","pricing_plan_id":"free"},{"bike_id":"00a6c1b1-e252-421e-9509-b4299287823c","system_id":"levelo_inurba_marseille","lat":43.312239,"lon":5.368562,"is_reserved":false,"is_disabled":false,"rental_uris":{"android":"levelo://app?vid=00a6c1b1-e252-421e-9509-b4299287823c","ios":"levelo://app?vid=00a6c1b1-e252-421e-9509-b4299287823c"},"vehicle_type_id":"4","last_reported":1701255959,"current_range_meters":22400,"station_id":"ce4bgl92rcd13ifvqbq0","pricing_plan_id":"free"},{"bike_id":"d4313171-ddca-492f-bdc7-0057cab65e25","system_id":"levelo_inurba_marseille","lat":43.312239,"lon":5.368562,"is_reserved":false,"is_disabled":false,"rental_uris":{"android":"levelo://app?vid=d4313171-ddca-492f-bdc7-0057cab65e25","ios":"levelo://app?vid=d4313171-ddca-492f-bdc7-0057cab65e25"},"vehicle_type_id":"4","last_reported":1701255959,"current_range_meters":22000,"station_id":"ce4bgl92rcd13ifvqbq0","pricing_plan_id":"free"},{"bike_id":"dc780252-aba2-4b44-a6ef-47e31b08c67a","system_id":"levelo_inurba_marseille","lat":43.312239,"lon":5.368562,"is_reserved":false,"is_disabled":false,"rental_uris":{"android":"levelo://app?vid=dc780252-aba2-4b44-a6ef-47e31b08c67a","ios":"levelo://app?vid=dc780252-aba2-4b44-a6ef-47e31b08c67a"},"vehicle_type_id":"4","last_reported":1701255959,"current_range_meters":26000,"station_id":"ce4bgl92rcd13ifvqbq0","pricing_plan_id":"free"},{"bike_id":"c63ba368-2e43-4326-bc16-559adfd40d1e","system_id":"levelo_inurba_marseille","lat":43.312239,"lon":5.368562,"is_reserved":false,"is_disabled":false,"rental_uris":{"android":"levelo://app?vid=c63ba368-2e43-4326-bc16-559adfd40d1e","ios":"levelo://app?vid=c63ba368-2e43-4326-bc16-559adfd40d1e"},"vehicle_type_id":"4","last_reported":1701255959,"current_range_meters":19600,"station_id":"ce4bgl92rcd13ifvqbq0","pricing_plan_id":"free"},{"bike_id":"eae667f9-30f1-479b-957a-4aec64b0496a","system_id":"levelo_inurba_marseille","lat":43.312239,"lon":5.368562,"is_reserved":false,"is_disabled":false,"rental_uris":{"android":"levelo://app?vid=eae667f9-30f1-479b-957a-4aec64b0496a","ios":"levelo://app?vid=eae667f9-30f1-479b-957a-4aec64b0496a"},"vehicle_type_id":"4","last_reported":1701255959,"current_range_meters":0,"station_id":"ce4bgl92rcd13ifvqbq0","pricing_plan_id":"free"},{"bike_id":"c1e374f4-5385-4457-8064-ccaf508c7f8c","system_id":"levelo_inurba_marseille","lat":43.314811,"lon":5.373104,"is_reserved":false,"is_disabled":false,"rental_uris":{"android":"levelo://app?vid=c1e374f4-5385-4457-8064-ccaf508c7f8c","ios":"levelo://app?vid=c1e374f4-5385-4457-8064-ccaf508c7f8c"},"vehicle_type_id":"4","last_reported":1701255959,"current_range_meters":12800,"station_id":"ce4bgt12rcd13ifvqcd0","pricing_plan_id":"free"},{"bike_id":"19c7173a-caaa-4963-a53e-f25e8a1ab925","system_id":"levelo_inurba_marseille","lat":43.305712,"lon":5.365641,"is_reserved":false,"is_disabled":false,"rental_uris":{"android":"levelo://app?vid=19c7173a-caaa-4963-a53e-f25e8a1ab925","ios":"levelo://app?vid=19c7173a-caaa-4963-a53e-f25e8a1ab925"},"vehicle_type_id":"4","last_reported":1701255959,"current_range_meters":26400,"station_id":"ce4bgs12rcd13ifvqcag","pricing_plan_id":"free"},{"bike_id":"cf39718d-4919-41f1-b1bd-f9dbbe71e053","system_id":"levelo_inurba_marseille","lat":43.305714,"lon":5.365633,"is_reserved":false,"is_disabled":false,"rental_uris":{"android":"levelo://app?vid=cf39718d-4919-41f1-b1bd-f9dbbe71e053","ios":"levelo://app?vid=cf39718d-4919-41f1-b1bd-f9dbbe71e053"},"vehicle_type_id":"4","last_reported":1701255959,"current_range_meters":31200,"station_id":"ce4bgs12rcd13ifvqcag","pricing_plan_id":"free"},{"bike_id":"878504fe-d5a2-4bb7-9b4c-3d221495a0ff","system_id":"levelo_inurba_marseille","lat":43.305712,"lon":5.365641,"is_reserved":false,"is_disabled":false,"rental_uris":{"android":"levelo://app?vid=878504fe-d5a2-4bb7-9b4c-3d221495a0ff","ios":"levelo://app?vid=878504fe-d5a2-4bb7-9b4c-3d221495a0ff"},"vehicle_type_id":"4","last_reported":1701255959,"current_range_meters":30000,"station_id":"ce4bgs12rcd13ifvqcag","pricing_plan_id":"free"},{"bike_id":"6c822ccb-44bd-4095-b4ae-2f99b32f29ee","system_id":"levelo_inurba_marseille","lat":43.305368,"lon":5.367343,"is_reserved":false,"is_disabled":false,"rental_uris":{"android":"levelo://app?vid=6c822ccb-44bd-4095-b4ae-2f99b32f29ee","ios":"levelo://app?vid=6c822ccb-44bd-4095-b4ae-2f99b32f29ee"},"vehicle_type_id":"4","last_reported":1701255959,"current_range_meters":21600,"station_id":"ce4bgrp2rcd13ifvqc9g","pricing_plan_id":"free"},{"bike_id":"1b7ead25-e91f-44ba-82bb-19125c66c2d9","system_id":"levelo_inurba_marseille","lat":43.305714,"lon":5.365633,"is_reserved":false,"is_disabled":false,"rental_uris":{"android":"levelo://app?vid=1b7ead25-e91f-44ba-82bb-19125c66c2d9","ios":"levelo://app?vid=1b7ead25-e91f-44ba-82bb-19125c66c2d9"},"vehicle_type_id":"4","last_reported":1701255959,"current_range_meters":32000,"station_id":"ce4bgs12rcd13ifvqcag","pricing_plan_id":"free"},{"bike_id":"544eb8fe-fd49-4146-8fed-9bbbe83ff818","system_id":"levelo_inurba_marseille","lat":43.305714,"lon":5.365633,"is_reserved":false,"is_disabled":false,"rental_uris":{"android":"levelo://app?vid=544eb8fe-fd49-4146-8fed-9bbbe83ff818","ios":"levelo://app?vid=544eb8fe-fd49-4146-8fed-9bbbe83ff818"},"vehicle_type_id":"4","last_reported":1701255959,"current_range_meters":13600,"station_id":"ce4bgs12rcd13ifvqcag","pricing_plan_id":"free"},{"bike_id":"37a70064-fbde-46ff-bcf0-3847a3075d67","system_id":"levelo_inurba_marseille","lat":43.30531,"lon":5.367,"is_reserved":false,"is_disabled":false,"rental_uris":{"android":"levelo://app?vid=37a70064-fbde-46ff-bcf0-3847a3075d67","ios":"levelo://app?vid=37a70064-fbde-46ff-bcf0-3847a3075d67"},"vehicle_type_id":"4","last_reported":1701255959,"current_range_meters":0,"station_id":"ce4bgrp2rcd13ifvqc9g","pricing_plan_id":"free"},{"bike_id":"e4a5dd99-c04e-4a50-bd4b-dd6d9964171a","system_id":"levelo_inurba_marseille","lat":43.305706,"lon":5.365654,"is_reserved":false,"is_disabled":false,"rental_uris":{"android":"levelo://app?vid=e4a5dd99-c04e-4a50-bd4b-dd6d9964171a","ios":"levelo://app?vid=e4a5dd99-c04e-4a50-bd4b-dd6d9964171a"},"vehicle_type_id":"4","last_reported":1701255959,"current_range_meters":32000,"station_id":"ce4bgs12rcd13ifvqcag","pricing_plan_id":"free"},{"bike_id":"b41f2565-88cc-4fc1-9fde-584a3f1affe1","system_id":"levelo_inurba_marseille","lat":43.305368,"lon":5.367343,"is_reserved":false,"is_disabled":false,"rental_uris":{"android":"levelo://app?vid=b41f2565-88cc-4fc1-9fde-584a3f1affe1","ios":"levelo://app?vid=b41f2565-88cc-4fc1-9fde-584a3f1affe1"},"vehicle_type_id":"4","last_reported":1701255959,"current_range_meters":21600,"station_id":"ce4bgrp2rcd13ifvqc9g","pricing_plan_id":"free"},{"bike_id":"ff78abee-a4c7-42a6-bed7-f117d3fb7cde","system_id":"levelo_inurba_marseille","lat":43.305706,"lon":5.365654,"is_reserved":false,"is_disabled":false,"rental_uris":{"android":"levelo://app?vid=ff78abee-a4c7-42a6-bed7-f117d3fb7cde","ios":"levelo://app?vid=ff78abee-a4c7-42a6-bed7-f117d3fb7cde"},"vehicle_type_id":"4","last_reported":1701255959,"current_range_meters":32000,"station_id":"ce4bgs12rcd13ifvqcag","pricing_plan_id":"free"},{"bike_id":"2b37ed01-e2b3-49d1-923f-f4169d14c64a","system_id":"levelo_inurba_marseille","lat":43.305706,"lon":5.365654,"is_reserved":false,"is_disabled":false,"rental_uris":{"android":"levelo://app?vid=2b37ed01-e2b3-49d1-923f-f4169d14c64a","ios":"levelo://app?vid=2b37ed01-e2b3-49d1-923f-f4169d14c64a"},"vehicle_type_id":"4","last_reported":1701255959,"current_range_meters":25600,"station_id":"ce4bgs12rcd13ifvqcag","pricing_plan_id":"free"},{"bike_id":"e6e0bb1f-9e0e-4926-9832-bfcce6f07fc3","system_id":"levelo_inurba_marseille","lat":43.305706,"lon":5.365654,"is_reserved":false,"is_disabled":false,"rental_uris":{"android":"levelo://app?vid=e6e0bb1f-9e0e-4926-9832-bfcce6f07fc3","ios":"levelo://app?vid=e6e0bb1f-9e0e-4926-9832-bfcce6f07fc3"},"vehicle_type_id":"4","last_reported":1701255959,"current_range_meters":26000,"station_id":"ce4bgs12rcd13ifvqcag","pricing_plan_id":"free"},{"bike_id":"d7358ff6-3f82-4bd6-96a3-f1d7c8bf5e0e","system_id":"levelo_inurba_marseille","lat":43.305706,"lon":5.365654,"is_reserved":false,"is_disabled":false,"rental_uris":{"android":"levelo://app?vid=d7358ff6-3f82-4bd6-96a3-f1d7c8bf5e0e","ios":"levelo://app?vid=d7358ff6-3f82-4bd6-96a3-f1d7c8bf5e0e"},"vehicle_type_id":"4","last_reported":1701255959,"current_range_meters":20000,"station_id":"ce4bgs12rcd13ifvqcag","pricing_plan_id":"free"},{"bike_id":"c2afefef-c471-42dd-9e6a-e5a53e93f857","system_id":"levelo_inurba_marseille","lat":43.305989,"lon":5.37225,"is_reserved":false,"is_disabled":false,"rental_uris":{"android":"levelo://app?vid=c2afefef-c471-42dd-9e6a-e5a53e93f857","ios":"levelo://app?vid=c2afefef-c471-42dd-9e6a-e5a53e93f857"},"vehicle_type_id":"4","last_reported":1701255959,"current_range_meters":6000,"station_id":"ce4bgqh2rcd13ifvqc4g","pricing_plan_id":"free"},{"bike_id":"721d6a4f-efb4-41db-9dd9-b2612968bcbf","system_id":"levelo_inurba_marseille","lat":43.305989,"lon":5.37225,"is_reserved":false,"is_disabled":false,"rental_uris":{"android":"levelo://app?vid=721d6a4f-efb4-41db-9dd9-b2612968bcbf","ios":"levelo://app?vid=721d6a4f-efb4-41db-9dd9-b2612968bcbf"},"vehicle_type_id":"4","last_reported":1701255959,"current_range_meters":6000,"station_id":"ce4bgqh2rcd13ifvqc4g","pricing_plan_id":"free"},{"bike_id":"f31d4910-ce35-474f-b4b2-27ee5962d994","system_id":"levelo_inurba_marseille","lat":43.307945,"lon":5.376487,"is_reserved":false,"is_disabled":false,"rental_uris":{"android":"levelo://app?vid=f31d4910-ce35-474f-b4b2-27ee5962d994","ios":"levelo://app?vid=f31d4910-ce35-474f-b4b2-27ee5962d994"},"vehicle_type_id":"4","last_reported":1701255959,"current_range_meters":6800,"station_id":"ce4bgv92rcd13ifvqcq0","pricing_plan_id":"free"},{"bike_id":"f427a2c3-6e4a-446b-ae2f-9be8aa7f4122","system_id":"levelo_inurba_marseille","lat":43.31719,"lon":5.376813,"is_reserved":false,"is_disabled":false,"rental_uris":{"android":"levelo://app?vid=f427a2c3-6e4a-446b-ae2f-9be8aa7f4122","ios":"levelo://app?vid=f427a2c3-6e4a-446b-ae2f-9be8aa7f4122"},"vehicle_type_id":"4","last_reported":1701255959,"current_range_meters":10000,"station_id":"ce4bgth2rcd13ifvqch0","pricing_plan_id":"free"},{"bike_id":"e913f328-1e31-4c22-bd87-f809ea246de4","system_id":"levelo_inurba_marseille","lat":43.317168,"lon":5.376883,"is_reserved":false,"is_disabled":false,"rental_uris":{"android":"levelo://app?vid=e913f328-1e31-4c22-bd87-f809ea246de4","ios":"levelo://app?vid=e913f328-1e31-4c22-bd87-f809ea246de4"},"vehicle_type_id":"4","last_reported":1701255959,"current_range_meters":12000,"station_id":"ce4bgth2rcd13ifvqch0","pricing_plan_id":"free"},{"bike_id":"3e09080e-9db5-4c48-951f-c5f672a60264","system_id":"levelo_inurba_marseille","lat":43.32144,"lon":5.3747,"is_reserved":false,"is_disabled":false,"rental_uris":{"android":"levelo://app?vid=3e09080e-9db5-4c48-951f-c5f672a60264","ios":"levelo://app?vid=3e09080e-9db5-4c48-951f-c5f672a60264"},"vehicle_type_id":"4","last_reported":1701255959,"current_range_meters":8400,"station_id":"","pricing_plan_id":"free"},{"bike_id":"467dc636-76df-49a3-af47-8ddec2c41dfc","system_id":"levelo_inurba_marseille","lat":43.308012,"lon":5.381511,"is_reserved":false,"is_disabled":false,"rental_uris":{"android":"levelo://app?vid=467dc636-76df-49a3-af47-8ddec2c41dfc","ios":"levelo://app?vid=467dc636-76df-49a3-af47-8ddec2c41dfc"},"vehicle_type_id":"4","last_reported":1701255959,"current_range_meters":15200,"station_id":"ce4bgt12rcd13ifvqce0","pricing_plan_id":"free"},{"bike_id":"77621d6b-8990-4544-be4b-ead551752d29","system_id":"levelo_inurba_marseille","lat":43.31657,"lon":5.38212,"is_reserved":false,"is_disabled":false,"rental_uris":{"android":"levelo://app?vid=77621d6b-8990-4544-be4b-ead551752d29","ios":"levelo://app?vid=77621d6b-8990-4544-be4b-ead551752d29"},"vehicle_type_id":"4","last_reported":1701255959,"current_range_meters":22800,"station_id":"","pricing_plan_id":"free"},{"bike_id":"e3912d93-2ea0-46d3-91f4-e501a7bf72ea","system_id":"levelo_inurba_marseille","lat":43.304606,"lon":5.379026,"is_reserved":false,"is_disabled":false,"rental_uris":{"android":"levelo://app?vid=e3912d93-2ea0-46d3-91f4-e501a7bf72ea","ios":"levelo://app?vid=e3912d93-2ea0-46d3-91f4-e501a7bf72ea"},"vehicle_type_id":"4","last_reported":1701255959,"current_range_meters":22000,"station_id":"ce4bgup2rcd13ifvqcn0","pricing_plan_id":"free"},{"bike_id":"e8aa84d7-90c2-4a16-9728-f0feff524236","system_id":"levelo_inurba_marseille","lat":43.304606,"lon":5.379026,"is_reserved":false,"is_disabled":false,"rental_uris":{"android":"levelo://app?vid=e8aa84d7-90c2-4a16-9728-f0feff524236","ios":"levelo://app?vid=e8aa84d7-90c2-4a16-9728-f0feff524236"},"vehicle_type_id":"4","last_reported":1701255959,"current_range_meters":26800,"station_id":"ce4bgup2rcd13ifvqcn0","pricing_plan_id":"free"},{"bike_id":"2395367f-dcb4-43e2-a6e6-8be15ad8e1a8","system_id":"levelo_inurba_marseille","lat":43.304606,"lon":5.379026,"is_reserved":false,"is_disabled":false,"rental_uris":{"android":"levelo://app?vid=2395367f-dcb4-43e2-a6e6-8be15ad8e1a8","ios":"levelo://app?vid=2395367f-dcb4-43e2-a6e6-8be15ad8e1a8"},"vehicle_type_id":"4","last_reported":1701255959,"current_range_meters":800,"station_id":"ce4bgup2rcd13ifvqcn0","pricing_plan_id":"free"},{"bike_id":"5f313987-3eef-455b-a883-abbe5bf91504","system_id":"levelo_inurba_marseille","lat":43.304606,"lon":5.379026,"is_reserved":false,"is_disabled":false,"rental_uris":{"android":"levelo://app?vid=5f313987-3eef-455b-a883-abbe5bf91504","ios":"levelo://app?vid=5f313987-3eef-455b-a883-abbe5bf91504"},"vehicle_type_id":"4","last_reported":1701255959,"current_range_meters":4000,"station_id":"ce4bgup2rcd13ifvqcn0","pricing_plan_id":"free"},{"bike_id":"7477e3f5-e024-4b10-89c1-508c79eb8acb","system_id":"levelo_inurba_marseille","lat":43.304606,"lon":5.379026,"is_reserved":false,"is_disabled":false,"rental_uris":{"android":"levelo://app?vid=7477e3f5-e024-4b10-89c1-508c79eb8acb","ios":"levelo://app?vid=7477e3f5-e024-4b10-89c1-508c79eb8acb"},"vehicle_type_id":"4","last_reported":1701255959,"current_range_meters":21600,"station_id":"ce4bgup2rcd13ifvqcn0","pricing_plan_id":"free"},{"bike_id":"e70e2ce5-7a96-4f60-8e64-d4695622a802","system_id":"levelo_inurba_marseille","lat":43.304606,"lon":5.379026,"is_reserved":false,"is_disabled":false,"rental_uris":{"android":"levelo://app?vid=e70e2ce5-7a96-4f60-8e64-d4695622a802","ios":"levelo://app?vid=e70e2ce5-7a96-4f60-8e64-d4695622a802"},"vehicle_type_id":"4","last_reported":1701255959,"current_range_meters":21600,"station_id":"ce4bgup2rcd13ifvqcn0","pricing_plan_id":"free"},{"bike_id":"e915e1ac-ed8f-4164-835d-a2a6eab75057","system_id":"levelo_inurba_marseille","lat":43.304606,"lon":5.379026,"is_reserved":false,"is_disabled":false,"rental_uris":{"android":"levelo://app?vid=e915e1ac-ed8f-4164-835d-a2a6eab75057","ios":"levelo://app?vid=e915e1ac-ed8f-4164-835d-a2a6eab75057"},"vehicle_type_id":"4","last_reported":1701255959,"current_range_meters":16000,"station_id":"ce4bgup2rcd13ifvqcn0","pricing_plan_id":"free"},{"bike_id":"e9ad2ae8-aedc-4518-a592-42f08bbe7bd8","system_id":"levelo_inurba_marseille","lat":43.301429,"lon":5.37413,"is_reserved":false,"is_disabled":false,"rental_uris":{"android":"levelo://app?vid=e9ad2ae8-aedc-4518-a592-42f08bbe7bd8","ios":"levelo://app?vid=e9ad2ae8-aedc-4518-a592-42f08bbe7bd8"},"vehicle_type_id":"4","last_reported":1701255959,"current_range_meters":18400,"station_id":"ce4bgs92rcd13ifvqcc0","pricing_plan_id":"free"},{"bike_id":"2b2863d0-ac19-46cf-8ec8-acd5644cfb7f","system_id":"levelo_inurba_marseille","lat":43.30143,"lon":5.37411,"is_reserved":false,"is_disabled":false,"rental_uris":{"android":"levelo://app?vid=2b2863d0-ac19-46cf-8ec8-acd5644cfb7f","ios":"levelo://app?vid=2b2863d0-ac19-46cf-8ec8-acd5644cfb7f"},"vehicle_type_id":"4","last_reported":1701255959,"current_range_meters":20800,"station_id":"ce4bgs92rcd13ifvqcc0","pricing_plan_id":"free"},{"bike_id":"d5b10716-51ac-40ab-b889-120260bb271d","system_id":"levelo_inurba_marseille","lat":43.301432,"lon":5.374148,"is_reserved":false,"is_disabled":false,"rental_uris":{"android":"levelo://app?vid=d5b10716-51ac-40ab-b889-120260bb271d","ios":"levelo://app?vid=d5b10716-51ac-40ab-b889-120260bb271d"},"vehicle_type_id":"4","last_reported":1701255959,"current_range_meters":25600,"station_id":"ce4bgs92rcd13ifvqcc0","pricing_plan_id":"free"},{"bike_id":"a2b6c035-3b74-48fd-bef4-e38c4d248cf9","system_id":"levelo_inurba_marseille","lat":43.30142,"lon":5.374143,"is_reserved":false,"is_disabled":false,"rental_uris":{"android":"levelo://app?vid=a2b6c035-3b74-48fd-bef4-e38c4d248cf9","ios":"levelo://app?vid=a2b6c035-3b74-48fd-bef4-e38c4d248cf9"},"vehicle_type_id":"4","last_reported":1701255959,"current_range_meters":0,"station_id":"ce4bgs92rcd13ifvqcc0","pricing_plan_id":"free"},{"bike_id":"2592df46-6d52-4040-b44a-872969926906","system_id":"levelo_inurba_marseille","lat":43.301429,"lon":5.37413,"is_reserved":false,"is_disabled":false,"rental_uris":{"android":"levelo://app?vid=2592df46-6d52-4040-b44a-872969926906","ios":"levelo://app?vid=2592df46-6d52-4040-b44a-872969926906"},"vehicle_type_id":"4","last_reported":1701255959,"current_range_meters":32000,"station_id":"ce4bgs92rcd13ifvqcc0","pricing_plan_id":"free"},{"bike_id":"22229d35-12c8-4e18-96d1-04d74e3ee2e7","system_id":"levelo_inurba_marseille","lat":43.302784,"lon":5.377158,"is_reserved":false,"is_disabled":false,"rental_uris":{"android":"levelo://app?vid=22229d35-12c8-4e18-96d1-04d74e3ee2e7","ios":"levelo://app?vid=22229d35-12c8-4e18-96d1-04d74e3ee2e7"},"vehicle_type_id":"4","last_reported":1701255959,"current_range_meters":20800,"station_id":"ce4bguh2rcd13ifvqcj0","pricing_plan_id":"free"},{"bike_id":"2275aca5-3158-4c2c-8022-ca5d2714bc86","system_id":"levelo_inurba_marseille","lat":43.319997,"lon":5.381594,"is_reserved":false,"is_disabled":false,"rental_uris":{"android":"levelo://app?vid=2275aca5-3158-4c2c-8022-ca5d2714bc86","ios":"levelo://app?vid=2275aca5-3158-4c2c-8022-ca5d2714bc86"},"vehicle_type_id":"4","last_reported":1701255959,"current_range_meters":27200,"station_id":"ce4bhr12rcd13ifvqhpg","pricing_plan_id":"free"},{"bike_id":"8171bc14-0271-4a26-aae3-2321cda75637","system_id":"levelo_inurba_marseille","lat":43.313571,"lon":5.384829,"is_reserved":false,"is_disabled":false,"rental_uris":{"android":"levelo://app?vid=8171bc14-0271-4a26-aae3-2321cda75637","ios":"levelo://app?vid=8171bc14-0271-4a26-aae3-2321cda75637"},"vehicle_type_id":"4","last_reported":1701255959,"current_range_meters":18800,"station_id":"ce4bgt92rcd13ifvqcf0","pricing_plan_id":"free"},{"bike_id":"7c8a3ec4-7cda-4b7c-a139-258df86346c1","system_id":"levelo_inurba_marseille","lat":43.305368,"lon":5.367343,"is_reserved":false,"is_disabled":false,"rental_uris":{"android":"levelo://app?vid=7c8a3ec4-7cda-4b7c-a139-258df86346c1","ios":"levelo://app?vid=7c8a3ec4-7cda-4b7c-a139-258df86346c1"},"vehicle_type_id":"4","last_reported":1701255959,"current_range_meters":25200,"station_id":"ce4bgrp2rcd13ifvqc9g","pricing_plan_id":"free"},{"bike_id":"31f85d6d-5062-420d-ac04-6ffc395890f0","system_id":"levelo_inurba_marseille","lat":43.299724,"lon":5.371829,"is_reserved":false,"is_disabled":false,"rental_uris":{"android":"levelo://app?vid=31f85d6d-5062-420d-ac04-6ffc395890f0","ios":"levelo://app?vid=31f85d6d-5062-420d-ac04-6ffc395890f0"},"vehicle_type_id":"4","last_reported":1701255959,"current_range_meters":16400,"station_id":"ce4bgr92rcd13ifvqc7g","pricing_plan_id":"free"},{"bike_id":"aebb5f1f-3a1e-4323-a4f0-ae83e0b78d14","system_id":"levelo_inurba_marseille","lat":43.298433,"lon":5.362774,"is_reserved":false,"is_disabled":false,"rental_uris":{"android":"levelo://app?vid=aebb5f1f-3a1e-4323-a4f0-ae83e0b78d14","ios":"levelo://app?vid=aebb5f1f-3a1e-4323-a4f0-ae83e0b78d14"},"vehicle_type_id":"4","last_reported":1701255959,"current_range_meters":30000,"station_id":"ce4bgpp2rcd13ifvqc3g","pricing_plan_id":"free"},{"bike_id":"261f5cab-340d-42b6-96fb-38b883086dff","system_id":"levelo_inurba_marseille","lat":43.298433,"lon":5.362774,"is_reserved":false,"is_disabled":false,"rental_uris":{"android":"levelo://app?vid=261f5cab-340d-42b6-96fb-38b883086dff","ios":"levelo://app?vid=261f5cab-340d-42b6-96fb-38b883086dff"},"vehicle_type_id":"4","last_reported":1701255959,"current_range_meters":20400,"station_id":"ce4bgpp2rcd13ifvqc3g","pricing_plan_id":"free"},{"bike_id":"23509bd6-5224-4f08-99a9-4e53510eec07","system_id":"levelo_inurba_marseille","lat":43.298433,"lon":5.362774,"is_reserved":false,"is_disabled":false,"rental_uris":{"android":"levelo://app?vid=23509bd6-5224-4f08-99a9-4e53510eec07","ios":"levelo://app?vid=23509bd6-5224-4f08-99a9-4e53510eec07"},"vehicle_type_id":"4","last_reported":1701255959,"current_range_meters":16400,"station_id":"ce4bgpp2rcd13ifvqc3g","pricing_plan_id":"free"},{"bike_id":"358558d7-7d60-44b1-858c-03d7c2203b4b","system_id":"levelo_inurba_marseille","lat":43.298433,"lon":5.362774,"is_reserved":false,"is_disabled":false,"rental_uris":{"android":"levelo://app?vid=358558d7-7d60-44b1-858c-03d7c2203b4b","ios":"levelo://app?vid=358558d7-7d60-44b1-858c-03d7c2203b4b"},"vehicle_type_id":"4","last_reported":1701255959,"current_range_meters":30000,"station_id":"ce4bgpp2rcd13ifvqc3g","pricing_plan_id":"free"},{"bike_id":"100a70dc-665f-4373-ac81-3951e8da55c7","system_id":"levelo_inurba_marseille","lat":43.298433,"lon":5.362774,"is_reserved":false,"is_disabled":false,"rental_uris":{"android":"levelo://app?vid=100a70dc-665f-4373-ac81-3951e8da55c7","ios":"levelo://app?vid=100a70dc-665f-4373-ac81-3951e8da55c7"},"vehicle_type_id":"4","last_reported":1701255959,"current_range_meters":12000,"station_id":"ce4bgpp2rcd13ifvqc3g","pricing_plan_id":"free"},{"bike_id":"7565ce83-3bb4-4fbf-976a-406bc10e61b4","system_id":"levelo_inurba_marseille","lat":43.298433,"lon":5.362774,"is_reserved":false,"is_disabled":false,"rental_uris":{"android":"levelo://app?vid=7565ce83-3bb4-4fbf-976a-406bc10e61b4","ios":"levelo://app?vid=7565ce83-3bb4-4fbf-976a-406bc10e61b4"},"vehicle_type_id":"4","last_reported":1701255959,"current_range_meters":12800,"station_id":"ce4bgpp2rcd13ifvqc3g","pricing_plan_id":"free"},{"bike_id":"2de228b7-abc3-4971-bbb2-21e0c64d7520","system_id":"levelo_inurba_marseille","lat":43.297794,"lon":5.370888,"is_reserved":false,"is_disabled":false,"rental_uris":{"android":"levelo://app?vid=2de228b7-abc3-4971-bbb2-21e0c64d7520","ios":"levelo://app?vid=2de228b7-abc3-4971-bbb2-21e0c64d7520"},"vehicle_type_id":"4","last_reported":1701255959,"current_range_meters":2800,"station_id":"ce4bgop2rcd13ifvqc1g","pricing_plan_id":"free"},{"bike_id":"284740c8-cf85-4665-ac34-dd7301ed0cdc","system_id":"levelo_inurba_marseille","lat":43.297794,"lon":5.370888,"is_reserved":false,"is_disabled":false,"rental_uris":{"android":"levelo://app?vid=284740c8-cf85-4665-ac34-dd7301ed0cdc","ios":"levelo://app?vid=284740c8-cf85-4665-ac34-dd7301ed0cdc"},"vehicle_type_id":"4","last_reported":1701255959,"current_range_meters":26000,"station_id":"ce4bgop2rcd13ifvqc1g","pricing_plan_id":"free"},{"bike_id":"38580dae-15d9-4bd1-8165-34a601c0f0b2","system_id":"levelo_inurba_marseille","lat":43.297163,"lon":5.365866,"is_reserved":false,"is_disabled":false,"rental_uris":{"android":"levelo://app?vid=38580dae-15d9-4bd1-8165-34a601c0f0b2","ios":"levelo://app?vid=38580dae-15d9-4bd1-8165-34a601c0f0b2"},"vehicle_type_id":"4","last_reported":1701255959,"current_range_meters":6000,"station_id":"ce4bgn12rcd13ifvqbt0","pricing_plan_id":"free"},{"bike_id":"5e1d45e7-14c1-4523-8421-e17af3c598fa","system_id":"levelo_inurba_marseille","lat":43.29573,"lon":5.367355,"is_reserved":false,"is_disabled":false,"rental_uris":{"android":"levelo://app?vid=5e1d45e7-14c1-4523-8421-e17af3c598fa","ios":"levelo://app?vid=5e1d45e7-14c1-4523-8421-e17af3c598fa"},"vehicle_type_id":"4","last_reported":1701255959,"current_range_meters":6800,"station_id":"ce4bgph2rcd13ifvqc2g","pricing_plan_id":"free"},{"bike_id":"581cc7f5-12dd-4001-b433-2696b327d765","system_id":"levelo_inurba_marseille","lat":43.296131,"lon":5.370791,"is_reserved":false,"is_disabled":false,"rental_uris":{"android":"levelo://app?vid=581cc7f5-12dd-4001-b433-2696b327d765","ios":"levelo://app?vid=581cc7f5-12dd-4001-b433-2696b327d765"},"vehicle_type_id":"4","last_reported":1701255959,"current_range_meters":26400,"station_id":"ce4bgnh2rcd13ifvqc0g","pricing_plan_id":"free"},{"bike_id":"554c9365-5e77-41bd-a9e2-8c9bf1badc7e","system_id":"levelo_inurba_marseille","lat":43.296131,"lon":5.370791,"is_reserved":false,"is_disabled":false,"rental_uris":{"android":"levelo://app?vid=554c9365-5e77-41bd-a9e2-8c9bf1badc7e","ios":"levelo://app?vid=554c9365-5e77-41bd-a9e2-8c9bf1badc7e"},"vehicle_type_id":"4","last_reported":1701255959,"current_range_meters":9200,"station_id":"ce4bgnh2rcd13ifvqc0g","pricing_plan_id":"free"},{"bike_id":"343dbfed-ec90-48d2-94fb-ea9426ab44d1","system_id":"levelo_inurba_marseille","lat":43.296129,"lon":5.370777,"is_reserved":false,"is_disabled":false,"rental_uris":{"android":"levelo://app?vid=343dbfed-ec90-48d2-94fb-ea9426ab44d1","ios":"levelo://app?vid=343dbfed-ec90-48d2-94fb-ea9426ab44d1"},"vehicle_type_id":"4","last_reported":1701255959,"current_range_meters":8000,"station_id":"ce4bgnh2rcd13ifvqc0g","pricing_plan_id":"free"},{"bike_id":"b46a7824-3f2f-455a-ba33-803bc434f69d","system_id":"levelo_inurba_marseille","lat":43.296131,"lon":5.370791,"is_reserved":false,"is_disabled":false,"rental_uris":{"android":"levelo://app?vid=b46a7824-3f2f-455a-ba33-803bc434f69d","ios":"levelo://app?vid=b46a7824-3f2f-455a-ba33-803bc434f69d"},"vehicle_type_id":"4","last_reported":1701255959,"current_range_meters":26400,"station_id":"ce4bgnh2rcd13ifvqc0g","pricing_plan_id":"free"},{"bike_id":"469098c4-e404-497f-9687-a6b3c71a05a0","system_id":"levelo_inurba_marseille","lat":43.296131,"lon":5.370791,"is_reserved":false,"is_disabled":false,"rental_uris":{"android":"levelo://app?vid=469098c4-e404-497f-9687-a6b3c71a05a0","ios":"levelo://app?vid=469098c4-e404-497f-9687-a6b3c71a05a0"},"vehicle_type_id":"4","last_reported":1701255959,"current_range_meters":28800,"station_id":"ce4bgnh2rcd13ifvqc0g","pricing_plan_id":"free"},{"bike_id":"66f49135-df8a-4320-8242-73c42cb5196e","system_id":"levelo_inurba_marseille","lat":43.296129,"lon":5.370777,"is_reserved":false,"is_disabled":false,"rental_uris":{"android":"levelo://app?vid=66f49135-df8a-4320-8242-73c42cb5196e","ios":"levelo://app?vid=66f49135-df8a-4320-8242-73c42cb5196e"},"vehicle_type_id":"4","last_reported":1701255959,"current_range_meters":25600,"station_id":"ce4bgnh2rcd13ifvqc0g","pricing_plan_id":"free"},{"bike_id":"b6826001-a239-47f9-a2fa-23dbcaf02547","system_id":"levelo_inurba_marseille","lat":43.29573,"lon":5.367355,"is_reserved":false,"is_disabled":false,"rental_uris":{"android":"levelo://app?vid=b6826001-a239-47f9-a2fa-23dbcaf02547","ios":"levelo://app?vid=b6826001-a239-47f9-a2fa-23dbcaf02547"},"vehicle_type_id":"4","last_reported":1701255959,"current_range_meters":13600,"station_id":"ce4bgph2rcd13ifvqc2g","pricing_plan_id":"free"},{"bike_id":"6f258737-02df-4a11-b2ee-2f3bab3a75e0","system_id":"levelo_inurba_marseille","lat":43.29573,"lon":5.367355,"is_reserved":false,"is_disabled":false,"rental_uris":{"android":"levelo://app?vid=6f258737-02df-4a11-b2ee-2f3bab3a75e0","ios":"levelo://app?vid=6f258737-02df-4a11-b2ee-2f3bab3a75e0"},"vehicle_type_id":"4","last_reported":1701255959,"current_range_meters":30400,"station_id":"ce4bgph2rcd13ifvqc2g","pricing_plan_id":"free"},{"bike_id":"cf3c6180-0018-4496-ac8c-076e621118a6","system_id":"levelo_inurba_marseille","lat":43.29573,"lon":5.367355,"is_reserved":false,"is_disabled":false,"rental_uris":{"android":"levelo://app?vid=cf3c6180-0018-4496-ac8c-076e621118a6","ios":"levelo://app?vid=cf3c6180-0018-4496-ac8c-076e621118a6"},"vehicle_type_id":"4","last_reported":1701255959,"current_range_meters":16800,"station_id":"ce4bgph2rcd13ifvqc2g","pricing_plan_id":"free"},{"bike_id":"31b67432-db9c-4555-92a0-002895bbda52","system_id":"levelo_inurba_marseille","lat":43.29573,"lon":5.367355,"is_reserved":false,"is_disabled":false,"rental_uris":{"android":"levelo://app?vid=31b67432-db9c-4555-92a0-002895bbda52","ios":"levelo://app?vid=31b67432-db9c-4555-92a0-002895bbda52"},"vehicle_type_id":"4","last_reported":1701255959,"current_range_meters":30000,"station_id":"ce4bgph2rcd13ifvqc2g","pricing_plan_id":"free"},{"bike_id":"de02ba53-b4d0-420a-8b10-671b91c642d5","system_id":"levelo_inurba_marseille","lat":43.29573,"lon":5.367355,"is_reserved":false,"is_disabled":false,"rental_uris":{"android":"levelo://app?vid=de02ba53-b4d0-420a-8b10-671b91c642d5","ios":"levelo://app?vid=de02ba53-b4d0-420a-8b10-671b91c642d5"},"vehicle_type_id":"4","last_reported":1701255959,"current_range_meters":32000,"station_id":"ce4bgph2rcd13ifvqc2g","pricing_plan_id":"free"},{"bike_id":"bf135f91-724c-40af-98ab-d3f3226959cb","system_id":"levelo_inurba_marseille","lat":43.29573,"lon":5.367355,"is_reserved":false,"is_disabled":false,"rental_uris":{"android":"levelo://app?vid=bf135f91-724c-40af-98ab-d3f3226959cb","ios":"levelo://app?vid=bf135f91-724c-40af-98ab-d3f3226959cb"},"vehicle_type_id":"4","last_reported":1701255959,"current_range_meters":20800,"station_id":"ce4bgph2rcd13ifvqc2g","pricing_plan_id":"free"},{"bike_id":"55abca38-1478-4362-a690-40922d7b1605","system_id":"levelo_inurba_marseille","lat":43.29573,"lon":5.367355,"is_reserved":false,"is_disabled":false,"rental_uris":{"android":"levelo://app?vid=55abca38-1478-4362-a690-40922d7b1605","ios":"levelo://app?vid=55abca38-1478-4362-a690-40922d7b1605"},"vehicle_type_id":"4","last_reported":1701255959,"current_range_meters":14000,"station_id":"ce4bgph2rcd13ifvqc2g","pricing_plan_id":"free"},{"bike_id":"bec4fcdc-f7dd-42dc-bada-59478e6a7ca6","system_id":"levelo_inurba_marseille","lat":43.29573,"lon":5.367355,"is_reserved":false,"is_disabled":false,"rental_uris":{"android":"levelo://app?vid=bec4fcdc-f7dd-42dc-bada-59478e6a7ca6","ios":"levelo://app?vid=bec4fcdc-f7dd-42dc-bada-59478e6a7ca6"},"vehicle_type_id":"4","last_reported":1701255959,"current_range_meters":21600,"station_id":"ce4bgph2rcd13ifvqc2g","pricing_plan_id":"free"},{"bike_id":"28e516e2-3b8c-4cc2-a304-a9d55f71c81b","system_id":"levelo_inurba_marseille","lat":43.29573,"lon":5.367355,"is_reserved":false,"is_disabled":false,"rental_uris":{"android":"levelo://app?vid=28e516e2-3b8c-4cc2-a304-a9d55f71c81b","ios":"levelo://app?vid=28e516e2-3b8c-4cc2-a304-a9d55f71c81b"},"vehicle_type_id":"4","last_reported":1701255959,"current_range_meters":7600,"station_id":"ce4bgph2rcd13ifvqc2g","pricing_plan_id":"free"},{"bike_id":"9241110b-e67d-420e-b4d1-9e51066ec29b","system_id":"levelo_inurba_marseille","lat":43.29573,"lon":5.367355,"is_reserved":false,"is_disabled":false,"rental_uris":{"android":"levelo://app?vid=9241110b-e67d-420e-b4d1-9e51066ec29b","ios":"levelo://app?vid=9241110b-e67d-420e-b4d1-9e51066ec29b"},"vehicle_type_id":"4","last_reported":1701255959,"current_range_meters":22800,"station_id":"ce4bgph2rcd13ifvqc2g","pricing_plan_id":"free"},{"bike_id":"36428716-0426-4936-8900-abe9189938f6","system_id":"levelo_inurba_marseille","lat":43.309589,"lon":5.390258,"is_reserved":false,"is_disabled":false,"rental_uris":{"android":"levelo://app?vid=36428716-0426-4936-8900-abe9189938f6","ios":"levelo://app?vid=36428716-0426-4936-8900-abe9189938f6"},"vehicle_type_id":"4","last_reported":1701255959,"current_range_meters":1600,"station_id":"ce4bgup2rcd13ifvqco0","pricing_plan_id":"free"},{"bike_id":"dbb4b5ec-b82b-45ec-a4e8-d13a258566b0","system_id":"levelo_inurba_marseille","lat":43.309589,"lon":5.390258,"is_reserved":false,"is_disabled":false,"rental_uris":{"android":"levelo://app?vid=dbb4b5ec-b82b-45ec-a4e8-d13a258566b0","ios":"levelo://app?vid=dbb4b5ec-b82b-45ec-a4e8-d13a258566b0"},"vehicle_type_id":"4","last_reported":1701255959,"current_range_meters":17600,"station_id":"ce4bgup2rcd13ifvqco0","pricing_plan_id":"free"},{"bike_id":"11c301c7-9f2c-4922-b562-d809b72ddc66","system_id":"levelo_inurba_marseille","lat":43.309589,"lon":5.390258,"is_reserved":false,"is_disabled":false,"rental_uris":{"android":"levelo://app?vid=11c301c7-9f2c-4922-b562-d809b72ddc66","ios":"levelo://app?vid=11c301c7-9f2c-4922-b562-d809b72ddc66"},"vehicle_type_id":"4","last_reported":1701255959,"current_range_meters":24800,"station_id":"ce4bgup2rcd13ifvqco0","pricing_plan_id":"free"},{"bike_id":"621b5bf3-644f-42a6-95f8-105b11a3b9a1","system_id":"levelo_inurba_marseille","lat":43.309589,"lon":5.390258,"is_reserved":false,"is_disabled":false,"rental_uris":{"android":"levelo://app?vid=621b5bf3-644f-42a6-95f8-105b11a3b9a1","ios":"levelo://app?vid=621b5bf3-644f-42a6-95f8-105b11a3b9a1"},"vehicle_type_id":"4","last_reported":1701255959,"current_range_meters":17600,"station_id":"ce4bgup2rcd13ifvqco0","pricing_plan_id":"free"},{"bike_id":"30c93d3b-76d5-4a73-a4d9-e0b6231348a5","system_id":"levelo_inurba_marseille","lat":43.298037,"lon":5.381066,"is_reserved":false,"is_disabled":false,"rental_uris":{"android":"levelo://app?vid=30c93d3b-76d5-4a73-a4d9-e0b6231348a5","ios":"levelo://app?vid=30c93d3b-76d5-4a73-a4d9-e0b6231348a5"},"vehicle_type_id":"4","last_reported":1701255959,"current_range_meters":21600,"station_id":"ce4bgip2rcd13ifvqbb0","pricing_plan_id":"free"},{"bike_id":"808b5ead-b6c0-4fbc-9ea3-63cf1f6612dd","system_id":"levelo_inurba_marseille","lat":43.298037,"lon":5.381066,"is_reserved":false,"is_disabled":false,"rental_uris":{"android":"levelo://app?vid=808b5ead-b6c0-4fbc-9ea3-63cf1f6612dd","ios":"levelo://app?vid=808b5ead-b6c0-4fbc-9ea3-63cf1f6612dd"},"vehicle_type_id":"4","last_reported":1701255959,"current_range_meters":24800,"station_id":"ce4bgip2rcd13ifvqbb0","pricing_plan_id":"free"},{"bike_id":"f830081e-e736-41e9-91ac-458e2b3468c2","system_id":"levelo_inurba_marseille","lat":43.304274,"lon":5.388873,"is_reserved":false,"is_disabled":false,"rental_uris":{"android":"levelo://app?vid=f830081e-e736-41e9-91ac-458e2b3468c2","ios":"levelo://app?vid=f830081e-e736-41e9-91ac-458e2b3468c2"},"vehicle_type_id":"4","last_reported":1701255959,"current_range_meters":27600,"station_id":"ce4bgk12rcd13ifvqbi0","pricing_plan_id":"free"},{"bike_id":"ad4a8483-9755-4b8f-a15b-c8206a49b891","system_id":"levelo_inurba_marseille","lat":43.298037,"lon":5.381066,"is_reserved":false,"is_disabled":false,"rental_uris":{"android":"levelo://app?vid=ad4a8483-9755-4b8f-a15b-c8206a49b891","ios":"levelo://app?vid=ad4a8483-9755-4b8f-a15b-c8206a49b891"},"vehicle_type_id":"4","last_reported":1701255959,"current_range_meters":14400,"station_id":"ce4bgip2rcd13ifvqbb0","pricing_plan_id":"free"},{"bike_id":"e1b1254b-5cde-4704-a5d4-7372b1c0626f","system_id":"levelo_inurba_marseille","lat":43.298037,"lon":5.381066,"is_reserved":false,"is_disabled":false,"rental_uris":{"android":"levelo://app?vid=e1b1254b-5cde-4704-a5d4-7372b1c0626f","ios":"levelo://app?vid=e1b1254b-5cde-4704-a5d4-7372b1c0626f"},"vehicle_type_id":"4","last_reported":1701255959,"current_range_meters":19200,"station_id":"ce4bgip2rcd13ifvqbb0","pricing_plan_id":"free"},{"bike_id":"6b7a9dcf-e2ea-497f-9abb-017a298e7efe","system_id":"levelo_inurba_marseille","lat":43.3043,"lon":5.38892,"is_reserved":false,"is_disabled":false,"rental_uris":{"android":"levelo://app?vid=6b7a9dcf-e2ea-497f-9abb-017a298e7efe","ios":"levelo://app?vid=6b7a9dcf-e2ea-497f-9abb-017a298e7efe"},"vehicle_type_id":"4","last_reported":1701255959,"current_range_meters":800,"station_id":"ce4bgk12rcd13ifvqbi0","pricing_plan_id":"free"},{"bike_id":"59a86662-7c26-48fd-b2ce-5b4351b916e1","system_id":"levelo_inurba_marseille","lat":43.299788,"lon":5.385005,"is_reserved":false,"is_disabled":false,"rental_uris":{"android":"levelo://app?vid=59a86662-7c26-48fd-b2ce-5b4351b916e1","ios":"levelo://app?vid=59a86662-7c26-48fd-b2ce-5b4351b916e1"},"vehicle_type_id":"4","last_reported":1701255959,"current_range_meters":0,"station_id":"ce4bgj92rcd13ifvqbd0","pricing_plan_id":"free"},{"bike_id":"a4597809-a742-478d-8e6b-17f52ef94a1d","system_id":"levelo_inurba_marseille","lat":43.293259,"lon":5.371586,"is_reserved":false,"is_disabled":false,"rental_uris":{"android":"levelo://app?vid=a4597809-a742-478d-8e6b-17f52ef94a1d","ios":"levelo://app?vid=a4597809-a742-478d-8e6b-17f52ef94a1d"},"vehicle_type_id":"4","last_reported":1701255959,"current_range_meters":2400,"station_id":"ce4bgh92rcd13ifvqb40","pricing_plan_id":"free"},{"bike_id":"13c3ad88-69d2-481e-9058-3c911582daf1","system_id":"levelo_inurba_marseille","lat":43.292602,"lon":5.376349,"is_reserved":false,"is_disabled":false,"rental_uris":{"android":"levelo://app?vid=13c3ad88-69d2-481e-9058-3c911582daf1","ios":"levelo://app?vid=13c3ad88-69d2-481e-9058-3c911582daf1"},"vehicle_type_id":"4","last_reported":1701255959,"current_range_meters":31200,"station_id":"","pricing_plan_id":"free"},{"bike_id":"217a37d7-21b7-466b-8fe1-2c18ececb02c","system_id":"levelo_inurba_marseille","lat":43.298764,"lon":5.388973,"is_reserved":false,"is_disabled":false,"rental_uris":{"android":"levelo://app?vid=217a37d7-21b7-466b-8fe1-2c18ececb02c","ios":"levelo://app?vid=217a37d7-21b7-466b-8fe1-2c18ececb02c"},"vehicle_type_id":"4","last_reported":1701255959,"current_range_meters":5200,"station_id":"ce4bh392rcd13ifvqdl0","pricing_plan_id":"free"},{"bike_id":"3d724297-ad05-4458-8e31-7a2e373a7a09","system_id":"levelo_inurba_marseille","lat":43.291994,"lon":5.357886,"is_reserved":false,"is_disabled":false,"rental_uris":{"android":"levelo://app?vid=3d724297-ad05-4458-8e31-7a2e373a7a09","ios":"levelo://app?vid=3d724297-ad05-4458-8e31-7a2e373a7a09"},"vehicle_type_id":"4","last_reported":1701255959,"current_range_meters":30400,"station_id":"ce4bhb12rcd13ifvqel0","pricing_plan_id":"free"},{"bike_id":"3d6375ef-768c-4d1b-8a57-7417aa14c135","system_id":"levelo_inurba_marseille","lat":43.313291,"lon":5.396838,"is_reserved":false,"is_disabled":false,"rental_uris":{"android":"levelo://app?vid=3d6375ef-768c-4d1b-8a57-7417aa14c135","ios":"levelo://app?vid=3d6375ef-768c-4d1b-8a57-7417aa14c135"},"vehicle_type_id":"4","last_reported":1701255959,"current_range_meters":5600,"station_id":"ce4bgvp2rcd13ifvqcu0","pricing_plan_id":"free"},{"bike_id":"393e447f-e5b7-48a4-9097-4c6cb9af4d55","system_id":"levelo_inurba_marseille","lat":43.295402,"lon":5.385516,"is_reserved":false,"is_disabled":false,"rental_uris":{"android":"levelo://app?vid=393e447f-e5b7-48a4-9097-4c6cb9af4d55","ios":"levelo://app?vid=393e447f-e5b7-48a4-9097-4c6cb9af4d55"},"vehicle_type_id":"4","last_reported":1701255959,"current_range_meters":0,"station_id":"ce4bgih2rcd13ifvqba0","pricing_plan_id":"free"},{"bike_id":"2e65144f-827d-4a58-b3a6-f1cf5487e0f6","system_id":"levelo_inurba_marseille","lat":43.290624,"lon":5.359245,"is_reserved":false,"is_disabled":false,"rental_uris":{"android":"levelo://app?vid=2e65144f-827d-4a58-b3a6-f1cf5487e0f6","ios":"levelo://app?vid=2e65144f-827d-4a58-b3a6-f1cf5487e0f6"},"vehicle_type_id":"4","last_reported":1701255959,"current_range_meters":14800,"station_id":"ce4bha92rcd13ifvqeg0","pricing_plan_id":"free"},{"bike_id":"74aaa759-3f91-414d-b0f0-404a8af84791","system_id":"levelo_inurba_marseille","lat":43.294153,"lon":5.386305,"is_reserved":false,"is_disabled":false,"rental_uris":{"android":"levelo://app?vid=74aaa759-3f91-414d-b0f0-404a8af84791","ios":"levelo://app?vid=74aaa759-3f91-414d-b0f0-404a8af84791"},"vehicle_type_id":"4","last_reported":1701255959,"current_range_meters":0,"station_id":"ce4bh2h2rcd13ifvqdh0","pricing_plan_id":"free"},{"bike_id":"144b1fa9-f651-4cd7-90ea-72644d19f5ad","system_id":"levelo_inurba_marseille","lat":43.289184,"lon":5.366408,"is_reserved":false,"is_disabled":false,"rental_uris":{"android":"levelo://app?vid=144b1fa9-f651-4cd7-90ea-72644d19f5ad","ios":"levelo://app?vid=144b1fa9-f651-4cd7-90ea-72644d19f5ad"},"vehicle_type_id":"4","last_reported":1701255959,"current_range_meters":10000,"station_id":"ce4bhap2rcd13ifvqek0","pricing_plan_id":"free"},{"bike_id":"89516bfb-f396-43b8-bde8-3975f97f4a05","system_id":"levelo_inurba_marseille","lat":43.292642,"lon":5.384254,"is_reserved":false,"is_disabled":false,"rental_uris":{"android":"levelo://app?vid=89516bfb-f396-43b8-bde8-3975f97f4a05","ios":"levelo://app?vid=89516bfb-f396-43b8-bde8-3975f97f4a05"},"vehicle_type_id":"4","last_reported":1701255959,"current_range_meters":14000,"station_id":"ce4bh692rcd13ifvqea0","pricing_plan_id":"free"},{"bike_id":"68344523-a6d0-4651-8cbe-8bd4eff5448d","system_id":"levelo_inurba_marseille","lat":43.304296,"lon":5.397513,"is_reserved":false,"is_disabled":false,"rental_uris":{"android":"levelo://app?vid=68344523-a6d0-4651-8cbe-8bd4eff5448d","ios":"levelo://app?vid=68344523-a6d0-4651-8cbe-8bd4eff5448d"},"vehicle_type_id":"4","last_reported":1701255959,"current_range_meters":4400,"station_id":"ce4bh092rcd13ifvqd20","pricing_plan_id":"free"},{"bike_id":"4c04035d-e3d7-4d19-8260-5c65c2a2853f","system_id":"levelo_inurba_marseille","lat":43.289743,"lon":5.378304,"is_reserved":false,"is_disabled":false,"rental_uris":{"android":"levelo://app?vid=4c04035d-e3d7-4d19-8260-5c65c2a2853f","ios":"levelo://app?vid=4c04035d-e3d7-4d19-8260-5c65c2a2853f"},"vehicle_type_id":"4","last_reported":1701255959,"current_range_meters":31200,"station_id":"ce4bh9p2rcd13ifvqed0","pricing_plan_id":"free"},{"bike_id":"fadc943d-6dcd-4cd7-95d0-0231878f44d2","system_id":"levelo_inurba_marseille","lat":43.28856,"lon":5.358371,"is_reserved":false,"is_disabled":false,"rental_uris":{"android":"levelo://app?vid=fadc943d-6dcd-4cd7-95d0-0231878f44d2","ios":"levelo://app?vid=fadc943d-6dcd-4cd7-95d0-0231878f44d2"},"vehicle_type_id":"4","last_reported":1701255959,"current_range_meters":4400,"station_id":"ce4bhb12rcd13ifvqem0","pricing_plan_id":"free"},{"bike_id":"ba1fe94d-1dc7-4698-bd74-f860628d3dc3","system_id":"levelo_inurba_marseille","lat":43.28856,"lon":5.358371,"is_reserved":false,"is_disabled":false,"rental_uris":{"android":"levelo://app?vid=ba1fe94d-1dc7-4698-bd74-f860628d3dc3","ios":"levelo://app?vid=ba1fe94d-1dc7-4698-bd74-f860628d3dc3"},"vehicle_type_id":"4","last_reported":1701255959,"current_range_meters":0,"station_id":"ce4bhb12rcd13ifvqem0","pricing_plan_id":"free"},{"bike_id":"fffbc62a-2cb2-4bd9-b747-0ffed4127da8","system_id":"levelo_inurba_marseille","lat":43.312609,"lon":5.401662,"is_reserved":false,"is_disabled":false,"rental_uris":{"android":"levelo://app?vid=fffbc62a-2cb2-4bd9-b747-0ffed4127da8","ios":"levelo://app?vid=fffbc62a-2cb2-4bd9-b747-0ffed4127da8"},"vehicle_type_id":"4","last_reported":1701255959,"current_range_meters":9200,"station_id":"ce4bh092rcd13ifvqd30","pricing_plan_id":"free"},{"bike_id":"46a0e7e4-75c2-4900-99ca-04287ccfc4ba","system_id":"levelo_inurba_marseille","lat":43.337808,"lon":5.37435,"is_reserved":false,"is_disabled":false,"rental_uris":{"android":"levelo://app?vid=46a0e7e4-75c2-4900-99ca-04287ccfc4ba","ios":"levelo://app?vid=46a0e7e4-75c2-4900-99ca-04287ccfc4ba"},"vehicle_type_id":"4","last_reported":1701255959,"current_range_meters":29600,"station_id":"","pricing_plan_id":"free"},{"bike_id":"5b7651f1-5478-4248-bd9f-f37b4aca6cd5","system_id":"levelo_inurba_marseille","lat":43.30134,"lon":5.39861,"is_reserved":false,"is_disabled":false,"rental_uris":{"android":"levelo://app?vid=5b7651f1-5478-4248-bd9f-f37b4aca6cd5","ios":"levelo://app?vid=5b7651f1-5478-4248-bd9f-f37b4aca6cd5"},"vehicle_type_id":"4","last_reported":1701255959,"current_range_meters":31200,"station_id":"ce4bh0h2rcd13ifvqd40","pricing_plan_id":"free"},{"bike_id":"06f1f254-6983-4006-8592-7414187a93dd","system_id":"levelo_inurba_marseille","lat":43.28727,"lon":5.36078,"is_reserved":false,"is_disabled":false,"rental_uris":{"android":"levelo://app?vid=06f1f254-6983-4006-8592-7414187a93dd","ios":"levelo://app?vid=06f1f254-6983-4006-8592-7414187a93dd"},"vehicle_type_id":"4","last_reported":1701255959,"current_range_meters":27200,"station_id":"cki0cbj6b192h4jlfktg","pricing_plan_id":"free"},{"bike_id":"3af743f4-d062-461f-855c-61e2f5ef1c1f","system_id":"levelo_inurba_marseille","lat":43.29045,"lon":5.38655,"is_reserved":false,"is_disabled":false,"rental_uris":{"android":"levelo://app?vid=3af743f4-d062-461f-855c-61e2f5ef1c1f","ios":"levelo://app?vid=3af743f4-d062-461f-855c-61e2f5ef1c1f"},"vehicle_type_id":"4","last_reported":1701255959,"current_range_meters":14000,"station_id":"ce4bh4p2rcd13ifvqe0g","pricing_plan_id":"free"},{"bike_id":"75a33e50-4d0c-491f-b74d-6f474cc8ff6a","system_id":"levelo_inurba_marseille","lat":43.302759,"lon":5.400793,"is_reserved":false,"is_disabled":false,"rental_uris":{"android":"levelo://app?vid=75a33e50-4d0c-491f-b74d-6f474cc8ff6a","ios":"levelo://app?vid=75a33e50-4d0c-491f-b74d-6f474cc8ff6a"},"vehicle_type_id":"4","last_reported":1701255959,"current_range_meters":21200,"station_id":"ce4bgvh2rcd13ifvqcs0","pricing_plan_id":"free"},{"bike_id":"732fb5cb-ebb5-4c49-ae69-dd5588214521","system_id":"levelo_inurba_marseille","lat":43.29036,"lon":5.38645,"is_reserved":false,"is_disabled":false,"rental_uris":{"android":"levelo://app?vid=732fb5cb-ebb5-4c49-ae69-dd5588214521","ios":"levelo://app?vid=732fb5cb-ebb5-4c49-ae69-dd5588214521"},"vehicle_type_id":"4","last_reported":1701255959,"current_range_meters":11600,"station_id":"ce4bh4p2rcd13ifvqe0g","pricing_plan_id":"free"},{"bike_id":"6aa15ab4-6909-4766-9c94-9831ad316bc3","system_id":"levelo_inurba_marseille","lat":43.2903,"lon":5.3864,"is_reserved":false,"is_disabled":false,"rental_uris":{"android":"levelo://app?vid=6aa15ab4-6909-4766-9c94-9831ad316bc3","ios":"levelo://app?vid=6aa15ab4-6909-4766-9c94-9831ad316bc3"},"vehicle_type_id":"4","last_reported":1701255959,"current_range_meters":27200,"station_id":"ce4bh4p2rcd13ifvqe0g","pricing_plan_id":"free"},{"bike_id":"0a24475a-b4bc-4b58-80e5-d6a991c0d462","system_id":"levelo_inurba_marseille","lat":43.302759,"lon":5.400793,"is_reserved":false,"is_disabled":false,"rental_uris":{"android":"levelo://app?vid=0a24475a-b4bc-4b58-80e5-d6a991c0d462","ios":"levelo://app?vid=0a24475a-b4bc-4b58-80e5-d6a991c0d462"},"vehicle_type_id":"4","last_reported":1701255959,"current_range_meters":23200,"station_id":"ce4bgvh2rcd13ifvqcs0","pricing_plan_id":"free"},{"bike_id":"ef931019-4c2d-4108-b7f6-e4a8b6a57ef3","system_id":"levelo_inurba_marseille","lat":43.286039,"lon":5.370681,"is_reserved":false,"is_disabled":false,"rental_uris":{"android":"levelo://app?vid=ef931019-4c2d-4108-b7f6-e4a8b6a57ef3","ios":"levelo://app?vid=ef931019-4c2d-4108-b7f6-e4a8b6a57ef3"},"vehicle_type_id":"4","last_reported":1701255959,"current_range_meters":22800,"station_id":"ce4bht12rcd13ifvqi60","pricing_plan_id":"free"},{"bike_id":"3de045d2-a0df-4ec2-b461-9a16310f710c","system_id":"levelo_inurba_marseille","lat":43.316523,"lon":5.404367,"is_reserved":false,"is_disabled":false,"rental_uris":{"android":"levelo://app?vid=3de045d2-a0df-4ec2-b461-9a16310f710c","ios":"levelo://app?vid=3de045d2-a0df-4ec2-b461-9a16310f710c"},"vehicle_type_id":"4","last_reported":1701255959,"current_range_meters":14000,"station_id":"ce4bh012rcd13ifvqd00","pricing_plan_id":"free"},{"bike_id":"d8777e73-65aa-4fb1-9956-c27abd4b1f54","system_id":"levelo_inurba_marseille","lat":43.291994,"lon":5.392907,"is_reserved":false,"is_disabled":false,"rental_uris":{"android":"levelo://app?vid=d8777e73-65aa-4fb1-9956-c27abd4b1f54","ios":"levelo://app?vid=d8777e73-65aa-4fb1-9956-c27abd4b1f54"},"vehicle_type_id":"4","last_reported":1701255959,"current_range_meters":10800,"station_id":"ce4bh192rcd13ifvqdd0","pricing_plan_id":"free"},{"bike_id":"1f77ff41-0e29-45bc-816c-2ca8a34c337b","system_id":"levelo_inurba_marseille","lat":43.284538,"lon":5.358657,"is_reserved":false,"is_disabled":false,"rental_uris":{"android":"levelo://app?vid=1f77ff41-0e29-45bc-816c-2ca8a34c337b","ios":"levelo://app?vid=1f77ff41-0e29-45bc-816c-2ca8a34c337b"},"vehicle_type_id":"4","last_reported":1701255959,"current_range_meters":21600,"station_id":"ce4bhah2rcd13ifvqei0","pricing_plan_id":"free"},{"bike_id":"2ada5f55-c1e2-4b20-b21b-9511fde4eb01","system_id":"levelo_inurba_marseille","lat":43.323464,"lon":5.406297,"is_reserved":false,"is_disabled":false,"rental_uris":{"android":"levelo://app?vid=2ada5f55-c1e2-4b20-b21b-9511fde4eb01","ios":"levelo://app?vid=2ada5f55-c1e2-4b20-b21b-9511fde4eb01"},"vehicle_type_id":"4","last_reported":1701255959,"current_range_meters":26000,"station_id":"ce4bhq92rcd13ifvqhjg","pricing_plan_id":"free"},{"bike_id":"411d5724-7a74-4603-9ed0-f5f46ca2fc42","system_id":"levelo_inurba_marseille","lat":43.297946,"lon":5.404063,"is_reserved":false,"is_disabled":false,"rental_uris":{"android":"levelo://app?vid=411d5724-7a74-4603-9ed0-f5f46ca2fc42","ios":"levelo://app?vid=411d5724-7a74-4603-9ed0-f5f46ca2fc42"},"vehicle_type_id":"4","last_reported":1701255959,"current_range_meters":15200,"station_id":"ce4bh112rcd13ifvqd90","pricing_plan_id":"free"},{"bike_id":"9306183b-1c05-4251-9ed8-fe313c4229ea","system_id":"levelo_inurba_marseille","lat":43.289363,"lon":5.396322,"is_reserved":false,"is_disabled":false,"rental_uris":{"android":"levelo://app?vid=9306183b-1c05-4251-9ed8-fe313c4229ea","ios":"levelo://app?vid=9306183b-1c05-4251-9ed8-fe313c4229ea"},"vehicle_type_id":"4","last_reported":1701255959,"current_range_meters":27200,"station_id":"ce4bh3h2rcd13ifvqdn0","pricing_plan_id":"free"},{"bike_id":"2bc9a4fe-575b-4178-a88c-398b98b412cd","system_id":"levelo_inurba_marseille","lat":43.289363,"lon":5.396322,"is_reserved":false,"is_disabled":false,"rental_uris":{"android":"levelo://app?vid=2bc9a4fe-575b-4178-a88c-398b98b412cd","ios":"levelo://app?vid=2bc9a4fe-575b-4178-a88c-398b98b412cd"},"vehicle_type_id":"4","last_reported":1701255959,"current_range_meters":23600,"station_id":"ce4bh3h2rcd13ifvqdn0","pricing_plan_id":"free"},{"bike_id":"eadaf802-388c-4822-90ff-6a508981e270","system_id":"levelo_inurba_marseille","lat":43.289363,"lon":5.396322,"is_reserved":false,"is_disabled":false,"rental_uris":{"android":"levelo://app?vid=eadaf802-388c-4822-90ff-6a508981e270","ios":"levelo://app?vid=eadaf802-388c-4822-90ff-6a508981e270"},"vehicle_type_id":"4","last_reported":1701255959,"current_range_meters":31200,"station_id":"ce4bh3h2rcd13ifvqdn0","pricing_plan_id":"free"},{"bike_id":"db1e5449-8a6e-497e-b598-a049d7d9cb9c","system_id":"levelo_inurba_marseille","lat":43.282754,"lon":5.350519,"is_reserved":false,"is_disabled":false,"rental_uris":{"android":"levelo://app?vid=db1e5449-8a6e-497e-b598-a049d7d9cb9c","ios":"levelo://app?vid=db1e5449-8a6e-497e-b598-a049d7d9cb9c"},"vehicle_type_id":"4","last_reported":1701255959,"current_range_meters":1200,"station_id":"ce4bhbp2rcd13ifvqerg","pricing_plan_id":"free"},{"bike_id":"32cbebda-875a-42bc-896d-d0c6c998df95","system_id":"levelo_inurba_marseille","lat":43.282754,"lon":5.350519,"is_reserved":false,"is_disabled":false,"rental_uris":{"android":"levelo://app?vid=32cbebda-875a-42bc-896d-d0c6c998df95","ios":"levelo://app?vid=32cbebda-875a-42bc-896d-d0c6c998df95"},"vehicle_type_id":"4","last_reported":1701255959,"current_range_meters":12400,"station_id":"ce4bhbp2rcd13ifvqerg","pricing_plan_id":"free"},{"bike_id":"e92d8d03-6a7a-4124-a210-14e92e5a5dfb","system_id":"levelo_inurba_marseille","lat":43.282754,"lon":5.350519,"is_reserved":false,"is_disabled":false,"rental_uris":{"android":"levelo://app?vid=e92d8d03-6a7a-4124-a210-14e92e5a5dfb","ios":"levelo://app?vid=e92d8d03-6a7a-4124-a210-14e92e5a5dfb"},"vehicle_type_id":"4","last_reported":1701255959,"current_range_meters":0,"station_id":"ce4bhbp2rcd13ifvqerg","pricing_plan_id":"free"},{"bike_id":"f3d2a6ed-efb3-4576-a44e-f7b740041b3c","system_id":"levelo_inurba_marseille","lat":43.282754,"lon":5.350519,"is_reserved":false,"is_disabled":false,"rental_uris":{"android":"levelo://app?vid=f3d2a6ed-efb3-4576-a44e-f7b740041b3c","ios":"levelo://app?vid=f3d2a6ed-efb3-4576-a44e-f7b740041b3c"},"vehicle_type_id":"4","last_reported":1701255959,"current_range_meters":2800,"station_id":"ce4bhbp2rcd13ifvqerg","pricing_plan_id":"free"},{"bike_id":"34201fa8-0a21-4060-a090-17ff1ea21c69","system_id":"levelo_inurba_marseille","lat":43.283502,"lon":5.386471,"is_reserved":false,"is_disabled":false,"rental_uris":{"android":"levelo://app?vid=34201fa8-0a21-4060-a090-17ff1ea21c69","ios":"levelo://app?vid=34201fa8-0a21-4060-a090-17ff1ea21c69"},"vehicle_type_id":"4","last_reported":1701255959,"current_range_meters":28800,"station_id":"ce4bh492rcd13ifvqdvg","pricing_plan_id":"free"},{"bike_id":"0352d8c9-2730-40fd-81ce-746e28d8cb83","system_id":"levelo_inurba_marseille","lat":43.28039,"lon":5.369297,"is_reserved":false,"is_disabled":false,"rental_uris":{"android":"levelo://app?vid=0352d8c9-2730-40fd-81ce-746e28d8cb83","ios":"levelo://app?vid=0352d8c9-2730-40fd-81ce-746e28d8cb83"},"vehicle_type_id":"4","last_reported":1701255959,"current_range_meters":12800,"station_id":"ce4bha12rcd13ifvqef0","pricing_plan_id":"free"},{"bike_id":"63f0d3d3-e0bf-4223-8d57-9d69cb19fc5f","system_id":"levelo_inurba_marseille","lat":43.28039,"lon":5.369297,"is_reserved":false,"is_disabled":false,"rental_uris":{"android":"levelo://app?vid=63f0d3d3-e0bf-4223-8d57-9d69cb19fc5f","ios":"levelo://app?vid=63f0d3d3-e0bf-4223-8d57-9d69cb19fc5f"},"vehicle_type_id":"4","last_reported":1701255959,"current_range_meters":15200,"station_id":"ce4bha12rcd13ifvqef0","pricing_plan_id":"free"},{"bike_id":"4b5a29c5-59ab-4d76-865b-31890cae4a53","system_id":"levelo_inurba_marseille","lat":43.278401,"lon":5.392152,"is_reserved":false,"is_disabled":false,"rental_uris":{"android":"levelo://app?vid=4b5a29c5-59ab-4d76-865b-31890cae4a53","ios":"levelo://app?vid=4b5a29c5-59ab-4d76-865b-31890cae4a53"},"vehicle_type_id":"4","last_reported":1701255959,"current_range_meters":29600,"station_id":"ce4bhjp2rcd13ifvqga0","pricing_plan_id":"free"},{"bike_id":"18e095c5-5b36-4f09-85d6-45606f04bc30","system_id":"levelo_inurba_marseille","lat":43.296263,"lon":5.40601,"is_reserved":false,"is_disabled":false,"rental_uris":{"android":"levelo://app?vid=18e095c5-5b36-4f09-85d6-45606f04bc30","ios":"levelo://app?vid=18e095c5-5b36-4f09-85d6-45606f04bc30"},"vehicle_type_id":"4","last_reported":1701255959,"current_range_meters":26800,"station_id":"ce4bh0h2rcd13ifvqd60","pricing_plan_id":"free"},{"bike_id":"a9f43082-77f5-42b9-91ee-9c18fd355d7a","system_id":"levelo_inurba_marseille","lat":43.296263,"lon":5.40601,"is_reserved":false,"is_disabled":false,"rental_uris":{"android":"levelo://app?vid=a9f43082-77f5-42b9-91ee-9c18fd355d7a","ios":"levelo://app?vid=a9f43082-77f5-42b9-91ee-9c18fd355d7a"},"vehicle_type_id":"4","last_reported":1701255959,"current_range_meters":0,"station_id":"ce4bh0h2rcd13ifvqd60","pricing_plan_id":"free"},{"bike_id":"7bd8cac3-023b-4e27-8aea-c64bd44e49ab","system_id":"levelo_inurba_marseille","lat":43.326605,"lon":5.409903,"is_reserved":false,"is_disabled":false,"rental_uris":{"android":"levelo://app?vid=7bd8cac3-023b-4e27-8aea-c64bd44e49ab","ios":"levelo://app?vid=7bd8cac3-023b-4e27-8aea-c64bd44e49ab"},"vehicle_type_id":"4","last_reported":1701255959,"current_range_meters":13600,"station_id":"ce4bhpp2rcd13ifvqhgg","pricing_plan_id":"free"},{"bike_id":"5b80a59c-2e99-4966-8888-4029d7a8bf02","system_id":"levelo_inurba_marseille","lat":43.304188,"lon":5.412904,"is_reserved":false,"is_disabled":false,"rental_uris":{"android":"levelo://app?vid=5b80a59c-2e99-4966-8888-4029d7a8bf02","ios":"levelo://app?vid=5b80a59c-2e99-4966-8888-4029d7a8bf02"},"vehicle_type_id":"4","last_reported":1701255959,"current_range_meters":26400,"station_id":"ce4bhop2rcd13ifvqh8g","pricing_plan_id":"free"},{"bike_id":"8cbe4efd-dfdf-48ac-81f1-104869adf1e5","system_id":"levelo_inurba_marseille","lat":43.30422,"lon":5.41278,"is_reserved":false,"is_disabled":false,"rental_uris":{"android":"levelo://app?vid=8cbe4efd-dfdf-48ac-81f1-104869adf1e5","ios":"levelo://app?vid=8cbe4efd-dfdf-48ac-81f1-104869adf1e5"},"vehicle_type_id":"4","last_reported":1701255959,"current_range_meters":3600,"station_id":"ce4bhop2rcd13ifvqh8g","pricing_plan_id":"free"},{"bike_id":"cb728fa2-b2c9-4a28-9492-c213c77459fc","system_id":"levelo_inurba_marseille","lat":43.279087,"lon":5.380114,"is_reserved":false,"is_disabled":false,"rental_uris":{"android":"levelo://app?vid=cb728fa2-b2c9-4a28-9492-c213c77459fc","ios":"levelo://app?vid=cb728fa2-b2c9-4a28-9492-c213c77459fc"},"vehicle_type_id":"4","last_reported":1701255959,"current_range_meters":12000,"station_id":"ce4bhf92rcd13ifvqf50","pricing_plan_id":"free"},{"bike_id":"35e6e270-16b3-4985-a463-147a174adf29","system_id":"levelo_inurba_marseille","lat":43.287154,"lon":5.399979,"is_reserved":false,"is_disabled":false,"rental_uris":{"android":"levelo://app?vid=35e6e270-16b3-4985-a463-147a174adf29","ios":"levelo://app?vid=35e6e270-16b3-4985-a463-147a174adf29"},"vehicle_type_id":"4","last_reported":1701255959,"current_range_meters":24000,"station_id":"ce4bho92rcd13ifvqh3g","pricing_plan_id":"free"},{"bike_id":"553703cc-a198-4b7c-b4f7-88e7d2d9a97c","system_id":"levelo_inurba_marseille","lat":43.299579,"lon":5.413255,"is_reserved":false,"is_disabled":false,"rental_uris":{"android":"levelo://app?vid=553703cc-a198-4b7c-b4f7-88e7d2d9a97c","ios":"levelo://app?vid=553703cc-a198-4b7c-b4f7-88e7d2d9a97c"},"vehicle_type_id":"4","last_reported":1701255959,"current_range_meters":27200,"station_id":"ce4bhp12rcd13ifvqh9g","pricing_plan_id":"free"},{"bike_id":"b9fbdf56-3017-4c3d-88f0-d30853b85571","system_id":"levelo_inurba_marseille","lat":43.27618,"lon":5.361009,"is_reserved":false,"is_disabled":false,"rental_uris":{"android":"levelo://app?vid=b9fbdf56-3017-4c3d-88f0-d30853b85571","ios":"levelo://app?vid=b9fbdf56-3017-4c3d-88f0-d30853b85571"},"vehicle_type_id":"4","last_reported":1701255959,"current_range_meters":19600,"station_id":"ce4bgj92rcd13ifvqbe0","pricing_plan_id":"free"},{"bike_id":"efdb73de-178a-4424-a01c-48e24ea43a91","system_id":"levelo_inurba_marseille","lat":43.278399,"lon":5.392139,"is_reserved":false,"is_disabled":false,"rental_uris":{"android":"levelo://app?vid=efdb73de-178a-4424-a01c-48e24ea43a91","ios":"levelo://app?vid=efdb73de-178a-4424-a01c-48e24ea43a91"},"vehicle_type_id":"4","last_reported":1701255959,"current_range_meters":7200,"station_id":"ce4bhjp2rcd13ifvqga0","pricing_plan_id":"free"},{"bike_id":"6c35445f-c0ba-4e58-bc8e-fce774fec091","system_id":"levelo_inurba_marseille","lat":43.278401,"lon":5.392152,"is_reserved":false,"is_disabled":false,"rental_uris":{"android":"levelo://app?vid=6c35445f-c0ba-4e58-bc8e-fce774fec091","ios":"levelo://app?vid=6c35445f-c0ba-4e58-bc8e-fce774fec091"},"vehicle_type_id":"4","last_reported":1701255959,"current_range_meters":16000,"station_id":"ce4bhjp2rcd13ifvqga0","pricing_plan_id":"free"},{"bike_id":"7d43759e-6596-45d2-87d1-a2a0f19c6f4e","system_id":"levelo_inurba_marseille","lat":43.273613,"lon":5.362705,"is_reserved":false,"is_disabled":false,"rental_uris":{"android":"levelo://app?vid=7d43759e-6596-45d2-87d1-a2a0f19c6f4e","ios":"levelo://app?vid=7d43759e-6596-45d2-87d1-a2a0f19c6f4e"},"vehicle_type_id":"4","last_reported":1701255959,"current_range_meters":3600,"station_id":"ce4bhbh2rcd13ifvqeo0","pricing_plan_id":"free"},{"bike_id":"15335e04-2242-4274-8e83-a388b8af158b","system_id":"levelo_inurba_marseille","lat":43.273613,"lon":5.362705,"is_reserved":false,"is_disabled":false,"rental_uris":{"android":"levelo://app?vid=15335e04-2242-4274-8e83-a388b8af158b","ios":"levelo://app?vid=15335e04-2242-4274-8e83-a388b8af158b"},"vehicle_type_id":"4","last_reported":1701255959,"current_range_meters":26400,"station_id":"ce4bhbh2rcd13ifvqeo0","pricing_plan_id":"free"},{"bike_id":"7f5c3b3e-684d-4f7d-b9f3-fa14fa453e54","system_id":"levelo_inurba_marseille","lat":43.273609,"lon":5.362708,"is_reserved":false,"is_disabled":false,"rental_uris":{"android":"levelo://app?vid=7f5c3b3e-684d-4f7d-b9f3-fa14fa453e54","ios":"levelo://app?vid=7f5c3b3e-684d-4f7d-b9f3-fa14fa453e54"},"vehicle_type_id":"4","last_reported":1701255959,"current_range_meters":27600,"station_id":"ce4bhbh2rcd13ifvqeo0","pricing_plan_id":"free"},{"bike_id":"70658e6e-38af-40b9-aed2-066c2d60e5bb","system_id":"levelo_inurba_marseille","lat":43.27507,"lon":5.38977,"is_reserved":false,"is_disabled":false,"rental_uris":{"android":"levelo://app?vid=70658e6e-38af-40b9-aed2-066c2d60e5bb","ios":"levelo://app?vid=70658e6e-38af-40b9-aed2-066c2d60e5bb"},"vehicle_type_id":"4","last_reported":1701255959,"current_range_meters":0,"station_id":"","pricing_plan_id":"free"},{"bike_id":"335f3df7-3395-4b99-a553-00243e5620c1","system_id":"levelo_inurba_marseille","lat":43.317121,"lon":5.423936,"is_reserved":false,"is_disabled":false,"rental_uris":{"android":"levelo://app?vid=335f3df7-3395-4b99-a553-00243e5620c1","ios":"levelo://app?vid=335f3df7-3395-4b99-a553-00243e5620c1"},"vehicle_type_id":"4","last_reported":1701255959,"current_range_meters":18000,"station_id":"ce4bhp92rcd13ifvqhbg","pricing_plan_id":"free"},{"bike_id":"0019952f-061f-4152-a29d-004a6614280a","system_id":"levelo_inurba_marseille","lat":43.31079,"lon":5.42432,"is_reserved":false,"is_disabled":false,"rental_uris":{"android":"levelo://app?vid=0019952f-061f-4152-a29d-004a6614280a","ios":"levelo://app?vid=0019952f-061f-4152-a29d-004a6614280a"},"vehicle_type_id":"4","last_reported":1701255959,"current_range_meters":20400,"station_id":"ce4bhp92rcd13ifvqhag","pricing_plan_id":"free"},{"bike_id":"cff3629c-5d91-4c6b-a51a-6af66e594645","system_id":"levelo_inurba_marseille","lat":43.274103,"lon":5.394016,"is_reserved":false,"is_disabled":false,"rental_uris":{"android":"levelo://app?vid=cff3629c-5d91-4c6b-a51a-6af66e594645","ios":"levelo://app?vid=cff3629c-5d91-4c6b-a51a-6af66e594645"},"vehicle_type_id":"4","last_reported":1701255959,"current_range_meters":18000,"station_id":"ce4bhdp2rcd13ifvqf20","pricing_plan_id":"free"},{"bike_id":"cedad0e1-b4a3-4f0c-a399-a395926433cd","system_id":"levelo_inurba_marseille","lat":43.282744,"lon":5.350533,"is_reserved":false,"is_disabled":false,"rental_uris":{"android":"levelo://app?vid=cedad0e1-b4a3-4f0c-a399-a395926433cd","ios":"levelo://app?vid=cedad0e1-b4a3-4f0c-a399-a395926433cd"},"vehicle_type_id":"4","last_reported":1701255959,"current_range_meters":18800,"station_id":"ce4bhbp2rcd13ifvqerg","pricing_plan_id":"free"},{"bike_id":"729838cc-611b-48cd-937a-dfa2cf209499","system_id":"levelo_inurba_marseille","lat":43.272124,"lon":5.391768,"is_reserved":false,"is_disabled":false,"rental_uris":{"android":"levelo://app?vid=729838cc-611b-48cd-937a-dfa2cf209499","ios":"levelo://app?vid=729838cc-611b-48cd-937a-dfa2cf209499"},"vehicle_type_id":"4","last_reported":1701255959,"current_range_meters":2800,"station_id":"ce4bhhp2rcd13ifvqfm0","pricing_plan_id":"free"},{"bike_id":"2c7d8a89-9ac1-4da3-b5b3-ca387c698343","system_id":"levelo_inurba_marseille","lat":43.278128,"lon":5.407195,"is_reserved":false,"is_disabled":false,"rental_uris":{"android":"levelo://app?vid=2c7d8a89-9ac1-4da3-b5b3-ca387c698343","ios":"levelo://app?vid=2c7d8a89-9ac1-4da3-b5b3-ca387c698343"},"vehicle_type_id":"4","last_reported":1701255959,"current_range_meters":24800,"station_id":"ce4bhnh2rcd13ifvqgtg","pricing_plan_id":"free"},{"bike_id":"9bfa64ea-43da-432a-9dc8-4d64f5376699","system_id":"levelo_inurba_marseille","lat":43.279465,"lon":5.410561,"is_reserved":false,"is_disabled":false,"rental_uris":{"android":"levelo://app?vid=9bfa64ea-43da-432a-9dc8-4d64f5376699","ios":"levelo://app?vid=9bfa64ea-43da-432a-9dc8-4d64f5376699"},"vehicle_type_id":"4","last_reported":1701255959,"current_range_meters":20400,"station_id":"ce4bhnp2rcd13ifvqh0g","pricing_plan_id":"free"},{"bike_id":"10c8e393-adb0-4409-8a26-54311327b3ec","system_id":"levelo_inurba_marseille","lat":43.265714,"lon":5.372891,"is_reserved":false,"is_disabled":false,"rental_uris":{"android":"levelo://app?vid=10c8e393-adb0-4409-8a26-54311327b3ec","ios":"levelo://app?vid=10c8e393-adb0-4409-8a26-54311327b3ec"},"vehicle_type_id":"4","last_reported":1701255959,"current_range_meters":18000,"station_id":"ce4bhg12rcd13ifvqf70","pricing_plan_id":"free"},{"bike_id":"7922c0c4-8960-410e-80b7-4b281fd737d1","system_id":"levelo_inurba_marseille","lat":43.26556,"lon":5.3729,"is_reserved":false,"is_disabled":false,"rental_uris":{"android":"levelo://app?vid=7922c0c4-8960-410e-80b7-4b281fd737d1","ios":"levelo://app?vid=7922c0c4-8960-410e-80b7-4b281fd737d1"},"vehicle_type_id":"4","last_reported":1701255959,"current_range_meters":21200,"station_id":"ce4bhg12rcd13ifvqf70","pricing_plan_id":"free"},{"bike_id":"d69b2d26-33a6-4efb-89e4-f48de11f2dfc","system_id":"levelo_inurba_marseille","lat":43.265557,"lon":5.372923,"is_reserved":false,"is_disabled":false,"rental_uris":{"android":"levelo://app?vid=d69b2d26-33a6-4efb-89e4-f48de11f2dfc","ios":"levelo://app?vid=d69b2d26-33a6-4efb-89e4-f48de11f2dfc"},"vehicle_type_id":"4","last_reported":1701255959,"current_range_meters":0,"station_id":"ce4bhg12rcd13ifvqf70","pricing_plan_id":"free"},{"bike_id":"058b2ff5-7aff-4a72-b7a5-6e5f9403502c","system_id":"levelo_inurba_marseille","lat":43.26555,"lon":5.37288,"is_reserved":false,"is_disabled":false,"rental_uris":{"android":"levelo://app?vid=058b2ff5-7aff-4a72-b7a5-6e5f9403502c","ios":"levelo://app?vid=058b2ff5-7aff-4a72-b7a5-6e5f9403502c"},"vehicle_type_id":"4","last_reported":1701255959,"current_range_meters":24000,"station_id":"ce4bhg12rcd13ifvqf70","pricing_plan_id":"free"},{"bike_id":"08eee986-35c3-4ced-b32a-7fa7e89b6273","system_id":"levelo_inurba_marseille","lat":43.265714,"lon":5.372891,"is_reserved":false,"is_disabled":false,"rental_uris":{"android":"levelo://app?vid=08eee986-35c3-4ced-b32a-7fa7e89b6273","ios":"levelo://app?vid=08eee986-35c3-4ced-b32a-7fa7e89b6273"},"vehicle_type_id":"4","last_reported":1701255959,"current_range_meters":14800,"station_id":"ce4bhg12rcd13ifvqf70","pricing_plan_id":"free"},{"bike_id":"369c6b01-ed17-4129-93a4-9388491cecb9","system_id":"levelo_inurba_marseille","lat":43.269409,"lon":5.402498,"is_reserved":false,"is_disabled":false,"rental_uris":{"android":"levelo://app?vid=369c6b01-ed17-4129-93a4-9388491cecb9","ios":"levelo://app?vid=369c6b01-ed17-4129-93a4-9388491cecb9"},"vehicle_type_id":"4","last_reported":1701255959,"current_range_meters":24400,"station_id":"cjm6bp8fraef2m0cb0m0","pricing_plan_id":"free"},{"bike_id":"a910c41b-31b8-4e71-8c61-07dc6b170fe1","system_id":"levelo_inurba_marseille","lat":43.261782,"lon":5.374515,"is_reserved":false,"is_disabled":false,"rental_uris":{"android":"levelo://app?vid=a910c41b-31b8-4e71-8c61-07dc6b170fe1","ios":"levelo://app?vid=a910c41b-31b8-4e71-8c61-07dc6b170fe1"},"vehicle_type_id":"4","last_reported":1701255959,"current_range_meters":6800,"station_id":"ce4bhgp2rcd13ifvqfc0","pricing_plan_id":"free"},{"bike_id":"9059973c-6764-4954-95c2-9ab5f2cf87c2","system_id":"levelo_inurba_marseille","lat":43.261782,"lon":5.374515,"is_reserved":false,"is_disabled":false,"rental_uris":{"android":"levelo://app?vid=9059973c-6764-4954-95c2-9ab5f2cf87c2","ios":"levelo://app?vid=9059973c-6764-4954-95c2-9ab5f2cf87c2"},"vehicle_type_id":"4","last_reported":1701255959,"current_range_meters":9600,"station_id":"ce4bhgp2rcd13ifvqfc0","pricing_plan_id":"free"},{"bike_id":"f8c5cdd6-77ef-4088-aa44-21a4fd9d316e","system_id":"levelo_inurba_marseille","lat":43.261782,"lon":5.374515,"is_reserved":false,"is_disabled":false,"rental_uris":{"android":"levelo://app?vid=f8c5cdd6-77ef-4088-aa44-21a4fd9d316e","ios":"levelo://app?vid=f8c5cdd6-77ef-4088-aa44-21a4fd9d316e"},"vehicle_type_id":"4","last_reported":1701255959,"current_range_meters":29600,"station_id":"ce4bhgp2rcd13ifvqfc0","pricing_plan_id":"free"},{"bike_id":"952fba73-841c-40b1-a10e-116378e4bc82","system_id":"levelo_inurba_marseille","lat":43.261782,"lon":5.374515,"is_reserved":false,"is_disabled":false,"rental_uris":{"android":"levelo://app?vid=952fba73-841c-40b1-a10e-116378e4bc82","ios":"levelo://app?vid=952fba73-841c-40b1-a10e-116378e4bc82"},"vehicle_type_id":"4","last_reported":1701255959,"current_range_meters":19200,"station_id":"ce4bhgp2rcd13ifvqfc0","pricing_plan_id":"free"},{"bike_id":"63a631ef-2921-4263-8d49-50ebfc63cf4c","system_id":"levelo_inurba_marseille","lat":43.26202,"lon":5.379299,"is_reserved":false,"is_disabled":false,"rental_uris":{"android":"levelo://app?vid=63a631ef-2921-4263-8d49-50ebfc63cf4c","ios":"levelo://app?vid=63a631ef-2921-4263-8d49-50ebfc63cf4c"},"vehicle_type_id":"4","last_reported":1701255959,"current_range_meters":20000,"station_id":"ce4bhjp2rcd13ifvqg90","pricing_plan_id":"free"},{"bike_id":"f9535ffe-15a0-4733-a4c9-8bf76128a505","system_id":"levelo_inurba_marseille","lat":43.298768,"lon":5.43643,"is_reserved":false,"is_disabled":false,"rental_uris":{"android":"levelo://app?vid=f9535ffe-15a0-4733-a4c9-8bf76128a505","ios":"levelo://app?vid=f9535ffe-15a0-4733-a4c9-8bf76128a505"},"vehicle_type_id":"4","last_reported":1701255959,"current_range_meters":24800,"station_id":"ce4bhpp2rcd13ifvqhfg","pricing_plan_id":"free"},{"bike_id":"c7d78e9d-629e-4d09-8612-a76051bd8ebb","system_id":"levelo_inurba_marseille","lat":43.25938,"lon":5.387305,"is_reserved":false,"is_disabled":false,"rental_uris":{"android":"levelo://app?vid=c7d78e9d-629e-4d09-8612-a76051bd8ebb","ios":"levelo://app?vid=c7d78e9d-629e-4d09-8612-a76051bd8ebb"},"vehicle_type_id":"4","last_reported":1701255959,"current_range_meters":6000,"station_id":"ce4bhl92rcd13ifvqghg","pricing_plan_id":"free"},{"bike_id":"aa6e77ee-2a0c-4e3a-842a-8cf0d80754a7","system_id":"levelo_inurba_marseille","lat":43.2607,"lon":5.393983,"is_reserved":false,"is_disabled":false,"rental_uris":{"android":"levelo://app?vid=aa6e77ee-2a0c-4e3a-842a-8cf0d80754a7","ios":"levelo://app?vid=aa6e77ee-2a0c-4e3a-842a-8cf0d80754a7"},"vehicle_type_id":"4","last_reported":1701255959,"current_range_meters":29200,"station_id":"ce4bhh92rcd13ifvqfj0","pricing_plan_id":"free"},{"bike_id":"03158746-6a36-467c-85f4-0d9a5c9de7bb","system_id":"levelo_inurba_marseille","lat":43.260845,"lon":5.397683,"is_reserved":false,"is_disabled":false,"rental_uris":{"android":"levelo://app?vid=03158746-6a36-467c-85f4-0d9a5c9de7bb","ios":"levelo://app?vid=03158746-6a36-467c-85f4-0d9a5c9de7bb"},"vehicle_type_id":"4","last_reported":1701255959,"current_range_meters":0,"station_id":"ce4bhi12rcd13ifvqfq0","pricing_plan_id":"free"},{"bike_id":"2618d2a0-6150-4b20-b799-af2b10d34d85","system_id":"levelo_inurba_marseille","lat":43.255827,"lon":5.382323,"is_reserved":false,"is_disabled":false,"rental_uris":{"android":"levelo://app?vid=2618d2a0-6150-4b20-b799-af2b10d34d85","ios":"levelo://app?vid=2618d2a0-6150-4b20-b799-af2b10d34d85"},"vehicle_type_id":"4","last_reported":1701255959,"current_range_meters":29200,"station_id":"ce4bhih2rcd13ifvqfs0","pricing_plan_id":"free"},{"bike_id":"85e03d26-8c73-4e30-8612-0b908342b6f4","system_id":"levelo_inurba_marseille","lat":43.25584,"lon":5.38243,"is_reserved":false,"is_disabled":false,"rental_uris":{"android":"levelo://app?vid=85e03d26-8c73-4e30-8612-0b908342b6f4","ios":"levelo://app?vid=85e03d26-8c73-4e30-8612-0b908342b6f4"},"vehicle_type_id":"4","last_reported":1701255959,"current_range_meters":13600,"station_id":"ce4bhih2rcd13ifvqfs0","pricing_plan_id":"free"},{"bike_id":"09a9b70d-1600-43d5-83a6-2de3ff524574","system_id":"levelo_inurba_marseille","lat":43.255783,"lon":5.382382,"is_reserved":false,"is_disabled":false,"rental_uris":{"android":"levelo://app?vid=09a9b70d-1600-43d5-83a6-2de3ff524574","ios":"levelo://app?vid=09a9b70d-1600-43d5-83a6-2de3ff524574"},"vehicle_type_id":"4","last_reported":1701255959,"current_range_meters":5200,"station_id":"ce4bhih2rcd13ifvqfs0","pricing_plan_id":"free"},{"bike_id":"f1fb9963-3dd2-4925-8dfd-e9eab168d724","system_id":"levelo_inurba_marseille","lat":43.258224,"lon":5.394369,"is_reserved":false,"is_disabled":false,"rental_uris":{"android":"levelo://app?vid=f1fb9963-3dd2-4925-8dfd-e9eab168d724","ios":"levelo://app?vid=f1fb9963-3dd2-4925-8dfd-e9eab168d724"},"vehicle_type_id":"4","last_reported":1701255959,"current_range_meters":20400,"station_id":"ce4bhip2rcd13ifvqft0","pricing_plan_id":"free"},{"bike_id":"da51b670-752f-4a22-ab77-61ec0a179662","system_id":"levelo_inurba_marseille","lat":43.258224,"lon":5.394369,"is_reserved":false,"is_disabled":false,"rental_uris":{"android":"levelo://app?vid=da51b670-752f-4a22-ab77-61ec0a179662","ios":"levelo://app?vid=da51b670-752f-4a22-ab77-61ec0a179662"},"vehicle_type_id":"4","last_reported":1701255959,"current_range_meters":17600,"station_id":"ce4bhip2rcd13ifvqft0","pricing_plan_id":"free"},{"bike_id":"16fa26a9-b1ef-48b6-a797-47d0aeb69bc3","system_id":"levelo_inurba_marseille","lat":43.254947,"lon":5.376454,"is_reserved":false,"is_disabled":false,"rental_uris":{"android":"levelo://app?vid=16fa26a9-b1ef-48b6-a797-47d0aeb69bc3","ios":"levelo://app?vid=16fa26a9-b1ef-48b6-a797-47d0aeb69bc3"},"vehicle_type_id":"4","last_reported":1701255959,"current_range_meters":24400,"station_id":"ce4bhh12rcd13ifvqff0","pricing_plan_id":"free"},{"bike_id":"f6bc6957-6a06-4d61-a286-1510119c5a06","system_id":"levelo_inurba_marseille","lat":43.254947,"lon":5.376454,"is_reserved":false,"is_disabled":false,"rental_uris":{"android":"levelo://app?vid=f6bc6957-6a06-4d61-a286-1510119c5a06","ios":"levelo://app?vid=f6bc6957-6a06-4d61-a286-1510119c5a06"},"vehicle_type_id":"4","last_reported":1701255959,"current_range_meters":0,"station_id":"ce4bhh12rcd13ifvqff0","pricing_plan_id":"free"},{"bike_id":"81ec61a5-7af0-4f2a-9ff1-15d6d6f566b4","system_id":"levelo_inurba_marseille","lat":43.258224,"lon":5.394369,"is_reserved":false,"is_disabled":false,"rental_uris":{"android":"levelo://app?vid=81ec61a5-7af0-4f2a-9ff1-15d6d6f566b4","ios":"levelo://app?vid=81ec61a5-7af0-4f2a-9ff1-15d6d6f566b4"},"vehicle_type_id":"4","last_reported":1701255959,"current_range_meters":24000,"station_id":"ce4bhip2rcd13ifvqft0","pricing_plan_id":"free"},{"bike_id":"db33ee16-7faf-421f-b813-69a231447c5e","system_id":"levelo_inurba_marseille","lat":43.25938,"lon":5.40903,"is_reserved":false,"is_disabled":false,"rental_uris":{"android":"levelo://app?vid=db33ee16-7faf-421f-b813-69a231447c5e","ios":"levelo://app?vid=db33ee16-7faf-421f-b813-69a231447c5e"},"vehicle_type_id":"4","last_reported":1701255959,"current_range_meters":25200,"station_id":"ce4bhm92rcd13ifvqglg","pricing_plan_id":"free"},{"bike_id":"52d9dffa-ef5e-4061-a968-c3513bee93a7","system_id":"levelo_inurba_marseille","lat":43.259009,"lon":5.40929,"is_reserved":false,"is_disabled":false,"rental_uris":{"android":"levelo://app?vid=52d9dffa-ef5e-4061-a968-c3513bee93a7","ios":"levelo://app?vid=52d9dffa-ef5e-4061-a968-c3513bee93a7"},"vehicle_type_id":"4","last_reported":1701255959,"current_range_meters":17200,"station_id":"ce4bhm92rcd13ifvqglg","pricing_plan_id":"free"},{"bike_id":"ecb2b9ea-6b2b-4367-b0be-28e3e08e0a3a","system_id":"levelo_inurba_marseille","lat":43.25928,"lon":5.40898,"is_reserved":false,"is_disabled":false,"rental_uris":{"android":"levelo://app?vid=ecb2b9ea-6b2b-4367-b0be-28e3e08e0a3a","ios":"levelo://app?vid=ecb2b9ea-6b2b-4367-b0be-28e3e08e0a3a"},"vehicle_type_id":"4","last_reported":1701255959,"current_range_meters":6000,"station_id":"ce4bhm92rcd13ifvqglg","pricing_plan_id":"free"},{"bike_id":"6a9b0a50-e95d-44b1-9165-f726a2a5c128","system_id":"levelo_inurba_marseille","lat":43.259013,"lon":5.409301,"is_reserved":false,"is_disabled":false,"rental_uris":{"android":"levelo://app?vid=6a9b0a50-e95d-44b1-9165-f726a2a5c128","ios":"levelo://app?vid=6a9b0a50-e95d-44b1-9165-f726a2a5c128"},"vehicle_type_id":"4","last_reported":1701255959,"current_range_meters":9600,"station_id":"ce4bhm92rcd13ifvqglg","pricing_plan_id":"free"},{"bike_id":"5a80b217-e311-469a-8e20-7dee4260bc4b","system_id":"levelo_inurba_marseille","lat":43.25933,"lon":5.40914,"is_reserved":false,"is_disabled":false,"rental_uris":{"android":"levelo://app?vid=5a80b217-e311-469a-8e20-7dee4260bc4b","ios":"levelo://app?vid=5a80b217-e311-469a-8e20-7dee4260bc4b"},"vehicle_type_id":"4","last_reported":1701255959,"current_range_meters":19200,"station_id":"ce4bhm92rcd13ifvqglg","pricing_plan_id":"free"},{"bike_id":"701dfc6c-2f0b-43a3-88d0-350b92ece9cc","system_id":"levelo_inurba_marseille","lat":43.25933,"lon":5.40914,"is_reserved":false,"is_disabled":false,"rental_uris":{"android":"levelo://app?vid=701dfc6c-2f0b-43a3-88d0-350b92ece9cc","ios":"levelo://app?vid=701dfc6c-2f0b-43a3-88d0-350b92ece9cc"},"vehicle_type_id":"4","last_reported":1701255959,"current_range_meters":24800,"station_id":"ce4bhm92rcd13ifvqglg","pricing_plan_id":"free"},{"bike_id":"fa1d1983-f2d4-4c7c-b732-b31330c289d7","system_id":"levelo_inurba_marseille","lat":43.25932,"lon":5.40912,"is_reserved":false,"is_disabled":false,"rental_uris":{"android":"levelo://app?vid=fa1d1983-f2d4-4c7c-b732-b31330c289d7","ios":"levelo://app?vid=fa1d1983-f2d4-4c7c-b732-b31330c289d7"},"vehicle_type_id":"4","last_reported":1701255959,"current_range_meters":23600,"station_id":"ce4bhm92rcd13ifvqglg","pricing_plan_id":"free"},{"bike_id":"ec023630-5081-4564-a9e1-0713648c01c7","system_id":"levelo_inurba_marseille","lat":43.25927,"lon":5.40901,"is_reserved":false,"is_disabled":false,"rental_uris":{"android":"levelo://app?vid=ec023630-5081-4564-a9e1-0713648c01c7","ios":"levelo://app?vid=ec023630-5081-4564-a9e1-0713648c01c7"},"vehicle_type_id":"4","last_reported":1701255959,"current_range_meters":0,"station_id":"ce4bhm92rcd13ifvqglg","pricing_plan_id":"free"},{"bike_id":"859c3c77-1851-4e3a-9dec-42cb3bd89784","system_id":"levelo_inurba_marseille","lat":43.259013,"lon":5.409301,"is_reserved":false,"is_disabled":false,"rental_uris":{"android":"levelo://app?vid=859c3c77-1851-4e3a-9dec-42cb3bd89784","ios":"levelo://app?vid=859c3c77-1851-4e3a-9dec-42cb3bd89784"},"vehicle_type_id":"4","last_reported":1701255959,"current_range_meters":26800,"station_id":"ce4bhm92rcd13ifvqglg","pricing_plan_id":"free"},{"bike_id":"c87b592c-b6dd-4637-8751-e536968ae12e","system_id":"levelo_inurba_marseille","lat":43.25927,"lon":5.40903,"is_reserved":false,"is_disabled":false,"rental_uris":{"android":"levelo://app?vid=c87b592c-b6dd-4637-8751-e536968ae12e","ios":"levelo://app?vid=c87b592c-b6dd-4637-8751-e536968ae12e"},"vehicle_type_id":"4","last_reported":1701255959,"current_range_meters":22000,"station_id":"ce4bhm92rcd13ifvqglg","pricing_plan_id":"free"},{"bike_id":"754819f0-0e97-4895-9832-44dc72bf7279","system_id":"levelo_inurba_marseille","lat":43.259013,"lon":5.409301,"is_reserved":false,"is_disabled":false,"rental_uris":{"android":"levelo://app?vid=754819f0-0e97-4895-9832-44dc72bf7279","ios":"levelo://app?vid=754819f0-0e97-4895-9832-44dc72bf7279"},"vehicle_type_id":"4","last_reported":1701255959,"current_range_meters":21600,"station_id":"ce4bhm92rcd13ifvqglg","pricing_plan_id":"free"},{"bike_id":"bde9dcec-8cf6-4278-863f-0c39d9e5c66f","system_id":"levelo_inurba_marseille","lat":43.25931,"lon":5.40915,"is_reserved":false,"is_disabled":false,"rental_uris":{"android":"levelo://app?vid=bde9dcec-8cf6-4278-863f-0c39d9e5c66f","ios":"levelo://app?vid=bde9dcec-8cf6-4278-863f-0c39d9e5c66f"},"vehicle_type_id":"4","last_reported":1701255959,"current_range_meters":20000,"station_id":"ce4bhm92rcd13ifvqglg","pricing_plan_id":"free"},{"bike_id":"d555e29f-1161-475c-9c68-0a440bd7139a","system_id":"levelo_inurba_marseille","lat":43.25929,"lon":5.40915,"is_reserved":false,"is_disabled":false,"rental_uris":{"android":"levelo://app?vid=d555e29f-1161-475c-9c68-0a440bd7139a","ios":"levelo://app?vid=d555e29f-1161-475c-9c68-0a440bd7139a"},"vehicle_type_id":"4","last_reported":1701255959,"current_range_meters":20800,"station_id":"ce4bhm92rcd13ifvqglg","pricing_plan_id":"free"},{"bike_id":"ec3ae71a-7855-4733-9a16-722c539f39c2","system_id":"levelo_inurba_marseille","lat":43.25723,"lon":5.4111,"is_reserved":false,"is_disabled":false,"rental_uris":{"android":"levelo://app?vid=ec3ae71a-7855-4733-9a16-722c539f39c2","ios":"levelo://app?vid=ec3ae71a-7855-4733-9a16-722c539f39c2"},"vehicle_type_id":"4","last_reported":1701255959,"current_range_meters":31600,"station_id":"ce4bhkp2rcd13ifvqgd0","pricing_plan_id":"free"},{"bike_id":"3d44c833-d284-4e91-95fa-940a780c586a","system_id":"levelo_inurba_marseille","lat":43.250009,"lon":5.389195,"is_reserved":false,"is_disabled":false,"rental_uris":{"android":"levelo://app?vid=3d44c833-d284-4e91-95fa-940a780c586a","ios":"levelo://app?vid=3d44c833-d284-4e91-95fa-940a780c586a"},"vehicle_type_id":"4","last_reported":1701255959,"current_range_meters":24400,"station_id":"ce4bhgp2rcd13ifvqfd0","pricing_plan_id":"free"},{"bike_id":"b9ff1d44-6a07-4417-b57e-36084b5d619c","system_id":"levelo_inurba_marseille","lat":43.250008,"lon":5.389268,"is_reserved":false,"is_disabled":false,"rental_uris":{"android":"levelo://app?vid=b9ff1d44-6a07-4417-b57e-36084b5d619c","ios":"levelo://app?vid=b9ff1d44-6a07-4417-b57e-36084b5d619c"},"vehicle_type_id":"4","last_reported":1701255959,"current_range_meters":28000,"station_id":"ce4bhgp2rcd13ifvqfd0","pricing_plan_id":"free"},{"bike_id":"4c0c3118-7eaa-4ebd-8d87-d449bea3e021","system_id":"levelo_inurba_marseille","lat":43.250897,"lon":5.395161,"is_reserved":false,"is_disabled":false,"rental_uris":{"android":"levelo://app?vid=4c0c3118-7eaa-4ebd-8d87-d449bea3e021","ios":"levelo://app?vid=4c0c3118-7eaa-4ebd-8d87-d449bea3e021"},"vehicle_type_id":"4","last_reported":1701255959,"current_range_meters":13200,"station_id":"ce4bhm12rcd13ifvqgkg","pricing_plan_id":"free"},{"bike_id":"f76a72aa-89e8-4643-8b82-2154c5ff9f71","system_id":"levelo_inurba_marseille","lat":43.24693,"lon":5.382096,"is_reserved":false,"is_disabled":false,"rental_uris":{"android":"levelo://app?vid=f76a72aa-89e8-4643-8b82-2154c5ff9f71","ios":"levelo://app?vid=f76a72aa-89e8-4643-8b82-2154c5ff9f71"},"vehicle_type_id":"4","last_reported":1701255959,"current_range_meters":18400,"station_id":"ce4bhih2rcd13ifvqfr0","pricing_plan_id":"free"},{"bike_id":"9462daac-1dba-4027-9439-080e79fa6c43","system_id":"levelo_inurba_marseille","lat":43.25102,"lon":5.403214,"is_reserved":false,"is_disabled":false,"rental_uris":{"android":"levelo://app?vid=9462daac-1dba-4027-9439-080e79fa6c43","ios":"levelo://app?vid=9462daac-1dba-4027-9439-080e79fa6c43"},"vehicle_type_id":"4","last_reported":1701255959,"current_range_meters":18400,"station_id":"ce4bhlh2rcd13ifvqgig","pricing_plan_id":"free"},{"bike_id":"f5a3e667-af9b-42c6-88ad-e60a6c36ba0a","system_id":"levelo_inurba_marseille","lat":43.24659,"lon":5.3816,"is_reserved":false,"is_disabled":false,"rental_uris":{"android":"levelo://app?vid=f5a3e667-af9b-42c6-88ad-e60a6c36ba0a","ios":"levelo://app?vid=f5a3e667-af9b-42c6-88ad-e60a6c36ba0a"},"vehicle_type_id":"4","last_reported":1701255959,"current_range_meters":28000,"station_id":"ce4bhih2rcd13ifvqfr0","pricing_plan_id":"free"},{"bike_id":"e4b0139b-5b95-46ed-b3bf-595b06ae8a97","system_id":"levelo_inurba_marseille","lat":43.25102,"lon":5.403214,"is_reserved":false,"is_disabled":false,"rental_uris":{"android":"levelo://app?vid=e4b0139b-5b95-46ed-b3bf-595b06ae8a97","ios":"levelo://app?vid=e4b0139b-5b95-46ed-b3bf-595b06ae8a97"},"vehicle_type_id":"4","last_reported":1701255959,"current_range_meters":0,"station_id":"ce4bhlh2rcd13ifvqgig","pricing_plan_id":"free"},{"bike_id":"f2d58e6a-3ca1-4fc3-b068-70224a2c9558","system_id":"levelo_inurba_marseille","lat":43.25114,"lon":5.4033,"is_reserved":false,"is_disabled":false,"rental_uris":{"android":"levelo://app?vid=f2d58e6a-3ca1-4fc3-b068-70224a2c9558","ios":"levelo://app?vid=f2d58e6a-3ca1-4fc3-b068-70224a2c9558"},"vehicle_type_id":"4","last_reported":1701255959,"current_range_meters":400,"station_id":"ce4bhlh2rcd13ifvqgig","pricing_plan_id":"free"},{"bike_id":"deecde48-9a0c-45ab-a96b-3457e8bf2e5a","system_id":"levelo_inurba_marseille","lat":43.25102,"lon":5.403214,"is_reserved":false,"is_disabled":false,"rental_uris":{"android":"levelo://app?vid=deecde48-9a0c-45ab-a96b-3457e8bf2e5a","ios":"levelo://app?vid=deecde48-9a0c-45ab-a96b-3457e8bf2e5a"},"vehicle_type_id":"4","last_reported":1701255959,"current_range_meters":26800,"station_id":"ce4bhlh2rcd13ifvqgig","pricing_plan_id":"free"},{"bike_id":"cb784b12-8f99-47e1-ab0c-da829a5c7bc1","system_id":"levelo_inurba_marseille","lat":43.25102,"lon":5.403214,"is_reserved":false,"is_disabled":false,"rental_uris":{"android":"levelo://app?vid=cb784b12-8f99-47e1-ab0c-da829a5c7bc1","ios":"levelo://app?vid=cb784b12-8f99-47e1-ab0c-da829a5c7bc1"},"vehicle_type_id":"4","last_reported":1701255959,"current_range_meters":10800,"station_id":"ce4bhlh2rcd13ifvqgig","pricing_plan_id":"free"},{"bike_id":"4edddfb6-bad4-45e8-8511-391765b4280b","system_id":"levelo_inurba_marseille","lat":43.25102,"lon":5.403214,"is_reserved":false,"is_disabled":false,"rental_uris":{"android":"levelo://app?vid=4edddfb6-bad4-45e8-8511-391765b4280b","ios":"levelo://app?vid=4edddfb6-bad4-45e8-8511-391765b4280b"},"vehicle_type_id":"4","last_reported":1701255959,"current_range_meters":18800,"station_id":"ce4bhlh2rcd13ifvqgig","pricing_plan_id":"free"},{"bike_id":"09a4216f-bc83-4d30-a21d-967b38c27cb3","system_id":"levelo_inurba_marseille","lat":43.25102,"lon":5.403214,"is_reserved":false,"is_disabled":false,"rental_uris":{"android":"levelo://app?vid=09a4216f-bc83-4d30-a21d-967b38c27cb3","ios":"levelo://app?vid=09a4216f-bc83-4d30-a21d-967b38c27cb3"},"vehicle_type_id":"4","last_reported":1701255959,"current_range_meters":16000,"station_id":"ce4bhlh2rcd13ifvqgig","pricing_plan_id":"free"},{"bike_id":"2425e189-fd31-44a3-82f6-1d5958133f33","system_id":"levelo_inurba_marseille","lat":43.25102,"lon":5.403214,"is_reserved":false,"is_disabled":false,"rental_uris":{"android":"levelo://app?vid=2425e189-fd31-44a3-82f6-1d5958133f33","ios":"levelo://app?vid=2425e189-fd31-44a3-82f6-1d5958133f33"},"vehicle_type_id":"4","last_reported":1701255959,"current_range_meters":19600,"station_id":"ce4bhlh2rcd13ifvqgig","pricing_plan_id":"free"},{"bike_id":"ced3c2ea-c088-4ce0-bf51-67a47ea2df70","system_id":"levelo_inurba_marseille","lat":43.25102,"lon":5.403214,"is_reserved":false,"is_disabled":false,"rental_uris":{"android":"levelo://app?vid=ced3c2ea-c088-4ce0-bf51-67a47ea2df70","ios":"levelo://app?vid=ced3c2ea-c088-4ce0-bf51-67a47ea2df70"},"vehicle_type_id":"4","last_reported":1701255959,"current_range_meters":7600,"station_id":"ce4bhlh2rcd13ifvqgig","pricing_plan_id":"free"},{"bike_id":"48d45908-1d3d-4253-a61b-46aeff531e62","system_id":"levelo_inurba_marseille","lat":43.25102,"lon":5.403214,"is_reserved":false,"is_disabled":false,"rental_uris":{"android":"levelo://app?vid=48d45908-1d3d-4253-a61b-46aeff531e62","ios":"levelo://app?vid=48d45908-1d3d-4253-a61b-46aeff531e62"},"vehicle_type_id":"4","last_reported":1701255959,"current_range_meters":25200,"station_id":"ce4bhlh2rcd13ifvqgig","pricing_plan_id":"free"},{"bike_id":"38e3847b-bba9-45c8-88f4-24d87b519d8c","system_id":"levelo_inurba_marseille","lat":43.246467,"lon":5.388984,"is_reserved":false,"is_disabled":false,"rental_uris":{"android":"levelo://app?vid=38e3847b-bba9-45c8-88f4-24d87b519d8c","ios":"levelo://app?vid=38e3847b-bba9-45c8-88f4-24d87b519d8c"},"vehicle_type_id":"4","last_reported":1701255959,"current_range_meters":16400,"station_id":"ce4bhg12rcd13ifvqf60","pricing_plan_id":"free"},{"bike_id":"871c002a-ed74-496c-800e-0719e2b8233e","system_id":"levelo_inurba_marseille","lat":43.246467,"lon":5.388984,"is_reserved":false,"is_disabled":false,"rental_uris":{"android":"levelo://app?vid=871c002a-ed74-496c-800e-0719e2b8233e","ios":"levelo://app?vid=871c002a-ed74-496c-800e-0719e2b8233e"},"vehicle_type_id":"4","last_reported":1701255959,"current_range_meters":13200,"station_id":"ce4bhg12rcd13ifvqf60","pricing_plan_id":"free"},{"bike_id":"13bb5008-17c6-4235-a9fd-6b73ebb52774","system_id":"levelo_inurba_marseille","lat":43.243884,"lon":5.370736,"is_reserved":false,"is_disabled":false,"rental_uris":{"android":"levelo://app?vid=13bb5008-17c6-4235-a9fd-6b73ebb52774","ios":"levelo://app?vid=13bb5008-17c6-4235-a9fd-6b73ebb52774"},"vehicle_type_id":"4","last_reported":1701255959,"current_range_meters":18800,"station_id":"ce4bhhh2rcd13ifvqfk0","pricing_plan_id":"free"},{"bike_id":"9225ad76-392a-42ae-8757-c21cea968062","system_id":"levelo_inurba_marseille","lat":43.243884,"lon":5.370737,"is_reserved":false,"is_disabled":false,"rental_uris":{"android":"levelo://app?vid=9225ad76-392a-42ae-8757-c21cea968062","ios":"levelo://app?vid=9225ad76-392a-42ae-8757-c21cea968062"},"vehicle_type_id":"4","last_reported":1701255959,"current_range_meters":22800,"station_id":"ce4bhhh2rcd13ifvqfk0","pricing_plan_id":"free"},{"bike_id":"363ca3cb-0462-4172-ac99-74e9fc9ef7b7","system_id":"levelo_inurba_marseille","lat":43.243884,"lon":5.370736,"is_reserved":false,"is_disabled":false,"rental_uris":{"android":"levelo://app?vid=363ca3cb-0462-4172-ac99-74e9fc9ef7b7","ios":"levelo://app?vid=363ca3cb-0462-4172-ac99-74e9fc9ef7b7"},"vehicle_type_id":"4","last_reported":1701255959,"current_range_meters":31200,"station_id":"ce4bhhh2rcd13ifvqfk0","pricing_plan_id":"free"},{"bike_id":"a45fcec9-4257-4a0a-b938-c09d57ec825f","system_id":"levelo_inurba_marseille","lat":43.245581,"lon":5.395069,"is_reserved":false,"is_disabled":false,"rental_uris":{"android":"levelo://app?vid=a45fcec9-4257-4a0a-b938-c09d57ec825f","ios":"levelo://app?vid=a45fcec9-4257-4a0a-b938-c09d57ec825f"},"vehicle_type_id":"4","last_reported":1701255959,"current_range_meters":30000,"station_id":"ce4bhlp2rcd13ifvqgjg","pricing_plan_id":"free"},{"bike_id":"f64fb1cc-2dad-45e8-8cf1-dcd12e791c8a","system_id":"levelo_inurba_marseille","lat":43.245581,"lon":5.395069,"is_reserved":false,"is_disabled":false,"rental_uris":{"android":"levelo://app?vid=f64fb1cc-2dad-45e8-8cf1-dcd12e791c8a","ios":"levelo://app?vid=f64fb1cc-2dad-45e8-8cf1-dcd12e791c8a"},"vehicle_type_id":"4","last_reported":1701255959,"current_range_meters":12000,"station_id":"ce4bhlp2rcd13ifvqgjg","pricing_plan_id":"free"},{"bike_id":"d0298800-3ea1-4d9e-b80f-5358e9ae0781","system_id":"levelo_inurba_marseille","lat":43.245581,"lon":5.395069,"is_reserved":false,"is_disabled":false,"rental_uris":{"android":"levelo://app?vid=d0298800-3ea1-4d9e-b80f-5358e9ae0781","ios":"levelo://app?vid=d0298800-3ea1-4d9e-b80f-5358e9ae0781"},"vehicle_type_id":"4","last_reported":1701255959,"current_range_meters":10800,"station_id":"ce4bhlp2rcd13ifvqgjg","pricing_plan_id":"free"},{"bike_id":"25471938-ca9d-457d-96b0-6588edb296ea","system_id":"levelo_inurba_marseille","lat":43.239588,"lon":5.366238,"is_reserved":false,"is_disabled":false,"rental_uris":{"android":"levelo://app?vid=25471938-ca9d-457d-96b0-6588edb296ea","ios":"levelo://app?vid=25471938-ca9d-457d-96b0-6588edb296ea"},"vehicle_type_id":"4","last_reported":1701255959,"current_range_meters":16400,"station_id":"ce4bhi12rcd13ifvqfp0","pricing_plan_id":"free"},{"bike_id":"2ab435a3-50bc-4e6c-8678-2e939a617117","system_id":"levelo_inurba_marseille","lat":43.239588,"lon":5.366238,"is_reserved":false,"is_disabled":false,"rental_uris":{"android":"levelo://app?vid=2ab435a3-50bc-4e6c-8678-2e939a617117","ios":"levelo://app?vid=2ab435a3-50bc-4e6c-8678-2e939a617117"},"vehicle_type_id":"4","last_reported":1701255959,"current_range_meters":26800,"station_id":"ce4bhi12rcd13ifvqfp0","pricing_plan_id":"free"},{"bike_id":"c6c05a55-80d4-4e53-a6eb-0b4e3c895354","system_id":"levelo_inurba_marseille","lat":43.239588,"lon":5.366238,"is_reserved":false,"is_disabled":false,"rental_uris":{"android":"levelo://app?vid=c6c05a55-80d4-4e53-a6eb-0b4e3c895354","ios":"levelo://app?vid=c6c05a55-80d4-4e53-a6eb-0b4e3c895354"},"vehicle_type_id":"4","last_reported":1701255959,"current_range_meters":10000,"station_id":"ce4bhi12rcd13ifvqfp0","pricing_plan_id":"free"},{"bike_id":"b3c730c4-5614-4d9f-bc56-f10f610e1597","system_id":"levelo_inurba_marseille","lat":43.241782,"lon":5.397264,"is_reserved":false,"is_disabled":false,"rental_uris":{"android":"levelo://app?vid=b3c730c4-5614-4d9f-bc56-f10f610e1597","ios":"levelo://app?vid=b3c730c4-5614-4d9f-bc56-f10f610e1597"},"vehicle_type_id":"4","last_reported":1701255959,"current_range_meters":30400,"station_id":"ce4bhn12rcd13ifvqgpg","pricing_plan_id":"free"},{"bike_id":"df04f09d-ad2e-4b80-86c8-cb1e47c421c8","system_id":"levelo_inurba_marseille","lat":43.241782,"lon":5.397261,"is_reserved":false,"is_disabled":false,"rental_uris":{"android":"levelo://app?vid=df04f09d-ad2e-4b80-86c8-cb1e47c421c8","ios":"levelo://app?vid=df04f09d-ad2e-4b80-86c8-cb1e47c421c8"},"vehicle_type_id":"4","last_reported":1701255959,"current_range_meters":26400,"station_id":"ce4bhn12rcd13ifvqgpg","pricing_plan_id":"free"},{"bike_id":"df8c7d93-8f90-42bc-a235-3d6e14549c99","system_id":"levelo_inurba_marseille","lat":43.241692,"lon":5.397344,"is_reserved":false,"is_disabled":false,"rental_uris":{"android":"levelo://app?vid=df8c7d93-8f90-42bc-a235-3d6e14549c99","ios":"levelo://app?vid=df8c7d93-8f90-42bc-a235-3d6e14549c99"},"vehicle_type_id":"4","last_reported":1701255959,"current_range_meters":9200,"station_id":"ce4bhn12rcd13ifvqgpg","pricing_plan_id":"free"},{"bike_id":"97acb7ff-7df1-427e-b8c1-e1ab73eefbab","system_id":"levelo_inurba_marseille","lat":43.231923,"lon":5.355545,"is_reserved":false,"is_disabled":false,"rental_uris":{"android":"levelo://app?vid=97acb7ff-7df1-427e-b8c1-e1ab73eefbab","ios":"levelo://app?vid=97acb7ff-7df1-427e-b8c1-e1ab73eefbab"},"vehicle_type_id":"4","last_reported":1701255959,"current_range_meters":27600,"station_id":"ce4bhu92rcd13ifvqi70","pricing_plan_id":"free"},{"bike_id":"6a15bd61-65f5-44c0-9706-42eeb78c349c","system_id":"levelo_inurba_marseille","lat":43.231919,"lon":5.355532,"is_reserved":false,"is_disabled":false,"rental_uris":{"android":"levelo://app?vid=6a15bd61-65f5-44c0-9706-42eeb78c349c","ios":"levelo://app?vid=6a15bd61-65f5-44c0-9706-42eeb78c349c"},"vehicle_type_id":"4","last_reported":1701255959,"current_range_meters":24000,"station_id":"ce4bhu92rcd13ifvqi70","pricing_plan_id":"free"},{"bike_id":"d1703505-b125-4a98-a807-11024241bc04","system_id":"levelo_inurba_marseille","lat":43.231923,"lon":5.355545,"is_reserved":false,"is_disabled":false,"rental_uris":{"android":"levelo://app?vid=d1703505-b125-4a98-a807-11024241bc04","ios":"levelo://app?vid=d1703505-b125-4a98-a807-11024241bc04"},"vehicle_type_id":"4","last_reported":1701255959,"current_range_meters":32000,"station_id":"ce4bhu92rcd13ifvqi70","pricing_plan_id":"free"},{"bike_id":"b37cf8bc-ef87-4960-b38c-3279b894369f","system_id":"levelo_inurba_marseille","lat":43.231923,"lon":5.355545,"is_reserved":false,"is_disabled":false,"rental_uris":{"android":"levelo://app?vid=b37cf8bc-ef87-4960-b38c-3279b894369f","ios":"levelo://app?vid=b37cf8bc-ef87-4960-b38c-3279b894369f"},"vehicle_type_id":"4","last_reported":1701255959,"current_range_meters":32000,"station_id":"ce4bhu92rcd13ifvqi70","pricing_plan_id":"free"},{"bike_id":"186d6066-9e0c-4888-a302-fc806fc65b4c","system_id":"levelo_inurba_marseille","lat":43.231923,"lon":5.355545,"is_reserved":false,"is_disabled":false,"rental_uris":{"android":"levelo://app?vid=186d6066-9e0c-4888-a302-fc806fc65b4c","ios":"levelo://app?vid=186d6066-9e0c-4888-a302-fc806fc65b4c"},"vehicle_type_id":"4","last_reported":1701255959,"current_range_meters":19200,"station_id":"ce4bhu92rcd13ifvqi70","pricing_plan_id":"free"},{"bike_id":"13b9fc9b-b75d-4572-bdcb-ccbfbdf86053","system_id":"levelo_inurba_marseille","lat":43.23189,"lon":5.399803,"is_reserved":false,"is_disabled":false,"rental_uris":{"android":"levelo://app?vid=13b9fc9b-b75d-4572-bdcb-ccbfbdf86053","ios":"levelo://app?vid=13b9fc9b-b75d-4572-bdcb-ccbfbdf86053"},"vehicle_type_id":"4","last_reported":1701255959,"current_range_meters":17200,"station_id":"ce4bhn12rcd13ifvqgqg","pricing_plan_id":"free"},{"bike_id":"5c24af45-4ee2-4093-93e4-b4426fd403c2","system_id":"levelo_inurba_marseille","lat":43.231794,"lon":5.400052,"is_reserved":false,"is_disabled":false,"rental_uris":{"android":"levelo://app?vid=5c24af45-4ee2-4093-93e4-b4426fd403c2","ios":"levelo://app?vid=5c24af45-4ee2-4093-93e4-b4426fd403c2"},"vehicle_type_id":"4","last_reported":1701255959,"current_range_meters":28400,"station_id":"ce4bhn12rcd13ifvqgqg","pricing_plan_id":"free"},{"bike_id":"c0c7fee1-5737-446f-a765-fa607e9e3e85","system_id":"levelo_inurba_marseille","lat":43.231793,"lon":5.400044,"is_reserved":false,"is_disabled":false,"rental_uris":{"android":"levelo://app?vid=c0c7fee1-5737-446f-a765-fa607e9e3e85","ios":"levelo://app?vid=c0c7fee1-5737-446f-a765-fa607e9e3e85"},"vehicle_type_id":"4","last_reported":1701255959,"current_range_meters":21600,"station_id":"ce4bhn12rcd13ifvqgqg","pricing_plan_id":"free"},{"bike_id":"5ff68776-d431-4895-866c-f190f6faec3c","system_id":"levelo_inurba_marseille","lat":43.231793,"lon":5.400044,"is_reserved":false,"is_disabled":false,"rental_uris":{"android":"levelo://app?vid=5ff68776-d431-4895-866c-f190f6faec3c","ios":"levelo://app?vid=5ff68776-d431-4895-866c-f190f6faec3c"},"vehicle_type_id":"4","last_reported":1701255959,"current_range_meters":31200,"station_id":"ce4bhn12rcd13ifvqgqg","pricing_plan_id":"free"},{"bike_id":"bf302e61-4f67-454e-a18b-ae01c9d54d0c","system_id":"levelo_inurba_marseille","lat":43.231793,"lon":5.400044,"is_reserved":false,"is_disabled":false,"rental_uris":{"android":"levelo://app?vid=bf302e61-4f67-454e-a18b-ae01c9d54d0c","ios":"levelo://app?vid=bf302e61-4f67-454e-a18b-ae01c9d54d0c"},"vehicle_type_id":"4","last_reported":1701255959,"current_range_meters":21200,"station_id":"ce4bhn12rcd13ifvqgqg","pricing_plan_id":"free"},{"bike_id":"017c7298-0a0b-4b52-accd-1cfa244cac68","system_id":"levelo_inurba_marseille","lat":43.231793,"lon":5.400044,"is_reserved":false,"is_disabled":false,"rental_uris":{"android":"levelo://app?vid=017c7298-0a0b-4b52-accd-1cfa244cac68","ios":"levelo://app?vid=017c7298-0a0b-4b52-accd-1cfa244cac68"},"vehicle_type_id":"4","last_reported":1701255959,"current_range_meters":12400,"station_id":"ce4bhn12rcd13ifvqgqg","pricing_plan_id":"free"},