{"last_updated":1687975757,"ttl":30,"version":"2.2","data":{"bikes":[{"bike_id":"7a5412bf-75c3-4f4c-aa69-b624c84ca13d","system_id":"levelo_inurba_marseille","lat":43.313391,"lon":5.36706,"is_reserved":false,"is_disabled":false,"rental_uris":{"android":"levelo://app?vid=7a5412bf-75c3-4f4c-aa69-b624c84ca13d","ios":"levelo://app?vid=7a5412bf-75c3-4f4c-aa69-b624c84ca13d"},"vehicle_type_id":"4","last_reported":1687975758,"current_range_meters":0,"station_id":"ce4bgr92rcd13ifvqc6g","pricing_plan_id":"free"},{"bike_id":"666c1415-28e9-4944-87f5-29a628446c75","system_id":"levelo_inurba_marseille","lat":43.312239,"lon":5.368562,"is_reserved":false,"is_disabled":false,"rental_uris":{"android":"levelo://app?vid=666c1415-28e9-4944-87f5-29a628446c75","ios":"levelo://app?vid=666c1415-28e9-4944-87f5-29a628446c75"},"vehicle_type_id":"4","last_reported":1687975758,"current_range_meters":31200,"station_id":"ce4bgl92rcd13ifvqbq0","pricing_plan_id":"free"},{"bike_id":"0fd1d6ae-2776-42c5-a075-5663202d79d4","system_id":"levelo_inurba_marseille","lat":43.314811,"lon":5.373104,"is_reserved":false,"is_disabled":false,"rental_uris":{"android":"levelo://app?vid=0fd1d6ae-2776-42c5-a075-5663202d79d4","ios":"levelo://app?vid=0fd1d6ae-2776-42c5-a075-5663202d79d4"},"vehicle_type_id":"4","last_reported":1687975758,"current_range_meters":6000,"station_id":"ce4bgt12rcd13ifvqcd0","pricing_plan_id":"free"},{"bike_id":"2d38f92f-e1e7-4118-94cd-b82ec952921b","system_id":"levelo_inurba_marseille","lat":43.308606,"lon":5.372099,"is_reserved":false,"is_disabled":false,"rental_uris":{"android":"levelo://app?vid=2d38f92f-e1e7-4118-94cd-b82ec952921b","ios":"levelo://app?vid=2d38f92f-e1e7-4118-94cd-b82ec952921b"},"vehicle_type_id":"4","last_reported":1687975758,"current_range_meters":17600,"station_id":"ce4bguh2rcd13ifvqckg","pricing_plan_id":"free"},{"bike_id":"4e63d774-0dce-41e1-b456-356a696cda84","system_id":"levelo_inurba_marseille","lat":43.308614,"lon":5.372098,"is_reserved":false,"is_disabled":false,"rental_uris":{"android":"levelo://app?vid=4e63d774-0dce-41e1-b456-356a696cda84","ios":"levelo://app?vid=4e63d774-0dce-41e1-b456-356a696cda84"},"vehicle_type_id":"4","last_reported":1687975758,"current_range_meters":7200,"station_id":"ce4bguh2rcd13ifvqckg","pricing_plan_id":"free"},{"bike_id":"eb777db9-b2be-4d04-8176-d4fe8a10673d","system_id":"levelo_inurba_marseille","lat":43.305989,"lon":5.37225,"is_reserved":false,"is_disabled":false,"rental_uris":{"android":"levelo://app?vid=eb777db9-b2be-4d04-8176-d4fe8a10673d","ios":"levelo://app?vid=eb777db9-b2be-4d04-8176-d4fe8a10673d"},"vehicle_type_id":"4","last_reported":1687975758,"current_range_meters":800,"station_id":"ce4bgqh2rcd13ifvqc4g","pricing_plan_id":"free"},{"bike_id":"72900745-30f8-4d22-b043-07103336dd2e","system_id":"levelo_inurba_marseille","lat":43.305989,"lon":5.37225,"is_reserved":false,"is_disabled":false,"rental_uris":{"android":"levelo://app?vid=72900745-30f8-4d22-b043-07103336dd2e","ios":"levelo://app?vid=72900745-30f8-4d22-b043-07103336dd2e"},"vehicle_type_id":"4","last_reported":1687975758,"current_range_meters":4400,"station_id":"ce4bgqh2rcd13ifvqc4g","pricing_plan_id":"free"},{"bike_id":"e1d2edac-2794-46e2-93ae-ba2beea63b52","system_id":"levelo_inurba_marseille","lat":43.317075,"lon":5.377367,"is_reserved":false,"is_disabled":false,"rental_uris":{"android":"levelo://app?vid=e1d2edac-2794-46e2-93ae-ba2beea63b52","ios":"levelo://app?vid=e1d2edac-2794-46e2-93ae-ba2beea63b52"},"vehicle_type_id":"4","last_reported":1687975758,"current_range_meters":23600,"station_id":"ce4bgth2rcd13ifvqch0","pricing_plan_id":"free"},{"bike_id":"a824e22b-42c7-4677-a2fc-5c2f086dbd69","system_id":"levelo_inurba_marseille","lat":43.315293,"lon":5.380349,"is_reserved":false,"is_disabled":false,"rental_uris":{"android":"levelo://app?vid=a824e22b-42c7-4677-a2fc-5c2f086dbd69","ios":"levelo://app?vid=a824e22b-42c7-4677-a2fc-5c2f086dbd69"},"vehicle_type_id":"4","last_reported":1687975758,"current_range_meters":6000,"station_id":"ce4bhsp2rcd13ifvqi50","pricing_plan_id":"free"},{"bike_id":"01553a99-c344-4a19-9344-b1ed88fa815f","system_id":"levelo_inurba_marseille","lat":43.30183,"lon":5.36614,"is_reserved":false,"is_disabled":false,"rental_uris":{"android":"levelo://app?vid=01553a99-c344-4a19-9344-b1ed88fa815f","ios":"levelo://app?vid=01553a99-c344-4a19-9344-b1ed88fa815f"},"vehicle_type_id":"4","last_reported":1687975758,"current_range_meters":29600,"station_id":"ce4bgrh2rcd13ifvqc8g","pricing_plan_id":"free"},{"bike_id":"4f24a254-dc59-4226-b43a-71e359e0985a","system_id":"levelo_inurba_marseille","lat":43.308012,"lon":5.381511,"is_reserved":false,"is_disabled":false,"rental_uris":{"android":"levelo://app?vid=4f24a254-dc59-4226-b43a-71e359e0985a","ios":"levelo://app?vid=4f24a254-dc59-4226-b43a-71e359e0985a"},"vehicle_type_id":"4","last_reported":1687975758,"current_range_meters":13200,"station_id":"ce4bgt12rcd13ifvqce0","pricing_plan_id":"free"},{"bike_id":"dae948c5-a8ab-458f-902c-8d25f306bbcf","system_id":"levelo_inurba_marseille","lat":43.308012,"lon":5.381511,"is_reserved":false,"is_disabled":false,"rental_uris":{"android":"levelo://app?vid=dae948c5-a8ab-458f-902c-8d25f306bbcf","ios":"levelo://app?vid=dae948c5-a8ab-458f-902c-8d25f306bbcf"},"vehicle_type_id":"4","last_reported":1687975758,"current_range_meters":7200,"station_id":"ce4bgt12rcd13ifvqce0","pricing_plan_id":"free"},{"bike_id":"4b446b36-0b3f-4ad5-90bc-f3dd4eb945cb","system_id":"levelo_inurba_marseille","lat":43.319935,"lon":5.381699,"is_reserved":false,"is_disabled":false,"rental_uris":{"android":"levelo://app?vid=4b446b36-0b3f-4ad5-90bc-f3dd4eb945cb","ios":"levelo://app?vid=4b446b36-0b3f-4ad5-90bc-f3dd4eb945cb"},"vehicle_type_id":"4","last_reported":1687975758,"current_range_meters":17200,"station_id":"ce4bhr12rcd13ifvqhpg","pricing_plan_id":"free"},{"bike_id":"0db94586-f0fd-4170-bfbd-f083824c89f1","system_id":"levelo_inurba_marseille","lat":43.313571,"lon":5.384829,"is_reserved":false,"is_disabled":false,"rental_uris":{"android":"levelo://app?vid=0db94586-f0fd-4170-bfbd-f083824c89f1","ios":"levelo://app?vid=0db94586-f0fd-4170-bfbd-f083824c89f1"},"vehicle_type_id":"4","last_reported":1687975758,"current_range_meters":25600,"station_id":"ce4bgt92rcd13ifvqcf0","pricing_plan_id":"free"},{"bike_id":"a19f8fa9-92c3-4495-b09f-177b2ae76d0e","system_id":"levelo_inurba_marseille","lat":43.299222,"lon":5.365554,"is_reserved":false,"is_disabled":false,"rental_uris":{"android":"levelo://app?vid=a19f8fa9-92c3-4495-b09f-177b2ae76d0e","ios":"levelo://app?vid=a19f8fa9-92c3-4495-b09f-177b2ae76d0e"},"vehicle_type_id":"4","last_reported":1687975758,"current_range_meters":12000,"station_id":"ce4bgm92rcd13ifvqbr0","pricing_plan_id":"free"},{"bike_id":"2ba4bf3a-43a8-4fcc-b6b6-01a48deaba83","system_id":"levelo_inurba_marseille","lat":43.298433,"lon":5.362774,"is_reserved":false,"is_disabled":false,"rental_uris":{"android":"levelo://app?vid=2ba4bf3a-43a8-4fcc-b6b6-01a48deaba83","ios":"levelo://app?vid=2ba4bf3a-43a8-4fcc-b6b6-01a48deaba83"},"vehicle_type_id":"4","last_reported":1687975758,"current_range_meters":800,"station_id":"ce4bgpp2rcd13ifvqc3g","pricing_plan_id":"free"},{"bike_id":"71713399-bd72-4246-ab91-8db403d3a4e0","system_id":"levelo_inurba_marseille","lat":43.298433,"lon":5.362774,"is_reserved":false,"is_disabled":false,"rental_uris":{"android":"levelo://app?vid=71713399-bd72-4246-ab91-8db403d3a4e0","ios":"levelo://app?vid=71713399-bd72-4246-ab91-8db403d3a4e0"},"vehicle_type_id":"4","last_reported":1687975758,"current_range_meters":4000,"station_id":"ce4bgpp2rcd13ifvqc3g","pricing_plan_id":"free"},{"bike_id":"b26299ea-6fa5-4c15-b2dd-e08b6c8ac838","system_id":"levelo_inurba_marseille","lat":43.298433,"lon":5.362774,"is_reserved":false,"is_disabled":false,"rental_uris":{"android":"levelo://app?vid=b26299ea-6fa5-4c15-b2dd-e08b6c8ac838","ios":"levelo://app?vid=b26299ea-6fa5-4c15-b2dd-e08b6c8ac838"},"vehicle_type_id":"4","last_reported":1687975758,"current_range_meters":22800,"station_id":"ce4bgpp2rcd13ifvqc3g","pricing_plan_id":"free"},{"bike_id":"e0d0291c-ec75-41db-a9f0-126642f983d8","system_id":"levelo_inurba_marseille","lat":43.298433,"lon":5.362774,"is_reserved":false,"is_disabled":false,"rental_uris":{"android":"levelo://app?vid=e0d0291c-ec75-41db-a9f0-126642f983d8","ios":"levelo://app?vid=e0d0291c-ec75-41db-a9f0-126642f983d8"},"vehicle_type_id":"4","last_reported":1687975758,"current_range_meters":15600,"station_id":"ce4bgpp2rcd13ifvqc3g","pricing_plan_id":"free"},{"bike_id":"f7c98b2f-309d-4069-a7b5-bf1aaf234976","system_id":"levelo_inurba_marseille","lat":43.298433,"lon":5.362774,"is_reserved":false,"is_disabled":false,"rental_uris":{"android":"levelo://app?vid=f7c98b2f-309d-4069-a7b5-bf1aaf234976","ios":"levelo://app?vid=f7c98b2f-309d-4069-a7b5-bf1aaf234976"},"vehicle_type_id":"4","last_reported":1687975758,"current_range_meters":26800,"station_id":"ce4bgpp2rcd13ifvqc3g","pricing_plan_id":"free"},{"bike_id":"2f9b8c82-aa41-4c92-b94d-8f6894270f4d","system_id":"levelo_inurba_marseille","lat":43.299243,"lon":5.374807,"is_reserved":false,"is_disabled":false,"rental_uris":{"android":"levelo://app?vid=2f9b8c82-aa41-4c92-b94d-8f6894270f4d","ios":"levelo://app?vid=2f9b8c82-aa41-4c92-b94d-8f6894270f4d"},"vehicle_type_id":"4","last_reported":1687975758,"current_range_meters":5200,"station_id":"ce4bgjh2rcd13ifvqbg0","pricing_plan_id":"free"},{"bike_id":"f3399d83-ec82-46b3-8b33-88dc45f42672","system_id":"levelo_inurba_marseille","lat":43.298433,"lon":5.362774,"is_reserved":false,"is_disabled":false,"rental_uris":{"android":"levelo://app?vid=f3399d83-ec82-46b3-8b33-88dc45f42672","ios":"levelo://app?vid=f3399d83-ec82-46b3-8b33-88dc45f42672"},"vehicle_type_id":"4","last_reported":1687975758,"current_range_meters":17200,"station_id":"ce4bgpp2rcd13ifvqc3g","pricing_plan_id":"free"},{"bike_id":"0bd798ff-f9de-41c0-b39f-1c23ff58795b","system_id":"levelo_inurba_marseille","lat":43.298433,"lon":5.362774,"is_reserved":false,"is_disabled":false,"rental_uris":{"android":"levelo://app?vid=0bd798ff-f9de-41c0-b39f-1c23ff58795b","ios":"levelo://app?vid=0bd798ff-f9de-41c0-b39f-1c23ff58795b"},"vehicle_type_id":"4","last_reported":1687975758,"current_range_meters":4400,"station_id":"ce4bgpp2rcd13ifvqc3g","pricing_plan_id":"free"},{"bike_id":"50883f5f-2b82-42ee-ad3c-ef7b25d578e8","system_id":"levelo_inurba_marseille","lat":43.311722,"lon":5.387247,"is_reserved":false,"is_disabled":false,"rental_uris":{"android":"levelo://app?vid=50883f5f-2b82-42ee-ad3c-ef7b25d578e8","ios":"levelo://app?vid=50883f5f-2b82-42ee-ad3c-ef7b25d578e8"},"vehicle_type_id":"4","last_reported":1687975758,"current_range_meters":18000,"station_id":"ce4bgv12rcd13ifvqcp0","pricing_plan_id":"free"},{"bike_id":"6b0c689b-1487-4332-9e38-38fef09a19be","system_id":"levelo_inurba_marseille","lat":43.311722,"lon":5.387247,"is_reserved":false,"is_disabled":false,"rental_uris":{"android":"levelo://app?vid=6b0c689b-1487-4332-9e38-38fef09a19be","ios":"levelo://app?vid=6b0c689b-1487-4332-9e38-38fef09a19be"},"vehicle_type_id":"4","last_reported":1687975758,"current_range_meters":23200,"station_id":"ce4bgv12rcd13ifvqcp0","pricing_plan_id":"free"},{"bike_id":"0d71a189-e69c-4ee8-a975-44e9d9b44f03","system_id":"levelo_inurba_marseille","lat":43.311722,"lon":5.387247,"is_reserved":false,"is_disabled":false,"rental_uris":{"android":"levelo://app?vid=0d71a189-e69c-4ee8-a975-44e9d9b44f03","ios":"levelo://app?vid=0d71a189-e69c-4ee8-a975-44e9d9b44f03"},"vehicle_type_id":"4","last_reported":1687975758,"current_range_meters":15600,"station_id":"ce4bgv12rcd13ifvqcp0","pricing_plan_id":"free"},{"bike_id":"5cc810bb-d47c-4106-a95a-35a5709774a0","system_id":"levelo_inurba_marseille","lat":43.311722,"lon":5.387247,"is_reserved":false,"is_disabled":false,"rental_uris":{"android":"levelo://app?vid=5cc810bb-d47c-4106-a95a-35a5709774a0","ios":"levelo://app?vid=5cc810bb-d47c-4106-a95a-35a5709774a0"},"vehicle_type_id":"4","last_reported":1687975758,"current_range_meters":24800,"station_id":"ce4bgv12rcd13ifvqcp0","pricing_plan_id":"free"},{"bike_id":"f1a62f32-45f8-45e9-8dcb-5a9ceed53d39","system_id":"levelo_inurba_marseille","lat":43.311722,"lon":5.387247,"is_reserved":false,"is_disabled":false,"rental_uris":{"android":"levelo://app?vid=f1a62f32-45f8-45e9-8dcb-5a9ceed53d39","ios":"levelo://app?vid=f1a62f32-45f8-45e9-8dcb-5a9ceed53d39"},"vehicle_type_id":"4","last_reported":1687975758,"current_range_meters":0,"station_id":"ce4bgv12rcd13ifvqcp0","pricing_plan_id":"free"},{"bike_id":"42bfcae4-995c-4e3b-9113-da628ac20ca1","system_id":"levelo_inurba_marseille","lat":43.297794,"lon":5.370888,"is_reserved":false,"is_disabled":false,"rental_uris":{"android":"levelo://app?vid=42bfcae4-995c-4e3b-9113-da628ac20ca1","ios":"levelo://app?vid=42bfcae4-995c-4e3b-9113-da628ac20ca1"},"vehicle_type_id":"4","last_reported":1687975758,"current_range_meters":2400,"station_id":"ce4bgop2rcd13ifvqc1g","pricing_plan_id":"free"},{"bike_id":"4757d125-d9b5-4259-9324-f8fac62bc8f9","system_id":"levelo_inurba_marseille","lat":43.297774,"lon":5.370875,"is_reserved":false,"is_disabled":false,"rental_uris":{"android":"levelo://app?vid=4757d125-d9b5-4259-9324-f8fac62bc8f9","ios":"levelo://app?vid=4757d125-d9b5-4259-9324-f8fac62bc8f9"},"vehicle_type_id":"4","last_reported":1687975758,"current_range_meters":1200,"station_id":"ce4bgop2rcd13ifvqc1g","pricing_plan_id":"free"},{"bike_id":"86b9fb7f-a2c3-4082-9faa-7e3f901f5c30","system_id":"levelo_inurba_marseille","lat":43.328371,"lon":5.366912,"is_reserved":false,"is_disabled":false,"rental_uris":{"android":"levelo://app?vid=86b9fb7f-a2c3-4082-9faa-7e3f901f5c30","ios":"levelo://app?vid=86b9fb7f-a2c3-4082-9faa-7e3f901f5c30"},"vehicle_type_id":"4","last_reported":1687975758,"current_range_meters":19600,"station_id":"ce4bhs92rcd13ifvqi0g","pricing_plan_id":"free"},{"bike_id":"07fc5e4e-23c0-4e7f-baff-848452f6a527","system_id":"levelo_inurba_marseille","lat":43.32824,"lon":5.36682,"is_reserved":false,"is_disabled":false,"rental_uris":{"android":"levelo://app?vid=07fc5e4e-23c0-4e7f-baff-848452f6a527","ios":"levelo://app?vid=07fc5e4e-23c0-4e7f-baff-848452f6a527"},"vehicle_type_id":"4","last_reported":1687975758,"current_range_meters":22000,"station_id":"ce4bhs92rcd13ifvqi0g","pricing_plan_id":"free"},{"bike_id":"f86c5384-6d0d-438d-8feb-49ba8085fa8c","system_id":"levelo_inurba_marseille","lat":43.328371,"lon":5.366912,"is_reserved":false,"is_disabled":false,"rental_uris":{"android":"levelo://app?vid=f86c5384-6d0d-438d-8feb-49ba8085fa8c","ios":"levelo://app?vid=f86c5384-6d0d-438d-8feb-49ba8085fa8c"},"vehicle_type_id":"4","last_reported":1687975758,"current_range_meters":18400,"station_id":"ce4bhs92rcd13ifvqi0g","pricing_plan_id":"free"},{"bike_id":"6582f173-7b2c-4a42-844c-19148b9fbe1b","system_id":"levelo_inurba_marseille","lat":43.328371,"lon":5.366912,"is_reserved":false,"is_disabled":false,"rental_uris":{"android":"levelo://app?vid=6582f173-7b2c-4a42-844c-19148b9fbe1b","ios":"levelo://app?vid=6582f173-7b2c-4a42-844c-19148b9fbe1b"},"vehicle_type_id":"4","last_reported":1687975758,"current_range_meters":18000,"station_id":"ce4bhs92rcd13ifvqi0g","pricing_plan_id":"free"},{"bike_id":"4a06b224-8456-4335-98f3-dcc5eeee7538","system_id":"levelo_inurba_marseille","lat":43.328371,"lon":5.366912,"is_reserved":false,"is_disabled":false,"rental_uris":{"android":"levelo://app?vid=4a06b224-8456-4335-98f3-dcc5eeee7538","ios":"levelo://app?vid=4a06b224-8456-4335-98f3-dcc5eeee7538"},"vehicle_type_id":"4","last_reported":1687975758,"current_range_meters":0,"station_id":"ce4bhs92rcd13ifvqi0g","pricing_plan_id":"free"},{"bike_id":"74960633-2b88-4c2f-a74e-024991efb4ba","system_id":"levelo_inurba_marseille","lat":43.328371,"lon":5.366912,"is_reserved":false,"is_disabled":false,"rental_uris":{"android":"levelo://app?vid=74960633-2b88-4c2f-a74e-024991efb4ba","ios":"levelo://app?vid=74960633-2b88-4c2f-a74e-024991efb4ba"},"vehicle_type_id":"4","last_reported":1687975758,"current_range_meters":23200,"station_id":"ce4bhs92rcd13ifvqi0g","pricing_plan_id":"free"},{"bike_id":"4ad0820a-b4f0-4687-9297-85e68595ea74","system_id":"levelo_inurba_marseille","lat":43.328371,"lon":5.366909,"is_reserved":false,"is_disabled":false,"rental_uris":{"android":"levelo://app?vid=4ad0820a-b4f0-4687-9297-85e68595ea74","ios":"levelo://app?vid=4ad0820a-b4f0-4687-9297-85e68595ea74"},"vehicle_type_id":"4","last_reported":1687975758,"current_range_meters":15600,"station_id":"ce4bhs92rcd13ifvqi0g","pricing_plan_id":"free"},{"bike_id":"52c17931-f235-4280-a010-fb1d15e44b39","system_id":"levelo_inurba_marseille","lat":43.32832,"lon":5.3668,"is_reserved":false,"is_disabled":false,"rental_uris":{"android":"levelo://app?vid=52c17931-f235-4280-a010-fb1d15e44b39","ios":"levelo://app?vid=52c17931-f235-4280-a010-fb1d15e44b39"},"vehicle_type_id":"4","last_reported":1687975758,"current_range_meters":28400,"station_id":"ce4bhs92rcd13ifvqi0g","pricing_plan_id":"free"},{"bike_id":"8d98417a-cbe4-4269-8bc9-598373a7d5de","system_id":"levelo_inurba_marseille","lat":43.32869,"lon":5.36312,"is_reserved":false,"is_disabled":false,"rental_uris":{"android":"levelo://app?vid=8d98417a-cbe4-4269-8bc9-598373a7d5de","ios":"levelo://app?vid=8d98417a-cbe4-4269-8bc9-598373a7d5de"},"vehicle_type_id":"4","last_reported":1687975758,"current_range_meters":2000,"station_id":"","pricing_plan_id":"free"},{"bike_id":"2464cb8e-612a-4b7a-937b-b1a57070bfdc","system_id":"levelo_inurba_marseille","lat":43.296131,"lon":5.370791,"is_reserved":false,"is_disabled":false,"rental_uris":{"android":"levelo://app?vid=2464cb8e-612a-4b7a-937b-b1a57070bfdc","ios":"levelo://app?vid=2464cb8e-612a-4b7a-937b-b1a57070bfdc"},"vehicle_type_id":"4","last_reported":1687975758,"current_range_meters":30000,"station_id":"ce4bgnh2rcd13ifvqc0g","pricing_plan_id":"free"},{"bike_id":"1339395a-a943-43be-8848-e069237987cb","system_id":"levelo_inurba_marseille","lat":43.29573,"lon":5.367355,"is_reserved":false,"is_disabled":false,"rental_uris":{"android":"levelo://app?vid=1339395a-a943-43be-8848-e069237987cb","ios":"levelo://app?vid=1339395a-a943-43be-8848-e069237987cb"},"vehicle_type_id":"4","last_reported":1687975758,"current_range_meters":800,"station_id":"ce4bgph2rcd13ifvqc2g","pricing_plan_id":"free"},{"bike_id":"013838fc-df76-4f54-8cd6-a6f3ea5961c3","system_id":"levelo_inurba_marseille","lat":43.296131,"lon":5.370791,"is_reserved":false,"is_disabled":false,"rental_uris":{"android":"levelo://app?vid=013838fc-df76-4f54-8cd6-a6f3ea5961c3","ios":"levelo://app?vid=013838fc-df76-4f54-8cd6-a6f3ea5961c3"},"vehicle_type_id":"4","last_reported":1687975758,"current_range_meters":8000,"station_id":"ce4bgnh2rcd13ifvqc0g","pricing_plan_id":"free"},{"bike_id":"46869a10-ba66-49a5-829b-85cba8ebe2de","system_id":"levelo_inurba_marseille","lat":43.30945,"lon":5.39031,"is_reserved":false,"is_disabled":false,"rental_uris":{"android":"levelo://app?vid=46869a10-ba66-49a5-829b-85cba8ebe2de","ios":"levelo://app?vid=46869a10-ba66-49a5-829b-85cba8ebe2de"},"vehicle_type_id":"4","last_reported":1687975758,"current_range_meters":0,"station_id":"ce4bgup2rcd13ifvqco0","pricing_plan_id":"free"},{"bike_id":"87fe7ecc-58f3-4d60-a392-44f44f76d63a","system_id":"levelo_inurba_marseille","lat":43.317557,"lon":5.390173,"is_reserved":false,"is_disabled":false,"rental_uris":{"android":"levelo://app?vid=87fe7ecc-58f3-4d60-a392-44f44f76d63a","ios":"levelo://app?vid=87fe7ecc-58f3-4d60-a392-44f44f76d63a"},"vehicle_type_id":"4","last_reported":1687975758,"current_range_meters":10000,"station_id":"ce4bhqp2rcd13ifvqhng","pricing_plan_id":"free"},{"bike_id":"423caa52-0d59-4734-bcc0-8c790400e111","system_id":"levelo_inurba_marseille","lat":43.317557,"lon":5.390173,"is_reserved":false,"is_disabled":false,"rental_uris":{"android":"levelo://app?vid=423caa52-0d59-4734-bcc0-8c790400e111","ios":"levelo://app?vid=423caa52-0d59-4734-bcc0-8c790400e111"},"vehicle_type_id":"4","last_reported":1687975758,"current_range_meters":28800,"station_id":"ce4bhqp2rcd13ifvqhng","pricing_plan_id":"free"},{"bike_id":"f504771a-9775-4f18-af28-8fad52be4d3e","system_id":"levelo_inurba_marseille","lat":43.295279,"lon":5.375048,"is_reserved":false,"is_disabled":false,"rental_uris":{"android":"levelo://app?vid=f504771a-9775-4f18-af28-8fad52be4d3e","ios":"levelo://app?vid=f504771a-9775-4f18-af28-8fad52be4d3e"},"vehicle_type_id":"4","last_reported":1687975758,"current_range_meters":13200,"station_id":"ce4bgkp2rcd13ifvqbmg","pricing_plan_id":"free"},{"bike_id":"ab4c8bbd-1e03-45f7-8139-5cd1c8ac9360","system_id":"levelo_inurba_marseille","lat":43.29918,"lon":5.38516,"is_reserved":false,"is_disabled":false,"rental_uris":{"android":"levelo://app?vid=ab4c8bbd-1e03-45f7-8139-5cd1c8ac9360","ios":"levelo://app?vid=ab4c8bbd-1e03-45f7-8139-5cd1c8ac9360"},"vehicle_type_id":"4","last_reported":1687975758,"current_range_meters":400,"station_id":"ce4bhb92rcd13ifvqen0","pricing_plan_id":"free"},{"bike_id":"6b6b5e92-75b0-4619-8a07-d993192a3d44","system_id":"levelo_inurba_marseille","lat":43.32362,"lon":5.38878,"is_reserved":false,"is_disabled":false,"rental_uris":{"android":"levelo://app?vid=6b6b5e92-75b0-4619-8a07-d993192a3d44","ios":"levelo://app?vid=6b6b5e92-75b0-4619-8a07-d993192a3d44"},"vehicle_type_id":"4","last_reported":1687975758,"current_range_meters":0,"station_id":"ce4bhqp2rcd13ifvqhog","pricing_plan_id":"free"},{"bike_id":"eb5d817d-b48a-410f-b93c-98bafcec3519","system_id":"levelo_inurba_marseille","lat":43.32365,"lon":5.38884,"is_reserved":false,"is_disabled":false,"rental_uris":{"android":"levelo://app?vid=eb5d817d-b48a-410f-b93c-98bafcec3519","ios":"levelo://app?vid=eb5d817d-b48a-410f-b93c-98bafcec3519"},"vehicle_type_id":"4","last_reported":1687975758,"current_range_meters":18400,"station_id":"ce4bhqp2rcd13ifvqhog","pricing_plan_id":"free"},{"bike_id":"4b4e611d-1b21-4fe6-a41f-8225e3e3ac40","system_id":"levelo_inurba_marseille","lat":43.32364,"lon":5.38885,"is_reserved":false,"is_disabled":false,"rental_uris":{"android":"levelo://app?vid=4b4e611d-1b21-4fe6-a41f-8225e3e3ac40","ios":"levelo://app?vid=4b4e611d-1b21-4fe6-a41f-8225e3e3ac40"},"vehicle_type_id":"4","last_reported":1687975758,"current_range_meters":400,"station_id":"ce4bhqp2rcd13ifvqhog","pricing_plan_id":"free"},{"bike_id":"6047a7c6-8c97-46b2-8fe1-2c9b8980c374","system_id":"levelo_inurba_marseille","lat":43.32367,"lon":5.388836,"is_reserved":false,"is_disabled":false,"rental_uris":{"android":"levelo://app?vid=6047a7c6-8c97-46b2-8fe1-2c9b8980c374","ios":"levelo://app?vid=6047a7c6-8c97-46b2-8fe1-2c9b8980c374"},"vehicle_type_id":"4","last_reported":1687975758,"current_range_meters":4400,"station_id":"ce4bhqp2rcd13ifvqhog","pricing_plan_id":"free"},{"bike_id":"dfb50179-c345-41ab-a383-532269ec033a","system_id":"levelo_inurba_marseille","lat":43.32367,"lon":5.388836,"is_reserved":false,"is_disabled":false,"rental_uris":{"android":"levelo://app?vid=dfb50179-c345-41ab-a383-532269ec033a","ios":"levelo://app?vid=dfb50179-c345-41ab-a383-532269ec033a"},"vehicle_type_id":"4","last_reported":1687975758,"current_range_meters":13600,"station_id":"ce4bhqp2rcd13ifvqhog","pricing_plan_id":"free"},{"bike_id":"c737b305-2f9e-411a-b1ca-26b0f745d0f2","system_id":"levelo_inurba_marseille","lat":43.33185,"lon":5.36161,"is_reserved":false,"is_disabled":false,"rental_uris":{"android":"levelo://app?vid=c737b305-2f9e-411a-b1ca-26b0f745d0f2","ios":"levelo://app?vid=c737b305-2f9e-411a-b1ca-26b0f745d0f2"},"vehicle_type_id":"4","last_reported":1687975758,"current_range_meters":10000,"station_id":"","pricing_plan_id":"free"},{"bike_id":"afff99dd-9b88-4a84-9e35-ca8286684433","system_id":"levelo_inurba_marseille","lat":43.29601,"lon":5.381084,"is_reserved":false,"is_disabled":false,"rental_uris":{"android":"levelo://app?vid=afff99dd-9b88-4a84-9e35-ca8286684433","ios":"levelo://app?vid=afff99dd-9b88-4a84-9e35-ca8286684433"},"vehicle_type_id":"4","last_reported":1687975758,"current_range_meters":9600,"station_id":"ce4bgl12rcd13ifvqbo0","pricing_plan_id":"free"},{"bike_id":"6fb25cfe-68c1-4211-8299-e68c7ab1a972","system_id":"levelo_inurba_marseille","lat":43.293249,"lon":5.371578,"is_reserved":false,"is_disabled":false,"rental_uris":{"android":"levelo://app?vid=6fb25cfe-68c1-4211-8299-e68c7ab1a972","ios":"levelo://app?vid=6fb25cfe-68c1-4211-8299-e68c7ab1a972"},"vehicle_type_id":"4","last_reported":1687975758,"current_range_meters":0,"station_id":"ce4bgh92rcd13ifvqb40","pricing_plan_id":"free"},{"bike_id":"7fb6bd29-c299-4c14-92b5-5efd9bca6125","system_id":"levelo_inurba_marseille","lat":43.293009,"lon":5.374584,"is_reserved":false,"is_disabled":false,"rental_uris":{"android":"levelo://app?vid=7fb6bd29-c299-4c14-92b5-5efd9bca6125","ios":"levelo://app?vid=7fb6bd29-c299-4c14-92b5-5efd9bca6125"},"vehicle_type_id":"4","last_reported":1687975758,"current_range_meters":400,"station_id":"ce4bgi12rcd13ifvqb70","pricing_plan_id":"free"},{"bike_id":"a54b4632-0483-47de-a8e1-a3ac664c7745","system_id":"levelo_inurba_marseille","lat":43.30718,"lon":5.39554,"is_reserved":false,"is_disabled":false,"rental_uris":{"android":"levelo://app?vid=a54b4632-0483-47de-a8e1-a3ac664c7745","ios":"levelo://app?vid=a54b4632-0483-47de-a8e1-a3ac664c7745"},"vehicle_type_id":"4","last_reported":1687975758,"current_range_meters":14800,"station_id":"","pricing_plan_id":"free"},{"bike_id":"88112adb-d123-4e94-9567-0142e065fdf7","system_id":"levelo_inurba_marseille","lat":43.291994,"lon":5.357886,"is_reserved":false,"is_disabled":false,"rental_uris":{"android":"levelo://app?vid=88112adb-d123-4e94-9567-0142e065fdf7","ios":"levelo://app?vid=88112adb-d123-4e94-9567-0142e065fdf7"},"vehicle_type_id":"4","last_reported":1687975758,"current_range_meters":2400,"station_id":"ce4bhb12rcd13ifvqel0","pricing_plan_id":"free"},{"bike_id":"54d4ee8b-9b68-46e7-a9a3-e25f42501e99","system_id":"levelo_inurba_marseille","lat":43.292,"lon":5.35796,"is_reserved":false,"is_disabled":false,"rental_uris":{"android":"levelo://app?vid=54d4ee8b-9b68-46e7-a9a3-e25f42501e99","ios":"levelo://app?vid=54d4ee8b-9b68-46e7-a9a3-e25f42501e99"},"vehicle_type_id":"4","last_reported":1687975758,"current_range_meters":31200,"station_id":"ce4bhb12rcd13ifvqel0","pricing_plan_id":"free"},{"bike_id":"1572ba72-d0ef-4a3d-947b-d9688a2a7777","system_id":"levelo_inurba_marseille","lat":43.31333,"lon":5.39686,"is_reserved":false,"is_disabled":false,"rental_uris":{"android":"levelo://app?vid=1572ba72-d0ef-4a3d-947b-d9688a2a7777","ios":"levelo://app?vid=1572ba72-d0ef-4a3d-947b-d9688a2a7777"},"vehicle_type_id":"4","last_reported":1687975758,"current_range_meters":10000,"station_id":"ce4bgvp2rcd13ifvqcu0","pricing_plan_id":"free"},{"bike_id":"32619e63-ef17-4ad1-adde-eadaf014f053","system_id":"levelo_inurba_marseille","lat":43.31327,"lon":5.39689,"is_reserved":false,"is_disabled":false,"rental_uris":{"android":"levelo://app?vid=32619e63-ef17-4ad1-adde-eadaf014f053","ios":"levelo://app?vid=32619e63-ef17-4ad1-adde-eadaf014f053"},"vehicle_type_id":"4","last_reported":1687975758,"current_range_meters":4000,"station_id":"ce4bgvp2rcd13ifvqcu0","pricing_plan_id":"free"},{"bike_id":"3488bca4-9c87-4b3e-8597-fc289ad66beb","system_id":"levelo_inurba_marseille","lat":43.31326,"lon":5.39693,"is_reserved":false,"is_disabled":false,"rental_uris":{"android":"levelo://app?vid=3488bca4-9c87-4b3e-8597-fc289ad66beb","ios":"levelo://app?vid=3488bca4-9c87-4b3e-8597-fc289ad66beb"},"vehicle_type_id":"4","last_reported":1687975758,"current_range_meters":11600,"station_id":"ce4bgvp2rcd13ifvqcu0","pricing_plan_id":"free"},{"bike_id":"1c6ffaf8-609d-44d7-8550-327596cdbd5e","system_id":"levelo_inurba_marseille","lat":43.29529,"lon":5.385581,"is_reserved":false,"is_disabled":false,"rental_uris":{"android":"levelo://app?vid=1c6ffaf8-609d-44d7-8550-327596cdbd5e","ios":"levelo://app?vid=1c6ffaf8-609d-44d7-8550-327596cdbd5e"},"vehicle_type_id":"4","last_reported":1687975758,"current_range_meters":0,"station_id":"ce4bgih2rcd13ifvqba0","pricing_plan_id":"free"},{"bike_id":"b7a20aa8-b915-4525-b21a-8512be194f16","system_id":"levelo_inurba_marseille","lat":43.29529,"lon":5.385581,"is_reserved":false,"is_disabled":false,"rental_uris":{"android":"levelo://app?vid=b7a20aa8-b915-4525-b21a-8512be194f16","ios":"levelo://app?vid=b7a20aa8-b915-4525-b21a-8512be194f16"},"vehicle_type_id":"4","last_reported":1687975758,"current_range_meters":400,"station_id":"ce4bgih2rcd13ifvqba0","pricing_plan_id":"free"},{"bike_id":"59dfd2ee-e05e-42ec-87f2-4898718e5205","system_id":"levelo_inurba_marseille","lat":43.29529,"lon":5.385581,"is_reserved":false,"is_disabled":false,"rental_uris":{"android":"levelo://app?vid=59dfd2ee-e05e-42ec-87f2-4898718e5205","ios":"levelo://app?vid=59dfd2ee-e05e-42ec-87f2-4898718e5205"},"vehicle_type_id":"4","last_reported":1687975758,"current_range_meters":2000,"station_id":"ce4bgih2rcd13ifvqba0","pricing_plan_id":"free"},{"bike_id":"ee36947b-1672-4450-b525-372e73a6d4c2","system_id":"levelo_inurba_marseille","lat":43.29421,"lon":5.38335,"is_reserved":false,"is_disabled":false,"rental_uris":{"android":"levelo://app?vid=ee36947b-1672-4450-b525-372e73a6d4c2","ios":"levelo://app?vid=ee36947b-1672-4450-b525-372e73a6d4c2"},"vehicle_type_id":"4","last_reported":1687975758,"current_range_meters":8800,"station_id":"ce4bh692rcd13ifvqea0","pricing_plan_id":"free"},{"bike_id":"6867df42-30dd-4825-b7fe-404564247748","system_id":"levelo_inurba_marseille","lat":43.294174,"lon":5.386231,"is_reserved":false,"is_disabled":false,"rental_uris":{"android":"levelo://app?vid=6867df42-30dd-4825-b7fe-404564247748","ios":"levelo://app?vid=6867df42-30dd-4825-b7fe-404564247748"},"vehicle_type_id":"4","last_reported":1687975758,"current_range_meters":10000,"station_id":"","pricing_plan_id":"free"},{"bike_id":"399ef6b6-bd49-40a3-a085-0dfa050cfb9f","system_id":"levelo_inurba_marseille","lat":43.29411,"lon":5.38614,"is_reserved":false,"is_disabled":false,"rental_uris":{"android":"levelo://app?vid=399ef6b6-bd49-40a3-a085-0dfa050cfb9f","ios":"levelo://app?vid=399ef6b6-bd49-40a3-a085-0dfa050cfb9f"},"vehicle_type_id":"4","last_reported":1687975758,"current_range_meters":2800,"station_id":"","pricing_plan_id":"free"},{"bike_id":"4ec3b7b6-4ac3-41ae-949c-268857a59da7","system_id":"levelo_inurba_marseille","lat":43.28939,"lon":5.36626,"is_reserved":false,"is_disabled":false,"rental_uris":{"android":"levelo://app?vid=4ec3b7b6-4ac3-41ae-949c-268857a59da7","ios":"levelo://app?vid=4ec3b7b6-4ac3-41ae-949c-268857a59da7"},"vehicle_type_id":"4","last_reported":1687975758,"current_range_meters":30800,"station_id":"ce4bhap2rcd13ifvqek0","pricing_plan_id":"free"},{"bike_id":"c1ed7980-1841-47f6-a02d-6e0d0679d809","system_id":"levelo_inurba_marseille","lat":43.292644,"lon":5.384257,"is_reserved":false,"is_disabled":false,"rental_uris":{"android":"levelo://app?vid=c1ed7980-1841-47f6-a02d-6e0d0679d809","ios":"levelo://app?vid=c1ed7980-1841-47f6-a02d-6e0d0679d809"},"vehicle_type_id":"4","last_reported":1687975758,"current_range_meters":6400,"station_id":"ce4bh692rcd13ifvqea0","pricing_plan_id":"free"},{"bike_id":"dc41910d-322a-450c-ae26-da6783f4c6d8","system_id":"levelo_inurba_marseille","lat":43.33034,"lon":5.38914,"is_reserved":false,"is_disabled":false,"rental_uris":{"android":"levelo://app?vid=dc41910d-322a-450c-ae26-da6783f4c6d8","ios":"levelo://app?vid=dc41910d-322a-450c-ae26-da6783f4c6d8"},"vehicle_type_id":"4","last_reported":1687975758,"current_range_meters":23200,"station_id":"ce4bhr92rcd13ifvqhrg","pricing_plan_id":"free"},{"bike_id":"f791cd7c-b8f7-43c1-93df-17bc665123c7","system_id":"levelo_inurba_marseille","lat":43.33045,"lon":5.38919,"is_reserved":false,"is_disabled":false,"rental_uris":{"android":"levelo://app?vid=f791cd7c-b8f7-43c1-93df-17bc665123c7","ios":"levelo://app?vid=f791cd7c-b8f7-43c1-93df-17bc665123c7"},"vehicle_type_id":"4","last_reported":1687975758,"current_range_meters":24800,"station_id":"ce4bhr92rcd13ifvqhrg","pricing_plan_id":"free"},{"bike_id":"f12ccb07-7800-44ad-be65-1523a8527b74","system_id":"levelo_inurba_marseille","lat":43.295169,"lon":5.390426,"is_reserved":false,"is_disabled":false,"rental_uris":{"android":"levelo://app?vid=f12ccb07-7800-44ad-be65-1523a8527b74","ios":"levelo://app?vid=f12ccb07-7800-44ad-be65-1523a8527b74"},"vehicle_type_id":"4","last_reported":1687975758,"current_range_meters":5600,"station_id":"ce4bh3p2rcd13ifvqdp0","pricing_plan_id":"free"},{"bike_id":"9a23fecc-ca9e-4956-add9-6f829a78288b","system_id":"levelo_inurba_marseille","lat":43.295169,"lon":5.390426,"is_reserved":false,"is_disabled":false,"rental_uris":{"android":"levelo://app?vid=9a23fecc-ca9e-4956-add9-6f829a78288b","ios":"levelo://app?vid=9a23fecc-ca9e-4956-add9-6f829a78288b"},"vehicle_type_id":"4","last_reported":1687975758,"current_range_meters":0,"station_id":"ce4bh3p2rcd13ifvqdp0","pricing_plan_id":"free"},{"bike_id":"88be9dce-0b50-456b-bc6d-5ac1b59b999f","system_id":"levelo_inurba_marseille","lat":43.30915,"lon":5.40121,"is_reserved":false,"is_disabled":false,"rental_uris":{"android":"levelo://app?vid=88be9dce-0b50-456b-bc6d-5ac1b59b999f","ios":"levelo://app?vid=88be9dce-0b50-456b-bc6d-5ac1b59b999f"},"vehicle_type_id":"4","last_reported":1687975758,"current_range_meters":30000,"station_id":"","pricing_plan_id":"free"},{"bike_id":"b152602a-aaa7-4eed-93ba-89050d9c58ba","system_id":"levelo_inurba_marseille","lat":43.3067,"lon":5.40078,"is_reserved":false,"is_disabled":false,"rental_uris":{"android":"levelo://app?vid=b152602a-aaa7-4eed-93ba-89050d9c58ba","ios":"levelo://app?vid=b152602a-aaa7-4eed-93ba-89050d9c58ba"},"vehicle_type_id":"4","last_reported":1687975758,"current_range_meters":22400,"station_id":"","pricing_plan_id":"free"},{"bike_id":"476cd57c-2e9c-4f0d-a086-f93a7e3396f6","system_id":"levelo_inurba_marseille","lat":43.337516,"lon":5.374747,"is_reserved":false,"is_disabled":false,"rental_uris":{"android":"levelo://app?vid=476cd57c-2e9c-4f0d-a086-f93a7e3396f6","ios":"levelo://app?vid=476cd57c-2e9c-4f0d-a086-f93a7e3396f6"},"vehicle_type_id":"4","last_reported":1687975758,"current_range_meters":27600,"station_id":"","pricing_plan_id":"free"},{"bike_id":"eec00e18-d949-499f-893b-33f19405becf","system_id":"levelo_inurba_marseille","lat":43.337557,"lon":5.374514,"is_reserved":false,"is_disabled":false,"rental_uris":{"android":"levelo://app?vid=eec00e18-d949-499f-893b-33f19405becf","ios":"levelo://app?vid=eec00e18-d949-499f-893b-33f19405becf"},"vehicle_type_id":"4","last_reported":1687975758,"current_range_meters":30000,"station_id":"","pricing_plan_id":"free"},{"bike_id":"568a4e7c-7049-47a9-9ae4-48960d9714ea","system_id":"levelo_inurba_marseille","lat":43.286961,"lon":5.373785,"is_reserved":false,"is_disabled":false,"rental_uris":{"android":"levelo://app?vid=568a4e7c-7049-47a9-9ae4-48960d9714ea","ios":"levelo://app?vid=568a4e7c-7049-47a9-9ae4-48960d9714ea"},"vehicle_type_id":"4","last_reported":1687975758,"current_range_meters":4400,"station_id":"ce4bh3p2rcd13ifvqdq0","pricing_plan_id":"free"},{"bike_id":"e9fed766-b52f-4ee1-9be4-0ecf467d5646","system_id":"levelo_inurba_marseille","lat":43.31235,"lon":5.40294,"is_reserved":false,"is_disabled":false,"rental_uris":{"android":"levelo://app?vid=e9fed766-b52f-4ee1-9be4-0ecf467d5646","ios":"levelo://app?vid=e9fed766-b52f-4ee1-9be4-0ecf467d5646"},"vehicle_type_id":"4","last_reported":1687975758,"current_range_meters":0,"station_id":"","pricing_plan_id":"free"},{"bike_id":"d0ace518-4907-4424-a284-f039f1b58c57","system_id":"levelo_inurba_marseille","lat":43.286593,"lon":5.363346,"is_reserved":false,"is_disabled":false,"rental_uris":{"android":"levelo://app?vid=d0ace518-4907-4424-a284-f039f1b58c57","ios":"levelo://app?vid=d0ace518-4907-4424-a284-f039f1b58c57"},"vehicle_type_id":"4","last_reported":1687975758,"current_range_meters":0,"station_id":"ce4bhah2rcd13ifvqej0","pricing_plan_id":"free"},{"bike_id":"b107072a-6dc4-4ac1-b98a-ed896b65a91f","system_id":"levelo_inurba_marseille","lat":43.295194,"lon":5.39397,"is_reserved":false,"is_disabled":false,"rental_uris":{"android":"levelo://app?vid=b107072a-6dc4-4ac1-b98a-ed896b65a91f","ios":"levelo://app?vid=b107072a-6dc4-4ac1-b98a-ed896b65a91f"},"vehicle_type_id":"4","last_reported":1687975758,"current_range_meters":4000,"station_id":"ce4bh292rcd13ifvqdf0","pricing_plan_id":"free"},{"bike_id":"a8c7ab10-a639-4468-9c05-64389b8dd2f7","system_id":"levelo_inurba_marseille","lat":43.28735,"lon":5.37664,"is_reserved":false,"is_disabled":false,"rental_uris":{"android":"levelo://app?vid=a8c7ab10-a639-4468-9c05-64389b8dd2f7","ios":"levelo://app?vid=a8c7ab10-a639-4468-9c05-64389b8dd2f7"},"vehicle_type_id":"4","last_reported":1687975758,"current_range_meters":27600,"station_id":"","pricing_plan_id":"free"},{"bike_id":"a11bef48-dbc8-4db1-9310-765ff56288e6","system_id":"levelo_inurba_marseille","lat":43.3024,"lon":5.40046,"is_reserved":false,"is_disabled":false,"rental_uris":{"android":"levelo://app?vid=a11bef48-dbc8-4db1-9310-765ff56288e6","ios":"levelo://app?vid=a11bef48-dbc8-4db1-9310-765ff56288e6"},"vehicle_type_id":"4","last_reported":1687975758,"current_range_meters":2400,"station_id":"","pricing_plan_id":"free"},{"bike_id":"8386fec0-67c2-4171-81dc-eb75dabcfd70","system_id":"levelo_inurba_marseille","lat":43.290336,"lon":5.386425,"is_reserved":false,"is_disabled":false,"rental_uris":{"android":"levelo://app?vid=8386fec0-67c2-4171-81dc-eb75dabcfd70","ios":"levelo://app?vid=8386fec0-67c2-4171-81dc-eb75dabcfd70"},"vehicle_type_id":"4","last_reported":1687975758,"current_range_meters":3200,"station_id":"ce4bh4p2rcd13ifvqe0g","pricing_plan_id":"free"},{"bike_id":"cc264496-9054-43f8-9017-a9c48f7a41ac","system_id":"levelo_inurba_marseille","lat":43.290345,"lon":5.38646,"is_reserved":false,"is_disabled":false,"rental_uris":{"android":"levelo://app?vid=cc264496-9054-43f8-9017-a9c48f7a41ac","ios":"levelo://app?vid=cc264496-9054-43f8-9017-a9c48f7a41ac"},"vehicle_type_id":"4","last_reported":1687975758,"current_range_meters":800,"station_id":"ce4bh4p2rcd13ifvqe0g","pricing_plan_id":"free"},{"bike_id":"a04b93fe-e073-4942-9d3a-4ade8ba813e5","system_id":"levelo_inurba_marseille","lat":43.286039,"lon":5.370679,"is_reserved":false,"is_disabled":false,"rental_uris":{"android":"levelo://app?vid=a04b93fe-e073-4942-9d3a-4ade8ba813e5","ios":"levelo://app?vid=a04b93fe-e073-4942-9d3a-4ade8ba813e5"},"vehicle_type_id":"4","last_reported":1687975758,"current_range_meters":31200,"station_id":"ce4bht12rcd13ifvqi60","pricing_plan_id":"free"},{"bike_id":"2fee0e5d-8927-44db-afbd-d2c0ccab54cc","system_id":"levelo_inurba_marseille","lat":43.286039,"lon":5.370679,"is_reserved":false,"is_disabled":false,"rental_uris":{"android":"levelo://app?vid=2fee0e5d-8927-44db-afbd-d2c0ccab54cc","ios":"levelo://app?vid=2fee0e5d-8927-44db-afbd-d2c0ccab54cc"},"vehicle_type_id":"4","last_reported":1687975758,"current_range_meters":18400,"station_id":"ce4bht12rcd13ifvqi60","pricing_plan_id":"free"},{"bike_id":"9483bf23-4f48-4a56-9f20-4cc8c4bbbd11","system_id":"levelo_inurba_marseille","lat":43.286039,"lon":5.370681,"is_reserved":false,"is_disabled":false,"rental_uris":{"android":"levelo://app?vid=9483bf23-4f48-4a56-9f20-4cc8c4bbbd11","ios":"levelo://app?vid=9483bf23-4f48-4a56-9f20-4cc8c4bbbd11"},"vehicle_type_id":"4","last_reported":1687975758,"current_range_meters":12800,"station_id":"ce4bht12rcd13ifvqi60","pricing_plan_id":"free"},{"bike_id":"691b65ed-d579-4505-80c9-c72d35d2bbe0","system_id":"levelo_inurba_marseille","lat":43.286039,"lon":5.370681,"is_reserved":false,"is_disabled":false,"rental_uris":{"android":"levelo://app?vid=691b65ed-d579-4505-80c9-c72d35d2bbe0","ios":"levelo://app?vid=691b65ed-d579-4505-80c9-c72d35d2bbe0"},"vehicle_type_id":"4","last_reported":1687975758,"current_range_meters":6000,"station_id":"ce4bht12rcd13ifvqi60","pricing_plan_id":"free"},{"bike_id":"d69fed3a-efe9-46fb-b1dc-1240b8978d3e","system_id":"levelo_inurba_marseille","lat":43.31645,"lon":5.40437,"is_reserved":false,"is_disabled":false,"rental_uris":{"android":"levelo://app?vid=d69fed3a-efe9-46fb-b1dc-1240b8978d3e","ios":"levelo://app?vid=d69fed3a-efe9-46fb-b1dc-1240b8978d3e"},"vehicle_type_id":"4","last_reported":1687975758,"current_range_meters":25200,"station_id":"ce4bh012rcd13ifvqd00","pricing_plan_id":"free"},{"bike_id":"a1061082-72cd-4df6-ab2e-ad89367acf22","system_id":"levelo_inurba_marseille","lat":43.291994,"lon":5.392907,"is_reserved":false,"is_disabled":false,"rental_uris":{"android":"levelo://app?vid=a1061082-72cd-4df6-ab2e-ad89367acf22","ios":"levelo://app?vid=a1061082-72cd-4df6-ab2e-ad89367acf22"},"vehicle_type_id":"4","last_reported":1687975758,"current_range_meters":7600,"station_id":"ce4bh192rcd13ifvqdd0","pricing_plan_id":"free"},{"bike_id":"5fc0f164-1ede-4237-95e8-5313c808ff2b","system_id":"levelo_inurba_marseille","lat":43.283998,"lon":5.375062,"is_reserved":false,"is_disabled":false,"rental_uris":{"android":"levelo://app?vid=5fc0f164-1ede-4237-95e8-5313c808ff2b","ios":"levelo://app?vid=5fc0f164-1ede-4237-95e8-5313c808ff2b"},"vehicle_type_id":"4","last_reported":1687975758,"current_range_meters":8400,"station_id":"ce4bh412rcd13ifvqds0","pricing_plan_id":"free"},{"bike_id":"776db199-54b4-464d-bbee-df6c158c6490","system_id":"levelo_inurba_marseille","lat":43.291994,"lon":5.392907,"is_reserved":false,"is_disabled":false,"rental_uris":{"android":"levelo://app?vid=776db199-54b4-464d-bbee-df6c158c6490","ios":"levelo://app?vid=776db199-54b4-464d-bbee-df6c158c6490"},"vehicle_type_id":"4","last_reported":1687975758,"current_range_meters":12800,"station_id":"ce4bh192rcd13ifvqdd0","pricing_plan_id":"free"},{"bike_id":"32b8a045-5575-4863-a83c-005475628e79","system_id":"levelo_inurba_marseille","lat":43.284534,"lon":5.358662,"is_reserved":false,"is_disabled":false,"rental_uris":{"android":"levelo://app?vid=32b8a045-5575-4863-a83c-005475628e79","ios":"levelo://app?vid=32b8a045-5575-4863-a83c-005475628e79"},"vehicle_type_id":"4","last_reported":1687975758,"current_range_meters":9200,"station_id":"ce4bhah2rcd13ifvqei0","pricing_plan_id":"free"},{"bike_id":"be939943-8001-4f8f-a324-c2cb41c2de05","system_id":"levelo_inurba_marseille","lat":43.284534,"lon":5.358662,"is_reserved":false,"is_disabled":false,"rental_uris":{"android":"levelo://app?vid=be939943-8001-4f8f-a324-c2cb41c2de05","ios":"levelo://app?vid=be939943-8001-4f8f-a324-c2cb41c2de05"},"vehicle_type_id":"4","last_reported":1687975758,"current_range_meters":21200,"station_id":"ce4bhah2rcd13ifvqei0","pricing_plan_id":"free"},{"bike_id":"172906d5-a52e-42bf-b7b6-0f61e3032c23","system_id":"levelo_inurba_marseille","lat":43.284534,"lon":5.358662,"is_reserved":false,"is_disabled":false,"rental_uris":{"android":"levelo://app?vid=172906d5-a52e-42bf-b7b6-0f61e3032c23","ios":"levelo://app?vid=172906d5-a52e-42bf-b7b6-0f61e3032c23"},"vehicle_type_id":"4","last_reported":1687975758,"current_range_meters":16000,"station_id":"ce4bhah2rcd13ifvqei0","pricing_plan_id":"free"},{"bike_id":"88b469c2-b2a7-4bef-a932-28d854992574","system_id":"levelo_inurba_marseille","lat":43.284534,"lon":5.358662,"is_reserved":false,"is_disabled":false,"rental_uris":{"android":"levelo://app?vid=88b469c2-b2a7-4bef-a932-28d854992574","ios":"levelo://app?vid=88b469c2-b2a7-4bef-a932-28d854992574"},"vehicle_type_id":"4","last_reported":1687975758,"current_range_meters":5200,"station_id":"ce4bhah2rcd13ifvqei0","pricing_plan_id":"free"},{"bike_id":"29b59872-4fa7-4b47-b8d5-3a1539a580b6","system_id":"levelo_inurba_marseille","lat":43.284534,"lon":5.358662,"is_reserved":false,"is_disabled":false,"rental_uris":{"android":"levelo://app?vid=29b59872-4fa7-4b47-b8d5-3a1539a580b6","ios":"levelo://app?vid=29b59872-4fa7-4b47-b8d5-3a1539a580b6"},"vehicle_type_id":"4","last_reported":1687975758,"current_range_meters":6400,"station_id":"ce4bhah2rcd13ifvqei0","pricing_plan_id":"free"},{"bike_id":"13b3460b-225a-4b11-a777-6ed1043f304f","system_id":"levelo_inurba_marseille","lat":43.285856,"lon":5.350771,"is_reserved":false,"is_disabled":false,"rental_uris":{"android":"levelo://app?vid=13b3460b-225a-4b11-a777-6ed1043f304f","ios":"levelo://app?vid=13b3460b-225a-4b11-a777-6ed1043f304f"},"vehicle_type_id":"4","last_reported":1687975758,"current_range_meters":19600,"station_id":"ce4bhch2rcd13ifvqeug","pricing_plan_id":"free"},{"bike_id":"66f1532b-62f9-40ea-bae4-df8b0b667265","system_id":"levelo_inurba_marseille","lat":43.285856,"lon":5.350771,"is_reserved":false,"is_disabled":false,"rental_uris":{"android":"levelo://app?vid=66f1532b-62f9-40ea-bae4-df8b0b667265","ios":"levelo://app?vid=66f1532b-62f9-40ea-bae4-df8b0b667265"},"vehicle_type_id":"4","last_reported":1687975758,"current_range_meters":17200,"station_id":"ce4bhch2rcd13ifvqeug","pricing_plan_id":"free"},{"bike_id":"cb6c3b8d-5d04-4a55-8a39-81016aea25e2","system_id":"levelo_inurba_marseille","lat":43.28619,"lon":5.35102,"is_reserved":false,"is_disabled":false,"rental_uris":{"android":"levelo://app?vid=cb6c3b8d-5d04-4a55-8a39-81016aea25e2","ios":"levelo://app?vid=cb6c3b8d-5d04-4a55-8a39-81016aea25e2"},"vehicle_type_id":"4","last_reported":1687975758,"current_range_meters":30000,"station_id":"ce4bhch2rcd13ifvqeug","pricing_plan_id":"free"},{"bike_id":"60f75fd7-5385-443f-be78-5c2cfb594ac9","system_id":"levelo_inurba_marseille","lat":43.285856,"lon":5.350771,"is_reserved":false,"is_disabled":false,"rental_uris":{"android":"levelo://app?vid=60f75fd7-5385-443f-be78-5c2cfb594ac9","ios":"levelo://app?vid=60f75fd7-5385-443f-be78-5c2cfb594ac9"},"vehicle_type_id":"4","last_reported":1687975758,"current_range_meters":4400,"station_id":"ce4bhch2rcd13ifvqeug","pricing_plan_id":"free"},{"bike_id":"1bc70685-c35b-4cfe-8f3f-28ef39b5abe8","system_id":"levelo_inurba_marseille","lat":43.285856,"lon":5.350771,"is_reserved":false,"is_disabled":false,"rental_uris":{"android":"levelo://app?vid=1bc70685-c35b-4cfe-8f3f-28ef39b5abe8","ios":"levelo://app?vid=1bc70685-c35b-4cfe-8f3f-28ef39b5abe8"},"vehicle_type_id":"4","last_reported":1687975758,"current_range_meters":28800,"station_id":"ce4bhch2rcd13ifvqeug","pricing_plan_id":"free"},{"bike_id":"95de397a-c4a7-4b64-aee8-205046551c26","system_id":"levelo_inurba_marseille","lat":43.285856,"lon":5.350771,"is_reserved":false,"is_disabled":false,"rental_uris":{"android":"levelo://app?vid=95de397a-c4a7-4b64-aee8-205046551c26","ios":"levelo://app?vid=95de397a-c4a7-4b64-aee8-205046551c26"},"vehicle_type_id":"4","last_reported":1687975758,"current_range_meters":29600,"station_id":"ce4bhch2rcd13ifvqeug","pricing_plan_id":"free"},{"bike_id":"384668b0-ec45-4524-9812-71fac27f20df","system_id":"levelo_inurba_marseille","lat":43.285856,"lon":5.350771,"is_reserved":false,"is_disabled":false,"rental_uris":{"android":"levelo://app?vid=384668b0-ec45-4524-9812-71fac27f20df","ios":"levelo://app?vid=384668b0-ec45-4524-9812-71fac27f20df"},"vehicle_type_id":"4","last_reported":1687975758,"current_range_meters":28800,"station_id":"ce4bhch2rcd13ifvqeug","pricing_plan_id":"free"},{"bike_id":"e934bc1f-4600-4f20-a998-0c1f262cee85","system_id":"levelo_inurba_marseille","lat":43.28605,"lon":5.351049,"is_reserved":false,"is_disabled":false,"rental_uris":{"android":"levelo://app?vid=e934bc1f-4600-4f20-a998-0c1f262cee85","ios":"levelo://app?vid=e934bc1f-4600-4f20-a998-0c1f262cee85"},"vehicle_type_id":"4","last_reported":1687975758,"current_range_meters":27600,"station_id":"ce4bhch2rcd13ifvqeug","pricing_plan_id":"free"},{"bike_id":"94f2816f-c888-4ff0-9276-dd37c372bad4","system_id":"levelo_inurba_marseille","lat":43.28608,"lon":5.35095,"is_reserved":false,"is_disabled":false,"rental_uris":{"android":"levelo://app?vid=94f2816f-c888-4ff0-9276-dd37c372bad4","ios":"levelo://app?vid=94f2816f-c888-4ff0-9276-dd37c372bad4"},"vehicle_type_id":"4","last_reported":1687975758,"current_range_meters":31200,"station_id":"ce4bhch2rcd13ifvqeug","pricing_plan_id":"free"},{"bike_id":"89984c56-3300-4c3a-bac6-c86178b6dcac","system_id":"levelo_inurba_marseille","lat":43.287428,"lon":5.389267,"is_reserved":false,"is_disabled":false,"rental_uris":{"android":"levelo://app?vid=89984c56-3300-4c3a-bac6-c86178b6dcac","ios":"levelo://app?vid=89984c56-3300-4c3a-bac6-c86178b6dcac"},"vehicle_type_id":"4","last_reported":1687975758,"current_range_meters":19200,"station_id":"","pricing_plan_id":"free"},{"bike_id":"b4c950db-352f-4a1a-8e3c-c05101a6dad0","system_id":"levelo_inurba_marseille","lat":43.288501,"lon":5.393087,"is_reserved":false,"is_disabled":false,"rental_uris":{"android":"levelo://app?vid=b4c950db-352f-4a1a-8e3c-c05101a6dad0","ios":"levelo://app?vid=b4c950db-352f-4a1a-8e3c-c05101a6dad0"},"vehicle_type_id":"4","last_reported":1687975758,"current_range_meters":31200,"station_id":"ce4bh2p2rcd13ifvqdi0","pricing_plan_id":"free"},{"bike_id":"2ae87a7a-2eff-446e-9ca1-158b405ce809","system_id":"levelo_inurba_marseille","lat":43.283494,"lon":5.380945,"is_reserved":false,"is_disabled":false,"rental_uris":{"android":"levelo://app?vid=2ae87a7a-2eff-446e-9ca1-158b405ce809","ios":"levelo://app?vid=2ae87a7a-2eff-446e-9ca1-158b405ce809"},"vehicle_type_id":"4","last_reported":1687975758,"current_range_meters":7200,"station_id":"ce4bh412rcd13ifvqdr0","pricing_plan_id":"free"},{"bike_id":"ef38d831-7472-448c-a276-00a2984a93e8","system_id":"levelo_inurba_marseille","lat":43.284219,"lon":5.3497,"is_reserved":false,"is_disabled":false,"rental_uris":{"android":"levelo://app?vid=ef38d831-7472-448c-a276-00a2984a93e8","ios":"levelo://app?vid=ef38d831-7472-448c-a276-00a2984a93e8"},"vehicle_type_id":"4","last_reported":1687975758,"current_range_meters":30800,"station_id":"ce4bhbh2rcd13ifvqepg","pricing_plan_id":"free"},{"bike_id":"329f8e3b-a5cc-43a6-be60-e85219d80081","system_id":"levelo_inurba_marseille","lat":43.28424,"lon":5.34986,"is_reserved":false,"is_disabled":false,"rental_uris":{"android":"levelo://app?vid=329f8e3b-a5cc-43a6-be60-e85219d80081","ios":"levelo://app?vid=329f8e3b-a5cc-43a6-be60-e85219d80081"},"vehicle_type_id":"4","last_reported":1687975758,"current_range_meters":24000,"station_id":"ce4bhbh2rcd13ifvqepg","pricing_plan_id":"free"},{"bike_id":"cf915bbf-0044-4576-b1e4-cf946d68cb7e","system_id":"levelo_inurba_marseille","lat":43.28423,"lon":5.34986,"is_reserved":false,"is_disabled":false,"rental_uris":{"android":"levelo://app?vid=cf915bbf-0044-4576-b1e4-cf946d68cb7e","ios":"levelo://app?vid=cf915bbf-0044-4576-b1e4-cf946d68cb7e"},"vehicle_type_id":"4","last_reported":1687975758,"current_range_meters":12800,"station_id":"ce4bhbh2rcd13ifvqepg","pricing_plan_id":"free"},{"bike_id":"bf2cd983-849b-4c28-8872-f6b42d5ad99e","system_id":"levelo_inurba_marseille","lat":43.284219,"lon":5.3497,"is_reserved":false,"is_disabled":false,"rental_uris":{"android":"levelo://app?vid=bf2cd983-849b-4c28-8872-f6b42d5ad99e","ios":"levelo://app?vid=bf2cd983-849b-4c28-8872-f6b42d5ad99e"},"vehicle_type_id":"4","last_reported":1687975758,"current_range_meters":31200,"station_id":"ce4bhbh2rcd13ifvqepg","pricing_plan_id":"free"},{"bike_id":"36e6c546-262b-42e2-94e4-a6e0a51e50cc","system_id":"levelo_inurba_marseille","lat":43.284219,"lon":5.3497,"is_reserved":false,"is_disabled":false,"rental_uris":{"android":"levelo://app?vid=36e6c546-262b-42e2-94e4-a6e0a51e50cc","ios":"levelo://app?vid=36e6c546-262b-42e2-94e4-a6e0a51e50cc"},"vehicle_type_id":"4","last_reported":1687975758,"current_range_meters":23600,"station_id":"ce4bhbh2rcd13ifvqepg","pricing_plan_id":"free"},{"bike_id":"c0d0403f-0222-4125-8e91-3f2925b824b2","system_id":"levelo_inurba_marseille","lat":43.28421,"lon":5.34977,"is_reserved":false,"is_disabled":false,"rental_uris":{"android":"levelo://app?vid=c0d0403f-0222-4125-8e91-3f2925b824b2","ios":"levelo://app?vid=c0d0403f-0222-4125-8e91-3f2925b824b2"},"vehicle_type_id":"4","last_reported":1687975758,"current_range_meters":18400,"station_id":"ce4bhbh2rcd13ifvqepg","pricing_plan_id":"free"},{"bike_id":"8fb82ddf-1398-4b18-9ae3-26dee1ff9394","system_id":"levelo_inurba_marseille","lat":43.284219,"lon":5.3497,"is_reserved":false,"is_disabled":false,"rental_uris":{"android":"levelo://app?vid=8fb82ddf-1398-4b18-9ae3-26dee1ff9394","ios":"levelo://app?vid=8fb82ddf-1398-4b18-9ae3-26dee1ff9394"},"vehicle_type_id":"4","last_reported":1687975758,"current_range_meters":30800,"station_id":"ce4bhbh2rcd13ifvqepg","pricing_plan_id":"free"},{"bike_id":"d9f1c280-5790-45ed-9cb1-edb75a9c5469","system_id":"levelo_inurba_marseille","lat":43.2842,"lon":5.34979,"is_reserved":false,"is_disabled":false,"rental_uris":{"android":"levelo://app?vid=d9f1c280-5790-45ed-9cb1-edb75a9c5469","ios":"levelo://app?vid=d9f1c280-5790-45ed-9cb1-edb75a9c5469"},"vehicle_type_id":"4","last_reported":1687975758,"current_range_meters":27200,"station_id":"ce4bhbh2rcd13ifvqepg","pricing_plan_id":"free"},{"bike_id":"426360e5-a88c-4043-93f2-2cf4046c6c26","system_id":"levelo_inurba_marseille","lat":43.284217,"lon":5.349697,"is_reserved":false,"is_disabled":false,"rental_uris":{"android":"levelo://app?vid=426360e5-a88c-4043-93f2-2cf4046c6c26","ios":"levelo://app?vid=426360e5-a88c-4043-93f2-2cf4046c6c26"},"vehicle_type_id":"4","last_reported":1687975758,"current_range_meters":21600,"station_id":"ce4bhbh2rcd13ifvqepg","pricing_plan_id":"free"},{"bike_id":"6dea0a9c-baf9-4949-9fc0-238aed06cf20","system_id":"levelo_inurba_marseille","lat":43.28416,"lon":5.34986,"is_reserved":false,"is_disabled":false,"rental_uris":{"android":"levelo://app?vid=6dea0a9c-baf9-4949-9fc0-238aed06cf20","ios":"levelo://app?vid=6dea0a9c-baf9-4949-9fc0-238aed06cf20"},"vehicle_type_id":"4","last_reported":1687975758,"current_range_meters":14000,"station_id":"ce4bhbh2rcd13ifvqepg","pricing_plan_id":"free"},{"bike_id":"5bee70f4-10ba-4523-9571-a2fb84dc4d4b","system_id":"levelo_inurba_marseille","lat":43.284219,"lon":5.3497,"is_reserved":false,"is_disabled":false,"rental_uris":{"android":"levelo://app?vid=5bee70f4-10ba-4523-9571-a2fb84dc4d4b","ios":"levelo://app?vid=5bee70f4-10ba-4523-9571-a2fb84dc4d4b"},"vehicle_type_id":"4","last_reported":1687975758,"current_range_meters":31200,"station_id":"ce4bhbh2rcd13ifvqepg","pricing_plan_id":"free"},{"bike_id":"a47dd991-3265-4a3c-846d-9793ab04559c","system_id":"levelo_inurba_marseille","lat":43.284217,"lon":5.349697,"is_reserved":false,"is_disabled":false,"rental_uris":{"android":"levelo://app?vid=a47dd991-3265-4a3c-846d-9793ab04559c","ios":"levelo://app?vid=a47dd991-3265-4a3c-846d-9793ab04559c"},"vehicle_type_id":"4","last_reported":1687975758,"current_range_meters":31200,"station_id":"ce4bhbh2rcd13ifvqepg","pricing_plan_id":"free"},{"bike_id":"51439101-766e-4dbc-873a-a5b2c9e593a3","system_id":"levelo_inurba_marseille","lat":43.284217,"lon":5.349697,"is_reserved":false,"is_disabled":false,"rental_uris":{"android":"levelo://app?vid=51439101-766e-4dbc-873a-a5b2c9e593a3","ios":"levelo://app?vid=51439101-766e-4dbc-873a-a5b2c9e593a3"},"vehicle_type_id":"4","last_reported":1687975758,"current_range_meters":27200,"station_id":"ce4bhbh2rcd13ifvqepg","pricing_plan_id":"free"},{"bike_id":"6245a0d2-89bc-4485-b36c-709516d26ad5","system_id":"levelo_inurba_marseille","lat":43.28416,"lon":5.34979,"is_reserved":false,"is_disabled":false,"rental_uris":{"android":"levelo://app?vid=6245a0d2-89bc-4485-b36c-709516d26ad5","ios":"levelo://app?vid=6245a0d2-89bc-4485-b36c-709516d26ad5"},"vehicle_type_id":"4","last_reported":1687975758,"current_range_meters":19200,"station_id":"ce4bhbh2rcd13ifvqepg","pricing_plan_id":"free"},{"bike_id":"1dfd6420-3cb5-4b24-a105-3ec811a260c4","system_id":"levelo_inurba_marseille","lat":43.284217,"lon":5.349697,"is_reserved":false,"is_disabled":false,"rental_uris":{"android":"levelo://app?vid=1dfd6420-3cb5-4b24-a105-3ec811a260c4","ios":"levelo://app?vid=1dfd6420-3cb5-4b24-a105-3ec811a260c4"},"vehicle_type_id":"4","last_reported":1687975758,"current_range_meters":18400,"station_id":"ce4bhbh2rcd13ifvqepg","pricing_plan_id":"free"},{"bike_id":"9a66aba0-867c-40fb-aa28-b0e6e669c819","system_id":"levelo_inurba_marseille","lat":43.284217,"lon":5.349697,"is_reserved":false,"is_disabled":false,"rental_uris":{"android":"levelo://app?vid=9a66aba0-867c-40fb-aa28-b0e6e669c819","ios":"levelo://app?vid=9a66aba0-867c-40fb-aa28-b0e6e669c819"},"vehicle_type_id":"4","last_reported":1687975758,"current_range_meters":22400,"station_id":"ce4bhbh2rcd13ifvqepg","pricing_plan_id":"free"},{"bike_id":"1f32994a-6332-407a-b0ae-81eb1c4e0407","system_id":"levelo_inurba_marseille","lat":43.284219,"lon":5.3497,"is_reserved":false,"is_disabled":false,"rental_uris":{"android":"levelo://app?vid=1f32994a-6332-407a-b0ae-81eb1c4e0407","ios":"levelo://app?vid=1f32994a-6332-407a-b0ae-81eb1c4e0407"},"vehicle_type_id":"4","last_reported":1687975758,"current_range_meters":29600,"station_id":"ce4bhbh2rcd13ifvqepg","pricing_plan_id":"free"},{"bike_id":"0e9f8bef-d9b1-44de-aecf-407a260555b9","system_id":"levelo_inurba_marseille","lat":43.284217,"lon":5.349697,"is_reserved":false,"is_disabled":false,"rental_uris":{"android":"levelo://app?vid=0e9f8bef-d9b1-44de-aecf-407a260555b9","ios":"levelo://app?vid=0e9f8bef-d9b1-44de-aecf-407a260555b9"},"vehicle_type_id":"4","last_reported":1687975758,"current_range_meters":26400,"station_id":"ce4bhbh2rcd13ifvqepg","pricing_plan_id":"free"},{"bike_id":"c3e85746-12eb-4fbb-95bf-ff744473bbc3","system_id":"levelo_inurba_marseille","lat":43.284217,"lon":5.349697,"is_reserved":false,"is_disabled":false,"rental_uris":{"android":"levelo://app?vid=c3e85746-12eb-4fbb-95bf-ff744473bbc3","ios":"levelo://app?vid=c3e85746-12eb-4fbb-95bf-ff744473bbc3"},"vehicle_type_id":"4","last_reported":1687975758,"current_range_meters":20000,"station_id":"ce4bhbh2rcd13ifvqepg","pricing_plan_id":"free"},{"bike_id":"9916c05d-ddbe-4ed9-b869-0d10bcf34da5","system_id":"levelo_inurba_marseille","lat":43.284217,"lon":5.349697,"is_reserved":false,"is_disabled":false,"rental_uris":{"android":"levelo://app?vid=9916c05d-ddbe-4ed9-b869-0d10bcf34da5","ios":"levelo://app?vid=9916c05d-ddbe-4ed9-b869-0d10bcf34da5"},"vehicle_type_id":"4","last_reported":1687975758,"current_range_meters":16000,"station_id":"ce4bhbh2rcd13ifvqepg","pricing_plan_id":"free"},{"bike_id":"6d1260a4-f0bc-4998-a27f-50b0596785c7","system_id":"levelo_inurba_marseille","lat":43.284217,"lon":5.349697,"is_reserved":false,"is_disabled":false,"rental_uris":{"android":"levelo://app?vid=6d1260a4-f0bc-4998-a27f-50b0596785c7","ios":"levelo://app?vid=6d1260a4-f0bc-4998-a27f-50b0596785c7"},"vehicle_type_id":"4","last_reported":1687975758,"current_range_meters":20400,"station_id":"ce4bhbh2rcd13ifvqepg","pricing_plan_id":"free"},{"bike_id":"82911318-a9fd-4158-ac0d-5e7767324dc0","system_id":"levelo_inurba_marseille","lat":43.28415,"lon":5.34972,"is_reserved":false,"is_disabled":false,"rental_uris":{"android":"levelo://app?vid=82911318-a9fd-4158-ac0d-5e7767324dc0","ios":"levelo://app?vid=82911318-a9fd-4158-ac0d-5e7767324dc0"},"vehicle_type_id":"4","last_reported":1687975758,"current_range_meters":3200,"station_id":"ce4bhbh2rcd13ifvqepg","pricing_plan_id":"free"},{"bike_id":"a59794b5-d43f-4a34-9b73-6afd0d9add0a","system_id":"levelo_inurba_marseille","lat":43.284217,"lon":5.349697,"is_reserved":false,"is_disabled":false,"rental_uris":{"android":"levelo://app?vid=a59794b5-d43f-4a34-9b73-6afd0d9add0a","ios":"levelo://app?vid=a59794b5-d43f-4a34-9b73-6afd0d9add0a"},"vehicle_type_id":"4","last_reported":1687975758,"current_range_meters":31200,"station_id":"ce4bhbh2rcd13ifvqepg","pricing_plan_id":"free"},{"bike_id":"0585ebd5-41bc-4659-b1ce-884e6f87964a","system_id":"levelo_inurba_marseille","lat":43.284217,"lon":5.349697,"is_reserved":false,"is_disabled":false,"rental_uris":{"android":"levelo://app?vid=0585ebd5-41bc-4659-b1ce-884e6f87964a","ios":"levelo://app?vid=0585ebd5-41bc-4659-b1ce-884e6f87964a"},"vehicle_type_id":"4","last_reported":1687975758,"current_range_meters":23600,"station_id":"ce4bhbh2rcd13ifvqepg","pricing_plan_id":"free"},{"bike_id":"561797de-0936-43b4-8c13-f8d18d0e8ef1","system_id":"levelo_inurba_marseille","lat":43.284217,"lon":5.349697,"is_reserved":false,"is_disabled":false,"rental_uris":{"android":"levelo://app?vid=561797de-0936-43b4-8c13-f8d18d0e8ef1","ios":"levelo://app?vid=561797de-0936-43b4-8c13-f8d18d0e8ef1"},"vehicle_type_id":"4","last_reported":1687975758,"current_range_meters":1200,"station_id":"ce4bhbh2rcd13ifvqepg","pricing_plan_id":"free"},{"bike_id":"149a11cd-adeb-4893-bccb-5b39d9f27b86","system_id":"levelo_inurba_marseille","lat":43.284217,"lon":5.349697,"is_reserved":false,"is_disabled":false,"rental_uris":{"android":"levelo://app?vid=149a11cd-adeb-4893-bccb-5b39d9f27b86","ios":"levelo://app?vid=149a11cd-adeb-4893-bccb-5b39d9f27b86"},"vehicle_type_id":"4","last_reported":1687975758,"current_range_meters":26400,"station_id":"ce4bhbh2rcd13ifvqepg","pricing_plan_id":"free"},{"bike_id":"03db7a63-8184-45a5-b27b-ccc135182105","system_id":"levelo_inurba_marseille","lat":43.284217,"lon":5.349697,"is_reserved":false,"is_disabled":false,"rental_uris":{"android":"levelo://app?vid=03db7a63-8184-45a5-b27b-ccc135182105","ios":"levelo://app?vid=03db7a63-8184-45a5-b27b-ccc135182105"},"vehicle_type_id":"4","last_reported":1687975758,"current_range_meters":25600,"station_id":"ce4bhbh2rcd13ifvqepg","pricing_plan_id":"free"},{"bike_id":"4e44e80a-dd15-4c0e-8d75-a8d36cb570ce","system_id":"levelo_inurba_marseille","lat":43.28276,"lon":5.35077,"is_reserved":false,"is_disabled":false,"rental_uris":{"android":"levelo://app?vid=4e44e80a-dd15-4c0e-8d75-a8d36cb570ce","ios":"levelo://app?vid=4e44e80a-dd15-4c0e-8d75-a8d36cb570ce"},"vehicle_type_id":"4","last_reported":1687975758,"current_range_meters":20000,"station_id":"ce4bhbp2rcd13ifvqerg","pricing_plan_id":"free"},{"bike_id":"46ef7f44-a179-4b96-bd5c-1d28696658ff","system_id":"levelo_inurba_marseille","lat":43.28274,"lon":5.35083,"is_reserved":false,"is_disabled":false,"rental_uris":{"android":"levelo://app?vid=46ef7f44-a179-4b96-bd5c-1d28696658ff","ios":"levelo://app?vid=46ef7f44-a179-4b96-bd5c-1d28696658ff"},"vehicle_type_id":"4","last_reported":1687975758,"current_range_meters":11600,"station_id":"ce4bhbp2rcd13ifvqerg","pricing_plan_id":"free"},{"bike_id":"f2540770-da61-41db-bdb3-0c889e4cd91e","system_id":"levelo_inurba_marseille","lat":43.2827,"lon":5.35073,"is_reserved":false,"is_disabled":false,"rental_uris":{"android":"levelo://app?vid=f2540770-da61-41db-bdb3-0c889e4cd91e","ios":"levelo://app?vid=f2540770-da61-41db-bdb3-0c889e4cd91e"},"vehicle_type_id":"4","last_reported":1687975758,"current_range_meters":5600,"station_id":"ce4bhbp2rcd13ifvqerg","pricing_plan_id":"free"},{"bike_id":"8a68bc82-31b7-408d-a4cc-fc6d85d24f3d","system_id":"levelo_inurba_marseille","lat":43.282754,"lon":5.350519,"is_reserved":false,"is_disabled":false,"rental_uris":{"android":"levelo://app?vid=8a68bc82-31b7-408d-a4cc-fc6d85d24f3d","ios":"levelo://app?vid=8a68bc82-31b7-408d-a4cc-fc6d85d24f3d"},"vehicle_type_id":"4","last_reported":1687975758,"current_range_meters":23600,"station_id":"ce4bhbp2rcd13ifvqerg","pricing_plan_id":"free"},{"bike_id":"17bd1c51-3a11-44d4-97f5-774a9b2faceb","system_id":"levelo_inurba_marseille","lat":43.282754,"lon":5.350519,"is_reserved":false,"is_disabled":false,"rental_uris":{"android":"levelo://app?vid=17bd1c51-3a11-44d4-97f5-774a9b2faceb","ios":"levelo://app?vid=17bd1c51-3a11-44d4-97f5-774a9b2faceb"},"vehicle_type_id":"4","last_reported":1687975758,"current_range_meters":18800,"station_id":"ce4bhbp2rcd13ifvqerg","pricing_plan_id":"free"},{"bike_id":"9e0a6736-2a01-4c58-b5f8-fd79d2304cbc","system_id":"levelo_inurba_marseille","lat":43.28271,"lon":5.35061,"is_reserved":false,"is_disabled":false,"rental_uris":{"android":"levelo://app?vid=9e0a6736-2a01-4c58-b5f8-fd79d2304cbc","ios":"levelo://app?vid=9e0a6736-2a01-4c58-b5f8-fd79d2304cbc"},"vehicle_type_id":"4","last_reported":1687975758,"current_range_meters":0,"station_id":"ce4bhbp2rcd13ifvqerg","pricing_plan_id":"free"},{"bike_id":"27e6f70f-7f96-4a54-b02f-d25fac9e44e6","system_id":"levelo_inurba_marseille","lat":43.282754,"lon":5.350519,"is_reserved":false,"is_disabled":false,"rental_uris":{"android":"levelo://app?vid=27e6f70f-7f96-4a54-b02f-d25fac9e44e6","ios":"levelo://app?vid=27e6f70f-7f96-4a54-b02f-d25fac9e44e6"},"vehicle_type_id":"4","last_reported":1687975758,"current_range_meters":22000,"station_id":"ce4bhbp2rcd13ifvqerg","pricing_plan_id":"free"},{"bike_id":"11a4c6c2-afb6-4df9-88c2-d48004d07258","system_id":"levelo_inurba_marseille","lat":43.28267,"lon":5.35071,"is_reserved":false,"is_disabled":false,"rental_uris":{"android":"levelo://app?vid=11a4c6c2-afb6-4df9-88c2-d48004d07258","ios":"levelo://app?vid=11a4c6c2-afb6-4df9-88c2-d48004d07258"},"vehicle_type_id":"4","last_reported":1687975758,"current_range_meters":5200,"station_id":"ce4bhbp2rcd13ifvqerg","pricing_plan_id":"free"},{"bike_id":"5ae396c3-775b-4828-ac90-96b8b8bda47c","system_id":"levelo_inurba_marseille","lat":43.282754,"lon":5.350519,"is_reserved":false,"is_disabled":false,"rental_uris":{"android":"levelo://app?vid=5ae396c3-775b-4828-ac90-96b8b8bda47c","ios":"levelo://app?vid=5ae396c3-775b-4828-ac90-96b8b8bda47c"},"vehicle_type_id":"4","last_reported":1687975758,"current_range_meters":28000,"station_id":"ce4bhbp2rcd13ifvqerg","pricing_plan_id":"free"},{"bike_id":"8db0f826-31e8-40db-9a47-3ab50c081b01","system_id":"levelo_inurba_marseille","lat":43.28268,"lon":5.35065,"is_reserved":false,"is_disabled":false,"rental_uris":{"android":"levelo://app?vid=8db0f826-31e8-40db-9a47-3ab50c081b01","ios":"levelo://app?vid=8db0f826-31e8-40db-9a47-3ab50c081b01"},"vehicle_type_id":"4","last_reported":1687975758,"current_range_meters":10400,"station_id":"ce4bhbp2rcd13ifvqerg","pricing_plan_id":"free"},{"bike_id":"c287b13e-f834-47de-9b1b-dd8412fbb312","system_id":"levelo_inurba_marseille","lat":43.28269,"lon":5.35058,"is_reserved":false,"is_disabled":false,"rental_uris":{"android":"levelo://app?vid=c287b13e-f834-47de-9b1b-dd8412fbb312","ios":"levelo://app?vid=c287b13e-f834-47de-9b1b-dd8412fbb312"},"vehicle_type_id":"4","last_reported":1687975758,"current_range_meters":18800,"station_id":"ce4bhbp2rcd13ifvqerg","pricing_plan_id":"free"},{"bike_id":"c45d706d-b778-4195-b611-1fd92f1d8164","system_id":"levelo_inurba_marseille","lat":43.28261,"lon":5.35076,"is_reserved":false,"is_disabled":false,"rental_uris":{"android":"levelo://app?vid=c45d706d-b778-4195-b611-1fd92f1d8164","ios":"levelo://app?vid=c45d706d-b778-4195-b611-1fd92f1d8164"},"vehicle_type_id":"4","last_reported":1687975758,"current_range_meters":10800,"station_id":"ce4bhbp2rcd13ifvqerg","pricing_plan_id":"free"},{"bike_id":"25865cc2-99e2-47c8-a2ac-29fb15b22a43","system_id":"levelo_inurba_marseille","lat":43.28263,"lon":5.35066,"is_reserved":false,"is_disabled":false,"rental_uris":{"android":"levelo://app?vid=25865cc2-99e2-47c8-a2ac-29fb15b22a43","ios":"levelo://app?vid=25865cc2-99e2-47c8-a2ac-29fb15b22a43"},"vehicle_type_id":"4","last_reported":1687975758,"current_range_meters":26000,"station_id":"ce4bhbp2rcd13ifvqerg","pricing_plan_id":"free"},{"bike_id":"fbb77a31-4c41-4f5b-8a05-d7699d9c3e50","system_id":"levelo_inurba_marseille","lat":43.28262,"lon":5.3506,"is_reserved":false,"is_disabled":false,"rental_uris":{"android":"levelo://app?vid=fbb77a31-4c41-4f5b-8a05-d7699d9c3e50","ios":"levelo://app?vid=fbb77a31-4c41-4f5b-8a05-d7699d9c3e50"},"vehicle_type_id":"4","last_reported":1687975758,"current_range_meters":19600,"station_id":"ce4bhbp2rcd13ifvqerg","pricing_plan_id":"free"},{"bike_id":"0bcbca28-271f-48ff-9012-38daf5db8184","system_id":"levelo_inurba_marseille","lat":43.28243,"lon":5.35081,"is_reserved":false,"is_disabled":false,"rental_uris":{"android":"levelo://app?vid=0bcbca28-271f-48ff-9012-38daf5db8184","ios":"levelo://app?vid=0bcbca28-271f-48ff-9012-38daf5db8184"},"vehicle_type_id":"4","last_reported":1687975758,"current_range_meters":14400,"station_id":"","pricing_plan_id":"free"},{"bike_id":"9ec3c2e6-eb3a-4f61-89a2-c1af5391ee68","system_id":"levelo_inurba_marseille","lat":43.296263,"lon":5.40601,"is_reserved":false,"is_disabled":false,"rental_uris":{"android":"levelo://app?vid=9ec3c2e6-eb3a-4f61-89a2-c1af5391ee68","ios":"levelo://app?vid=9ec3c2e6-eb3a-4f61-89a2-c1af5391ee68"},"vehicle_type_id":"4","last_reported":1687975758,"current_range_meters":0,"station_id":"ce4bh0h2rcd13ifvqd60","pricing_plan_id":"free"},{"bike_id":"c8e6ce45-f2b5-4772-a564-3c2039eea91a","system_id":"levelo_inurba_marseille","lat":43.33077,"lon":5.40566,"is_reserved":false,"is_disabled":false,"rental_uris":{"android":"levelo://app?vid=c8e6ce45-f2b5-4772-a564-3c2039eea91a","ios":"levelo://app?vid=c8e6ce45-f2b5-4772-a564-3c2039eea91a"},"vehicle_type_id":"4","last_reported":1687975758,"current_range_meters":1600,"station_id":"","pricing_plan_id":"free"},{"bike_id":"33066033-4b6b-4d57-8001-ba9e3be99e26","system_id":"levelo_inurba_marseille","lat":43.33075,"lon":5.40569,"is_reserved":false,"is_disabled":false,"rental_uris":{"android":"levelo://app?vid=33066033-4b6b-4d57-8001-ba9e3be99e26","ios":"levelo://app?vid=33066033-4b6b-4d57-8001-ba9e3be99e26"},"vehicle_type_id":"4","last_reported":1687975758,"current_range_meters":24400,"station_id":"","pricing_plan_id":"free"},{"bike_id":"7d72ffbd-c7b1-4a39-baf0-50dc8d80290f","system_id":"levelo_inurba_marseille","lat":43.284462,"lon":5.392121,"is_reserved":false,"is_disabled":false,"rental_uris":{"android":"levelo://app?vid=7d72ffbd-c7b1-4a39-baf0-50dc8d80290f","ios":"levelo://app?vid=7d72ffbd-c7b1-4a39-baf0-50dc8d80290f"},"vehicle_type_id":"4","last_reported":1687975758,"current_range_meters":10000,"station_id":"ce4bhoh2rcd13ifvqh5g","pricing_plan_id":"free"},{"bike_id":"75449481-f82f-4483-b7a3-84ee0f611873","system_id":"levelo_inurba_marseille","lat":43.326605,"lon":5.409903,"is_reserved":false,"is_disabled":false,"rental_uris":{"android":"levelo://app?vid=75449481-f82f-4483-b7a3-84ee0f611873","ios":"levelo://app?vid=75449481-f82f-4483-b7a3-84ee0f611873"},"vehicle_type_id":"4","last_reported":1687975758,"current_range_meters":24000,"station_id":"ce4bhpp2rcd13ifvqhgg","pricing_plan_id":"free"},{"bike_id":"c163097e-e22c-4cec-be61-d39c6e8eec79","system_id":"levelo_inurba_marseille","lat":43.326605,"lon":5.409903,"is_reserved":false,"is_disabled":false,"rental_uris":{"android":"levelo://app?vid=c163097e-e22c-4cec-be61-d39c6e8eec79","ios":"levelo://app?vid=c163097e-e22c-4cec-be61-d39c6e8eec79"},"vehicle_type_id":"4","last_reported":1687975758,"current_range_meters":9200,"station_id":"ce4bhpp2rcd13ifvqhgg","pricing_plan_id":"free"},{"bike_id":"0c9eee73-532e-4f1f-8b23-5a0693e22298","system_id":"levelo_inurba_marseille","lat":43.326605,"lon":5.409903,"is_reserved":false,"is_disabled":false,"rental_uris":{"android":"levelo://app?vid=0c9eee73-532e-4f1f-8b23-5a0693e22298","ios":"levelo://app?vid=0c9eee73-532e-4f1f-8b23-5a0693e22298"},"vehicle_type_id":"4","last_reported":1687975758,"current_range_meters":27200,"station_id":"ce4bhpp2rcd13ifvqhgg","pricing_plan_id":"free"},{"bike_id":"09b0019c-6caa-4fb3-b6fb-07f8ca86d600","system_id":"levelo_inurba_marseille","lat":43.304188,"lon":5.412904,"is_reserved":false,"is_disabled":false,"rental_uris":{"android":"levelo://app?vid=09b0019c-6caa-4fb3-b6fb-07f8ca86d600","ios":"levelo://app?vid=09b0019c-6caa-4fb3-b6fb-07f8ca86d600"},"vehicle_type_id":"4","last_reported":1687975758,"current_range_meters":4400,"station_id":"ce4bhop2rcd13ifvqh8g","pricing_plan_id":"free"},{"bike_id":"015f723e-81d0-4e8e-b211-980aa5551087","system_id":"levelo_inurba_marseille","lat":43.304188,"lon":5.412904,"is_reserved":false,"is_disabled":false,"rental_uris":{"android":"levelo://app?vid=015f723e-81d0-4e8e-b211-980aa5551087","ios":"levelo://app?vid=015f723e-81d0-4e8e-b211-980aa5551087"},"vehicle_type_id":"4","last_reported":1687975758,"current_range_meters":16800,"station_id":"ce4bhop2rcd13ifvqh8g","pricing_plan_id":"free"},{"bike_id":"0090abfb-16e8-4f29-8d7b-c84b137e9e84","system_id":"levelo_inurba_marseille","lat":43.304188,"lon":5.412904,"is_reserved":false,"is_disabled":false,"rental_uris":{"android":"levelo://app?vid=0090abfb-16e8-4f29-8d7b-c84b137e9e84","ios":"levelo://app?vid=0090abfb-16e8-4f29-8d7b-c84b137e9e84"},"vehicle_type_id":"4","last_reported":1687975758,"current_range_meters":28000,"station_id":"ce4bhop2rcd13ifvqh8g","pricing_plan_id":"free"},{"bike_id":"0c3c8a93-a527-4ff0-972b-b11c3ddbce73","system_id":"levelo_inurba_marseille","lat":43.279087,"lon":5.380114,"is_reserved":false,"is_disabled":false,"rental_uris":{"android":"levelo://app?vid=0c3c8a93-a527-4ff0-972b-b11c3ddbce73","ios":"levelo://app?vid=0c3c8a93-a527-4ff0-972b-b11c3ddbce73"},"vehicle_type_id":"4","last_reported":1687975758,"current_range_meters":15600,"station_id":"ce4bhf92rcd13ifvqf50","pricing_plan_id":"free"},{"bike_id":"2b96554c-75ef-49a5-8142-04a52bdcedf5","system_id":"levelo_inurba_marseille","lat":43.279087,"lon":5.380114,"is_reserved":false,"is_disabled":false,"rental_uris":{"android":"levelo://app?vid=2b96554c-75ef-49a5-8142-04a52bdcedf5","ios":"levelo://app?vid=2b96554c-75ef-49a5-8142-04a52bdcedf5"},"vehicle_type_id":"4","last_reported":1687975758,"current_range_meters":3200,"station_id":"ce4bhf92rcd13ifvqf50","pricing_plan_id":"free"},{"bike_id":"50fd953c-9754-45f4-aec7-ae52bb9eb6fe","system_id":"levelo_inurba_marseille","lat":43.287154,"lon":5.399979,"is_reserved":false,"is_disabled":false,"rental_uris":{"android":"levelo://app?vid=50fd953c-9754-45f4-aec7-ae52bb9eb6fe","ios":"levelo://app?vid=50fd953c-9754-45f4-aec7-ae52bb9eb6fe"},"vehicle_type_id":"4","last_reported":1687975758,"current_range_meters":31200,"station_id":"ce4bho92rcd13ifvqh3g","pricing_plan_id":"free"},{"bike_id":"d121dca8-2596-4f85-a2a1-3d6410e5eda4","system_id":"levelo_inurba_marseille","lat":43.33189,"lon":5.4087,"is_reserved":false,"is_disabled":false,"rental_uris":{"android":"levelo://app?vid=d121dca8-2596-4f85-a2a1-3d6410e5eda4","ios":"levelo://app?vid=d121dca8-2596-4f85-a2a1-3d6410e5eda4"},"vehicle_type_id":"4","last_reported":1687975758,"current_range_meters":24800,"station_id":"","pricing_plan_id":"free"},{"bike_id":"6a3ea2b5-8b46-48c9-9e84-e624bc40e38a","system_id":"levelo_inurba_marseille","lat":43.320045,"lon":5.415048,"is_reserved":false,"is_disabled":false,"rental_uris":{"android":"levelo://app?vid=6a3ea2b5-8b46-48c9-9e84-e624bc40e38a","ios":"levelo://app?vid=6a3ea2b5-8b46-48c9-9e84-e624bc40e38a"},"vehicle_type_id":"4","last_reported":1687975758,"current_range_meters":0,"station_id":"ce4bhq92rcd13ifvqhkg","pricing_plan_id":"free"},{"bike_id":"e9c2d1ce-f06e-4d72-a0da-5c5108934f47","system_id":"levelo_inurba_marseille","lat":43.320045,"lon":5.415046,"is_reserved":false,"is_disabled":false,"rental_uris":{"android":"levelo://app?vid=e9c2d1ce-f06e-4d72-a0da-5c5108934f47","ios":"levelo://app?vid=e9c2d1ce-f06e-4d72-a0da-5c5108934f47"},"vehicle_type_id":"4","last_reported":1687975758,"current_range_meters":23600,"station_id":"ce4bhq92rcd13ifvqhkg","pricing_plan_id":"free"},{"bike_id":"8a11a16a-d105-4cbf-9ee3-45f4704ae0d6","system_id":"levelo_inurba_marseille","lat":43.320045,"lon":5.415046,"is_reserved":false,"is_disabled":false,"rental_uris":{"android":"levelo://app?vid=8a11a16a-d105-4cbf-9ee3-45f4704ae0d6","ios":"levelo://app?vid=8a11a16a-d105-4cbf-9ee3-45f4704ae0d6"},"vehicle_type_id":"4","last_reported":1687975758,"current_range_meters":29600,"station_id":"ce4bhq92rcd13ifvqhkg","pricing_plan_id":"free"},{"bike_id":"010303de-9f53-47c9-8014-4eeafc88e3fa","system_id":"levelo_inurba_marseille","lat":43.320045,"lon":5.415048,"is_reserved":false,"is_disabled":false,"rental_uris":{"android":"levelo://app?vid=010303de-9f53-47c9-8014-4eeafc88e3fa","ios":"levelo://app?vid=010303de-9f53-47c9-8014-4eeafc88e3fa"},"vehicle_type_id":"4","last_reported":1687975758,"current_range_meters":31200,"station_id":"ce4bhq92rcd13ifvqhkg","pricing_plan_id":"free"},{"bike_id":"98abac43-f82d-4f12-ab95-5e9056fd213d","system_id":"levelo_inurba_marseille","lat":43.27972,"lon":5.38733,"is_reserved":false,"is_disabled":false,"rental_uris":{"android":"levelo://app?vid=98abac43-f82d-4f12-ab95-5e9056fd213d","ios":"levelo://app?vid=98abac43-f82d-4f12-ab95-5e9056fd213d"},"vehicle_type_id":"4","last_reported":1687975758,"current_range_meters":0,"station_id":"ce4bhg12rcd13ifvqf80","pricing_plan_id":"free"},{"bike_id":"e705884b-4df6-4b26-a83d-49d372a5f239","system_id":"levelo_inurba_marseille","lat":43.320045,"lon":5.415046,"is_reserved":false,"is_disabled":false,"rental_uris":{"android":"levelo://app?vid=e705884b-4df6-4b26-a83d-49d372a5f239","ios":"levelo://app?vid=e705884b-4df6-4b26-a83d-49d372a5f239"},"vehicle_type_id":"4","last_reported":1687975758,"current_range_meters":23200,"station_id":"ce4bhq92rcd13ifvqhkg","pricing_plan_id":"free"},{"bike_id":"3ed7bddd-2d72-416a-8f25-c37d50a31434","system_id":"levelo_inurba_marseille","lat":43.320045,"lon":5.415046,"is_reserved":false,"is_disabled":false,"rental_uris":{"android":"levelo://app?vid=3ed7bddd-2d72-416a-8f25-c37d50a31434","ios":"levelo://app?vid=3ed7bddd-2d72-416a-8f25-c37d50a31434"},"vehicle_type_id":"4","last_reported":1687975758,"current_range_meters":28400,"station_id":"ce4bhq92rcd13ifvqhkg","pricing_plan_id":"free"},{"bike_id":"79fb8019-d325-4554-948e-1562c20b16d9","system_id":"levelo_inurba_marseille","lat":43.325233,"lon":5.414318,"is_reserved":false,"is_disabled":false,"rental_uris":{"android":"levelo://app?vid=79fb8019-d325-4554-948e-1562c20b16d9","ios":"levelo://app?vid=79fb8019-d325-4554-948e-1562c20b16d9"},"vehicle_type_id":"4","last_reported":1687975758,"current_range_meters":27600,"station_id":"ce4bhq12rcd13ifvqhhg","pricing_plan_id":"free"},{"bike_id":"63416688-5973-459d-89f5-916f54837431","system_id":"levelo_inurba_marseille","lat":43.292569,"lon":5.409107,"is_reserved":false,"is_disabled":false,"rental_uris":{"android":"levelo://app?vid=63416688-5973-459d-89f5-916f54837431","ios":"levelo://app?vid=63416688-5973-459d-89f5-916f54837431"},"vehicle_type_id":"4","last_reported":1687975758,"current_range_meters":12400,"station_id":"ce4bh192rcd13ifvqdc0","pricing_plan_id":"free"},{"bike_id":"8c1ac594-dd3d-4987-8d15-d56b179b8cce","system_id":"levelo_inurba_marseille","lat":43.2783,"lon":5.39211,"is_reserved":false,"is_disabled":false,"rental_uris":{"android":"levelo://app?vid=8c1ac594-dd3d-4987-8d15-d56b179b8cce","ios":"levelo://app?vid=8c1ac594-dd3d-4987-8d15-d56b179b8cce"},"vehicle_type_id":"4","last_reported":1687975758,"current_range_meters":0,"station_id":"ce4bhjp2rcd13ifvqga0","pricing_plan_id":"free"},{"bike_id":"17e1a028-99c0-4f74-a76a-7c0a319f3b3d","system_id":"levelo_inurba_marseille","lat":43.273775,"lon":5.362633,"is_reserved":false,"is_disabled":false,"rental_uris":{"android":"levelo://app?vid=17e1a028-99c0-4f74-a76a-7c0a319f3b3d","ios":"levelo://app?vid=17e1a028-99c0-4f74-a76a-7c0a319f3b3d"},"vehicle_type_id":"4","last_reported":1687975758,"current_range_meters":31600,"station_id":"","pricing_plan_id":"free"},{"bike_id":"77f0b1e4-c383-4fc9-aaa2-356bee7beece","system_id":"levelo_inurba_marseille","lat":43.27376,"lon":5.36261,"is_reserved":false,"is_disabled":false,"rental_uris":{"android":"levelo://app?vid=77f0b1e4-c383-4fc9-aaa2-356bee7beece","ios":"levelo://app?vid=77f0b1e4-c383-4fc9-aaa2-356bee7beece"},"vehicle_type_id":"4","last_reported":1687975758,"current_range_meters":2000,"station_id":"ce4bhbh2rcd13ifvqeo0","pricing_plan_id":"free"},{"bike_id":"1ade78e4-ed52-4c71-bf44-6b1e581361c9","system_id":"levelo_inurba_marseille","lat":43.27377,"lon":5.36243,"is_reserved":false,"is_disabled":false,"rental_uris":{"android":"levelo://app?vid=1ade78e4-ed52-4c71-bf44-6b1e581361c9","ios":"levelo://app?vid=1ade78e4-ed52-4c71-bf44-6b1e581361c9"},"vehicle_type_id":"4","last_reported":1687975758,"current_range_meters":800,"station_id":"","pricing_plan_id":"free"},{"bike_id":"980b7d34-1020-40fe-8d75-7ea0ae47d9d4","system_id":"levelo_inurba_marseille","lat":43.273613,"lon":5.362705,"is_reserved":false,"is_disabled":false,"rental_uris":{"android":"levelo://app?vid=980b7d34-1020-40fe-8d75-7ea0ae47d9d4","ios":"levelo://app?vid=980b7d34-1020-40fe-8d75-7ea0ae47d9d4"},"vehicle_type_id":"4","last_reported":1687975758,"current_range_meters":0,"station_id":"ce4bhbh2rcd13ifvqeo0","pricing_plan_id":"free"},{"bike_id":"6ef2c004-31b6-45e0-a04f-1364be0a8c48","system_id":"levelo_inurba_marseille","lat":43.27375,"lon":5.36247,"is_reserved":false,"is_disabled":false,"rental_uris":{"android":"levelo://app?vid=6ef2c004-31b6-45e0-a04f-1364be0a8c48","ios":"levelo://app?vid=6ef2c004-31b6-45e0-a04f-1364be0a8c48"},"vehicle_type_id":"4","last_reported":1687975758,"current_range_meters":0,"station_id":"ce4bhbh2rcd13ifvqeo0","pricing_plan_id":"free"},{"bike_id":"b1c671a1-e97b-41b7-9f22-29ba7a082702","system_id":"levelo_inurba_marseille","lat":43.336134,"lon":5.410341,"is_reserved":false,"is_disabled":false,"rental_uris":{"android":"levelo://app?vid=b1c671a1-e97b-41b7-9f22-29ba7a082702","ios":"levelo://app?vid=b1c671a1-e97b-41b7-9f22-29ba7a082702"},"vehicle_type_id":"4","last_reported":1687975758,"current_range_meters":27200,"station_id":"ce4bhqh2rcd13ifvqhmg","pricing_plan_id":"free"},{"bike_id":"0070149e-ff73-441d-94ed-b6052aba5247","system_id":"levelo_inurba_marseille","lat":43.273609,"lon":5.362708,"is_reserved":false,"is_disabled":false,"rental_uris":{"android":"levelo://app?vid=0070149e-ff73-441d-94ed-b6052aba5247","ios":"levelo://app?vid=0070149e-ff73-441d-94ed-b6052aba5247"},"vehicle_type_id":"4","last_reported":1687975758,"current_range_meters":20800,"station_id":"ce4bhbh2rcd13ifvqeo0","pricing_plan_id":"free"},{"bike_id":"0e597a1d-777b-4078-b692-87278ccbf491","system_id":"levelo_inurba_marseille","lat":43.273609,"lon":5.362708,"is_reserved":false,"is_disabled":false,"rental_uris":{"android":"levelo://app?vid=0e597a1d-777b-4078-b692-87278ccbf491","ios":"levelo://app?vid=0e597a1d-777b-4078-b692-87278ccbf491"},"vehicle_type_id":"4","last_reported":1687975758,"current_range_meters":31200,"station_id":"ce4bhbh2rcd13ifvqeo0","pricing_plan_id":"free"},{"bike_id":"7bdcc070-735b-4f08-a25b-df3c03fdbc2f","system_id":"levelo_inurba_marseille","lat":43.273609,"lon":5.362708,"is_reserved":false,"is_disabled":false,"rental_uris":{"android":"levelo://app?vid=7bdcc070-735b-4f08-a25b-df3c03fdbc2f","ios":"levelo://app?vid=7bdcc070-735b-4f08-a25b-df3c03fdbc2f"},"vehicle_type_id":"4","last_reported":1687975758,"current_range_meters":29200,"station_id":"ce4bhbh2rcd13ifvqeo0","pricing_plan_id":"free"},{"bike_id":"5989c0e0-4d22-4ba5-bcd3-8ce0e1051784","system_id":"levelo_inurba_marseille","lat":43.273609,"lon":5.362708,"is_reserved":false,"is_disabled":false,"rental_uris":{"android":"levelo://app?vid=5989c0e0-4d22-4ba5-bcd3-8ce0e1051784","ios":"levelo://app?vid=5989c0e0-4d22-4ba5-bcd3-8ce0e1051784"},"vehicle_type_id":"4","last_reported":1687975758,"current_range_meters":31200,"station_id":"ce4bhbh2rcd13ifvqeo0","pricing_plan_id":"free"},{"bike_id":"904a2157-4eaf-41c2-b4f2-d2b6e99d33a0","system_id":"levelo_inurba_marseille","lat":43.273609,"lon":5.362708,"is_reserved":false,"is_disabled":false,"rental_uris":{"android":"levelo://app?vid=904a2157-4eaf-41c2-b4f2-d2b6e99d33a0","ios":"levelo://app?vid=904a2157-4eaf-41c2-b4f2-d2b6e99d33a0"},"vehicle_type_id":"4","last_reported":1687975758,"current_range_meters":31600,"station_id":"ce4bhbh2rcd13ifvqeo0","pricing_plan_id":"free"},{"bike_id":"f611e4b7-1364-4ceb-9e50-6fb20b5e6e20","system_id":"levelo_inurba_marseille","lat":43.33612,"lon":5.410321,"is_reserved":false,"is_disabled":false,"rental_uris":{"android":"levelo://app?vid=f611e4b7-1364-4ceb-9e50-6fb20b5e6e20","ios":"levelo://app?vid=f611e4b7-1364-4ceb-9e50-6fb20b5e6e20"},"vehicle_type_id":"4","last_reported":1687975758,"current_range_meters":8000,"station_id":"ce4bhqh2rcd13ifvqhmg","pricing_plan_id":"free"},{"bike_id":"d16a5057-335c-4f77-856e-44973c141fd2","system_id":"levelo_inurba_marseille","lat":43.33611,"lon":5.41026,"is_reserved":false,"is_disabled":false,"rental_uris":{"android":"levelo://app?vid=d16a5057-335c-4f77-856e-44973c141fd2","ios":"levelo://app?vid=d16a5057-335c-4f77-856e-44973c141fd2"},"vehicle_type_id":"4","last_reported":1687975758,"current_range_meters":8800,"station_id":"ce4bhqh2rcd13ifvqhmg","pricing_plan_id":"free"},{"bike_id":"623c8894-8215-47a1-a05c-a1939d4aa766","system_id":"levelo_inurba_marseille","lat":43.33621,"lon":5.41016,"is_reserved":false,"is_disabled":false,"rental_uris":{"android":"levelo://app?vid=623c8894-8215-47a1-a05c-a1939d4aa766","ios":"levelo://app?vid=623c8894-8215-47a1-a05c-a1939d4aa766"},"vehicle_type_id":"4","last_reported":1687975758,"current_range_meters":31200,"station_id":"ce4bhqh2rcd13ifvqhmg","pricing_plan_id":"free"},{"bike_id":"e94a305d-8466-47d2-926c-94d51fce20af","system_id":"levelo_inurba_marseille","lat":43.33605,"lon":5.41034,"is_reserved":false,"is_disabled":false,"rental_uris":{"android":"levelo://app?vid=e94a305d-8466-47d2-926c-94d51fce20af","ios":"levelo://app?vid=e94a305d-8466-47d2-926c-94d51fce20af"},"vehicle_type_id":"4","last_reported":1687975758,"current_range_meters":24400,"station_id":"ce4bhqh2rcd13ifvqhmg","pricing_plan_id":"free"},{"bike_id":"445b81fc-5a7d-41e7-b072-52069b7c18ee","system_id":"levelo_inurba_marseille","lat":43.33611,"lon":5.41029,"is_reserved":false,"is_disabled":false,"rental_uris":{"android":"levelo://app?vid=445b81fc-5a7d-41e7-b072-52069b7c18ee","ios":"levelo://app?vid=445b81fc-5a7d-41e7-b072-52069b7c18ee"},"vehicle_type_id":"4","last_reported":1687975758,"current_range_meters":31200,"station_id":"ce4bhqh2rcd13ifvqhmg","pricing_plan_id":"free"},{"bike_id":"ee8e7cca-aee9-4590-806a-0e1f16d7b642","system_id":"levelo_inurba_marseille","lat":43.33614,"lon":5.41027,"is_reserved":false,"is_disabled":false,"rental_uris":{"android":"levelo://app?vid=ee8e7cca-aee9-4590-806a-0e1f16d7b642","ios":"levelo://app?vid=ee8e7cca-aee9-4590-806a-0e1f16d7b642"},"vehicle_type_id":"4","last_reported":1687975758,"current_range_meters":29600,"station_id":"ce4bhqh2rcd13ifvqhmg","pricing_plan_id":"free"},{"bike_id":"43de4d05-2d87-4c44-80e3-ee77f7874da4","system_id":"levelo_inurba_marseille","lat":43.279087,"lon":5.380114,"is_reserved":false,"is_disabled":false,"rental_uris":{"android":"levelo://app?vid=43de4d05-2d87-4c44-80e3-ee77f7874da4","ios":"levelo://app?vid=43de4d05-2d87-4c44-80e3-ee77f7874da4"},"vehicle_type_id":"4","last_reported":1687975758,"current_range_meters":13200,"station_id":"ce4bhf92rcd13ifvqf50","pricing_plan_id":"free"},{"bike_id":"54e17aed-c307-4dd1-b4ce-d55626b4eaba","system_id":"levelo_inurba_marseille","lat":43.29862,"lon":5.42059,"is_reserved":false,"is_disabled":false,"rental_uris":{"android":"levelo://app?vid=54e17aed-c307-4dd1-b4ce-d55626b4eaba","ios":"levelo://app?vid=54e17aed-c307-4dd1-b4ce-d55626b4eaba"},"vehicle_type_id":"4","last_reported":1687975758,"current_range_meters":21200,"station_id":"","pricing_plan_id":"free"},{"bike_id":"a014272c-a29e-41f2-a0d8-87f172ba8458","system_id":"levelo_inurba_marseille","lat":43.317121,"lon":5.423936,"is_reserved":false,"is_disabled":false,"rental_uris":{"android":"levelo://app?vid=a014272c-a29e-41f2-a0d8-87f172ba8458","ios":"levelo://app?vid=a014272c-a29e-41f2-a0d8-87f172ba8458"},"vehicle_type_id":"4","last_reported":1687975758,"current_range_meters":4400,"station_id":"ce4bhp92rcd13ifvqhbg","pricing_plan_id":"free"},{"bike_id":"6502e8f2-9ef2-4f7c-93d3-57eda73ea011","system_id":"levelo_inurba_marseille","lat":43.31079,"lon":5.42436,"is_reserved":false,"is_disabled":false,"rental_uris":{"android":"levelo://app?vid=6502e8f2-9ef2-4f7c-93d3-57eda73ea011","ios":"levelo://app?vid=6502e8f2-9ef2-4f7c-93d3-57eda73ea011"},"vehicle_type_id":"4","last_reported":1687975758,"current_range_meters":2800,"station_id":"ce4bhp92rcd13ifvqhag","pricing_plan_id":"free"},{"bike_id":"dd10787c-24b7-4750-b397-01eaa2270ed9","system_id":"levelo_inurba_marseille","lat":43.304096,"lon":5.425385,"is_reserved":false,"is_disabled":false,"rental_uris":{"android":"levelo://app?vid=dd10787c-24b7-4750-b397-01eaa2270ed9","ios":"levelo://app?vid=dd10787c-24b7-4750-b397-01eaa2270ed9"},"vehicle_type_id":"4","last_reported":1687975758,"current_range_meters":4800,"station_id":"ce4bhoh2rcd13ifvqh6g","pricing_plan_id":"free"},{"bike_id":"4db5405f-34d6-405e-8f0d-af3f6022c045","system_id":"levelo_inurba_marseille","lat":43.29558,"lon":5.42291,"is_reserved":false,"is_disabled":false,"rental_uris":{"android":"levelo://app?vid=4db5405f-34d6-405e-8f0d-af3f6022c045","ios":"levelo://app?vid=4db5405f-34d6-405e-8f0d-af3f6022c045"},"vehicle_type_id":"4","last_reported":1687975758,"current_range_meters":6000,"station_id":"ce4bhph2rcd13ifvqhdg","pricing_plan_id":"free"},{"bike_id":"f9861525-83b0-4b81-a8ab-afc36cb5d643","system_id":"levelo_inurba_marseille","lat":43.295523,"lon":5.422926,"is_reserved":false,"is_disabled":false,"rental_uris":{"android":"levelo://app?vid=f9861525-83b0-4b81-a8ab-afc36cb5d643","ios":"levelo://app?vid=f9861525-83b0-4b81-a8ab-afc36cb5d643"},"vehicle_type_id":"4","last_reported":1687975758,"current_range_meters":26400,"station_id":"ce4bhph2rcd13ifvqhdg","pricing_plan_id":"free"},{"bike_id":"4fa21102-9c5c-4785-8da0-3d7f957b0c31","system_id":"levelo_inurba_marseille","lat":43.27207,"lon":5.39188,"is_reserved":false,"is_disabled":false,"rental_uris":{"android":"levelo://app?vid=4fa21102-9c5c-4785-8da0-3d7f957b0c31","ios":"levelo://app?vid=4fa21102-9c5c-4785-8da0-3d7f957b0c31"},"vehicle_type_id":"4","last_reported":1687975758,"current_range_meters":30000,"station_id":"ce4bhhp2rcd13ifvqfm0","pricing_plan_id":"free"},{"bike_id":"4554fbd4-b39b-41d5-9704-94684b62dcc6","system_id":"levelo_inurba_marseille","lat":43.27202,"lon":5.3918,"is_reserved":false,"is_disabled":false,"rental_uris":{"android":"levelo://app?vid=4554fbd4-b39b-41d5-9704-94684b62dcc6","ios":"levelo://app?vid=4554fbd4-b39b-41d5-9704-94684b62dcc6"},"vehicle_type_id":"4","last_reported":1687975758,"current_range_meters":0,"station_id":"ce4bhhp2rcd13ifvqfm0","pricing_plan_id":"free"},{"bike_id":"0ac59daa-8bea-4ca5-b81a-33f35e730a0d","system_id":"levelo_inurba_marseille","lat":43.258658,"lon":5.398935,"is_reserved":false,"is_disabled":false,"rental_uris":{"android":"levelo://app?vid=0ac59daa-8bea-4ca5-b81a-33f35e730a0d","ios":"levelo://app?vid=0ac59daa-8bea-4ca5-b81a-33f35e730a0d"},"vehicle_type_id":"4","last_reported":1687975758,"current_range_meters":5200,"station_id":"ce4bhl92rcd13ifvqghg","pricing_plan_id":"free"},{"bike_id":"dd9b1efb-e6fb-4179-9046-23459c462710","system_id":"levelo_inurba_marseille","lat":43.278128,"lon":5.407195,"is_reserved":false,"is_disabled":false,"rental_uris":{"android":"levelo://app?vid=dd9b1efb-e6fb-4179-9046-23459c462710","ios":"levelo://app?vid=dd9b1efb-e6fb-4179-9046-23459c462710"},"vehicle_type_id":"4","last_reported":1687975758,"current_range_meters":10800,"station_id":"ce4bhnh2rcd13ifvqgtg","pricing_plan_id":"free"},{"bike_id":"99dd13b1-310e-4f78-8a04-1bdb966ac586","system_id":"levelo_inurba_marseille","lat":43.27812,"lon":5.40711,"is_reserved":false,"is_disabled":false,"rental_uris":{"android":"levelo://app?vid=99dd13b1-310e-4f78-8a04-1bdb966ac586","ios":"levelo://app?vid=99dd13b1-310e-4f78-8a04-1bdb966ac586"},"vehicle_type_id":"4","last_reported":1687975758,"current_range_meters":1200,"station_id":"ce4bhnh2rcd13ifvqgtg","pricing_plan_id":"free"},{"bike_id":"40fb67c6-79c9-422c-8b6f-43e94e0b4c78","system_id":"levelo_inurba_marseille","lat":43.278128,"lon":5.407195,"is_reserved":false,"is_disabled":false,"rental_uris":{"android":"levelo://app?vid=40fb67c6-79c9-422c-8b6f-43e94e0b4c78","ios":"levelo://app?vid=40fb67c6-79c9-422c-8b6f-43e94e0b4c78"},"vehicle_type_id":"4","last_reported":1687975758,"current_range_meters":24800,"station_id":"ce4bhnh2rcd13ifvqgtg","pricing_plan_id":"free"},{"bike_id":"33e90f9d-9ea2-4174-8d44-365a7d68573a","system_id":"levelo_inurba_marseille","lat":43.27809,"lon":5.40708,"is_reserved":false,"is_disabled":false,"rental_uris":{"android":"levelo://app?vid=33e90f9d-9ea2-4174-8d44-365a7d68573a","ios":"levelo://app?vid=33e90f9d-9ea2-4174-8d44-365a7d68573a"},"vehicle_type_id":"4","last_reported":1687975758,"current_range_meters":14800,"station_id":"ce4bhnh2rcd13ifvqgtg","pricing_plan_id":"free"},{"bike_id":"f60b21bb-a850-4bbc-8322-15b550859f33","system_id":"levelo_inurba_marseille","lat":43.278128,"lon":5.407195,"is_reserved":false,"is_disabled":false,"rental_uris":{"android":"levelo://app?vid=f60b21bb-a850-4bbc-8322-15b550859f33","ios":"levelo://app?vid=f60b21bb-a850-4bbc-8322-15b550859f33"},"vehicle_type_id":"4","last_reported":1687975758,"current_range_meters":10400,"station_id":"ce4bhnh2rcd13ifvqgtg","pricing_plan_id":"free"},{"bike_id":"108a48c7-5e1d-4370-844b-52e4f339c93a","system_id":"levelo_inurba_marseille","lat":43.2781,"lon":5.40715,"is_reserved":false,"is_disabled":false,"rental_uris":{"android":"levelo://app?vid=108a48c7-5e1d-4370-844b-52e4f339c93a","ios":"levelo://app?vid=108a48c7-5e1d-4370-844b-52e4f339c93a"},"vehicle_type_id":"4","last_reported":1687975758,"current_range_meters":13200,"station_id":"ce4bhnh2rcd13ifvqgtg","pricing_plan_id":"free"},{"bike_id":"2b5dbd59-1a1c-4b27-9f58-8e5028102249","system_id":"levelo_inurba_marseille","lat":43.27811,"lon":5.40717,"is_reserved":false,"is_disabled":false,"rental_uris":{"android":"levelo://app?vid=2b5dbd59-1a1c-4b27-9f58-8e5028102249","ios":"levelo://app?vid=2b5dbd59-1a1c-4b27-9f58-8e5028102249"},"vehicle_type_id":"4","last_reported":1687975758,"current_range_meters":800,"station_id":"ce4bhnh2rcd13ifvqgtg","pricing_plan_id":"free"},{"bike_id":"46fe3012-8788-4f38-9e17-778617d6fd7e","system_id":"levelo_inurba_marseille","lat":43.2695,"lon":5.3863,"is_reserved":false,"is_disabled":false,"rental_uris":{"android":"levelo://app?vid=46fe3012-8788-4f38-9e17-778617d6fd7e","ios":"levelo://app?vid=46fe3012-8788-4f38-9e17-778617d6fd7e"},"vehicle_type_id":"4","last_reported":1687975758,"current_range_meters":23200,"station_id":"ce4bhh92rcd13ifvqfh0","pricing_plan_id":"free"},{"bike_id":"15687ed2-108c-4203-956d-993f39eae5ae","system_id":"levelo_inurba_marseille","lat":43.27994,"lon":5.41658,"is_reserved":false,"is_disabled":false,"rental_uris":{"android":"levelo://app?vid=15687ed2-108c-4203-956d-993f39eae5ae","ios":"levelo://app?vid=15687ed2-108c-4203-956d-993f39eae5ae"},"vehicle_type_id":"4","last_reported":1687975758,"current_range_meters":20800,"station_id":"ce4bho12rcd13ifvqh1g","pricing_plan_id":"free"},{"bike_id":"e39f2f25-b979-4116-aad3-7beb563d5650","system_id":"levelo_inurba_marseille","lat":43.2799,"lon":5.41657,"is_reserved":false,"is_disabled":false,"rental_uris":{"android":"levelo://app?vid=e39f2f25-b979-4116-aad3-7beb563d5650","ios":"levelo://app?vid=e39f2f25-b979-4116-aad3-7beb563d5650"},"vehicle_type_id":"4","last_reported":1687975758,"current_range_meters":5600,"station_id":"ce4bho12rcd13ifvqh1g","pricing_plan_id":"free"},{"bike_id":"28ff8f84-4f8c-409e-9c90-1cc5d20372cf","system_id":"levelo_inurba_marseille","lat":43.27994,"lon":5.41663,"is_reserved":false,"is_disabled":false,"rental_uris":{"android":"levelo://app?vid=28ff8f84-4f8c-409e-9c90-1cc5d20372cf","ios":"levelo://app?vid=28ff8f84-4f8c-409e-9c90-1cc5d20372cf"},"vehicle_type_id":"4","last_reported":1687975758,"current_range_meters":0,"station_id":"ce4bho12rcd13ifvqh1g","pricing_plan_id":"free"},{"bike_id":"fd5a4f1a-79a7-4734-94ca-8a6e852484eb","system_id":"levelo_inurba_marseille","lat":43.27996,"lon":5.416624,"is_reserved":false,"is_disabled":false,"rental_uris":{"android":"levelo://app?vid=fd5a4f1a-79a7-4734-94ca-8a6e852484eb","ios":"levelo://app?vid=fd5a4f1a-79a7-4734-94ca-8a6e852484eb"},"vehicle_type_id":"4","last_reported":1687975758,"current_range_meters":0,"station_id":"ce4bho12rcd13ifvqh1g","pricing_plan_id":"free"},{"bike_id":"4a57253d-4155-4e74-aad7-c96d6fa5f397","system_id":"levelo_inurba_marseille","lat":43.27989,"lon":5.41661,"is_reserved":false,"is_disabled":false,"rental_uris":{"android":"levelo://app?vid=4a57253d-4155-4e74-aad7-c96d6fa5f397","ios":"levelo://app?vid=4a57253d-4155-4e74-aad7-c96d6fa5f397"},"vehicle_type_id":"4","last_reported":1687975758,"current_range_meters":9600,"station_id":"ce4bho12rcd13ifvqh1g","pricing_plan_id":"free"},{"bike_id":"9084948d-3b1c-4a75-bb35-7bf1686acf10","system_id":"levelo_inurba_marseille","lat":43.27987,"lon":5.41659,"is_reserved":false,"is_disabled":false,"rental_uris":{"android":"levelo://app?vid=9084948d-3b1c-4a75-bb35-7bf1686acf10","ios":"levelo://app?vid=9084948d-3b1c-4a75-bb35-7bf1686acf10"},"vehicle_type_id":"4","last_reported":1687975758,"current_range_meters":4400,"station_id":"ce4bho12rcd13ifvqh1g","pricing_plan_id":"free"},{"bike_id":"30db3247-22d2-493f-96fc-ffe1cdba68df","system_id":"levelo_inurba_marseille","lat":43.27988,"lon":5.41663,"is_reserved":false,"is_disabled":false,"rental_uris":{"android":"levelo://app?vid=30db3247-22d2-493f-96fc-ffe1cdba68df","ios":"levelo://app?vid=30db3247-22d2-493f-96fc-ffe1cdba68df"},"vehicle_type_id":"4","last_reported":1687975758,"current_range_meters":18800,"station_id":"ce4bho12rcd13ifvqh1g","pricing_plan_id":"free"},{"bike_id":"ec696287-76a4-409b-b9b2-37a43d5f56a3","system_id":"levelo_inurba_marseille","lat":43.27996,"lon":5.416624,"is_reserved":false,"is_disabled":false,"rental_uris":{"android":"levelo://app?vid=ec696287-76a4-409b-b9b2-37a43d5f56a3","ios":"levelo://app?vid=ec696287-76a4-409b-b9b2-37a43d5f56a3"},"vehicle_type_id":"4","last_reported":1687975758,"current_range_meters":4800,"station_id":"ce4bho12rcd13ifvqh1g","pricing_plan_id":"free"},{"bike_id":"ab4153d3-45e7-4905-945b-98ad0ae69d31","system_id":"levelo_inurba_marseille","lat":43.267966,"lon":5.393976,"is_reserved":false,"is_disabled":false,"rental_uris":{"android":"levelo://app?vid=ab4153d3-45e7-4905-945b-98ad0ae69d31","ios":"levelo://app?vid=ab4153d3-45e7-4905-945b-98ad0ae69d31"},"vehicle_type_id":"4","last_reported":1687975758,"current_range_meters":0,"station_id":"ce4bhh12rcd13ifvqfg0","pricing_plan_id":"free"},{"bike_id":"8bb01b13-2577-4190-8df3-3357b8a5d297","system_id":"levelo_inurba_marseille","lat":43.308051,"lon":5.43527,"is_reserved":false,"is_disabled":false,"rental_uris":{"android":"levelo://app?vid=8bb01b13-2577-4190-8df3-3357b8a5d297","ios":"levelo://app?vid=8bb01b13-2577-4190-8df3-3357b8a5d297"},"vehicle_type_id":"4","last_reported":1687975758,"current_range_meters":10800,"station_id":"ce4bhph2rcd13ifvqheg","pricing_plan_id":"free"},{"bike_id":"f8dfce1b-7ede-4c93-9306-5f40d21d1f72","system_id":"levelo_inurba_marseille","lat":43.308051,"lon":5.43527,"is_reserved":false,"is_disabled":false,"rental_uris":{"android":"levelo://app?vid=f8dfce1b-7ede-4c93-9306-5f40d21d1f72","ios":"levelo://app?vid=f8dfce1b-7ede-4c93-9306-5f40d21d1f72"},"vehicle_type_id":"4","last_reported":1687975758,"current_range_meters":800,"station_id":"ce4bhph2rcd13ifvqheg","pricing_plan_id":"free"},{"bike_id":"9da81734-f48e-4289-8eb7-1a0fc9848821","system_id":"levelo_inurba_marseille","lat":43.26561,"lon":5.39006,"is_reserved":false,"is_disabled":false,"rental_uris":{"android":"levelo://app?vid=9da81734-f48e-4289-8eb7-1a0fc9848821","ios":"levelo://app?vid=9da81734-f48e-4289-8eb7-1a0fc9848821"},"vehicle_type_id":"4","last_reported":1687975758,"current_range_meters":0,"station_id":"ce4bhe12rcd13ifvqf30","pricing_plan_id":"free"},{"bike_id":"ffb57785-ece2-4f72-8266-b1d23fd35a40","system_id":"levelo_inurba_marseille","lat":43.26559,"lon":5.39008,"is_reserved":false,"is_disabled":false,"rental_uris":{"android":"levelo://app?vid=ffb57785-ece2-4f72-8266-b1d23fd35a40","ios":"levelo://app?vid=ffb57785-ece2-4f72-8266-b1d23fd35a40"},"vehicle_type_id":"4","last_reported":1687975758,"current_range_meters":25600,"station_id":"ce4bhe12rcd13ifvqf30","pricing_plan_id":"free"},{"bike_id":"6ac0b6a5-fa75-4cf3-ba6b-050016cc2b9e","system_id":"levelo_inurba_marseille","lat":43.261782,"lon":5.374515,"is_reserved":false,"is_disabled":false,"rental_uris":{"android":"levelo://app?vid=6ac0b6a5-fa75-4cf3-ba6b-050016cc2b9e","ios":"levelo://app?vid=6ac0b6a5-fa75-4cf3-ba6b-050016cc2b9e"},"vehicle_type_id":"4","last_reported":1687975758,"current_range_meters":24400,"station_id":"ce4bhgp2rcd13ifvqfc0","pricing_plan_id":"free"},{"bike_id":"02f59360-7fdb-44fe-880d-50e31262c769","system_id":"levelo_inurba_marseille","lat":43.261782,"lon":5.374515,"is_reserved":false,"is_disabled":false,"rental_uris":{"android":"levelo://app?vid=02f59360-7fdb-44fe-880d-50e31262c769","ios":"levelo://app?vid=02f59360-7fdb-44fe-880d-50e31262c769"},"vehicle_type_id":"4","last_reported":1687975758,"current_range_meters":28000,"station_id":"ce4bhgp2rcd13ifvqfc0","pricing_plan_id":"free"},