{"last_updated":1737122867,"ttl":60,"version":"2.2","data":{"bikes":[{"bike_id":"3632d96a-a11d-4858-bb41-1be2f87f376e","system_id":"levelo_inurba_marseille","lat":43.28926,"lon":5.36399,"is_reserved":false,"is_disabled":false,"rental_uris":{"android":"levelo://app?vid=3632d96a-a11d-4858-bb41-1be2f87f376e","ios":"levelo://app?vid=3632d96a-a11d-4858-bb41-1be2f87f376e"},"vehicle_type_id":"4","last_reported":1737122867,"current_range_meters":9200,"station_id":"ce4bhc92rcd13ifvqetg","pricing_plan_id":"cebpf4jnsgd1na2vs0mg"},{"bike_id":"dd03d761-348f-49b9-b0f1-147813bbe2a5","system_id":"levelo_inurba_marseille","lat":43.23184,"lon":5.39983,"is_reserved":false,"is_disabled":false,"rental_uris":{"android":"levelo://app?vid=dd03d761-348f-49b9-b0f1-147813bbe2a5","ios":"levelo://app?vid=dd03d761-348f-49b9-b0f1-147813bbe2a5"},"vehicle_type_id":"4","last_reported":1737122867,"current_range_meters":3600,"station_id":"ce4bhn12rcd13ifvqgqg","pricing_plan_id":"cebpf4jnsgd1na2vs0mg"},{"bike_id":"753ccb49-949e-4f76-bbe4-861c2515eec4","system_id":"levelo_inurba_marseille","lat":43.29911,"lon":5.374796,"is_reserved":false,"is_disabled":false,"rental_uris":{"android":"levelo://app?vid=753ccb49-949e-4f76-bbe4-861c2515eec4","ios":"levelo://app?vid=753ccb49-949e-4f76-bbe4-861c2515eec4"},"vehicle_type_id":"4","last_reported":1737122867,"current_range_meters":38400,"station_id":"ce4bgjh2rcd13ifvqbg0","pricing_plan_id":"cebpf4jnsgd1na2vs0mg"},{"bike_id":"dd4b6a30-9597-485e-aa70-f093df5b5c0a","system_id":"levelo_inurba_marseille","lat":43.29265,"lon":5.36859,"is_reserved":false,"is_disabled":false,"rental_uris":{"android":"levelo://app?vid=dd4b6a30-9597-485e-aa70-f093df5b5c0a","ios":"levelo://app?vid=dd4b6a30-9597-485e-aa70-f093df5b5c0a"},"vehicle_type_id":"4","last_reported":1737122867,"current_range_meters":33600,"station_id":"ce4bhbp2rcd13ifvqesg","pricing_plan_id":"cebpf4jnsgd1na2vs0mg"},{"bike_id":"cbf0bd80-761a-4b5c-bbf1-8cd5a4841def","system_id":"levelo_inurba_marseille","lat":43.28902,"lon":5.38329,"is_reserved":false,"is_disabled":false,"rental_uris":{"android":"levelo://app?vid=cbf0bd80-761a-4b5c-bbf1-8cd5a4841def","ios":"levelo://app?vid=cbf0bd80-761a-4b5c-bbf1-8cd5a4841def"},"vehicle_type_id":"4","last_reported":1737122867,"current_range_meters":12400,"station_id":"ce4bh612rcd13ifvqe6g","pricing_plan_id":"cebpf4jnsgd1na2vs0mg"},{"bike_id":"948470a2-eef4-4f43-b845-64f5ea587d68","system_id":"levelo_inurba_marseille","lat":43.24186,"lon":5.39723,"is_reserved":false,"is_disabled":false,"rental_uris":{"android":"levelo://app?vid=948470a2-eef4-4f43-b845-64f5ea587d68","ios":"levelo://app?vid=948470a2-eef4-4f43-b845-64f5ea587d68"},"vehicle_type_id":"4","last_reported":1737122867,"current_range_meters":16800,"station_id":"ce4bhn12rcd13ifvqgpg","pricing_plan_id":"cebpf4jnsgd1na2vs0mg"},{"bike_id":"352789ba-5de3-4f6e-84a8-32c41d59996f","system_id":"levelo_inurba_marseille","lat":43.30296,"lon":5.37714,"is_reserved":false,"is_disabled":false,"rental_uris":{"android":"levelo://app?vid=352789ba-5de3-4f6e-84a8-32c41d59996f","ios":"levelo://app?vid=352789ba-5de3-4f6e-84a8-32c41d59996f"},"vehicle_type_id":"4","last_reported":1737122867,"current_range_meters":38800,"station_id":"ce4bguh2rcd13ifvqcj0","pricing_plan_id":"cebpf4jnsgd1na2vs0mg"},{"bike_id":"736aa54d-b902-4630-8a90-71e7dee03587","system_id":"levelo_inurba_marseille","lat":43.26079,"lon":5.3937,"is_reserved":false,"is_disabled":false,"rental_uris":{"android":"levelo://app?vid=736aa54d-b902-4630-8a90-71e7dee03587","ios":"levelo://app?vid=736aa54d-b902-4630-8a90-71e7dee03587"},"vehicle_type_id":"4","last_reported":1737122867,"current_range_meters":38000,"station_id":"ce4bhh92rcd13ifvqfj0","pricing_plan_id":"cebpf4jnsgd1na2vs0mg"},{"bike_id":"c8e86a55-202f-4beb-ba90-3cf2ee0357b7","system_id":"levelo_inurba_marseille","lat":43.31347,"lon":5.38495,"is_reserved":false,"is_disabled":false,"rental_uris":{"android":"levelo://app?vid=c8e86a55-202f-4beb-ba90-3cf2ee0357b7","ios":"levelo://app?vid=c8e86a55-202f-4beb-ba90-3cf2ee0357b7"},"vehicle_type_id":"4","last_reported":1737122867,"current_range_meters":38800,"station_id":"ce4bgt92rcd13ifvqcf0","pricing_plan_id":"cebpf4jnsgd1na2vs0mg"},{"bike_id":"6adb8590-e6b8-4893-b63a-5c471311794b","system_id":"levelo_inurba_marseille","lat":43.24179,"lon":5.39723,"is_reserved":false,"is_disabled":true,"rental_uris":{"android":"levelo://app?vid=6adb8590-e6b8-4893-b63a-5c471311794b","ios":"levelo://app?vid=6adb8590-e6b8-4893-b63a-5c471311794b"},"vehicle_type_id":"4","last_reported":1737122867,"current_range_meters":0,"station_id":"ce4bhn12rcd13ifvqgpg","pricing_plan_id":"cebpf4jnsgd1na2vs0mg"},{"bike_id":"2639b42c-ffb4-4688-ab74-37ab803cbe1a","system_id":"levelo_inurba_marseille","lat":43.296231,"lon":5.371764,"is_reserved":false,"is_disabled":false,"rental_uris":{"android":"levelo://app?vid=2639b42c-ffb4-4688-ab74-37ab803cbe1a","ios":"levelo://app?vid=2639b42c-ffb4-4688-ab74-37ab803cbe1a"},"vehicle_type_id":"4","last_reported":1737122867,"current_range_meters":33600,"station_id":"ce4bgnh2rcd13ifvqc0g","pricing_plan_id":"cebpf4jnsgd1na2vs0mg"},{"bike_id":"106a8dfd-804c-4ed5-9046-d610bd0f5b58","system_id":"levelo_inurba_marseille","lat":43.289751,"lon":5.365222,"is_reserved":false,"is_disabled":false,"rental_uris":{"android":"levelo://app?vid=106a8dfd-804c-4ed5-9046-d610bd0f5b58","ios":"levelo://app?vid=106a8dfd-804c-4ed5-9046-d610bd0f5b58"},"vehicle_type_id":"4","last_reported":1737122867,"current_range_meters":23200,"station_id":"ce4bhb92rcd13ifvqen0","pricing_plan_id":"cebpf4jnsgd1na2vs0mg"},{"bike_id":"acd95981-8745-4a8e-9dce-9e76fae8f3d0","system_id":"levelo_inurba_marseille","lat":43.30141,"lon":5.39842,"is_reserved":false,"is_disabled":false,"rental_uris":{"android":"levelo://app?vid=acd95981-8745-4a8e-9dce-9e76fae8f3d0","ios":"levelo://app?vid=acd95981-8745-4a8e-9dce-9e76fae8f3d0"},"vehicle_type_id":"4","last_reported":1737122867,"current_range_meters":22800,"station_id":"ce4bh0h2rcd13ifvqd40","pricing_plan_id":"cebpf4jnsgd1na2vs0mg"},{"bike_id":"aef62298-197d-4e92-8e97-1ba10c41fc89","system_id":"levelo_inurba_marseille","lat":43.30563,"lon":5.36718,"is_reserved":false,"is_disabled":false,"rental_uris":{"android":"levelo://app?vid=aef62298-197d-4e92-8e97-1ba10c41fc89","ios":"levelo://app?vid=aef62298-197d-4e92-8e97-1ba10c41fc89"},"vehicle_type_id":"4","last_reported":1737122867,"current_range_meters":21600,"station_id":"ce4bgrp2rcd13ifvqc9g","pricing_plan_id":"cebpf4jnsgd1na2vs0mg"},{"bike_id":"a566a964-1a7f-426f-8373-f6e42cce7fc4","system_id":"levelo_inurba_marseille","lat":43.252039,"lon":5.402775,"is_reserved":false,"is_disabled":false,"rental_uris":{"android":"levelo://app?vid=a566a964-1a7f-426f-8373-f6e42cce7fc4","ios":"levelo://app?vid=a566a964-1a7f-426f-8373-f6e42cce7fc4"},"vehicle_type_id":"4","last_reported":1737122867,"current_range_meters":25200,"station_id":"ce4bhlh2rcd13ifvqgig","pricing_plan_id":"cebpf4jnsgd1na2vs0mg"},{"bike_id":"a4607759-bc6a-4b88-a0dc-6331eb2acc8c","system_id":"levelo_inurba_marseille","lat":43.29213,"lon":5.3608,"is_reserved":false,"is_disabled":false,"rental_uris":{"android":"levelo://app?vid=a4607759-bc6a-4b88-a0dc-6331eb2acc8c","ios":"levelo://app?vid=a4607759-bc6a-4b88-a0dc-6331eb2acc8c"},"vehicle_type_id":"4","last_reported":1737122867,"current_range_meters":32800,"station_id":"ce4bhbh2rcd13ifvqeqg","pricing_plan_id":"cebpf4jnsgd1na2vs0mg"},{"bike_id":"d601c83d-d612-46eb-a160-26e66a28b8b3","system_id":"levelo_inurba_marseille","lat":43.29634,"lon":5.37147,"is_reserved":false,"is_disabled":false,"rental_uris":{"android":"levelo://app?vid=d601c83d-d612-46eb-a160-26e66a28b8b3","ios":"levelo://app?vid=d601c83d-d612-46eb-a160-26e66a28b8b3"},"vehicle_type_id":"4","last_reported":1737122867,"current_range_meters":38000,"station_id":"ce4bgnh2rcd13ifvqc0g","pricing_plan_id":"cebpf4jnsgd1na2vs0mg"},{"bike_id":"3400bc5d-e982-4bd1-aa7c-d4a0504b5538","system_id":"levelo_inurba_marseille","lat":43.31455,"lon":5.37386,"is_reserved":false,"is_disabled":false,"rental_uris":{"android":"levelo://app?vid=3400bc5d-e982-4bd1-aa7c-d4a0504b5538","ios":"levelo://app?vid=3400bc5d-e982-4bd1-aa7c-d4a0504b5538"},"vehicle_type_id":"4","last_reported":1737122867,"current_range_meters":25600,"station_id":"","pricing_plan_id":"cebpf4jnsgd1na2vs0mg"},{"bike_id":"98a80188-fca5-4704-808f-eb6255c5042d","system_id":"levelo_inurba_marseille","lat":43.3127,"lon":5.36866,"is_reserved":false,"is_disabled":false,"rental_uris":{"android":"levelo://app?vid=98a80188-fca5-4704-808f-eb6255c5042d","ios":"levelo://app?vid=98a80188-fca5-4704-808f-eb6255c5042d"},"vehicle_type_id":"4","last_reported":1737122867,"current_range_meters":34000,"station_id":"ce4bgl92rcd13ifvqbq0","pricing_plan_id":"cebpf4jnsgd1na2vs0mg"},{"bike_id":"b7d118ec-3dac-475a-81d8-f50ba52a7862","system_id":"levelo_inurba_marseille","lat":43.26952,"lon":5.38628,"is_reserved":false,"is_disabled":false,"rental_uris":{"android":"levelo://app?vid=b7d118ec-3dac-475a-81d8-f50ba52a7862","ios":"levelo://app?vid=b7d118ec-3dac-475a-81d8-f50ba52a7862"},"vehicle_type_id":"4","last_reported":1737122867,"current_range_meters":38000,"station_id":"ce4bhh92rcd13ifvqfh0","pricing_plan_id":"cebpf4jnsgd1na2vs0mg"},{"bike_id":"c4fc9679-1008-473b-9e9b-26f1ed62312e","system_id":"levelo_inurba_marseille","lat":43.22925,"lon":5.35392,"is_reserved":false,"is_disabled":false,"rental_uris":{"android":"levelo://app?vid=c4fc9679-1008-473b-9e9b-26f1ed62312e","ios":"levelo://app?vid=c4fc9679-1008-473b-9e9b-26f1ed62312e"},"vehicle_type_id":"4","last_reported":1737122867,"current_range_meters":18000,"station_id":"cpo3532slgdg3j2ikp40","pricing_plan_id":"cebpf4jnsgd1na2vs0mg"},{"bike_id":"21066e24-fd5e-40c0-a82a-a1da89fbd9ff","system_id":"levelo_inurba_marseille","lat":43.30162,"lon":5.38089,"is_reserved":false,"is_disabled":false,"rental_uris":{"android":"levelo://app?vid=21066e24-fd5e-40c0-a82a-a1da89fbd9ff","ios":"levelo://app?vid=21066e24-fd5e-40c0-a82a-a1da89fbd9ff"},"vehicle_type_id":"4","last_reported":1737122867,"current_range_meters":24400,"station_id":"ce4bgjp2rcd13ifvqbh0","pricing_plan_id":"cebpf4jnsgd1na2vs0mg"},{"bike_id":"ef45737c-063f-47d0-af9e-636b156d4a9e","system_id":"levelo_inurba_marseille","lat":43.3014,"lon":5.38089,"is_reserved":false,"is_disabled":false,"rental_uris":{"android":"levelo://app?vid=ef45737c-063f-47d0-af9e-636b156d4a9e","ios":"levelo://app?vid=ef45737c-063f-47d0-af9e-636b156d4a9e"},"vehicle_type_id":"4","last_reported":1737122867,"current_range_meters":36000,"station_id":"ce4bgjp2rcd13ifvqbh0","pricing_plan_id":"cebpf4jnsgd1na2vs0mg"},{"bike_id":"5142ff74-1123-41d8-b97d-c2f96516fa84","system_id":"levelo_inurba_marseille","lat":43.2925,"lon":5.36854,"is_reserved":false,"is_disabled":false,"rental_uris":{"android":"levelo://app?vid=5142ff74-1123-41d8-b97d-c2f96516fa84","ios":"levelo://app?vid=5142ff74-1123-41d8-b97d-c2f96516fa84"},"vehicle_type_id":"4","last_reported":1737122867,"current_range_meters":28400,"station_id":"ce4bhbp2rcd13ifvqesg","pricing_plan_id":"cebpf4jnsgd1na2vs0mg"},{"bike_id":"c36953e7-56a6-446e-ad99-269fc31f6f59","system_id":"levelo_inurba_marseille","lat":43.29362,"lon":5.37859,"is_reserved":false,"is_disabled":false,"rental_uris":{"android":"levelo://app?vid=c36953e7-56a6-446e-ad99-269fc31f6f59","ios":"levelo://app?vid=c36953e7-56a6-446e-ad99-269fc31f6f59"},"vehicle_type_id":"4","last_reported":1737122867,"current_range_meters":22800,"station_id":"ce4bgjh2rcd13ifvqbf0","pricing_plan_id":"cebpf4jnsgd1na2vs0mg"},{"bike_id":"9ca56233-1d5d-4b20-81f6-4becb32f6e0f","system_id":"levelo_inurba_marseille","lat":43.31493,"lon":5.37305,"is_reserved":false,"is_disabled":false,"rental_uris":{"android":"levelo://app?vid=9ca56233-1d5d-4b20-81f6-4becb32f6e0f","ios":"levelo://app?vid=9ca56233-1d5d-4b20-81f6-4becb32f6e0f"},"vehicle_type_id":"4","last_reported":1737122867,"current_range_meters":11600,"station_id":"ce4bgt12rcd13ifvqcd0","pricing_plan_id":"cebpf4jnsgd1na2vs0mg"},{"bike_id":"2805e72a-ec04-4eae-8b3f-30436e1fad2c","system_id":"levelo_inurba_marseille","lat":43.29082,"lon":5.38143,"is_reserved":false,"is_disabled":false,"rental_uris":{"android":"levelo://app?vid=2805e72a-ec04-4eae-8b3f-30436e1fad2c","ios":"levelo://app?vid=2805e72a-ec04-4eae-8b3f-30436e1fad2c"},"vehicle_type_id":"4","last_reported":1737122867,"current_range_meters":12400,"station_id":"ce4bh512rcd13ifvqe2g","pricing_plan_id":"cebpf4jnsgd1na2vs0mg"},{"bike_id":"56c51ece-3536-4ce3-befe-a3278e20a131","system_id":"levelo_inurba_marseille","lat":43.30128,"lon":5.374195,"is_reserved":false,"is_disabled":false,"rental_uris":{"android":"levelo://app?vid=56c51ece-3536-4ce3-befe-a3278e20a131","ios":"levelo://app?vid=56c51ece-3536-4ce3-befe-a3278e20a131"},"vehicle_type_id":"4","last_reported":1737122867,"current_range_meters":25600,"station_id":"ce4bgs92rcd13ifvqcc0","pricing_plan_id":"cebpf4jnsgd1na2vs0mg"},{"bike_id":"c3ec5a49-e31f-43da-9a28-df2f71d799a4","system_id":"levelo_inurba_marseille","lat":43.29145,"lon":5.37171,"is_reserved":false,"is_disabled":false,"rental_uris":{"android":"levelo://app?vid=c3ec5a49-e31f-43da-9a28-df2f71d799a4","ios":"levelo://app?vid=c3ec5a49-e31f-43da-9a28-df2f71d799a4"},"vehicle_type_id":"4","last_reported":1737122867,"current_range_meters":6800,"station_id":"ce4bha92rcd13ifvqeh0","pricing_plan_id":"cebpf4jnsgd1na2vs0mg"},{"bike_id":"66065961-8f66-46c8-be70-f9092a8345b6","system_id":"levelo_inurba_marseille","lat":43.29091,"lon":5.38152,"is_reserved":false,"is_disabled":false,"rental_uris":{"android":"levelo://app?vid=66065961-8f66-46c8-be70-f9092a8345b6","ios":"levelo://app?vid=66065961-8f66-46c8-be70-f9092a8345b6"},"vehicle_type_id":"4","last_reported":1737122867,"current_range_meters":36000,"station_id":"ce4bh512rcd13ifvqe2g","pricing_plan_id":"cebpf4jnsgd1na2vs0mg"},{"bike_id":"e15e7402-fd7e-4ffc-afc5-20061763006a","system_id":"levelo_inurba_marseille","lat":43.27373,"lon":5.3626,"is_reserved":false,"is_disabled":false,"rental_uris":{"android":"levelo://app?vid=e15e7402-fd7e-4ffc-afc5-20061763006a","ios":"levelo://app?vid=e15e7402-fd7e-4ffc-afc5-20061763006a"},"vehicle_type_id":"4","last_reported":1737122867,"current_range_meters":30000,"station_id":"ce4bhbh2rcd13ifvqeo0","pricing_plan_id":"cebpf4jnsgd1na2vs0mg"},{"bike_id":"66ec8711-3dbc-48f7-b091-25773ac6b77c","system_id":"levelo_inurba_marseille","lat":43.28146,"lon":5.44212,"is_reserved":false,"is_disabled":true,"rental_uris":{"android":"levelo://app?vid=66ec8711-3dbc-48f7-b091-25773ac6b77c","ios":"levelo://app?vid=66ec8711-3dbc-48f7-b091-25773ac6b77c"},"vehicle_type_id":"4","last_reported":1737122867,"current_range_meters":0,"station_id":"","pricing_plan_id":"cebpf4jnsgd1na2vs0mg"},{"bike_id":"93558611-9a4e-42d7-bf7c-4cf03b80ec30","system_id":"levelo_inurba_marseille","lat":43.2558,"lon":5.38242,"is_reserved":false,"is_disabled":false,"rental_uris":{"android":"levelo://app?vid=93558611-9a4e-42d7-bf7c-4cf03b80ec30","ios":"levelo://app?vid=93558611-9a4e-42d7-bf7c-4cf03b80ec30"},"vehicle_type_id":"4","last_reported":1737122867,"current_range_meters":20800,"station_id":"ce4bhih2rcd13ifvqfs0","pricing_plan_id":"cebpf4jnsgd1na2vs0mg"},{"bike_id":"0a709f11-4e6a-4d8f-a0b0-f11eab95141b","system_id":"levelo_inurba_marseille","lat":43.29192,"lon":5.39326,"is_reserved":false,"is_disabled":false,"rental_uris":{"android":"levelo://app?vid=0a709f11-4e6a-4d8f-a0b0-f11eab95141b","ios":"levelo://app?vid=0a709f11-4e6a-4d8f-a0b0-f11eab95141b"},"vehicle_type_id":"4","last_reported":1737122867,"current_range_meters":39200,"station_id":"ce4bh192rcd13ifvqdd0","pricing_plan_id":"cebpf4jnsgd1na2vs0mg"},{"bike_id":"42928924-96d0-441e-be9f-699f5818f926","system_id":"levelo_inurba_marseille","lat":43.30532,"lon":5.36548,"is_reserved":false,"is_disabled":false,"rental_uris":{"android":"levelo://app?vid=42928924-96d0-441e-be9f-699f5818f926","ios":"levelo://app?vid=42928924-96d0-441e-be9f-699f5818f926"},"vehicle_type_id":"4","last_reported":1737122867,"current_range_meters":35600,"station_id":"ce4bgs12rcd13ifvqcag","pricing_plan_id":"cebpf4jnsgd1na2vs0mg"},{"bike_id":"e94f5751-3760-4f03-84d5-5ceb919334c8","system_id":"levelo_inurba_marseille","lat":43.25124,"lon":5.40322,"is_reserved":false,"is_disabled":false,"rental_uris":{"android":"levelo://app?vid=e94f5751-3760-4f03-84d5-5ceb919334c8","ios":"levelo://app?vid=e94f5751-3760-4f03-84d5-5ceb919334c8"},"vehicle_type_id":"4","last_reported":1737122867,"current_range_meters":14000,"station_id":"ce4bhlh2rcd13ifvqgig","pricing_plan_id":"cebpf4jnsgd1na2vs0mg"},{"bike_id":"954b17d3-0d50-4d1d-9755-857bdc284020","system_id":"levelo_inurba_marseille","lat":43.28152,"lon":5.42642,"is_reserved":false,"is_disabled":false,"rental_uris":{"android":"levelo://app?vid=954b17d3-0d50-4d1d-9755-857bdc284020","ios":"levelo://app?vid=954b17d3-0d50-4d1d-9755-857bdc284020"},"vehicle_type_id":"4","last_reported":1737122867,"current_range_meters":27600,"station_id":"ce4bhnh2rcd13ifvqgug","pricing_plan_id":"cebpf4jnsgd1na2vs0mg"},{"bike_id":"3e8dbbed-2d1e-4e9f-8ac2-d20c7466701f","system_id":"levelo_inurba_marseille","lat":43.28488,"lon":5.38554,"is_reserved":false,"is_disabled":false,"rental_uris":{"android":"levelo://app?vid=3e8dbbed-2d1e-4e9f-8ac2-d20c7466701f","ios":"levelo://app?vid=3e8dbbed-2d1e-4e9f-8ac2-d20c7466701f"},"vehicle_type_id":"4","last_reported":1737122867,"current_range_meters":23200,"station_id":"ce4bh8p2rcd13ifvqeb0","pricing_plan_id":"cebpf4jnsgd1na2vs0mg"},{"bike_id":"c0761eff-368b-462f-a990-6347083446fa","system_id":"levelo_inurba_marseille","lat":43.22931,"lon":5.35375,"is_reserved":false,"is_disabled":false,"rental_uris":{"android":"levelo://app?vid=c0761eff-368b-462f-a990-6347083446fa","ios":"levelo://app?vid=c0761eff-368b-462f-a990-6347083446fa"},"vehicle_type_id":"4","last_reported":1737122867,"current_range_meters":20400,"station_id":"cpo3532slgdg3j2ikp40","pricing_plan_id":"cebpf4jnsgd1na2vs0mg"},{"bike_id":"0321cd6b-aaff-46d7-aacd-a1fa403e5c50","system_id":"levelo_inurba_marseille","lat":43.3312,"lon":5.3821,"is_reserved":false,"is_disabled":true,"rental_uris":{"android":"levelo://app?vid=0321cd6b-aaff-46d7-aacd-a1fa403e5c50","ios":"levelo://app?vid=0321cd6b-aaff-46d7-aacd-a1fa403e5c50"},"vehicle_type_id":"4","last_reported":1737122867,"current_range_meters":1200,"station_id":"","pricing_plan_id":"cebpf4jnsgd1na2vs0mg"},{"bike_id":"91900ac4-47c8-4400-a455-eba2ccf2e7e7","system_id":"levelo_inurba_marseille","lat":43.29656,"lon":5.37125,"is_reserved":false,"is_disabled":false,"rental_uris":{"android":"levelo://app?vid=91900ac4-47c8-4400-a455-eba2ccf2e7e7","ios":"levelo://app?vid=91900ac4-47c8-4400-a455-eba2ccf2e7e7"},"vehicle_type_id":"4","last_reported":1737122867,"current_range_meters":38800,"station_id":"ce4bgnh2rcd13ifvqc0g","pricing_plan_id":"cebpf4jnsgd1na2vs0mg"},{"bike_id":"a81ea5b1-9317-453a-bcfd-4915654f0b73","system_id":"levelo_inurba_marseille","lat":43.32495,"lon":5.36566,"is_reserved":false,"is_disabled":false,"rental_uris":{"android":"levelo://app?vid=a81ea5b1-9317-453a-bcfd-4915654f0b73","ios":"levelo://app?vid=a81ea5b1-9317-453a-bcfd-4915654f0b73"},"vehicle_type_id":"4","last_reported":1737122867,"current_range_meters":3600,"station_id":"ce4bhs12rcd13ifvqhvg","pricing_plan_id":"cebpf4jnsgd1na2vs0mg"},{"bike_id":"6e0daaa7-9f9c-487d-bf79-6080df0e6055","system_id":"levelo_inurba_marseille","lat":43.24806,"lon":5.37459,"is_reserved":false,"is_disabled":false,"rental_uris":{"android":"levelo://app?vid=6e0daaa7-9f9c-487d-bf79-6080df0e6055","ios":"levelo://app?vid=6e0daaa7-9f9c-487d-bf79-6080df0e6055"},"vehicle_type_id":"4","last_reported":1737122867,"current_range_meters":20400,"station_id":"ce4bhgh2rcd13ifvqfb0","pricing_plan_id":"cebpf4jnsgd1na2vs0mg"},{"bike_id":"84ce54be-a8fd-4da8-97fd-174c81fd4e80","system_id":"levelo_inurba_marseille","lat":43.29209,"lon":5.36076,"is_reserved":false,"is_disabled":false,"rental_uris":{"android":"levelo://app?vid=84ce54be-a8fd-4da8-97fd-174c81fd4e80","ios":"levelo://app?vid=84ce54be-a8fd-4da8-97fd-174c81fd4e80"},"vehicle_type_id":"4","last_reported":1737122867,"current_range_meters":28400,"station_id":"ce4bhbh2rcd13ifvqeqg","pricing_plan_id":"cebpf4jnsgd1na2vs0mg"},{"bike_id":"7dca7a8f-c00a-4072-871c-013acacad2c8","system_id":"levelo_inurba_marseille","lat":43.27581,"lon":5.38415,"is_reserved":false,"is_disabled":false,"rental_uris":{"android":"levelo://app?vid=7dca7a8f-c00a-4072-871c-013acacad2c8","ios":"levelo://app?vid=7dca7a8f-c00a-4072-871c-013acacad2c8"},"vehicle_type_id":"4","last_reported":1737122867,"current_range_meters":28400,"station_id":"ce4bhh92rcd13ifvqfi0","pricing_plan_id":"cebpf4jnsgd1na2vs0mg"},{"bike_id":"3b79bda4-b348-4244-b9f4-66aa189b7fab","system_id":"levelo_inurba_marseille","lat":43.29518,"lon":5.37506,"is_reserved":false,"is_disabled":false,"rental_uris":{"android":"levelo://app?vid=3b79bda4-b348-4244-b9f4-66aa189b7fab","ios":"levelo://app?vid=3b79bda4-b348-4244-b9f4-66aa189b7fab"},"vehicle_type_id":"4","last_reported":1737122867,"current_range_meters":32400,"station_id":"ce4bgkp2rcd13ifvqbmg","pricing_plan_id":"cebpf4jnsgd1na2vs0mg"},{"bike_id":"fa53afd0-c3c0-46c2-be7e-d056eb14f6b8","system_id":"levelo_inurba_marseille","lat":43.2607,"lon":5.39398,"is_reserved":false,"is_disabled":false,"rental_uris":{"android":"levelo://app?vid=fa53afd0-c3c0-46c2-be7e-d056eb14f6b8","ios":"levelo://app?vid=fa53afd0-c3c0-46c2-be7e-d056eb14f6b8"},"vehicle_type_id":"4","last_reported":1737122867,"current_range_meters":36400,"station_id":"ce4bhh92rcd13ifvqfj0","pricing_plan_id":"cebpf4jnsgd1na2vs0mg"},{"bike_id":"ca199f20-5bd5-4c67-afbd-52df5e53dcd3","system_id":"levelo_inurba_marseille","lat":43.29036,"lon":5.39969,"is_reserved":false,"is_disabled":true,"rental_uris":{"android":"levelo://app?vid=ca199f20-5bd5-4c67-afbd-52df5e53dcd3","ios":"levelo://app?vid=ca199f20-5bd5-4c67-afbd-52df5e53dcd3"},"vehicle_type_id":"4","last_reported":1737122867,"current_range_meters":0,"station_id":"ce4bh392rcd13ifvqdm0","pricing_plan_id":"cebpf4jnsgd1na2vs0mg"},{"bike_id":"a0020e87-f021-47c3-9f76-ad458e7049f0","system_id":"levelo_inurba_marseille","lat":43.28277,"lon":5.35056,"is_reserved":false,"is_disabled":false,"rental_uris":{"android":"levelo://app?vid=a0020e87-f021-47c3-9f76-ad458e7049f0","ios":"levelo://app?vid=a0020e87-f021-47c3-9f76-ad458e7049f0"},"vehicle_type_id":"4","last_reported":1737122867,"current_range_meters":38800,"station_id":"ce4bhbp2rcd13ifvqerg","pricing_plan_id":"cebpf4jnsgd1na2vs0mg"},{"bike_id":"7cfe6434-bc40-416b-a67c-6b987e262b97","system_id":"levelo_inurba_marseille","lat":43.29583,"lon":5.37504,"is_reserved":false,"is_disabled":false,"rental_uris":{"android":"levelo://app?vid=7cfe6434-bc40-416b-a67c-6b987e262b97","ios":"levelo://app?vid=7cfe6434-bc40-416b-a67c-6b987e262b97"},"vehicle_type_id":"4","last_reported":1737122867,"current_range_meters":38800,"station_id":"ce4bgh92rcd13ifvqb50","pricing_plan_id":"cebpf4jnsgd1na2vs0mg"},{"bike_id":"45648342-437f-4a01-9f0f-a362899521ab","system_id":"levelo_inurba_marseille","lat":43.29072,"lon":5.38126,"is_reserved":false,"is_disabled":false,"rental_uris":{"android":"levelo://app?vid=45648342-437f-4a01-9f0f-a362899521ab","ios":"levelo://app?vid=45648342-437f-4a01-9f0f-a362899521ab"},"vehicle_type_id":"4","last_reported":1737122867,"current_range_meters":25600,"station_id":"ce4bh512rcd13ifvqe2g","pricing_plan_id":"cebpf4jnsgd1na2vs0mg"},{"bike_id":"30579412-b6f8-4825-8642-ca471e06d7d6","system_id":"levelo_inurba_marseille","lat":43.28654,"lon":5.36344,"is_reserved":false,"is_disabled":false,"rental_uris":{"android":"levelo://app?vid=30579412-b6f8-4825-8642-ca471e06d7d6","ios":"levelo://app?vid=30579412-b6f8-4825-8642-ca471e06d7d6"},"vehicle_type_id":"4","last_reported":1737122867,"current_range_meters":33200,"station_id":"ce4bhah2rcd13ifvqej0","pricing_plan_id":"cebpf4jnsgd1na2vs0mg"},{"bike_id":"ed05d91e-075f-4457-9cea-1cc457a72937","system_id":"levelo_inurba_marseille","lat":43.27368,"lon":5.36235,"is_reserved":false,"is_disabled":false,"rental_uris":{"android":"levelo://app?vid=ed05d91e-075f-4457-9cea-1cc457a72937","ios":"levelo://app?vid=ed05d91e-075f-4457-9cea-1cc457a72937"},"vehicle_type_id":"4","last_reported":1737122867,"current_range_meters":38800,"station_id":"ce4bhbh2rcd13ifvqeo0","pricing_plan_id":"cebpf4jnsgd1na2vs0mg"},{"bike_id":"94339a91-1380-4ff2-8f0e-ccc0d08795da","system_id":"levelo_inurba_marseille","lat":43.27378,"lon":5.36246,"is_reserved":false,"is_disabled":false,"rental_uris":{"android":"levelo://app?vid=94339a91-1380-4ff2-8f0e-ccc0d08795da","ios":"levelo://app?vid=94339a91-1380-4ff2-8f0e-ccc0d08795da"},"vehicle_type_id":"4","last_reported":1737122867,"current_range_meters":21600,"station_id":"ce4bhbh2rcd13ifvqeo0","pricing_plan_id":"cebpf4jnsgd1na2vs0mg"},{"bike_id":"e155dc60-5198-4d48-b1b3-0c54d5e1b4ad","system_id":"levelo_inurba_marseille","lat":43.29985,"lon":5.41333,"is_reserved":false,"is_disabled":false,"rental_uris":{"android":"levelo://app?vid=e155dc60-5198-4d48-b1b3-0c54d5e1b4ad","ios":"levelo://app?vid=e155dc60-5198-4d48-b1b3-0c54d5e1b4ad"},"vehicle_type_id":"4","last_reported":1737122867,"current_range_meters":32800,"station_id":"ce4bhp12rcd13ifvqh9g","pricing_plan_id":"cebpf4jnsgd1na2vs0mg"},{"bike_id":"329b9334-6365-4b2b-9474-77fcac2432ee","system_id":"levelo_inurba_marseille","lat":43.23956,"lon":5.36639,"is_reserved":false,"is_disabled":false,"rental_uris":{"android":"levelo://app?vid=329b9334-6365-4b2b-9474-77fcac2432ee","ios":"levelo://app?vid=329b9334-6365-4b2b-9474-77fcac2432ee"},"vehicle_type_id":"4","last_reported":1737122867,"current_range_meters":38800,"station_id":"ce4bhi12rcd13ifvqfp0","pricing_plan_id":"cebpf4jnsgd1na2vs0mg"},{"bike_id":"8fa68a59-b92e-4ee5-9eaa-d32ba5a882b5","system_id":"levelo_inurba_marseille","lat":43.30302,"lon":5.3687,"is_reserved":false,"is_disabled":false,"rental_uris":{"android":"levelo://app?vid=8fa68a59-b92e-4ee5-9eaa-d32ba5a882b5","ios":"levelo://app?vid=8fa68a59-b92e-4ee5-9eaa-d32ba5a882b5"},"vehicle_type_id":"4","last_reported":1737122867,"current_range_meters":26000,"station_id":"ce4bgqh2rcd13ifvqc5g","pricing_plan_id":"cebpf4jnsgd1na2vs0mg"},{"bike_id":"ace1bc39-c221-4639-b8c7-f5b3505c1d3f","system_id":"levelo_inurba_marseille","lat":43.29517,"lon":5.37493,"is_reserved":false,"is_disabled":false,"rental_uris":{"android":"levelo://app?vid=ace1bc39-c221-4639-b8c7-f5b3505c1d3f","ios":"levelo://app?vid=ace1bc39-c221-4639-b8c7-f5b3505c1d3f"},"vehicle_type_id":"4","last_reported":1737122867,"current_range_meters":37600,"station_id":"ce4bgkp2rcd13ifvqbmg","pricing_plan_id":"cebpf4jnsgd1na2vs0mg"},{"bike_id":"2ee685f7-e8d5-46ce-90a4-a1c55e9fa5b0","system_id":"levelo_inurba_marseille","lat":43.28988,"lon":5.35598,"is_reserved":false,"is_disabled":false,"rental_uris":{"android":"levelo://app?vid=2ee685f7-e8d5-46ce-90a4-a1c55e9fa5b0","ios":"levelo://app?vid=2ee685f7-e8d5-46ce-90a4-a1c55e9fa5b0"},"vehicle_type_id":"4","last_reported":1737122867,"current_range_meters":33600,"station_id":"ce4bhb92rcd13ifvqen0","pricing_plan_id":"cebpf4jnsgd1na2vs0mg"},{"bike_id":"5adda376-c674-463c-8ecd-7c68d4f3ef8b","system_id":"levelo_inurba_marseille","lat":43.31716,"lon":5.42393,"is_reserved":false,"is_disabled":false,"rental_uris":{"android":"levelo://app?vid=5adda376-c674-463c-8ecd-7c68d4f3ef8b","ios":"levelo://app?vid=5adda376-c674-463c-8ecd-7c68d4f3ef8b"},"vehicle_type_id":"4","last_reported":1737122867,"current_range_meters":11600,"station_id":"ce4bhp92rcd13ifvqhbg","pricing_plan_id":"cebpf4jnsgd1na2vs0mg"},{"bike_id":"6ea4d259-06b8-4e0f-9494-4eae2040b46d","system_id":"levelo_inurba_marseille","lat":43.24192,"lon":5.39709,"is_reserved":false,"is_disabled":false,"rental_uris":{"android":"levelo://app?vid=6ea4d259-06b8-4e0f-9494-4eae2040b46d","ios":"levelo://app?vid=6ea4d259-06b8-4e0f-9494-4eae2040b46d"},"vehicle_type_id":"4","last_reported":1737122867,"current_range_meters":28000,"station_id":"ce4bhn12rcd13ifvqgpg","pricing_plan_id":"cebpf4jnsgd1na2vs0mg"},{"bike_id":"220f6a1c-bc5a-409b-8af4-b31edf32a222","system_id":"levelo_inurba_marseille","lat":43.27569,"lon":5.38407,"is_reserved":false,"is_disabled":false,"rental_uris":{"android":"levelo://app?vid=220f6a1c-bc5a-409b-8af4-b31edf32a222","ios":"levelo://app?vid=220f6a1c-bc5a-409b-8af4-b31edf32a222"},"vehicle_type_id":"4","last_reported":1737122867,"current_range_meters":6800,"station_id":"ce4bhh92rcd13ifvqfi0","pricing_plan_id":"cebpf4jnsgd1na2vs0mg"},{"bike_id":"daba84ca-a8d5-4b5f-93a6-a7f7d2514f93","system_id":"levelo_inurba_marseille","lat":43.26921,"lon":5.38908,"is_reserved":false,"is_disabled":false,"rental_uris":{"android":"levelo://app?vid=daba84ca-a8d5-4b5f-93a6-a7f7d2514f93","ios":"levelo://app?vid=daba84ca-a8d5-4b5f-93a6-a7f7d2514f93"},"vehicle_type_id":"4","last_reported":1737122867,"current_range_meters":26000,"station_id":"ce4bhhh2rcd13ifvqfl0","pricing_plan_id":"cebpf4jnsgd1na2vs0mg"},{"bike_id":"4b2eb8e5-ead5-446f-8973-0c60757f81b8","system_id":"levelo_inurba_marseille","lat":43.3078,"lon":5.37647,"is_reserved":false,"is_disabled":false,"rental_uris":{"android":"levelo://app?vid=4b2eb8e5-ead5-446f-8973-0c60757f81b8","ios":"levelo://app?vid=4b2eb8e5-ead5-446f-8973-0c60757f81b8"},"vehicle_type_id":"4","last_reported":1737122867,"current_range_meters":38400,"station_id":"ce4bgv92rcd13ifvqcq0","pricing_plan_id":"cebpf4jnsgd1na2vs0mg"},{"bike_id":"811a1ec0-366e-4fd8-8f3c-3e594a31f929","system_id":"levelo_inurba_marseille","lat":43.255726,"lon":5.382394,"is_reserved":false,"is_disabled":false,"rental_uris":{"android":"levelo://app?vid=811a1ec0-366e-4fd8-8f3c-3e594a31f929","ios":"levelo://app?vid=811a1ec0-366e-4fd8-8f3c-3e594a31f929"},"vehicle_type_id":"4","last_reported":1737122867,"current_range_meters":33600,"station_id":"ce4bhih2rcd13ifvqfs0","pricing_plan_id":"cebpf4jnsgd1na2vs0mg"},{"bike_id":"cb72cf41-6af3-4b45-a4e9-1c7a7f95efa1","system_id":"levelo_inurba_marseille","lat":43.31992,"lon":5.38151,"is_reserved":false,"is_disabled":false,"rental_uris":{"android":"levelo://app?vid=cb72cf41-6af3-4b45-a4e9-1c7a7f95efa1","ios":"levelo://app?vid=cb72cf41-6af3-4b45-a4e9-1c7a7f95efa1"},"vehicle_type_id":"4","last_reported":1737122867,"current_range_meters":24000,"station_id":"ce4bhr12rcd13ifvqhpg","pricing_plan_id":"cebpf4jnsgd1na2vs0mg"},{"bike_id":"891d5aa4-b1b0-4e0c-90ac-49e97bf9c382","system_id":"levelo_inurba_marseille","lat":43.23172,"lon":5.39998,"is_reserved":false,"is_disabled":false,"rental_uris":{"android":"levelo://app?vid=891d5aa4-b1b0-4e0c-90ac-49e97bf9c382","ios":"levelo://app?vid=891d5aa4-b1b0-4e0c-90ac-49e97bf9c382"},"vehicle_type_id":"4","last_reported":1737122867,"current_range_meters":33600,"station_id":"ce4bhn12rcd13ifvqgqg","pricing_plan_id":"cebpf4jnsgd1na2vs0mg"},{"bike_id":"0d25bd05-ec7b-4737-a5b8-8ac593c9d559","system_id":"levelo_inurba_marseille","lat":43.28424,"lon":5.34984,"is_reserved":false,"is_disabled":false,"rental_uris":{"android":"levelo://app?vid=0d25bd05-ec7b-4737-a5b8-8ac593c9d559","ios":"levelo://app?vid=0d25bd05-ec7b-4737-a5b8-8ac593c9d559"},"vehicle_type_id":"4","last_reported":1737122867,"current_range_meters":24400,"station_id":"ce4bhbh2rcd13ifvqepg","pricing_plan_id":"cebpf4jnsgd1na2vs0mg"},{"bike_id":"12262e51-19bb-4897-ab6c-02d967989cde","system_id":"levelo_inurba_marseille","lat":43.290193,"lon":5.381302,"is_reserved":false,"is_disabled":false,"rental_uris":{"android":"levelo://app?vid=12262e51-19bb-4897-ab6c-02d967989cde","ios":"levelo://app?vid=12262e51-19bb-4897-ab6c-02d967989cde"},"vehicle_type_id":"4","last_reported":1737122867,"current_range_meters":11600,"station_id":"ce4bh4p2rcd13ifvqe1g","pricing_plan_id":"cebpf4jnsgd1na2vs0mg"},{"bike_id":"357eaeda-fef2-41f2-9ad0-621ae2cc5c09","system_id":"levelo_inurba_marseille","lat":43.33768,"lon":5.37496,"is_reserved":false,"is_disabled":false,"rental_uris":{"android":"levelo://app?vid=357eaeda-fef2-41f2-9ad0-621ae2cc5c09","ios":"levelo://app?vid=357eaeda-fef2-41f2-9ad0-621ae2cc5c09"},"vehicle_type_id":"4","last_reported":1737122867,"current_range_meters":35600,"station_id":"","pricing_plan_id":"cebpf4jnsgd1na2vs0mg"},{"bike_id":"6d87274a-c28f-4ffd-a6b7-27865a460fe2","system_id":"levelo_inurba_marseille","lat":43.26066,"lon":5.39397,"is_reserved":false,"is_disabled":false,"rental_uris":{"android":"levelo://app?vid=6d87274a-c28f-4ffd-a6b7-27865a460fe2","ios":"levelo://app?vid=6d87274a-c28f-4ffd-a6b7-27865a460fe2"},"vehicle_type_id":"4","last_reported":1737122867,"current_range_meters":20400,"station_id":"ce4bhh92rcd13ifvqfj0","pricing_plan_id":"cebpf4jnsgd1na2vs0mg"},{"bike_id":"f552b2c7-4dbe-4232-bb40-ec99b9a72d80","system_id":"levelo_inurba_marseille","lat":43.231492,"lon":5.43722,"is_reserved":false,"is_disabled":false,"rental_uris":{"android":"levelo://app?vid=f552b2c7-4dbe-4232-bb40-ec99b9a72d80","ios":"levelo://app?vid=f552b2c7-4dbe-4232-bb40-ec99b9a72d80"},"vehicle_type_id":"4","last_reported":1737122867,"current_range_meters":16000,"station_id":"ce4bhmp2rcd13ifvqgog","pricing_plan_id":"cebpf4jnsgd1na2vs0mg"},{"bike_id":"bbd73dac-e0d6-4fae-ba50-910a0e4499d1","system_id":"levelo_inurba_marseille","lat":43.25503,"lon":5.3765,"is_reserved":false,"is_disabled":false,"rental_uris":{"android":"levelo://app?vid=bbd73dac-e0d6-4fae-ba50-910a0e4499d1","ios":"levelo://app?vid=bbd73dac-e0d6-4fae-ba50-910a0e4499d1"},"vehicle_type_id":"4","last_reported":1737122867,"current_range_meters":33200,"station_id":"ce4bhh12rcd13ifvqff0","pricing_plan_id":"cebpf4jnsgd1na2vs0mg"},{"bike_id":"92221645-888b-497e-8475-7fc2dbd86396","system_id":"levelo_inurba_marseille","lat":43.29523,"lon":5.37488,"is_reserved":false,"is_disabled":false,"rental_uris":{"android":"levelo://app?vid=92221645-888b-497e-8475-7fc2dbd86396","ios":"levelo://app?vid=92221645-888b-497e-8475-7fc2dbd86396"},"vehicle_type_id":"4","last_reported":1737122867,"current_range_meters":17200,"station_id":"ce4bgkp2rcd13ifvqbmg","pricing_plan_id":"cebpf4jnsgd1na2vs0mg"},{"bike_id":"4e756968-59ce-4290-8af5-7b0116ea948e","system_id":"levelo_inurba_marseille","lat":43.33735,"lon":5.39183,"is_reserved":false,"is_disabled":false,"rental_uris":{"android":"levelo://app?vid=4e756968-59ce-4290-8af5-7b0116ea948e","ios":"levelo://app?vid=4e756968-59ce-4290-8af5-7b0116ea948e"},"vehicle_type_id":"4","last_reported":1737122867,"current_range_meters":9200,"station_id":"ce4bhr92rcd13ifvqhsg","pricing_plan_id":"cebpf4jnsgd1na2vs0mg"},{"bike_id":"cb287ad1-35aa-4785-af76-45dc25c26d1a","system_id":"levelo_inurba_marseille","lat":43.27374,"lon":5.36253,"is_reserved":false,"is_disabled":false,"rental_uris":{"android":"levelo://app?vid=cb287ad1-35aa-4785-af76-45dc25c26d1a","ios":"levelo://app?vid=cb287ad1-35aa-4785-af76-45dc25c26d1a"},"vehicle_type_id":"4","last_reported":1737122867,"current_range_meters":16800,"station_id":"ce4bhbh2rcd13ifvqeo0","pricing_plan_id":"cebpf4jnsgd1na2vs0mg"},{"bike_id":"20e2b087-a9a4-4a7b-bc76-641083c81a6c","system_id":"levelo_inurba_marseille","lat":43.30548,"lon":5.36556,"is_reserved":false,"is_disabled":false,"rental_uris":{"android":"levelo://app?vid=20e2b087-a9a4-4a7b-bc76-641083c81a6c","ios":"levelo://app?vid=20e2b087-a9a4-4a7b-bc76-641083c81a6c"},"vehicle_type_id":"4","last_reported":1737122867,"current_range_meters":25600,"station_id":"ce4bgs12rcd13ifvqcag","pricing_plan_id":"cebpf4jnsgd1na2vs0mg"},{"bike_id":"a3481508-ce2e-4c76-9a11-8afdc3faeca9","system_id":"levelo_inurba_marseille","lat":43.3055,"lon":5.3653,"is_reserved":false,"is_disabled":false,"rental_uris":{"android":"levelo://app?vid=a3481508-ce2e-4c76-9a11-8afdc3faeca9","ios":"levelo://app?vid=a3481508-ce2e-4c76-9a11-8afdc3faeca9"},"vehicle_type_id":"4","last_reported":1737122867,"current_range_meters":38400,"station_id":"ce4bgs12rcd13ifvqcag","pricing_plan_id":"cebpf4jnsgd1na2vs0mg"},{"bike_id":"26e48df3-4d3e-455e-9e4a-7ef0e23d24b9","system_id":"levelo_inurba_marseille","lat":43.25738,"lon":5.41109,"is_reserved":false,"is_disabled":false,"rental_uris":{"android":"levelo://app?vid=26e48df3-4d3e-455e-9e4a-7ef0e23d24b9","ios":"levelo://app?vid=26e48df3-4d3e-455e-9e4a-7ef0e23d24b9"},"vehicle_type_id":"4","last_reported":1737122867,"current_range_meters":26800,"station_id":"ce4bhkp2rcd13ifvqgd0","pricing_plan_id":"cebpf4jnsgd1na2vs0mg"},{"bike_id":"323ec3cc-7d98-4a0e-8583-2f48824c100d","system_id":"levelo_inurba_marseille","lat":43.23977,"lon":5.36625,"is_reserved":false,"is_disabled":false,"rental_uris":{"android":"levelo://app?vid=323ec3cc-7d98-4a0e-8583-2f48824c100d","ios":"levelo://app?vid=323ec3cc-7d98-4a0e-8583-2f48824c100d"},"vehicle_type_id":"4","last_reported":1737122867,"current_range_meters":34800,"station_id":"ce4bhi12rcd13ifvqfp0","pricing_plan_id":"cebpf4jnsgd1na2vs0mg"},{"bike_id":"81d0396e-7b47-492a-8771-d5dd4d5f3926","system_id":"levelo_inurba_marseille","lat":43.30671,"lon":5.36845,"is_reserved":false,"is_disabled":false,"rental_uris":{"android":"levelo://app?vid=81d0396e-7b47-492a-8771-d5dd4d5f3926","ios":"levelo://app?vid=81d0396e-7b47-492a-8771-d5dd4d5f3926"},"vehicle_type_id":"4","last_reported":1737122867,"current_range_meters":36000,"station_id":"","pricing_plan_id":"cebpf4jnsgd1na2vs0mg"},{"bike_id":"9be957d2-26d1-49a4-9f85-b06ee3432064","system_id":"levelo_inurba_marseille","lat":43.33726,"lon":5.39198,"is_reserved":false,"is_disabled":false,"rental_uris":{"android":"levelo://app?vid=9be957d2-26d1-49a4-9f85-b06ee3432064","ios":"levelo://app?vid=9be957d2-26d1-49a4-9f85-b06ee3432064"},"vehicle_type_id":"4","last_reported":1737122867,"current_range_meters":30000,"station_id":"ce4bhr92rcd13ifvqhsg","pricing_plan_id":"cebpf4jnsgd1na2vs0mg"},{"bike_id":"a03ea1f0-afa8-4641-9452-4489aca93558","system_id":"levelo_inurba_marseille","lat":43.29526,"lon":5.39038,"is_reserved":false,"is_disabled":false,"rental_uris":{"android":"levelo://app?vid=a03ea1f0-afa8-4641-9452-4489aca93558","ios":"levelo://app?vid=a03ea1f0-afa8-4641-9452-4489aca93558"},"vehicle_type_id":"4","last_reported":1737122867,"current_range_meters":36800,"station_id":"ce4bh3p2rcd13ifvqdp0","pricing_plan_id":"cebpf4jnsgd1na2vs0mg"},{"bike_id":"d08df78c-e900-403e-9374-74d97c559460","system_id":"levelo_inurba_marseille","lat":43.26905,"lon":5.39379,"is_reserved":false,"is_disabled":false,"rental_uris":{"android":"levelo://app?vid=d08df78c-e900-403e-9374-74d97c559460","ios":"levelo://app?vid=d08df78c-e900-403e-9374-74d97c559460"},"vehicle_type_id":"4","last_reported":1737122867,"current_range_meters":22400,"station_id":"ce4bhh12rcd13ifvqfg0","pricing_plan_id":"cebpf4jnsgd1na2vs0mg"},{"bike_id":"2521f4ac-ca8d-4354-9a91-6bd7fb5b9ce3","system_id":"levelo_inurba_marseille","lat":43.3205,"lon":5.41579,"is_reserved":false,"is_disabled":false,"rental_uris":{"android":"levelo://app?vid=2521f4ac-ca8d-4354-9a91-6bd7fb5b9ce3","ios":"levelo://app?vid=2521f4ac-ca8d-4354-9a91-6bd7fb5b9ce3"},"vehicle_type_id":"4","last_reported":1737122867,"current_range_meters":39200,"station_id":"ce4bhq92rcd13ifvqhkg","pricing_plan_id":"cebpf4jnsgd1na2vs0mg"},{"bike_id":"22da12b5-fe9f-4a79-8db2-003abd1ef685","system_id":"levelo_inurba_marseille","lat":43.30327,"lon":5.40434,"is_reserved":false,"is_disabled":false,"rental_uris":{"android":"levelo://app?vid=22da12b5-fe9f-4a79-8db2-003abd1ef685","ios":"levelo://app?vid=22da12b5-fe9f-4a79-8db2-003abd1ef685"},"vehicle_type_id":"4","last_reported":1737122867,"current_range_meters":6000,"station_id":"ce4bh012rcd13ifvqd10","pricing_plan_id":"cebpf4jnsgd1na2vs0mg"},{"bike_id":"4f2b33bf-5340-41d8-832a-14d80612ba43","system_id":"levelo_inurba_marseille","lat":43.25098,"lon":5.39514,"is_reserved":false,"is_disabled":false,"rental_uris":{"android":"levelo://app?vid=4f2b33bf-5340-41d8-832a-14d80612ba43","ios":"levelo://app?vid=4f2b33bf-5340-41d8-832a-14d80612ba43"},"vehicle_type_id":"4","last_reported":1737122867,"current_range_meters":38800,"station_id":"ce4bhm12rcd13ifvqgkg","pricing_plan_id":"cebpf4jnsgd1na2vs0mg"},{"bike_id":"4eb2eea8-9687-420d-90a2-7dd4c1d192f1","system_id":"levelo_inurba_marseille","lat":43.26557,"lon":5.37284,"is_reserved":false,"is_disabled":false,"rental_uris":{"android":"levelo://app?vid=4eb2eea8-9687-420d-90a2-7dd4c1d192f1","ios":"levelo://app?vid=4eb2eea8-9687-420d-90a2-7dd4c1d192f1"},"vehicle_type_id":"4","last_reported":1737122867,"current_range_meters":35200,"station_id":"ce4bhg12rcd13ifvqf70","pricing_plan_id":"cebpf4jnsgd1na2vs0mg"},{"bike_id":"6d724ce0-6e3f-42fc-86b9-77bf5241a86c","system_id":"levelo_inurba_marseille","lat":43.30261,"lon":5.40087,"is_reserved":false,"is_disabled":false,"rental_uris":{"android":"levelo://app?vid=6d724ce0-6e3f-42fc-86b9-77bf5241a86c","ios":"levelo://app?vid=6d724ce0-6e3f-42fc-86b9-77bf5241a86c"},"vehicle_type_id":"4","last_reported":1737122867,"current_range_meters":33200,"station_id":"ce4bgvh2rcd13ifvqcs0","pricing_plan_id":"cebpf4jnsgd1na2vs0mg"},{"bike_id":"699a3aeb-de28-48bd-bcee-9123c3e44da2","system_id":"levelo_inurba_marseille","lat":43.27373,"lon":5.36231,"is_reserved":false,"is_disabled":false,"rental_uris":{"android":"levelo://app?vid=699a3aeb-de28-48bd-bcee-9123c3e44da2","ios":"levelo://app?vid=699a3aeb-de28-48bd-bcee-9123c3e44da2"},"vehicle_type_id":"4","last_reported":1737122867,"current_range_meters":30000,"station_id":"ce4bhbh2rcd13ifvqeo0","pricing_plan_id":"cebpf4jnsgd1na2vs0mg"},{"bike_id":"bfe5acfd-6e20-4606-a3c6-ca93efe21dc9","system_id":"levelo_inurba_marseille","lat":43.29844,"lon":5.36277,"is_reserved":false,"is_disabled":false,"rental_uris":{"android":"levelo://app?vid=bfe5acfd-6e20-4606-a3c6-ca93efe21dc9","ios":"levelo://app?vid=bfe5acfd-6e20-4606-a3c6-ca93efe21dc9"},"vehicle_type_id":"4","last_reported":1737122867,"current_range_meters":8000,"station_id":"ce4bgpp2rcd13ifvqc3g","pricing_plan_id":"cebpf4jnsgd1na2vs0mg"},{"bike_id":"42227cac-a5f1-4003-ba00-df5db2a9ab35","system_id":"levelo_inurba_marseille","lat":43.28419,"lon":5.37519,"is_reserved":false,"is_disabled":false,"rental_uris":{"android":"levelo://app?vid=42227cac-a5f1-4003-ba00-df5db2a9ab35","ios":"levelo://app?vid=42227cac-a5f1-4003-ba00-df5db2a9ab35"},"vehicle_type_id":"4","last_reported":1737122867,"current_range_meters":38000,"station_id":"ce4bh412rcd13ifvqds0","pricing_plan_id":"cebpf4jnsgd1na2vs0mg"},{"bike_id":"4a2f4177-e9ec-4a6d-80af-a91a3374033d","system_id":"levelo_inurba_marseille","lat":43.30148,"lon":5.38087,"is_reserved":false,"is_disabled":false,"rental_uris":{"android":"levelo://app?vid=4a2f4177-e9ec-4a6d-80af-a91a3374033d","ios":"levelo://app?vid=4a2f4177-e9ec-4a6d-80af-a91a3374033d"},"vehicle_type_id":"4","last_reported":1737122867,"current_range_meters":9200,"station_id":"ce4bgjp2rcd13ifvqbh0","pricing_plan_id":"cebpf4jnsgd1na2vs0mg"},{"bike_id":"f6bd4932-3d06-4765-824c-fe140bec98a9","system_id":"levelo_inurba_marseille","lat":43.29544,"lon":5.37518,"is_reserved":false,"is_disabled":false,"rental_uris":{"android":"levelo://app?vid=f6bd4932-3d06-4765-824c-fe140bec98a9","ios":"levelo://app?vid=f6bd4932-3d06-4765-824c-fe140bec98a9"},"vehicle_type_id":"4","last_reported":1737122867,"current_range_meters":30000,"station_id":"ce4bgkp2rcd13ifvqbmg","pricing_plan_id":"cebpf4jnsgd1na2vs0mg"},{"bike_id":"ceaa1458-83a9-43c8-aed6-e72ea07fb43a","system_id":"levelo_inurba_marseille","lat":43.315527,"lon":5.38928,"is_reserved":false,"is_disabled":false,"rental_uris":{"android":"levelo://app?vid=ceaa1458-83a9-43c8-aed6-e72ea07fb43a","ios":"levelo://app?vid=ceaa1458-83a9-43c8-aed6-e72ea07fb43a"},"vehicle_type_id":"4","last_reported":1737122867,"current_range_meters":9600,"station_id":"","pricing_plan_id":"cebpf4jnsgd1na2vs0mg"},{"bike_id":"8850e6e9-607c-4707-a35e-396796b7213c","system_id":"levelo_inurba_marseille","lat":43.2557,"lon":5.38246,"is_reserved":false,"is_disabled":true,"rental_uris":{"android":"levelo://app?vid=8850e6e9-607c-4707-a35e-396796b7213c","ios":"levelo://app?vid=8850e6e9-607c-4707-a35e-396796b7213c"},"vehicle_type_id":"4","last_reported":1737122867,"current_range_meters":0,"station_id":"ce4bhih2rcd13ifvqfs0","pricing_plan_id":"cebpf4jnsgd1na2vs0mg"},{"bike_id":"72ee35ea-34ee-4b89-a819-27a2e564f7ec","system_id":"levelo_inurba_marseille","lat":43.25834,"lon":5.39429,"is_reserved":false,"is_disabled":false,"rental_uris":{"android":"levelo://app?vid=72ee35ea-34ee-4b89-a819-27a2e564f7ec","ios":"levelo://app?vid=72ee35ea-34ee-4b89-a819-27a2e564f7ec"},"vehicle_type_id":"4","last_reported":1737122867,"current_range_meters":17200,"station_id":"ce4bhip2rcd13ifvqft0","pricing_plan_id":"cebpf4jnsgd1na2vs0mg"},{"bike_id":"83fce08c-af1c-4c28-9926-5facc31d37af","system_id":"levelo_inurba_marseille","lat":43.293734,"lon":5.378522,"is_reserved":false,"is_disabled":false,"rental_uris":{"android":"levelo://app?vid=83fce08c-af1c-4c28-9926-5facc31d37af","ios":"levelo://app?vid=83fce08c-af1c-4c28-9926-5facc31d37af"},"vehicle_type_id":"4","last_reported":1737122867,"current_range_meters":24800,"station_id":"ce4bgjh2rcd13ifvqbf0","pricing_plan_id":"cebpf4jnsgd1na2vs0mg"},{"bike_id":"da2f3891-9358-40dd-9f37-f25e379c2014","system_id":"levelo_inurba_marseille","lat":43.29272,"lon":5.38447,"is_reserved":false,"is_disabled":false,"rental_uris":{"android":"levelo://app?vid=da2f3891-9358-40dd-9f37-f25e379c2014","ios":"levelo://app?vid=da2f3891-9358-40dd-9f37-f25e379c2014"},"vehicle_type_id":"4","last_reported":1737122867,"current_range_meters":25600,"station_id":"ce4bh692rcd13ifvqea0","pricing_plan_id":"cebpf4jnsgd1na2vs0mg"},{"bike_id":"b2269802-94da-4df1-a94f-c0120e22dfba","system_id":"levelo_inurba_marseille","lat":43.23059,"lon":5.35496,"is_reserved":false,"is_disabled":false,"rental_uris":{"android":"levelo://app?vid=b2269802-94da-4df1-a94f-c0120e22dfba","ios":"levelo://app?vid=b2269802-94da-4df1-a94f-c0120e22dfba"},"vehicle_type_id":"4","last_reported":1737122867,"current_range_meters":20000,"station_id":"cpo3342slgdg3j2ifvpg","pricing_plan_id":"cebpf4jnsgd1na2vs0mg"},{"bike_id":"f2550af3-25a7-4872-a652-0f167a56785d","system_id":"levelo_inurba_marseille","lat":43.27913,"lon":5.38005,"is_reserved":false,"is_disabled":false,"rental_uris":{"android":"levelo://app?vid=f2550af3-25a7-4872-a652-0f167a56785d","ios":"levelo://app?vid=f2550af3-25a7-4872-a652-0f167a56785d"},"vehicle_type_id":"4","last_reported":1737122867,"current_range_meters":20400,"station_id":"ce4bhf92rcd13ifvqf50","pricing_plan_id":"cebpf4jnsgd1na2vs0mg"},{"bike_id":"f4a4a406-b0a5-42fc-9236-32e93ac6f6b2","system_id":"levelo_inurba_marseille","lat":43.23154,"lon":5.43706,"is_reserved":false,"is_disabled":true,"rental_uris":{"android":"levelo://app?vid=f4a4a406-b0a5-42fc-9236-32e93ac6f6b2","ios":"levelo://app?vid=f4a4a406-b0a5-42fc-9236-32e93ac6f6b2"},"vehicle_type_id":"4","last_reported":1737122867,"current_range_meters":33600,"station_id":"ce4bhmp2rcd13ifvqgog","pricing_plan_id":"cebpf4jnsgd1na2vs0mg"},{"bike_id":"6e0427fc-0033-4ea2-a984-e9bce01de5bf","system_id":"levelo_inurba_marseille","lat":43.30553,"lon":5.36699,"is_reserved":false,"is_disabled":false,"rental_uris":{"android":"levelo://app?vid=6e0427fc-0033-4ea2-a984-e9bce01de5bf","ios":"levelo://app?vid=6e0427fc-0033-4ea2-a984-e9bce01de5bf"},"vehicle_type_id":"4","last_reported":1737122867,"current_range_meters":16800,"station_id":"ce4bgrp2rcd13ifvqc9g","pricing_plan_id":"cebpf4jnsgd1na2vs0mg"},{"bike_id":"10d4a44b-4ac4-4905-b7ec-86d014e96ec1","system_id":"levelo_inurba_marseille","lat":43.32454,"lon":5.36578,"is_reserved":false,"is_disabled":false,"rental_uris":{"android":"levelo://app?vid=10d4a44b-4ac4-4905-b7ec-86d014e96ec1","ios":"levelo://app?vid=10d4a44b-4ac4-4905-b7ec-86d014e96ec1"},"vehicle_type_id":"4","last_reported":1737122867,"current_range_meters":30000,"station_id":"ce4bhs12rcd13ifvqhvg","pricing_plan_id":"cebpf4jnsgd1na2vs0mg"},{"bike_id":"486b82a3-4b5c-4f03-8752-0eea3399df80","system_id":"levelo_inurba_marseille","lat":43.30119,"lon":5.37424,"is_reserved":false,"is_disabled":false,"rental_uris":{"android":"levelo://app?vid=486b82a3-4b5c-4f03-8752-0eea3399df80","ios":"levelo://app?vid=486b82a3-4b5c-4f03-8752-0eea3399df80"},"vehicle_type_id":"4","last_reported":1737122867,"current_range_meters":20800,"station_id":"ce4bgs92rcd13ifvqcc0","pricing_plan_id":"cebpf4jnsgd1na2vs0mg"},{"bike_id":"df8b1c3a-18fe-49e2-9d2b-35bf1157f06d","system_id":"levelo_inurba_marseille","lat":43.31535,"lon":5.3805,"is_reserved":false,"is_disabled":true,"rental_uris":{"android":"levelo://app?vid=df8b1c3a-18fe-49e2-9d2b-35bf1157f06d","ios":"levelo://app?vid=df8b1c3a-18fe-49e2-9d2b-35bf1157f06d"},"vehicle_type_id":"4","last_reported":1737122867,"current_range_meters":38800,"station_id":"ce4bhsp2rcd13ifvqi50","pricing_plan_id":"cebpf4jnsgd1na2vs0mg"},{"bike_id":"678e6c21-ae33-4211-9534-682ad57c39c7","system_id":"levelo_inurba_marseille","lat":43.231839,"lon":5.400019,"is_reserved":false,"is_disabled":false,"rental_uris":{"android":"levelo://app?vid=678e6c21-ae33-4211-9534-682ad57c39c7","ios":"levelo://app?vid=678e6c21-ae33-4211-9534-682ad57c39c7"},"vehicle_type_id":"4","last_reported":1737122867,"current_range_meters":14400,"station_id":"ce4bhn12rcd13ifvqgqg","pricing_plan_id":"cebpf4jnsgd1na2vs0mg"},{"bike_id":"67c549d5-ce81-408a-a146-d43915340e7f","system_id":"levelo_inurba_marseille","lat":43.337323,"lon":5.391902,"is_reserved":false,"is_disabled":false,"rental_uris":{"android":"levelo://app?vid=67c549d5-ce81-408a-a146-d43915340e7f","ios":"levelo://app?vid=67c549d5-ce81-408a-a146-d43915340e7f"},"vehicle_type_id":"4","last_reported":1737122867,"current_range_meters":38800,"station_id":"ce4bhr92rcd13ifvqhsg","pricing_plan_id":"cebpf4jnsgd1na2vs0mg"},{"bike_id":"fa546e5c-a68a-4a86-a5bb-1d856af38d7e","system_id":"levelo_inurba_marseille","lat":43.23578,"lon":5.43608,"is_reserved":false,"is_disabled":true,"rental_uris":{"android":"levelo://app?vid=fa546e5c-a68a-4a86-a5bb-1d856af38d7e","ios":"levelo://app?vid=fa546e5c-a68a-4a86-a5bb-1d856af38d7e"},"vehicle_type_id":"4","last_reported":1737122867,"current_range_meters":0,"station_id":"","pricing_plan_id":"cebpf4jnsgd1na2vs0mg"},{"bike_id":"0d56ef11-76e1-49ed-a46f-fb0106e51969","system_id":"levelo_inurba_marseille","lat":43.28341,"lon":5.38101,"is_reserved":false,"is_disabled":false,"rental_uris":{"android":"levelo://app?vid=0d56ef11-76e1-49ed-a46f-fb0106e51969","ios":"levelo://app?vid=0d56ef11-76e1-49ed-a46f-fb0106e51969"},"vehicle_type_id":"4","last_reported":1737122867,"current_range_meters":38800,"station_id":"ce4bh412rcd13ifvqdr0","pricing_plan_id":"cebpf4jnsgd1na2vs0mg"},{"bike_id":"f1423197-d73b-4f5c-a1c6-8c8f148cfd30","system_id":"levelo_inurba_marseille","lat":43.31754,"lon":5.39012,"is_reserved":false,"is_disabled":false,"rental_uris":{"android":"levelo://app?vid=f1423197-d73b-4f5c-a1c6-8c8f148cfd30","ios":"levelo://app?vid=f1423197-d73b-4f5c-a1c6-8c8f148cfd30"},"vehicle_type_id":"4","last_reported":1737122867,"current_range_meters":26800,"station_id":"ce4bhqp2rcd13ifvqhng","pricing_plan_id":"cebpf4jnsgd1na2vs0mg"},{"bike_id":"6a575a28-9122-463d-903d-579803bf0e58","system_id":"levelo_inurba_marseille","lat":43.30199,"lon":5.38059,"is_reserved":false,"is_disabled":false,"rental_uris":{"android":"levelo://app?vid=6a575a28-9122-463d-903d-579803bf0e58","ios":"levelo://app?vid=6a575a28-9122-463d-903d-579803bf0e58"},"vehicle_type_id":"4","last_reported":1737122867,"current_range_meters":38800,"station_id":"","pricing_plan_id":"cebpf4jnsgd1na2vs0mg"},{"bike_id":"9d9efa2a-d8eb-4872-bc10-0b4e2441037f","system_id":"levelo_inurba_marseille","lat":43.298,"lon":5.38079,"is_reserved":false,"is_disabled":false,"rental_uris":{"android":"levelo://app?vid=9d9efa2a-d8eb-4872-bc10-0b4e2441037f","ios":"levelo://app?vid=9d9efa2a-d8eb-4872-bc10-0b4e2441037f"},"vehicle_type_id":"4","last_reported":1737122867,"current_range_meters":30400,"station_id":"ce4bgip2rcd13ifvqbb0","pricing_plan_id":"cebpf4jnsgd1na2vs0mg"},{"bike_id":"34709e64-d1c8-4538-88a5-33805792c0a5","system_id":"levelo_inurba_marseille","lat":43.25827,"lon":5.39411,"is_reserved":false,"is_disabled":false,"rental_uris":{"android":"levelo://app?vid=34709e64-d1c8-4538-88a5-33805792c0a5","ios":"levelo://app?vid=34709e64-d1c8-4538-88a5-33805792c0a5"},"vehicle_type_id":"4","last_reported":1737122867,"current_range_meters":38000,"station_id":"ce4bhip2rcd13ifvqft0","pricing_plan_id":"cebpf4jnsgd1na2vs0mg"},{"bike_id":"d4c5158e-511e-4c0e-af6f-6a3bbf5cc0e5","system_id":"levelo_inurba_marseille","lat":43.27085,"lon":5.42275,"is_reserved":false,"is_disabled":true,"rental_uris":{"android":"levelo://app?vid=d4c5158e-511e-4c0e-af6f-6a3bbf5cc0e5","ios":"levelo://app?vid=d4c5158e-511e-4c0e-af6f-6a3bbf5cc0e5"},"vehicle_type_id":"4","last_reported":1737122867,"current_range_meters":0,"station_id":"ce4bhk92rcd13ifvqgb0","pricing_plan_id":"cebpf4jnsgd1na2vs0mg"},{"bike_id":"8067e2c8-91e1-4b01-955b-cb47a104e7dc","system_id":"levelo_inurba_marseille","lat":43.24166,"lon":5.3974,"is_reserved":false,"is_disabled":false,"rental_uris":{"android":"levelo://app?vid=8067e2c8-91e1-4b01-955b-cb47a104e7dc","ios":"levelo://app?vid=8067e2c8-91e1-4b01-955b-cb47a104e7dc"},"vehicle_type_id":"4","last_reported":1737122867,"current_range_meters":27200,"station_id":"ce4bhn12rcd13ifvqgpg","pricing_plan_id":"cebpf4jnsgd1na2vs0mg"},{"bike_id":"dc68581e-d5b7-470f-8c8f-fc4109c8c993","system_id":"levelo_inurba_marseille","lat":43.2826,"lon":5.35061,"is_reserved":false,"is_disabled":false,"rental_uris":{"android":"levelo://app?vid=dc68581e-d5b7-470f-8c8f-fc4109c8c993","ios":"levelo://app?vid=dc68581e-d5b7-470f-8c8f-fc4109c8c993"},"vehicle_type_id":"4","last_reported":1737122867,"current_range_meters":27600,"station_id":"ce4bhbp2rcd13ifvqerg","pricing_plan_id":"cebpf4jnsgd1na2vs0mg"},{"bike_id":"eb4495ff-79d8-4217-8f5e-4f95b3390e60","system_id":"levelo_inurba_marseille","lat":43.28078,"lon":5.39657,"is_reserved":false,"is_disabled":false,"rental_uris":{"android":"levelo://app?vid=eb4495ff-79d8-4217-8f5e-4f95b3390e60","ios":"levelo://app?vid=eb4495ff-79d8-4217-8f5e-4f95b3390e60"},"vehicle_type_id":"4","last_reported":1737122867,"current_range_meters":38800,"station_id":"ce4bho12rcd13ifvqh2g","pricing_plan_id":"cebpf4jnsgd1na2vs0mg"},{"bike_id":"b1744c0e-e60f-4697-be56-d43c2caa6d8e","system_id":"levelo_inurba_marseille","lat":43.30223,"lon":5.39475,"is_reserved":false,"is_disabled":false,"rental_uris":{"android":"levelo://app?vid=b1744c0e-e60f-4697-be56-d43c2caa6d8e","ios":"levelo://app?vid=b1744c0e-e60f-4697-be56-d43c2caa6d8e"},"vehicle_type_id":"4","last_reported":1737122867,"current_range_meters":22000,"station_id":"ce4bh0p2rcd13ifvqd70","pricing_plan_id":"cebpf4jnsgd1na2vs0mg"},{"bike_id":"575187ad-6d10-426e-85b8-4268426275d2","system_id":"levelo_inurba_marseille","lat":43.28002,"lon":5.41672,"is_reserved":false,"is_disabled":false,"rental_uris":{"android":"levelo://app?vid=575187ad-6d10-426e-85b8-4268426275d2","ios":"levelo://app?vid=575187ad-6d10-426e-85b8-4268426275d2"},"vehicle_type_id":"4","last_reported":1737122867,"current_range_meters":28800,"station_id":"ce4bho12rcd13ifvqh1g","pricing_plan_id":"cebpf4jnsgd1na2vs0mg"},{"bike_id":"56b8e9bc-f750-4815-bc98-9098414d16db","system_id":"levelo_inurba_marseille","lat":43.231932,"lon":5.355594,"is_reserved":false,"is_disabled":true,"rental_uris":{"android":"levelo://app?vid=56b8e9bc-f750-4815-bc98-9098414d16db","ios":"levelo://app?vid=56b8e9bc-f750-4815-bc98-9098414d16db"},"vehicle_type_id":"4","last_reported":1737122867,"current_range_meters":0,"station_id":"ce4bhu92rcd13ifvqi70","pricing_plan_id":"cebpf4jnsgd1na2vs0mg"},{"bike_id":"81509f30-136b-4787-8e03-1663f8544db9","system_id":"levelo_inurba_marseille","lat":43.29169,"lon":5.37166,"is_reserved":false,"is_disabled":false,"rental_uris":{"android":"levelo://app?vid=81509f30-136b-4787-8e03-1663f8544db9","ios":"levelo://app?vid=81509f30-136b-4787-8e03-1663f8544db9"},"vehicle_type_id":"4","last_reported":1737122867,"current_range_meters":3200,"station_id":"ce4bha92rcd13ifvqeh0","pricing_plan_id":"cebpf4jnsgd1na2vs0mg"},{"bike_id":"ecaa0c77-1eec-4faa-8f1a-38089f04868c","system_id":"levelo_inurba_marseille","lat":43.28761,"lon":5.37975,"is_reserved":false,"is_disabled":false,"rental_uris":{"android":"levelo://app?vid=ecaa0c77-1eec-4faa-8f1a-38089f04868c","ios":"levelo://app?vid=ecaa0c77-1eec-4faa-8f1a-38089f04868c"},"vehicle_type_id":"4","last_reported":1737122867,"current_range_meters":33200,"station_id":"ce4bh9p2rcd13ifvqec0","pricing_plan_id":"cebpf4jnsgd1na2vs0mg"},{"bike_id":"fe61bab4-2147-46ac-96bc-5b15a0832ed3","system_id":"levelo_inurba_marseille","lat":43.23155,"lon":5.43708,"is_reserved":false,"is_disabled":true,"rental_uris":{"android":"levelo://app?vid=fe61bab4-2147-46ac-96bc-5b15a0832ed3","ios":"levelo://app?vid=fe61bab4-2147-46ac-96bc-5b15a0832ed3"},"vehicle_type_id":"4","last_reported":1737122867,"current_range_meters":0,"station_id":"ce4bhmp2rcd13ifvqgog","pricing_plan_id":"cebpf4jnsgd1na2vs0mg"},{"bike_id":"80d8eccd-3afc-44d9-a476-939f5718f843","system_id":"levelo_inurba_marseille","lat":43.29597,"lon":5.37525,"is_reserved":false,"is_disabled":false,"rental_uris":{"android":"levelo://app?vid=80d8eccd-3afc-44d9-a476-939f5718f843","ios":"levelo://app?vid=80d8eccd-3afc-44d9-a476-939f5718f843"},"vehicle_type_id":"4","last_reported":1737122867,"current_range_meters":38800,"station_id":"ce4bgh92rcd13ifvqb50","pricing_plan_id":"cebpf4jnsgd1na2vs0mg"},{"bike_id":"b0fbb4ee-7888-4a34-9927-4039dced7082","system_id":"levelo_inurba_marseille","lat":43.25869,"lon":5.39893,"is_reserved":false,"is_disabled":false,"rental_uris":{"android":"levelo://app?vid=b0fbb4ee-7888-4a34-9927-4039dced7082","ios":"levelo://app?vid=b0fbb4ee-7888-4a34-9927-4039dced7082"},"vehicle_type_id":"4","last_reported":1737122867,"current_range_meters":3600,"station_id":"ce4bhl92rcd13ifvqghg","pricing_plan_id":"cebpf4jnsgd1na2vs0mg"},{"bike_id":"1b0abdf0-ebc9-477b-9a5c-20d604bc88e3","system_id":"levelo_inurba_marseille","lat":43.25082,"lon":5.39518,"is_reserved":false,"is_disabled":false,"rental_uris":{"android":"levelo://app?vid=1b0abdf0-ebc9-477b-9a5c-20d604bc88e3","ios":"levelo://app?vid=1b0abdf0-ebc9-477b-9a5c-20d604bc88e3"},"vehicle_type_id":"4","last_reported":1737122867,"current_range_meters":38000,"station_id":"ce4bhm12rcd13ifvqgkg","pricing_plan_id":"cebpf4jnsgd1na2vs0mg"},{"bike_id":"c6f38074-674d-4c8a-bcd6-990c4605dab8","system_id":"levelo_inurba_marseille","lat":43.30889,"lon":5.37189,"is_reserved":false,"is_disabled":false,"rental_uris":{"android":"levelo://app?vid=c6f38074-674d-4c8a-bcd6-990c4605dab8","ios":"levelo://app?vid=c6f38074-674d-4c8a-bcd6-990c4605dab8"},"vehicle_type_id":"4","last_reported":1737122867,"current_range_meters":2800,"station_id":"ce4bguh2rcd13ifvqckg","pricing_plan_id":"cebpf4jnsgd1na2vs0mg"},{"bike_id":"531f7f78-7239-4c86-91d3-2301e9d074d0","system_id":"levelo_inurba_marseille","lat":43.30143,"lon":5.37421,"is_reserved":false,"is_disabled":false,"rental_uris":{"android":"levelo://app?vid=531f7f78-7239-4c86-91d3-2301e9d074d0","ios":"levelo://app?vid=531f7f78-7239-4c86-91d3-2301e9d074d0"},"vehicle_type_id":"4","last_reported":1737122867,"current_range_meters":29600,"station_id":"ce4bgs92rcd13ifvqcc0","pricing_plan_id":"cebpf4jnsgd1na2vs0mg"},{"bike_id":"22465212-93af-4e0b-b803-6ee82bba56d5","system_id":"levelo_inurba_marseille","lat":43.33775,"lon":5.3748,"is_reserved":false,"is_disabled":false,"rental_uris":{"android":"levelo://app?vid=22465212-93af-4e0b-b803-6ee82bba56d5","ios":"levelo://app?vid=22465212-93af-4e0b-b803-6ee82bba56d5"},"vehicle_type_id":"4","last_reported":1737122867,"current_range_meters":30800,"station_id":"","pricing_plan_id":"cebpf4jnsgd1na2vs0mg"},{"bike_id":"57d28b69-a629-4d00-8952-ad3637220644","system_id":"levelo_inurba_marseille","lat":43.29664,"lon":5.37154,"is_reserved":false,"is_disabled":true,"rental_uris":{"android":"levelo://app?vid=57d28b69-a629-4d00-8952-ad3637220644","ios":"levelo://app?vid=57d28b69-a629-4d00-8952-ad3637220644"},"vehicle_type_id":"4","last_reported":1737122867,"current_range_meters":0,"station_id":"","pricing_plan_id":"cebpf4jnsgd1na2vs0mg"},{"bike_id":"979d7a5c-00ce-4dcf-a15c-0fc9c9e35c10","system_id":"levelo_inurba_marseille","lat":43.33785,"lon":5.37445,"is_reserved":false,"is_disabled":false,"rental_uris":{"android":"levelo://app?vid=979d7a5c-00ce-4dcf-a15c-0fc9c9e35c10","ios":"levelo://app?vid=979d7a5c-00ce-4dcf-a15c-0fc9c9e35c10"},"vehicle_type_id":"4","last_reported":1737122867,"current_range_meters":29600,"station_id":"","pricing_plan_id":"cebpf4jnsgd1na2vs0mg"},{"bike_id":"730df4ba-4772-4a0e-9e4a-bb6bde6caaeb","system_id":"levelo_inurba_marseille","lat":43.30135,"lon":5.39868,"is_reserved":false,"is_disabled":true,"rental_uris":{"android":"levelo://app?vid=730df4ba-4772-4a0e-9e4a-bb6bde6caaeb","ios":"levelo://app?vid=730df4ba-4772-4a0e-9e4a-bb6bde6caaeb"},"vehicle_type_id":"4","last_reported":1737122867,"current_range_meters":33600,"station_id":"ce4bh0h2rcd13ifvqd40","pricing_plan_id":"cebpf4jnsgd1na2vs0mg"},{"bike_id":"41ca7c15-f2e6-440c-acda-28638999a7da","system_id":"levelo_inurba_marseille","lat":43.26933,"lon":5.38906,"is_reserved":false,"is_disabled":false,"rental_uris":{"android":"levelo://app?vid=41ca7c15-f2e6-440c-acda-28638999a7da","ios":"levelo://app?vid=41ca7c15-f2e6-440c-acda-28638999a7da"},"vehicle_type_id":"4","last_reported":1737122867,"current_range_meters":19200,"station_id":"ce4bhhh2rcd13ifvqfl0","pricing_plan_id":"cebpf4jnsgd1na2vs0mg"},{"bike_id":"2360f123-f4b2-4852-87a6-e3ab23697278","system_id":"levelo_inurba_marseille","lat":43.31756,"lon":5.39018,"is_reserved":false,"is_disabled":false,"rental_uris":{"android":"levelo://app?vid=2360f123-f4b2-4852-87a6-e3ab23697278","ios":"levelo://app?vid=2360f123-f4b2-4852-87a6-e3ab23697278"},"vehicle_type_id":"4","last_reported":1737122867,"current_range_meters":38800,"station_id":"ce4bhqp2rcd13ifvqhng","pricing_plan_id":"cebpf4jnsgd1na2vs0mg"},{"bike_id":"2852113b-49ee-4cbf-9a16-ea68797906c2","system_id":"levelo_inurba_marseille","lat":43.33748,"lon":5.37451,"is_reserved":false,"is_disabled":false,"rental_uris":{"android":"levelo://app?vid=2852113b-49ee-4cbf-9a16-ea68797906c2","ios":"levelo://app?vid=2852113b-49ee-4cbf-9a16-ea68797906c2"},"vehicle_type_id":"4","last_reported":1737122867,"current_range_meters":37600,"station_id":"","pricing_plan_id":"cebpf4jnsgd1na2vs0mg"},{"bike_id":"5b5b551e-72a9-4b6c-9014-34480e4754e9","system_id":"levelo_inurba_marseille","lat":43.23152,"lon":5.43717,"is_reserved":false,"is_disabled":false,"rental_uris":{"android":"levelo://app?vid=5b5b551e-72a9-4b6c-9014-34480e4754e9","ios":"levelo://app?vid=5b5b551e-72a9-4b6c-9014-34480e4754e9"},"vehicle_type_id":"4","last_reported":1737122867,"current_range_meters":8400,"station_id":"ce4bhmp2rcd13ifvqgog","pricing_plan_id":"cebpf4jnsgd1na2vs0mg"},{"bike_id":"4e8526ea-f0f3-48b8-96ec-b7a89881f84a","system_id":"levelo_inurba_marseille","lat":43.29223,"lon":5.36055,"is_reserved":false,"is_disabled":false,"rental_uris":{"android":"levelo://app?vid=4e8526ea-f0f3-48b8-96ec-b7a89881f84a","ios":"levelo://app?vid=4e8526ea-f0f3-48b8-96ec-b7a89881f84a"},"vehicle_type_id":"4","last_reported":1737122867,"current_range_meters":25600,"station_id":"ce4bhbh2rcd13ifvqeqg","pricing_plan_id":"cebpf4jnsgd1na2vs0mg"},{"bike_id":"65b3532e-cf35-4574-bbb0-b080795fe8fc","system_id":"levelo_inurba_marseille","lat":43.25119,"lon":5.40317,"is_reserved":false,"is_disabled":false,"rental_uris":{"android":"levelo://app?vid=65b3532e-cf35-4574-bbb0-b080795fe8fc","ios":"levelo://app?vid=65b3532e-cf35-4574-bbb0-b080795fe8fc"},"vehicle_type_id":"4","last_reported":1737122867,"current_range_meters":34000,"station_id":"ce4bhlh2rcd13ifvqgig","pricing_plan_id":"cebpf4jnsgd1na2vs0mg"},{"bike_id":"cefc250c-1baa-4a78-8fed-eb20c7fbb95c","system_id":"levelo_inurba_marseille","lat":43.23189,"lon":5.35567,"is_reserved":false,"is_disabled":true,"rental_uris":{"android":"levelo://app?vid=cefc250c-1baa-4a78-8fed-eb20c7fbb95c","ios":"levelo://app?vid=cefc250c-1baa-4a78-8fed-eb20c7fbb95c"},"vehicle_type_id":"4","last_reported":1737122867,"current_range_meters":0,"station_id":"ce4bhu92rcd13ifvqi70","pricing_plan_id":"cebpf4jnsgd1na2vs0mg"},{"bike_id":"6a7366d7-ed8c-4629-bf0c-70c2abcda36d","system_id":"levelo_inurba_marseille","lat":43.2319,"lon":5.35555,"is_reserved":false,"is_disabled":false,"rental_uris":{"android":"levelo://app?vid=6a7366d7-ed8c-4629-bf0c-70c2abcda36d","ios":"levelo://app?vid=6a7366d7-ed8c-4629-bf0c-70c2abcda36d"},"vehicle_type_id":"4","last_reported":1737122867,"current_range_meters":8000,"station_id":"ce4bhu92rcd13ifvqi70","pricing_plan_id":"cebpf4jnsgd1na2vs0mg"},{"bike_id":"9c715e44-709a-40f7-85d2-858a61405d8a","system_id":"levelo_inurba_marseille","lat":43.31341,"lon":5.36698,"is_reserved":false,"is_disabled":false,"rental_uris":{"android":"levelo://app?vid=9c715e44-709a-40f7-85d2-858a61405d8a","ios":"levelo://app?vid=9c715e44-709a-40f7-85d2-858a61405d8a"},"vehicle_type_id":"4","last_reported":1737122867,"current_range_meters":16800,"station_id":"ce4bgr92rcd13ifvqc6g","pricing_plan_id":"cebpf4jnsgd1na2vs0mg"},{"bike_id":"2d7f3353-743b-41e1-85f2-e32181d4ae48","system_id":"levelo_inurba_marseille","lat":43.320006,"lon":5.381486,"is_reserved":false,"is_disabled":false,"rental_uris":{"android":"levelo://app?vid=2d7f3353-743b-41e1-85f2-e32181d4ae48","ios":"levelo://app?vid=2d7f3353-743b-41e1-85f2-e32181d4ae48"},"vehicle_type_id":"4","last_reported":1737122867,"current_range_meters":28400,"station_id":"ce4bhr12rcd13ifvqhpg","pricing_plan_id":"cebpf4jnsgd1na2vs0mg"},{"bike_id":"35deb437-7ef2-4ee7-9ea5-27ce0001ca7b","system_id":"levelo_inurba_marseille","lat":43.26071,"lon":5.39395,"is_reserved":false,"is_disabled":false,"rental_uris":{"android":"levelo://app?vid=35deb437-7ef2-4ee7-9ea5-27ce0001ca7b","ios":"levelo://app?vid=35deb437-7ef2-4ee7-9ea5-27ce0001ca7b"},"vehicle_type_id":"4","last_reported":1737122867,"current_range_meters":38800,"station_id":"ce4bhh92rcd13ifvqfj0","pricing_plan_id":"cebpf4jnsgd1na2vs0mg"},{"bike_id":"401864e0-5a18-47f8-946b-0a4d3027b5a4","system_id":"levelo_inurba_marseille","lat":43.22942,"lon":5.35386,"is_reserved":false,"is_disabled":false,"rental_uris":{"android":"levelo://app?vid=401864e0-5a18-47f8-946b-0a4d3027b5a4","ios":"levelo://app?vid=401864e0-5a18-47f8-946b-0a4d3027b5a4"},"vehicle_type_id":"4","last_reported":1737122867,"current_range_meters":30400,"station_id":"cpo3532slgdg3j2ikp40","pricing_plan_id":"cebpf4jnsgd1na2vs0mg"},{"bike_id":"b6a6566f-5ee3-4542-96ed-848070e67334","system_id":"levelo_inurba_marseille","lat":43.25727,"lon":5.41109,"is_reserved":false,"is_disabled":false,"rental_uris":{"android":"levelo://app?vid=b6a6566f-5ee3-4542-96ed-848070e67334","ios":"levelo://app?vid=b6a6566f-5ee3-4542-96ed-848070e67334"},"vehicle_type_id":"4","last_reported":1737122867,"current_range_meters":30400,"station_id":"ce4bhkp2rcd13ifvqgd0","pricing_plan_id":"cebpf4jnsgd1na2vs0mg"},{"bike_id":"c4adf78e-c3fd-48fe-8d43-866739a0510c","system_id":"levelo_inurba_marseille","lat":43.29038,"lon":5.35887,"is_reserved":false,"is_disabled":false,"rental_uris":{"android":"levelo://app?vid=c4adf78e-c3fd-48fe-8d43-866739a0510c","ios":"levelo://app?vid=c4adf78e-c3fd-48fe-8d43-866739a0510c"},"vehicle_type_id":"4","last_reported":1737122867,"current_range_meters":25200,"station_id":"ce4bha92rcd13ifvqeg0","pricing_plan_id":"cebpf4jnsgd1na2vs0mg"},{"bike_id":"19b96a43-ef6e-4f4a-9c20-22827cf2a64f","system_id":"levelo_inurba_marseille","lat":43.31881,"lon":5.407353,"is_reserved":false,"is_disabled":false,"rental_uris":{"android":"levelo://app?vid=19b96a43-ef6e-4f4a-9c20-22827cf2a64f","ios":"levelo://app?vid=19b96a43-ef6e-4f4a-9c20-22827cf2a64f"},"vehicle_type_id":"4","last_reported":1737122867,"current_range_meters":9200,"station_id":"ce4bhq12rcd13ifvqhig","pricing_plan_id":"cebpf4jnsgd1na2vs0mg"},{"bike_id":"74c0cea3-29d9-433e-a4da-1101e5070b9d","system_id":"levelo_inurba_marseille","lat":43.2621,"lon":5.37444,"is_reserved":false,"is_disabled":false,"rental_uris":{"android":"levelo://app?vid=74c0cea3-29d9-433e-a4da-1101e5070b9d","ios":"levelo://app?vid=74c0cea3-29d9-433e-a4da-1101e5070b9d"},"vehicle_type_id":"4","last_reported":1737122867,"current_range_meters":16800,"station_id":"ce4bhgp2rcd13ifvqfc0","pricing_plan_id":"cebpf4jnsgd1na2vs0mg"},{"bike_id":"6e3102cd-4f63-4ad8-a6b0-3eb00610f455","system_id":"levelo_inurba_marseille","lat":43.29964,"lon":5.3716,"is_reserved":false,"is_disabled":false,"rental_uris":{"android":"levelo://app?vid=6e3102cd-4f63-4ad8-a6b0-3eb00610f455","ios":"levelo://app?vid=6e3102cd-4f63-4ad8-a6b0-3eb00610f455"},"vehicle_type_id":"4","last_reported":1737122867,"current_range_meters":19200,"station_id":"ce4bgr92rcd13ifvqc7g","pricing_plan_id":"cebpf4jnsgd1na2vs0mg"},{"bike_id":"f4720fa2-4f51-4b0f-96c7-e08670541172","system_id":"levelo_inurba_marseille","lat":43.27173,"lon":5.40991,"is_reserved":false,"is_disabled":false,"rental_uris":{"android":"levelo://app?vid=f4720fa2-4f51-4b0f-96c7-e08670541172","ios":"levelo://app?vid=f4720fa2-4f51-4b0f-96c7-e08670541172"},"vehicle_type_id":"4","last_reported":1737122867,"current_range_meters":34000,"station_id":"ce4bhl12rcd13ifvqgf0","pricing_plan_id":"cebpf4jnsgd1na2vs0mg"},{"bike_id":"ebd9e941-b2dc-420e-a6db-e189bc6bd45d","system_id":"levelo_inurba_marseille","lat":43.26502,"lon":5.3954,"is_reserved":false,"is_disabled":true,"rental_uris":{"android":"levelo://app?vid=ebd9e941-b2dc-420e-a6db-e189bc6bd45d","ios":"levelo://app?vid=ebd9e941-b2dc-420e-a6db-e189bc6bd45d"},"vehicle_type_id":"4","last_reported":1737122867,"current_range_meters":2000,"station_id":"ce4bhi12rcd13ifvqfq0","pricing_plan_id":"cebpf4jnsgd1na2vs0mg"},{"bike_id":"ac2afca1-9e21-4429-8c27-1cb3a076c66b","system_id":"levelo_inurba_marseille","lat":43.27431,"lon":5.39413,"is_reserved":false,"is_disabled":false,"rental_uris":{"android":"levelo://app?vid=ac2afca1-9e21-4429-8c27-1cb3a076c66b","ios":"levelo://app?vid=ac2afca1-9e21-4429-8c27-1cb3a076c66b"},"vehicle_type_id":"4","last_reported":1737122867,"current_range_meters":38800,"station_id":"ce4bhdp2rcd13ifvqf20","pricing_plan_id":"cebpf4jnsgd1na2vs0mg"},{"bike_id":"3a41bba2-0f7c-408e-a6fe-8a364b529f4c","system_id":"levelo_inurba_marseille","lat":43.2721,"lon":5.39166,"is_reserved":false,"is_disabled":false,"rental_uris":{"android":"levelo://app?vid=3a41bba2-0f7c-408e-a6fe-8a364b529f4c","ios":"levelo://app?vid=3a41bba2-0f7c-408e-a6fe-8a364b529f4c"},"vehicle_type_id":"4","last_reported":1737122867,"current_range_meters":38000,"station_id":"ce4bhhp2rcd13ifvqfm0","pricing_plan_id":"cebpf4jnsgd1na2vs0mg"},{"bike_id":"ddfefd90-07be-4973-9578-35038fe52ce0","system_id":"levelo_inurba_marseille","lat":43.25814,"lon":5.39428,"is_reserved":false,"is_disabled":false,"rental_uris":{"android":"levelo://app?vid=ddfefd90-07be-4973-9578-35038fe52ce0","ios":"levelo://app?vid=ddfefd90-07be-4973-9578-35038fe52ce0"},"vehicle_type_id":"4","last_reported":1737122867,"current_range_meters":30800,"station_id":"ce4bhip2rcd13ifvqft0","pricing_plan_id":"cebpf4jnsgd1na2vs0mg"},{"bike_id":"fad32c7e-7bfa-4700-bf97-7a815607734a","system_id":"levelo_inurba_marseille","lat":43.30204,"lon":5.39465,"is_reserved":false,"is_disabled":false,"rental_uris":{"android":"levelo://app?vid=fad32c7e-7bfa-4700-bf97-7a815607734a","ios":"levelo://app?vid=fad32c7e-7bfa-4700-bf97-7a815607734a"},"vehicle_type_id":"4","last_reported":1737122867,"current_range_meters":15200,"station_id":"ce4bh0p2rcd13ifvqd70","pricing_plan_id":"cebpf4jnsgd1na2vs0mg"},{"bike_id":"d60479e6-98ee-480e-bc82-d76b72d43880","system_id":"levelo_inurba_marseille","lat":43.26792,"lon":5.39433,"is_reserved":false,"is_disabled":false,"rental_uris":{"android":"levelo://app?vid=d60479e6-98ee-480e-bc82-d76b72d43880","ios":"levelo://app?vid=d60479e6-98ee-480e-bc82-d76b72d43880"},"vehicle_type_id":"4","last_reported":1737122867,"current_range_meters":27600,"station_id":"ce4bhh12rcd13ifvqfg0","pricing_plan_id":"cebpf4jnsgd1na2vs0mg"},{"bike_id":"46524d31-4602-424f-b14e-ab9147176525","system_id":"levelo_inurba_marseille","lat":43.27305,"lon":5.39079,"is_reserved":false,"is_disabled":false,"rental_uris":{"android":"levelo://app?vid=46524d31-4602-424f-b14e-ab9147176525","ios":"levelo://app?vid=46524d31-4602-424f-b14e-ab9147176525"},"vehicle_type_id":"4","last_reported":1737122867,"current_range_meters":6800,"station_id":"ce4bhgp2rcd13ifvqfe0","pricing_plan_id":"cebpf4jnsgd1na2vs0mg"},{"bike_id":"c900a35e-adb0-4181-8b02-4ef655f399fb","system_id":"levelo_inurba_marseille","lat":43.33726,"lon":5.39186,"is_reserved":false,"is_disabled":false,"rental_uris":{"android":"levelo://app?vid=c900a35e-adb0-4181-8b02-4ef655f399fb","ios":"levelo://app?vid=c900a35e-adb0-4181-8b02-4ef655f399fb"},"vehicle_type_id":"4","last_reported":1737122867,"current_range_meters":21600,"station_id":"ce4bhr92rcd13ifvqhsg","pricing_plan_id":"cebpf4jnsgd1na2vs0mg"},{"bike_id":"72ca0742-1df6-4026-87cc-098e9e8db1ab","system_id":"levelo_inurba_marseille","lat":43.23961,"lon":5.36636,"is_reserved":false,"is_disabled":false,"rental_uris":{"android":"levelo://app?vid=72ca0742-1df6-4026-87cc-098e9e8db1ab","ios":"levelo://app?vid=72ca0742-1df6-4026-87cc-098e9e8db1ab"},"vehicle_type_id":"4","last_reported":1737122867,"current_range_meters":28400,"station_id":"ce4bhi12rcd13ifvqfp0","pricing_plan_id":"cebpf4jnsgd1na2vs0mg"},{"bike_id":"98337919-509e-457e-a29d-b25ffdf23235","system_id":"levelo_inurba_marseille","lat":43.3189,"lon":5.40737,"is_reserved":false,"is_disabled":false,"rental_uris":{"android":"levelo://app?vid=98337919-509e-457e-a29d-b25ffdf23235","ios":"levelo://app?vid=98337919-509e-457e-a29d-b25ffdf23235"},"vehicle_type_id":"4","last_reported":1737122867,"current_range_meters":24000,"station_id":"ce4bhq12rcd13ifvqhig","pricing_plan_id":"cebpf4jnsgd1na2vs0mg"},{"bike_id":"9370995a-0faf-41aa-bfba-e8f18c48b388","system_id":"levelo_inurba_marseille","lat":43.27369,"lon":5.36251,"is_reserved":false,"is_disabled":false,"rental_uris":{"android":"levelo://app?vid=9370995a-0faf-41aa-bfba-e8f18c48b388","ios":"levelo://app?vid=9370995a-0faf-41aa-bfba-e8f18c48b388"},"vehicle_type_id":"4","last_reported":1737122867,"current_range_meters":28800,"station_id":"ce4bhbh2rcd13ifvqeo0","pricing_plan_id":"cebpf4jnsgd1na2vs0mg"},{"bike_id":"18a984e6-9095-424c-bc4e-9d1acddd0e7d","system_id":"levelo_inurba_marseille","lat":43.28683,"lon":5.38656,"is_reserved":false,"is_disabled":false,"rental_uris":{"android":"levelo://app?vid=18a984e6-9095-424c-bc4e-9d1acddd0e7d","ios":"levelo://app?vid=18a984e6-9095-424c-bc4e-9d1acddd0e7d"},"vehicle_type_id":"4","last_reported":1737122867,"current_range_meters":30800,"station_id":"ce4bh492rcd13ifvqdug","pricing_plan_id":"cebpf4jnsgd1na2vs0mg"},{"bike_id":"b385fb6c-70f6-4939-946c-b2099424a1de","system_id":"levelo_inurba_marseille","lat":43.2722,"lon":5.39191,"is_reserved":false,"is_disabled":false,"rental_uris":{"android":"levelo://app?vid=b385fb6c-70f6-4939-946c-b2099424a1de","ios":"levelo://app?vid=b385fb6c-70f6-4939-946c-b2099424a1de"},"vehicle_type_id":"4","last_reported":1737122867,"current_range_meters":37600,"station_id":"ce4bhhp2rcd13ifvqfm0","pricing_plan_id":"cebpf4jnsgd1na2vs0mg"},{"bike_id":"02c06f4b-afc9-450c-a59c-a6479e5256af","system_id":"levelo_inurba_marseille","lat":43.292935,"lon":5.37449,"is_reserved":false,"is_disabled":false,"rental_uris":{"android":"levelo://app?vid=02c06f4b-afc9-450c-a59c-a6479e5256af","ios":"levelo://app?vid=02c06f4b-afc9-450c-a59c-a6479e5256af"},"vehicle_type_id":"4","last_reported":1737122867,"current_range_meters":19200,"station_id":"ce4bgi12rcd13ifvqb70","pricing_plan_id":"cebpf4jnsgd1na2vs0mg"},{"bike_id":"7383474c-b45a-4438-837c-99d7ae866fe7","system_id":"levelo_inurba_marseille","lat":43.26065,"lon":5.39396,"is_reserved":false,"is_disabled":false,"rental_uris":{"android":"levelo://app?vid=7383474c-b45a-4438-837c-99d7ae866fe7","ios":"levelo://app?vid=7383474c-b45a-4438-837c-99d7ae866fe7"},"vehicle_type_id":"4","last_reported":1737122867,"current_range_meters":38800,"station_id":"ce4bhh92rcd13ifvqfj0","pricing_plan_id":"cebpf4jnsgd1na2vs0mg"},{"bike_id":"b6a92b7c-6463-4317-bbc5-54ac9abda24b","system_id":"levelo_inurba_marseille","lat":43.29274,"lon":5.40116,"is_reserved":false,"is_disabled":false,"rental_uris":{"android":"levelo://app?vid=b6a92b7c-6463-4317-bbc5-54ac9abda24b","ios":"levelo://app?vid=b6a92b7c-6463-4317-bbc5-54ac9abda24b"},"vehicle_type_id":"4","last_reported":1737122867,"current_range_meters":22000,"station_id":"ce4bh312rcd13ifvqdk0","pricing_plan_id":"cebpf4jnsgd1na2vs0mg"},{"bike_id":"21335a81-06b0-42e9-a5f8-3992402d742f","system_id":"levelo_inurba_marseille","lat":43.24178,"lon":5.39731,"is_reserved":false,"is_disabled":false,"rental_uris":{"android":"levelo://app?vid=21335a81-06b0-42e9-a5f8-3992402d742f","ios":"levelo://app?vid=21335a81-06b0-42e9-a5f8-3992402d742f"},"vehicle_type_id":"4","last_reported":1737122867,"current_range_meters":32800,"station_id":"ce4bhn12rcd13ifvqgpg","pricing_plan_id":"cebpf4jnsgd1na2vs0mg"},{"bike_id":"6eb6d517-5a40-4738-bf68-be5af1567262","system_id":"levelo_inurba_marseille","lat":43.2909,"lon":5.38118,"is_reserved":false,"is_disabled":false,"rental_uris":{"android":"levelo://app?vid=6eb6d517-5a40-4738-bf68-be5af1567262","ios":"levelo://app?vid=6eb6d517-5a40-4738-bf68-be5af1567262"},"vehicle_type_id":"4","last_reported":1737122867,"current_range_meters":25200,"station_id":"ce4bh512rcd13ifvqe2g","pricing_plan_id":"cebpf4jnsgd1na2vs0mg"},{"bike_id":"8dc4bafa-c9bb-418a-b39d-925b47ae4c83","system_id":"levelo_inurba_marseille","lat":43.259184,"lon":5.408962,"is_reserved":false,"is_disabled":false,"rental_uris":{"android":"levelo://app?vid=8dc4bafa-c9bb-418a-b39d-925b47ae4c83","ios":"levelo://app?vid=8dc4bafa-c9bb-418a-b39d-925b47ae4c83"},"vehicle_type_id":"4","last_reported":1737122867,"current_range_meters":38000,"station_id":"ce4bhm92rcd13ifvqglg","pricing_plan_id":"cebpf4jnsgd1na2vs0mg"},{"bike_id":"0dd19019-f68e-4196-b969-e64a3d920187","system_id":"levelo_inurba_marseille","lat":43.29888,"lon":5.3974,"is_reserved":false,"is_disabled":false,"rental_uris":{"android":"levelo://app?vid=0dd19019-f68e-4196-b969-e64a3d920187","ios":"levelo://app?vid=0dd19019-f68e-4196-b969-e64a3d920187"},"vehicle_type_id":"4","last_reported":1737122867,"current_range_meters":38800,"station_id":"ce4bh0h2rcd13ifvqd50","pricing_plan_id":"cebpf4jnsgd1na2vs0mg"},{"bike_id":"bf43374e-1830-4f3b-9852-0c4c91e32c2c","system_id":"levelo_inurba_marseille","lat":43.27374,"lon":5.36242,"is_reserved":false,"is_disabled":false,"rental_uris":{"android":"levelo://app?vid=bf43374e-1830-4f3b-9852-0c4c91e32c2c","ios":"levelo://app?vid=bf43374e-1830-4f3b-9852-0c4c91e32c2c"},"vehicle_type_id":"4","last_reported":1737122867,"current_range_meters":24000,"station_id":"ce4bhbh2rcd13ifvqeo0","pricing_plan_id":"cebpf4jnsgd1na2vs0mg"},{"bike_id":"b640b53b-4a3d-49ff-9019-457585c8374a","system_id":"levelo_inurba_marseille","lat":43.30258,"lon":5.40061,"is_reserved":false,"is_disabled":false,"rental_uris":{"android":"levelo://app?vid=b640b53b-4a3d-49ff-9019-457585c8374a","ios":"levelo://app?vid=b640b53b-4a3d-49ff-9019-457585c8374a"},"vehicle_type_id":"4","last_reported":1737122867,"current_range_meters":9600,"station_id":"ce4bgvh2rcd13ifvqcs0","pricing_plan_id":"cebpf4jnsgd1na2vs0mg"},{"bike_id":"44721705-52d0-4eba-b0b2-b41ea9586411","system_id":"levelo_inurba_marseille","lat":43.23174,"lon":5.35518,"is_reserved":false,"is_disabled":false,"rental_uris":{"android":"levelo://app?vid=44721705-52d0-4eba-b0b2-b41ea9586411","ios":"levelo://app?vid=44721705-52d0-4eba-b0b2-b41ea9586411"},"vehicle_type_id":"4","last_reported":1737122867,"current_range_meters":30000,"station_id":"ce4bhu92rcd13ifvqi70","pricing_plan_id":"cebpf4jnsgd1na2vs0mg"},{"bike_id":"f1edfa3b-8433-4348-a9f2-fcdb01e8f287","system_id":"levelo_inurba_marseille","lat":43.26805,"lon":5.4027,"is_reserved":false,"is_disabled":false,"rental_uris":{"android":"levelo://app?vid=f1edfa3b-8433-4348-a9f2-fcdb01e8f287","ios":"levelo://app?vid=f1edfa3b-8433-4348-a9f2-fcdb01e8f287"},"vehicle_type_id":"4","last_reported":1737122867,"current_range_meters":16000,"station_id":"ce501612rcd8frsf0b60","pricing_plan_id":"cebpf4jnsgd1na2vs0mg"},{"bike_id":"fe4ca2de-39b1-4c54-a18c-5b9311dc9a5e","system_id":"levelo_inurba_marseille","lat":43.29516,"lon":5.39038,"is_reserved":false,"is_disabled":false,"rental_uris":{"android":"levelo://app?vid=fe4ca2de-39b1-4c54-a18c-5b9311dc9a5e","ios":"levelo://app?vid=fe4ca2de-39b1-4c54-a18c-5b9311dc9a5e"},"vehicle_type_id":"4","last_reported":1737122867,"current_range_meters":38800,"station_id":"ce4bh3p2rcd13ifvqdp0","pricing_plan_id":"cebpf4jnsgd1na2vs0mg"},{"bike_id":"f7980fcf-181c-4072-ade2-05bc850d713f","system_id":"levelo_inurba_marseille","lat":43.29551,"lon":5.37496,"is_reserved":false,"is_disabled":true,"rental_uris":{"android":"levelo://app?vid=f7980fcf-181c-4072-ade2-05bc850d713f","ios":"levelo://app?vid=f7980fcf-181c-4072-ade2-05bc850d713f"},"vehicle_type_id":"4","last_reported":1737122867,"current_range_meters":0,"station_id":"ce4bgkp2rcd13ifvqbmg","pricing_plan_id":"cebpf4jnsgd1na2vs0mg"},{"bike_id":"08fdc998-176c-44d2-b20a-10d4aee33c0b","system_id":"levelo_inurba_marseille","lat":43.273827,"lon":5.362507,"is_reserved":false,"is_disabled":true,"rental_uris":{"android":"levelo://app?vid=08fdc998-176c-44d2-b20a-10d4aee33c0b","ios":"levelo://app?vid=08fdc998-176c-44d2-b20a-10d4aee33c0b"},"vehicle_type_id":"4","last_reported":1737122867,"current_range_meters":0,"station_id":"ce4bhbh2rcd13ifvqeo0","pricing_plan_id":"cebpf4jnsgd1na2vs0mg"},{"bike_id":"a21e7b8b-68c2-4ba8-99c6-49d5f0a2ebc6","system_id":"levelo_inurba_marseille","lat":43.26204,"lon":5.37452,"is_reserved":false,"is_disabled":false,"rental_uris":{"android":"levelo://app?vid=a21e7b8b-68c2-4ba8-99c6-49d5f0a2ebc6","ios":"levelo://app?vid=a21e7b8b-68c2-4ba8-99c6-49d5f0a2ebc6"},"vehicle_type_id":"4","last_reported":1737122867,"current_range_meters":38800,"station_id":"ce4bhgp2rcd13ifvqfc0","pricing_plan_id":"cebpf4jnsgd1na2vs0mg"},{"bike_id":"dbc84289-e424-421f-8922-80495ae94fa1","system_id":"levelo_inurba_marseille","lat":43.30594,"lon":5.39357,"is_reserved":false,"is_disabled":true,"rental_uris":{"android":"levelo://app?vid=dbc84289-e424-421f-8922-80495ae94fa1","ios":"levelo://app?vid=dbc84289-e424-421f-8922-80495ae94fa1"},"vehicle_type_id":"4","last_reported":1737122867,"current_range_meters":26000,"station_id":"ce4bh0p2rcd13ifvqd80","pricing_plan_id":"cebpf4jnsgd1na2vs0mg"},{"bike_id":"70ba87cf-e6fd-4971-a492-dfbcdb40a66f","system_id":"levelo_inurba_marseille","lat":43.29503,"lon":5.39046,"is_reserved":false,"is_disabled":false,"rental_uris":{"android":"levelo://app?vid=70ba87cf-e6fd-4971-a492-dfbcdb40a66f","ios":"levelo://app?vid=70ba87cf-e6fd-4971-a492-dfbcdb40a66f"},"vehicle_type_id":"4","last_reported":1737122867,"current_range_meters":20800,"station_id":"ce4bh3p2rcd13ifvqdp0","pricing_plan_id":"cebpf4jnsgd1na2vs0mg"},{"bike_id":"e1f9a0b5-1419-4e67-ab24-a72ee45dfd85","system_id":"levelo_inurba_marseille","lat":43.24186,"lon":5.36396,"is_reserved":false,"is_disabled":false,"rental_uris":{"android":"levelo://app?vid=e1f9a0b5-1419-4e67-ab24-a72ee45dfd85","ios":"levelo://app?vid=e1f9a0b5-1419-4e67-ab24-a72ee45dfd85"},"vehicle_type_id":"4","last_reported":1737122867,"current_range_meters":16000,"station_id":"cpo36qri1sfpv3e86is0","pricing_plan_id":"cebpf4jnsgd1na2vs0mg"},{"bike_id":"2d1d0325-36ae-4e0c-8ea2-8b7285a8325f","system_id":"levelo_inurba_marseille","lat":43.30536,"lon":5.36534,"is_reserved":false,"is_disabled":false,"rental_uris":{"android":"levelo://app?vid=2d1d0325-36ae-4e0c-8ea2-8b7285a8325f","ios":"levelo://app?vid=2d1d0325-36ae-4e0c-8ea2-8b7285a8325f"},"vehicle_type_id":"4","last_reported":1737122867,"current_range_meters":38800,"station_id":"ce4bgs12rcd13ifvqcag","pricing_plan_id":"cebpf4jnsgd1na2vs0mg"},{"bike_id":"882e3c20-dd13-45c9-b2cc-b9e0e7c63a64","system_id":"levelo_inurba_marseille","lat":43.29514,"lon":5.39034,"is_reserved":false,"is_disabled":false,"rental_uris":{"android":"levelo://app?vid=882e3c20-dd13-45c9-b2cc-b9e0e7c63a64","ios":"levelo://app?vid=882e3c20-dd13-45c9-b2cc-b9e0e7c63a64"},"vehicle_type_id":"4","last_reported":1737122867,"current_range_meters":38800,"station_id":"ce4bh3p2rcd13ifvqdp0","pricing_plan_id":"cebpf4jnsgd1na2vs0mg"},{"bike_id":"a7769640-97da-49f6-9b5d-66a02ad187fd","system_id":"levelo_inurba_marseille","lat":43.27204,"lon":5.39175,"is_reserved":false,"is_disabled":false,"rental_uris":{"android":"levelo://app?vid=a7769640-97da-49f6-9b5d-66a02ad187fd","ios":"levelo://app?vid=a7769640-97da-49f6-9b5d-66a02ad187fd"},"vehicle_type_id":"4","last_reported":1737122867,"current_range_meters":31200,"station_id":"ce4bhhp2rcd13ifvqfm0","pricing_plan_id":"cebpf4jnsgd1na2vs0mg"},{"bike_id":"2aa98a8e-265a-4dfa-baae-3da013df4e11","system_id":"levelo_inurba_marseille","lat":43.27362,"lon":5.36209,"is_reserved":false,"is_disabled":false,"rental_uris":{"android":"levelo://app?vid=2aa98a8e-265a-4dfa-baae-3da013df4e11","ios":"levelo://app?vid=2aa98a8e-265a-4dfa-baae-3da013df4e11"},"vehicle_type_id":"4","last_reported":1737122867,"current_range_meters":24400,"station_id":"ce4bhbh2rcd13ifvqeo0","pricing_plan_id":"cebpf4jnsgd1na2vs0mg"},{"bike_id":"17fe4045-3081-4c43-a833-13dea74aa916","system_id":"levelo_inurba_marseille","lat":43.28346,"lon":5.39981,"is_reserved":false,"is_disabled":false,"rental_uris":{"android":"levelo://app?vid=17fe4045-3081-4c43-a833-13dea74aa916","ios":"levelo://app?vid=17fe4045-3081-4c43-a833-13dea74aa916"},"vehicle_type_id":"4","last_reported":1737122867,"current_range_meters":30800,"station_id":"ce4bh2p2rcd13ifvqdi0","pricing_plan_id":"cebpf4jnsgd1na2vs0mg"},{"bike_id":"e7fcdb32-a6eb-43c5-acd1-2cbc537fe590","system_id":"levelo_inurba_marseille","lat":43.29889,"lon":5.39742,"is_reserved":false,"is_disabled":false,"rental_uris":{"android":"levelo://app?vid=e7fcdb32-a6eb-43c5-acd1-2cbc537fe590","ios":"levelo://app?vid=e7fcdb32-a6eb-43c5-acd1-2cbc537fe590"},"vehicle_type_id":"4","last_reported":1737122867,"current_range_meters":38800,"station_id":"ce4bh0h2rcd13ifvqd50","pricing_plan_id":"cebpf4jnsgd1na2vs0mg"},{"bike_id":"7d3c749d-4eb6-4ace-b278-8c043ec9d8f5","system_id":"levelo_inurba_marseille","lat":43.26575,"lon":5.37313,"is_reserved":false,"is_disabled":false,"rental_uris":{"android":"levelo://app?vid=7d3c749d-4eb6-4ace-b278-8c043ec9d8f5","ios":"levelo://app?vid=7d3c749d-4eb6-4ace-b278-8c043ec9d8f5"},"vehicle_type_id":"4","last_reported":1737122867,"current_range_meters":28400,"station_id":"ce4bhg12rcd13ifvqf70","pricing_plan_id":"cebpf4jnsgd1na2vs0mg"},{"bike_id":"f5863b18-13a1-4c6e-92de-5668ea912ad3","system_id":"levelo_inurba_marseille","lat":43.26231,"lon":5.4045,"is_reserved":false,"is_disabled":true,"rental_uris":{"android":"levelo://app?vid=f5863b18-13a1-4c6e-92de-5668ea912ad3","ios":"levelo://app?vid=f5863b18-13a1-4c6e-92de-5668ea912ad3"},"vehicle_type_id":"4","last_reported":1737122867,"current_range_meters":0,"station_id":"","pricing_plan_id":"cebpf4jnsgd1na2vs0mg"},{"bike_id":"ac242821-599c-48d6-bd2d-6158f33cc792","system_id":"levelo_inurba_marseille","lat":43.29296,"lon":5.40115,"is_reserved":false,"is_disabled":false,"rental_uris":{"android":"levelo://app?vid=ac242821-599c-48d6-bd2d-6158f33cc792","ios":"levelo://app?vid=ac242821-599c-48d6-bd2d-6158f33cc792"},"vehicle_type_id":"4","last_reported":1737122867,"current_range_meters":36400,"station_id":"ce4bh312rcd13ifvqdk0","pricing_plan_id":"cebpf4jnsgd1na2vs0mg"},{"bike_id":"a8fad254-19bb-48fe-801d-9e93d4767cef","system_id":"levelo_inurba_marseille","lat":43.31445,"lon":5.37393,"is_reserved":false,"is_disabled":true,"rental_uris":{"android":"levelo://app?vid=a8fad254-19bb-48fe-801d-9e93d4767cef","ios":"levelo://app?vid=a8fad254-19bb-48fe-801d-9e93d4767cef"},"vehicle_type_id":"4","last_reported":1737122867,"current_range_meters":0,"station_id":"","pricing_plan_id":"cebpf4jnsgd1na2vs0mg"},{"bike_id":"395abbb0-e30b-4c9b-b6f0-604a718fd11d","system_id":"levelo_inurba_marseille","lat":43.27078,"lon":5.42278,"is_reserved":false,"is_disabled":false,"rental_uris":{"android":"levelo://app?vid=395abbb0-e30b-4c9b-b6f0-604a718fd11d","ios":"levelo://app?vid=395abbb0-e30b-4c9b-b6f0-604a718fd11d"},"vehicle_type_id":"4","last_reported":1737122867,"current_range_meters":5600,"station_id":"ce4bhk92rcd13ifvqgb0","pricing_plan_id":"cebpf4jnsgd1na2vs0mg"},{"bike_id":"d0335aa9-5096-4d0b-bab9-ff3e00a4b234","system_id":"levelo_inurba_marseille","lat":43.30566,"lon":5.36527,"is_reserved":false,"is_disabled":false,"rental_uris":{"android":"levelo://app?vid=d0335aa9-5096-4d0b-bab9-ff3e00a4b234","ios":"levelo://app?vid=d0335aa9-5096-4d0b-bab9-ff3e00a4b234"},"vehicle_type_id":"4","last_reported":1737122867,"current_range_meters":28000,"station_id":"ce4bgs12rcd13ifvqcag","pricing_plan_id":"cebpf4jnsgd1na2vs0mg"},{"bike_id":"e5f71037-c3e2-4a5c-b185-51bcddd625d8","system_id":"levelo_inurba_marseille","lat":43.23063,"lon":5.35493,"is_reserved":false,"is_disabled":false,"rental_uris":{"android":"levelo://app?vid=e5f71037-c3e2-4a5c-b185-51bcddd625d8","ios":"levelo://app?vid=e5f71037-c3e2-4a5c-b185-51bcddd625d8"},"vehicle_type_id":"4","last_reported":1737122867,"current_range_meters":4400,"station_id":"cpo3342slgdg3j2ifvpg","pricing_plan_id":"cebpf4jnsgd1na2vs0mg"},{"bike_id":"46686b70-f375-4947-b209-2f4548c2edcf","system_id":"levelo_inurba_marseille","lat":43.28874,"lon":5.39467,"is_reserved":false,"is_disabled":true,"rental_uris":{"android":"levelo://app?vid=46686b70-f375-4947-b209-2f4548c2edcf","ios":"levelo://app?vid=46686b70-f375-4947-b209-2f4548c2edcf"},"vehicle_type_id":"4","last_reported":1737122867,"current_range_meters":0,"station_id":"","pricing_plan_id":"cebpf4jnsgd1na2vs0mg"},{"bike_id":"4f1b4a32-a66b-4ddc-a54d-327c8561a042","system_id":"levelo_inurba_marseille","lat":43.28938,"lon":5.36635,"is_reserved":false,"is_disabled":false,"rental_uris":{"android":"levelo://app?vid=4f1b4a32-a66b-4ddc-a54d-327c8561a042","ios":"levelo://app?vid=4f1b4a32-a66b-4ddc-a54d-327c8561a042"},"vehicle_type_id":"4","last_reported":1737122867,"current_range_meters":16400,"station_id":"ce4bhap2rcd13ifvqek0","pricing_plan_id":"cebpf4jnsgd1na2vs0mg"},{"bike_id":"c46e4eeb-369c-4dfd-aee7-54697ece850d","system_id":"levelo_inurba_marseille","lat":43.30248,"lon":5.40032,"is_reserved":false,"is_disabled":true,"rental_uris":{"android":"levelo://app?vid=c46e4eeb-369c-4dfd-aee7-54697ece850d","ios":"levelo://app?vid=c46e4eeb-369c-4dfd-aee7-54697ece850d"},"vehicle_type_id":"4","last_reported":1737122867,"current_range_meters":1200,"station_id":"ce4bgvh2rcd13ifvqcs0","pricing_plan_id":"cebpf4jnsgd1na2vs0mg"},{"bike_id":"ddc2910d-bda7-4245-aced-e92629a6be47","system_id":"levelo_inurba_marseille","lat":43.29851,"lon":5.36269,"is_reserved":false,"is_disabled":false,"rental_uris":{"android":"levelo://app?vid=ddc2910d-bda7-4245-aced-e92629a6be47","ios":"levelo://app?vid=ddc2910d-bda7-4245-aced-e92629a6be47"},"vehicle_type_id":"4","last_reported":1737122867,"current_range_meters":20400,"station_id":"ce4bgpp2rcd13ifvqc3g","pricing_plan_id":"cebpf4jnsgd1na2vs0mg"},{"bike_id":"ec0fd7ef-4684-4969-8a46-154dcf908837","system_id":"levelo_inurba_marseille","lat":43.28617,"lon":5.35107,"is_reserved":false,"is_disabled":false,"rental_uris":{"android":"levelo://app?vid=ec0fd7ef-4684-4969-8a46-154dcf908837","ios":"levelo://app?vid=ec0fd7ef-4684-4969-8a46-154dcf908837"},"vehicle_type_id":"4","last_reported":1737122867,"current_range_meters":32800,"station_id":"ce4bhch2rcd13ifvqeug","pricing_plan_id":"cebpf4jnsgd1na2vs0mg"},{"bike_id":"162e74e4-7cde-4983-afbf-6133953791de","system_id":"levelo_inurba_marseille","lat":43.27369,"lon":5.36244,"is_reserved":false,"is_disabled":false,"rental_uris":{"android":"levelo://app?vid=162e74e4-7cde-4983-afbf-6133953791de","ios":"levelo://app?vid=162e74e4-7cde-4983-afbf-6133953791de"},"vehicle_type_id":"4","last_reported":1737122867,"current_range_meters":39200,"station_id":"ce4bhbh2rcd13ifvqeo0","pricing_plan_id":"cebpf4jnsgd1na2vs0mg"},{"bike_id":"53c26170-756a-4ffa-a56a-36d0d287c54c","system_id":"levelo_inurba_marseille","lat":43.31085,"lon":5.42431,"is_reserved":false,"is_disabled":false,"rental_uris":{"android":"levelo://app?vid=53c26170-756a-4ffa-a56a-36d0d287c54c","ios":"levelo://app?vid=53c26170-756a-4ffa-a56a-36d0d287c54c"},"vehicle_type_id":"4","last_reported":1737122867,"current_range_meters":38800,"station_id":"ce4bhp92rcd13ifvqhag","pricing_plan_id":"cebpf4jnsgd1na2vs0mg"},{"bike_id":"4774e4a1-7875-478e-94e6-a0cd5f996476","system_id":"levelo_inurba_marseille","lat":43.3235,"lon":5.40611,"is_reserved":false,"is_disabled":false,"rental_uris":{"android":"levelo://app?vid=4774e4a1-7875-478e-94e6-a0cd5f996476","ios":"levelo://app?vid=4774e4a1-7875-478e-94e6-a0cd5f996476"},"vehicle_type_id":"4","last_reported":1737122867,"current_range_meters":38000,"station_id":"ce4bhq92rcd13ifvqhjg","pricing_plan_id":"cebpf4jnsgd1na2vs0mg"},{"bike_id":"6fd6e968-3cda-4943-8532-d4df4d874d56","system_id":"levelo_inurba_marseille","lat":43.26238,"lon":5.4044,"is_reserved":false,"is_disabled":false,"rental_uris":{"android":"levelo://app?vid=6fd6e968-3cda-4943-8532-d4df4d874d56","ios":"levelo://app?vid=6fd6e968-3cda-4943-8532-d4df4d874d56"},"vehicle_type_id":"4","last_reported":1737122867,"current_range_meters":7200,"station_id":"","pricing_plan_id":"cebpf4jnsgd1na2vs0mg"},{"bike_id":"16992c76-93be-47ae-9428-fa06586d1c5c","system_id":"levelo_inurba_marseille","lat":43.24177,"lon":5.3972,"is_reserved":false,"is_disabled":false,"rental_uris":{"android":"levelo://app?vid=16992c76-93be-47ae-9428-fa06586d1c5c","ios":"levelo://app?vid=16992c76-93be-47ae-9428-fa06586d1c5c"},"vehicle_type_id":"4","last_reported":1737122867,"current_range_meters":28400,"station_id":"ce4bhn12rcd13ifvqgpg","pricing_plan_id":"cebpf4jnsgd1na2vs0mg"},{"bike_id":"970835d1-943b-47b1-9232-d37f9d2fce65","system_id":"levelo_inurba_marseille","lat":43.28617,"lon":5.35108,"is_reserved":false,"is_disabled":false,"rental_uris":{"android":"levelo://app?vid=970835d1-943b-47b1-9232-d37f9d2fce65","ios":"levelo://app?vid=970835d1-943b-47b1-9232-d37f9d2fce65"},"vehicle_type_id":"4","last_reported":1737122867,"current_range_meters":26800,"station_id":"ce4bhch2rcd13ifvqeug","pricing_plan_id":"cebpf4jnsgd1na2vs0mg"},{"bike_id":"cf137449-8a86-485c-9aba-e39aab8d41a4","system_id":"levelo_inurba_marseille","lat":43.28613,"lon":5.35107,"is_reserved":false,"is_disabled":false,"rental_uris":{"android":"levelo://app?vid=cf137449-8a86-485c-9aba-e39aab8d41a4","ios":"levelo://app?vid=cf137449-8a86-485c-9aba-e39aab8d41a4"},"vehicle_type_id":"4","last_reported":1737122867,"current_range_meters":24400,"station_id":"ce4bhch2rcd13ifvqeug","pricing_plan_id":"cebpf4jnsgd1na2vs0mg"},{"bike_id":"5dd56b52-f27b-4666-b627-0ecd0b453591","system_id":"levelo_inurba_marseille","lat":43.30557,"lon":5.36724,"is_reserved":false,"is_disabled":false,"rental_uris":{"android":"levelo://app?vid=5dd56b52-f27b-4666-b627-0ecd0b453591","ios":"levelo://app?vid=5dd56b52-f27b-4666-b627-0ecd0b453591"},"vehicle_type_id":"4","last_reported":1737122867,"current_range_meters":38000,"station_id":"ce4bgrp2rcd13ifvqc9g","pricing_plan_id":"cebpf4jnsgd1na2vs0mg"},{"bike_id":"c545084e-a464-43ad-a0d3-118acf76523b","system_id":"levelo_inurba_marseille","lat":43.25944,"lon":5.40909,"is_reserved":false,"is_disabled":false,"rental_uris":{"android":"levelo://app?vid=c545084e-a464-43ad-a0d3-118acf76523b","ios":"levelo://app?vid=c545084e-a464-43ad-a0d3-118acf76523b"},"vehicle_type_id":"4","last_reported":1737122867,"current_range_meters":36000,"station_id":"ce4bhm92rcd13ifvqglg","pricing_plan_id":"cebpf4jnsgd1na2vs0mg"},{"bike_id":"33218fcd-70b5-4354-99e4-b145e74477a9","system_id":"levelo_inurba_marseille","lat":43.29526,"lon":5.39398,"is_reserved":false,"is_disabled":true,"rental_uris":{"android":"levelo://app?vid=33218fcd-70b5-4354-99e4-b145e74477a9","ios":"levelo://app?vid=33218fcd-70b5-4354-99e4-b145e74477a9"},"vehicle_type_id":"4","last_reported":1737122867,"current_range_meters":36800,"station_id":"ce4bh292rcd13ifvqdf0","pricing_plan_id":"cebpf4jnsgd1na2vs0mg"},{"bike_id":"b73ba4ef-ad67-4c0f-a216-e61445a7b664","system_id":"levelo_inurba_marseille","lat":43.29172,"lon":5.37165,"is_reserved":false,"is_disabled":true,"rental_uris":{"android":"levelo://app?vid=b73ba4ef-ad67-4c0f-a216-e61445a7b664","ios":"levelo://app?vid=b73ba4ef-ad67-4c0f-a216-e61445a7b664"},"vehicle_type_id":"4","last_reported":1737122867,"current_range_meters":0,"station_id":"ce4bha92rcd13ifvqeh0","pricing_plan_id":"cebpf4jnsgd1na2vs0mg"},{"bike_id":"25444b0d-939e-4ef8-8977-3226dd5f5611","system_id":"levelo_inurba_marseille","lat":43.29557,"lon":5.39895,"is_reserved":false,"is_disabled":false,"rental_uris":{"android":"levelo://app?vid=25444b0d-939e-4ef8-8977-3226dd5f5611","ios":"levelo://app?vid=25444b0d-939e-4ef8-8977-3226dd5f5611"},"vehicle_type_id":"4","last_reported":1737122867,"current_range_meters":38800,"station_id":"ce4bh312rcd13ifvqdj0","pricing_plan_id":"cebpf4jnsgd1na2vs0mg"},{"bike_id":"7b095187-6dee-4f8a-869d-470718b7a0b4","system_id":"levelo_inurba_marseille","lat":43.30539,"lon":5.36549,"is_reserved":false,"is_disabled":false,"rental_uris":{"android":"levelo://app?vid=7b095187-6dee-4f8a-869d-470718b7a0b4","ios":"levelo://app?vid=7b095187-6dee-4f8a-869d-470718b7a0b4"},"vehicle_type_id":"4","last_reported":1737122867,"current_range_meters":13600,"station_id":"ce4bgs12rcd13ifvqcag","pricing_plan_id":"cebpf4jnsgd1na2vs0mg"},{"bike_id":"7f63b915-76e3-4f39-a9d0-728324e0f02c","system_id":"levelo_inurba_marseille","lat":43.29519,"lon":5.39042,"is_reserved":false,"is_disabled":false,"rental_uris":{"android":"levelo://app?vid=7f63b915-76e3-4f39-a9d0-728324e0f02c","ios":"levelo://app?vid=7f63b915-76e3-4f39-a9d0-728324e0f02c"},"vehicle_type_id":"4","last_reported":1737122867,"current_range_meters":38400,"station_id":"ce4bh3p2rcd13ifvqdp0","pricing_plan_id":"cebpf4jnsgd1na2vs0mg"},{"bike_id":"e0465de2-1648-4504-9618-59b63e2acad8","system_id":"levelo_inurba_marseille","lat":43.32104,"lon":5.36783,"is_reserved":false,"is_disabled":false,"rental_uris":{"android":"levelo://app?vid=e0465de2-1648-4504-9618-59b63e2acad8","ios":"levelo://app?vid=e0465de2-1648-4504-9618-59b63e2acad8"},"vehicle_type_id":"4","last_reported":1737122867,"current_range_meters":35600,"station_id":"ce4bhrh2rcd13ifvqhug","pricing_plan_id":"cebpf4jnsgd1na2vs0mg"},{"bike_id":"0a077bf0-535d-4da1-bbe1-aea99ebc0c09","system_id":"levelo_inurba_marseille","lat":43.25125,"lon":5.40316,"is_reserved":false,"is_disabled":false,"rental_uris":{"android":"levelo://app?vid=0a077bf0-535d-4da1-bbe1-aea99ebc0c09","ios":"levelo://app?vid=0a077bf0-535d-4da1-bbe1-aea99ebc0c09"},"vehicle_type_id":"4","last_reported":1737122867,"current_range_meters":15200,"station_id":"ce4bhlh2rcd13ifvqgig","pricing_plan_id":"cebpf4jnsgd1na2vs0mg"},{"bike_id":"61f6d027-7bbe-4f2a-8da9-204164873693","system_id":"levelo_inurba_marseille","lat":43.25601,"lon":5.38248,"is_reserved":false,"is_disabled":false,"rental_uris":{"android":"levelo://app?vid=61f6d027-7bbe-4f2a-8da9-204164873693","ios":"levelo://app?vid=61f6d027-7bbe-4f2a-8da9-204164873693"},"vehicle_type_id":"4","last_reported":1737122867,"current_range_meters":38800,"station_id":"ce4bhih2rcd13ifvqfs0","pricing_plan_id":"cebpf4jnsgd1na2vs0mg"},{"bike_id":"14d50ee7-3c2e-42df-8fe6-bff610a0d90b","system_id":"levelo_inurba_marseille","lat":43.27211,"lon":5.39197,"is_reserved":false,"is_disabled":false,"rental_uris":{"android":"levelo://app?vid=14d50ee7-3c2e-42df-8fe6-bff610a0d90b","ios":"levelo://app?vid=14d50ee7-3c2e-42df-8fe6-bff610a0d90b"},"vehicle_type_id":"4","last_reported":1737122867,"current_range_meters":38800,"station_id":"ce4bhhp2rcd13ifvqfm0","pricing_plan_id":"cebpf4jnsgd1na2vs0mg"},{"bike_id":"d56c9101-5834-4595-9dbc-4861d059ffd9","system_id":"levelo_inurba_marseille","lat":43.25971,"lon":5.40929,"is_reserved":false,"is_disabled":false,"rental_uris":{"android":"levelo://app?vid=d56c9101-5834-4595-9dbc-4861d059ffd9","ios":"levelo://app?vid=d56c9101-5834-4595-9dbc-4861d059ffd9"},"vehicle_type_id":"4","last_reported":1737122867,"current_range_meters":24400,"station_id":"","pricing_plan_id":"cebpf4jnsgd1na2vs0mg"},{"bike_id":"1116f425-9c6a-4910-85ac-9a6e96c21c03","system_id":"levelo_inurba_marseille","lat":43.28157,"lon":5.42637,"is_reserved":false,"is_disabled":false,"rental_uris":{"android":"levelo://app?vid=1116f425-9c6a-4910-85ac-9a6e96c21c03","ios":"levelo://app?vid=1116f425-9c6a-4910-85ac-9a6e96c21c03"},