{"last_updated":1745575861,"ttl":60,"version":"2.2","data":{"bikes":[{"bike_id":"f28aa574-2075-4d33-875f-52e026657928","system_id":"levelo_inurba_marseille","lat":43.30882,"lon":5.372,"is_reserved":false,"is_disabled":false,"rental_uris":{"android":"levelo://app?vid=f28aa574-2075-4d33-875f-52e026657928","ios":"levelo://app?vid=f28aa574-2075-4d33-875f-52e026657928"},"vehicle_type_id":"4","last_reported":1745575861,"current_range_meters":2800,"station_id":"ce4bguh2rcd13ifvqckg","pricing_plan_id":"cebpf4jnsgd1na2vs0mg"},{"bike_id":"fed3087f-a5cb-449e-a43e-200233532ee8","system_id":"levelo_inurba_marseille","lat":43.28039,"lon":5.3694,"is_reserved":false,"is_disabled":true,"rental_uris":{"android":"levelo://app?vid=fed3087f-a5cb-449e-a43e-200233532ee8","ios":"levelo://app?vid=fed3087f-a5cb-449e-a43e-200233532ee8"},"vehicle_type_id":"4","last_reported":1745575861,"current_range_meters":2800,"station_id":"ce4bha12rcd13ifvqef0","pricing_plan_id":"cebpf4jnsgd1na2vs0mg"},{"bike_id":"92c3b340-d069-4f1c-b55b-44c52f19597b","system_id":"levelo_inurba_marseille","lat":43.282567,"lon":5.37797,"is_reserved":false,"is_disabled":true,"rental_uris":{"android":"levelo://app?vid=92c3b340-d069-4f1c-b55b-44c52f19597b","ios":"levelo://app?vid=92c3b340-d069-4f1c-b55b-44c52f19597b"},"vehicle_type_id":"4","last_reported":1745575861,"current_range_meters":3600,"station_id":"","pricing_plan_id":"cebpf4jnsgd1na2vs0mg"},{"bike_id":"47c415eb-9c02-4094-bc4c-e5bc6add6cc6","system_id":"levelo_inurba_marseille","lat":43.21194,"lon":5.3507,"is_reserved":false,"is_disabled":false,"rental_uris":{"android":"levelo://app?vid=47c415eb-9c02-4094-bc4c-e5bc6add6cc6","ios":"levelo://app?vid=47c415eb-9c02-4094-bc4c-e5bc6add6cc6"},"vehicle_type_id":"4","last_reported":1745575861,"current_range_meters":3600,"station_id":"st_cvj6sg6p6f1abm77japg","pricing_plan_id":"cebpf4jnsgd1na2vs0mg"},{"bike_id":"5b16eb17-ed57-4a23-aac2-2c155ee976fc","system_id":"levelo_inurba_marseille","lat":43.22942,"lon":5.35383,"is_reserved":false,"is_disabled":true,"rental_uris":{"android":"levelo://app?vid=5b16eb17-ed57-4a23-aac2-2c155ee976fc","ios":"levelo://app?vid=5b16eb17-ed57-4a23-aac2-2c155ee976fc"},"vehicle_type_id":"4","last_reported":1745575861,"current_range_meters":3600,"station_id":"cpo3532slgdg3j2ikp40","pricing_plan_id":"cebpf4jnsgd1na2vs0mg"},{"bike_id":"e52b8da7-98f9-4e55-a025-10dea4c1f453","system_id":"levelo_inurba_marseille","lat":43.25923,"lon":5.40914,"is_reserved":false,"is_disabled":false,"rental_uris":{"android":"levelo://app?vid=e52b8da7-98f9-4e55-a025-10dea4c1f453","ios":"levelo://app?vid=e52b8da7-98f9-4e55-a025-10dea4c1f453"},"vehicle_type_id":"4","last_reported":1745575861,"current_range_meters":4000,"station_id":"ce4bhm92rcd13ifvqglg","pricing_plan_id":"cebpf4jnsgd1na2vs0mg"},{"bike_id":"04de76c4-a1ad-45bf-9e28-7c78bfcbb5c0","system_id":"levelo_inurba_marseille","lat":43.25167,"lon":5.37404,"is_reserved":false,"is_disabled":false,"rental_uris":{"android":"levelo://app?vid=04de76c4-a1ad-45bf-9e28-7c78bfcbb5c0","ios":"levelo://app?vid=04de76c4-a1ad-45bf-9e28-7c78bfcbb5c0"},"vehicle_type_id":"4","last_reported":1745575861,"current_range_meters":4400,"station_id":"","pricing_plan_id":"cebpf4jnsgd1na2vs0mg"},{"bike_id":"bd5da9d7-0302-43c1-b911-d8de0e7e57a5","system_id":"levelo_inurba_marseille","lat":43.275665,"lon":5.384217,"is_reserved":false,"is_disabled":false,"rental_uris":{"android":"levelo://app?vid=bd5da9d7-0302-43c1-b911-d8de0e7e57a5","ios":"levelo://app?vid=bd5da9d7-0302-43c1-b911-d8de0e7e57a5"},"vehicle_type_id":"4","last_reported":1745575861,"current_range_meters":4800,"station_id":"ce4bhh92rcd13ifvqfi0","pricing_plan_id":"cebpf4jnsgd1na2vs0mg"},{"bike_id":"ef2dd97d-a1ad-4167-86f6-e4d7c9cab2e4","system_id":"levelo_inurba_marseille","lat":43.32733,"lon":5.3922,"is_reserved":false,"is_disabled":false,"rental_uris":{"android":"levelo://app?vid=ef2dd97d-a1ad-4167-86f6-e4d7c9cab2e4","ios":"levelo://app?vid=ef2dd97d-a1ad-4167-86f6-e4d7c9cab2e4"},"vehicle_type_id":"4","last_reported":1745575861,"current_range_meters":4800,"station_id":"","pricing_plan_id":"cebpf4jnsgd1na2vs0mg"},{"bike_id":"eefd9914-ee3b-4027-a460-18478fc3e122","system_id":"levelo_inurba_marseille","lat":43.25721,"lon":5.41107,"is_reserved":false,"is_disabled":false,"rental_uris":{"android":"levelo://app?vid=eefd9914-ee3b-4027-a460-18478fc3e122","ios":"levelo://app?vid=eefd9914-ee3b-4027-a460-18478fc3e122"},"vehicle_type_id":"4","last_reported":1745575861,"current_range_meters":4800,"station_id":"ce4bhkp2rcd13ifvqgd0","pricing_plan_id":"cebpf4jnsgd1na2vs0mg"},{"bike_id":"85e57ba5-6f5b-4fd7-a5d4-a4ac7e63e789","system_id":"levelo_inurba_marseille","lat":43.29563,"lon":5.38524,"is_reserved":false,"is_disabled":true,"rental_uris":{"android":"levelo://app?vid=85e57ba5-6f5b-4fd7-a5d4-a4ac7e63e789","ios":"levelo://app?vid=85e57ba5-6f5b-4fd7-a5d4-a4ac7e63e789"},"vehicle_type_id":"4","last_reported":1745575861,"current_range_meters":5600,"station_id":"ce4bgih2rcd13ifvqba0","pricing_plan_id":"cebpf4jnsgd1na2vs0mg"},{"bike_id":"5d96edd7-0800-42c4-87ab-4cb1e458c657","system_id":"levelo_inurba_marseille","lat":43.28456,"lon":5.35884,"is_reserved":false,"is_disabled":false,"rental_uris":{"android":"levelo://app?vid=5d96edd7-0800-42c4-87ab-4cb1e458c657","ios":"levelo://app?vid=5d96edd7-0800-42c4-87ab-4cb1e458c657"},"vehicle_type_id":"4","last_reported":1745575861,"current_range_meters":5600,"station_id":"ce4bhah2rcd13ifvqei0","pricing_plan_id":"cebpf4jnsgd1na2vs0mg"},{"bike_id":"b3094e88-ac74-4f57-b096-b0357aadc63b","system_id":"levelo_inurba_marseille","lat":43.23153,"lon":5.43714,"is_reserved":false,"is_disabled":false,"rental_uris":{"android":"levelo://app?vid=b3094e88-ac74-4f57-b096-b0357aadc63b","ios":"levelo://app?vid=b3094e88-ac74-4f57-b096-b0357aadc63b"},"vehicle_type_id":"4","last_reported":1745575861,"current_range_meters":5600,"station_id":"ce4bhmp2rcd13ifvqgog","pricing_plan_id":"cebpf4jnsgd1na2vs0mg"},{"bike_id":"1b434e75-1869-42d2-bec4-0b9eeb715454","system_id":"levelo_inurba_marseille","lat":43.2842,"lon":5.3499,"is_reserved":false,"is_disabled":false,"rental_uris":{"android":"levelo://app?vid=1b434e75-1869-42d2-bec4-0b9eeb715454","ios":"levelo://app?vid=1b434e75-1869-42d2-bec4-0b9eeb715454"},"vehicle_type_id":"4","last_reported":1745575861,"current_range_meters":6000,"station_id":"ce4bhbh2rcd13ifvqepg","pricing_plan_id":"cebpf4jnsgd1na2vs0mg"},{"bike_id":"bc0f50aa-0759-4e48-adaa-e264ffc45886","system_id":"levelo_inurba_marseille","lat":43.29068,"lon":5.37176,"is_reserved":false,"is_disabled":false,"rental_uris":{"android":"levelo://app?vid=bc0f50aa-0759-4e48-adaa-e264ffc45886","ios":"levelo://app?vid=bc0f50aa-0759-4e48-adaa-e264ffc45886"},"vehicle_type_id":"4","last_reported":1745575861,"current_range_meters":6000,"station_id":"ce4bh5p2rcd13ifvqe4g","pricing_plan_id":"cebpf4jnsgd1na2vs0mg"},{"bike_id":"6f99535d-4291-4c4d-99f1-c22d0eb9e1f7","system_id":"levelo_inurba_marseille","lat":43.25933,"lon":5.40916,"is_reserved":false,"is_disabled":false,"rental_uris":{"android":"levelo://app?vid=6f99535d-4291-4c4d-99f1-c22d0eb9e1f7","ios":"levelo://app?vid=6f99535d-4291-4c4d-99f1-c22d0eb9e1f7"},"vehicle_type_id":"4","last_reported":1745575861,"current_range_meters":6000,"station_id":"ce4bhm92rcd13ifvqglg","pricing_plan_id":"cebpf4jnsgd1na2vs0mg"},{"bike_id":"ca07797e-e394-434d-8829-65b99d0ac4d5","system_id":"levelo_inurba_marseille","lat":43.29913,"lon":5.3813,"is_reserved":false,"is_disabled":false,"rental_uris":{"android":"levelo://app?vid=ca07797e-e394-434d-8829-65b99d0ac4d5","ios":"levelo://app?vid=ca07797e-e394-434d-8829-65b99d0ac4d5"},"vehicle_type_id":"4","last_reported":1745575861,"current_range_meters":6000,"station_id":"ce4bgj12rcd13ifvqbc0","pricing_plan_id":"cebpf4jnsgd1na2vs0mg"},{"bike_id":"a8c109b3-eef6-48a1-a1e2-85bf7fefed87","system_id":"levelo_inurba_marseille","lat":43.28411,"lon":5.34997,"is_reserved":false,"is_disabled":false,"rental_uris":{"android":"levelo://app?vid=a8c109b3-eef6-48a1-a1e2-85bf7fefed87","ios":"levelo://app?vid=a8c109b3-eef6-48a1-a1e2-85bf7fefed87"},"vehicle_type_id":"4","last_reported":1745575861,"current_range_meters":6000,"station_id":"ce4bhbh2rcd13ifvqepg","pricing_plan_id":"cebpf4jnsgd1na2vs0mg"},{"bike_id":"35ba198c-d030-4b10-b4ce-0e920c083b8c","system_id":"levelo_inurba_marseille","lat":43.25946,"lon":5.40907,"is_reserved":false,"is_disabled":false,"rental_uris":{"android":"levelo://app?vid=35ba198c-d030-4b10-b4ce-0e920c083b8c","ios":"levelo://app?vid=35ba198c-d030-4b10-b4ce-0e920c083b8c"},"vehicle_type_id":"4","last_reported":1745575861,"current_range_meters":6000,"station_id":"ce4bhm92rcd13ifvqglg","pricing_plan_id":"cebpf4jnsgd1na2vs0mg"},{"bike_id":"9f9b6b01-2abf-400e-b80c-9b8337b89ff5","system_id":"levelo_inurba_marseille","lat":43.27915,"lon":5.3872,"is_reserved":false,"is_disabled":false,"rental_uris":{"android":"levelo://app?vid=9f9b6b01-2abf-400e-b80c-9b8337b89ff5","ios":"levelo://app?vid=9f9b6b01-2abf-400e-b80c-9b8337b89ff5"},"vehicle_type_id":"4","last_reported":1745575861,"current_range_meters":6400,"station_id":"","pricing_plan_id":"cebpf4jnsgd1na2vs0mg"},{"bike_id":"afa10ca1-b787-4891-8a18-f9d395e25601","system_id":"levelo_inurba_marseille","lat":43.26041,"lon":5.40927,"is_reserved":false,"is_disabled":false,"rental_uris":{"android":"levelo://app?vid=afa10ca1-b787-4891-8a18-f9d395e25601","ios":"levelo://app?vid=afa10ca1-b787-4891-8a18-f9d395e25601"},"vehicle_type_id":"4","last_reported":1745575861,"current_range_meters":6400,"station_id":"ce4bhm92rcd13ifvqglg","pricing_plan_id":"cebpf4jnsgd1na2vs0mg"},{"bike_id":"98635f2b-e15d-453d-a28b-b57fac4e7bb3","system_id":"levelo_inurba_marseille","lat":43.28412,"lon":5.34982,"is_reserved":false,"is_disabled":false,"rental_uris":{"android":"levelo://app?vid=98635f2b-e15d-453d-a28b-b57fac4e7bb3","ios":"levelo://app?vid=98635f2b-e15d-453d-a28b-b57fac4e7bb3"},"vehicle_type_id":"4","last_reported":1745575861,"current_range_meters":6800,"station_id":"ce4bhbh2rcd13ifvqepg","pricing_plan_id":"cebpf4jnsgd1na2vs0mg"},{"bike_id":"7cdfc555-02ed-4279-9721-178636260577","system_id":"levelo_inurba_marseille","lat":43.31528,"lon":5.38037,"is_reserved":false,"is_disabled":false,"rental_uris":{"android":"levelo://app?vid=7cdfc555-02ed-4279-9721-178636260577","ios":"levelo://app?vid=7cdfc555-02ed-4279-9721-178636260577"},"vehicle_type_id":"4","last_reported":1745575861,"current_range_meters":6800,"station_id":"ce4bhsp2rcd13ifvqi50","pricing_plan_id":"cebpf4jnsgd1na2vs0mg"},{"bike_id":"e0816a70-182e-4f6c-853e-8b3af5c7f6d1","system_id":"levelo_inurba_marseille","lat":43.25,"lon":5.38934,"is_reserved":false,"is_disabled":false,"rental_uris":{"android":"levelo://app?vid=e0816a70-182e-4f6c-853e-8b3af5c7f6d1","ios":"levelo://app?vid=e0816a70-182e-4f6c-853e-8b3af5c7f6d1"},"vehicle_type_id":"4","last_reported":1745575861,"current_range_meters":6800,"station_id":"ce4bhgp2rcd13ifvqfd0","pricing_plan_id":"cebpf4jnsgd1na2vs0mg"},{"bike_id":"141535cf-fb3b-46b7-aef5-8d6d20a2c722","system_id":"levelo_inurba_marseille","lat":43.281165,"lon":5.378215,"is_reserved":false,"is_disabled":false,"rental_uris":{"android":"levelo://app?vid=141535cf-fb3b-46b7-aef5-8d6d20a2c722","ios":"levelo://app?vid=141535cf-fb3b-46b7-aef5-8d6d20a2c722"},"vehicle_type_id":"4","last_reported":1745575861,"current_range_meters":6800,"station_id":"ce4bha12rcd13ifvqee0","pricing_plan_id":"cebpf4jnsgd1na2vs0mg"},{"bike_id":"8b8bd9b0-acb1-46f9-8b53-f589167bc055","system_id":"levelo_inurba_marseille","lat":43.33023,"lon":5.39043,"is_reserved":false,"is_disabled":false,"rental_uris":{"android":"levelo://app?vid=8b8bd9b0-acb1-46f9-8b53-f589167bc055","ios":"levelo://app?vid=8b8bd9b0-acb1-46f9-8b53-f589167bc055"},"vehicle_type_id":"4","last_reported":1745575861,"current_range_meters":6800,"station_id":"ce4bhr92rcd13ifvqhrg","pricing_plan_id":"cebpf4jnsgd1na2vs0mg"},{"bike_id":"51580656-8dbe-4fb6-82f7-38a939088f1d","system_id":"levelo_inurba_marseille","lat":43.29869,"lon":5.39754,"is_reserved":false,"is_disabled":false,"rental_uris":{"android":"levelo://app?vid=51580656-8dbe-4fb6-82f7-38a939088f1d","ios":"levelo://app?vid=51580656-8dbe-4fb6-82f7-38a939088f1d"},"vehicle_type_id":"4","last_reported":1745575861,"current_range_meters":7200,"station_id":"ce4bh0h2rcd13ifvqd50","pricing_plan_id":"cebpf4jnsgd1na2vs0mg"},{"bike_id":"4ab6bc02-32cf-4c5b-8e00-93978cd7dbda","system_id":"levelo_inurba_marseille","lat":43.341425,"lon":5.409088,"is_reserved":false,"is_disabled":false,"rental_uris":{"android":"levelo://app?vid=4ab6bc02-32cf-4c5b-8e00-93978cd7dbda","ios":"levelo://app?vid=4ab6bc02-32cf-4c5b-8e00-93978cd7dbda"},"vehicle_type_id":"4","last_reported":1745575861,"current_range_meters":7200,"station_id":"ce4bhqh2rcd13ifvqhlg","pricing_plan_id":"cebpf4jnsgd1na2vs0mg"},{"bike_id":"9d16ad86-9ee6-430b-bde1-d7870d768403","system_id":"levelo_inurba_marseille","lat":43.25944,"lon":5.40899,"is_reserved":false,"is_disabled":false,"rental_uris":{"android":"levelo://app?vid=9d16ad86-9ee6-430b-bde1-d7870d768403","ios":"levelo://app?vid=9d16ad86-9ee6-430b-bde1-d7870d768403"},"vehicle_type_id":"4","last_reported":1745575861,"current_range_meters":7200,"station_id":"ce4bhm92rcd13ifvqglg","pricing_plan_id":"cebpf4jnsgd1na2vs0mg"},{"bike_id":"f587b1ad-8767-42fd-bb98-bdf1bb330f9a","system_id":"levelo_inurba_marseille","lat":43.32695,"lon":5.42035,"is_reserved":false,"is_disabled":false,"rental_uris":{"android":"levelo://app?vid=f587b1ad-8767-42fd-bb98-bdf1bb330f9a","ios":"levelo://app?vid=f587b1ad-8767-42fd-bb98-bdf1bb330f9a"},"vehicle_type_id":"4","last_reported":1745575861,"current_range_meters":7200,"station_id":"","pricing_plan_id":"cebpf4jnsgd1na2vs0mg"},{"bike_id":"0832d14f-2b13-4ae4-915b-e3843a1a729b","system_id":"levelo_inurba_marseille","lat":43.25725,"lon":5.41105,"is_reserved":false,"is_disabled":false,"rental_uris":{"android":"levelo://app?vid=0832d14f-2b13-4ae4-915b-e3843a1a729b","ios":"levelo://app?vid=0832d14f-2b13-4ae4-915b-e3843a1a729b"},"vehicle_type_id":"4","last_reported":1745575861,"current_range_meters":7200,"station_id":"ce4bhkp2rcd13ifvqgd0","pricing_plan_id":"cebpf4jnsgd1na2vs0mg"},{"bike_id":"b7a1760d-1f57-464a-b595-36a69be63767","system_id":"levelo_inurba_marseille","lat":43.337444,"lon":5.374475,"is_reserved":false,"is_disabled":false,"rental_uris":{"android":"levelo://app?vid=b7a1760d-1f57-464a-b595-36a69be63767","ios":"levelo://app?vid=b7a1760d-1f57-464a-b595-36a69be63767"},"vehicle_type_id":"4","last_reported":1745575861,"current_range_meters":7200,"station_id":"","pricing_plan_id":"cebpf4jnsgd1na2vs0mg"},{"bike_id":"b409c654-c39d-46c3-a11e-40aa0082a99d","system_id":"levelo_inurba_marseille","lat":43.27814,"lon":5.40712,"is_reserved":false,"is_disabled":false,"rental_uris":{"android":"levelo://app?vid=b409c654-c39d-46c3-a11e-40aa0082a99d","ios":"levelo://app?vid=b409c654-c39d-46c3-a11e-40aa0082a99d"},"vehicle_type_id":"4","last_reported":1745575861,"current_range_meters":7200,"station_id":"ce4bhnh2rcd13ifvqgtg","pricing_plan_id":"cebpf4jnsgd1na2vs0mg"},{"bike_id":"318eeea6-fce6-4352-9847-83e801125a11","system_id":"levelo_inurba_marseille","lat":43.27942,"lon":5.41044,"is_reserved":false,"is_disabled":false,"rental_uris":{"android":"levelo://app?vid=318eeea6-fce6-4352-9847-83e801125a11","ios":"levelo://app?vid=318eeea6-fce6-4352-9847-83e801125a11"},"vehicle_type_id":"4","last_reported":1745575861,"current_range_meters":8000,"station_id":"ce4bhnp2rcd13ifvqh0g","pricing_plan_id":"cebpf4jnsgd1na2vs0mg"},{"bike_id":"46374c49-3adc-4c5a-8966-e00f056c0d57","system_id":"levelo_inurba_marseille","lat":43.27846,"lon":5.35442,"is_reserved":false,"is_disabled":false,"rental_uris":{"android":"levelo://app?vid=46374c49-3adc-4c5a-8966-e00f056c0d57","ios":"levelo://app?vid=46374c49-3adc-4c5a-8966-e00f056c0d57"},"vehicle_type_id":"4","last_reported":1745575861,"current_range_meters":8000,"station_id":"","pricing_plan_id":"cebpf4jnsgd1na2vs0mg"},{"bike_id":"9a2a7fc7-e76b-4eed-8d68-c3cd3e3f01be","system_id":"levelo_inurba_marseille","lat":43.24391,"lon":5.37052,"is_reserved":false,"is_disabled":false,"rental_uris":{"android":"levelo://app?vid=9a2a7fc7-e76b-4eed-8d68-c3cd3e3f01be","ios":"levelo://app?vid=9a2a7fc7-e76b-4eed-8d68-c3cd3e3f01be"},"vehicle_type_id":"4","last_reported":1745575861,"current_range_meters":8000,"station_id":"ce4bhhh2rcd13ifvqfk0","pricing_plan_id":"cebpf4jnsgd1na2vs0mg"},{"bike_id":"db5db989-763a-41e9-b1a8-88e933ad9a66","system_id":"levelo_inurba_marseille","lat":43.32484,"lon":5.3656,"is_reserved":false,"is_disabled":false,"rental_uris":{"android":"levelo://app?vid=db5db989-763a-41e9-b1a8-88e933ad9a66","ios":"levelo://app?vid=db5db989-763a-41e9-b1a8-88e933ad9a66"},"vehicle_type_id":"4","last_reported":1745575861,"current_range_meters":8000,"station_id":"ce4bhs12rcd13ifvqhvg","pricing_plan_id":"cebpf4jnsgd1na2vs0mg"},{"bike_id":"44c0201e-c9f3-4ec8-9f19-45cfbbe2ef08","system_id":"levelo_inurba_marseille","lat":43.25507,"lon":5.37631,"is_reserved":false,"is_disabled":false,"rental_uris":{"android":"levelo://app?vid=44c0201e-c9f3-4ec8-9f19-45cfbbe2ef08","ios":"levelo://app?vid=44c0201e-c9f3-4ec8-9f19-45cfbbe2ef08"},"vehicle_type_id":"4","last_reported":1745575861,"current_range_meters":8000,"station_id":"ce4bhh12rcd13ifvqff0","pricing_plan_id":"cebpf4jnsgd1na2vs0mg"},{"bike_id":"2686948c-9820-4401-8134-ee2a9d1934f7","system_id":"levelo_inurba_marseille","lat":43.24663,"lon":5.38611,"is_reserved":false,"is_disabled":false,"rental_uris":{"android":"levelo://app?vid=2686948c-9820-4401-8134-ee2a9d1934f7","ios":"levelo://app?vid=2686948c-9820-4401-8134-ee2a9d1934f7"},"vehicle_type_id":"4","last_reported":1745575861,"current_range_meters":8000,"station_id":"","pricing_plan_id":"cebpf4jnsgd1na2vs0mg"},{"bike_id":"1c762556-d1a5-47cf-8b55-79517f258d48","system_id":"levelo_inurba_marseille","lat":43.21201,"lon":5.35075,"is_reserved":false,"is_disabled":false,"rental_uris":{"android":"levelo://app?vid=1c762556-d1a5-47cf-8b55-79517f258d48","ios":"levelo://app?vid=1c762556-d1a5-47cf-8b55-79517f258d48"},"vehicle_type_id":"4","last_reported":1745575861,"current_range_meters":2800,"station_id":"st_cvj6sg6p6f1abm77japg","pricing_plan_id":"cebpf4jnsgd1na2vs0mg"},{"bike_id":"8a394953-fc59-42a2-ae5c-ade04897b562","system_id":"levelo_inurba_marseille","lat":43.2416,"lon":5.36402,"is_reserved":false,"is_disabled":false,"rental_uris":{"android":"levelo://app?vid=8a394953-fc59-42a2-ae5c-ade04897b562","ios":"levelo://app?vid=8a394953-fc59-42a2-ae5c-ade04897b562"},"vehicle_type_id":"4","last_reported":1745575861,"current_range_meters":8400,"station_id":"cpo36qri1sfpv3e86is0","pricing_plan_id":"cebpf4jnsgd1na2vs0mg"},{"bike_id":"2cb0e9f7-65f6-4a5b-bfdd-4db65c42a90b","system_id":"levelo_inurba_marseille","lat":43.28422,"lon":5.34993,"is_reserved":false,"is_disabled":false,"rental_uris":{"android":"levelo://app?vid=2cb0e9f7-65f6-4a5b-bfdd-4db65c42a90b","ios":"levelo://app?vid=2cb0e9f7-65f6-4a5b-bfdd-4db65c42a90b"},"vehicle_type_id":"4","last_reported":1745575861,"current_range_meters":8400,"station_id":"ce4bhbh2rcd13ifvqepg","pricing_plan_id":"cebpf4jnsgd1na2vs0mg"},{"bike_id":"ff6c8473-772c-4304-8a51-f14bf243489f","system_id":"levelo_inurba_marseille","lat":43.27669,"lon":5.38894,"is_reserved":false,"is_disabled":false,"rental_uris":{"android":"levelo://app?vid=ff6c8473-772c-4304-8a51-f14bf243489f","ios":"levelo://app?vid=ff6c8473-772c-4304-8a51-f14bf243489f"},"vehicle_type_id":"4","last_reported":1745575861,"current_range_meters":8400,"station_id":"ce4bhi12rcd13ifvqfo0","pricing_plan_id":"cebpf4jnsgd1na2vs0mg"},{"bike_id":"8d3960a5-2731-412e-99c2-565aa3920eb1","system_id":"levelo_inurba_marseille","lat":43.27949,"lon":5.39332,"is_reserved":false,"is_disabled":false,"rental_uris":{"android":"levelo://app?vid=8d3960a5-2731-412e-99c2-565aa3920eb1","ios":"levelo://app?vid=8d3960a5-2731-412e-99c2-565aa3920eb1"},"vehicle_type_id":"4","last_reported":1745575861,"current_range_meters":8400,"station_id":"","pricing_plan_id":"cebpf4jnsgd1na2vs0mg"},{"bike_id":"b521b6aa-5035-4633-9de8-934500210723","system_id":"levelo_inurba_marseille","lat":43.28432,"lon":5.39185,"is_reserved":false,"is_disabled":false,"rental_uris":{"android":"levelo://app?vid=b521b6aa-5035-4633-9de8-934500210723","ios":"levelo://app?vid=b521b6aa-5035-4633-9de8-934500210723"},"vehicle_type_id":"4","last_reported":1745575861,"current_range_meters":8400,"station_id":"ce4bhoh2rcd13ifvqh5g","pricing_plan_id":"cebpf4jnsgd1na2vs0mg"},{"bike_id":"01005842-43b5-4213-b5e7-972765c94108","system_id":"levelo_inurba_marseille","lat":43.28426,"lon":5.3499,"is_reserved":false,"is_disabled":false,"rental_uris":{"android":"levelo://app?vid=01005842-43b5-4213-b5e7-972765c94108","ios":"levelo://app?vid=01005842-43b5-4213-b5e7-972765c94108"},"vehicle_type_id":"4","last_reported":1745575861,"current_range_meters":8400,"station_id":"ce4bhbh2rcd13ifvqepg","pricing_plan_id":"cebpf4jnsgd1na2vs0mg"},{"bike_id":"27c716cb-c4e0-41b9-bd1b-b40383997fef","system_id":"levelo_inurba_marseille","lat":43.25595,"lon":5.38213,"is_reserved":false,"is_disabled":false,"rental_uris":{"android":"levelo://app?vid=27c716cb-c4e0-41b9-bd1b-b40383997fef","ios":"levelo://app?vid=27c716cb-c4e0-41b9-bd1b-b40383997fef"},"vehicle_type_id":"4","last_reported":1745575861,"current_range_meters":8800,"station_id":"ce4bhih2rcd13ifvqfs0","pricing_plan_id":"cebpf4jnsgd1na2vs0mg"},{"bike_id":"f61f9b03-e055-47b7-9cda-da22b923ec7e","system_id":"levelo_inurba_marseille","lat":43.25944,"lon":5.40899,"is_reserved":false,"is_disabled":false,"rental_uris":{"android":"levelo://app?vid=f61f9b03-e055-47b7-9cda-da22b923ec7e","ios":"levelo://app?vid=f61f9b03-e055-47b7-9cda-da22b923ec7e"},"vehicle_type_id":"4","last_reported":1745575861,"current_range_meters":8800,"station_id":"ce4bhm92rcd13ifvqglg","pricing_plan_id":"cebpf4jnsgd1na2vs0mg"},{"bike_id":"a8560a42-c895-4dcf-be6e-3f33e9427064","system_id":"levelo_inurba_marseille","lat":43.29881,"lon":5.39734,"is_reserved":false,"is_disabled":false,"rental_uris":{"android":"levelo://app?vid=a8560a42-c895-4dcf-be6e-3f33e9427064","ios":"levelo://app?vid=a8560a42-c895-4dcf-be6e-3f33e9427064"},"vehicle_type_id":"4","last_reported":1745575861,"current_range_meters":8400,"station_id":"ce4bh0h2rcd13ifvqd50","pricing_plan_id":"cebpf4jnsgd1na2vs0mg"},{"bike_id":"5e08acbd-8721-4a55-a4d1-cd80bf06608f","system_id":"levelo_inurba_marseille","lat":43.24802,"lon":5.374538,"is_reserved":false,"is_disabled":false,"rental_uris":{"android":"levelo://app?vid=5e08acbd-8721-4a55-a4d1-cd80bf06608f","ios":"levelo://app?vid=5e08acbd-8721-4a55-a4d1-cd80bf06608f"},"vehicle_type_id":"4","last_reported":1745575861,"current_range_meters":8400,"station_id":"ce4bhi12rcd13ifvqfp0","pricing_plan_id":"cebpf4jnsgd1na2vs0mg"},{"bike_id":"60ee52f6-3432-4a14-b3b4-c3acf981d864","system_id":"levelo_inurba_marseille","lat":43.21758,"lon":5.34589,"is_reserved":false,"is_disabled":false,"rental_uris":{"android":"levelo://app?vid=60ee52f6-3432-4a14-b3b4-c3acf981d864","ios":"levelo://app?vid=60ee52f6-3432-4a14-b3b4-c3acf981d864"},"vehicle_type_id":"4","last_reported":1745575861,"current_range_meters":8800,"station_id":"st_cvj6r9ubvosntc0bgbag","pricing_plan_id":"cebpf4jnsgd1na2vs0mg"},{"bike_id":"bf469790-5900-4298-96db-d05f6b633992","system_id":"levelo_inurba_marseille","lat":43.28844,"lon":5.39309,"is_reserved":false,"is_disabled":false,"rental_uris":{"android":"levelo://app?vid=bf469790-5900-4298-96db-d05f6b633992","ios":"levelo://app?vid=bf469790-5900-4298-96db-d05f6b633992"},"vehicle_type_id":"4","last_reported":1745575861,"current_range_meters":8400,"station_id":"ce4bh2p2rcd13ifvqdi0","pricing_plan_id":"cebpf4jnsgd1na2vs0mg"},{"bike_id":"4ae2ab2d-99f6-469c-be1e-4728fae7ba85","system_id":"levelo_inurba_marseille","lat":43.25869,"lon":5.39895,"is_reserved":false,"is_disabled":false,"rental_uris":{"android":"levelo://app?vid=4ae2ab2d-99f6-469c-be1e-4728fae7ba85","ios":"levelo://app?vid=4ae2ab2d-99f6-469c-be1e-4728fae7ba85"},"vehicle_type_id":"4","last_reported":1745575861,"current_range_meters":8800,"station_id":"ce4bhl92rcd13ifvqghg","pricing_plan_id":"cebpf4jnsgd1na2vs0mg"},{"bike_id":"e2c6fe2f-ee90-4591-b9e5-11b0a2408b99","system_id":"levelo_inurba_marseille","lat":43.286163,"lon":5.350989,"is_reserved":false,"is_disabled":false,"rental_uris":{"android":"levelo://app?vid=e2c6fe2f-ee90-4591-b9e5-11b0a2408b99","ios":"levelo://app?vid=e2c6fe2f-ee90-4591-b9e5-11b0a2408b99"},"vehicle_type_id":"4","last_reported":1745575861,"current_range_meters":9200,"station_id":"ce4bhb92rcd13ifvqen0","pricing_plan_id":"cebpf4jnsgd1na2vs0mg"},{"bike_id":"cfa34a75-efec-4eb8-a020-77feca0ad5e2","system_id":"levelo_inurba_marseille","lat":43.21196,"lon":5.35065,"is_reserved":false,"is_disabled":false,"rental_uris":{"android":"levelo://app?vid=cfa34a75-efec-4eb8-a020-77feca0ad5e2","ios":"levelo://app?vid=cfa34a75-efec-4eb8-a020-77feca0ad5e2"},"vehicle_type_id":"4","last_reported":1745575861,"current_range_meters":9200,"station_id":"st_cvj6sg6p6f1abm77japg","pricing_plan_id":"cebpf4jnsgd1na2vs0mg"},{"bike_id":"ac5c5de7-7ad6-478d-a966-7f4240d265db","system_id":"levelo_inurba_marseille","lat":43.31255,"lon":5.37167,"is_reserved":false,"is_disabled":false,"rental_uris":{"android":"levelo://app?vid=ac5c5de7-7ad6-478d-a966-7f4240d265db","ios":"levelo://app?vid=ac5c5de7-7ad6-478d-a966-7f4240d265db"},"vehicle_type_id":"4","last_reported":1745575861,"current_range_meters":9200,"station_id":"","pricing_plan_id":"cebpf4jnsgd1na2vs0mg"},{"bike_id":"2d57cfc0-ec9e-4e31-96d7-992332debd6e","system_id":"levelo_inurba_marseille","lat":43.23155,"lon":5.43712,"is_reserved":false,"is_disabled":false,"rental_uris":{"android":"levelo://app?vid=2d57cfc0-ec9e-4e31-96d7-992332debd6e","ios":"levelo://app?vid=2d57cfc0-ec9e-4e31-96d7-992332debd6e"},"vehicle_type_id":"4","last_reported":1745575861,"current_range_meters":9200,"station_id":"ce4bhmp2rcd13ifvqgog","pricing_plan_id":"cebpf4jnsgd1na2vs0mg"},{"bike_id":"d4a8fafa-88a7-48bf-b5a7-839e5bc03db8","system_id":"levelo_inurba_marseille","lat":43.25027,"lon":5.38911,"is_reserved":false,"is_disabled":false,"rental_uris":{"android":"levelo://app?vid=d4a8fafa-88a7-48bf-b5a7-839e5bc03db8","ios":"levelo://app?vid=d4a8fafa-88a7-48bf-b5a7-839e5bc03db8"},"vehicle_type_id":"4","last_reported":1745575861,"current_range_meters":9200,"station_id":"ce4bhgp2rcd13ifvqfd0","pricing_plan_id":"cebpf4jnsgd1na2vs0mg"},{"bike_id":"b95485d8-d4e4-42b2-947a-4f3dd8f96850","system_id":"levelo_inurba_marseille","lat":43.28667,"lon":5.38685,"is_reserved":false,"is_disabled":false,"rental_uris":{"android":"levelo://app?vid=b95485d8-d4e4-42b2-947a-4f3dd8f96850","ios":"levelo://app?vid=b95485d8-d4e4-42b2-947a-4f3dd8f96850"},"vehicle_type_id":"4","last_reported":1745575861,"current_range_meters":9600,"station_id":"ce4bh492rcd13ifvqdug","pricing_plan_id":"cebpf4jnsgd1na2vs0mg"},{"bike_id":"bcde3a77-f9c9-48b7-8b13-643a2426b61d","system_id":"levelo_inurba_marseille","lat":43.240417,"lon":5.377558,"is_reserved":false,"is_disabled":false,"rental_uris":{"android":"levelo://app?vid=bcde3a77-f9c9-48b7-8b13-643a2426b61d","ios":"levelo://app?vid=bcde3a77-f9c9-48b7-8b13-643a2426b61d"},"vehicle_type_id":"4","last_reported":1745575861,"current_range_meters":9600,"station_id":"ce4bhah2rcd13ifvqei0","pricing_plan_id":"cebpf4jnsgd1na2vs0mg"},{"bike_id":"7c6619f6-b320-4934-af78-a3dcb47f7d8a","system_id":"levelo_inurba_marseille","lat":43.31123,"lon":5.37766,"is_reserved":false,"is_disabled":false,"rental_uris":{"android":"levelo://app?vid=7c6619f6-b320-4934-af78-a3dcb47f7d8a","ios":"levelo://app?vid=7c6619f6-b320-4934-af78-a3dcb47f7d8a"},"vehicle_type_id":"4","last_reported":1745575861,"current_range_meters":9600,"station_id":"ce4bgt92rcd13ifvqcg0","pricing_plan_id":"cebpf4jnsgd1na2vs0mg"},{"bike_id":"d3b61471-0b42-44a1-a120-79a49d466c7c","system_id":"levelo_inurba_marseille","lat":43.24811,"lon":5.37464,"is_reserved":false,"is_disabled":false,"rental_uris":{"android":"levelo://app?vid=d3b61471-0b42-44a1-a120-79a49d466c7c","ios":"levelo://app?vid=d3b61471-0b42-44a1-a120-79a49d466c7c"},"vehicle_type_id":"4","last_reported":1745575861,"current_range_meters":9600,"station_id":"ce4bhgh2rcd13ifvqfb0","pricing_plan_id":"cebpf4jnsgd1na2vs0mg"},{"bike_id":"6b0d1ec6-0d77-4bd1-9dce-9054c2481ed1","system_id":"levelo_inurba_marseille","lat":43.24377,"lon":5.37046,"is_reserved":false,"is_disabled":false,"rental_uris":{"android":"levelo://app?vid=6b0d1ec6-0d77-4bd1-9dce-9054c2481ed1","ios":"levelo://app?vid=6b0d1ec6-0d77-4bd1-9dce-9054c2481ed1"},"vehicle_type_id":"4","last_reported":1745575861,"current_range_meters":9600,"station_id":"ce4bhhh2rcd13ifvqfk0","pricing_plan_id":"cebpf4jnsgd1na2vs0mg"},{"bike_id":"df4bf57e-1775-40b2-994e-c9e7063ca69e","system_id":"levelo_inurba_marseille","lat":43.26804,"lon":5.40261,"is_reserved":false,"is_disabled":false,"rental_uris":{"android":"levelo://app?vid=df4bf57e-1775-40b2-994e-c9e7063ca69e","ios":"levelo://app?vid=df4bf57e-1775-40b2-994e-c9e7063ca69e"},"vehicle_type_id":"4","last_reported":1745575861,"current_range_meters":10000,"station_id":"ce501612rcd8frsf0b60","pricing_plan_id":"cebpf4jnsgd1na2vs0mg"},{"bike_id":"4c3df368-95c0-4c68-8737-041a42223f48","system_id":"levelo_inurba_marseille","lat":43.29003,"lon":5.35618,"is_reserved":false,"is_disabled":false,"rental_uris":{"android":"levelo://app?vid=4c3df368-95c0-4c68-8737-041a42223f48","ios":"levelo://app?vid=4c3df368-95c0-4c68-8737-041a42223f48"},"vehicle_type_id":"4","last_reported":1745575861,"current_range_meters":10000,"station_id":"ce4bhb92rcd13ifvqen0","pricing_plan_id":"cebpf4jnsgd1na2vs0mg"},{"bike_id":"b1288da2-6a65-44a2-b3cb-535de8427b1c","system_id":"levelo_inurba_marseille","lat":43.31315,"lon":5.3675,"is_reserved":false,"is_disabled":true,"rental_uris":{"android":"levelo://app?vid=b1288da2-6a65-44a2-b3cb-535de8427b1c","ios":"levelo://app?vid=b1288da2-6a65-44a2-b3cb-535de8427b1c"},"vehicle_type_id":"4","last_reported":1745575861,"current_range_meters":10000,"station_id":"ce4bgr92rcd13ifvqc6g","pricing_plan_id":"cebpf4jnsgd1na2vs0mg"},{"bike_id":"53d0a9a9-20a9-487e-893c-b675a9c66550","system_id":"levelo_inurba_marseille","lat":43.24185,"lon":5.36383,"is_reserved":false,"is_disabled":false,"rental_uris":{"android":"levelo://app?vid=53d0a9a9-20a9-487e-893c-b675a9c66550","ios":"levelo://app?vid=53d0a9a9-20a9-487e-893c-b675a9c66550"},"vehicle_type_id":"4","last_reported":1745575861,"current_range_meters":10000,"station_id":"cpo36qri1sfpv3e86is0","pricing_plan_id":"cebpf4jnsgd1na2vs0mg"},{"bike_id":"1878b7d1-2055-4cb8-8c3b-1a74fd02801d","system_id":"levelo_inurba_marseille","lat":43.29037,"lon":5.3997,"is_reserved":false,"is_disabled":false,"rental_uris":{"android":"levelo://app?vid=1878b7d1-2055-4cb8-8c3b-1a74fd02801d","ios":"levelo://app?vid=1878b7d1-2055-4cb8-8c3b-1a74fd02801d"},"vehicle_type_id":"4","last_reported":1745575861,"current_range_meters":10000,"station_id":"ce4bh392rcd13ifvqdm0","pricing_plan_id":"cebpf4jnsgd1na2vs0mg"},{"bike_id":"967aee40-6ee8-4ac1-98af-80933f5c4521","system_id":"levelo_inurba_marseille","lat":43.259331,"lon":5.409087,"is_reserved":false,"is_disabled":false,"rental_uris":{"android":"levelo://app?vid=967aee40-6ee8-4ac1-98af-80933f5c4521","ios":"levelo://app?vid=967aee40-6ee8-4ac1-98af-80933f5c4521"},"vehicle_type_id":"4","last_reported":1745575861,"current_range_meters":10000,"station_id":"ce4bhm92rcd13ifvqglg","pricing_plan_id":"cebpf4jnsgd1na2vs0mg"},{"bike_id":"2537d0b2-d84a-4600-9d54-2c3ddf093322","system_id":"levelo_inurba_marseille","lat":43.284,"lon":5.34995,"is_reserved":false,"is_disabled":false,"rental_uris":{"android":"levelo://app?vid=2537d0b2-d84a-4600-9d54-2c3ddf093322","ios":"levelo://app?vid=2537d0b2-d84a-4600-9d54-2c3ddf093322"},"vehicle_type_id":"4","last_reported":1745575861,"current_range_meters":10800,"station_id":"ce4bhbh2rcd13ifvqepg","pricing_plan_id":"cebpf4jnsgd1na2vs0mg"},{"bike_id":"6f2e7c26-f378-4dd2-93af-a9efbe1efa3b","system_id":"levelo_inurba_marseille","lat":43.27177,"lon":5.40997,"is_reserved":false,"is_disabled":false,"rental_uris":{"android":"levelo://app?vid=6f2e7c26-f378-4dd2-93af-a9efbe1efa3b","ios":"levelo://app?vid=6f2e7c26-f378-4dd2-93af-a9efbe1efa3b"},"vehicle_type_id":"4","last_reported":1745575861,"current_range_meters":10000,"station_id":"ce4bhl12rcd13ifvqgf0","pricing_plan_id":"cebpf4jnsgd1na2vs0mg"},{"bike_id":"5155b214-8852-41cd-9338-874fb2bc45ae","system_id":"levelo_inurba_marseille","lat":43.28044,"lon":5.35637,"is_reserved":false,"is_disabled":false,"rental_uris":{"android":"levelo://app?vid=5155b214-8852-41cd-9338-874fb2bc45ae","ios":"levelo://app?vid=5155b214-8852-41cd-9338-874fb2bc45ae"},"vehicle_type_id":"4","last_reported":1745575861,"current_range_meters":10800,"station_id":"","pricing_plan_id":"cebpf4jnsgd1na2vs0mg"},{"bike_id":"ee2be91b-8cfe-457c-88eb-b6305668ecaf","system_id":"levelo_inurba_marseille","lat":43.27811,"lon":5.4071,"is_reserved":false,"is_disabled":false,"rental_uris":{"android":"levelo://app?vid=ee2be91b-8cfe-457c-88eb-b6305668ecaf","ios":"levelo://app?vid=ee2be91b-8cfe-457c-88eb-b6305668ecaf"},"vehicle_type_id":"4","last_reported":1745575861,"current_range_meters":10800,"station_id":"ce4bhnh2rcd13ifvqgtg","pricing_plan_id":"cebpf4jnsgd1na2vs0mg"},{"bike_id":"4da82ac5-83fe-462e-b2ef-028dfdeb2bbc","system_id":"levelo_inurba_marseille","lat":43.217486,"lon":5.345978,"is_reserved":false,"is_disabled":false,"rental_uris":{"android":"levelo://app?vid=4da82ac5-83fe-462e-b2ef-028dfdeb2bbc","ios":"levelo://app?vid=4da82ac5-83fe-462e-b2ef-028dfdeb2bbc"},"vehicle_type_id":"4","last_reported":1745575861,"current_range_meters":10800,"station_id":"st_cvj6r9ubvosntc0bgbag","pricing_plan_id":"cebpf4jnsgd1na2vs0mg"},{"bike_id":"61d21c0b-69d2-40de-a9f0-28a981c8a97d","system_id":"levelo_inurba_marseille","lat":43.30929,"lon":5.36834,"is_reserved":false,"is_disabled":false,"rental_uris":{"android":"levelo://app?vid=61d21c0b-69d2-40de-a9f0-28a981c8a97d","ios":"levelo://app?vid=61d21c0b-69d2-40de-a9f0-28a981c8a97d"},"vehicle_type_id":"4","last_reported":1745575861,"current_range_meters":10800,"station_id":"ce4bgn92rcd13ifvqbvg","pricing_plan_id":"cebpf4jnsgd1na2vs0mg"},{"bike_id":"a74b4cc8-de0e-4eab-8879-88bc828ddde3","system_id":"levelo_inurba_marseille","lat":43.300959,"lon":5.391233,"is_reserved":false,"is_disabled":false,"rental_uris":{"android":"levelo://app?vid=a74b4cc8-de0e-4eab-8879-88bc828ddde3","ios":"levelo://app?vid=a74b4cc8-de0e-4eab-8879-88bc828ddde3"},"vehicle_type_id":"4","last_reported":1745575861,"current_range_meters":11200,"station_id":"ce4bh192rcd13ifvqdb0","pricing_plan_id":"cebpf4jnsgd1na2vs0mg"},{"bike_id":"47c89d79-4bd0-42e5-89a9-54005b4fe4ce","system_id":"levelo_inurba_marseille","lat":43.254943,"lon":5.376477,"is_reserved":false,"is_disabled":false,"rental_uris":{"android":"levelo://app?vid=47c89d79-4bd0-42e5-89a9-54005b4fe4ce","ios":"levelo://app?vid=47c89d79-4bd0-42e5-89a9-54005b4fe4ce"},"vehicle_type_id":"4","last_reported":1745575861,"current_range_meters":11200,"station_id":"ce4bhh12rcd13ifvqff0","pricing_plan_id":"cebpf4jnsgd1na2vs0mg"},{"bike_id":"ca5dd5af-0188-4448-9145-8f6c9b576b27","system_id":"levelo_inurba_marseille","lat":43.295309,"lon":5.390433,"is_reserved":false,"is_disabled":false,"rental_uris":{"android":"levelo://app?vid=ca5dd5af-0188-4448-9145-8f6c9b576b27","ios":"levelo://app?vid=ca5dd5af-0188-4448-9145-8f6c9b576b27"},"vehicle_type_id":"4","last_reported":1745575861,"current_range_meters":11200,"station_id":"ce4bh3p2rcd13ifvqdp0","pricing_plan_id":"cebpf4jnsgd1na2vs0mg"},{"bike_id":"dc6fb1c9-786c-40bf-8583-1a589c6191d1","system_id":"levelo_inurba_marseille","lat":43.292794,"lon":5.374634,"is_reserved":false,"is_disabled":false,"rental_uris":{"android":"levelo://app?vid=dc6fb1c9-786c-40bf-8583-1a589c6191d1","ios":"levelo://app?vid=dc6fb1c9-786c-40bf-8583-1a589c6191d1"},"vehicle_type_id":"4","last_reported":1745575861,"current_range_meters":10800,"station_id":"ce4bgi12rcd13ifvqb70","pricing_plan_id":"cebpf4jnsgd1na2vs0mg"},{"bike_id":"32ebd854-6bac-4169-98b6-4b4662994702","system_id":"levelo_inurba_marseille","lat":43.26694,"lon":5.38262,"is_reserved":false,"is_disabled":false,"rental_uris":{"android":"levelo://app?vid=32ebd854-6bac-4169-98b6-4b4662994702","ios":"levelo://app?vid=32ebd854-6bac-4169-98b6-4b4662994702"},"vehicle_type_id":"4","last_reported":1745575861,"current_range_meters":11600,"station_id":"ce4bhg92rcd13ifvqf90","pricing_plan_id":"cebpf4jnsgd1na2vs0mg"},{"bike_id":"3333e485-3ab8-4ee9-a3c9-b9c233c582fe","system_id":"levelo_inurba_marseille","lat":43.286133,"lon":5.351052,"is_reserved":false,"is_disabled":false,"rental_uris":{"android":"levelo://app?vid=3333e485-3ab8-4ee9-a3c9-b9c233c582fe","ios":"levelo://app?vid=3333e485-3ab8-4ee9-a3c9-b9c233c582fe"},"vehicle_type_id":"4","last_reported":1745575861,"current_range_meters":11600,"station_id":"ce4bhch2rcd13ifvqeug","pricing_plan_id":"cebpf4jnsgd1na2vs0mg"},{"bike_id":"05be3232-93bf-4468-82b6-2b4973d2f332","system_id":"levelo_inurba_marseille","lat":43.28461,"lon":5.35896,"is_reserved":false,"is_disabled":false,"rental_uris":{"android":"levelo://app?vid=05be3232-93bf-4468-82b6-2b4973d2f332","ios":"levelo://app?vid=05be3232-93bf-4468-82b6-2b4973d2f332"},"vehicle_type_id":"4","last_reported":1745575861,"current_range_meters":11600,"station_id":"ce4bhah2rcd13ifvqei0","pricing_plan_id":"cebpf4jnsgd1na2vs0mg"},{"bike_id":"16ade7ee-eceb-4300-abf4-c2663d8210d7","system_id":"levelo_inurba_marseille","lat":43.27947,"lon":5.41039,"is_reserved":false,"is_disabled":false,"rental_uris":{"android":"levelo://app?vid=16ade7ee-eceb-4300-abf4-c2663d8210d7","ios":"levelo://app?vid=16ade7ee-eceb-4300-abf4-c2663d8210d7"},"vehicle_type_id":"4","last_reported":1745575861,"current_range_meters":11600,"station_id":"ce4bhnp2rcd13ifvqh0g","pricing_plan_id":"cebpf4jnsgd1na2vs0mg"},{"bike_id":"bd95f0bb-c5b1-4d5c-837c-b505e5069d47","system_id":"levelo_inurba_marseille","lat":43.33255,"lon":5.39798,"is_reserved":false,"is_disabled":false,"rental_uris":{"android":"levelo://app?vid=bd95f0bb-c5b1-4d5c-837c-b505e5069d47","ios":"levelo://app?vid=bd95f0bb-c5b1-4d5c-837c-b505e5069d47"},"vehicle_type_id":"4","last_reported":1745575861,"current_range_meters":11600,"station_id":"","pricing_plan_id":"cebpf4jnsgd1na2vs0mg"},{"bike_id":"2eb8ba3a-85cc-4c3c-833e-054f1a00292c","system_id":"levelo_inurba_marseille","lat":43.30797,"lon":5.43526,"is_reserved":false,"is_disabled":false,"rental_uris":{"android":"levelo://app?vid=2eb8ba3a-85cc-4c3c-833e-054f1a00292c","ios":"levelo://app?vid=2eb8ba3a-85cc-4c3c-833e-054f1a00292c"},"vehicle_type_id":"4","last_reported":1745575861,"current_range_meters":12000,"station_id":"ce4bhph2rcd13ifvqheg","pricing_plan_id":"cebpf4jnsgd1na2vs0mg"},{"bike_id":"2f9bcd40-e058-46a9-a414-1794700964e9","system_id":"levelo_inurba_marseille","lat":43.24082,"lon":5.3778,"is_reserved":false,"is_disabled":false,"rental_uris":{"android":"levelo://app?vid=2f9bcd40-e058-46a9-a414-1794700964e9","ios":"levelo://app?vid=2f9bcd40-e058-46a9-a414-1794700964e9"},"vehicle_type_id":"4","last_reported":1745575861,"current_range_meters":12000,"station_id":"ce4bhnp2rcd13ifvqgvg","pricing_plan_id":"cebpf4jnsgd1na2vs0mg"},{"bike_id":"6c18c0f5-85de-4b18-a1a9-5d893ce30a6b","system_id":"levelo_inurba_marseille","lat":43.2828,"lon":5.35069,"is_reserved":false,"is_disabled":false,"rental_uris":{"android":"levelo://app?vid=6c18c0f5-85de-4b18-a1a9-5d893ce30a6b","ios":"levelo://app?vid=6c18c0f5-85de-4b18-a1a9-5d893ce30a6b"},"vehicle_type_id":"4","last_reported":1745575861,"current_range_meters":12000,"station_id":"ce4bhbp2rcd13ifvqerg","pricing_plan_id":"cebpf4jnsgd1na2vs0mg"},{"bike_id":"5c8dde23-03af-4ec7-8c64-b6a7b95cfa5a","system_id":"levelo_inurba_marseille","lat":43.33721,"lon":5.39169,"is_reserved":false,"is_disabled":false,"rental_uris":{"android":"levelo://app?vid=5c8dde23-03af-4ec7-8c64-b6a7b95cfa5a","ios":"levelo://app?vid=5c8dde23-03af-4ec7-8c64-b6a7b95cfa5a"},"vehicle_type_id":"4","last_reported":1745575861,"current_range_meters":12000,"station_id":"ce4bhr92rcd13ifvqhsg","pricing_plan_id":"cebpf4jnsgd1na2vs0mg"},{"bike_id":"e258b3a9-7aeb-4022-a575-5ab4d1883623","system_id":"levelo_inurba_marseille","lat":43.29792,"lon":5.38084,"is_reserved":false,"is_disabled":true,"rental_uris":{"android":"levelo://app?vid=e258b3a9-7aeb-4022-a575-5ab4d1883623","ios":"levelo://app?vid=e258b3a9-7aeb-4022-a575-5ab4d1883623"},"vehicle_type_id":"4","last_reported":1745575861,"current_range_meters":12800,"station_id":"ce4bgip2rcd13ifvqbb0","pricing_plan_id":"cebpf4jnsgd1na2vs0mg"},{"bike_id":"2cc49b22-90ed-40b7-8f38-e015facc8413","system_id":"levelo_inurba_marseille","lat":43.29946,"lon":5.43584,"is_reserved":false,"is_disabled":false,"rental_uris":{"android":"levelo://app?vid=2cc49b22-90ed-40b7-8f38-e015facc8413","ios":"levelo://app?vid=2cc49b22-90ed-40b7-8f38-e015facc8413"},"vehicle_type_id":"4","last_reported":1745575861,"current_range_meters":12800,"station_id":"ce4bhpp2rcd13ifvqhfg","pricing_plan_id":"cebpf4jnsgd1na2vs0mg"},{"bike_id":"cdcbf8be-2932-4502-bf39-4fcd0622d6af","system_id":"levelo_inurba_marseille","lat":43.23147,"lon":5.43708,"is_reserved":false,"is_disabled":false,"rental_uris":{"android":"levelo://app?vid=cdcbf8be-2932-4502-bf39-4fcd0622d6af","ios":"levelo://app?vid=cdcbf8be-2932-4502-bf39-4fcd0622d6af"},"vehicle_type_id":"4","last_reported":1745575861,"current_range_meters":12800,"station_id":"ce4bhmp2rcd13ifvqgog","pricing_plan_id":"cebpf4jnsgd1na2vs0mg"},{"bike_id":"f8f8335f-86d9-4b21-bf11-2d0fe4e96f07","system_id":"levelo_inurba_marseille","lat":43.271737,"lon":5.409976,"is_reserved":false,"is_disabled":false,"rental_uris":{"android":"levelo://app?vid=f8f8335f-86d9-4b21-bf11-2d0fe4e96f07","ios":"levelo://app?vid=f8f8335f-86d9-4b21-bf11-2d0fe4e96f07"},"vehicle_type_id":"4","last_reported":1745575861,"current_range_meters":12400,"station_id":"ce4bhl12rcd13ifvqgf0","pricing_plan_id":"cebpf4jnsgd1na2vs0mg"},{"bike_id":"00dd4008-b8cd-459b-8f24-a4218f6e8179","system_id":"levelo_inurba_marseille","lat":43.23198,"lon":5.35547,"is_reserved":false,"is_disabled":false,"rental_uris":{"android":"levelo://app?vid=00dd4008-b8cd-459b-8f24-a4218f6e8179","ios":"levelo://app?vid=00dd4008-b8cd-459b-8f24-a4218f6e8179"},"vehicle_type_id":"4","last_reported":1745575861,"current_range_meters":13600,"station_id":"ce4bhu92rcd13ifvqi70","pricing_plan_id":"cebpf4jnsgd1na2vs0mg"},{"bike_id":"f12a9a5e-89bc-4406-8d33-ee6c190982eb","system_id":"levelo_inurba_marseille","lat":43.30332,"lon":5.36914,"is_reserved":false,"is_disabled":false,"rental_uris":{"android":"levelo://app?vid=f12a9a5e-89bc-4406-8d33-ee6c190982eb","ios":"levelo://app?vid=f12a9a5e-89bc-4406-8d33-ee6c190982eb"},"vehicle_type_id":"4","last_reported":1745575861,"current_range_meters":13600,"station_id":"ce4bgqh2rcd13ifvqc5g","pricing_plan_id":"cebpf4jnsgd1na2vs0mg"},{"bike_id":"03ec5728-5a8d-475c-be69-d63e54c8d683","system_id":"levelo_inurba_marseille","lat":43.32468,"lon":5.36736,"is_reserved":false,"is_disabled":false,"rental_uris":{"android":"levelo://app?vid=03ec5728-5a8d-475c-be69-d63e54c8d683","ios":"levelo://app?vid=03ec5728-5a8d-475c-be69-d63e54c8d683"},"vehicle_type_id":"4","last_reported":1745575861,"current_range_meters":14000,"station_id":"","pricing_plan_id":"cebpf4jnsgd1na2vs0mg"},{"bike_id":"e9b40b8c-aa8b-493b-9704-ac204b4fdb74","system_id":"levelo_inurba_marseille","lat":43.225,"lon":5.34785,"is_reserved":false,"is_disabled":false,"rental_uris":{"android":"levelo://app?vid=e9b40b8c-aa8b-493b-9704-ac204b4fdb74","ios":"levelo://app?vid=e9b40b8c-aa8b-493b-9704-ac204b4fdb74"},"vehicle_type_id":"4","last_reported":1745575861,"current_range_meters":14000,"station_id":"st_cvj5dfep6f1abm77gieg","pricing_plan_id":"cebpf4jnsgd1na2vs0mg"},{"bike_id":"5d9c4043-4860-4248-b70b-21cea142bfdb","system_id":"levelo_inurba_marseille","lat":43.33589,"lon":5.41009,"is_reserved":false,"is_disabled":false,"rental_uris":{"android":"levelo://app?vid=5d9c4043-4860-4248-b70b-21cea142bfdb","ios":"levelo://app?vid=5d9c4043-4860-4248-b70b-21cea142bfdb"},"vehicle_type_id":"4","last_reported":1745575861,"current_range_meters":14000,"station_id":"ce4bhqh2rcd13ifvqhmg","pricing_plan_id":"cebpf4jnsgd1na2vs0mg"},{"bike_id":"436f8426-5734-43e6-a330-b6588c8b5387","system_id":"levelo_inurba_marseille","lat":43.26198,"lon":5.37925,"is_reserved":false,"is_disabled":false,"rental_uris":{"android":"levelo://app?vid=436f8426-5734-43e6-a330-b6588c8b5387","ios":"levelo://app?vid=436f8426-5734-43e6-a330-b6588c8b5387"},"vehicle_type_id":"4","last_reported":1745575861,"current_range_meters":14000,"station_id":"ce4bhjp2rcd13ifvqg90","pricing_plan_id":"cebpf4jnsgd1na2vs0mg"},{"bike_id":"7fc5ed43-b2c3-4cf7-b081-488a7cbcc12f","system_id":"levelo_inurba_marseille","lat":43.33001,"lon":5.39022,"is_reserved":false,"is_disabled":false,"rental_uris":{"android":"levelo://app?vid=7fc5ed43-b2c3-4cf7-b081-488a7cbcc12f","ios":"levelo://app?vid=7fc5ed43-b2c3-4cf7-b081-488a7cbcc12f"},"vehicle_type_id":"4","last_reported":1745575861,"current_range_meters":14000,"station_id":"ce4bhr92rcd13ifvqhrg","pricing_plan_id":"cebpf4jnsgd1na2vs0mg"},{"bike_id":"fdd7c519-27f2-4696-9358-296f0bebcff4","system_id":"levelo_inurba_marseille","lat":43.29531,"lon":5.38549,"is_reserved":false,"is_disabled":false,"rental_uris":{"android":"levelo://app?vid=fdd7c519-27f2-4696-9358-296f0bebcff4","ios":"levelo://app?vid=fdd7c519-27f2-4696-9358-296f0bebcff4"},"vehicle_type_id":"4","last_reported":1745575861,"current_range_meters":14000,"station_id":"ce4bgih2rcd13ifvqba0","pricing_plan_id":"cebpf4jnsgd1na2vs0mg"},{"bike_id":"5546c30e-aeb0-44e1-83e6-3d4427252694","system_id":"levelo_inurba_marseille","lat":43.30267,"lon":5.37719,"is_reserved":false,"is_disabled":false,"rental_uris":{"android":"levelo://app?vid=5546c30e-aeb0-44e1-83e6-3d4427252694","ios":"levelo://app?vid=5546c30e-aeb0-44e1-83e6-3d4427252694"},"vehicle_type_id":"4","last_reported":1745575861,"current_range_meters":14000,"station_id":"ce4bguh2rcd13ifvqcj0","pricing_plan_id":"cebpf4jnsgd1na2vs0mg"},{"bike_id":"bff532e1-58f7-4601-87b6-d6ae8925747c","system_id":"levelo_inurba_marseille","lat":43.25921,"lon":5.40901,"is_reserved":false,"is_disabled":false,"rental_uris":{"android":"levelo://app?vid=bff532e1-58f7-4601-87b6-d6ae8925747c","ios":"levelo://app?vid=bff532e1-58f7-4601-87b6-d6ae8925747c"},"vehicle_type_id":"4","last_reported":1745575861,"current_range_meters":14400,"station_id":"ce4bhm92rcd13ifvqglg","pricing_plan_id":"cebpf4jnsgd1na2vs0mg"},{"bike_id":"e2dcabcf-64d8-4394-bb9a-ff877bee611a","system_id":"levelo_inurba_marseille","lat":43.32044,"lon":5.41506,"is_reserved":false,"is_disabled":false,"rental_uris":{"android":"levelo://app?vid=e2dcabcf-64d8-4394-bb9a-ff877bee611a","ios":"levelo://app?vid=e2dcabcf-64d8-4394-bb9a-ff877bee611a"},"vehicle_type_id":"4","last_reported":1745575861,"current_range_meters":14400,"station_id":"ce4bhq92rcd13ifvqhkg","pricing_plan_id":"cebpf4jnsgd1na2vs0mg"},{"bike_id":"92b0004a-d9cb-4140-9f79-535e298b5766","system_id":"levelo_inurba_marseille","lat":43.24387,"lon":5.37062,"is_reserved":false,"is_disabled":false,"rental_uris":{"android":"levelo://app?vid=92b0004a-d9cb-4140-9f79-535e298b5766","ios":"levelo://app?vid=92b0004a-d9cb-4140-9f79-535e298b5766"},"vehicle_type_id":"4","last_reported":1745575861,"current_range_meters":14400,"station_id":"ce4bhhh2rcd13ifvqfk0","pricing_plan_id":"cebpf4jnsgd1na2vs0mg"},{"bike_id":"124c2197-bcaf-482a-85a5-3bed9376d976","system_id":"levelo_inurba_marseille","lat":43.25127,"lon":5.40299,"is_reserved":false,"is_disabled":false,"rental_uris":{"android":"levelo://app?vid=124c2197-bcaf-482a-85a5-3bed9376d976","ios":"levelo://app?vid=124c2197-bcaf-482a-85a5-3bed9376d976"},"vehicle_type_id":"4","last_reported":1745575861,"current_range_meters":14800,"station_id":"ce4bhlh2rcd13ifvqgig","pricing_plan_id":"cebpf4jnsgd1na2vs0mg"},{"bike_id":"3e5a5bec-d3d4-45ee-9c95-7c9b8e7a4c49","system_id":"levelo_inurba_marseille","lat":43.32363,"lon":5.36777,"is_reserved":false,"is_disabled":false,"rental_uris":{"android":"levelo://app?vid=3e5a5bec-d3d4-45ee-9c95-7c9b8e7a4c49","ios":"levelo://app?vid=3e5a5bec-d3d4-45ee-9c95-7c9b8e7a4c49"},"vehicle_type_id":"4","last_reported":1745575861,"current_range_meters":14800,"station_id":"ce4bhsh2rcd13ifvqi2g","pricing_plan_id":"cebpf4jnsgd1na2vs0mg"},{"bike_id":"0bfff189-ec6a-4439-b345-e9dd168ab867","system_id":"levelo_inurba_marseille","lat":43.33832,"lon":5.39046,"is_reserved":false,"is_disabled":false,"rental_uris":{"android":"levelo://app?vid=0bfff189-ec6a-4439-b345-e9dd168ab867","ios":"levelo://app?vid=0bfff189-ec6a-4439-b345-e9dd168ab867"},"vehicle_type_id":"4","last_reported":1745575861,"current_range_meters":14800,"station_id":"","pricing_plan_id":"cebpf4jnsgd1na2vs0mg"},{"bike_id":"248a786e-53b4-4bf2-b098-e26010d8932b","system_id":"levelo_inurba_marseille","lat":43.31685,"lon":5.40477,"is_reserved":false,"is_disabled":false,"rental_uris":{"android":"levelo://app?vid=248a786e-53b4-4bf2-b098-e26010d8932b","ios":"levelo://app?vid=248a786e-53b4-4bf2-b098-e26010d8932b"},"vehicle_type_id":"4","last_reported":1745575861,"current_range_meters":15200,"station_id":"ce4bh012rcd13ifvqd00","pricing_plan_id":"cebpf4jnsgd1na2vs0mg"},{"bike_id":"a6ffac35-fe2a-4141-a171-b4f2e4583312","system_id":"levelo_inurba_marseille","lat":43.24659,"lon":5.3816,"is_reserved":false,"is_disabled":false,"rental_uris":{"android":"levelo://app?vid=a6ffac35-fe2a-4141-a171-b4f2e4583312","ios":"levelo://app?vid=a6ffac35-fe2a-4141-a171-b4f2e4583312"},"vehicle_type_id":"4","last_reported":1745575861,"current_range_meters":15200,"station_id":"ce4bhih2rcd13ifvqfr0","pricing_plan_id":"cebpf4jnsgd1na2vs0mg"},{"bike_id":"665dc858-e0da-43f5-8352-df4e0bddbda5","system_id":"levelo_inurba_marseille","lat":43.33609,"lon":5.41005,"is_reserved":false,"is_disabled":false,"rental_uris":{"android":"levelo://app?vid=665dc858-e0da-43f5-8352-df4e0bddbda5","ios":"levelo://app?vid=665dc858-e0da-43f5-8352-df4e0bddbda5"},"vehicle_type_id":"4","last_reported":1745575861,"current_range_meters":15200,"station_id":"ce4bhqh2rcd13ifvqhmg","pricing_plan_id":"cebpf4jnsgd1na2vs0mg"},{"bike_id":"3e4adf00-6f25-4413-96e2-c281335b27f8","system_id":"levelo_inurba_marseille","lat":43.26208,"lon":5.37442,"is_reserved":false,"is_disabled":false,"rental_uris":{"android":"levelo://app?vid=3e4adf00-6f25-4413-96e2-c281335b27f8","ios":"levelo://app?vid=3e4adf00-6f25-4413-96e2-c281335b27f8"},"vehicle_type_id":"4","last_reported":1745575861,"current_range_meters":15200,"station_id":"ce4bhgp2rcd13ifvqfc0","pricing_plan_id":"cebpf4jnsgd1na2vs0mg"},{"bike_id":"f437bbcd-3bc3-4220-9dfe-08d3eac84ba1","system_id":"levelo_inurba_marseille","lat":43.28604,"lon":5.35126,"is_reserved":false,"is_disabled":true,"rental_uris":{"android":"levelo://app?vid=f437bbcd-3bc3-4220-9dfe-08d3eac84ba1","ios":"levelo://app?vid=f437bbcd-3bc3-4220-9dfe-08d3eac84ba1"},"vehicle_type_id":"4","last_reported":1745575861,"current_range_meters":15200,"station_id":"ce4bhch2rcd13ifvqeug","pricing_plan_id":"cebpf4jnsgd1na2vs0mg"},{"bike_id":"9a1c0be7-bd1a-4081-ab84-3ef05258b407","system_id":"levelo_inurba_marseille","lat":43.22923,"lon":5.35377,"is_reserved":false,"is_disabled":false,"rental_uris":{"android":"levelo://app?vid=9a1c0be7-bd1a-4081-ab84-3ef05258b407","ios":"levelo://app?vid=9a1c0be7-bd1a-4081-ab84-3ef05258b407"},"vehicle_type_id":"4","last_reported":1745575861,"current_range_meters":16000,"station_id":"cpo3532slgdg3j2ikp40","pricing_plan_id":"cebpf4jnsgd1na2vs0mg"},{"bike_id":"b370ec72-25aa-4e18-90be-0a23445d821b","system_id":"levelo_inurba_marseille","lat":43.21754,"lon":5.34585,"is_reserved":false,"is_disabled":false,"rental_uris":{"android":"levelo://app?vid=b370ec72-25aa-4e18-90be-0a23445d821b","ios":"levelo://app?vid=b370ec72-25aa-4e18-90be-0a23445d821b"},"vehicle_type_id":"4","last_reported":1745575861,"current_range_meters":16400,"station_id":"st_cvj6r9ubvosntc0bgbag","pricing_plan_id":"cebpf4jnsgd1na2vs0mg"},{"bike_id":"96328779-8465-4c3b-9745-8c85a07628fd","system_id":"levelo_inurba_marseille","lat":43.30579,"lon":5.36724,"is_reserved":false,"is_disabled":false,"rental_uris":{"android":"levelo://app?vid=96328779-8465-4c3b-9745-8c85a07628fd","ios":"levelo://app?vid=96328779-8465-4c3b-9745-8c85a07628fd"},"vehicle_type_id":"4","last_reported":1745575861,"current_range_meters":16400,"station_id":"ce4bgrp2rcd13ifvqc9g","pricing_plan_id":"cebpf4jnsgd1na2vs0mg"},{"bike_id":"568053e1-9183-4cee-acca-959027493876","system_id":"levelo_inurba_marseille","lat":43.30903,"lon":5.36843,"is_reserved":false,"is_disabled":true,"rental_uris":{"android":"levelo://app?vid=568053e1-9183-4cee-acca-959027493876","ios":"levelo://app?vid=568053e1-9183-4cee-acca-959027493876"},"vehicle_type_id":"4","last_reported":1745575861,"current_range_meters":16800,"station_id":"ce4bgn92rcd13ifvqbvg","pricing_plan_id":"cebpf4jnsgd1na2vs0mg"},{"bike_id":"a50d0966-bcd9-455e-a24c-4ba768460204","system_id":"levelo_inurba_marseille","lat":43.23963,"lon":5.36629,"is_reserved":false,"is_disabled":true,"rental_uris":{"android":"levelo://app?vid=a50d0966-bcd9-455e-a24c-4ba768460204","ios":"levelo://app?vid=a50d0966-bcd9-455e-a24c-4ba768460204"},"vehicle_type_id":"4","last_reported":1745575861,"current_range_meters":16800,"station_id":"ce4bhi12rcd13ifvqfp0","pricing_plan_id":"cebpf4jnsgd1na2vs0mg"},{"bike_id":"5b4f1d33-8a0d-4fe6-ad85-47449df7767c","system_id":"levelo_inurba_marseille","lat":43.28459,"lon":5.35891,"is_reserved":false,"is_disabled":false,"rental_uris":{"android":"levelo://app?vid=5b4f1d33-8a0d-4fe6-ad85-47449df7767c","ios":"levelo://app?vid=5b4f1d33-8a0d-4fe6-ad85-47449df7767c"},"vehicle_type_id":"4","last_reported":1745575861,"current_range_meters":16800,"station_id":"ce4bhah2rcd13ifvqei0","pricing_plan_id":"cebpf4jnsgd1na2vs0mg"},{"bike_id":"efb5568d-364d-42ab-b927-9ddc0e145086","system_id":"levelo_inurba_marseille","lat":43.28607,"lon":5.3706,"is_reserved":false,"is_disabled":false,"rental_uris":{"android":"levelo://app?vid=efb5568d-364d-42ab-b927-9ddc0e145086","ios":"levelo://app?vid=efb5568d-364d-42ab-b927-9ddc0e145086"},"vehicle_type_id":"4","last_reported":1745575861,"current_range_meters":16800,"station_id":"ce4bht12rcd13ifvqi60","pricing_plan_id":"cebpf4jnsgd1na2vs0mg"},{"bike_id":"af6af1ea-83a0-4448-a6b9-d143557f7290","system_id":"levelo_inurba_marseille","lat":43.26947,"lon":5.4026,"is_reserved":false,"is_disabled":true,"rental_uris":{"android":"levelo://app?vid=af6af1ea-83a0-4448-a6b9-d143557f7290","ios":"levelo://app?vid=af6af1ea-83a0-4448-a6b9-d143557f7290"},"vehicle_type_id":"4","last_reported":1745575861,"current_range_meters":16800,"station_id":"cjm6bp8fraef2m0cb0m0","pricing_plan_id":"cebpf4jnsgd1na2vs0mg"},{"bike_id":"1ded8e42-bd29-42a3-99e0-4092b0478570","system_id":"levelo_inurba_marseille","lat":43.2705,"lon":5.40262,"is_reserved":false,"is_disabled":false,"rental_uris":{"android":"levelo://app?vid=1ded8e42-bd29-42a3-99e0-4092b0478570","ios":"levelo://app?vid=1ded8e42-bd29-42a3-99e0-4092b0478570"},"vehicle_type_id":"4","last_reported":1745575861,"current_range_meters":16800,"station_id":"ce4bhk92rcd13ifvqgc0","pricing_plan_id":"cebpf4jnsgd1na2vs0mg"},{"bike_id":"b98faad5-7dd0-4628-935a-80183ca1c23e","system_id":"levelo_inurba_marseille","lat":43.27685,"lon":5.38871,"is_reserved":false,"is_disabled":false,"rental_uris":{"android":"levelo://app?vid=b98faad5-7dd0-4628-935a-80183ca1c23e","ios":"levelo://app?vid=b98faad5-7dd0-4628-935a-80183ca1c23e"},"vehicle_type_id":"4","last_reported":1745575861,"current_range_meters":16800,"station_id":"ce4bhi12rcd13ifvqfo0","pricing_plan_id":"cebpf4jnsgd1na2vs0mg"},{"bike_id":"20db2207-b754-465d-bc44-5dd6149e8faa","system_id":"levelo_inurba_marseille","lat":43.31485,"lon":5.37305,"is_reserved":false,"is_disabled":false,"rental_uris":{"android":"levelo://app?vid=20db2207-b754-465d-bc44-5dd6149e8faa","ios":"levelo://app?vid=20db2207-b754-465d-bc44-5dd6149e8faa"},"vehicle_type_id":"4","last_reported":1745575861,"current_range_meters":16800,"station_id":"ce4bgt12rcd13ifvqcd0","pricing_plan_id":"cebpf4jnsgd1na2vs0mg"},{"bike_id":"d7b2bfc5-cdb8-407c-b8fb-5b12bb88e021","system_id":"levelo_inurba_marseille","lat":43.28422,"lon":5.34977,"is_reserved":false,"is_disabled":false,"rental_uris":{"android":"levelo://app?vid=d7b2bfc5-cdb8-407c-b8fb-5b12bb88e021","ios":"levelo://app?vid=d7b2bfc5-cdb8-407c-b8fb-5b12bb88e021"},"vehicle_type_id":"4","last_reported":1745575861,"current_range_meters":16800,"station_id":"ce4bhbh2rcd13ifvqepg","pricing_plan_id":"cebpf4jnsgd1na2vs0mg"},{"bike_id":"73f3754a-5006-44ec-acb0-ff150592d68c","system_id":"levelo_inurba_marseille","lat":43.25121,"lon":5.40311,"is_reserved":false,"is_disabled":false,"rental_uris":{"android":"levelo://app?vid=73f3754a-5006-44ec-acb0-ff150592d68c","ios":"levelo://app?vid=73f3754a-5006-44ec-acb0-ff150592d68c"},"vehicle_type_id":"4","last_reported":1745575861,"current_range_meters":17200,"station_id":"ce4bhlh2rcd13ifvqgig","pricing_plan_id":"cebpf4jnsgd1na2vs0mg"},{"bike_id":"e8aaf390-5a8b-494b-b588-ee95ecc8eab6","system_id":"levelo_inurba_marseille","lat":43.300222,"lon":5.380415,"is_reserved":false,"is_disabled":false,"rental_uris":{"android":"levelo://app?vid=e8aaf390-5a8b-494b-b588-ee95ecc8eab6","ios":"levelo://app?vid=e8aaf390-5a8b-494b-b588-ee95ecc8eab6"},"vehicle_type_id":"4","last_reported":1745575861,"current_range_meters":17200,"station_id":"ce4bgj12rcd13ifvqbc0","pricing_plan_id":"cebpf4jnsgd1na2vs0mg"},{"bike_id":"987d7900-bb2a-45cb-bed7-6d69f6fd4fa3","system_id":"levelo_inurba_marseille","lat":43.28493,"lon":5.38452,"is_reserved":false,"is_disabled":false,"rental_uris":{"android":"levelo://app?vid=987d7900-bb2a-45cb-bed7-6d69f6fd4fa3","ios":"levelo://app?vid=987d7900-bb2a-45cb-bed7-6d69f6fd4fa3"},"vehicle_type_id":"4","last_reported":1745575861,"current_range_meters":17200,"station_id":"ce4bh512rcd13ifvqe3g","pricing_plan_id":"cebpf4jnsgd1na2vs0mg"},{"bike_id":"5d90e8c4-88f9-42f1-bfd8-e31a43c95b58","system_id":"levelo_inurba_marseille","lat":43.32473,"lon":5.36552,"is_reserved":false,"is_disabled":false,"rental_uris":{"android":"levelo://app?vid=5d90e8c4-88f9-42f1-bfd8-e31a43c95b58","ios":"levelo://app?vid=5d90e8c4-88f9-42f1-bfd8-e31a43c95b58"},"vehicle_type_id":"4","last_reported":1745575861,"current_range_meters":17200,"station_id":"ce4bhs12rcd13ifvqhvg","pricing_plan_id":"cebpf4jnsgd1na2vs0mg"},{"bike_id":"5771fed6-9b71-425a-9f53-406f7c4ca393","system_id":"levelo_inurba_marseille","lat":43.27996,"lon":5.41648,"is_reserved":false,"is_disabled":false,"rental_uris":{"android":"levelo://app?vid=5771fed6-9b71-425a-9f53-406f7c4ca393","ios":"levelo://app?vid=5771fed6-9b71-425a-9f53-406f7c4ca393"},"vehicle_type_id":"4","last_reported":1745575861,"current_range_meters":17200,"station_id":"ce4bho12rcd13ifvqh1g","pricing_plan_id":"cebpf4jnsgd1na2vs0mg"},{"bike_id":"7c90e4f4-3378-4f78-947e-9a6cc0c692c5","system_id":"levelo_inurba_marseille","lat":43.24388,"lon":5.37058,"is_reserved":false,"is_disabled":false,"rental_uris":{"android":"levelo://app?vid=7c90e4f4-3378-4f78-947e-9a6cc0c692c5","ios":"levelo://app?vid=7c90e4f4-3378-4f78-947e-9a6cc0c692c5"},"vehicle_type_id":"4","last_reported":1745575861,"current_range_meters":17200,"station_id":"ce4bhhh2rcd13ifvqfk0","pricing_plan_id":"cebpf4jnsgd1na2vs0mg"},{"bike_id":"f5d41aa3-2886-4704-95b8-34f53da8b1e5","system_id":"levelo_inurba_marseille","lat":43.30908,"lon":5.36847,"is_reserved":false,"is_disabled":false,"rental_uris":{"android":"levelo://app?vid=f5d41aa3-2886-4704-95b8-34f53da8b1e5","ios":"levelo://app?vid=f5d41aa3-2886-4704-95b8-34f53da8b1e5"},"vehicle_type_id":"4","last_reported":1745575861,"current_range_meters":17200,"station_id":"ce4bgn92rcd13ifvqbvg","pricing_plan_id":"cebpf4jnsgd1na2vs0mg"},{"bike_id":"873b98bb-a44d-48e2-b20d-4b2480b6b651","system_id":"levelo_inurba_marseille","lat":43.29362,"lon":5.37858,"is_reserved":false,"is_disabled":false,"rental_uris":{"android":"levelo://app?vid=873b98bb-a44d-48e2-b20d-4b2480b6b651","ios":"levelo://app?vid=873b98bb-a44d-48e2-b20d-4b2480b6b651"},"vehicle_type_id":"4","last_reported":1745575861,"current_range_meters":17600,"station_id":"ce4bgjh2rcd13ifvqbf0","pricing_plan_id":"cebpf4jnsgd1na2vs0mg"},{"bike_id":"c21f1d72-d56e-403a-964a-d3146de55a66","system_id":"levelo_inurba_marseille","lat":43.304258,"lon":5.388821,"is_reserved":false,"is_disabled":false,"rental_uris":{"android":"levelo://app?vid=c21f1d72-d56e-403a-964a-d3146de55a66","ios":"levelo://app?vid=c21f1d72-d56e-403a-964a-d3146de55a66"},"vehicle_type_id":"4","last_reported":1745575861,"current_range_meters":17200,"station_id":"ce4bgjh2rcd13ifvqbf0","pricing_plan_id":"cebpf4jnsgd1na2vs0mg"},{"bike_id":"8367ddb0-0867-4100-9cec-223160e9b29b","system_id":"levelo_inurba_marseille","lat":43.23148,"lon":5.43724,"is_reserved":false,"is_disabled":false,"rental_uris":{"android":"levelo://app?vid=8367ddb0-0867-4100-9cec-223160e9b29b","ios":"levelo://app?vid=8367ddb0-0867-4100-9cec-223160e9b29b"},"vehicle_type_id":"4","last_reported":1745575861,"current_range_meters":17600,"station_id":"ce4bhmp2rcd13ifvqgog","pricing_plan_id":"cebpf4jnsgd1na2vs0mg"},{"bike_id":"78e440e7-8bbc-44b4-9c74-197f80a59205","system_id":"levelo_inurba_marseille","lat":43.241661,"lon":5.363878,"is_reserved":false,"is_disabled":false,"rental_uris":{"android":"levelo://app?vid=78e440e7-8bbc-44b4-9c74-197f80a59205","ios":"levelo://app?vid=78e440e7-8bbc-44b4-9c74-197f80a59205"},"vehicle_type_id":"4","last_reported":1745575861,"current_range_meters":17600,"station_id":"cpo36qri1sfpv3e86is0","pricing_plan_id":"cebpf4jnsgd1na2vs0mg"},{"bike_id":"9199862c-f028-44f5-a0bd-939fcabcf63b","system_id":"levelo_inurba_marseille","lat":43.27944,"lon":5.41034,"is_reserved":false,"is_disabled":false,"rental_uris":{"android":"levelo://app?vid=9199862c-f028-44f5-a0bd-939fcabcf63b","ios":"levelo://app?vid=9199862c-f028-44f5-a0bd-939fcabcf63b"},"vehicle_type_id":"4","last_reported":1745575861,"current_range_meters":17600,"station_id":"ce4bhnp2rcd13ifvqh0g","pricing_plan_id":"cebpf4jnsgd1na2vs0mg"},{"bike_id":"ecbc92b5-a8e1-4ba3-98de-bd8784bc0c64","system_id":"levelo_inurba_marseille","lat":43.2657,"lon":5.39008,"is_reserved":false,"is_disabled":true,"rental_uris":{"android":"levelo://app?vid=ecbc92b5-a8e1-4ba3-98de-bd8784bc0c64","ios":"levelo://app?vid=ecbc92b5-a8e1-4ba3-98de-bd8784bc0c64"},"vehicle_type_id":"4","last_reported":1745575861,"current_range_meters":18000,"station_id":"ce4bhe12rcd13ifvqf30","pricing_plan_id":"cebpf4jnsgd1na2vs0mg"},{"bike_id":"d2aa4f08-82ea-428b-8a43-20481eff7a37","system_id":"levelo_inurba_marseille","lat":43.3228,"lon":5.38268,"is_reserved":false,"is_disabled":false,"rental_uris":{"android":"levelo://app?vid=d2aa4f08-82ea-428b-8a43-20481eff7a37","ios":"levelo://app?vid=d2aa4f08-82ea-428b-8a43-20481eff7a37"},"vehicle_type_id":"4","last_reported":1745575861,"current_range_meters":18000,"station_id":"ce4bhr12rcd13ifvqhqg","pricing_plan_id":"cebpf4jnsgd1na2vs0mg"},{"bike_id":"bdd0222f-8955-4090-86de-0be16c2ab322","system_id":"levelo_inurba_marseille","lat":43.341253,"lon":5.409105,"is_reserved":false,"is_disabled":false,"rental_uris":{"android":"levelo://app?vid=bdd0222f-8955-4090-86de-0be16c2ab322","ios":"levelo://app?vid=bdd0222f-8955-4090-86de-0be16c2ab322"},"vehicle_type_id":"4","last_reported":1745575861,"current_range_meters":18000,"station_id":"ce4bhpp2rcd13ifvqhfg","pricing_plan_id":"cebpf4jnsgd1na2vs0mg"},{"bike_id":"50283c56-eb03-4fd5-9640-9cde8f7b81b1","system_id":"levelo_inurba_marseille","lat":43.27807,"lon":5.40705,"is_reserved":false,"is_disabled":false,"rental_uris":{"android":"levelo://app?vid=50283c56-eb03-4fd5-9640-9cde8f7b81b1","ios":"levelo://app?vid=50283c56-eb03-4fd5-9640-9cde8f7b81b1"},"vehicle_type_id":"4","last_reported":1745575861,"current_range_meters":18000,"station_id":"ce4bhnh2rcd13ifvqgtg","pricing_plan_id":"cebpf4jnsgd1na2vs0mg"},{"bike_id":"8a69f3e0-a09c-4fda-8be9-1745a9cae6ac","system_id":"levelo_inurba_marseille","lat":43.28255,"lon":5.35075,"is_reserved":false,"is_disabled":false,"rental_uris":{"android":"levelo://app?vid=8a69f3e0-a09c-4fda-8be9-1745a9cae6ac","ios":"levelo://app?vid=8a69f3e0-a09c-4fda-8be9-1745a9cae6ac"},"vehicle_type_id":"4","last_reported":1745575861,"current_range_meters":18000,"station_id":"ce4bhbp2rcd13ifvqerg","pricing_plan_id":"cebpf4jnsgd1na2vs0mg"},{"bike_id":"41807b6d-274f-4f75-954b-1e0e14f4db6a","system_id":"levelo_inurba_marseille","lat":43.306063,"lon":5.372303,"is_reserved":false,"is_disabled":false,"rental_uris":{"android":"levelo://app?vid=41807b6d-274f-4f75-954b-1e0e14f4db6a","ios":"levelo://app?vid=41807b6d-274f-4f75-954b-1e0e14f4db6a"},"vehicle_type_id":"4","last_reported":1745575861,"current_range_meters":18000,"station_id":"ce4bgqh2rcd13ifvqc4g","pricing_plan_id":"cebpf4jnsgd1na2vs0mg"},{"bike_id":"51a4b1f4-4cfb-4b9e-b7e6-50254ee4c796","system_id":"levelo_inurba_marseille","lat":43.28605,"lon":5.37057,"is_reserved":false,"is_disabled":true,"rental_uris":{"android":"levelo://app?vid=51a4b1f4-4cfb-4b9e-b7e6-50254ee4c796","ios":"levelo://app?vid=51a4b1f4-4cfb-4b9e-b7e6-50254ee4c796"},"vehicle_type_id":"4","last_reported":1745575861,"current_range_meters":18000,"station_id":"ce4bht12rcd13ifvqi60","pricing_plan_id":"cebpf4jnsgd1na2vs0mg"},{"bike_id":"2f25313c-c2ce-4323-b6d7-8b3d87d0c541","system_id":"levelo_inurba_marseille","lat":43.28275,"lon":5.35079,"is_reserved":false,"is_disabled":false,"rental_uris":{"android":"levelo://app?vid=2f25313c-c2ce-4323-b6d7-8b3d87d0c541","ios":"levelo://app?vid=2f25313c-c2ce-4323-b6d7-8b3d87d0c541"},"vehicle_type_id":"4","last_reported":1745575861,"current_range_meters":18800,"station_id":"ce4bhbp2rcd13ifvqerg","pricing_plan_id":"cebpf4jnsgd1na2vs0mg"},{"bike_id":"b6cce916-00ab-4b48-90ec-261226219ca7","system_id":"levelo_inurba_marseille","lat":43.29906,"lon":5.38152,"is_reserved":false,"is_disabled":true,"rental_uris":{"android":"levelo://app?vid=b6cce916-00ab-4b48-90ec-261226219ca7","ios":"levelo://app?vid=b6cce916-00ab-4b48-90ec-261226219ca7"},"vehicle_type_id":"4","last_reported":1745575861,"current_range_meters":18800,"station_id":"ce4bgj12rcd13ifvqbc0","pricing_plan_id":"cebpf4jnsgd1na2vs0mg"},{"bike_id":"d9c63e1b-4913-4440-86c0-9cf25efa8b1b","system_id":"levelo_inurba_marseille","lat":43.286042,"lon":5.351065,"is_reserved":false,"is_disabled":false,"rental_uris":{"android":"levelo://app?vid=d9c63e1b-4913-4440-86c0-9cf25efa8b1b","ios":"levelo://app?vid=d9c63e1b-4913-4440-86c0-9cf25efa8b1b"},"vehicle_type_id":"4","last_reported":1745575861,"current_range_meters":21600,"station_id":"ce4bhch2rcd13ifvqeug","pricing_plan_id":"cebpf4jnsgd1na2vs0mg"},{"bike_id":"ef96ca9e-d38b-451b-a2c2-22bc5dba351f","system_id":"levelo_inurba_marseille","lat":43.29923,"lon":5.38166,"is_reserved":false,"is_disabled":true,"rental_uris":{"android":"levelo://app?vid=ef96ca9e-d38b-451b-a2c2-22bc5dba351f","ios":"levelo://app?vid=ef96ca9e-d38b-451b-a2c2-22bc5dba351f"},"vehicle_type_id":"4","last_reported":1745575861,"current_range_meters":19200,"station_id":"ce4bgj12rcd13ifvqbc0","pricing_plan_id":"cebpf4jnsgd1na2vs0mg"},{"bike_id":"21d7e086-4f41-40e3-aacb-8ba3caaa8f7e","system_id":"levelo_inurba_marseille","lat":43.31085,"lon":5.42435,"is_reserved":false,"is_disabled":false,"rental_uris":{"android":"levelo://app?vid=21d7e086-4f41-40e3-aacb-8ba3caaa8f7e","ios":"levelo://app?vid=21d7e086-4f41-40e3-aacb-8ba3caaa8f7e"},"vehicle_type_id":"4","last_reported":1745575861,"current_range_meters":19200,"station_id":"ce4bhp92rcd13ifvqhag","pricing_plan_id":"cebpf4jnsgd1na2vs0mg"},{"bike_id":"66f4a16c-5526-4170-b0c8-0b023a7e2dde","system_id":"levelo_inurba_marseille","lat":43.31505,"lon":5.37298,"is_reserved":false,"is_disabled":false,"rental_uris":{"android":"levelo://app?vid=66f4a16c-5526-4170-b0c8-0b023a7e2dde","ios":"levelo://app?vid=66f4a16c-5526-4170-b0c8-0b023a7e2dde"},"vehicle_type_id":"4","last_reported":1745575861,"current_range_meters":19200,"station_id":"ce4bgt12rcd13ifvqcd0","pricing_plan_id":"cebpf4jnsgd1na2vs0mg"},{"bike_id":"87d230e1-3701-4811-bc52-b6bcde5161e4","system_id":"levelo_inurba_marseille","lat":43.25932,"lon":5.40903,"is_reserved":false,"is_disabled":false,"rental_uris":{"android":"levelo://app?vid=87d230e1-3701-4811-bc52-b6bcde5161e4","ios":"levelo://app?vid=87d230e1-3701-4811-bc52-b6bcde5161e4"},"vehicle_type_id":"4","last_reported":1745575861,"current_range_meters":19200,"station_id":"ce4bhm92rcd13ifvqglg","pricing_plan_id":"cebpf4jnsgd1na2vs0mg"},{"bike_id":"75b190f0-1eac-41bc-9aaf-bdb4377518c6","system_id":"levelo_inurba_marseille","lat":43.3149,"lon":5.37305,"is_reserved":false,"is_disabled":false,"rental_uris":{"android":"levelo://app?vid=75b190f0-1eac-41bc-9aaf-bdb4377518c6","ios":"levelo://app?vid=75b190f0-1eac-41bc-9aaf-bdb4377518c6"},"vehicle_type_id":"4","last_reported":1745575861,"current_range_meters":19200,"station_id":"ce4bgt12rcd13ifvqcd0","pricing_plan_id":"cebpf4jnsgd1na2vs0mg"},{"bike_id":"a9784e4d-72f3-45a0-bc5c-6a48517d28d6","system_id":"levelo_inurba_marseille","lat":43.3302,"lon":5.39038,"is_reserved":false,"is_disabled":false,"rental_uris":{"android":"levelo://app?vid=a9784e4d-72f3-45a0-bc5c-6a48517d28d6","ios":"levelo://app?vid=a9784e4d-72f3-45a0-bc5c-6a48517d28d6"},"vehicle_type_id":"4","last_reported":1745575861,"current_range_meters":19200,"station_id":"ce4bhr92rcd13ifvqhrg","pricing_plan_id":"cebpf4jnsgd1na2vs0mg"},{"bike_id":"cd087707-fd41-43c5-9b15-a64d709b0196","system_id":"levelo_inurba_marseille","lat":43.3055,"lon":5.36529,"is_reserved":false,"is_disabled":false,"rental_uris":{"android":"levelo://app?vid=cd087707-fd41-43c5-9b15-a64d709b0196","ios":"levelo://app?vid=cd087707-fd41-43c5-9b15-a64d709b0196"},"vehicle_type_id":"4","last_reported":1745575861,"current_range_meters":19200,"station_id":"ce4bgs12rcd13ifvqcag","pricing_plan_id":"cebpf4jnsgd1na2vs0mg"},{"bike_id":"0d8a4319-d817-4864-ba4c-4988bfcd879c","system_id":"levelo_inurba_marseille","lat":43.288514,"lon":5.393127,"is_reserved":false,"is_disabled":false,"rental_uris":{"android":"levelo://app?vid=0d8a4319-d817-4864-ba4c-4988bfcd879c","ios":"levelo://app?vid=0d8a4319-d817-4864-ba4c-4988bfcd879c"},"vehicle_type_id":"4","last_reported":1745575861,"current_range_meters":19600,"station_id":"ce4bh2p2rcd13ifvqdi0","pricing_plan_id":"cebpf4jnsgd1na2vs0mg"},{"bike_id":"4046a82f-66e8-4b55-bd0a-356edea772d8","system_id":"levelo_inurba_marseille","lat":43.337444,"lon":5.374475,"is_reserved":false,"is_disabled":false,"rental_uris":{"android":"levelo://app?vid=4046a82f-66e8-4b55-bd0a-356edea772d8","ios":"levelo://app?vid=4046a82f-66e8-4b55-bd0a-356edea772d8"},"vehicle_type_id":"4","last_reported":1745575861,"current_range_meters":19600,"station_id":"","pricing_plan_id":"cebpf4jnsgd1na2vs0mg"},{"bike_id":"3d981ad4-e6c5-471c-9243-b0ad981a9017","system_id":"levelo_inurba_marseille","lat":43.273721,"lon":5.36256,"is_reserved":false,"is_disabled":false,"rental_uris":{"android":"levelo://app?vid=3d981ad4-e6c5-471c-9243-b0ad981a9017","ios":"levelo://app?vid=3d981ad4-e6c5-471c-9243-b0ad981a9017"},"vehicle_type_id":"4","last_reported":1745575861,"current_range_meters":19600,"station_id":"ce4bhbh2rcd13ifvqeo0","pricing_plan_id":"cebpf4jnsgd1na2vs0mg"},{"bike_id":"f1ac634c-7a0d-4ce2-b92f-26a2bd593acc","system_id":"levelo_inurba_marseille","lat":43.30894,"lon":5.36848,"is_reserved":false,"is_disabled":false,"rental_uris":{"android":"levelo://app?vid=f1ac634c-7a0d-4ce2-b92f-26a2bd593acc","ios":"levelo://app?vid=f1ac634c-7a0d-4ce2-b92f-26a2bd593acc"},"vehicle_type_id":"4","last_reported":1745575861,"current_range_meters":19600,"station_id":"ce4bgn92rcd13ifvqbvg","pricing_plan_id":"cebpf4jnsgd1na2vs0mg"},{"bike_id":"67573ed3-fae0-4221-bd67-da06ed0ab971","system_id":"levelo_inurba_marseille","lat":43.290098,"lon":5.372718,"is_reserved":false,"is_disabled":false,"rental_uris":{"android":"levelo://app?vid=67573ed3-fae0-4221-bd67-da06ed0ab971","ios":"levelo://app?vid=67573ed3-fae0-4221-bd67-da06ed0ab971"},"vehicle_type_id":"4","last_reported":1745575861,"current_range_meters":19600,"station_id":"ce4bh5p2rcd13ifvqe4g","pricing_plan_id":"cebpf4jnsgd1na2vs0mg"},{"bike_id":"d28bf9af-5868-40cf-bc78-dd7cb5c022b5","system_id":"levelo_inurba_marseille","lat":43.299635,"lon":5.384694,"is_reserved":false,"is_disabled":true,"rental_uris":{"android":"levelo://app?vid=d28bf9af-5868-40cf-bc78-dd7cb5c022b5","ios":"levelo://app?vid=d28bf9af-5868-40cf-bc78-dd7cb5c022b5"},"vehicle_type_id":"4","last_reported":1745575861,"current_range_meters":19600,"station_id":"ce4bgj92rcd13ifvqbd0","pricing_plan_id":"cebpf4jnsgd1na2vs0mg"},{"bike_id":"d9f26a3a-6ecb-49b8-b29e-ece4a2fb518e","system_id":"levelo_inurba_marseille","lat":43.30314,"lon":5.36919,"is_reserved":false,"is_disabled":false,"rental_uris":{"android":"levelo://app?vid=d9f26a3a-6ecb-49b8-b29e-ece4a2fb518e","ios":"levelo://app?vid=d9f26a3a-6ecb-49b8-b29e-ece4a2fb518e"},"vehicle_type_id":"4","last_reported":1745575861,"current_range_meters":19600,"station_id":"ce4bgqh2rcd13ifvqc5g","pricing_plan_id":"cebpf4jnsgd1na2vs0mg"},{"bike_id":"652c7b44-220c-4b32-8b64-ae95d0ad1640","system_id":"levelo_inurba_marseille","lat":43.23193,"lon":5.35545,"is_reserved":false,"is_disabled":false,"rental_uris":{"android":"levelo://app?vid=652c7b44-220c-4b32-8b64-ae95d0ad1640","ios":"levelo://app?vid=652c7b44-220c-4b32-8b64-ae95d0ad1640"},"vehicle_type_id":"4","last_reported":1745575861,"current_range_meters":19600,"station_id":"ce4bhu92rcd13ifvqi70","pricing_plan_id":"cebpf4jnsgd1na2vs0mg"},{"bike_id":"9c9c110e-8bcb-46ac-980c-f056c1666c27","system_id":"levelo_inurba_marseille","lat":43.26204,"lon":5.37907,"is_reserved":false,"is_disabled":true,"rental_uris":{"android":"levelo://app?vid=9c9c110e-8bcb-46ac-980c-f056c1666c27","ios":"levelo://app?vid=9c9c110e-8bcb-46ac-980c-f056c1666c27"},"vehicle_type_id":"4","last_reported":1745575861,"current_range_meters":19600,"station_id":"ce4bhjp2rcd13ifvqg90","pricing_plan_id":"cebpf4jnsgd1na2vs0mg"},{"bike_id":"659dfa27-7120-4d45-9c19-8e09e2cf820b","system_id":"levelo_inurba_marseille","lat":43.27815,"lon":5.40706,"is_reserved":false,"is_disabled":false,"rental_uris":{"android":"levelo://app?vid=659dfa27-7120-4d45-9c19-8e09e2cf820b","ios":"levelo://app?vid=659dfa27-7120-4d45-9c19-8e09e2cf820b"},"vehicle_type_id":"4","last_reported":1745575861,"current_range_meters":19600,"station_id":"ce4bhnh2rcd13ifvqgtg","pricing_plan_id":"cebpf4jnsgd1na2vs0mg"},{"bike_id":"6047d106-d107-4935-a1a6-58c183ed261b","system_id":"levelo_inurba_marseille","lat":43.26234,"lon":5.40463,"is_reserved":false,"is_disabled":false,"rental_uris":{"android":"levelo://app?vid=6047d106-d107-4935-a1a6-58c183ed261b","ios":"levelo://app?vid=6047d106-d107-4935-a1a6-58c183ed261b"},"vehicle_type_id":"4","last_reported":1745575861,"current_range_meters":19600,"station_id":"ce4bhmh2rcd13ifvqgmg","pricing_plan_id":"cebpf4jnsgd1na2vs0mg"},{"bike_id":"fb81db3c-12e2-44b7-8142-2689708da6f1","system_id":"levelo_inurba_marseille","lat":43.30893,"lon":5.37178,"is_reserved":false,"is_disabled":false,"rental_uris":{"android":"levelo://app?vid=fb81db3c-12e2-44b7-8142-2689708da6f1","ios":"levelo://app?vid=fb81db3c-12e2-44b7-8142-2689708da6f1"},"vehicle_type_id":"4","last_reported":1745575861,"current_range_meters":20000,"station_id":"ce4bguh2rcd13ifvqckg","pricing_plan_id":"cebpf4jnsgd1na2vs0mg"},{"bike_id":"5a7d5f58-55b9-43f0-ada2-3de3e119a779","system_id":"levelo_inurba_marseille","lat":43.26217,"lon":5.3744,"is_reserved":false,"is_disabled":false,"rental_uris":{"android":"levelo://app?vid=5a7d5f58-55b9-43f0-ada2-3de3e119a779","ios":"levelo://app?vid=5a7d5f58-55b9-43f0-ada2-3de3e119a779"},"vehicle_type_id":"4","last_reported":1745575861,"current_range_meters":20000,"station_id":"ce4bhgp2rcd13ifvqfc0","pricing_plan_id":"cebpf4jnsgd1na2vs0mg"},{"bike_id":"e92565b1-0dda-4426-8c0d-cf38ecdda8a2","system_id":"levelo_inurba_marseille","lat":43.21741,"lon":5.34605,"is_reserved":false,"is_disabled":false,"rental_uris":{"android":"levelo://app?vid=e92565b1-0dda-4426-8c0d-cf38ecdda8a2","ios":"levelo://app?vid=e92565b1-0dda-4426-8c0d-cf38ecdda8a2"},"vehicle_type_id":"4","last_reported":1745575861,"current_range_meters":20000,"station_id":"st_cvj6r9ubvosntc0bgbag","pricing_plan_id":"cebpf4jnsgd1na2vs0mg"},{"bike_id":"834bed20-0bfc-4ad7-a557-cff1b8189b56","system_id":"levelo_inurba_marseille","lat":43.29897,"lon":5.43666,"is_reserved":false,"is_disabled":false,"rental_uris":{"android":"levelo://app?vid=834bed20-0bfc-4ad7-a557-cff1b8189b56","ios":"levelo://app?vid=834bed20-0bfc-4ad7-a557-cff1b8189b56"},"vehicle_type_id":"4","last_reported":1745575861,"current_range_meters":20400,"station_id":"ce4bhpp2rcd13ifvqhfg","pricing_plan_id":"cebpf4jnsgd1na2vs0mg"},{"bike_id":"82fc0d6e-6ff9-4435-939d-4e38481aaeb3","system_id":"levelo_inurba_marseille","lat":43.31357,"lon":5.36709,"is_reserved":false,"is_disabled":false,"rental_uris":{"android":"levelo://app?vid=82fc0d6e-6ff9-4435-939d-4e38481aaeb3","ios":"levelo://app?vid=82fc0d6e-6ff9-4435-939d-4e38481aaeb3"},"vehicle_type_id":"4","last_reported":1745575861,"current_range_meters":20400,"station_id":"ce4bgr92rcd13ifvqc6g","pricing_plan_id":"cebpf4jnsgd1na2vs0mg"},{"bike_id":"34ac7e09-e30d-43e2-855e-47b78b64d842","system_id":"levelo_inurba_marseille","lat":43.30596,"lon":5.37224,"is_reserved":false,"is_disabled":false,"rental_uris":{"android":"levelo://app?vid=34ac7e09-e30d-43e2-855e-47b78b64d842","ios":"levelo://app?vid=34ac7e09-e30d-43e2-855e-47b78b64d842"},"vehicle_type_id":"4","last_reported":1745575861,"current_range_meters":20400,"station_id":"ce4bgqh2rcd13ifvqc4g","pricing_plan_id":"cebpf4jnsgd1na2vs0mg"},{"bike_id":"d7844114-526e-4b53-a030-69252f001196","system_id":"levelo_inurba_marseille","lat":43.30547,"lon":5.36521,"is_reserved":false,"is_disabled":false,"rental_uris":{"android":"levelo://app?vid=d7844114-526e-4b53-a030-69252f001196","ios":"levelo://app?vid=d7844114-526e-4b53-a030-69252f001196"},"vehicle_type_id":"4","last_reported":1745575861,"current_range_meters":20400,"station_id":"ce4bgs12rcd13ifvqcag","pricing_plan_id":"cebpf4jnsgd1na2vs0mg"},{"bike_id":"60c69759-123a-4dd8-9e34-dde148c3cae0","system_id":"levelo_inurba_marseille","lat":43.25088,"lon":5.39533,"is_reserved":false,"is_disabled":false,"rental_uris":{"android":"levelo://app?vid=60c69759-123a-4dd8-9e34-dde148c3cae0","ios":"levelo://app?vid=60c69759-123a-4dd8-9e34-dde148c3cae0"},"vehicle_type_id":"4","last_reported":1745575861,"current_range_meters":20800,"station_id":"ce4bhm12rcd13ifvqgkg","pricing_plan_id":"cebpf4jnsgd1na2vs0mg"},{"bike_id":"a4ab582b-fff5-4a99-abe1-a04adafd51ff","system_id":"levelo_inurba_marseille","lat":43.25493,"lon":5.37644,"is_reserved":false,"is_disabled":false,"rental_uris":{"android":"levelo://app?vid=a4ab582b-fff5-4a99-abe1-a04adafd51ff","ios":"levelo://app?vid=a4ab582b-fff5-4a99-abe1-a04adafd51ff"},"vehicle_type_id":"4","last_reported":1745575861,"current_range_meters":20400,"station_id":"ce4bhh12rcd13ifvqff0","pricing_plan_id":"cebpf4jnsgd1na2vs0mg"},{"bike_id":"5d67af38-808f-45a2-bb8f-75ac73f3d48b","system_id":"levelo_inurba_marseille","lat":43.27811,"lon":5.4071,"is_reserved":false,"is_disabled":false,"rental_uris":{"android":"levelo://app?vid=5d67af38-808f-45a2-bb8f-75ac73f3d48b","ios":"levelo://app?vid=5d67af38-808f-45a2-bb8f-75ac73f3d48b"},"vehicle_type_id":"4","last_reported":1745575861,"current_range_meters":20800,"station_id":"ce4bhnh2rcd13ifvqgtg","pricing_plan_id":"cebpf4jnsgd1na2vs0mg"},{"bike_id":"fbd884c9-b042-46af-bda9-9636c04ac67c","system_id":"levelo_inurba_marseille","lat":43.30326,"lon":5.40428,"is_reserved":false,"is_disabled":false,"rental_uris":{"android":"levelo://app?vid=fbd884c9-b042-46af-bda9-9636c04ac67c","ios":"levelo://app?vid=fbd884c9-b042-46af-bda9-9636c04ac67c"},"vehicle_type_id":"4","last_reported":1745575861,"current_range_meters":20800,"station_id":"ce4bh012rcd13ifvqd10","pricing_plan_id":"cebpf4jnsgd1na2vs0mg"},{"bike_id":"b8d31eed-2ebf-4502-bb42-b6a72c128936","system_id":"levelo_inurba_marseille","lat":43.294158,"lon":5.386228,"is_reserved":false,"is_disabled":false,"rental_uris":{"android":"levelo://app?vid=b8d31eed-2ebf-4502-bb42-b6a72c128936","ios":"levelo://app?vid=b8d31eed-2ebf-4502-bb42-b6a72c128936"},"vehicle_type_id":"4","last_reported":1745575861,"current_range_meters":20400,"station_id":"ce4bhbh2rcd13ifvqeo0","pricing_plan_id":"cebpf4jnsgd1na2vs0mg"},{"bike_id":"b94075b5-6014-451f-add9-d4dd3c2523ad","system_id":"levelo_inurba_marseille","lat":43.273718,"lon":5.362631,"is_reserved":false,"is_disabled":false,"rental_uris":{"android":"levelo://app?vid=b94075b5-6014-451f-add9-d4dd3c2523ad","ios":"levelo://app?vid=b94075b5-6014-451f-add9-d4dd3c2523ad"},"vehicle_type_id":"4","last_reported":1745575861,"current_range_meters":20400,"station_id":"ce4bhbh2rcd13ifvqeo0","pricing_plan_id":"cebpf4jnsgd1na2vs0mg"},{"bike_id":"6cef7c08-ee3e-40a6-a5da-2b082e5087bc","system_id":"levelo_inurba_marseille","lat":43.23181,"lon":5.39985,"is_reserved":false,"is_disabled":false,"rental_uris":{"android":"levelo://app?vid=6cef7c08-ee3e-40a6-a5da-2b082e5087bc","ios":"levelo://app?vid=6cef7c08-ee3e-40a6-a5da-2b082e5087bc"},"vehicle_type_id":"4","last_reported":1745575861,"current_range_meters":20800,"station_id":"ce4bhn12rcd13ifvqgqg","pricing_plan_id":"cebpf4jnsgd1na2vs0mg"},{"bike_id":"df940c2f-82db-4a84-b256-62b69b5de06f","system_id":"levelo_inurba_marseille","lat":43.28422,"lon":5.34988,"is_reserved":false,"is_disabled":false,"rental_uris":{"android":"levelo://app?vid=df940c2f-82db-4a84-b256-62b69b5de06f","ios":"levelo://app?vid=df940c2f-82db-4a84-b256-62b69b5de06f"},"vehicle_type_id":"4","last_reported":1745575861,"current_range_meters":21600,"station_id":"ce4bhbh2rcd13ifvqepg","pricing_plan_id":"cebpf4jnsgd1na2vs0mg"},{"bike_id":"c4a53509-be92-4892-a8fe-317213f579a2","system_id":"levelo_inurba_marseille","lat":43.28622,"lon":5.35073,"is_reserved":false,"is_disabled":true,"rental_uris":{"android":"levelo://app?vid=c4a53509-be92-4892-a8fe-317213f579a2","ios":"levelo://app?vid=c4a53509-be92-4892-a8fe-317213f579a2"},"vehicle_type_id":"4","last_reported":1745575861,"current_range_meters":21600,"station_id":"ce4bhch2rcd13ifvqeug","pricing_plan_id":"cebpf4jnsgd1na2vs0mg"},{"bike_id":"76529462-06b2-456b-88e9-3c7f4cb3768d","system_id":"levelo_inurba_marseille","lat":43.29166,"lon":5.37173,"is_reserved":false,"is_disabled":false,"rental_uris":{"android":"levelo://app?vid=76529462-06b2-456b-88e9-3c7f4cb3768d","ios":"levelo://app?vid=76529462-06b2-456b-88e9-3c7f4cb3768d"},"vehicle_type_id":"4","last_reported":1745575861,"current_range_meters":21600,"station_id":"ce4bha92rcd13ifvqeh0","pricing_plan_id":"cebpf4jnsgd1na2vs0mg"},{"bike_id":"4b12207f-3248-492d-bd2a-d81ffd975159","system_id":"levelo_inurba_marseille","lat":43.30543,"lon":5.36543,"is_reserved":false,"is_disabled":false,"rental_uris":{"android":"levelo://app?vid=4b12207f-3248-492d-bd2a-d81ffd975159","ios":"levelo://app?vid=4b12207f-3248-492d-bd2a-d81ffd975159"},"vehicle_type_id":"4","last_reported":1745575861,"current_range_meters":22000,"station_id":"ce4bgs12rcd13ifvqcag","pricing_plan_id":"cebpf4jnsgd1na2vs0mg"},{"bike_id":"11a75062-441b-446a-8a8b-75913b0a0b66","system_id":"levelo_inurba_marseille","lat":43.23964,"lon":5.3663,"is_reserved":false,"is_disabled":false,"rental_uris":{"android":"levelo://app?vid=11a75062-441b-446a-8a8b-75913b0a0b66","ios":"levelo://app?vid=11a75062-441b-446a-8a8b-75913b0a0b66"},"vehicle_type_id":"4","last_reported":1745575861,"current_range_meters":22000,"station_id":"ce4bhi12rcd13ifvqfp0","pricing_plan_id":"cebpf4jnsgd1na2vs0mg"},{"bike_id":"d7edd326-1f63-4585-952e-80b37980d45b","system_id":"levelo_inurba_marseille","lat":43.31394,"lon":5.36731,"is_reserved":false,"is_disabled":false,"rental_uris":{"android":"levelo://app?vid=d7edd326-1f63-4585-952e-80b37980d45b","ios":"levelo://app?vid=d7edd326-1f63-4585-952e-80b37980d45b"},"vehicle_type_id":"4","last_reported":1745575861,"current_range_meters":22000,"station_id":"ce4bgr92rcd13ifvqc6g","pricing_plan_id":"cebpf4jnsgd1na2vs0mg"},{"bike_id":"50d5bda6-69e1-4b45-a14a-944f6eb70469","system_id":"levelo_inurba_marseille","lat":43.25928,"lon":5.40899,"is_reserved":false,"is_disabled":false,"rental_uris":{"android":"levelo://app?vid=50d5bda6-69e1-4b45-a14a-944f6eb70469","ios":"levelo://app?vid=50d5bda6-69e1-4b45-a14a-944f6eb70469"},"vehicle_type_id":"4","last_reported":1745575861,"current_range_meters":22000,"station_id":"ce4bhm92rcd13ifvqglg","pricing_plan_id":"cebpf4jnsgd1na2vs0mg"},{"bike_id":"e10849ab-f14c-42eb-bf35-8ad4ea47ec28","system_id":"levelo_inurba_marseille","lat":43.30283,"lon":5.40468,"is_reserved":false,"is_disabled":true,"rental_uris":{"android":"levelo://app?vid=e10849ab-f14c-42eb-bf35-8ad4ea47ec28","ios":"levelo://app?vid=e10849ab-f14c-42eb-bf35-8ad4ea47ec28"},"vehicle_type_id":"4","last_reported":1745575861,"current_range_meters":22400,"station_id":"ce4bh012rcd13ifvqd10","pricing_plan_id":"cebpf4jnsgd1na2vs0mg"},{"bike_id":"ec92d192-d767-4d42-b0d8-2aadeb0f54e1","system_id":"levelo_inurba_marseille","lat":43.27809,"lon":5.40711,"is_reserved":false,"is_disabled":false,"rental_uris":{"android":"levelo://app?vid=ec92d192-d767-4d42-b0d8-2aadeb0f54e1","ios":"levelo://app?vid=ec92d192-d767-4d42-b0d8-2aadeb0f54e1"},"vehicle_type_id":"4","last_reported":1745575861,"current_range_meters":22400,"station_id":"ce4bhnh2rcd13ifvqgtg","pricing_plan_id":"cebpf4jnsgd1na2vs0mg"},{"bike_id":"62a63f9a-d8f4-41c5-97e6-625cb739bf6d","system_id":"levelo_inurba_marseille","lat":43.29005,"lon":5.3561,"is_reserved":false,"is_disabled":false,"rental_uris":{"android":"levelo://app?vid=62a63f9a-d8f4-41c5-97e6-625cb739bf6d","ios":"levelo://app?vid=62a63f9a-d8f4-41c5-97e6-625cb739bf6d"},"vehicle_type_id":"4","last_reported":1745575861,"current_range_meters":22400,"station_id":"ce4bhb92rcd13ifvqen0","pricing_plan_id":"cebpf4jnsgd1na2vs0mg"},{"bike_id":"309fd071-365c-4798-ad6a-3062c6e001ad","system_id":"levelo_inurba_marseille","lat":43.26196,"lon":5.37926,"is_reserved":false,"is_disabled":true,"rental_uris":{"android":"levelo://app?vid=309fd071-365c-4798-ad6a-3062c6e001ad","ios":"levelo://app?vid=309fd071-365c-4798-ad6a-3062c6e001ad"},"vehicle_type_id":"4","last_reported":1745575861,"current_range_meters":22400,"station_id":"ce4bhjp2rcd13ifvqg90","pricing_plan_id":"cebpf4jnsgd1na2vs0mg"},{"bike_id":"ac92bfce-b3b9-4520-94c9-bffdeaeff916","system_id":"levelo_inurba_marseille","lat":43.30545,"lon":5.36721,"is_reserved":false,"is_disabled":false,"rental_uris":{"android":"levelo://app?vid=ac92bfce-b3b9-4520-94c9-bffdeaeff916","ios":"levelo://app?vid=ac92bfce-b3b9-4520-94c9-bffdeaeff916"},"vehicle_type_id":"4","last_reported":1745575861,"current_range_meters":22400,"station_id":"ce4bgrp2rcd13ifvqc9g","pricing_plan_id":"cebpf4jnsgd1na2vs0mg"},{"bike_id":"8d591507-5fba-42c1-afce-edb828d3dd11","system_id":"levelo_inurba_marseille","lat":43.2593,"lon":5.40913,"is_reserved":false,"is_disabled":false,"rental_uris":{"android":"levelo://app?vid=8d591507-5fba-42c1-afce-edb828d3dd11","ios":"levelo://app?vid=8d591507-5fba-42c1-afce-edb828d3dd11"},"vehicle_type_id":"4","last_reported":1745575861,"current_range_meters":22400,"station_id":"ce4bhm92rcd13ifvqglg","pricing_plan_id":"cebpf4jnsgd1na2vs0mg"},{"bike_id":"908f42eb-8230-402e-921d-2ddb58bc5421","system_id":"levelo_inurba_marseille","lat":43.25118,"lon":5.4031,"is_reserved":false,"is_disabled":false,"rental_uris":{"android":"levelo://app?vid=908f42eb-8230-402e-921d-2ddb58bc5421","ios":"levelo://app?vid=908f42eb-8230-402e-921d-2ddb58bc5421"},"vehicle_type_id":"4","last_reported":1745575861,"current_range_meters":22000,"station_id":"ce4bhlh2rcd13ifvqgig","pricing_plan_id":"cebpf4jnsgd1na2vs0mg"},{"bike_id":"1ca4cc81-23a6-4ba0-9c6a-458afd99073d","system_id":"levelo_inurba_marseille","lat":43.21747,"lon":5.34603,"is_reserved":false,"is_disabled":false,"rental_uris":{"android":"levelo://app?vid=1ca4cc81-23a6-4ba0-9c6a-458afd99073d","ios":"levelo://app?vid=1ca4cc81-23a6-4ba0-9c6a-458afd99073d"},"vehicle_type_id":"4","last_reported":1745575861,"current_range_meters":22400,"station_id":"st_cvj6r9ubvosntc0bgbag","pricing_plan_id":"cebpf4jnsgd1na2vs0mg"},{"bike_id":"faa8334f-d698-4b2b-8f65-d27f28dd59cc","system_id":"levelo_inurba_marseille","lat":43.337206,"lon":5.391848,"is_reserved":false,"is_disabled":false,"rental_uris":{"android":"levelo://app?vid=faa8334f-d698-4b2b-8f65-d27f28dd59cc","ios":"levelo://app?vid=faa8334f-d698-4b2b-8f65-d27f28dd59cc"},"vehicle_type_id":"4","last_reported":1745575861,"current_range_meters":22400,"station_id":"ce4bhr92rcd13ifvqhsg","pricing_plan_id":"cebpf4jnsgd1na2vs0mg"},{"bike_id":"7cc30083-e1ff-4395-b341-20e3592c6ddc","system_id":"levelo_inurba_marseille","lat":43.29701,"lon":5.36614,"is_reserved":false,"is_disabled":false,"rental_uris":{"android":"levelo://app?vid=7cc30083-e1ff-4395-b341-20e3592c6ddc","ios":"levelo://app?vid=7cc30083-e1ff-4395-b341-20e3592c6ddc"},"vehicle_type_id":"4","last_reported":1745575861,"current_range_meters":22800,"station_id":"ce4bgn12rcd13ifvqbt0","pricing_plan_id":"cebpf4jnsgd1na2vs0mg"},{"bike_id":"e7767bf0-939b-40ac-a871-a780ec33ccc5","system_id":"levelo_inurba_marseille","lat":43.27375,"lon":5.36254,"is_reserved":false,"is_disabled":false,"rental_uris":{"android":"levelo://app?vid=e7767bf0-939b-40ac-a871-a780ec33ccc5","ios":"levelo://app?vid=e7767bf0-939b-40ac-a871-a780ec33ccc5"},"vehicle_type_id":"4","last_reported":1745575861,"current_range_meters":22800,"station_id":"ce4bhbh2rcd13ifvqeo0","pricing_plan_id":"cebpf4jnsgd1na2vs0mg"},{"bike_id":"586a9560-e195-49db-87da-295974d8b67a","system_id":"levelo_inurba_marseille","lat":43.29303,"lon":5.371779,"is_reserved":false,"is_disabled":true,"rental_uris":{"android":"levelo://app?vid=586a9560-e195-49db-87da-295974d8b67a","ios":"levelo://app?vid=586a9560-e195-49db-87da-295974d8b67a"},"vehicle_type_id":"4","last_reported":1745575861,"current_range_meters":22800,"station_id":"ce4bgh92rcd13ifvqb40","pricing_plan_id":"cebpf4jnsgd1na2vs0mg"},{"bike_id":"3ea242bb-dc31-44a9-8d1d-ecdbc103752c","system_id":"levelo_inurba_marseille","lat":43.28418,"lon":5.34986,"is_reserved":false,"is_disabled":false,"rental_uris":{"android":"levelo://app?vid=3ea242bb-dc31-44a9-8d1d-ecdbc103752c","ios":"levelo://app?vid=3ea242bb-dc31-44a9-8d1d-ecdbc103752c"},"vehicle_type_id":"4","last_reported":1745575861,"current_range_meters":22800,"station_id":"ce4bhbh2rcd13ifvqepg","pricing_plan_id":"cebpf4jnsgd1na2vs0mg"},{"bike_id":"532fd114-81e4-4dce-8f26-7eaf1d8121c9","system_id":"levelo_inurba_marseille","lat":43.28612,"lon":5.3511,"is_reserved":false,"is_disabled":false,"rental_uris":{"android":"levelo://app?vid=532fd114-81e4-4dce-8f26-7eaf1d8121c9","ios":"levelo://app?vid=532fd114-81e4-4dce-8f26-7eaf1d8121c9"},"vehicle_type_id":"4","last_reported":1745575861,"current_range_meters":22800,"station_id":"ce4bhch2rcd13ifvqeug","pricing_plan_id":"cebpf4jnsgd1na2vs0mg"},{"bike_id":"1504a7b4-3c2b-41cd-85cd-57aa88641e7e","system_id":"levelo_inurba_marseille","lat":43.29694,"lon":5.36597,"is_reserved":false,"is_disabled":true,"rental_uris":{"android":"levelo://app?vid=1504a7b4-3c2b-41cd-85cd-57aa88641e7e","ios":"levelo://app?vid=1504a7b4-3c2b-41cd-85cd-57aa88641e7e"},"vehicle_type_id":"4","last_reported":1745575861,"current_range_meters":22800,"station_id":"ce4bgn12rcd13ifvqbt0","pricing_plan_id":"cebpf4jnsgd1na2vs0mg"},{"bike_id":"1b46aa5c-78ad-46f6-a310-8d3bcdaef246","system_id":"levelo_inurba_marseille","lat":43.24805,"lon":5.37459,"is_reserved":false,"is_disabled":false,"rental_uris":{"android":"levelo://app?vid=1b46aa5c-78ad-46f6-a310-8d3bcdaef246","ios":"levelo://app?vid=1b46aa5c-78ad-46f6-a310-8d3bcdaef246"},"vehicle_type_id":"4","last_reported":1745575861,"current_range_meters":22400,"station_id":"ce4bhgh2rcd13ifvqfb0","pricing_plan_id":"cebpf4jnsgd1na2vs0mg"},{"bike_id":"a90d1162-3962-4ca4-8540-0160bfdeb2fe","system_id":"levelo_inurba_marseille","lat":43.24175,"lon":5.39733,"is_reserved":false,"is_disabled":true,"rental_uris":{"android":"levelo://app?vid=a90d1162-3962-4ca4-8540-0160bfdeb2fe","ios":"levelo://app?vid=a90d1162-3962-4ca4-8540-0160bfdeb2fe"},"vehicle_type_id":"4","last_reported":1745575861,"current_range_meters":22800,"station_id":"ce4bhn12rcd13ifvqgpg","pricing_plan_id":"cebpf4jnsgd1na2vs0mg"},{"bike_id":"470f8ec3-2eda-4e69-b82d-d070d799d19e","system_id":"levelo_inurba_marseille","lat":43.303097,"lon":5.36894,"is_reserved":false,"is_disabled":false,"rental_uris":{"android":"levelo://app?vid=470f8ec3-2eda-4e69-b82d-d070d799d19e","ios":"levelo://app?vid=470f8ec3-2eda-4e69-b82d-d070d799d19e"},"vehicle_type_id":"4","last_reported":1745575861,"current_range_meters":22800,"station_id":"ce4bguh2rcd13ifvqcj0","pricing_plan_id":"cebpf4jnsgd1na2vs0mg"},{"bike_id":"dc2dbb7b-6c60-44a0-bb6f-2fb81d621f64","system_id":"levelo_inurba_marseille","lat":43.2804,"lon":5.36943,"is_reserved":false,"is_disabled":false,"rental_uris":{"android":"levelo://app?vid=dc2dbb7b-6c60-44a0-bb6f-2fb81d621f64","ios":"levelo://app?vid=dc2dbb7b-6c60-44a0-bb6f-2fb81d621f64"},"vehicle_type_id":"4","last_reported":1745575861,"current_range_meters":22800,"station_id":"ce4bha12rcd13ifvqef0","pricing_plan_id":"cebpf4jnsgd1na2vs0mg"},{"bike_id":"f5c69073-50c0-490a-a2e7-837f52ac87fa","system_id":"levelo_inurba_marseille","lat":43.24075,"lon":5.37752,"is_reserved":false,"is_disabled":false,"rental_uris":{"android":"levelo://app?vid=f5c69073-50c0-490a-a2e7-837f52ac87fa","ios":"levelo://app?vid=f5c69073-50c0-490a-a2e7-837f52ac87fa"},"vehicle_type_id":"4","last_reported":1745575861,"current_range_meters":23200,"station_id":"ce4bhnp2rcd13ifvqgvg","pricing_plan_id":"cebpf4jnsgd1na2vs0mg"},{"bike_id":"8b6da508-f745-4843-8a4b-ee7ecf73aead","system_id":"levelo_inurba_marseille","lat":43.30953,"lon":5.36831,"is_reserved":false,"is_disabled":false,"rental_uris":{"android":"levelo://app?vid=8b6da508-f745-4843-8a4b-ee7ecf73aead","ios":"levelo://app?vid=8b6da508-f745-4843-8a4b-ee7ecf73aead"},"vehicle_type_id":"4","last_reported":1745575861,"current_range_meters":23200,"station_id":"ce4bgn92rcd13ifvqbvg","pricing_plan_id":"cebpf4jnsgd1na2vs0mg"},{"bike_id":"bf5a1e60-91f6-40a2-9386-42405e3fd60b","system_id":"levelo_inurba_marseille","lat":43.29208,"lon":5.36361,"is_reserved":false,"is_disabled":false,"rental_uris":{"android":"levelo://app?vid=bf5a1e60-91f6-40a2-9386-42405e3fd60b","ios":"levelo://app?vid=bf5a1e60-91f6-40a2-9386-42405e3fd60b"},"vehicle_type_id":"4","last_reported":1745575861,"current_range_meters":23200,"station_id":"","pricing_plan_id":"cebpf4jnsgd1na2vs0mg"},{"bike_id":"b64aa273-5cc3-449e-ba92-14833edf0136","system_id":"levelo_inurba_marseille","lat":43.30895,"lon":5.39624,"is_reserved":false,"is_disabled":true,"rental_uris":{"android":"levelo://app?vid=b64aa273-5cc3-449e-ba92-14833edf0136","ios":"levelo://app?vid=b64aa273-5cc3-449e-ba92-14833edf0136"},"vehicle_type_id":"4","last_reported":1745575861,"current_range_meters":24000,"station_id":"ce4bh012rcd13ifvqcv0","pricing_plan_id":"cebpf4jnsgd1na2vs0mg"},{"bike_id":"cc0a05bb-b8ef-4fca-a741-dc3a1e56da39","system_id":"levelo_inurba_marseille","lat":43.26564,"lon":5.37283,"is_reserved":false,"is_disabled":true,"rental_uris":{"android":"levelo://app?vid=cc0a05bb-b8ef-4fca-a741-dc3a1e56da39","ios":"levelo://app?vid=cc0a05bb-b8ef-4fca-a741-dc3a1e56da39"},"vehicle_type_id":"4","last_reported":1745575861,"current_range_meters":24000,"station_id":"ce4bhg12rcd13ifvqf70","pricing_plan_id":"cebpf4jnsgd1na2vs0mg"},{"bike_id":"ef1a963c-9017-49c7-8971-7d81992fe9b2","system_id":"levelo_inurba_marseille","lat":43.25506,"lon":5.37635,"is_reserved":false,"is_disabled":true,"rental_uris":{"android":"levelo://app?vid=ef1a963c-9017-49c7-8971-7d81992fe9b2","ios":"levelo://app?vid=ef1a963c-9017-49c7-8971-7d81992fe9b2"},"vehicle_type_id":"4","last_reported":1745575861,"current_range_meters":24000,"station_id":"ce4bhh12rcd13ifvqff0","pricing_plan_id":"cebpf4jnsgd1na2vs0mg"},{"bike_id":"92c86629-b9d5-476a-b6c7-b6d5bc3376da","system_id":"levelo_inurba_marseille","lat":43.25001,"lon":5.38922,"is_reserved":false,"is_disabled":false,"rental_uris":{"android":"levelo://app?vid=92c86629-b9d5-476a-b6c7-b6d5bc3376da","ios":"levelo://app?vid=92c86629-b9d5-476a-b6c7-b6d5bc3376da"},"vehicle_type_id":"4","last_reported":1745575861,"current_range_meters":24000,"station_id":"ce4bhgp2rcd13ifvqfd0","pricing_plan_id":"cebpf4jnsgd1na2vs0mg"},{"bike_id":"4c21172f-1690-4019-b392-953395869175","system_id":"levelo_inurba_marseille","lat":43.25937,"lon":5.40906,"is_reserved":false,"is_disabled":false,"rental_uris":{"android":"levelo://app?vid=4c21172f-1690-4019-b392-953395869175","ios":"levelo://app?vid=4c21172f-1690-4019-b392-953395869175"},"vehicle_type_id":"4","last_reported":1745575861,"current_range_meters":24000,"station_id":"ce4bhm92rcd13ifvqglg","pricing_plan_id":"cebpf4jnsgd1na2vs0mg"},{"bike_id":"c8f53cf3-61c5-42b2-a784-ded4671cea39","system_id":"levelo_inurba_marseille","lat":43.29534,"lon":5.37515,"is_reserved":false,"is_disabled":true,"rental_uris":{"android":"levelo://app?vid=c8f53cf3-61c5-42b2-a784-ded4671cea39","ios":"levelo://app?vid=c8f53cf3-61c5-42b2-a784-ded4671cea39"},"vehicle_type_id":"4","last_reported":1745575861,"current_range_meters":24000,"station_id":"ce4bgkp2rcd13ifvqbmg","pricing_plan_id":"cebpf4jnsgd1na2vs0mg"},{"bike_id":"d28c10ba-893e-44a2-adef-dff7cf34158a","system_id":"levelo_inurba_marseille","lat":43.24146,"lon":5.36403,"is_reserved":false,"is_disabled":false,"rental_uris":{"android":"levelo://app?vid=d28c10ba-893e-44a2-adef-dff7cf34158a","ios":"levelo://app?vid=d28c10ba-893e-44a2-adef-dff7cf34158a"},"vehicle_type_id":"4","last_reported":1745575861,"current_range_meters":24000,"station_id":"cpo36qri1sfpv3e86is0","pricing_plan_id":"cebpf4jnsgd1na2vs0mg"},{"bike_id":"752cd4f5-cacc-4330-807a-97d77d1ea089","system_id":"levelo_inurba_marseille","lat":43.25911,"lon":5.40904,"is_reserved":false,"is_disabled":false,"rental_uris":{"android":"levelo://app?vid=752cd4f5-cacc-4330-807a-97d77d1ea089","ios":"levelo://app?vid=752cd4f5-cacc-4330-807a-97d77d1ea089"},"vehicle_type_id":"4","last_reported":1745575861,"current_range_meters":24000,"station_id":"ce4bhm92rcd13ifvqglg","pricing_plan_id":"cebpf4jnsgd1na2vs0mg"},{"bike_id":"c4c5b076-3433-4051-9aef-0851bf3917c1","system_id":"levelo_inurba_marseille","lat":43.31332,"lon":5.36708,"is_reserved":false,"is_disabled":false,"rental_uris":{"android":"levelo://app?vid=c4c5b076-3433-4051-9aef-0851bf3917c1","ios":"levelo://app?vid=c4c5b076-3433-4051-9aef-0851bf3917c1"},"vehicle_type_id":"4","last_reported":1745575861,"current_range_meters":24000,"station_id":"ce4bgr92rcd13ifvqc6g","pricing_plan_id":"cebpf4jnsgd1na2vs0mg"},{"bike_id":"8fdd3eba-3e99-424d-93ab-11d30f74371f","system_id":"levelo_inurba_marseille","lat":43.27205,"lon":5.39183,"is_reserved":false,"is_disabled":false,"rental_uris":{"android":"levelo://app?vid=8fdd3eba-3e99-424d-93ab-11d30f74371f","ios":"levelo://app?vid=8fdd3eba-3e99-424d-93ab-11d30f74371f"},"vehicle_type_id":"4","last_reported":1745575861,"current_range_meters":24000,"station_id":"ce4bhhp2rcd13ifvqfm0","pricing_plan_id":"cebpf4jnsgd1na2vs0mg"},{"bike_id":"d8a266c4-8407-47a4-8fb3-d37ede4d2212","system_id":"levelo_inurba_marseille","lat":43.31376,"lon":5.36691,"is_reserved":false,"is_disabled":false,"rental_uris":{"android":"levelo://app?vid=d8a266c4-8407-47a4-8fb3-d37ede4d2212","ios":"levelo://app?vid=d8a266c4-8407-47a4-8fb3-d37ede4d2212"},"vehicle_type_id":"4","last_reported":1745575861,"current_range_meters":24400,"station_id":"ce4bgr92rcd13ifvqc6g","pricing_plan_id":"cebpf4jnsgd1na2vs0mg"},{"bike_id":"6a87bd12-81f5-49bf-8693-466503b4aaad","system_id":"levelo_inurba_marseille","lat":43.24802,"lon":5.37453,"is_reserved":false,"is_disabled":false,"rental_uris":{"android":"levelo://app?vid=6a87bd12-81f5-49bf-8693-466503b4aaad","ios":"levelo://app?vid=6a87bd12-81f5-49bf-8693-466503b4aaad"},"vehicle_type_id":"4","last_reported":1745575861,"current_range_meters":24000,"station_id":"ce4bhgh2rcd13ifvqfb0","pricing_plan_id":"cebpf4jnsgd1na2vs0mg"},