{"last_updated":1769498344,"ttl":60,"version":"2.2","data":{"bikes":[{"bike_id":"5e4893e0-7e86-482d-a767-2dc95c5fbe1a","system_id":"levelo_inurba_marseille","lat":43.28109,"lon":5.41048,"is_reserved":false,"is_disabled":false,"rental_uris":{"android":"levelo://app?vid=5e4893e0-7e86-482d-a767-2dc95c5fbe1a","ios":"levelo://app?vid=5e4893e0-7e86-482d-a767-2dc95c5fbe1a"},"vehicle_type_id":"4","last_reported":1769498344,"current_range_meters":2800,"station_id":"","pricing_plan_id":"cebpf4jnsgd1na2vs0mg"},{"bike_id":"146df0e0-caa5-478f-b06f-69184c37cf98","system_id":"levelo_inurba_marseille","lat":43.30274,"lon":5.38184,"is_reserved":false,"is_disabled":false,"rental_uris":{"android":"levelo://app?vid=146df0e0-caa5-478f-b06f-69184c37cf98","ios":"levelo://app?vid=146df0e0-caa5-478f-b06f-69184c37cf98"},"vehicle_type_id":"4","last_reported":1769498344,"current_range_meters":2800,"station_id":"","pricing_plan_id":"cebpf4jnsgd1na2vs0mg"},{"bike_id":"b633e966-5653-4f4f-933b-143a8d470829","system_id":"levelo_inurba_marseille","lat":43.26073,"lon":5.37308,"is_reserved":false,"is_disabled":false,"rental_uris":{"android":"levelo://app?vid=b633e966-5653-4f4f-933b-143a8d470829","ios":"levelo://app?vid=b633e966-5653-4f4f-933b-143a8d470829"},"vehicle_type_id":"4","last_reported":1769498344,"current_range_meters":2800,"station_id":"","pricing_plan_id":"cebpf4jnsgd1na2vs0mg"},{"bike_id":"99329721-1bb7-4a38-ba55-b99061087db5","system_id":"levelo_inurba_marseille","lat":43.2903,"lon":5.40004,"is_reserved":false,"is_disabled":false,"rental_uris":{"android":"levelo://app?vid=99329721-1bb7-4a38-ba55-b99061087db5","ios":"levelo://app?vid=99329721-1bb7-4a38-ba55-b99061087db5"},"vehicle_type_id":"4","last_reported":1769498344,"current_range_meters":2800,"station_id":"ce4bh392rcd13ifvqdm0","pricing_plan_id":"cebpf4jnsgd1na2vs0mg"},{"bike_id":"82045e58-9f9b-4d25-91f4-deb8f2752ebc","system_id":"levelo_inurba_marseille","lat":43.23955,"lon":5.36646,"is_reserved":false,"is_disabled":false,"rental_uris":{"android":"levelo://app?vid=82045e58-9f9b-4d25-91f4-deb8f2752ebc","ios":"levelo://app?vid=82045e58-9f9b-4d25-91f4-deb8f2752ebc"},"vehicle_type_id":"4","last_reported":1769498344,"current_range_meters":2800,"station_id":"ce4bhi12rcd13ifvqfp0","pricing_plan_id":"cebpf4jnsgd1na2vs0mg"},{"bike_id":"b5823442-36c4-4016-bfef-6f03807635a7","system_id":"levelo_inurba_marseille","lat":43.336242,"lon":5.410277,"is_reserved":false,"is_disabled":false,"rental_uris":{"android":"levelo://app?vid=b5823442-36c4-4016-bfef-6f03807635a7","ios":"levelo://app?vid=b5823442-36c4-4016-bfef-6f03807635a7"},"vehicle_type_id":"4","last_reported":1769498344,"current_range_meters":2800,"station_id":"ce4bhqh2rcd13ifvqhmg","pricing_plan_id":"cebpf4jnsgd1na2vs0mg"},{"bike_id":"b6c21133-2bc7-4e53-93db-5d7ab9341050","system_id":"levelo_inurba_marseille","lat":43.29437,"lon":5.39748,"is_reserved":false,"is_disabled":false,"rental_uris":{"android":"levelo://app?vid=b6c21133-2bc7-4e53-93db-5d7ab9341050","ios":"levelo://app?vid=b6c21133-2bc7-4e53-93db-5d7ab9341050"},"vehicle_type_id":"4","last_reported":1769498344,"current_range_meters":2800,"station_id":"ce4bh3h2rcd13ifvqdo0","pricing_plan_id":"cebpf4jnsgd1na2vs0mg"},{"bike_id":"2d78c52a-e821-423c-8912-3c0fcf451046","system_id":"levelo_inurba_marseille","lat":43.24158,"lon":5.36401,"is_reserved":false,"is_disabled":false,"rental_uris":{"android":"levelo://app?vid=2d78c52a-e821-423c-8912-3c0fcf451046","ios":"levelo://app?vid=2d78c52a-e821-423c-8912-3c0fcf451046"},"vehicle_type_id":"4","last_reported":1769498344,"current_range_meters":2800,"station_id":"cpo36qri1sfpv3e86is0","pricing_plan_id":"cebpf4jnsgd1na2vs0mg"},{"bike_id":"49b0ae01-7dcd-4424-9fac-f112f1db2f50","system_id":"levelo_inurba_marseille","lat":43.289334,"lon":5.36649,"is_reserved":false,"is_disabled":false,"rental_uris":{"android":"levelo://app?vid=49b0ae01-7dcd-4424-9fac-f112f1db2f50","ios":"levelo://app?vid=49b0ae01-7dcd-4424-9fac-f112f1db2f50"},"vehicle_type_id":"4","last_reported":1769498344,"current_range_meters":3200,"station_id":"ce4bhap2rcd13ifvqek0","pricing_plan_id":"cebpf4jnsgd1na2vs0mg"},{"bike_id":"35a7406f-c3d7-4ad8-baa5-77e0b1066dfe","system_id":"levelo_inurba_marseille","lat":43.28152,"lon":5.42645,"is_reserved":false,"is_disabled":false,"rental_uris":{"android":"levelo://app?vid=35a7406f-c3d7-4ad8-baa5-77e0b1066dfe","ios":"levelo://app?vid=35a7406f-c3d7-4ad8-baa5-77e0b1066dfe"},"vehicle_type_id":"4","last_reported":1769498344,"current_range_meters":3200,"station_id":"ce4bhnh2rcd13ifvqgug","pricing_plan_id":"cebpf4jnsgd1na2vs0mg"},{"bike_id":"47492743-489d-45ae-8cd5-a690ce98ece0","system_id":"levelo_inurba_marseille","lat":43.27961,"lon":5.38769,"is_reserved":false,"is_disabled":false,"rental_uris":{"android":"levelo://app?vid=47492743-489d-45ae-8cd5-a690ce98ece0","ios":"levelo://app?vid=47492743-489d-45ae-8cd5-a690ce98ece0"},"vehicle_type_id":"4","last_reported":1769498344,"current_range_meters":3200,"station_id":"ce4bhg12rcd13ifvqf80","pricing_plan_id":"cebpf4jnsgd1na2vs0mg"},{"bike_id":"5c99255e-2f49-4613-b032-b12f2a20b34f","system_id":"levelo_inurba_marseille","lat":43.304187,"lon":5.397383,"is_reserved":false,"is_disabled":false,"rental_uris":{"android":"levelo://app?vid=5c99255e-2f49-4613-b032-b12f2a20b34f","ios":"levelo://app?vid=5c99255e-2f49-4613-b032-b12f2a20b34f"},"vehicle_type_id":"4","last_reported":1769498344,"current_range_meters":3200,"station_id":"ce4bh092rcd13ifvqd20","pricing_plan_id":"cebpf4jnsgd1na2vs0mg"},{"bike_id":"4f9646d0-e890-4075-9fb7-8871574ea59d","system_id":"levelo_inurba_marseille","lat":43.25035,"lon":5.3896,"is_reserved":false,"is_disabled":false,"rental_uris":{"android":"levelo://app?vid=4f9646d0-e890-4075-9fb7-8871574ea59d","ios":"levelo://app?vid=4f9646d0-e890-4075-9fb7-8871574ea59d"},"vehicle_type_id":"4","last_reported":1769498344,"current_range_meters":3200,"station_id":"","pricing_plan_id":"cebpf4jnsgd1na2vs0mg"},{"bike_id":"474798f8-bbd5-45f6-8a42-b1ac260b177a","system_id":"levelo_inurba_marseille","lat":43.25005,"lon":5.38945,"is_reserved":false,"is_disabled":false,"rental_uris":{"android":"levelo://app?vid=474798f8-bbd5-45f6-8a42-b1ac260b177a","ios":"levelo://app?vid=474798f8-bbd5-45f6-8a42-b1ac260b177a"},"vehicle_type_id":"4","last_reported":1769498344,"current_range_meters":3200,"station_id":"ce4bhgp2rcd13ifvqfd0","pricing_plan_id":"cebpf4jnsgd1na2vs0mg"},{"bike_id":"3ea061e6-3522-4acc-948f-9e8a2f88b026","system_id":"levelo_inurba_marseille","lat":43.231463,"lon":5.43709,"is_reserved":false,"is_disabled":false,"rental_uris":{"android":"levelo://app?vid=3ea061e6-3522-4acc-948f-9e8a2f88b026","ios":"levelo://app?vid=3ea061e6-3522-4acc-948f-9e8a2f88b026"},"vehicle_type_id":"4","last_reported":1769498344,"current_range_meters":3200,"station_id":"ce4bhmp2rcd13ifvqgog","pricing_plan_id":"cebpf4jnsgd1na2vs0mg"},{"bike_id":"b870a273-6d60-43b1-aeff-305310ce9e81","system_id":"levelo_inurba_marseille","lat":43.23975,"lon":5.36633,"is_reserved":false,"is_disabled":false,"rental_uris":{"android":"levelo://app?vid=b870a273-6d60-43b1-aeff-305310ce9e81","ios":"levelo://app?vid=b870a273-6d60-43b1-aeff-305310ce9e81"},"vehicle_type_id":"4","last_reported":1769498344,"current_range_meters":3200,"station_id":"ce4bhi12rcd13ifvqfp0","pricing_plan_id":"cebpf4jnsgd1na2vs0mg"},{"bike_id":"b81ca986-1c94-4b0d-931e-ce66cddf52bd","system_id":"levelo_inurba_marseille","lat":43.24301,"lon":5.37969,"is_reserved":false,"is_disabled":false,"rental_uris":{"android":"levelo://app?vid=b81ca986-1c94-4b0d-931e-ce66cddf52bd","ios":"levelo://app?vid=b81ca986-1c94-4b0d-931e-ce66cddf52bd"},"vehicle_type_id":"4","last_reported":1769498344,"current_range_meters":3200,"station_id":"","pricing_plan_id":"cebpf4jnsgd1na2vs0mg"},{"bike_id":"49e77d07-0577-408d-a3dd-5cdf95cd7bb8","system_id":"levelo_inurba_marseille","lat":43.29036,"lon":5.39966,"is_reserved":false,"is_disabled":false,"rental_uris":{"android":"levelo://app?vid=49e77d07-0577-408d-a3dd-5cdf95cd7bb8","ios":"levelo://app?vid=49e77d07-0577-408d-a3dd-5cdf95cd7bb8"},"vehicle_type_id":"4","last_reported":1769498344,"current_range_meters":3200,"station_id":"ce4bh392rcd13ifvqdm0","pricing_plan_id":"cebpf4jnsgd1na2vs0mg"},{"bike_id":"87fa385e-b2b0-424a-b2ce-8af5f303f89a","system_id":"levelo_inurba_marseille","lat":43.31184,"lon":5.38512,"is_reserved":false,"is_disabled":false,"rental_uris":{"android":"levelo://app?vid=87fa385e-b2b0-424a-b2ce-8af5f303f89a","ios":"levelo://app?vid=87fa385e-b2b0-424a-b2ce-8af5f303f89a"},"vehicle_type_id":"4","last_reported":1769498344,"current_range_meters":3200,"station_id":"","pricing_plan_id":"cebpf4jnsgd1na2vs0mg"},{"bike_id":"1d4557f2-9194-433e-908c-7af0a931319a","system_id":"levelo_inurba_marseille","lat":43.25507,"lon":5.3766,"is_reserved":false,"is_disabled":false,"rental_uris":{"android":"levelo://app?vid=1d4557f2-9194-433e-908c-7af0a931319a","ios":"levelo://app?vid=1d4557f2-9194-433e-908c-7af0a931319a"},"vehicle_type_id":"4","last_reported":1769498344,"current_range_meters":3600,"station_id":"ce4bhh12rcd13ifvqff0","pricing_plan_id":"cebpf4jnsgd1na2vs0mg"},{"bike_id":"584e5dbd-06ef-462e-8c75-2340a4058604","system_id":"levelo_inurba_marseille","lat":43.30146,"lon":5.38067,"is_reserved":false,"is_disabled":false,"rental_uris":{"android":"levelo://app?vid=584e5dbd-06ef-462e-8c75-2340a4058604","ios":"levelo://app?vid=584e5dbd-06ef-462e-8c75-2340a4058604"},"vehicle_type_id":"4","last_reported":1769498344,"current_range_meters":3600,"station_id":"ce4bgjp2rcd13ifvqbh0","pricing_plan_id":"cebpf4jnsgd1na2vs0mg"},{"bike_id":"41ee23aa-0dba-468d-8fa2-740dd6a2a2df","system_id":"levelo_inurba_marseille","lat":43.31321,"lon":5.39714,"is_reserved":false,"is_disabled":false,"rental_uris":{"android":"levelo://app?vid=41ee23aa-0dba-468d-8fa2-740dd6a2a2df","ios":"levelo://app?vid=41ee23aa-0dba-468d-8fa2-740dd6a2a2df"},"vehicle_type_id":"4","last_reported":1769498344,"current_range_meters":3600,"station_id":"ce4bgvp2rcd13ifvqcu0","pricing_plan_id":"cebpf4jnsgd1na2vs0mg"},{"bike_id":"620120a6-8a36-4b57-b49f-d8065118fae9","system_id":"levelo_inurba_marseille","lat":43.23139,"lon":5.43724,"is_reserved":false,"is_disabled":false,"rental_uris":{"android":"levelo://app?vid=620120a6-8a36-4b57-b49f-d8065118fae9","ios":"levelo://app?vid=620120a6-8a36-4b57-b49f-d8065118fae9"},"vehicle_type_id":"4","last_reported":1769498344,"current_range_meters":3600,"station_id":"ce4bhmp2rcd13ifvqgog","pricing_plan_id":"cebpf4jnsgd1na2vs0mg"},{"bike_id":"cfae9702-06dd-479f-873f-ffd2f1a13e3c","system_id":"levelo_inurba_marseille","lat":43.250015,"lon":5.389253,"is_reserved":false,"is_disabled":false,"rental_uris":{"android":"levelo://app?vid=cfae9702-06dd-479f-873f-ffd2f1a13e3c","ios":"levelo://app?vid=cfae9702-06dd-479f-873f-ffd2f1a13e3c"},"vehicle_type_id":"4","last_reported":1769498344,"current_range_meters":3600,"station_id":"ce4bhgp2rcd13ifvqfd0","pricing_plan_id":"cebpf4jnsgd1na2vs0mg"},{"bike_id":"d46471ec-377c-410e-b3fb-8093e216c936","system_id":"levelo_inurba_marseille","lat":43.33158,"lon":5.37692,"is_reserved":false,"is_disabled":false,"rental_uris":{"android":"levelo://app?vid=d46471ec-377c-410e-b3fb-8093e216c936","ios":"levelo://app?vid=d46471ec-377c-410e-b3fb-8093e216c936"},"vehicle_type_id":"4","last_reported":1769498344,"current_range_meters":3600,"station_id":"st_d46cu089ee8s73dldbu0","pricing_plan_id":"cebpf4jnsgd1na2vs0mg"},{"bike_id":"8fcc7dfb-9afa-4b40-8aed-c00c1dd819d8","system_id":"levelo_inurba_marseille","lat":43.31108,"lon":5.37826,"is_reserved":false,"is_disabled":false,"rental_uris":{"android":"levelo://app?vid=8fcc7dfb-9afa-4b40-8aed-c00c1dd819d8","ios":"levelo://app?vid=8fcc7dfb-9afa-4b40-8aed-c00c1dd819d8"},"vehicle_type_id":"4","last_reported":1769498344,"current_range_meters":4000,"station_id":"ce4bgt92rcd13ifvqcg0","pricing_plan_id":"cebpf4jnsgd1na2vs0mg"},{"bike_id":"a31c88fe-eab3-4a9e-bb85-de943818a780","system_id":"levelo_inurba_marseille","lat":43.23758,"lon":5.36655,"is_reserved":false,"is_disabled":false,"rental_uris":{"android":"levelo://app?vid=a31c88fe-eab3-4a9e-bb85-de943818a780","ios":"levelo://app?vid=a31c88fe-eab3-4a9e-bb85-de943818a780"},"vehicle_type_id":"4","last_reported":1769498344,"current_range_meters":4000,"station_id":"st_d3nk18o9ro0c73en2l3g","pricing_plan_id":"cebpf4jnsgd1na2vs0mg"},{"bike_id":"93c7ca3c-2e02-4311-a0d1-b461f66e2ced","system_id":"levelo_inurba_marseille","lat":43.314982,"lon":5.373115,"is_reserved":false,"is_disabled":false,"rental_uris":{"android":"levelo://app?vid=93c7ca3c-2e02-4311-a0d1-b461f66e2ced","ios":"levelo://app?vid=93c7ca3c-2e02-4311-a0d1-b461f66e2ced"},"vehicle_type_id":"4","last_reported":1769498344,"current_range_meters":4000,"station_id":"","pricing_plan_id":"cebpf4jnsgd1na2vs0mg"},{"bike_id":"95369f08-78fd-4f45-95ee-fada8dfbd823","system_id":"levelo_inurba_marseille","lat":43.30589,"lon":5.39368,"is_reserved":false,"is_disabled":false,"rental_uris":{"android":"levelo://app?vid=95369f08-78fd-4f45-95ee-fada8dfbd823","ios":"levelo://app?vid=95369f08-78fd-4f45-95ee-fada8dfbd823"},"vehicle_type_id":"4","last_reported":1769498344,"current_range_meters":4000,"station_id":"ce4bh0p2rcd13ifvqd80","pricing_plan_id":"cebpf4jnsgd1na2vs0mg"},{"bike_id":"addf8330-f75f-44d0-a7b5-1d0b03323a9e","system_id":"levelo_inurba_marseille","lat":43.2978,"lon":5.38098,"is_reserved":false,"is_disabled":false,"rental_uris":{"android":"levelo://app?vid=addf8330-f75f-44d0-a7b5-1d0b03323a9e","ios":"levelo://app?vid=addf8330-f75f-44d0-a7b5-1d0b03323a9e"},"vehicle_type_id":"4","last_reported":1769498344,"current_range_meters":4000,"station_id":"ce4bgip2rcd13ifvqbb0","pricing_plan_id":"cebpf4jnsgd1na2vs0mg"},{"bike_id":"4300228c-a74d-4d37-940c-46e3542698e2","system_id":"levelo_inurba_marseille","lat":43.252373,"lon":5.406192,"is_reserved":false,"is_disabled":false,"rental_uris":{"android":"levelo://app?vid=4300228c-a74d-4d37-940c-46e3542698e2","ios":"levelo://app?vid=4300228c-a74d-4d37-940c-46e3542698e2"},"vehicle_type_id":"4","last_reported":1769498344,"current_range_meters":4000,"station_id":"ce4bhdp2rcd13ifvqf20","pricing_plan_id":"cebpf4jnsgd1na2vs0mg"},{"bike_id":"bf450fa3-4173-4dab-9209-a7b83c70437b","system_id":"levelo_inurba_marseille","lat":43.305,"lon":5.37943,"is_reserved":false,"is_disabled":false,"rental_uris":{"android":"levelo://app?vid=bf450fa3-4173-4dab-9209-a7b83c70437b","ios":"levelo://app?vid=bf450fa3-4173-4dab-9209-a7b83c70437b"},"vehicle_type_id":"4","last_reported":1769498344,"current_range_meters":4000,"station_id":"","pricing_plan_id":"cebpf4jnsgd1na2vs0mg"},{"bike_id":"2e7dad9e-9695-44d6-bc96-ef3eee5dfbfa","system_id":"levelo_inurba_marseille","lat":43.31413,"lon":5.3668,"is_reserved":false,"is_disabled":false,"rental_uris":{"android":"levelo://app?vid=2e7dad9e-9695-44d6-bc96-ef3eee5dfbfa","ios":"levelo://app?vid=2e7dad9e-9695-44d6-bc96-ef3eee5dfbfa"},"vehicle_type_id":"4","last_reported":1769498344,"current_range_meters":4000,"station_id":"","pricing_plan_id":"cebpf4jnsgd1na2vs0mg"},{"bike_id":"a85c4dff-4d0e-447f-be35-ab46b7400fe4","system_id":"levelo_inurba_marseille","lat":43.248035,"lon":5.374563,"is_reserved":false,"is_disabled":false,"rental_uris":{"android":"levelo://app?vid=a85c4dff-4d0e-447f-be35-ab46b7400fe4","ios":"levelo://app?vid=a85c4dff-4d0e-447f-be35-ab46b7400fe4"},"vehicle_type_id":"4","last_reported":1769498344,"current_range_meters":4000,"station_id":"ce4bhgh2rcd13ifvqfb0","pricing_plan_id":"cebpf4jnsgd1na2vs0mg"},{"bike_id":"9b4d66bc-6246-49ff-82f1-26fa9d7a3544","system_id":"levelo_inurba_marseille","lat":43.26939,"lon":5.40258,"is_reserved":false,"is_disabled":false,"rental_uris":{"android":"levelo://app?vid=9b4d66bc-6246-49ff-82f1-26fa9d7a3544","ios":"levelo://app?vid=9b4d66bc-6246-49ff-82f1-26fa9d7a3544"},"vehicle_type_id":"4","last_reported":1769498344,"current_range_meters":4000,"station_id":"cjm6bp8fraef2m0cb0m0","pricing_plan_id":"cebpf4jnsgd1na2vs0mg"},{"bike_id":"1be5c9eb-27e3-427d-8b79-039e6802232b","system_id":"levelo_inurba_marseille","lat":43.310715,"lon":5.38331,"is_reserved":false,"is_disabled":false,"rental_uris":{"android":"levelo://app?vid=1be5c9eb-27e3-427d-8b79-039e6802232b","ios":"levelo://app?vid=1be5c9eb-27e3-427d-8b79-039e6802232b"},"vehicle_type_id":"4","last_reported":1769498344,"current_range_meters":4000,"station_id":"ce4bgv92rcd13ifvqcr0","pricing_plan_id":"cebpf4jnsgd1na2vs0mg"},{"bike_id":"19475223-7d14-4265-9c2b-6e864fc02464","system_id":"levelo_inurba_marseille","lat":43.24067,"lon":5.37766,"is_reserved":false,"is_disabled":false,"rental_uris":{"android":"levelo://app?vid=19475223-7d14-4265-9c2b-6e864fc02464","ios":"levelo://app?vid=19475223-7d14-4265-9c2b-6e864fc02464"},"vehicle_type_id":"4","last_reported":1769498344,"current_range_meters":4000,"station_id":"ce4bhnp2rcd13ifvqgvg","pricing_plan_id":"cebpf4jnsgd1na2vs0mg"},{"bike_id":"c25550be-69e2-4816-914f-182f459336f6","system_id":"levelo_inurba_marseille","lat":43.24071,"lon":5.37622,"is_reserved":false,"is_disabled":false,"rental_uris":{"android":"levelo://app?vid=c25550be-69e2-4816-914f-182f459336f6","ios":"levelo://app?vid=c25550be-69e2-4816-914f-182f459336f6"},"vehicle_type_id":"4","last_reported":1769498344,"current_range_meters":4000,"station_id":"ce4bhnp2rcd13ifvqgvg","pricing_plan_id":"cebpf4jnsgd1na2vs0mg"},{"bike_id":"b310bd46-efd6-40da-b4d5-b9992577e5e4","system_id":"levelo_inurba_marseille","lat":43.26186,"lon":5.40463,"is_reserved":false,"is_disabled":false,"rental_uris":{"android":"levelo://app?vid=b310bd46-efd6-40da-b4d5-b9992577e5e4","ios":"levelo://app?vid=b310bd46-efd6-40da-b4d5-b9992577e5e4"},"vehicle_type_id":"4","last_reported":1769498344,"current_range_meters":4000,"station_id":"ce4bhmh2rcd13ifvqgmg","pricing_plan_id":"cebpf4jnsgd1na2vs0mg"},{"bike_id":"4cb54212-116b-4feb-9622-3a7d6acefd1b","system_id":"levelo_inurba_marseille","lat":43.23183,"lon":5.39978,"is_reserved":false,"is_disabled":false,"rental_uris":{"android":"levelo://app?vid=4cb54212-116b-4feb-9622-3a7d6acefd1b","ios":"levelo://app?vid=4cb54212-116b-4feb-9622-3a7d6acefd1b"},"vehicle_type_id":"4","last_reported":1769498344,"current_range_meters":4000,"station_id":"ce4bhn12rcd13ifvqgqg","pricing_plan_id":"cebpf4jnsgd1na2vs0mg"},{"bike_id":"2ea93c3a-0d0a-472b-b231-85dc213d24b7","system_id":"levelo_inurba_marseille","lat":43.250026,"lon":5.389257,"is_reserved":false,"is_disabled":false,"rental_uris":{"android":"levelo://app?vid=2ea93c3a-0d0a-472b-b231-85dc213d24b7","ios":"levelo://app?vid=2ea93c3a-0d0a-472b-b231-85dc213d24b7"},"vehicle_type_id":"4","last_reported":1769498344,"current_range_meters":4000,"station_id":"ce4bhgp2rcd13ifvqfd0","pricing_plan_id":"cebpf4jnsgd1na2vs0mg"},{"bike_id":"e73f1781-62f4-4a23-b153-6815bc29f05e","system_id":"levelo_inurba_marseille","lat":43.29298,"lon":5.41187,"is_reserved":false,"is_disabled":false,"rental_uris":{"android":"levelo://app?vid=e73f1781-62f4-4a23-b153-6815bc29f05e","ios":"levelo://app?vid=e73f1781-62f4-4a23-b153-6815bc29f05e"},"vehicle_type_id":"4","last_reported":1769498344,"current_range_meters":4000,"station_id":"","pricing_plan_id":"cebpf4jnsgd1na2vs0mg"},{"bike_id":"aeaa2f78-4472-4f7c-89f1-7a1a254f34d5","system_id":"levelo_inurba_marseille","lat":43.30308,"lon":5.40456,"is_reserved":false,"is_disabled":false,"rental_uris":{"android":"levelo://app?vid=aeaa2f78-4472-4f7c-89f1-7a1a254f34d5","ios":"levelo://app?vid=aeaa2f78-4472-4f7c-89f1-7a1a254f34d5"},"vehicle_type_id":"4","last_reported":1769498344,"current_range_meters":4400,"station_id":"ce4bh012rcd13ifvqd10","pricing_plan_id":"cebpf4jnsgd1na2vs0mg"},{"bike_id":"908b886e-cc4b-4226-b372-446a0d3f1b77","system_id":"levelo_inurba_marseille","lat":43.23182,"lon":5.35558,"is_reserved":false,"is_disabled":false,"rental_uris":{"android":"levelo://app?vid=908b886e-cc4b-4226-b372-446a0d3f1b77","ios":"levelo://app?vid=908b886e-cc4b-4226-b372-446a0d3f1b77"},"vehicle_type_id":"4","last_reported":1769498344,"current_range_meters":4400,"station_id":"ce4bhu92rcd13ifvqi70","pricing_plan_id":"cebpf4jnsgd1na2vs0mg"},{"bike_id":"e329dd71-725a-4dd6-828f-456a085ef790","system_id":"levelo_inurba_marseille","lat":43.304522,"lon":5.388935,"is_reserved":false,"is_disabled":false,"rental_uris":{"android":"levelo://app?vid=e329dd71-725a-4dd6-828f-456a085ef790","ios":"levelo://app?vid=e329dd71-725a-4dd6-828f-456a085ef790"},"vehicle_type_id":"4","last_reported":1769498344,"current_range_meters":4400,"station_id":"ce4bgk12rcd13ifvqbi0","pricing_plan_id":"cebpf4jnsgd1na2vs0mg"},{"bike_id":"77c28fe0-5ae7-4aac-b4aa-5a886888a2e9","system_id":"levelo_inurba_marseille","lat":43.27936,"lon":5.4107,"is_reserved":false,"is_disabled":false,"rental_uris":{"android":"levelo://app?vid=77c28fe0-5ae7-4aac-b4aa-5a886888a2e9","ios":"levelo://app?vid=77c28fe0-5ae7-4aac-b4aa-5a886888a2e9"},"vehicle_type_id":"4","last_reported":1769498344,"current_range_meters":4400,"station_id":"ce4bhnp2rcd13ifvqh0g","pricing_plan_id":"cebpf4jnsgd1na2vs0mg"},{"bike_id":"03628ce2-f90f-4215-9e8f-4d1a2c153b49","system_id":"levelo_inurba_marseille","lat":43.2455,"lon":5.37331,"is_reserved":false,"is_disabled":false,"rental_uris":{"android":"levelo://app?vid=03628ce2-f90f-4215-9e8f-4d1a2c153b49","ios":"levelo://app?vid=03628ce2-f90f-4215-9e8f-4d1a2c153b49"},"vehicle_type_id":"4","last_reported":1769498344,"current_range_meters":4400,"station_id":"","pricing_plan_id":"cebpf4jnsgd1na2vs0mg"},{"bike_id":"070c0d08-1259-423b-8465-a68bb6ed0844","system_id":"levelo_inurba_marseille","lat":43.26183,"lon":5.40488,"is_reserved":false,"is_disabled":false,"rental_uris":{"android":"levelo://app?vid=070c0d08-1259-423b-8465-a68bb6ed0844","ios":"levelo://app?vid=070c0d08-1259-423b-8465-a68bb6ed0844"},"vehicle_type_id":"4","last_reported":1769498344,"current_range_meters":4400,"station_id":"ce4bhmh2rcd13ifvqgmg","pricing_plan_id":"cebpf4jnsgd1na2vs0mg"},{"bike_id":"0e3130e2-c068-46e9-8fce-f055c57af8e7","system_id":"levelo_inurba_marseille","lat":43.283986,"lon":5.37515,"is_reserved":false,"is_disabled":false,"rental_uris":{"android":"levelo://app?vid=0e3130e2-c068-46e9-8fce-f055c57af8e7","ios":"levelo://app?vid=0e3130e2-c068-46e9-8fce-f055c57af8e7"},"vehicle_type_id":"4","last_reported":1769498344,"current_range_meters":4400,"station_id":"ce4bh412rcd13ifvqds0","pricing_plan_id":"cebpf4jnsgd1na2vs0mg"},{"bike_id":"736929a0-d6a8-4f12-8769-fcb0d31195b2","system_id":"levelo_inurba_marseille","lat":43.278465,"lon":5.403793,"is_reserved":false,"is_disabled":false,"rental_uris":{"android":"levelo://app?vid=736929a0-d6a8-4f12-8769-fcb0d31195b2","ios":"levelo://app?vid=736929a0-d6a8-4f12-8769-fcb0d31195b2"},"vehicle_type_id":"4","last_reported":1769498344,"current_range_meters":4400,"station_id":"","pricing_plan_id":"cebpf4jnsgd1na2vs0mg"},{"bike_id":"eeb1ed29-7960-4c83-a50f-c7aaec57dce0","system_id":"levelo_inurba_marseille","lat":43.2511,"lon":5.40334,"is_reserved":false,"is_disabled":false,"rental_uris":{"android":"levelo://app?vid=eeb1ed29-7960-4c83-a50f-c7aaec57dce0","ios":"levelo://app?vid=eeb1ed29-7960-4c83-a50f-c7aaec57dce0"},"vehicle_type_id":"4","last_reported":1769498344,"current_range_meters":4400,"station_id":"ce4bhlh2rcd13ifvqgig","pricing_plan_id":"cebpf4jnsgd1na2vs0mg"},{"bike_id":"262fdfe7-76fe-4d73-8b74-1e0850eba484","system_id":"levelo_inurba_marseille","lat":43.30348,"lon":5.41884,"is_reserved":false,"is_disabled":false,"rental_uris":{"android":"levelo://app?vid=262fdfe7-76fe-4d73-8b74-1e0850eba484","ios":"levelo://app?vid=262fdfe7-76fe-4d73-8b74-1e0850eba484"},"vehicle_type_id":"4","last_reported":1769498344,"current_range_meters":4400,"station_id":"ce4bhop2rcd13ifvqh7g","pricing_plan_id":"cebpf4jnsgd1na2vs0mg"},{"bike_id":"d3171628-f276-40c2-8bba-b7bc2baa35b0","system_id":"levelo_inurba_marseille","lat":43.24071,"lon":5.37765,"is_reserved":false,"is_disabled":false,"rental_uris":{"android":"levelo://app?vid=d3171628-f276-40c2-8bba-b7bc2baa35b0","ios":"levelo://app?vid=d3171628-f276-40c2-8bba-b7bc2baa35b0"},"vehicle_type_id":"4","last_reported":1769498344,"current_range_meters":4400,"station_id":"ce4bhnp2rcd13ifvqgvg","pricing_plan_id":"cebpf4jnsgd1na2vs0mg"},{"bike_id":"9a3bd7cd-c173-401e-aeca-1c31c6626124","system_id":"levelo_inurba_marseille","lat":43.25509,"lon":5.37659,"is_reserved":false,"is_disabled":false,"rental_uris":{"android":"levelo://app?vid=9a3bd7cd-c173-401e-aeca-1c31c6626124","ios":"levelo://app?vid=9a3bd7cd-c173-401e-aeca-1c31c6626124"},"vehicle_type_id":"4","last_reported":1769498344,"current_range_meters":4400,"station_id":"ce4bhh12rcd13ifvqff0","pricing_plan_id":"cebpf4jnsgd1na2vs0mg"},{"bike_id":"5e1d57f1-e580-447e-bb24-2e40cc0b2b72","system_id":"levelo_inurba_marseille","lat":43.278172,"lon":5.407395,"is_reserved":false,"is_disabled":false,"rental_uris":{"android":"levelo://app?vid=5e1d57f1-e580-447e-bb24-2e40cc0b2b72","ios":"levelo://app?vid=5e1d57f1-e580-447e-bb24-2e40cc0b2b72"},"vehicle_type_id":"4","last_reported":1769498344,"current_range_meters":4800,"station_id":"ce4bhnh2rcd13ifvqgtg","pricing_plan_id":"cebpf4jnsgd1na2vs0mg"},{"bike_id":"a57ac1b9-36db-4721-8a5f-8013a4daf2e4","system_id":"levelo_inurba_marseille","lat":43.28524,"lon":5.44101,"is_reserved":false,"is_disabled":false,"rental_uris":{"android":"levelo://app?vid=a57ac1b9-36db-4721-8a5f-8013a4daf2e4","ios":"levelo://app?vid=a57ac1b9-36db-4721-8a5f-8013a4daf2e4"},"vehicle_type_id":"4","last_reported":1769498344,"current_range_meters":4800,"station_id":"st_d3j3df2ikq2c7380ej80","pricing_plan_id":"cebpf4jnsgd1na2vs0mg"},{"bike_id":"2e136a9b-5aee-40ef-8714-fcd4ffbc1b20","system_id":"levelo_inurba_marseille","lat":43.23965,"lon":5.36625,"is_reserved":false,"is_disabled":false,"rental_uris":{"android":"levelo://app?vid=2e136a9b-5aee-40ef-8714-fcd4ffbc1b20","ios":"levelo://app?vid=2e136a9b-5aee-40ef-8714-fcd4ffbc1b20"},"vehicle_type_id":"4","last_reported":1769498344,"current_range_meters":4800,"station_id":"ce4bhi12rcd13ifvqfp0","pricing_plan_id":"cebpf4jnsgd1na2vs0mg"},{"bike_id":"898169fa-29c0-4349-a185-41ab96475b8a","system_id":"levelo_inurba_marseille","lat":43.25007,"lon":5.3889,"is_reserved":false,"is_disabled":false,"rental_uris":{"android":"levelo://app?vid=898169fa-29c0-4349-a185-41ab96475b8a","ios":"levelo://app?vid=898169fa-29c0-4349-a185-41ab96475b8a"},"vehicle_type_id":"4","last_reported":1769498344,"current_range_meters":4800,"station_id":"ce4bhgp2rcd13ifvqfd0","pricing_plan_id":"cebpf4jnsgd1na2vs0mg"},{"bike_id":"cfb67ada-34b1-419c-91f0-868c9be1a48b","system_id":"levelo_inurba_marseille","lat":43.24169,"lon":5.36404,"is_reserved":false,"is_disabled":false,"rental_uris":{"android":"levelo://app?vid=cfb67ada-34b1-419c-91f0-868c9be1a48b","ios":"levelo://app?vid=cfb67ada-34b1-419c-91f0-868c9be1a48b"},"vehicle_type_id":"4","last_reported":1769498344,"current_range_meters":5600,"station_id":"cpo36qri1sfpv3e86is0","pricing_plan_id":"cebpf4jnsgd1na2vs0mg"},{"bike_id":"860d4648-96bb-41c6-990b-e19b394bde4c","system_id":"levelo_inurba_marseille","lat":43.29474,"lon":5.43317,"is_reserved":false,"is_disabled":false,"rental_uris":{"android":"levelo://app?vid=860d4648-96bb-41c6-990b-e19b394bde4c","ios":"levelo://app?vid=860d4648-96bb-41c6-990b-e19b394bde4c"},"vehicle_type_id":"4","last_reported":1769498344,"current_range_meters":5600,"station_id":"st_d3j5ugp08ojc73fj9d10","pricing_plan_id":"cebpf4jnsgd1na2vs0mg"},{"bike_id":"daab4c5f-eb65-4192-89dd-6363e81a674d","system_id":"levelo_inurba_marseille","lat":43.2754,"lon":5.40944,"is_reserved":false,"is_disabled":false,"rental_uris":{"android":"levelo://app?vid=daab4c5f-eb65-4192-89dd-6363e81a674d","ios":"levelo://app?vid=daab4c5f-eb65-4192-89dd-6363e81a674d"},"vehicle_type_id":"4","last_reported":1769498344,"current_range_meters":5600,"station_id":"","pricing_plan_id":"cebpf4jnsgd1na2vs0mg"},{"bike_id":"5b91b93d-b3ae-4751-8498-b1dabc506a1f","system_id":"levelo_inurba_marseille","lat":43.24484,"lon":5.42538,"is_reserved":false,"is_disabled":false,"rental_uris":{"android":"levelo://app?vid=5b91b93d-b3ae-4751-8498-b1dabc506a1f","ios":"levelo://app?vid=5b91b93d-b3ae-4751-8498-b1dabc506a1f"},"vehicle_type_id":"4","last_reported":1769498344,"current_range_meters":5600,"station_id":"st_d4a3vfp97mjs738cd8kg","pricing_plan_id":"cebpf4jnsgd1na2vs0mg"},{"bike_id":"0dae6b0e-2c6c-44ad-aa2a-531c7db98b83","system_id":"levelo_inurba_marseille","lat":43.25726,"lon":5.41111,"is_reserved":false,"is_disabled":false,"rental_uris":{"android":"levelo://app?vid=0dae6b0e-2c6c-44ad-aa2a-531c7db98b83","ios":"levelo://app?vid=0dae6b0e-2c6c-44ad-aa2a-531c7db98b83"},"vehicle_type_id":"4","last_reported":1769498344,"current_range_meters":5600,"station_id":"ce4bhkp2rcd13ifvqgd0","pricing_plan_id":"cebpf4jnsgd1na2vs0mg"},{"bike_id":"bda8d170-c411-43f2-99e3-22f10d72b0e6","system_id":"levelo_inurba_marseille","lat":43.23148,"lon":5.43722,"is_reserved":false,"is_disabled":false,"rental_uris":{"android":"levelo://app?vid=bda8d170-c411-43f2-99e3-22f10d72b0e6","ios":"levelo://app?vid=bda8d170-c411-43f2-99e3-22f10d72b0e6"},"vehicle_type_id":"4","last_reported":1769498344,"current_range_meters":5600,"station_id":"ce4bhmp2rcd13ifvqgog","pricing_plan_id":"cebpf4jnsgd1na2vs0mg"},{"bike_id":"a75b5e2d-4bc7-45d9-aa21-a914f9f2e7f2","system_id":"levelo_inurba_marseille","lat":43.28857,"lon":5.35858,"is_reserved":false,"is_disabled":false,"rental_uris":{"android":"levelo://app?vid=a75b5e2d-4bc7-45d9-aa21-a914f9f2e7f2","ios":"levelo://app?vid=a75b5e2d-4bc7-45d9-aa21-a914f9f2e7f2"},"vehicle_type_id":"4","last_reported":1769498344,"current_range_meters":5600,"station_id":"ce4bhb12rcd13ifvqem0","pricing_plan_id":"cebpf4jnsgd1na2vs0mg"},{"bike_id":"7bd6d805-b68f-46a2-8696-18247a4b8c1e","system_id":"levelo_inurba_marseille","lat":43.32347,"lon":5.36756,"is_reserved":false,"is_disabled":false,"rental_uris":{"android":"levelo://app?vid=7bd6d805-b68f-46a2-8696-18247a4b8c1e","ios":"levelo://app?vid=7bd6d805-b68f-46a2-8696-18247a4b8c1e"},"vehicle_type_id":"4","last_reported":1769498344,"current_range_meters":5600,"station_id":"ce4bhsh2rcd13ifvqi2g","pricing_plan_id":"cebpf4jnsgd1na2vs0mg"},{"bike_id":"5743090c-9a1b-4d9c-82d1-51bc64427c21","system_id":"levelo_inurba_marseille","lat":43.28708,"lon":5.37927,"is_reserved":false,"is_disabled":true,"rental_uris":{"android":"levelo://app?vid=5743090c-9a1b-4d9c-82d1-51bc64427c21","ios":"levelo://app?vid=5743090c-9a1b-4d9c-82d1-51bc64427c21"},"vehicle_type_id":"4","last_reported":1769498344,"current_range_meters":5600,"station_id":"ce4bh9p2rcd13ifvqec0","pricing_plan_id":"cebpf4jnsgd1na2vs0mg"},{"bike_id":"d6688788-056e-4826-ab86-d4dd6ad4a0fd","system_id":"levelo_inurba_marseille","lat":43.28613,"lon":5.35115,"is_reserved":false,"is_disabled":false,"rental_uris":{"android":"levelo://app?vid=d6688788-056e-4826-ab86-d4dd6ad4a0fd","ios":"levelo://app?vid=d6688788-056e-4826-ab86-d4dd6ad4a0fd"},"vehicle_type_id":"4","last_reported":1769498344,"current_range_meters":5600,"station_id":"ce4bhch2rcd13ifvqeug","pricing_plan_id":"cebpf4jnsgd1na2vs0mg"},{"bike_id":"ccf326ac-ae0a-4ffb-a071-520b4c6f402c","system_id":"levelo_inurba_marseille","lat":43.33259,"lon":5.37963,"is_reserved":false,"is_disabled":false,"rental_uris":{"android":"levelo://app?vid=ccf326ac-ae0a-4ffb-a071-520b4c6f402c","ios":"levelo://app?vid=ccf326ac-ae0a-4ffb-a071-520b4c6f402c"},"vehicle_type_id":"4","last_reported":1769498344,"current_range_meters":5600,"station_id":"","pricing_plan_id":"cebpf4jnsgd1na2vs0mg"},{"bike_id":"062ac5f5-90b2-4964-8a95-05a79098170a","system_id":"levelo_inurba_marseille","lat":43.244673,"lon":5.425332,"is_reserved":false,"is_disabled":false,"rental_uris":{"android":"levelo://app?vid=062ac5f5-90b2-4964-8a95-05a79098170a","ios":"levelo://app?vid=062ac5f5-90b2-4964-8a95-05a79098170a"},"vehicle_type_id":"4","last_reported":1769498344,"current_range_meters":5600,"station_id":"","pricing_plan_id":"cebpf4jnsgd1na2vs0mg"},{"bike_id":"1f752d09-aefb-4e80-88bb-bc8d28d0492c","system_id":"levelo_inurba_marseille","lat":43.29277,"lon":5.40116,"is_reserved":false,"is_disabled":false,"rental_uris":{"android":"levelo://app?vid=1f752d09-aefb-4e80-88bb-bc8d28d0492c","ios":"levelo://app?vid=1f752d09-aefb-4e80-88bb-bc8d28d0492c"},"vehicle_type_id":"4","last_reported":1769498344,"current_range_meters":5600,"station_id":"ce4bh312rcd13ifvqdk0","pricing_plan_id":"cebpf4jnsgd1na2vs0mg"},{"bike_id":"89c4b06b-7f36-4428-af1b-164c65b24472","system_id":"levelo_inurba_marseille","lat":43.282683,"lon":5.350746,"is_reserved":false,"is_disabled":false,"rental_uris":{"android":"levelo://app?vid=89c4b06b-7f36-4428-af1b-164c65b24472","ios":"levelo://app?vid=89c4b06b-7f36-4428-af1b-164c65b24472"},"vehicle_type_id":"4","last_reported":1769498344,"current_range_meters":5600,"station_id":"ce4bhbp2rcd13ifvqerg","pricing_plan_id":"cebpf4jnsgd1na2vs0mg"},{"bike_id":"7e659817-a1f0-4944-87e6-b538da6c9df9","system_id":"levelo_inurba_marseille","lat":43.26548,"lon":5.37306,"is_reserved":false,"is_disabled":false,"rental_uris":{"android":"levelo://app?vid=7e659817-a1f0-4944-87e6-b538da6c9df9","ios":"levelo://app?vid=7e659817-a1f0-4944-87e6-b538da6c9df9"},"vehicle_type_id":"4","last_reported":1769498344,"current_range_meters":5600,"station_id":"ce4bhg12rcd13ifvqf70","pricing_plan_id":"cebpf4jnsgd1na2vs0mg"},{"bike_id":"f09c06aa-a05d-4b00-b228-d8bee2b62b4f","system_id":"levelo_inurba_marseille","lat":43.32369,"lon":5.3678,"is_reserved":false,"is_disabled":false,"rental_uris":{"android":"levelo://app?vid=f09c06aa-a05d-4b00-b228-d8bee2b62b4f","ios":"levelo://app?vid=f09c06aa-a05d-4b00-b228-d8bee2b62b4f"},"vehicle_type_id":"4","last_reported":1769498344,"current_range_meters":6000,"station_id":"ce4bhsh2rcd13ifvqi2g","pricing_plan_id":"cebpf4jnsgd1na2vs0mg"},{"bike_id":"79b6158d-49ea-4914-8da1-643529c2d44f","system_id":"levelo_inurba_marseille","lat":43.24648,"lon":5.38888,"is_reserved":false,"is_disabled":false,"rental_uris":{"android":"levelo://app?vid=79b6158d-49ea-4914-8da1-643529c2d44f","ios":"levelo://app?vid=79b6158d-49ea-4914-8da1-643529c2d44f"},"vehicle_type_id":"4","last_reported":1769498344,"current_range_meters":6000,"station_id":"ce4bhg12rcd13ifvqf60","pricing_plan_id":"cebpf4jnsgd1na2vs0mg"},{"bike_id":"8a93e3a0-3ca0-43b8-b3e4-03f8b8efb7d4","system_id":"levelo_inurba_marseille","lat":43.25692,"lon":5.41129,"is_reserved":false,"is_disabled":false,"rental_uris":{"android":"levelo://app?vid=8a93e3a0-3ca0-43b8-b3e4-03f8b8efb7d4","ios":"levelo://app?vid=8a93e3a0-3ca0-43b8-b3e4-03f8b8efb7d4"},"vehicle_type_id":"4","last_reported":1769498344,"current_range_meters":6000,"station_id":"ce4bhkp2rcd13ifvqgd0","pricing_plan_id":"cebpf4jnsgd1na2vs0mg"},{"bike_id":"0bd3fd33-ca42-4b1b-b0cd-6ec4b1ecd569","system_id":"levelo_inurba_marseille","lat":43.325894,"lon":5.378097,"is_reserved":false,"is_disabled":false,"rental_uris":{"android":"levelo://app?vid=0bd3fd33-ca42-4b1b-b0cd-6ec4b1ecd569","ios":"levelo://app?vid=0bd3fd33-ca42-4b1b-b0cd-6ec4b1ecd569"},"vehicle_type_id":"4","last_reported":1769498344,"current_range_meters":6000,"station_id":"","pricing_plan_id":"cebpf4jnsgd1na2vs0mg"},{"bike_id":"d59a1339-9c53-4675-bf9d-3552aa5174f0","system_id":"levelo_inurba_marseille","lat":43.28918,"lon":5.38401,"is_reserved":false,"is_disabled":false,"rental_uris":{"android":"levelo://app?vid=d59a1339-9c53-4675-bf9d-3552aa5174f0","ios":"levelo://app?vid=d59a1339-9c53-4675-bf9d-3552aa5174f0"},"vehicle_type_id":"4","last_reported":1769498344,"current_range_meters":6000,"station_id":"ce4bh612rcd13ifvqe6g","pricing_plan_id":"cebpf4jnsgd1na2vs0mg"},{"bike_id":"4c5e84a3-878b-4e80-a848-d4891b4199bc","system_id":"levelo_inurba_marseille","lat":43.32345,"lon":5.36767,"is_reserved":false,"is_disabled":false,"rental_uris":{"android":"levelo://app?vid=4c5e84a3-878b-4e80-a848-d4891b4199bc","ios":"levelo://app?vid=4c5e84a3-878b-4e80-a848-d4891b4199bc"},"vehicle_type_id":"4","last_reported":1769498344,"current_range_meters":6000,"station_id":"ce4bhsh2rcd13ifvqi2g","pricing_plan_id":"cebpf4jnsgd1na2vs0mg"},{"bike_id":"d8b7737a-45c5-4044-b75c-3fc9ddf2d06e","system_id":"levelo_inurba_marseille","lat":43.24946,"lon":5.4048,"is_reserved":false,"is_disabled":false,"rental_uris":{"android":"levelo://app?vid=d8b7737a-45c5-4044-b75c-3fc9ddf2d06e","ios":"levelo://app?vid=d8b7737a-45c5-4044-b75c-3fc9ddf2d06e"},"vehicle_type_id":"4","last_reported":1769498344,"current_range_meters":6000,"station_id":"st_d2ngiaodas8pm72gd1h0","pricing_plan_id":"cebpf4jnsgd1na2vs0mg"},{"bike_id":"0cbe870f-8349-4837-ae0a-20b1625481ea","system_id":"levelo_inurba_marseille","lat":43.313315,"lon":5.396994,"is_reserved":false,"is_disabled":false,"rental_uris":{"android":"levelo://app?vid=0cbe870f-8349-4837-ae0a-20b1625481ea","ios":"levelo://app?vid=0cbe870f-8349-4837-ae0a-20b1625481ea"},"vehicle_type_id":"4","last_reported":1769498344,"current_range_meters":6000,"station_id":"ce4bgvp2rcd13ifvqcu0","pricing_plan_id":"cebpf4jnsgd1na2vs0mg"},{"bike_id":"61f9b512-dfe2-4c6f-b9eb-0a539aacc6ab","system_id":"levelo_inurba_marseille","lat":43.29898,"lon":5.43669,"is_reserved":false,"is_disabled":false,"rental_uris":{"android":"levelo://app?vid=61f9b512-dfe2-4c6f-b9eb-0a539aacc6ab","ios":"levelo://app?vid=61f9b512-dfe2-4c6f-b9eb-0a539aacc6ab"},"vehicle_type_id":"4","last_reported":1769498344,"current_range_meters":6000,"station_id":"ce4bhpp2rcd13ifvqhfg","pricing_plan_id":"cebpf4jnsgd1na2vs0mg"},{"bike_id":"2e56e0de-f8d6-44d0-a2bc-1be0c0e19b40","system_id":"levelo_inurba_marseille","lat":43.28411,"lon":5.34992,"is_reserved":false,"is_disabled":false,"rental_uris":{"android":"levelo://app?vid=2e56e0de-f8d6-44d0-a2bc-1be0c0e19b40","ios":"levelo://app?vid=2e56e0de-f8d6-44d0-a2bc-1be0c0e19b40"},"vehicle_type_id":"4","last_reported":1769498344,"current_range_meters":6000,"station_id":"ce4bhbh2rcd13ifvqepg","pricing_plan_id":"cebpf4jnsgd1na2vs0mg"},{"bike_id":"62689e11-30b2-4cf7-a0a0-b39283952b26","system_id":"levelo_inurba_marseille","lat":43.244621,"lon":5.425406,"is_reserved":false,"is_disabled":false,"rental_uris":{"android":"levelo://app?vid=62689e11-30b2-4cf7-a0a0-b39283952b26","ios":"levelo://app?vid=62689e11-30b2-4cf7-a0a0-b39283952b26"},"vehicle_type_id":"4","last_reported":1769498344,"current_range_meters":6000,"station_id":"st_d4a3vfp97mjs738cd8kg","pricing_plan_id":"cebpf4jnsgd1na2vs0mg"},{"bike_id":"66f9ab64-858a-4c82-a9a5-b7b954f6d38b","system_id":"levelo_inurba_marseille","lat":43.292663,"lon":5.368355,"is_reserved":false,"is_disabled":false,"rental_uris":{"android":"levelo://app?vid=66f9ab64-858a-4c82-a9a5-b7b954f6d38b","ios":"levelo://app?vid=66f9ab64-858a-4c82-a9a5-b7b954f6d38b"},"vehicle_type_id":"4","last_reported":1769498344,"current_range_meters":6000,"station_id":"ce4bhbp2rcd13ifvqesg","pricing_plan_id":"cebpf4jnsgd1na2vs0mg"},{"bike_id":"21be62a1-c968-473b-9c56-f2f1e7e2371d","system_id":"levelo_inurba_marseille","lat":43.2706,"lon":5.38283,"is_reserved":false,"is_disabled":false,"rental_uris":{"android":"levelo://app?vid=21be62a1-c968-473b-9c56-f2f1e7e2371d","ios":"levelo://app?vid=21be62a1-c968-473b-9c56-f2f1e7e2371d"},"vehicle_type_id":"4","last_reported":1769498344,"current_range_meters":6000,"station_id":"st_d3n2fo6cfp8s73cte1j0","pricing_plan_id":"cebpf4jnsgd1na2vs0mg"},{"bike_id":"c060f6fe-9c22-4601-a3d6-b324dc7e883d","system_id":"levelo_inurba_marseille","lat":43.22925,"lon":5.35378,"is_reserved":false,"is_disabled":false,"rental_uris":{"android":"levelo://app?vid=c060f6fe-9c22-4601-a3d6-b324dc7e883d","ios":"levelo://app?vid=c060f6fe-9c22-4601-a3d6-b324dc7e883d"},"vehicle_type_id":"4","last_reported":1769498344,"current_range_meters":6000,"station_id":"cpo3532slgdg3j2ikp40","pricing_plan_id":"cebpf4jnsgd1na2vs0mg"},{"bike_id":"5be68105-477a-4926-9923-7b5ffbb88956","system_id":"levelo_inurba_marseille","lat":43.285368,"lon":5.440931,"is_reserved":false,"is_disabled":false,"rental_uris":{"android":"levelo://app?vid=5be68105-477a-4926-9923-7b5ffbb88956","ios":"levelo://app?vid=5be68105-477a-4926-9923-7b5ffbb88956"},"vehicle_type_id":"4","last_reported":1769498344,"current_range_meters":6000,"station_id":"st_d3j3df2ikq2c7380ej80","pricing_plan_id":"cebpf4jnsgd1na2vs0mg"},{"bike_id":"fcf7a98f-1fd5-4e85-9314-c14ad8323d94","system_id":"levelo_inurba_marseille","lat":43.31187,"lon":5.39398,"is_reserved":false,"is_disabled":false,"rental_uris":{"android":"levelo://app?vid=fcf7a98f-1fd5-4e85-9314-c14ad8323d94","ios":"levelo://app?vid=fcf7a98f-1fd5-4e85-9314-c14ad8323d94"},"vehicle_type_id":"4","last_reported":1769498344,"current_range_meters":6400,"station_id":"","pricing_plan_id":"cebpf4jnsgd1na2vs0mg"},{"bike_id":"e495c2f5-f80d-4df9-82ae-75a42acd9c16","system_id":"levelo_inurba_marseille","lat":43.27998,"lon":5.40011,"is_reserved":false,"is_disabled":false,"rental_uris":{"android":"levelo://app?vid=e495c2f5-f80d-4df9-82ae-75a42acd9c16","ios":"levelo://app?vid=e495c2f5-f80d-4df9-82ae-75a42acd9c16"},"vehicle_type_id":"4","last_reported":1769498344,"current_range_meters":6400,"station_id":"ce4bho92rcd13ifvqh4g","pricing_plan_id":"cebpf4jnsgd1na2vs0mg"},{"bike_id":"539af392-7350-492a-86ff-031e626096d7","system_id":"levelo_inurba_marseille","lat":43.32353,"lon":5.36731,"is_reserved":false,"is_disabled":false,"rental_uris":{"android":"levelo://app?vid=539af392-7350-492a-86ff-031e626096d7","ios":"levelo://app?vid=539af392-7350-492a-86ff-031e626096d7"},"vehicle_type_id":"4","last_reported":1769498344,"current_range_meters":6400,"station_id":"ce4bhsh2rcd13ifvqi2g","pricing_plan_id":"cebpf4jnsgd1na2vs0mg"},{"bike_id":"abe3f4a1-7241-420f-a757-2993be441687","system_id":"levelo_inurba_marseille","lat":43.28942,"lon":5.36403,"is_reserved":false,"is_disabled":false,"rental_uris":{"android":"levelo://app?vid=abe3f4a1-7241-420f-a757-2993be441687","ios":"levelo://app?vid=abe3f4a1-7241-420f-a757-2993be441687"},"vehicle_type_id":"4","last_reported":1769498344,"current_range_meters":6400,"station_id":"ce4bhc92rcd13ifvqetg","pricing_plan_id":"cebpf4jnsgd1na2vs0mg"},{"bike_id":"51068a7b-6138-4761-8ac5-a848d4e915ee","system_id":"levelo_inurba_marseille","lat":43.26787,"lon":5.39416,"is_reserved":false,"is_disabled":false,"rental_uris":{"android":"levelo://app?vid=51068a7b-6138-4761-8ac5-a848d4e915ee","ios":"levelo://app?vid=51068a7b-6138-4761-8ac5-a848d4e915ee"},"vehicle_type_id":"4","last_reported":1769498344,"current_range_meters":6400,"station_id":"ce4bhh12rcd13ifvqfg0","pricing_plan_id":"cebpf4jnsgd1na2vs0mg"},{"bike_id":"ddf0627f-8ae1-4070-900d-7896689996f7","system_id":"levelo_inurba_marseille","lat":43.250146,"lon":5.389166,"is_reserved":false,"is_disabled":false,"rental_uris":{"android":"levelo://app?vid=ddf0627f-8ae1-4070-900d-7896689996f7","ios":"levelo://app?vid=ddf0627f-8ae1-4070-900d-7896689996f7"},"vehicle_type_id":"4","last_reported":1769498344,"current_range_meters":6400,"station_id":"ce4bhgp2rcd13ifvqfd0","pricing_plan_id":"cebpf4jnsgd1na2vs0mg"},{"bike_id":"f90a7cba-5743-45de-a991-86993c3511a7","system_id":"levelo_inurba_marseille","lat":43.32346,"lon":5.36721,"is_reserved":false,"is_disabled":false,"rental_uris":{"android":"levelo://app?vid=f90a7cba-5743-45de-a991-86993c3511a7","ios":"levelo://app?vid=f90a7cba-5743-45de-a991-86993c3511a7"},"vehicle_type_id":"4","last_reported":1769498344,"current_range_meters":6400,"station_id":"ce4bhsh2rcd13ifvqi2g","pricing_plan_id":"cebpf4jnsgd1na2vs0mg"},{"bike_id":"628d1d29-948b-4815-bc3f-a0ef2ac1c781","system_id":"levelo_inurba_marseille","lat":43.24162,"lon":5.36395,"is_reserved":false,"is_disabled":false,"rental_uris":{"android":"levelo://app?vid=628d1d29-948b-4815-bc3f-a0ef2ac1c781","ios":"levelo://app?vid=628d1d29-948b-4815-bc3f-a0ef2ac1c781"},"vehicle_type_id":"4","last_reported":1769498344,"current_range_meters":6400,"station_id":"cpo36qri1sfpv3e86is0","pricing_plan_id":"cebpf4jnsgd1na2vs0mg"},{"bike_id":"74975ee5-cc21-4f8d-8ef0-3c4b42557576","system_id":"levelo_inurba_marseille","lat":43.321112,"lon":5.36774,"is_reserved":false,"is_disabled":false,"rental_uris":{"android":"levelo://app?vid=74975ee5-cc21-4f8d-8ef0-3c4b42557576","ios":"levelo://app?vid=74975ee5-cc21-4f8d-8ef0-3c4b42557576"},"vehicle_type_id":"4","last_reported":1769498344,"current_range_meters":6400,"station_id":"ce4bhrh2rcd13ifvqhug","pricing_plan_id":"cebpf4jnsgd1na2vs0mg"},{"bike_id":"b42265f2-22a6-4dc7-a5e2-a1d7b80fef7e","system_id":"levelo_inurba_marseille","lat":43.296092,"lon":5.377166,"is_reserved":false,"is_disabled":false,"rental_uris":{"android":"levelo://app?vid=b42265f2-22a6-4dc7-a5e2-a1d7b80fef7e","ios":"levelo://app?vid=b42265f2-22a6-4dc7-a5e2-a1d7b80fef7e"},"vehicle_type_id":"4","last_reported":1769498344,"current_range_meters":6400,"station_id":"ce4bgi92rcd13ifvqb90","pricing_plan_id":"cebpf4jnsgd1na2vs0mg"},{"bike_id":"4511a9ff-3875-477c-83b9-697cc946e0f0","system_id":"levelo_inurba_marseille","lat":43.304276,"lon":5.38895,"is_reserved":false,"is_disabled":false,"rental_uris":{"android":"levelo://app?vid=4511a9ff-3875-477c-83b9-697cc946e0f0","ios":"levelo://app?vid=4511a9ff-3875-477c-83b9-697cc946e0f0"},"vehicle_type_id":"4","last_reported":1769498344,"current_range_meters":6400,"station_id":"ce4bgk12rcd13ifvqbi0","pricing_plan_id":"cebpf4jnsgd1na2vs0mg"},{"bike_id":"88ffd3a2-1506-480b-abc1-f9282e869380","system_id":"levelo_inurba_marseille","lat":43.25092,"lon":5.39504,"is_reserved":false,"is_disabled":false,"rental_uris":{"android":"levelo://app?vid=88ffd3a2-1506-480b-abc1-f9282e869380","ios":"levelo://app?vid=88ffd3a2-1506-480b-abc1-f9282e869380"},"vehicle_type_id":"4","last_reported":1769498344,"current_range_meters":6400,"station_id":"ce4bhm12rcd13ifvqgkg","pricing_plan_id":"cebpf4jnsgd1na2vs0mg"},{"bike_id":"376d69a1-6c6a-4847-9e8d-b0a51343ba06","system_id":"levelo_inurba_marseille","lat":43.29571,"lon":5.38001,"is_reserved":false,"is_disabled":false,"rental_uris":{"android":"levelo://app?vid=376d69a1-6c6a-4847-9e8d-b0a51343ba06","ios":"levelo://app?vid=376d69a1-6c6a-4847-9e8d-b0a51343ba06"},"vehicle_type_id":"4","last_reported":1769498344,"current_range_meters":6400,"station_id":"","pricing_plan_id":"cebpf4jnsgd1na2vs0mg"},{"bike_id":"a240423c-4d7e-41a8-a549-8c46c4bdd550","system_id":"levelo_inurba_marseille","lat":43.248115,"lon":5.374548,"is_reserved":false,"is_disabled":false,"rental_uris":{"android":"levelo://app?vid=a240423c-4d7e-41a8-a549-8c46c4bdd550","ios":"levelo://app?vid=a240423c-4d7e-41a8-a549-8c46c4bdd550"},"vehicle_type_id":"4","last_reported":1769498344,"current_range_meters":6400,"station_id":"ce4bhgh2rcd13ifvqfb0","pricing_plan_id":"cebpf4jnsgd1na2vs0mg"},{"bike_id":"f88d705c-fd5d-47fd-9cec-4cc11d33b889","system_id":"levelo_inurba_marseille","lat":43.28421,"lon":5.34983,"is_reserved":false,"is_disabled":false,"rental_uris":{"android":"levelo://app?vid=f88d705c-fd5d-47fd-9cec-4cc11d33b889","ios":"levelo://app?vid=f88d705c-fd5d-47fd-9cec-4cc11d33b889"},"vehicle_type_id":"4","last_reported":1769498344,"current_range_meters":6400,"station_id":"ce4bhbh2rcd13ifvqepg","pricing_plan_id":"cebpf4jnsgd1na2vs0mg"},{"bike_id":"9ab8ecac-aeb3-4a0c-a494-377ef9a5914e","system_id":"levelo_inurba_marseille","lat":43.28415,"lon":5.34999,"is_reserved":false,"is_disabled":false,"rental_uris":{"android":"levelo://app?vid=9ab8ecac-aeb3-4a0c-a494-377ef9a5914e","ios":"levelo://app?vid=9ab8ecac-aeb3-4a0c-a494-377ef9a5914e"},"vehicle_type_id":"4","last_reported":1769498344,"current_range_meters":6400,"station_id":"ce4bhbh2rcd13ifvqepg","pricing_plan_id":"cebpf4jnsgd1na2vs0mg"},{"bike_id":"cdd00e40-e898-421e-b9d3-7f5546861658","system_id":"levelo_inurba_marseille","lat":43.237786,"lon":5.366311,"is_reserved":false,"is_disabled":false,"rental_uris":{"android":"levelo://app?vid=cdd00e40-e898-421e-b9d3-7f5546861658","ios":"levelo://app?vid=cdd00e40-e898-421e-b9d3-7f5546861658"},"vehicle_type_id":"4","last_reported":1769498344,"current_range_meters":6400,"station_id":"st_d3nk18o9ro0c73en2l3g","pricing_plan_id":"cebpf4jnsgd1na2vs0mg"},{"bike_id":"5c18bca9-46cd-42a4-bd07-ba7493ce75f5","system_id":"levelo_inurba_marseille","lat":43.246357,"lon":5.431411,"is_reserved":false,"is_disabled":false,"rental_uris":{"android":"levelo://app?vid=5c18bca9-46cd-42a4-bd07-ba7493ce75f5","ios":"levelo://app?vid=5c18bca9-46cd-42a4-bd07-ba7493ce75f5"},"vehicle_type_id":"4","last_reported":1769498344,"current_range_meters":6400,"station_id":"st_d2m6c4gdas8pm72e190g","pricing_plan_id":"cebpf4jnsgd1na2vs0mg"},{"bike_id":"37f80f06-28e8-4bdc-8235-2b5370b5eec4","system_id":"levelo_inurba_marseille","lat":43.29793,"lon":5.3711,"is_reserved":false,"is_disabled":false,"rental_uris":{"android":"levelo://app?vid=37f80f06-28e8-4bdc-8235-2b5370b5eec4","ios":"levelo://app?vid=37f80f06-28e8-4bdc-8235-2b5370b5eec4"},"vehicle_type_id":"4","last_reported":1769498344,"current_range_meters":6400,"station_id":"ce4bgop2rcd13ifvqc1g","pricing_plan_id":"cebpf4jnsgd1na2vs0mg"},{"bike_id":"f845e441-1ca1-4fde-889e-45a681c017c7","system_id":"levelo_inurba_marseille","lat":43.24545,"lon":5.3953,"is_reserved":false,"is_disabled":false,"rental_uris":{"android":"levelo://app?vid=f845e441-1ca1-4fde-889e-45a681c017c7","ios":"levelo://app?vid=f845e441-1ca1-4fde-889e-45a681c017c7"},"vehicle_type_id":"4","last_reported":1769498344,"current_range_meters":6800,"station_id":"ce4bhlp2rcd13ifvqgjg","pricing_plan_id":"cebpf4jnsgd1na2vs0mg"},{"bike_id":"cd32b736-566b-4d35-8940-26c8819f750b","system_id":"levelo_inurba_marseille","lat":43.25,"lon":5.38935,"is_reserved":false,"is_disabled":false,"rental_uris":{"android":"levelo://app?vid=cd32b736-566b-4d35-8940-26c8819f750b","ios":"levelo://app?vid=cd32b736-566b-4d35-8940-26c8819f750b"},"vehicle_type_id":"4","last_reported":1769498344,"current_range_meters":6800,"station_id":"ce4bhgp2rcd13ifvqfd0","pricing_plan_id":"cebpf4jnsgd1na2vs0mg"},{"bike_id":"4982447f-e072-41ab-8515-f50997651ddc","system_id":"levelo_inurba_marseille","lat":43.23057,"lon":5.35485,"is_reserved":false,"is_disabled":true,"rental_uris":{"android":"levelo://app?vid=4982447f-e072-41ab-8515-f50997651ddc","ios":"levelo://app?vid=4982447f-e072-41ab-8515-f50997651ddc"},"vehicle_type_id":"4","last_reported":1769498344,"current_range_meters":6800,"station_id":"cpo3342slgdg3j2ifvpg","pricing_plan_id":"cebpf4jnsgd1na2vs0mg"},{"bike_id":"56076317-b66a-45ba-b3b6-c261c650aa84","system_id":"levelo_inurba_marseille","lat":43.2966,"lon":5.37812,"is_reserved":false,"is_disabled":false,"rental_uris":{"android":"levelo://app?vid=56076317-b66a-45ba-b3b6-c261c650aa84","ios":"levelo://app?vid=56076317-b66a-45ba-b3b6-c261c650aa84"},"vehicle_type_id":"4","last_reported":1769498344,"current_range_meters":6800,"station_id":"","pricing_plan_id":"cebpf4jnsgd1na2vs0mg"},{"bike_id":"aaf68de7-a8ba-4f2c-b543-643a8694a695","system_id":"levelo_inurba_marseille","lat":43.248044,"lon":5.374455,"is_reserved":false,"is_disabled":false,"rental_uris":{"android":"levelo://app?vid=aaf68de7-a8ba-4f2c-b543-643a8694a695","ios":"levelo://app?vid=aaf68de7-a8ba-4f2c-b543-643a8694a695"},"vehicle_type_id":"4","last_reported":1769498344,"current_range_meters":6800,"station_id":"ce4bhgh2rcd13ifvqfb0","pricing_plan_id":"cebpf4jnsgd1na2vs0mg"},{"bike_id":"4f438dad-01fc-4a34-afef-9521fac04b4f","system_id":"levelo_inurba_marseille","lat":43.32337,"lon":5.36743,"is_reserved":false,"is_disabled":false,"rental_uris":{"android":"levelo://app?vid=4f438dad-01fc-4a34-afef-9521fac04b4f","ios":"levelo://app?vid=4f438dad-01fc-4a34-afef-9521fac04b4f"},"vehicle_type_id":"4","last_reported":1769498344,"current_range_meters":6800,"station_id":"ce4bhsh2rcd13ifvqi2g","pricing_plan_id":"cebpf4jnsgd1na2vs0mg"},{"bike_id":"7e6857ec-acb5-49fb-8b9a-3074a3b72181","system_id":"levelo_inurba_marseille","lat":43.30255,"lon":5.3772,"is_reserved":false,"is_disabled":false,"rental_uris":{"android":"levelo://app?vid=7e6857ec-acb5-49fb-8b9a-3074a3b72181","ios":"levelo://app?vid=7e6857ec-acb5-49fb-8b9a-3074a3b72181"},"vehicle_type_id":"4","last_reported":1769498344,"current_range_meters":6800,"station_id":"ce4bguh2rcd13ifvqcj0","pricing_plan_id":"cebpf4jnsgd1na2vs0mg"},{"bike_id":"780f37c1-f90d-49a0-a2ac-cb1a69ad708a","system_id":"levelo_inurba_marseille","lat":43.2594,"lon":5.40903,"is_reserved":false,"is_disabled":false,"rental_uris":{"android":"levelo://app?vid=780f37c1-f90d-49a0-a2ac-cb1a69ad708a","ios":"levelo://app?vid=780f37c1-f90d-49a0-a2ac-cb1a69ad708a"},"vehicle_type_id":"4","last_reported":1769498344,"current_range_meters":6800,"station_id":"ce4bhm92rcd13ifvqglg","pricing_plan_id":"cebpf4jnsgd1na2vs0mg"},{"bike_id":"39c45b00-edbc-4039-9410-db409ff71c29","system_id":"levelo_inurba_marseille","lat":43.30485,"lon":5.37262,"is_reserved":false,"is_disabled":false,"rental_uris":{"android":"levelo://app?vid=39c45b00-edbc-4039-9410-db409ff71c29","ios":"levelo://app?vid=39c45b00-edbc-4039-9410-db409ff71c29"},"vehicle_type_id":"4","last_reported":1769498344,"current_range_meters":6800,"station_id":"","pricing_plan_id":"cebpf4jnsgd1na2vs0mg"},{"bike_id":"15ffb544-9cf9-4c83-98f5-22f43ecc1d4c","system_id":"levelo_inurba_marseille","lat":43.30782,"lon":5.40503,"is_reserved":false,"is_disabled":false,"rental_uris":{"android":"levelo://app?vid=15ffb544-9cf9-4c83-98f5-22f43ecc1d4c","ios":"levelo://app?vid=15ffb544-9cf9-4c83-98f5-22f43ecc1d4c"},"vehicle_type_id":"4","last_reported":1769498344,"current_range_meters":6800,"station_id":"","pricing_plan_id":"cebpf4jnsgd1na2vs0mg"},{"bike_id":"a7ecfbdb-c5da-45d5-9f30-6d067e433cac","system_id":"levelo_inurba_marseille","lat":43.24647,"lon":5.38194,"is_reserved":false,"is_disabled":false,"rental_uris":{"android":"levelo://app?vid=a7ecfbdb-c5da-45d5-9f30-6d067e433cac","ios":"levelo://app?vid=a7ecfbdb-c5da-45d5-9f30-6d067e433cac"},"vehicle_type_id":"4","last_reported":1769498344,"current_range_meters":6800,"station_id":"ce4bhih2rcd13ifvqfr0","pricing_plan_id":"cebpf4jnsgd1na2vs0mg"},{"bike_id":"fbbfdfb0-2a68-42b1-8e98-f01f0f60526d","system_id":"levelo_inurba_marseille","lat":43.28076,"lon":5.396556,"is_reserved":false,"is_disabled":false,"rental_uris":{"android":"levelo://app?vid=fbbfdfb0-2a68-42b1-8e98-f01f0f60526d","ios":"levelo://app?vid=fbbfdfb0-2a68-42b1-8e98-f01f0f60526d"},"vehicle_type_id":"4","last_reported":1769498344,"current_range_meters":6800,"station_id":"ce4bho12rcd13ifvqh2g","pricing_plan_id":"cebpf4jnsgd1na2vs0mg"},{"bike_id":"0b6fca61-6074-4e58-87b5-f1adf9a405bf","system_id":"levelo_inurba_marseille","lat":43.29049,"lon":5.39943,"is_reserved":false,"is_disabled":false,"rental_uris":{"android":"levelo://app?vid=0b6fca61-6074-4e58-87b5-f1adf9a405bf","ios":"levelo://app?vid=0b6fca61-6074-4e58-87b5-f1adf9a405bf"},"vehicle_type_id":"4","last_reported":1769498344,"current_range_meters":6800,"station_id":"ce4bh392rcd13ifvqdm0","pricing_plan_id":"cebpf4jnsgd1na2vs0mg"},{"bike_id":"b778e9ae-9e5d-422f-9aa0-c2aebe5892bf","system_id":"levelo_inurba_marseille","lat":43.32352,"lon":5.3675,"is_reserved":false,"is_disabled":false,"rental_uris":{"android":"levelo://app?vid=b778e9ae-9e5d-422f-9aa0-c2aebe5892bf","ios":"levelo://app?vid=b778e9ae-9e5d-422f-9aa0-c2aebe5892bf"},"vehicle_type_id":"4","last_reported":1769498344,"current_range_meters":7200,"station_id":"ce4bhsh2rcd13ifvqi2g","pricing_plan_id":"cebpf4jnsgd1na2vs0mg"},{"bike_id":"d67989f5-ff99-4625-8cc4-0e0a77727709","system_id":"levelo_inurba_marseille","lat":43.3016,"lon":5.38083,"is_reserved":false,"is_disabled":false,"rental_uris":{"android":"levelo://app?vid=d67989f5-ff99-4625-8cc4-0e0a77727709","ios":"levelo://app?vid=d67989f5-ff99-4625-8cc4-0e0a77727709"},"vehicle_type_id":"4","last_reported":1769498344,"current_range_meters":7200,"station_id":"ce4bgjp2rcd13ifvqbh0","pricing_plan_id":"cebpf4jnsgd1na2vs0mg"},{"bike_id":"8dc1c371-7a8b-4d40-96de-5f21b3f68e5e","system_id":"levelo_inurba_marseille","lat":43.2994,"lon":5.37485,"is_reserved":false,"is_disabled":false,"rental_uris":{"android":"levelo://app?vid=8dc1c371-7a8b-4d40-96de-5f21b3f68e5e","ios":"levelo://app?vid=8dc1c371-7a8b-4d40-96de-5f21b3f68e5e"},"vehicle_type_id":"4","last_reported":1769498344,"current_range_meters":7200,"station_id":"ce4bgjh2rcd13ifvqbg0","pricing_plan_id":"cebpf4jnsgd1na2vs0mg"},{"bike_id":"fcac192d-e38c-4938-91f6-9f19bc7bf45f","system_id":"levelo_inurba_marseille","lat":43.27208,"lon":5.39159,"is_reserved":false,"is_disabled":false,"rental_uris":{"android":"levelo://app?vid=fcac192d-e38c-4938-91f6-9f19bc7bf45f","ios":"levelo://app?vid=fcac192d-e38c-4938-91f6-9f19bc7bf45f"},"vehicle_type_id":"4","last_reported":1769498344,"current_range_meters":7200,"station_id":"ce4bhhp2rcd13ifvqfm0","pricing_plan_id":"cebpf4jnsgd1na2vs0mg"},{"bike_id":"ea91fc4b-d4b8-4803-a48a-2fab5a37d50e","system_id":"levelo_inurba_marseille","lat":43.29094,"lon":5.38139,"is_reserved":false,"is_disabled":false,"rental_uris":{"android":"levelo://app?vid=ea91fc4b-d4b8-4803-a48a-2fab5a37d50e","ios":"levelo://app?vid=ea91fc4b-d4b8-4803-a48a-2fab5a37d50e"},"vehicle_type_id":"4","last_reported":1769498344,"current_range_meters":7200,"station_id":"ce4bh512rcd13ifvqe2g","pricing_plan_id":"cebpf4jnsgd1na2vs0mg"},{"bike_id":"c8bb2a08-170b-4c3f-9a7c-8d580e9bd3cc","system_id":"levelo_inurba_marseille","lat":43.244678,"lon":5.425414,"is_reserved":false,"is_disabled":false,"rental_uris":{"android":"levelo://app?vid=c8bb2a08-170b-4c3f-9a7c-8d580e9bd3cc","ios":"levelo://app?vid=c8bb2a08-170b-4c3f-9a7c-8d580e9bd3cc"},"vehicle_type_id":"4","last_reported":1769498344,"current_range_meters":7200,"station_id":"st_d4a3vfp97mjs738cd8kg","pricing_plan_id":"cebpf4jnsgd1na2vs0mg"},{"bike_id":"1e6ae573-7b0d-4ca7-8d21-23950df7df4a","system_id":"levelo_inurba_marseille","lat":43.28501,"lon":5.44113,"is_reserved":false,"is_disabled":false,"rental_uris":{"android":"levelo://app?vid=1e6ae573-7b0d-4ca7-8d21-23950df7df4a","ios":"levelo://app?vid=1e6ae573-7b0d-4ca7-8d21-23950df7df4a"},"vehicle_type_id":"4","last_reported":1769498344,"current_range_meters":7200,"station_id":"st_d3j3df2ikq2c7380ej80","pricing_plan_id":"cebpf4jnsgd1na2vs0mg"},{"bike_id":"8631421d-21a9-439a-82c3-3764ee3e564c","system_id":"levelo_inurba_marseille","lat":43.27192,"lon":5.40985,"is_reserved":false,"is_disabled":false,"rental_uris":{"android":"levelo://app?vid=8631421d-21a9-439a-82c3-3764ee3e564c","ios":"levelo://app?vid=8631421d-21a9-439a-82c3-3764ee3e564c"},"vehicle_type_id":"4","last_reported":1769498344,"current_range_meters":7200,"station_id":"ce4bhl12rcd13ifvqgf0","pricing_plan_id":"cebpf4jnsgd1na2vs0mg"},{"bike_id":"2abdbc45-a66e-4faf-971c-b57d8f806d8d","system_id":"levelo_inurba_marseille","lat":43.284821,"lon":5.483928,"is_reserved":false,"is_disabled":false,"rental_uris":{"android":"levelo://app?vid=2abdbc45-a66e-4faf-971c-b57d8f806d8d","ios":"levelo://app?vid=2abdbc45-a66e-4faf-971c-b57d8f806d8d"},"vehicle_type_id":"4","last_reported":1769498344,"current_range_meters":7200,"station_id":"st_d3svhcjqgbts73a3dn0g","pricing_plan_id":"cebpf4jnsgd1na2vs0mg"},{"bike_id":"fb8934f6-9dab-439c-acce-05fcdc10c589","system_id":"levelo_inurba_marseille","lat":43.24944,"lon":5.40498,"is_reserved":false,"is_disabled":false,"rental_uris":{"android":"levelo://app?vid=fb8934f6-9dab-439c-acce-05fcdc10c589","ios":"levelo://app?vid=fb8934f6-9dab-439c-acce-05fcdc10c589"},"vehicle_type_id":"4","last_reported":1769498344,"current_range_meters":7200,"station_id":"st_d2ngiaodas8pm72gd1h0","pricing_plan_id":"cebpf4jnsgd1na2vs0mg"},{"bike_id":"10ed2664-109e-43f4-9dbd-256742a1695f","system_id":"levelo_inurba_marseille","lat":43.30176,"lon":5.3662,"is_reserved":false,"is_disabled":false,"rental_uris":{"android":"levelo://app?vid=10ed2664-109e-43f4-9dbd-256742a1695f","ios":"levelo://app?vid=10ed2664-109e-43f4-9dbd-256742a1695f"},"vehicle_type_id":"4","last_reported":1769498344,"current_range_meters":7200,"station_id":"ce4bgrh2rcd13ifvqc8g","pricing_plan_id":"cebpf4jnsgd1na2vs0mg"},{"bike_id":"c3616682-88ec-472f-b28b-1fbb837fa9d1","system_id":"levelo_inurba_marseille","lat":43.241706,"lon":5.363902,"is_reserved":false,"is_disabled":false,"rental_uris":{"android":"levelo://app?vid=c3616682-88ec-472f-b28b-1fbb837fa9d1","ios":"levelo://app?vid=c3616682-88ec-472f-b28b-1fbb837fa9d1"},"vehicle_type_id":"4","last_reported":1769498344,"current_range_meters":7200,"station_id":"cpo36qri1sfpv3e86is0","pricing_plan_id":"cebpf4jnsgd1na2vs0mg"},{"bike_id":"97d9c0be-7863-4ee9-9664-219df15d50b8","system_id":"levelo_inurba_marseille","lat":43.27738,"lon":5.38362,"is_reserved":false,"is_disabled":false,"rental_uris":{"android":"levelo://app?vid=97d9c0be-7863-4ee9-9664-219df15d50b8","ios":"levelo://app?vid=97d9c0be-7863-4ee9-9664-219df15d50b8"},"vehicle_type_id":"4","last_reported":1769498344,"current_range_meters":7200,"station_id":"","pricing_plan_id":"cebpf4jnsgd1na2vs0mg"},{"bike_id":"97d1eda0-a9af-4c4a-9c8b-3b1301d74ec8","system_id":"levelo_inurba_marseille","lat":43.22915,"lon":5.35378,"is_reserved":false,"is_disabled":false,"rental_uris":{"android":"levelo://app?vid=97d1eda0-a9af-4c4a-9c8b-3b1301d74ec8","ios":"levelo://app?vid=97d1eda0-a9af-4c4a-9c8b-3b1301d74ec8"},"vehicle_type_id":"4","last_reported":1769498344,"current_range_meters":8000,"station_id":"cpo3532slgdg3j2ikp40","pricing_plan_id":"cebpf4jnsgd1na2vs0mg"},{"bike_id":"c1d76fe7-8229-49b0-8dae-038c2bf0b5b7","system_id":"levelo_inurba_marseille","lat":43.30906,"lon":5.40338,"is_reserved":false,"is_disabled":false,"rental_uris":{"android":"levelo://app?vid=c1d76fe7-8229-49b0-8dae-038c2bf0b5b7","ios":"levelo://app?vid=c1d76fe7-8229-49b0-8dae-038c2bf0b5b7"},"vehicle_type_id":"4","last_reported":1769498344,"current_range_meters":8000,"station_id":"","pricing_plan_id":"cebpf4jnsgd1na2vs0mg"},{"bike_id":"cc827cf5-4f3f-4ac3-aba7-6f8c4601f689","system_id":"levelo_inurba_marseille","lat":43.24161,"lon":5.36384,"is_reserved":false,"is_disabled":false,"rental_uris":{"android":"levelo://app?vid=cc827cf5-4f3f-4ac3-aba7-6f8c4601f689","ios":"levelo://app?vid=cc827cf5-4f3f-4ac3-aba7-6f8c4601f689"},"vehicle_type_id":"4","last_reported":1769498344,"current_range_meters":8000,"station_id":"cpo36qri1sfpv3e86is0","pricing_plan_id":"cebpf4jnsgd1na2vs0mg"},{"bike_id":"e1b65952-cf23-4d4c-bb61-476f12fae8d2","system_id":"levelo_inurba_marseille","lat":43.23176,"lon":5.35577,"is_reserved":false,"is_disabled":false,"rental_uris":{"android":"levelo://app?vid=e1b65952-cf23-4d4c-bb61-476f12fae8d2","ios":"levelo://app?vid=e1b65952-cf23-4d4c-bb61-476f12fae8d2"},"vehicle_type_id":"4","last_reported":1769498344,"current_range_meters":8000,"station_id":"ce4bhu92rcd13ifvqi70","pricing_plan_id":"cebpf4jnsgd1na2vs0mg"},{"bike_id":"4df45a23-8322-48c7-91ed-b9f0dfff1365","system_id":"levelo_inurba_marseille","lat":43.313243,"lon":5.397061,"is_reserved":false,"is_disabled":false,"rental_uris":{"android":"levelo://app?vid=4df45a23-8322-48c7-91ed-b9f0dfff1365","ios":"levelo://app?vid=4df45a23-8322-48c7-91ed-b9f0dfff1365"},"vehicle_type_id":"4","last_reported":1769498344,"current_range_meters":8000,"station_id":"ce4bgvp2rcd13ifvqcu0","pricing_plan_id":"cebpf4jnsgd1na2vs0mg"},{"bike_id":"054e163b-1e47-4a0a-a038-a7939885860e","system_id":"levelo_inurba_marseille","lat":43.32343,"lon":5.36723,"is_reserved":false,"is_disabled":false,"rental_uris":{"android":"levelo://app?vid=054e163b-1e47-4a0a-a038-a7939885860e","ios":"levelo://app?vid=054e163b-1e47-4a0a-a038-a7939885860e"},"vehicle_type_id":"4","last_reported":1769498344,"current_range_meters":8000,"station_id":"ce4bhsh2rcd13ifvqi2g","pricing_plan_id":"cebpf4jnsgd1na2vs0mg"},{"bike_id":"05bd3590-5deb-408b-88af-ebf863b679ba","system_id":"levelo_inurba_marseille","lat":43.26555,"lon":5.38998,"is_reserved":false,"is_disabled":false,"rental_uris":{"android":"levelo://app?vid=05bd3590-5deb-408b-88af-ebf863b679ba","ios":"levelo://app?vid=05bd3590-5deb-408b-88af-ebf863b679ba"},"vehicle_type_id":"4","last_reported":1769498344,"current_range_meters":8000,"station_id":"ce4bhe12rcd13ifvqf30","pricing_plan_id":"cebpf4jnsgd1na2vs0mg"},{"bike_id":"c91f91f3-98b3-4fcf-bd93-581840c2823a","system_id":"levelo_inurba_marseille","lat":43.284374,"lon":5.391831,"is_reserved":false,"is_disabled":true,"rental_uris":{"android":"levelo://app?vid=c91f91f3-98b3-4fcf-bd93-581840c2823a","ios":"levelo://app?vid=c91f91f3-98b3-4fcf-bd93-581840c2823a"},"vehicle_type_id":"4","last_reported":1769498344,"current_range_meters":8000,"station_id":"ce4bhoh2rcd13ifvqh5g","pricing_plan_id":"cebpf4jnsgd1na2vs0mg"},{"bike_id":"5ab39139-51b3-4ce9-b983-537be2fb184a","system_id":"levelo_inurba_marseille","lat":43.30161,"lon":5.38109,"is_reserved":false,"is_disabled":false,"rental_uris":{"android":"levelo://app?vid=5ab39139-51b3-4ce9-b983-537be2fb184a","ios":"levelo://app?vid=5ab39139-51b3-4ce9-b983-537be2fb184a"},"vehicle_type_id":"4","last_reported":1769498344,"current_range_meters":8000,"station_id":"ce4bgjp2rcd13ifvqbh0","pricing_plan_id":"cebpf4jnsgd1na2vs0mg"},{"bike_id":"ddac16df-da7b-4c1e-8c96-25bd2dbc1226","system_id":"levelo_inurba_marseille","lat":43.32372,"lon":5.3675,"is_reserved":false,"is_disabled":false,"rental_uris":{"android":"levelo://app?vid=ddac16df-da7b-4c1e-8c96-25bd2dbc1226","ios":"levelo://app?vid=ddac16df-da7b-4c1e-8c96-25bd2dbc1226"},"vehicle_type_id":"4","last_reported":1769498344,"current_range_meters":8000,"station_id":"ce4bhsh2rcd13ifvqi2g","pricing_plan_id":"cebpf4jnsgd1na2vs0mg"},{"bike_id":"04ddf445-c90e-4eb2-b7e0-2646a674cd14","system_id":"levelo_inurba_marseille","lat":43.24816,"lon":5.37459,"is_reserved":false,"is_disabled":false,"rental_uris":{"android":"levelo://app?vid=04ddf445-c90e-4eb2-b7e0-2646a674cd14","ios":"levelo://app?vid=04ddf445-c90e-4eb2-b7e0-2646a674cd14"},"vehicle_type_id":"4","last_reported":1769498344,"current_range_meters":8000,"station_id":"ce4bhgh2rcd13ifvqfb0","pricing_plan_id":"cebpf4jnsgd1na2vs0mg"},{"bike_id":"f391056d-84b7-47da-9959-c82c95b71412","system_id":"levelo_inurba_marseille","lat":43.27487,"lon":5.42457,"is_reserved":false,"is_disabled":false,"rental_uris":{"android":"levelo://app?vid=f391056d-84b7-47da-9959-c82c95b71412","ios":"levelo://app?vid=f391056d-84b7-47da-9959-c82c95b71412"},"vehicle_type_id":"4","last_reported":1769498344,"current_range_meters":8000,"station_id":"ce4bhn92rcd13ifvqgrg","pricing_plan_id":"cebpf4jnsgd1na2vs0mg"},{"bike_id":"cd48c5bb-be72-4c52-8ee1-4e73c659ff42","system_id":"levelo_inurba_marseille","lat":43.23972,"lon":5.36627,"is_reserved":false,"is_disabled":false,"rental_uris":{"android":"levelo://app?vid=cd48c5bb-be72-4c52-8ee1-4e73c659ff42","ios":"levelo://app?vid=cd48c5bb-be72-4c52-8ee1-4e73c659ff42"},"vehicle_type_id":"4","last_reported":1769498344,"current_range_meters":8000,"station_id":"ce4bhi12rcd13ifvqfp0","pricing_plan_id":"cebpf4jnsgd1na2vs0mg"},{"bike_id":"71e4063f-a131-40b9-b906-a778662b6ea8","system_id":"levelo_inurba_marseille","lat":43.23966,"lon":5.36659,"is_reserved":false,"is_disabled":false,"rental_uris":{"android":"levelo://app?vid=71e4063f-a131-40b9-b906-a778662b6ea8","ios":"levelo://app?vid=71e4063f-a131-40b9-b906-a778662b6ea8"},"vehicle_type_id":"4","last_reported":1769498344,"current_range_meters":8000,"station_id":"ce4bhi12rcd13ifvqfp0","pricing_plan_id":"cebpf4jnsgd1na2vs0mg"},{"bike_id":"34490c13-8bcf-415c-b9e5-3eb81df8b667","system_id":"levelo_inurba_marseille","lat":43.25992,"lon":5.3758,"is_reserved":false,"is_disabled":false,"rental_uris":{"android":"levelo://app?vid=34490c13-8bcf-415c-b9e5-3eb81df8b667","ios":"levelo://app?vid=34490c13-8bcf-415c-b9e5-3eb81df8b667"},"vehicle_type_id":"4","last_reported":1769498344,"current_range_meters":8000,"station_id":"ce4bhgh2rcd13ifvqfa0","pricing_plan_id":"cebpf4jnsgd1na2vs0mg"},{"bike_id":"77427743-0d55-493d-b311-adc15917f736","system_id":"levelo_inurba_marseille","lat":43.29981,"lon":5.37179,"is_reserved":false,"is_disabled":false,"rental_uris":{"android":"levelo://app?vid=77427743-0d55-493d-b311-adc15917f736","ios":"levelo://app?vid=77427743-0d55-493d-b311-adc15917f736"},"vehicle_type_id":"4","last_reported":1769498344,"current_range_meters":8400,"station_id":"ce4bgr92rcd13ifvqc7g","pricing_plan_id":"cebpf4jnsgd1na2vs0mg"},{"bike_id":"ebf94705-971d-438e-a953-f7c4d4ddfd43","system_id":"levelo_inurba_marseille","lat":43.28396,"lon":5.37529,"is_reserved":false,"is_disabled":false,"rental_uris":{"android":"levelo://app?vid=ebf94705-971d-438e-a953-f7c4d4ddfd43","ios":"levelo://app?vid=ebf94705-971d-438e-a953-f7c4d4ddfd43"},"vehicle_type_id":"4","last_reported":1769498344,"current_range_meters":8400,"station_id":"ce4bh412rcd13ifvqds0","pricing_plan_id":"cebpf4jnsgd1na2vs0mg"},{"bike_id":"bed981e9-239a-4c8e-b1c1-b226709af449","system_id":"levelo_inurba_marseille","lat":43.26555,"lon":5.37286,"is_reserved":false,"is_disabled":false,"rental_uris":{"android":"levelo://app?vid=bed981e9-239a-4c8e-b1c1-b226709af449","ios":"levelo://app?vid=bed981e9-239a-4c8e-b1c1-b226709af449"},"vehicle_type_id":"4","last_reported":1769498344,"current_range_meters":8400,"station_id":"ce4bhg12rcd13ifvqf70","pricing_plan_id":"cebpf4jnsgd1na2vs0mg"},{"bike_id":"d8fe5977-167d-4d79-bb8d-a90abddb5736","system_id":"levelo_inurba_marseille","lat":43.248031,"lon":5.374536,"is_reserved":false,"is_disabled":false,"rental_uris":{"android":"levelo://app?vid=d8fe5977-167d-4d79-bb8d-a90abddb5736","ios":"levelo://app?vid=d8fe5977-167d-4d79-bb8d-a90abddb5736"},"vehicle_type_id":"4","last_reported":1769498344,"current_range_meters":8400,"station_id":"ce4bhgh2rcd13ifvqfb0","pricing_plan_id":"cebpf4jnsgd1na2vs0mg"},{"bike_id":"07334ae3-a27a-46ae-b685-938785481481","system_id":"levelo_inurba_marseille","lat":43.28534,"lon":5.441,"is_reserved":false,"is_disabled":false,"rental_uris":{"android":"levelo://app?vid=07334ae3-a27a-46ae-b685-938785481481","ios":"levelo://app?vid=07334ae3-a27a-46ae-b685-938785481481"},"vehicle_type_id":"4","last_reported":1769498344,"current_range_meters":8400,"station_id":"st_d3j3df2ikq2c7380ej80","pricing_plan_id":"cebpf4jnsgd1na2vs0mg"},{"bike_id":"62185d4d-46dd-4a84-abc6-9c9c9da6969c","system_id":"levelo_inurba_marseille","lat":43.28588,"lon":5.35142,"is_reserved":false,"is_disabled":false,"rental_uris":{"android":"levelo://app?vid=62185d4d-46dd-4a84-abc6-9c9c9da6969c","ios":"levelo://app?vid=62185d4d-46dd-4a84-abc6-9c9c9da6969c"},"vehicle_type_id":"4","last_reported":1769498344,"current_range_meters":8400,"station_id":"ce4bhch2rcd13ifvqeug","pricing_plan_id":"cebpf4jnsgd1na2vs0mg"},{"bike_id":"ccb8f850-15c8-4a47-a07e-b172230b2bf2","system_id":"levelo_inurba_marseille","lat":43.24465,"lon":5.42546,"is_reserved":false,"is_disabled":false,"rental_uris":{"android":"levelo://app?vid=ccb8f850-15c8-4a47-a07e-b172230b2bf2","ios":"levelo://app?vid=ccb8f850-15c8-4a47-a07e-b172230b2bf2"},"vehicle_type_id":"4","last_reported":1769498344,"current_range_meters":8400,"station_id":"st_d4a3vfp97mjs738cd8kg","pricing_plan_id":"cebpf4jnsgd1na2vs0mg"},{"bike_id":"dd17e14d-0564-4393-a6fd-cb7a120675c0","system_id":"levelo_inurba_marseille","lat":43.24465,"lon":5.42543,"is_reserved":false,"is_disabled":false,"rental_uris":{"android":"levelo://app?vid=dd17e14d-0564-4393-a6fd-cb7a120675c0","ios":"levelo://app?vid=dd17e14d-0564-4393-a6fd-cb7a120675c0"},"vehicle_type_id":"4","last_reported":1769498344,"current_range_meters":8400,"station_id":"st_d4a3vfp97mjs738cd8kg","pricing_plan_id":"cebpf4jnsgd1na2vs0mg"},{"bike_id":"06179d86-77e3-4b4d-a603-0c1d56004883","system_id":"levelo_inurba_marseille","lat":43.24801,"lon":5.37457,"is_reserved":false,"is_disabled":false,"rental_uris":{"android":"levelo://app?vid=06179d86-77e3-4b4d-a603-0c1d56004883","ios":"levelo://app?vid=06179d86-77e3-4b4d-a603-0c1d56004883"},"vehicle_type_id":"4","last_reported":1769498344,"current_range_meters":8400,"station_id":"ce4bhgh2rcd13ifvqfb0","pricing_plan_id":"cebpf4jnsgd1na2vs0mg"},{"bike_id":"12a4c848-5bc6-4c48-a91a-071c8c9b217e","system_id":"levelo_inurba_marseille","lat":43.23139,"lon":5.43752,"is_reserved":false,"is_disabled":false,"rental_uris":{"android":"levelo://app?vid=12a4c848-5bc6-4c48-a91a-071c8c9b217e","ios":"levelo://app?vid=12a4c848-5bc6-4c48-a91a-071c8c9b217e"},"vehicle_type_id":"4","last_reported":1769498344,"current_range_meters":8400,"station_id":"","pricing_plan_id":"cebpf4jnsgd1na2vs0mg"},{"bike_id":"41b8cf49-cb43-46d7-ba22-02d78c33cd8a","system_id":"levelo_inurba_marseille","lat":43.30585,"lon":5.39361,"is_reserved":false,"is_disabled":false,"rental_uris":{"android":"levelo://app?vid=41b8cf49-cb43-46d7-ba22-02d78c33cd8a","ios":"levelo://app?vid=41b8cf49-cb43-46d7-ba22-02d78c33cd8a"},"vehicle_type_id":"4","last_reported":1769498344,"current_range_meters":8400,"station_id":"ce4bh0p2rcd13ifvqd80","pricing_plan_id":"cebpf4jnsgd1na2vs0mg"},{"bike_id":"a2adfca7-789a-49ed-8b87-df38f124e965","system_id":"levelo_inurba_marseille","lat":43.24075,"lon":5.3776,"is_reserved":false,"is_disabled":false,"rental_uris":{"android":"levelo://app?vid=a2adfca7-789a-49ed-8b87-df38f124e965","ios":"levelo://app?vid=a2adfca7-789a-49ed-8b87-df38f124e965"},"vehicle_type_id":"4","last_reported":1769498344,"current_range_meters":8400,"station_id":"ce4bhnp2rcd13ifvqgvg","pricing_plan_id":"cebpf4jnsgd1na2vs0mg"},{"bike_id":"449affbd-aaf8-41d6-bed7-0d41a00c111d","system_id":"levelo_inurba_marseille","lat":43.33271,"lon":5.36611,"is_reserved":false,"is_disabled":false,"rental_uris":{"android":"levelo://app?vid=449affbd-aaf8-41d6-bed7-0d41a00c111d","ios":"levelo://app?vid=449affbd-aaf8-41d6-bed7-0d41a00c111d"},"vehicle_type_id":"4","last_reported":1769498344,"current_range_meters":8400,"station_id":"","pricing_plan_id":"cebpf4jnsgd1na2vs0mg"},{"bike_id":"6d06c21c-b3a0-4a4c-b24e-191f22182658","system_id":"levelo_inurba_marseille","lat":43.24636,"lon":5.43139,"is_reserved":false,"is_disabled":false,"rental_uris":{"android":"levelo://app?vid=6d06c21c-b3a0-4a4c-b24e-191f22182658","ios":"levelo://app?vid=6d06c21c-b3a0-4a4c-b24e-191f22182658"},"vehicle_type_id":"4","last_reported":1769498344,"current_range_meters":8400,"station_id":"st_d2m6c4gdas8pm72e190g","pricing_plan_id":"cebpf4jnsgd1na2vs0mg"},{"bike_id":"1bd44af8-a399-4717-b391-e0e7ede0d4bc","system_id":"levelo_inurba_marseille","lat":43.28531,"lon":5.44124,"is_reserved":false,"is_disabled":false,"rental_uris":{"android":"levelo://app?vid=1bd44af8-a399-4717-b391-e0e7ede0d4bc","ios":"levelo://app?vid=1bd44af8-a399-4717-b391-e0e7ede0d4bc"},"vehicle_type_id":"4","last_reported":1769498344,"current_range_meters":8400,"station_id":"st_d3j3df2ikq2c7380ej80","pricing_plan_id":"cebpf4jnsgd1na2vs0mg"},{"bike_id":"b17b5124-beec-4a5a-bebf-2b8f718a1349","system_id":"levelo_inurba_marseille","lat":43.231953,"lon":5.355418,"is_reserved":false,"is_disabled":false,"rental_uris":{"android":"levelo://app?vid=b17b5124-beec-4a5a-bebf-2b8f718a1349","ios":"levelo://app?vid=b17b5124-beec-4a5a-bebf-2b8f718a1349"},"vehicle_type_id":"4","last_reported":1769498344,"current_range_meters":8400,"station_id":"ce4bhu92rcd13ifvqi70","pricing_plan_id":"cebpf4jnsgd1na2vs0mg"},{"bike_id":"7b15f2fd-32ec-469a-8e16-4c24a06add97","system_id":"levelo_inurba_marseille","lat":43.31319,"lon":5.39716,"is_reserved":false,"is_disabled":false,"rental_uris":{"android":"levelo://app?vid=7b15f2fd-32ec-469a-8e16-4c24a06add97","ios":"levelo://app?vid=7b15f2fd-32ec-469a-8e16-4c24a06add97"},"vehicle_type_id":"4","last_reported":1769498344,"current_range_meters":8400,"station_id":"ce4bgvp2rcd13ifvqcu0","pricing_plan_id":"cebpf4jnsgd1na2vs0mg"},{"bike_id":"3bff5cec-8847-4371-9dcf-08e0ac5a358c","system_id":"levelo_inurba_marseille","lat":43.250058,"lon":5.389178,"is_reserved":false,"is_disabled":false,"rental_uris":{"android":"levelo://app?vid=3bff5cec-8847-4371-9dcf-08e0ac5a358c","ios":"levelo://app?vid=3bff5cec-8847-4371-9dcf-08e0ac5a358c"},"vehicle_type_id":"4","last_reported":1769498344,"current_range_meters":8400,"station_id":"ce4bhgp2rcd13ifvqfd0","pricing_plan_id":"cebpf4jnsgd1na2vs0mg"},{"bike_id":"27be6d02-14bf-40f0-868d-d33563b5440e","system_id":"levelo_inurba_marseille","lat":43.24078,"lon":5.37755,"is_reserved":false,"is_disabled":false,"rental_uris":{"android":"levelo://app?vid=27be6d02-14bf-40f0-868d-d33563b5440e","ios":"levelo://app?vid=27be6d02-14bf-40f0-868d-d33563b5440e"},"vehicle_type_id":"4","last_reported":1769498344,"current_range_meters":8800,"station_id":"ce4bhnp2rcd13ifvqgvg","pricing_plan_id":"cebpf4jnsgd1na2vs0mg"},{"bike_id":"48ac7849-98f4-4e69-b9f0-0586eb7d8ef9","system_id":"levelo_inurba_marseille","lat":43.28536,"lon":5.44098,"is_reserved":false,"is_disabled":false,"rental_uris":{"android":"levelo://app?vid=48ac7849-98f4-4e69-b9f0-0586eb7d8ef9","ios":"levelo://app?vid=48ac7849-98f4-4e69-b9f0-0586eb7d8ef9"},"vehicle_type_id":"4","last_reported":1769498344,"current_range_meters":8800,"station_id":"st_d3j3df2ikq2c7380ej80","pricing_plan_id":"cebpf4jnsgd1na2vs0mg"},{"bike_id":"3735cdb7-2784-4e41-8962-f607df9bb33f","system_id":"levelo_inurba_marseille","lat":43.26227,"lon":5.40449,"is_reserved":false,"is_disabled":false,"rental_uris":{"android":"levelo://app?vid=3735cdb7-2784-4e41-8962-f607df9bb33f","ios":"levelo://app?vid=3735cdb7-2784-4e41-8962-f607df9bb33f"},"vehicle_type_id":"4","last_reported":1769498344,"current_range_meters":8800,"station_id":"ce4bhmh2rcd13ifvqgmg","pricing_plan_id":"cebpf4jnsgd1na2vs0mg"},{"bike_id":"64f3f307-4445-49b0-a4d2-13895bd53a04","system_id":"levelo_inurba_marseille","lat":43.298524,"lon":5.362832,"is_reserved":false,"is_disabled":false,"rental_uris":{"android":"levelo://app?vid=64f3f307-4445-49b0-a4d2-13895bd53a04","ios":"levelo://app?vid=64f3f307-4445-49b0-a4d2-13895bd53a04"},"vehicle_type_id":"4","last_reported":1769498344,"current_range_meters":8800,"station_id":"ce4bgpp2rcd13ifvqc3g","pricing_plan_id":"cebpf4jnsgd1na2vs0mg"},{"bike_id":"cd97a287-f3db-4bb8-af84-655827a2ff9f","system_id":"levelo_inurba_marseille","lat":43.23139,"lon":5.43707,"is_reserved":false,"is_disabled":false,"rental_uris":{"android":"levelo://app?vid=cd97a287-f3db-4bb8-af84-655827a2ff9f","ios":"levelo://app?vid=cd97a287-f3db-4bb8-af84-655827a2ff9f"},"vehicle_type_id":"4","last_reported":1769498344,"current_range_meters":8800,"station_id":"ce4bhmp2rcd13ifvqgog","pricing_plan_id":"cebpf4jnsgd1na2vs0mg"},{"bike_id":"a2440d1b-a3a8-413d-afc2-b2eb2991ca06","system_id":"levelo_inurba_marseille","lat":43.33155,"lon":5.37701,"is_reserved":false,"is_disabled":false,"rental_uris":{"android":"levelo://app?vid=a2440d1b-a3a8-413d-afc2-b2eb2991ca06","ios":"levelo://app?vid=a2440d1b-a3a8-413d-afc2-b2eb2991ca06"},"vehicle_type_id":"4","last_reported":1769498344,"current_range_meters":8800,"station_id":"st_d46cu089ee8s73dldbu0","pricing_plan_id":"cebpf4jnsgd1na2vs0mg"},{"bike_id":"f955be94-4aed-4a94-a304-cf3933e2e92e","system_id":"levelo_inurba_marseille","lat":43.33162,"lon":5.37696,"is_reserved":false,"is_disabled":false,"rental_uris":{"android":"levelo://app?vid=f955be94-4aed-4a94-a304-cf3933e2e92e","ios":"levelo://app?vid=f955be94-4aed-4a94-a304-cf3933e2e92e"},"vehicle_type_id":"4","last_reported":1769498344,"current_range_meters":8800,"station_id":"st_d46cu089ee8s73dldbu0","pricing_plan_id":"cebpf4jnsgd1na2vs0mg"},{"bike_id":"73fc0ed2-33b8-469f-9d74-8809de49ae7e","system_id":"levelo_inurba_marseille","lat":43.26059,"lon":5.39401,"is_reserved":false,"is_disabled":false,"rental_uris":{"android":"levelo://app?vid=73fc0ed2-33b8-469f-9d74-8809de49ae7e","ios":"levelo://app?vid=73fc0ed2-33b8-469f-9d74-8809de49ae7e"},"vehicle_type_id":"4","last_reported":1769498344,"current_range_meters":8800,"station_id":"ce4bhh92rcd13ifvqfj0","pricing_plan_id":"cebpf4jnsgd1na2vs0mg"},{"bike_id":"e87551f7-d06a-4b80-aa7a-e3b2490a54b4","system_id":"levelo_inurba_marseille","lat":43.25549,"lon":5.38253,"is_reserved":false,"is_disabled":false,"rental_uris":{"android":"levelo://app?vid=e87551f7-d06a-4b80-aa7a-e3b2490a54b4","ios":"levelo://app?vid=e87551f7-d06a-4b80-aa7a-e3b2490a54b4"},"vehicle_type_id":"4","last_reported":1769498344,"current_range_meters":8800,"station_id":"ce4bhih2rcd13ifvqfs0","pricing_plan_id":"cebpf4jnsgd1na2vs0mg"},{"bike_id":"a9cec893-7222-4dfb-bbaa-9c8854f27a18","system_id":"levelo_inurba_marseille","lat":43.28265,"lon":5.35082,"is_reserved":false,"is_disabled":false,"rental_uris":{"android":"levelo://app?vid=a9cec893-7222-4dfb-bbaa-9c8854f27a18","ios":"levelo://app?vid=a9cec893-7222-4dfb-bbaa-9c8854f27a18"},"vehicle_type_id":"4","last_reported":1769498344,"current_range_meters":8800,"station_id":"ce4bhbp2rcd13ifvqerg","pricing_plan_id":"cebpf4jnsgd1na2vs0mg"},{"bike_id":"8e718450-4165-43cb-a2f3-32955edb736a","system_id":"levelo_inurba_marseille","lat":43.28617,"lon":5.35083,"is_reserved":false,"is_disabled":false,"rental_uris":{"android":"levelo://app?vid=8e718450-4165-43cb-a2f3-32955edb736a","ios":"levelo://app?vid=8e718450-4165-43cb-a2f3-32955edb736a"},"vehicle_type_id":"4","last_reported":1769498344,"current_range_meters":8800,"station_id":"ce4bhch2rcd13ifvqeug","pricing_plan_id":"cebpf4jnsgd1na2vs0mg"},{"bike_id":"21533d94-6c75-4712-8ced-196b2cabe09e","system_id":"levelo_inurba_marseille","lat":43.24078,"lon":5.37757,"is_reserved":false,"is_disabled":false,"rental_uris":{"android":"levelo://app?vid=21533d94-6c75-4712-8ced-196b2cabe09e","ios":"levelo://app?vid=21533d94-6c75-4712-8ced-196b2cabe09e"},"vehicle_type_id":"4","last_reported":1769498344,"current_range_meters":8800,"station_id":"ce4bhnp2rcd13ifvqgvg","pricing_plan_id":"cebpf4jnsgd1na2vs0mg"},{"bike_id":"e373adb8-40da-473b-ba87-82ec4d13e540","system_id":"levelo_inurba_marseille","lat":43.29711,"lon":5.37727,"is_reserved":false,"is_disabled":true,"rental_uris":{"android":"levelo://app?vid=e373adb8-40da-473b-ba87-82ec4d13e540","ios":"levelo://app?vid=e373adb8-40da-473b-ba87-82ec4d13e540"},"vehicle_type_id":"4","last_reported":1769498344,"current_range_meters":8800,"station_id":"ce4bgkh2rcd13ifvqbl0","pricing_plan_id":"cebpf4jnsgd1na2vs0mg"},{"bike_id":"e1d814f1-8a4b-47bd-b805-780af94a9b38","system_id":"levelo_inurba_marseille","lat":43.3065,"lon":5.43164,"is_reserved":false,"is_disabled":false,"rental_uris":{"android":"levelo://app?vid=e1d814f1-8a4b-47bd-b805-780af94a9b38","ios":"levelo://app?vid=e1d814f1-8a4b-47bd-b805-780af94a9b38"},"vehicle_type_id":"4","last_reported":1769498344,"current_range_meters":8800,"station_id":"","pricing_plan_id":"cebpf4jnsgd1na2vs0mg"},{"bike_id":"eb5e46bb-0f7c-4378-acb2-1cc517be9999","system_id":"levelo_inurba_marseille","lat":43.24463,"lon":5.42543,"is_reserved":false,"is_disabled":false,"rental_uris":{"android":"levelo://app?vid=eb5e46bb-0f7c-4378-acb2-1cc517be9999","ios":"levelo://app?vid=eb5e46bb-0f7c-4378-acb2-1cc517be9999"},"vehicle_type_id":"4","last_reported":1769498344,"current_range_meters":8800,"station_id":"st_d4a3vfp97mjs738cd8kg","pricing_plan_id":"cebpf4jnsgd1na2vs0mg"},{"bike_id":"0d68e9fb-c6a8-4cfc-8dfd-fffb5cc1d283","system_id":"levelo_inurba_marseille","lat":43.30467,"lon":5.37916,"is_reserved":false,"is_disabled":false,"rental_uris":{"android":"levelo://app?vid=0d68e9fb-c6a8-4cfc-8dfd-fffb5cc1d283","ios":"levelo://app?vid=0d68e9fb-c6a8-4cfc-8dfd-fffb5cc1d283"},"vehicle_type_id":"4","last_reported":1769498344,"current_range_meters":8800,"station_id":"ce4bgup2rcd13ifvqcn0","pricing_plan_id":"cebpf4jnsgd1na2vs0mg"},{"bike_id":"1fde56f1-c82f-4e05-b1b4-f51d596535ee","system_id":"levelo_inurba_marseille","lat":43.30322,"lon":5.40439,"is_reserved":false,"is_disabled":false,"rental_uris":{"android":"levelo://app?vid=1fde56f1-c82f-4e05-b1b4-f51d596535ee","ios":"levelo://app?vid=1fde56f1-c82f-4e05-b1b4-f51d596535ee"},"vehicle_type_id":"4","last_reported":1769498344,"current_range_meters":9200,"station_id":"ce4bh012rcd13ifvqd10","pricing_plan_id":"cebpf4jnsgd1na2vs0mg"},{"bike_id":"aaac4692-b841-4dff-9cb8-9a7c952b4f62","system_id":"levelo_inurba_marseille","lat":43.25111,"lon":5.40333,"is_reserved":false,"is_disabled":false,"rental_uris":{"android":"levelo://app?vid=aaac4692-b841-4dff-9cb8-9a7c952b4f62","ios":"levelo://app?vid=aaac4692-b841-4dff-9cb8-9a7c952b4f62"},"vehicle_type_id":"4","last_reported":1769498344,"current_range_meters":9200,"station_id":"ce4bhlh2rcd13ifvqgig","pricing_plan_id":"cebpf4jnsgd1na2vs0mg"},{"bike_id":"dbf2d5fa-0067-4d78-8d50-7328128e1b0e","system_id":"levelo_inurba_marseille","lat":43.25834,"lon":5.39446,"is_reserved":false,"is_disabled":false,"rental_uris":{"android":"levelo://app?vid=dbf2d5fa-0067-4d78-8d50-7328128e1b0e","ios":"levelo://app?vid=dbf2d5fa-0067-4d78-8d50-7328128e1b0e"},"vehicle_type_id":"4","last_reported":1769498344,"current_range_meters":9200,"station_id":"ce4bhip2rcd13ifvqft0","pricing_plan_id":"cebpf4jnsgd1na2vs0mg"},{"bike_id":"b2073835-8071-45e6-8329-8ada17d59494","system_id":"levelo_inurba_marseille","lat":43.299871,"lon":5.37179,"is_reserved":false,"is_disabled":false,"rental_uris":{"android":"levelo://app?vid=b2073835-8071-45e6-8329-8ada17d59494","ios":"levelo://app?vid=b2073835-8071-45e6-8329-8ada17d59494"},"vehicle_type_id":"4","last_reported":1769498344,"current_range_meters":9200,"station_id":"ce4bgr92rcd13ifvqc7g","pricing_plan_id":"cebpf4jnsgd1na2vs0mg"},{"bike_id":"174cbe00-ce57-47c6-ba46-bf2fc3918290","system_id":"levelo_inurba_marseille","lat":43.31987,"lon":5.38164,"is_reserved":false,"is_disabled":false,"rental_uris":{"android":"levelo://app?vid=174cbe00-ce57-47c6-ba46-bf2fc3918290","ios":"levelo://app?vid=174cbe00-ce57-47c6-ba46-bf2fc3918290"},"vehicle_type_id":"4","last_reported":1769498344,"current_range_meters":9200,"station_id":"ce4bhr12rcd13ifvqhpg","pricing_plan_id":"cebpf4jnsgd1na2vs0mg"},{"bike_id":"48fc7424-9f8b-452e-b985-2922c5d3a016","system_id":"levelo_inurba_marseille","lat":43.23141,"lon":5.43725,"is_reserved":false,"is_disabled":false,"rental_uris":{"android":"levelo://app?vid=48fc7424-9f8b-452e-b985-2922c5d3a016","ios":"levelo://app?vid=48fc7424-9f8b-452e-b985-2922c5d3a016"},"vehicle_type_id":"4","last_reported":1769498344,"current_range_meters":9200,"station_id":"ce4bhmp2rcd13ifvqgog","pricing_plan_id":"cebpf4jnsgd1na2vs0mg"},{"bike_id":"932f24ce-afa3-48f4-a501-0bac81547b63","system_id":"levelo_inurba_marseille","lat":43.28255,"lon":5.35081,"is_reserved":false,"is_disabled":false,"rental_uris":{"android":"levelo://app?vid=932f24ce-afa3-48f4-a501-0bac81547b63","ios":"levelo://app?vid=932f24ce-afa3-48f4-a501-0bac81547b63"},"vehicle_type_id":"4","last_reported":1769498344,"current_range_meters":9200,"station_id":"ce4bhbp2rcd13ifvqerg","pricing_plan_id":"cebpf4jnsgd1na2vs0mg"},{"bike_id":"40c00ce8-9696-4dc1-a876-a27469c259e5","system_id":"levelo_inurba_marseille","lat":43.231478,"lon":5.437229,"is_reserved":false,"is_disabled":false,"rental_uris":{"android":"levelo://app?vid=40c00ce8-9696-4dc1-a876-a27469c259e5","ios":"levelo://app?vid=40c00ce8-9696-4dc1-a876-a27469c259e5"},"vehicle_type_id":"4","last_reported":1769498344,"current_range_meters":9200,"station_id":"","pricing_plan_id":"cebpf4jnsgd1na2vs0mg"},{"bike_id":"429f10e5-d1e7-4cf3-ad1a-2b51a3334c63","system_id":"levelo_inurba_marseille","lat":43.240721,"lon":5.377491,"is_reserved":false,"is_disabled":false,"rental_uris":{"android":"levelo://app?vid=429f10e5-d1e7-4cf3-ad1a-2b51a3334c63","ios":"levelo://app?vid=429f10e5-d1e7-4cf3-ad1a-2b51a3334c63"},"vehicle_type_id":"4","last_reported":1769498344,"current_range_meters":9200,"station_id":"ce4bhnp2rcd13ifvqgvg","pricing_plan_id":"cebpf4jnsgd1na2vs0mg"},{"bike_id":"afc35fc5-f970-4e32-9d50-e9d04cb96c13","system_id":"levelo_inurba_marseille","lat":43.28414,"lon":5.34994,"is_reserved":false,"is_disabled":false,"rental_uris":{"android":"levelo://app?vid=afc35fc5-f970-4e32-9d50-e9d04cb96c13","ios":"levelo://app?vid=afc35fc5-f970-4e32-9d50-e9d04cb96c13"},"vehicle_type_id":"4","last_reported":1769498344,"current_range_meters":9200,"station_id":"ce4bhbh2rcd13ifvqepg","pricing_plan_id":"cebpf4jnsgd1na2vs0mg"},{"bike_id":"a1edd5ff-9279-460e-a8ff-f80256deb9ff","system_id":"levelo_inurba_marseille","lat":43.26368,"lon":5.4109,"is_reserved":false,"is_disabled":false,"rental_uris":{"android":"levelo://app?vid=a1edd5ff-9279-460e-a8ff-f80256deb9ff","ios":"levelo://app?vid=a1edd5ff-9279-460e-a8ff-f80256deb9ff"},"vehicle_type_id":"4","last_reported":1769498344,"current_range_meters":9200,"station_id":"st_d4e5ca6na9uc73bfl5fg","pricing_plan_id":"cebpf4jnsgd1na2vs0mg"},{"bike_id":"0ea3d740-957a-41cd-8123-81078ac58473","system_id":"levelo_inurba_marseille","lat":43.28404,"lon":5.35,"is_reserved":false,"is_disabled":false,"rental_uris":{"android":"levelo://app?vid=0ea3d740-957a-41cd-8123-81078ac58473","ios":"levelo://app?vid=0ea3d740-957a-41cd-8123-81078ac58473"},"vehicle_type_id":"4","last_reported":1769498344,"current_range_meters":9200,"station_id":"ce4bhbh2rcd13ifvqepg","pricing_plan_id":"cebpf4jnsgd1na2vs0mg"},{"bike_id":"9a8ad0af-897e-45a4-9788-4bc766c7219b","system_id":"levelo_inurba_marseille","lat":43.27606,"lon":5.36113,"is_reserved":false,"is_disabled":false,"rental_uris":{"android":"levelo://app?vid=9a8ad0af-897e-45a4-9788-4bc766c7219b","ios":"levelo://app?vid=9a8ad0af-897e-45a4-9788-4bc766c7219b"},"vehicle_type_id":"4","last_reported":1769498344,"current_range_meters":9600,"station_id":"ce4bgj92rcd13ifvqbe0","pricing_plan_id":"cebpf4jnsgd1na2vs0mg"},{"bike_id":"394b0442-b227-4817-82ee-24bf4442a5ce","system_id":"levelo_inurba_marseille","lat":43.30734,"lon":5.42447,"is_reserved":false,"is_disabled":false,"rental_uris":{"android":"levelo://app?vid=394b0442-b227-4817-82ee-24bf4442a5ce","ios":"levelo://app?vid=394b0442-b227-4817-82ee-24bf4442a5ce"},"vehicle_type_id":"4","last_reported":1769498344,"current_range_meters":9600,"station_id":"st_cvj6ca6bvosntc0bfgr0","pricing_plan_id":"cebpf4jnsgd1na2vs0mg"},{"bike_id":"e97d0a7c-09a0-4de9-8b12-4f01b9fc223b","system_id":"levelo_inurba_marseille","lat":43.29758,"lon":5.38041,"is_reserved":false,"is_disabled":false,"rental_uris":{"android":"levelo://app?vid=e97d0a7c-09a0-4de9-8b12-4f01b9fc223b","ios":"levelo://app?vid=e97d0a7c-09a0-4de9-8b12-4f01b9fc223b"},"vehicle_type_id":"4","last_reported":1769498344,"current_range_meters":9600,"station_id":"","pricing_plan_id":"cebpf4jnsgd1na2vs0mg"},{"bike_id":"578cc705-183c-463e-ace0-457bb9ae3bae","system_id":"levelo_inurba_marseille","lat":43.30632,"lon":5.39347,"is_reserved":false,"is_disabled":false,"rental_uris":{"android":"levelo://app?vid=578cc705-183c-463e-ace0-457bb9ae3bae","ios":"levelo://app?vid=578cc705-183c-463e-ace0-457bb9ae3bae"},"vehicle_type_id":"4","last_reported":1769498344,"current_range_meters":9600,"station_id":"ce4bh0p2rcd13ifvqd80","pricing_plan_id":"cebpf4jnsgd1na2vs0mg"},{"bike_id":"45604e1e-fc75-4a08-b963-95d5701ab030","system_id":"levelo_inurba_marseille","lat":43.29055,"lon":5.37162,"is_reserved":false,"is_disabled":false,"rental_uris":{"android":"levelo://app?vid=45604e1e-fc75-4a08-b963-95d5701ab030","ios":"levelo://app?vid=45604e1e-fc75-4a08-b963-95d5701ab030"},"vehicle_type_id":"4","last_reported":1769498344,"current_range_meters":9600,"station_id":"ce4bh5p2rcd13ifvqe4g","pricing_plan_id":"cebpf4jnsgd1na2vs0mg"},{"bike_id":"66d53e2f-2a0c-4a26-af49-177c6a70a302","system_id":"levelo_inurba_marseille","lat":43.25433,"lon":5.39592,"is_reserved":false,"is_disabled":false,"rental_uris":{"android":"levelo://app?vid=66d53e2f-2a0c-4a26-af49-177c6a70a302","ios":"levelo://app?vid=66d53e2f-2a0c-4a26-af49-177c6a70a302"},"vehicle_type_id":"4","last_reported":1769498344,"current_range_meters":9600,"station_id":"","pricing_plan_id":"cebpf4jnsgd1na2vs0mg"},{"bike_id":"c189263c-4f10-40b6-a006-1d84bfa2405c","system_id":"levelo_inurba_marseille","lat":43.245469,"lon":5.395204,"is_reserved":false,"is_disabled":false,"rental_uris":{"android":"levelo://app?vid=c189263c-4f10-40b6-a006-1d84bfa2405c","ios":"levelo://app?vid=c189263c-4f10-40b6-a006-1d84bfa2405c"},"vehicle_type_id":"4","last_reported":1769498344,"current_range_meters":9600,"station_id":"ce4bhlp2rcd13ifvqgjg","pricing_plan_id":"cebpf4jnsgd1na2vs0mg"},{"bike_id":"22b83128-8a71-413b-881b-8198c5ee9eed","system_id":"levelo_inurba_marseille","lat":43.25722,"lon":5.41109,"is_reserved":false,"is_disabled":false,"rental_uris":{"android":"levelo://app?vid=22b83128-8a71-413b-881b-8198c5ee9eed","ios":"levelo://app?vid=22b83128-8a71-413b-881b-8198c5ee9eed"},"vehicle_type_id":"4","last_reported":1769498344,"current_range_meters":9600,"station_id":"ce4bhkp2rcd13ifvqgd0","pricing_plan_id":"cebpf4jnsgd1na2vs0mg"},{"bike_id":"989810a9-27ca-4ac1-8c2b-903502fc4908","system_id":"levelo_inurba_marseille","lat":43.2872,"lon":5.36131,"is_reserved":false,"is_disabled":false,"rental_uris":{"android":"levelo://app?vid=989810a9-27ca-4ac1-8c2b-903502fc4908","ios":"levelo://app?vid=989810a9-27ca-4ac1-8c2b-903502fc4908"},"vehicle_type_id":"4","last_reported":1769498344,"current_range_meters":9600,"station_id":"cki0cbj6b192h4jlfktg","pricing_plan_id":"cebpf4jnsgd1na2vs0mg"},{"bike_id":"43243577-f42e-4220-899e-e79985a4cf37","system_id":"levelo_inurba_marseille","lat":43.309606,"lon":5.390316,"is_reserved":false,"is_disabled":true,"rental_uris":{"android":"levelo://app?vid=43243577-f42e-4220-899e-e79985a4cf37","ios":"levelo://app?vid=43243577-f42e-4220-899e-e79985a4cf37"},"vehicle_type_id":"4","last_reported":1769498344,"current_range_meters":9600,"station_id":"ce4bgup2rcd13ifvqco0","pricing_plan_id":"cebpf4jnsgd1na2vs0mg"},{"bike_id":"d815de99-dc62-4dc1-9b11-2df23d3fe849","system_id":"levelo_inurba_marseille","lat":43.2407,"lon":5.37748,"is_reserved":false,"is_disabled":false,"rental_uris":{"android":"levelo://app?vid=d815de99-dc62-4dc1-9b11-2df23d3fe849","ios":"levelo://app?vid=d815de99-dc62-4dc1-9b11-2df23d3fe849"},"vehicle_type_id":"4","last_reported":1769498344,"current_range_meters":9600,"station_id":"ce4bhnp2rcd13ifvqgvg","pricing_plan_id":"cebpf4jnsgd1na2vs0mg"},{"bike_id":"eb0bf08a-b6cc-4ac8-8e1f-c82dd2a6df2f","system_id":"levelo_inurba_marseille","lat":43.32349,"lon":5.36742,"is_reserved":false,"is_disabled":false,"rental_uris":{"android":"levelo://app?vid=eb0bf08a-b6cc-4ac8-8e1f-c82dd2a6df2f","ios":"levelo://app?vid=eb0bf08a-b6cc-4ac8-8e1f-c82dd2a6df2f"},"vehicle_type_id":"4","last_reported":1769498344,"current_range_meters":9600,"station_id":"ce4bhsh2rcd13ifvqi2g","pricing_plan_id":"cebpf4jnsgd1na2vs0mg"},{"bike_id":"799847f3-00d6-4dac-8773-c8f7acf031bb","system_id":"levelo_inurba_marseille","lat":43.31479,"lon":5.37227,"is_reserved":false,"is_disabled":false,"rental_uris":{"android":"levelo://app?vid=799847f3-00d6-4dac-8773-c8f7acf031bb","ios":"levelo://app?vid=799847f3-00d6-4dac-8773-c8f7acf031bb"},"vehicle_type_id":"4","last_reported":1769498344,"current_range_meters":9600,"station_id":"","pricing_plan_id":"cebpf4jnsgd1na2vs0mg"},{"bike_id":"57f84a50-10ad-4e00-b432-91b624bd46e5","system_id":"levelo_inurba_marseille","lat":43.237584,"lon":5.378046,"is_reserved":false,"is_disabled":false,"rental_uris":{"android":"levelo://app?vid=57f84a50-10ad-4e00-b432-91b624bd46e5","ios":"levelo://app?vid=57f84a50-10ad-4e00-b432-91b624bd46e5"},"vehicle_type_id":"4","last_reported":1769498344,"current_range_meters":9600,"station_id":"ce4bhnp2rcd13ifvqgvg","pricing_plan_id":"cebpf4jnsgd1na2vs0mg"},{"bike_id":"ca66d378-9d1e-4b95-930f-e2b25ff469f9","system_id":"levelo_inurba_marseille","lat":43.33167,"lon":5.37693,"is_reserved":false,"is_disabled":false,"rental_uris":{"android":"levelo://app?vid=ca66d378-9d1e-4b95-930f-e2b25ff469f9","ios":"levelo://app?vid=ca66d378-9d1e-4b95-930f-e2b25ff469f9"},"vehicle_type_id":"4","last_reported":1769498344,"current_range_meters":9600,"station_id":"st_d46cu089ee8s73dldbu0","pricing_plan_id":"cebpf4jnsgd1na2vs0mg"},{"bike_id":"4bc6ef3a-5c33-4ef4-86a9-b40ce8ebace5","system_id":"levelo_inurba_marseille","lat":43.23148,"lon":5.43707,"is_reserved":false,"is_disabled":false,"rental_uris":{"android":"levelo://app?vid=4bc6ef3a-5c33-4ef4-86a9-b40ce8ebace5","ios":"levelo://app?vid=4bc6ef3a-5c33-4ef4-86a9-b40ce8ebace5"},"vehicle_type_id":"4","last_reported":1769498344,"current_range_meters":9600,"station_id":"ce4bhmp2rcd13ifvqgog","pricing_plan_id":"cebpf4jnsgd1na2vs0mg"},{"bike_id":"cd344f5c-4fef-4be8-8a35-1b59ed47f3e1","system_id":"levelo_inurba_marseille","lat":43.24543,"lon":5.39521,"is_reserved":false,"is_disabled":false,"rental_uris":{"android":"levelo://app?vid=cd344f5c-4fef-4be8-8a35-1b59ed47f3e1","ios":"levelo://app?vid=cd344f5c-4fef-4be8-8a35-1b59ed47f3e1"},"vehicle_type_id":"4","last_reported":1769498344,"current_range_meters":9600,"station_id":"ce4bhlp2rcd13ifvqgjg","pricing_plan_id":"cebpf4jnsgd1na2vs0mg"},{"bike_id":"e67e2236-dc34-47e6-98d0-265793c63d1a","system_id":"levelo_inurba_marseille","lat":43.30152,"lon":5.38091,"is_reserved":false,"is_disabled":false,"rental_uris":{"android":"levelo://app?vid=e67e2236-dc34-47e6-98d0-265793c63d1a","ios":"levelo://app?vid=e67e2236-dc34-47e6-98d0-265793c63d1a"},"vehicle_type_id":"4","last_reported":1769498344,"current_range_meters":9600,"station_id":"ce4bgjp2rcd13ifvqbh0","pricing_plan_id":"cebpf4jnsgd1na2vs0mg"},{"bike_id":"11acc94b-1673-4b33-9d56-6d60d489d020","system_id":"levelo_inurba_marseille","lat":43.292833,"lon":5.368504,"is_reserved":false,"is_disabled":false,"rental_uris":{"android":"levelo://app?vid=11acc94b-1673-4b33-9d56-6d60d489d020","ios":"levelo://app?vid=11acc94b-1673-4b33-9d56-6d60d489d020"},"vehicle_type_id":"4","last_reported":1769498344,"current_range_meters":10000,"station_id":"ce4bhbp2rcd13ifvqesg","pricing_plan_id":"cebpf4jnsgd1na2vs0mg"},{"bike_id":"6d0f3590-1f08-4309-8a81-86f2ba4719cc","system_id":"levelo_inurba_marseille","lat":43.231473,"lon":5.437291,"is_reserved":false,"is_disabled":false,"rental_uris":{"android":"levelo://app?vid=6d0f3590-1f08-4309-8a81-86f2ba4719cc","ios":"levelo://app?vid=6d0f3590-1f08-4309-8a81-86f2ba4719cc"},"vehicle_type_id":"4","last_reported":1769498344,"current_range_meters":10000,"station_id":"","pricing_plan_id":"cebpf4jnsgd1na2vs0mg"},{"bike_id":"be61f665-5eb0-4329-86f9-8b0611c4a27f","system_id":"levelo_inurba_marseille","lat":43.279171,"lon":5.395819,"is_reserved":false,"is_disabled":false,"rental_uris":{"android":"levelo://app?vid=be61f665-5eb0-4329-86f9-8b0611c4a27f","ios":"levelo://app?vid=be61f665-5eb0-4329-86f9-8b0611c4a27f"},"vehicle_type_id":"4","last_reported":1769498344,"current_range_meters":10000,"station_id":"ce4bhf92rcd13ifvqf40","pricing_plan_id":"cebpf4jnsgd1na2vs0mg"},{"bike_id":"3255c3b2-2452-488a-8e43-3a5076fdc8d6","system_id":"levelo_inurba_marseille","lat":43.30301,"lon":5.36932,"is_reserved":false,"is_disabled":false,"rental_uris":{"android":"levelo://app?vid=3255c3b2-2452-488a-8e43-3a5076fdc8d6","ios":"levelo://app?vid=3255c3b2-2452-488a-8e43-3a5076fdc8d6"},"vehicle_type_id":"4","last_reported":1769498344,"current_range_meters":10000,"station_id":"ce4bgqh2rcd13ifvqc5g","pricing_plan_id":"cebpf4jnsgd1na2vs0mg"},{"bike_id":"e9235946-11f5-4ac6-bd5d-2a1780cfab40","system_id":"levelo_inurba_marseille","lat":43.26541,"lon":5.37311,"is_reserved":false,"is_disabled":false,"rental_uris":{"android":"levelo://app?vid=e9235946-11f5-4ac6-bd5d-2a1780cfab40","ios":"levelo://app?vid=e9235946-11f5-4ac6-bd5d-2a1780cfab40"},"vehicle_type_id":"4","last_reported":1769498344,"current_range_meters":10000,"station_id":"ce4bhg12rcd13ifvqf70","pricing_plan_id":"cebpf4jnsgd1na2vs0mg"},{"bike_id":"1da57a9d-08f9-4288-91a0-62c212bbf651","system_id":"levelo_inurba_marseille","lat":43.28136,"lon":5.42661,"is_reserved":false,"is_disabled":false,"rental_uris":{"android":"levelo://app?vid=1da57a9d-08f9-4288-91a0-62c212bbf651","ios":"levelo://app?vid=1da57a9d-08f9-4288-91a0-62c212bbf651"},"vehicle_type_id":"4","last_reported":1769498344,"current_range_meters":10000,"station_id":"ce4bhnh2rcd13ifvqgug","pricing_plan_id":"cebpf4jnsgd1na2vs0mg"},{"bike_id":"1a56152d-f93b-4ba8-94fe-9709967df90d","system_id":"levelo_inurba_marseille","lat":43.239601,"lon":5.366278,"is_reserved":false,"is_disabled":false,"rental_uris":{"android":"levelo://app?vid=1a56152d-f93b-4ba8-94fe-9709967df90d","ios":"levelo://app?vid=1a56152d-f93b-4ba8-94fe-9709967df90d"},"vehicle_type_id":"4","last_reported":1769498344,"current_range_meters":10000,"station_id":"ce4bhi12rcd13ifvqfp0","pricing_plan_id":"cebpf4jnsgd1na2vs0mg"},{"bike_id":"d0f42ee2-a714-4fb2-8e10-0f955cdf931e","system_id":"levelo_inurba_marseille","lat":43.25824,"lon":5.39438,"is_reserved":false,"is_disabled":false,"rental_uris":{"android":"levelo://app?vid=d0f42ee2-a714-4fb2-8e10-0f955cdf931e","ios":"levelo://app?vid=d0f42ee2-a714-4fb2-8e10-0f955cdf931e"},"vehicle_type_id":"4","last_reported":1769498344,"current_range_meters":10000,"station_id":"ce4bhip2rcd13ifvqft0","pricing_plan_id":"cebpf4jnsgd1na2vs0mg"},