{"last_updated":1732525896,"ttl":60,"version":"2.2","data":{"bikes":[{"bike_id":"77a6b4d3-f225-40ca-b115-e0b015ca37be","system_id":"levelo_inurba_marseille","lat":43.28152,"lon":5.42648,"is_reserved":false,"is_disabled":false,"rental_uris":{"android":"levelo://app?vid=77a6b4d3-f225-40ca-b115-e0b015ca37be","ios":"levelo://app?vid=77a6b4d3-f225-40ca-b115-e0b015ca37be"},"vehicle_type_id":"4","last_reported":1732525896,"current_range_meters":37600,"station_id":"ce4bhnh2rcd13ifvqgug","pricing_plan_id":"cebpf4jnsgd1na2vs0mg"},{"bike_id":"ce7ec125-e5e1-4f1c-9ffa-2776a8995d05","system_id":"levelo_inurba_marseille","lat":43.27068,"lon":5.42278,"is_reserved":false,"is_disabled":true,"rental_uris":{"android":"levelo://app?vid=ce7ec125-e5e1-4f1c-9ffa-2776a8995d05","ios":"levelo://app?vid=ce7ec125-e5e1-4f1c-9ffa-2776a8995d05"},"vehicle_type_id":"4","last_reported":1732525896,"current_range_meters":400,"station_id":"ce4bhk92rcd13ifvqgb0","pricing_plan_id":"cebpf4jnsgd1na2vs0mg"},{"bike_id":"1df56fac-cdd0-4f45-a257-cc4782054ebf","system_id":"levelo_inurba_marseille","lat":43.29624,"lon":5.37165,"is_reserved":false,"is_disabled":false,"rental_uris":{"android":"levelo://app?vid=1df56fac-cdd0-4f45-a257-cc4782054ebf","ios":"levelo://app?vid=1df56fac-cdd0-4f45-a257-cc4782054ebf"},"vehicle_type_id":"4","last_reported":1732525896,"current_range_meters":23200,"station_id":"ce4bgnh2rcd13ifvqc0g","pricing_plan_id":"cebpf4jnsgd1na2vs0mg"},{"bike_id":"dad9e197-4927-4fd9-8cfb-d1c31e46b32c","system_id":"levelo_inurba_marseille","lat":43.25941,"lon":5.40903,"is_reserved":false,"is_disabled":false,"rental_uris":{"android":"levelo://app?vid=dad9e197-4927-4fd9-8cfb-d1c31e46b32c","ios":"levelo://app?vid=dad9e197-4927-4fd9-8cfb-d1c31e46b32c"},"vehicle_type_id":"4","last_reported":1732525896,"current_range_meters":24000,"station_id":"ce4bhm92rcd13ifvqglg","pricing_plan_id":"cebpf4jnsgd1na2vs0mg"},{"bike_id":"d08c69b8-3fe4-4623-bab2-dfa6d1a11d3d","system_id":"levelo_inurba_marseille","lat":43.31367,"lon":5.38479,"is_reserved":false,"is_disabled":false,"rental_uris":{"android":"levelo://app?vid=d08c69b8-3fe4-4623-bab2-dfa6d1a11d3d","ios":"levelo://app?vid=d08c69b8-3fe4-4623-bab2-dfa6d1a11d3d"},"vehicle_type_id":"4","last_reported":1732525896,"current_range_meters":24400,"station_id":"ce4bgt92rcd13ifvqcf0","pricing_plan_id":"cebpf4jnsgd1na2vs0mg"},{"bike_id":"61523ac5-be94-4db1-a936-520815f81c3d","system_id":"levelo_inurba_marseille","lat":43.3237,"lon":5.38884,"is_reserved":false,"is_disabled":false,"rental_uris":{"android":"levelo://app?vid=61523ac5-be94-4db1-a936-520815f81c3d","ios":"levelo://app?vid=61523ac5-be94-4db1-a936-520815f81c3d"},"vehicle_type_id":"4","last_reported":1732525896,"current_range_meters":12400,"station_id":"ce4bhqp2rcd13ifvqhog","pricing_plan_id":"cebpf4jnsgd1na2vs0mg"},{"bike_id":"d57aab1f-4226-4c67-9f52-f1c27b38e5e5","system_id":"levelo_inurba_marseille","lat":43.2857,"lon":5.39485,"is_reserved":false,"is_disabled":false,"rental_uris":{"android":"levelo://app?vid=d57aab1f-4226-4c67-9f52-f1c27b38e5e5","ios":"levelo://app?vid=d57aab1f-4226-4c67-9f52-f1c27b38e5e5"},"vehicle_type_id":"4","last_reported":1732525896,"current_range_meters":38800,"station_id":"ce4bh292rcd13ifvqdg0","pricing_plan_id":"cebpf4jnsgd1na2vs0mg"},{"bike_id":"ba8a936a-9659-485c-8abe-8788b251c50f","system_id":"levelo_inurba_marseille","lat":43.31111,"lon":5.37776,"is_reserved":false,"is_disabled":false,"rental_uris":{"android":"levelo://app?vid=ba8a936a-9659-485c-8abe-8788b251c50f","ios":"levelo://app?vid=ba8a936a-9659-485c-8abe-8788b251c50f"},"vehicle_type_id":"4","last_reported":1732525896,"current_range_meters":30400,"station_id":"ce4bgt92rcd13ifvqcg0","pricing_plan_id":"cebpf4jnsgd1na2vs0mg"},{"bike_id":"dfb15e96-9dde-4d9b-939f-f438c0e11409","system_id":"levelo_inurba_marseille","lat":43.27618,"lon":5.36114,"is_reserved":false,"is_disabled":false,"rental_uris":{"android":"levelo://app?vid=dfb15e96-9dde-4d9b-939f-f438c0e11409","ios":"levelo://app?vid=dfb15e96-9dde-4d9b-939f-f438c0e11409"},"vehicle_type_id":"4","last_reported":1732525896,"current_range_meters":28000,"station_id":"ce4bgj92rcd13ifvqbe0","pricing_plan_id":"cebpf4jnsgd1na2vs0mg"},{"bike_id":"5366f21d-7de9-4694-a22c-f91f42d6d3de","system_id":"levelo_inurba_marseille","lat":43.30544,"lon":5.36698,"is_reserved":false,"is_disabled":false,"rental_uris":{"android":"levelo://app?vid=5366f21d-7de9-4694-a22c-f91f42d6d3de","ios":"levelo://app?vid=5366f21d-7de9-4694-a22c-f91f42d6d3de"},"vehicle_type_id":"4","last_reported":1732525896,"current_range_meters":36400,"station_id":"ce4bgrp2rcd13ifvqc9g","pricing_plan_id":"cebpf4jnsgd1na2vs0mg"},{"bike_id":"94527a76-0bb1-4146-9d66-5a02656d021d","system_id":"levelo_inurba_marseille","lat":43.28156,"lon":5.42644,"is_reserved":false,"is_disabled":false,"rental_uris":{"android":"levelo://app?vid=94527a76-0bb1-4146-9d66-5a02656d021d","ios":"levelo://app?vid=94527a76-0bb1-4146-9d66-5a02656d021d"},"vehicle_type_id":"4","last_reported":1732525896,"current_range_meters":11200,"station_id":"ce4bhnh2rcd13ifvqgug","pricing_plan_id":"cebpf4jnsgd1na2vs0mg"},{"bike_id":"beeb9cde-e756-417e-9438-063201760635","system_id":"levelo_inurba_marseille","lat":43.31344,"lon":5.36712,"is_reserved":false,"is_disabled":false,"rental_uris":{"android":"levelo://app?vid=beeb9cde-e756-417e-9438-063201760635","ios":"levelo://app?vid=beeb9cde-e756-417e-9438-063201760635"},"vehicle_type_id":"4","last_reported":1732525896,"current_range_meters":39200,"station_id":"ce4bgr92rcd13ifvqc6g","pricing_plan_id":"cebpf4jnsgd1na2vs0mg"},{"bike_id":"d4a8d056-dde8-45a2-9002-27751ca1259a","system_id":"levelo_inurba_marseille","lat":43.27199,"lon":5.39197,"is_reserved":false,"is_disabled":true,"rental_uris":{"android":"levelo://app?vid=d4a8d056-dde8-45a2-9002-27751ca1259a","ios":"levelo://app?vid=d4a8d056-dde8-45a2-9002-27751ca1259a"},"vehicle_type_id":"4","last_reported":1732525896,"current_range_meters":8800,"station_id":"ce4bhhp2rcd13ifvqfm0","pricing_plan_id":"cebpf4jnsgd1na2vs0mg"},{"bike_id":"c7ac8377-b170-40fc-9739-4d35471a24c2","system_id":"levelo_inurba_marseille","lat":43.30953,"lon":5.39044,"is_reserved":false,"is_disabled":false,"rental_uris":{"android":"levelo://app?vid=c7ac8377-b170-40fc-9739-4d35471a24c2","ios":"levelo://app?vid=c7ac8377-b170-40fc-9739-4d35471a24c2"},"vehicle_type_id":"4","last_reported":1732525896,"current_range_meters":29600,"station_id":"ce4bgup2rcd13ifvqco0","pricing_plan_id":"cebpf4jnsgd1na2vs0mg"},{"bike_id":"2d76a46c-0b1d-4012-b930-acc0f89163be","system_id":"levelo_inurba_marseille","lat":43.29681,"lon":5.36353,"is_reserved":false,"is_disabled":false,"rental_uris":{"android":"levelo://app?vid=2d76a46c-0b1d-4012-b930-acc0f89163be","ios":"levelo://app?vid=2d76a46c-0b1d-4012-b930-acc0f89163be"},"vehicle_type_id":"4","last_reported":1732525896,"current_range_meters":18000,"station_id":"ce4bgl92rcd13ifvqbq0","pricing_plan_id":"cebpf4jnsgd1na2vs0mg"},{"bike_id":"1d480d76-bb73-4781-930a-16c68fdce680","system_id":"levelo_inurba_marseille","lat":43.25576,"lon":5.38233,"is_reserved":false,"is_disabled":false,"rental_uris":{"android":"levelo://app?vid=1d480d76-bb73-4781-930a-16c68fdce680","ios":"levelo://app?vid=1d480d76-bb73-4781-930a-16c68fdce680"},"vehicle_type_id":"4","last_reported":1732525896,"current_range_meters":28800,"station_id":"ce4bhih2rcd13ifvqfs0","pricing_plan_id":"cebpf4jnsgd1na2vs0mg"},{"bike_id":"5fd15dc3-55eb-40c1-a750-a23bc751f5e6","system_id":"levelo_inurba_marseille","lat":43.29888,"lon":5.38904,"is_reserved":false,"is_disabled":false,"rental_uris":{"android":"levelo://app?vid=5fd15dc3-55eb-40c1-a750-a23bc751f5e6","ios":"levelo://app?vid=5fd15dc3-55eb-40c1-a750-a23bc751f5e6"},"vehicle_type_id":"4","last_reported":1732525896,"current_range_meters":39200,"station_id":"ce4bh392rcd13ifvqdl0","pricing_plan_id":"cebpf4jnsgd1na2vs0mg"},{"bike_id":"f194ce90-013c-4fc7-8be7-5bad56e3b52c","system_id":"levelo_inurba_marseille","lat":43.24075,"lon":5.37758,"is_reserved":false,"is_disabled":false,"rental_uris":{"android":"levelo://app?vid=f194ce90-013c-4fc7-8be7-5bad56e3b52c","ios":"levelo://app?vid=f194ce90-013c-4fc7-8be7-5bad56e3b52c"},"vehicle_type_id":"4","last_reported":1732525896,"current_range_meters":38800,"station_id":"ce4bhnp2rcd13ifvqgvg","pricing_plan_id":"cebpf4jnsgd1na2vs0mg"},{"bike_id":"7e17b4bc-d7da-4fea-8cd7-1c6fb86ce872","system_id":"levelo_inurba_marseille","lat":43.30151,"lon":5.38076,"is_reserved":false,"is_disabled":false,"rental_uris":{"android":"levelo://app?vid=7e17b4bc-d7da-4fea-8cd7-1c6fb86ce872","ios":"levelo://app?vid=7e17b4bc-d7da-4fea-8cd7-1c6fb86ce872"},"vehicle_type_id":"4","last_reported":1732525896,"current_range_meters":30800,"station_id":"ce4bgjp2rcd13ifvqbh0","pricing_plan_id":"cebpf4jnsgd1na2vs0mg"},{"bike_id":"30585094-ecfe-43ac-ae36-000c4a5ab426","system_id":"levelo_inurba_marseille","lat":43.30952,"lon":5.39031,"is_reserved":false,"is_disabled":true,"rental_uris":{"android":"levelo://app?vid=30585094-ecfe-43ac-ae36-000c4a5ab426","ios":"levelo://app?vid=30585094-ecfe-43ac-ae36-000c4a5ab426"},"vehicle_type_id":"4","last_reported":1732525896,"current_range_meters":17600,"station_id":"ce4bgup2rcd13ifvqco0","pricing_plan_id":"cebpf4jnsgd1na2vs0mg"},{"bike_id":"23cca0dc-750e-41b1-84e5-b69d86b98da2","system_id":"levelo_inurba_marseille","lat":43.25113,"lon":5.40319,"is_reserved":false,"is_disabled":false,"rental_uris":{"android":"levelo://app?vid=23cca0dc-750e-41b1-84e5-b69d86b98da2","ios":"levelo://app?vid=23cca0dc-750e-41b1-84e5-b69d86b98da2"},"vehicle_type_id":"4","last_reported":1732525896,"current_range_meters":38800,"station_id":"ce4bhlh2rcd13ifvqgig","pricing_plan_id":"cebpf4jnsgd1na2vs0mg"},{"bike_id":"39b11e64-2962-470f-8250-90fe18d4a5f4","system_id":"levelo_inurba_marseille","lat":43.24721,"lon":5.39301,"is_reserved":false,"is_disabled":true,"rental_uris":{"android":"levelo://app?vid=39b11e64-2962-470f-8250-90fe18d4a5f4","ios":"levelo://app?vid=39b11e64-2962-470f-8250-90fe18d4a5f4"},"vehicle_type_id":"4","last_reported":1732525896,"current_range_meters":0,"station_id":"","pricing_plan_id":"cebpf4jnsgd1na2vs0mg"},{"bike_id":"96bdc386-972d-4abf-bdbc-fce33197b4f3","system_id":"levelo_inurba_marseille","lat":43.26684,"lon":5.38275,"is_reserved":false,"is_disabled":false,"rental_uris":{"android":"levelo://app?vid=96bdc386-972d-4abf-bdbc-fce33197b4f3","ios":"levelo://app?vid=96bdc386-972d-4abf-bdbc-fce33197b4f3"},"vehicle_type_id":"4","last_reported":1732525896,"current_range_meters":36000,"station_id":"ce4bhg92rcd13ifvqf90","pricing_plan_id":"cebpf4jnsgd1na2vs0mg"},{"bike_id":"48c65e97-1516-4538-82d5-5272854a7544","system_id":"levelo_inurba_marseille","lat":43.32479,"lon":5.36571,"is_reserved":false,"is_disabled":false,"rental_uris":{"android":"levelo://app?vid=48c65e97-1516-4538-82d5-5272854a7544","ios":"levelo://app?vid=48c65e97-1516-4538-82d5-5272854a7544"},"vehicle_type_id":"4","last_reported":1732525896,"current_range_meters":38400,"station_id":"ce4bhs12rcd13ifvqhvg","pricing_plan_id":"cebpf4jnsgd1na2vs0mg"},{"bike_id":"3ade58a9-2491-481a-86c5-e1c95f66dde0","system_id":"levelo_inurba_marseille","lat":43.24072,"lon":5.37762,"is_reserved":false,"is_disabled":true,"rental_uris":{"android":"levelo://app?vid=3ade58a9-2491-481a-86c5-e1c95f66dde0","ios":"levelo://app?vid=3ade58a9-2491-481a-86c5-e1c95f66dde0"},"vehicle_type_id":"4","last_reported":1732525896,"current_range_meters":25600,"station_id":"ce4bhnp2rcd13ifvqgvg","pricing_plan_id":"cebpf4jnsgd1na2vs0mg"},{"bike_id":"b38ba1c3-c348-4ee5-bf26-151e26870edd","system_id":"levelo_inurba_marseille","lat":43.2872,"lon":5.3794,"is_reserved":false,"is_disabled":false,"rental_uris":{"android":"levelo://app?vid=b38ba1c3-c348-4ee5-bf26-151e26870edd","ios":"levelo://app?vid=b38ba1c3-c348-4ee5-bf26-151e26870edd"},"vehicle_type_id":"4","last_reported":1732525896,"current_range_meters":33200,"station_id":"ce4bh9p2rcd13ifvqec0","pricing_plan_id":"cebpf4jnsgd1na2vs0mg"},{"bike_id":"f96f17d8-f975-4ad7-93af-bb263d10ac2e","system_id":"levelo_inurba_marseille","lat":43.30469,"lon":5.37919,"is_reserved":false,"is_disabled":false,"rental_uris":{"android":"levelo://app?vid=f96f17d8-f975-4ad7-93af-bb263d10ac2e","ios":"levelo://app?vid=f96f17d8-f975-4ad7-93af-bb263d10ac2e"},"vehicle_type_id":"4","last_reported":1732525896,"current_range_meters":16800,"station_id":"ce4bgup2rcd13ifvqcn0","pricing_plan_id":"cebpf4jnsgd1na2vs0mg"},{"bike_id":"efa12b00-49b6-4085-b62c-84b7c0766a16","system_id":"levelo_inurba_marseille","lat":43.275,"lon":5.4245,"is_reserved":false,"is_disabled":true,"rental_uris":{"android":"levelo://app?vid=efa12b00-49b6-4085-b62c-84b7c0766a16","ios":"levelo://app?vid=efa12b00-49b6-4085-b62c-84b7c0766a16"},"vehicle_type_id":"4","last_reported":1732525896,"current_range_meters":17200,"station_id":"ce4bhn92rcd13ifvqgrg","pricing_plan_id":"cebpf4jnsgd1na2vs0mg"},{"bike_id":"e55d71d0-970e-4e17-ba14-4482cf574a53","system_id":"levelo_inurba_marseille","lat":43.29624,"lon":5.36878,"is_reserved":false,"is_disabled":false,"rental_uris":{"android":"levelo://app?vid=e55d71d0-970e-4e17-ba14-4482cf574a53","ios":"levelo://app?vid=e55d71d0-970e-4e17-ba14-4482cf574a53"},"vehicle_type_id":"4","last_reported":1732525896,"current_range_meters":34800,"station_id":"","pricing_plan_id":"cebpf4jnsgd1na2vs0mg"},{"bike_id":"39772c2f-fe87-4f2b-a94f-704958df3c08","system_id":"levelo_inurba_marseille","lat":43.23153,"lon":5.43719,"is_reserved":false,"is_disabled":false,"rental_uris":{"android":"levelo://app?vid=39772c2f-fe87-4f2b-a94f-704958df3c08","ios":"levelo://app?vid=39772c2f-fe87-4f2b-a94f-704958df3c08"},"vehicle_type_id":"4","last_reported":1732525896,"current_range_meters":8000,"station_id":"ce4bhmp2rcd13ifvqgog","pricing_plan_id":"cebpf4jnsgd1na2vs0mg"},{"bike_id":"16ab81d1-a21e-4d8e-aad5-3d56f45e8845","system_id":"levelo_inurba_marseille","lat":43.29267,"lon":5.3685,"is_reserved":false,"is_disabled":false,"rental_uris":{"android":"levelo://app?vid=16ab81d1-a21e-4d8e-aad5-3d56f45e8845","ios":"levelo://app?vid=16ab81d1-a21e-4d8e-aad5-3d56f45e8845"},"vehicle_type_id":"4","last_reported":1732525896,"current_range_meters":18000,"station_id":"ce4bhbp2rcd13ifvqesg","pricing_plan_id":"cebpf4jnsgd1na2vs0mg"},{"bike_id":"56d9f5d0-f2ee-472c-96c9-11fc915ac919","system_id":"levelo_inurba_marseille","lat":43.26059,"lon":5.39398,"is_reserved":false,"is_disabled":false,"rental_uris":{"android":"levelo://app?vid=56d9f5d0-f2ee-472c-96c9-11fc915ac919","ios":"levelo://app?vid=56d9f5d0-f2ee-472c-96c9-11fc915ac919"},"vehicle_type_id":"4","last_reported":1732525896,"current_range_meters":32000,"station_id":"ce4bhh92rcd13ifvqfj0","pricing_plan_id":"cebpf4jnsgd1na2vs0mg"},{"bike_id":"26ec1a22-5020-45e4-ab45-512c7f67d5dd","system_id":"levelo_inurba_marseille","lat":43.32054,"lon":5.41547,"is_reserved":false,"is_disabled":true,"rental_uris":{"android":"levelo://app?vid=26ec1a22-5020-45e4-ab45-512c7f67d5dd","ios":"levelo://app?vid=26ec1a22-5020-45e4-ab45-512c7f67d5dd"},"vehicle_type_id":"4","last_reported":1732525896,"current_range_meters":17200,"station_id":"ce4bhq92rcd13ifvqhkg","pricing_plan_id":"cebpf4jnsgd1na2vs0mg"},{"bike_id":"fcd3182e-4265-46df-9915-90f56a49075e","system_id":"levelo_inurba_marseille","lat":43.25585,"lon":5.38229,"is_reserved":false,"is_disabled":false,"rental_uris":{"android":"levelo://app?vid=fcd3182e-4265-46df-9915-90f56a49075e","ios":"levelo://app?vid=fcd3182e-4265-46df-9915-90f56a49075e"},"vehicle_type_id":"4","last_reported":1732525896,"current_range_meters":11200,"station_id":"ce4bhih2rcd13ifvqfs0","pricing_plan_id":"cebpf4jnsgd1na2vs0mg"},{"bike_id":"f0c9b009-6e7d-4316-96af-3036572d9258","system_id":"levelo_inurba_marseille","lat":43.29542,"lon":5.37507,"is_reserved":false,"is_disabled":true,"rental_uris":{"android":"levelo://app?vid=f0c9b009-6e7d-4316-96af-3036572d9258","ios":"levelo://app?vid=f0c9b009-6e7d-4316-96af-3036572d9258"},"vehicle_type_id":"4","last_reported":1732525896,"current_range_meters":26000,"station_id":"ce4bgkp2rcd13ifvqbmg","pricing_plan_id":"cebpf4jnsgd1na2vs0mg"},{"bike_id":"d5c96038-66b1-467f-80c9-4d99269c8f9e","system_id":"levelo_inurba_marseille","lat":43.2795,"lon":5.41048,"is_reserved":false,"is_disabled":false,"rental_uris":{"android":"levelo://app?vid=d5c96038-66b1-467f-80c9-4d99269c8f9e","ios":"levelo://app?vid=d5c96038-66b1-467f-80c9-4d99269c8f9e"},"vehicle_type_id":"4","last_reported":1732525896,"current_range_meters":33200,"station_id":"ce4bhnp2rcd13ifvqh0g","pricing_plan_id":"cebpf4jnsgd1na2vs0mg"},{"bike_id":"d1acf311-e571-4a6e-9c63-1e9d5fd102a5","system_id":"levelo_inurba_marseille","lat":43.27893,"lon":5.38036,"is_reserved":false,"is_disabled":false,"rental_uris":{"android":"levelo://app?vid=d1acf311-e571-4a6e-9c63-1e9d5fd102a5","ios":"levelo://app?vid=d1acf311-e571-4a6e-9c63-1e9d5fd102a5"},"vehicle_type_id":"4","last_reported":1732525896,"current_range_meters":38800,"station_id":"ce4bhf92rcd13ifvqf50","pricing_plan_id":"cebpf4jnsgd1na2vs0mg"},{"bike_id":"12051159-4504-453c-9b63-d6bb071670be","system_id":"levelo_inurba_marseille","lat":43.31342,"lon":5.36721,"is_reserved":false,"is_disabled":false,"rental_uris":{"android":"levelo://app?vid=12051159-4504-453c-9b63-d6bb071670be","ios":"levelo://app?vid=12051159-4504-453c-9b63-d6bb071670be"},"vehicle_type_id":"4","last_reported":1732525896,"current_range_meters":13600,"station_id":"ce4bgr92rcd13ifvqc6g","pricing_plan_id":"cebpf4jnsgd1na2vs0mg"},{"bike_id":"2e3c977c-3b2c-4491-90f8-6f12e0366c1f","system_id":"levelo_inurba_marseille","lat":43.27181,"lon":5.41002,"is_reserved":false,"is_disabled":false,"rental_uris":{"android":"levelo://app?vid=2e3c977c-3b2c-4491-90f8-6f12e0366c1f","ios":"levelo://app?vid=2e3c977c-3b2c-4491-90f8-6f12e0366c1f"},"vehicle_type_id":"4","last_reported":1732525896,"current_range_meters":28800,"station_id":"ce4bhl12rcd13ifvqgf0","pricing_plan_id":"cebpf4jnsgd1na2vs0mg"},{"bike_id":"565a0b0b-afe1-4da1-b2e2-0df8233591e4","system_id":"levelo_inurba_marseille","lat":43.25104,"lon":5.40329,"is_reserved":false,"is_disabled":true,"rental_uris":{"android":"levelo://app?vid=565a0b0b-afe1-4da1-b2e2-0df8233591e4","ios":"levelo://app?vid=565a0b0b-afe1-4da1-b2e2-0df8233591e4"},"vehicle_type_id":"4","last_reported":1732525896,"current_range_meters":10000,"station_id":"ce4bhlh2rcd13ifvqgig","pricing_plan_id":"cebpf4jnsgd1na2vs0mg"},{"bike_id":"1e126baa-22b4-4cf7-a05e-1c0611873009","system_id":"levelo_inurba_marseille","lat":43.311192,"lon":5.377708,"is_reserved":false,"is_disabled":true,"rental_uris":{"android":"levelo://app?vid=1e126baa-22b4-4cf7-a05e-1c0611873009","ios":"levelo://app?vid=1e126baa-22b4-4cf7-a05e-1c0611873009"},"vehicle_type_id":"4","last_reported":1732525896,"current_range_meters":0,"station_id":"","pricing_plan_id":"cebpf4jnsgd1na2vs0mg"},{"bike_id":"5c95d8c2-946c-416e-8777-91035ec11cc5","system_id":"levelo_inurba_marseille","lat":43.30458,"lon":5.37901,"is_reserved":false,"is_disabled":false,"rental_uris":{"android":"levelo://app?vid=5c95d8c2-946c-416e-8777-91035ec11cc5","ios":"levelo://app?vid=5c95d8c2-946c-416e-8777-91035ec11cc5"},"vehicle_type_id":"4","last_reported":1732525896,"current_range_meters":22400,"station_id":"ce4bgup2rcd13ifvqcn0","pricing_plan_id":"cebpf4jnsgd1na2vs0mg"},{"bike_id":"990d2171-d6c0-44a9-b1d7-b6a9751023c6","system_id":"levelo_inurba_marseille","lat":43.2408,"lon":5.37749,"is_reserved":false,"is_disabled":false,"rental_uris":{"android":"levelo://app?vid=990d2171-d6c0-44a9-b1d7-b6a9751023c6","ios":"levelo://app?vid=990d2171-d6c0-44a9-b1d7-b6a9751023c6"},"vehicle_type_id":"4","last_reported":1732525896,"current_range_meters":30800,"station_id":"ce4bhnp2rcd13ifvqgvg","pricing_plan_id":"cebpf4jnsgd1na2vs0mg"},{"bike_id":"7180877b-2a6a-4033-b012-f37bbbaafde1","system_id":"levelo_inurba_marseille","lat":43.27334,"lon":5.38526,"is_reserved":false,"is_disabled":false,"rental_uris":{"android":"levelo://app?vid=7180877b-2a6a-4033-b012-f37bbbaafde1","ios":"levelo://app?vid=7180877b-2a6a-4033-b012-f37bbbaafde1"},"vehicle_type_id":"4","last_reported":1732525896,"current_range_meters":30800,"station_id":"","pricing_plan_id":"cebpf4jnsgd1na2vs0mg"},{"bike_id":"ea5fdbcd-a190-4690-ab11-f16c9d2539cb","system_id":"levelo_inurba_marseille","lat":43.34141,"lon":5.409,"is_reserved":false,"is_disabled":false,"rental_uris":{"android":"levelo://app?vid=ea5fdbcd-a190-4690-ab11-f16c9d2539cb","ios":"levelo://app?vid=ea5fdbcd-a190-4690-ab11-f16c9d2539cb"},"vehicle_type_id":"4","last_reported":1732525896,"current_range_meters":10000,"station_id":"ce4bhqh2rcd13ifvqhlg","pricing_plan_id":"cebpf4jnsgd1na2vs0mg"},{"bike_id":"27bf9bfc-940e-451e-adbf-43d2caf1dd9b","system_id":"levelo_inurba_marseille","lat":43.29216,"lon":5.36057,"is_reserved":false,"is_disabled":false,"rental_uris":{"android":"levelo://app?vid=27bf9bfc-940e-451e-adbf-43d2caf1dd9b","ios":"levelo://app?vid=27bf9bfc-940e-451e-adbf-43d2caf1dd9b"},"vehicle_type_id":"4","last_reported":1732525896,"current_range_meters":4800,"station_id":"ce4bhbh2rcd13ifvqeqg","pricing_plan_id":"cebpf4jnsgd1na2vs0mg"},{"bike_id":"0ec77e5f-6015-4fb6-ba3c-e53120cdadaf","system_id":"levelo_inurba_marseille","lat":43.29071,"lon":5.37165,"is_reserved":false,"is_disabled":false,"rental_uris":{"android":"levelo://app?vid=0ec77e5f-6015-4fb6-ba3c-e53120cdadaf","ios":"levelo://app?vid=0ec77e5f-6015-4fb6-ba3c-e53120cdadaf"},"vehicle_type_id":"4","last_reported":1732525896,"current_range_meters":38000,"station_id":"ce4bh5p2rcd13ifvqe4g","pricing_plan_id":"cebpf4jnsgd1na2vs0mg"},{"bike_id":"5c75d5a6-b69d-43c4-a98b-d27d63f54dc9","system_id":"levelo_inurba_marseille","lat":43.24071,"lon":5.37755,"is_reserved":false,"is_disabled":false,"rental_uris":{"android":"levelo://app?vid=5c75d5a6-b69d-43c4-a98b-d27d63f54dc9","ios":"levelo://app?vid=5c75d5a6-b69d-43c4-a98b-d27d63f54dc9"},"vehicle_type_id":"4","last_reported":1732525896,"current_range_meters":13600,"station_id":"ce4bhnp2rcd13ifvqgvg","pricing_plan_id":"cebpf4jnsgd1na2vs0mg"},{"bike_id":"6ec37f76-c454-4115-b5d1-b36d33ac60ca","system_id":"levelo_inurba_marseille","lat":43.24665,"lon":5.38164,"is_reserved":false,"is_disabled":false,"rental_uris":{"android":"levelo://app?vid=6ec37f76-c454-4115-b5d1-b36d33ac60ca","ios":"levelo://app?vid=6ec37f76-c454-4115-b5d1-b36d33ac60ca"},"vehicle_type_id":"4","last_reported":1732525896,"current_range_meters":10000,"station_id":"ce4bhih2rcd13ifvqfr0","pricing_plan_id":"cebpf4jnsgd1na2vs0mg"},{"bike_id":"c01413e4-6898-45ee-be35-ef8f0832c3bc","system_id":"levelo_inurba_marseille","lat":43.32371,"lon":5.38871,"is_reserved":false,"is_disabled":true,"rental_uris":{"android":"levelo://app?vid=c01413e4-6898-45ee-be35-ef8f0832c3bc","ios":"levelo://app?vid=c01413e4-6898-45ee-be35-ef8f0832c3bc"},"vehicle_type_id":"4","last_reported":1732525896,"current_range_meters":28000,"station_id":"ce4bhqp2rcd13ifvqhog","pricing_plan_id":"cebpf4jnsgd1na2vs0mg"},{"bike_id":"ccc6fda1-0f4f-4900-aa27-e91bec126254","system_id":"levelo_inurba_marseille","lat":43.3053,"lon":5.36712,"is_reserved":false,"is_disabled":false,"rental_uris":{"android":"levelo://app?vid=ccc6fda1-0f4f-4900-aa27-e91bec126254","ios":"levelo://app?vid=ccc6fda1-0f4f-4900-aa27-e91bec126254"},"vehicle_type_id":"4","last_reported":1732525896,"current_range_meters":34800,"station_id":"ce4bgrp2rcd13ifvqc9g","pricing_plan_id":"cebpf4jnsgd1na2vs0mg"},{"bike_id":"bb82b5e5-bae1-48f9-89d0-4a022e68f3cc","system_id":"levelo_inurba_marseille","lat":43.23151,"lon":5.4372,"is_reserved":false,"is_disabled":true,"rental_uris":{"android":"levelo://app?vid=bb82b5e5-bae1-48f9-89d0-4a022e68f3cc","ios":"levelo://app?vid=bb82b5e5-bae1-48f9-89d0-4a022e68f3cc"},"vehicle_type_id":"4","last_reported":1732525896,"current_range_meters":0,"station_id":"ce4bhmp2rcd13ifvqgog","pricing_plan_id":"cebpf4jnsgd1na2vs0mg"},{"bike_id":"062ce39f-5a4c-4d0e-8387-7736e048576e","system_id":"levelo_inurba_marseille","lat":43.26682,"lon":5.38276,"is_reserved":false,"is_disabled":false,"rental_uris":{"android":"levelo://app?vid=062ce39f-5a4c-4d0e-8387-7736e048576e","ios":"levelo://app?vid=062ce39f-5a4c-4d0e-8387-7736e048576e"},"vehicle_type_id":"4","last_reported":1732525896,"current_range_meters":32800,"station_id":"ce4bhg92rcd13ifvqf90","pricing_plan_id":"cebpf4jnsgd1na2vs0mg"},{"bike_id":"7767996f-2f6e-4bc8-bbf5-81dc5bff054c","system_id":"levelo_inurba_marseille","lat":43.29297,"lon":5.37443,"is_reserved":false,"is_disabled":true,"rental_uris":{"android":"levelo://app?vid=7767996f-2f6e-4bc8-bbf5-81dc5bff054c","ios":"levelo://app?vid=7767996f-2f6e-4bc8-bbf5-81dc5bff054c"},"vehicle_type_id":"4","last_reported":1732525896,"current_range_meters":37600,"station_id":"ce4bgi12rcd13ifvqb70","pricing_plan_id":"cebpf4jnsgd1na2vs0mg"},{"bike_id":"9465545f-af87-4599-bf7e-091832e32b7b","system_id":"levelo_inurba_marseille","lat":43.29537,"lon":5.38547,"is_reserved":false,"is_disabled":true,"rental_uris":{"android":"levelo://app?vid=9465545f-af87-4599-bf7e-091832e32b7b","ios":"levelo://app?vid=9465545f-af87-4599-bf7e-091832e32b7b"},"vehicle_type_id":"4","last_reported":1732525896,"current_range_meters":25600,"station_id":"ce4bgih2rcd13ifvqba0","pricing_plan_id":"cebpf4jnsgd1na2vs0mg"},{"bike_id":"238efe69-5cfe-499d-b47c-e3a5d4524dd2","system_id":"levelo_inurba_marseille","lat":43.27675,"lon":5.38897,"is_reserved":false,"is_disabled":false,"rental_uris":{"android":"levelo://app?vid=238efe69-5cfe-499d-b47c-e3a5d4524dd2","ios":"levelo://app?vid=238efe69-5cfe-499d-b47c-e3a5d4524dd2"},"vehicle_type_id":"4","last_reported":1732525896,"current_range_meters":38000,"station_id":"ce4bhi12rcd13ifvqfo0","pricing_plan_id":"cebpf4jnsgd1na2vs0mg"},{"bike_id":"c44be2ca-d29c-4055-a595-144cb499e948","system_id":"levelo_inurba_marseille","lat":43.27206,"lon":5.39196,"is_reserved":false,"is_disabled":true,"rental_uris":{"android":"levelo://app?vid=c44be2ca-d29c-4055-a595-144cb499e948","ios":"levelo://app?vid=c44be2ca-d29c-4055-a595-144cb499e948"},"vehicle_type_id":"4","last_reported":1732525896,"current_range_meters":9200,"station_id":"ce4bhhp2rcd13ifvqfm0","pricing_plan_id":"cebpf4jnsgd1na2vs0mg"},{"bike_id":"40cfd9d7-e32d-46e7-9583-673a5ca6d2ed","system_id":"levelo_inurba_marseille","lat":43.26683,"lon":5.38272,"is_reserved":false,"is_disabled":false,"rental_uris":{"android":"levelo://app?vid=40cfd9d7-e32d-46e7-9583-673a5ca6d2ed","ios":"levelo://app?vid=40cfd9d7-e32d-46e7-9583-673a5ca6d2ed"},"vehicle_type_id":"4","last_reported":1732525896,"current_range_meters":7200,"station_id":"ce4bhg92rcd13ifvqf90","pricing_plan_id":"cebpf4jnsgd1na2vs0mg"},{"bike_id":"b9e5e08f-b203-40e5-937f-8777caee9f50","system_id":"levelo_inurba_marseille","lat":43.29025,"lon":5.38647,"is_reserved":false,"is_disabled":false,"rental_uris":{"android":"levelo://app?vid=b9e5e08f-b203-40e5-937f-8777caee9f50","ios":"levelo://app?vid=b9e5e08f-b203-40e5-937f-8777caee9f50"},"vehicle_type_id":"4","last_reported":1732525896,"current_range_meters":25600,"station_id":"ce4bh4p2rcd13ifvqe0g","pricing_plan_id":"cebpf4jnsgd1na2vs0mg"},{"bike_id":"e9fb58c7-51fa-41b2-8b88-015f3d1495a8","system_id":"levelo_inurba_marseille","lat":43.3171,"lon":5.42427,"is_reserved":false,"is_disabled":false,"rental_uris":{"android":"levelo://app?vid=e9fb58c7-51fa-41b2-8b88-015f3d1495a8","ios":"levelo://app?vid=e9fb58c7-51fa-41b2-8b88-015f3d1495a8"},"vehicle_type_id":"4","last_reported":1732525896,"current_range_meters":26800,"station_id":"ce4bhp92rcd13ifvqhbg","pricing_plan_id":"cebpf4jnsgd1na2vs0mg"},{"bike_id":"835b00c2-64c0-4cbe-82bb-c78dd70919e3","system_id":"levelo_inurba_marseille","lat":43.27967,"lon":5.4078,"is_reserved":false,"is_disabled":false,"rental_uris":{"android":"levelo://app?vid=835b00c2-64c0-4cbe-82bb-c78dd70919e3","ios":"levelo://app?vid=835b00c2-64c0-4cbe-82bb-c78dd70919e3"},"vehicle_type_id":"4","last_reported":1732525896,"current_range_meters":8000,"station_id":"","pricing_plan_id":"cebpf4jnsgd1na2vs0mg"},{"bike_id":"1c29315c-8c9b-4b68-acc9-bbee4a797a44","system_id":"levelo_inurba_marseille","lat":43.271179,"lon":5.404309,"is_reserved":false,"is_disabled":false,"rental_uris":{"android":"levelo://app?vid=1c29315c-8c9b-4b68-acc9-bbee4a797a44","ios":"levelo://app?vid=1c29315c-8c9b-4b68-acc9-bbee4a797a44"},"vehicle_type_id":"4","last_reported":1732525896,"current_range_meters":37600,"station_id":"","pricing_plan_id":"cebpf4jnsgd1na2vs0mg"},{"bike_id":"5c8055e5-a368-4312-8157-243ebc733ac9","system_id":"levelo_inurba_marseille","lat":43.30598,"lon":5.39353,"is_reserved":false,"is_disabled":true,"rental_uris":{"android":"levelo://app?vid=5c8055e5-a368-4312-8157-243ebc733ac9","ios":"levelo://app?vid=5c8055e5-a368-4312-8157-243ebc733ac9"},"vehicle_type_id":"4","last_reported":1732525896,"current_range_meters":17200,"station_id":"ce4bh0p2rcd13ifvqd80","pricing_plan_id":"cebpf4jnsgd1na2vs0mg"},{"bike_id":"a63f026b-964a-429c-9110-87bd719c2c3a","system_id":"levelo_inurba_marseille","lat":43.29297,"lon":5.37444,"is_reserved":false,"is_disabled":true,"rental_uris":{"android":"levelo://app?vid=a63f026b-964a-429c-9110-87bd719c2c3a","ios":"levelo://app?vid=a63f026b-964a-429c-9110-87bd719c2c3a"},"vehicle_type_id":"4","last_reported":1732525896,"current_range_meters":30800,"station_id":"ce4bgi12rcd13ifvqb70","pricing_plan_id":"cebpf4jnsgd1na2vs0mg"},{"bike_id":"9c1bc8af-a489-4d15-8a86-e668ef94413e","system_id":"levelo_inurba_marseille","lat":43.28706,"lon":5.39985,"is_reserved":false,"is_disabled":true,"rental_uris":{"android":"levelo://app?vid=9c1bc8af-a489-4d15-8a86-e668ef94413e","ios":"levelo://app?vid=9c1bc8af-a489-4d15-8a86-e668ef94413e"},"vehicle_type_id":"4","last_reported":1732525896,"current_range_meters":22000,"station_id":"ce4bho92rcd13ifvqh3g","pricing_plan_id":"cebpf4jnsgd1na2vs0mg"},{"bike_id":"274b7a9d-ce06-40c5-8916-5cc6d59b84e5","system_id":"levelo_inurba_marseille","lat":43.30308,"lon":5.36905,"is_reserved":false,"is_disabled":false,"rental_uris":{"android":"levelo://app?vid=274b7a9d-ce06-40c5-8916-5cc6d59b84e5","ios":"levelo://app?vid=274b7a9d-ce06-40c5-8916-5cc6d59b84e5"},"vehicle_type_id":"4","last_reported":1732525896,"current_range_meters":9200,"station_id":"ce4bgqh2rcd13ifvqc5g","pricing_plan_id":"cebpf4jnsgd1na2vs0mg"},{"bike_id":"cc51e89b-89ff-4f8a-ac56-97f4c629136f","system_id":"levelo_inurba_marseille","lat":43.29615,"lon":5.37724,"is_reserved":false,"is_disabled":false,"rental_uris":{"android":"levelo://app?vid=cc51e89b-89ff-4f8a-ac56-97f4c629136f","ios":"levelo://app?vid=cc51e89b-89ff-4f8a-ac56-97f4c629136f"},"vehicle_type_id":"4","last_reported":1732525896,"current_range_meters":9200,"station_id":"ce4bgi92rcd13ifvqb90","pricing_plan_id":"cebpf4jnsgd1na2vs0mg"},{"bike_id":"08117995-990e-4451-96a5-afc9c181642a","system_id":"levelo_inurba_marseille","lat":43.28612,"lon":5.35094,"is_reserved":false,"is_disabled":true,"rental_uris":{"android":"levelo://app?vid=08117995-990e-4451-96a5-afc9c181642a","ios":"levelo://app?vid=08117995-990e-4451-96a5-afc9c181642a"},"vehicle_type_id":"4","last_reported":1732525896,"current_range_meters":24000,"station_id":"ce4bhch2rcd13ifvqeug","pricing_plan_id":"cebpf4jnsgd1na2vs0mg"},{"bike_id":"ba467af4-c7bf-4f28-8132-410ef5108f0b","system_id":"levelo_inurba_marseille","lat":43.30151,"lon":5.37387,"is_reserved":false,"is_disabled":false,"rental_uris":{"android":"levelo://app?vid=ba467af4-c7bf-4f28-8132-410ef5108f0b","ios":"levelo://app?vid=ba467af4-c7bf-4f28-8132-410ef5108f0b"},"vehicle_type_id":"4","last_reported":1732525896,"current_range_meters":23200,"station_id":"ce4bgs92rcd13ifvqcc0","pricing_plan_id":"cebpf4jnsgd1na2vs0mg"},{"bike_id":"31d77af9-b2e3-42f4-b9be-40536570a291","system_id":"levelo_inurba_marseille","lat":43.32492,"lon":5.36557,"is_reserved":false,"is_disabled":false,"rental_uris":{"android":"levelo://app?vid=31d77af9-b2e3-42f4-b9be-40536570a291","ios":"levelo://app?vid=31d77af9-b2e3-42f4-b9be-40536570a291"},"vehicle_type_id":"4","last_reported":1732525896,"current_range_meters":26800,"station_id":"ce4bhs12rcd13ifvqhvg","pricing_plan_id":"cebpf4jnsgd1na2vs0mg"},{"bike_id":"f4274ec8-9f05-4896-9bf7-ea6c36d96a2c","system_id":"levelo_inurba_marseille","lat":43.24386,"lon":5.3706,"is_reserved":false,"is_disabled":false,"rental_uris":{"android":"levelo://app?vid=f4274ec8-9f05-4896-9bf7-ea6c36d96a2c","ios":"levelo://app?vid=f4274ec8-9f05-4896-9bf7-ea6c36d96a2c"},"vehicle_type_id":"4","last_reported":1732525896,"current_range_meters":28800,"station_id":"ce4bhhh2rcd13ifvqfk0","pricing_plan_id":"cebpf4jnsgd1na2vs0mg"},{"bike_id":"e404727c-4eaa-4368-ab64-e95a9349ae5f","system_id":"levelo_inurba_marseille","lat":43.24175,"lon":5.39728,"is_reserved":false,"is_disabled":false,"rental_uris":{"android":"levelo://app?vid=e404727c-4eaa-4368-ab64-e95a9349ae5f","ios":"levelo://app?vid=e404727c-4eaa-4368-ab64-e95a9349ae5f"},"vehicle_type_id":"4","last_reported":1732525896,"current_range_meters":25600,"station_id":"ce4bhn12rcd13ifvqgpg","pricing_plan_id":"cebpf4jnsgd1na2vs0mg"},{"bike_id":"4cf68192-498e-49a8-b866-19367c604fb3","system_id":"levelo_inurba_marseille","lat":43.29578,"lon":5.39964,"is_reserved":false,"is_disabled":true,"rental_uris":{"android":"levelo://app?vid=4cf68192-498e-49a8-b866-19367c604fb3","ios":"levelo://app?vid=4cf68192-498e-49a8-b866-19367c604fb3"},"vehicle_type_id":"4","last_reported":1732525896,"current_range_meters":30400,"station_id":"ce4bh312rcd13ifvqdj0","pricing_plan_id":"cebpf4jnsgd1na2vs0mg"},{"bike_id":"d7ee426e-db7e-4692-94af-bdd36ef6fffe","system_id":"levelo_inurba_marseille","lat":43.26946,"lon":5.38633,"is_reserved":false,"is_disabled":false,"rental_uris":{"android":"levelo://app?vid=d7ee426e-db7e-4692-94af-bdd36ef6fffe","ios":"levelo://app?vid=d7ee426e-db7e-4692-94af-bdd36ef6fffe"},"vehicle_type_id":"4","last_reported":1732525896,"current_range_meters":32000,"station_id":"ce4bhh92rcd13ifvqfh0","pricing_plan_id":"cebpf4jnsgd1na2vs0mg"},{"bike_id":"c5af4674-87ec-4374-a948-f460ed903a78","system_id":"levelo_inurba_marseille","lat":43.2408,"lon":5.37754,"is_reserved":false,"is_disabled":false,"rental_uris":{"android":"levelo://app?vid=c5af4674-87ec-4374-a948-f460ed903a78","ios":"levelo://app?vid=c5af4674-87ec-4374-a948-f460ed903a78"},"vehicle_type_id":"4","last_reported":1732525896,"current_range_meters":36800,"station_id":"ce4bhnp2rcd13ifvqgvg","pricing_plan_id":"cebpf4jnsgd1na2vs0mg"},{"bike_id":"f374664c-1636-49b7-8bba-3022742724b0","system_id":"levelo_inurba_marseille","lat":43.31226,"lon":5.36851,"is_reserved":false,"is_disabled":false,"rental_uris":{"android":"levelo://app?vid=f374664c-1636-49b7-8bba-3022742724b0","ios":"levelo://app?vid=f374664c-1636-49b7-8bba-3022742724b0"},"vehicle_type_id":"4","last_reported":1732525896,"current_range_meters":24800,"station_id":"ce4bgl92rcd13ifvqbq0","pricing_plan_id":"cebpf4jnsgd1na2vs0mg"},{"bike_id":"254a152d-c50b-4e86-ac1c-23e9c6540d0e","system_id":"levelo_inurba_marseille","lat":43.262543,"lon":5.396903,"is_reserved":false,"is_disabled":false,"rental_uris":{"android":"levelo://app?vid=254a152d-c50b-4e86-ac1c-23e9c6540d0e","ios":"levelo://app?vid=254a152d-c50b-4e86-ac1c-23e9c6540d0e"},"vehicle_type_id":"4","last_reported":1732525896,"current_range_meters":32800,"station_id":"","pricing_plan_id":"cebpf4jnsgd1na2vs0mg"},{"bike_id":"c928d17d-c595-480e-99a0-3ab8efe94fcf","system_id":"levelo_inurba_marseille","lat":43.27676,"lon":5.38891,"is_reserved":false,"is_disabled":false,"rental_uris":{"android":"levelo://app?vid=c928d17d-c595-480e-99a0-3ab8efe94fcf","ios":"levelo://app?vid=c928d17d-c595-480e-99a0-3ab8efe94fcf"},"vehicle_type_id":"4","last_reported":1732525896,"current_range_meters":9600,"station_id":"ce4bhi12rcd13ifvqfo0","pricing_plan_id":"cebpf4jnsgd1na2vs0mg"},{"bike_id":"cb3e2ea1-6aaa-4c79-8af8-4aff457edba8","system_id":"levelo_inurba_marseille","lat":43.23147,"lon":5.4372,"is_reserved":false,"is_disabled":false,"rental_uris":{"android":"levelo://app?vid=cb3e2ea1-6aaa-4c79-8af8-4aff457edba8","ios":"levelo://app?vid=cb3e2ea1-6aaa-4c79-8af8-4aff457edba8"},"vehicle_type_id":"4","last_reported":1732525896,"current_range_meters":27600,"station_id":"ce4bhmp2rcd13ifvqgog","pricing_plan_id":"cebpf4jnsgd1na2vs0mg"},{"bike_id":"868e8502-3d80-41e5-85c3-e0ee03bcd4b3","system_id":"levelo_inurba_marseille","lat":43.26208,"lon":5.374395,"is_reserved":false,"is_disabled":false,"rental_uris":{"android":"levelo://app?vid=868e8502-3d80-41e5-85c3-e0ee03bcd4b3","ios":"levelo://app?vid=868e8502-3d80-41e5-85c3-e0ee03bcd4b3"},"vehicle_type_id":"4","last_reported":1732525896,"current_range_meters":9600,"station_id":"ce4bhgp2rcd13ifvqfc0","pricing_plan_id":"cebpf4jnsgd1na2vs0mg"},{"bike_id":"6a77cde1-ce49-473c-aa05-5c7828e65875","system_id":"levelo_inurba_marseille","lat":43.29803,"lon":5.38094,"is_reserved":false,"is_disabled":true,"rental_uris":{"android":"levelo://app?vid=6a77cde1-ce49-473c-aa05-5c7828e65875","ios":"levelo://app?vid=6a77cde1-ce49-473c-aa05-5c7828e65875"},"vehicle_type_id":"4","last_reported":1732525896,"current_range_meters":38400,"station_id":"ce4bgip2rcd13ifvqbb0","pricing_plan_id":"cebpf4jnsgd1na2vs0mg"},{"bike_id":"54f158e7-1fe0-4c86-b21f-09513cf7a0b8","system_id":"levelo_inurba_marseille","lat":43.25493,"lon":5.3765,"is_reserved":false,"is_disabled":true,"rental_uris":{"android":"levelo://app?vid=54f158e7-1fe0-4c86-b21f-09513cf7a0b8","ios":"levelo://app?vid=54f158e7-1fe0-4c86-b21f-09513cf7a0b8"},"vehicle_type_id":"4","last_reported":1732525896,"current_range_meters":26800,"station_id":"ce4bhh12rcd13ifvqff0","pricing_plan_id":"cebpf4jnsgd1na2vs0mg"},{"bike_id":"ba9ca061-531b-44d9-af62-3edc28860cec","system_id":"levelo_inurba_marseille","lat":43.32542,"lon":5.41442,"is_reserved":false,"is_disabled":true,"rental_uris":{"android":"levelo://app?vid=ba9ca061-531b-44d9-af62-3edc28860cec","ios":"levelo://app?vid=ba9ca061-531b-44d9-af62-3edc28860cec"},"vehicle_type_id":"4","last_reported":1732525896,"current_range_meters":30000,"station_id":"ce4bhq12rcd13ifvqhhg","pricing_plan_id":"cebpf4jnsgd1na2vs0mg"},{"bike_id":"93fe94db-033b-4622-98b4-d49f1d9109a6","system_id":"levelo_inurba_marseille","lat":43.29841,"lon":5.36272,"is_reserved":false,"is_disabled":false,"rental_uris":{"android":"levelo://app?vid=93fe94db-033b-4622-98b4-d49f1d9109a6","ios":"levelo://app?vid=93fe94db-033b-4622-98b4-d49f1d9109a6"},"vehicle_type_id":"4","last_reported":1732525896,"current_range_meters":36800,"station_id":"ce4bgpp2rcd13ifvqc3g","pricing_plan_id":"cebpf4jnsgd1na2vs0mg"},{"bike_id":"2eca0a54-b574-4db5-8398-b952cfe77c8a","system_id":"levelo_inurba_marseille","lat":43.33604,"lon":5.4102,"is_reserved":false,"is_disabled":false,"rental_uris":{"android":"levelo://app?vid=2eca0a54-b574-4db5-8398-b952cfe77c8a","ios":"levelo://app?vid=2eca0a54-b574-4db5-8398-b952cfe77c8a"},"vehicle_type_id":"4","last_reported":1732525896,"current_range_meters":26000,"station_id":"ce4bhqh2rcd13ifvqhmg","pricing_plan_id":"cebpf4jnsgd1na2vs0mg"},{"bike_id":"aa717be1-dcce-416b-90e1-180e376a1e41","system_id":"levelo_inurba_marseille","lat":43.337444,"lon":5.374475,"is_reserved":false,"is_disabled":false,"rental_uris":{"android":"levelo://app?vid=aa717be1-dcce-416b-90e1-180e376a1e41","ios":"levelo://app?vid=aa717be1-dcce-416b-90e1-180e376a1e41"},"vehicle_type_id":"4","last_reported":1732525896,"current_range_meters":38800,"station_id":"","pricing_plan_id":"cebpf4jnsgd1na2vs0mg"},{"bike_id":"010675b9-621e-43ad-8db7-6d8375a2b95b","system_id":"levelo_inurba_marseille","lat":43.30894,"lon":5.36841,"is_reserved":false,"is_disabled":true,"rental_uris":{"android":"levelo://app?vid=010675b9-621e-43ad-8db7-6d8375a2b95b","ios":"levelo://app?vid=010675b9-621e-43ad-8db7-6d8375a2b95b"},"vehicle_type_id":"4","last_reported":1732525896,"current_range_meters":24400,"station_id":"ce4bgn92rcd13ifvqbvg","pricing_plan_id":"cebpf4jnsgd1na2vs0mg"},{"bike_id":"294eeb79-af1b-495a-909f-216801ae6b41","system_id":"levelo_inurba_marseille","lat":43.337444,"lon":5.374475,"is_reserved":false,"is_disabled":true,"rental_uris":{"android":"levelo://app?vid=294eeb79-af1b-495a-909f-216801ae6b41","ios":"levelo://app?vid=294eeb79-af1b-495a-909f-216801ae6b41"},"vehicle_type_id":"4","last_reported":1732525896,"current_range_meters":0,"station_id":"","pricing_plan_id":"cebpf4jnsgd1na2vs0mg"},{"bike_id":"0f1b4dfc-2613-4dc5-9b84-80d64206571f","system_id":"levelo_inurba_marseille","lat":43.299029,"lon":5.381456,"is_reserved":false,"is_disabled":false,"rental_uris":{"android":"levelo://app?vid=0f1b4dfc-2613-4dc5-9b84-80d64206571f","ios":"levelo://app?vid=0f1b4dfc-2613-4dc5-9b84-80d64206571f"},"vehicle_type_id":"4","last_reported":1732525896,"current_range_meters":1600,"station_id":"ce4bgj12rcd13ifvqbc0","pricing_plan_id":"cebpf4jnsgd1na2vs0mg"},{"bike_id":"6e1fd609-d080-48e3-881b-7f1b7d7fd1ca","system_id":"levelo_inurba_marseille","lat":43.2407,"lon":5.37768,"is_reserved":false,"is_disabled":false,"rental_uris":{"android":"levelo://app?vid=6e1fd609-d080-48e3-881b-7f1b7d7fd1ca","ios":"levelo://app?vid=6e1fd609-d080-48e3-881b-7f1b7d7fd1ca"},"vehicle_type_id":"4","last_reported":1732525896,"current_range_meters":28800,"station_id":"ce4bhnp2rcd13ifvqgvg","pricing_plan_id":"cebpf4jnsgd1na2vs0mg"},{"bike_id":"c0299046-c95c-4bcd-bc32-eb6d185f1ea9","system_id":"levelo_inurba_marseille","lat":43.29581,"lon":5.37494,"is_reserved":false,"is_disabled":true,"rental_uris":{"android":"levelo://app?vid=c0299046-c95c-4bcd-bc32-eb6d185f1ea9","ios":"levelo://app?vid=c0299046-c95c-4bcd-bc32-eb6d185f1ea9"},"vehicle_type_id":"4","last_reported":1732525896,"current_range_meters":35200,"station_id":"ce4bgh92rcd13ifvqb50","pricing_plan_id":"cebpf4jnsgd1na2vs0mg"},{"bike_id":"30faf04d-2e26-4e75-a89c-93563c3fb949","system_id":"levelo_inurba_marseille","lat":43.24071,"lon":5.37752,"is_reserved":false,"is_disabled":false,"rental_uris":{"android":"levelo://app?vid=30faf04d-2e26-4e75-a89c-93563c3fb949","ios":"levelo://app?vid=30faf04d-2e26-4e75-a89c-93563c3fb949"},"vehicle_type_id":"4","last_reported":1732525896,"current_range_meters":14400,"station_id":"ce4bhnp2rcd13ifvqgvg","pricing_plan_id":"cebpf4jnsgd1na2vs0mg"},{"bike_id":"3c4f4857-7284-4ad5-90d8-169a8693eb52","system_id":"levelo_inurba_marseille","lat":43.26685,"lon":5.38274,"is_reserved":false,"is_disabled":false,"rental_uris":{"android":"levelo://app?vid=3c4f4857-7284-4ad5-90d8-169a8693eb52","ios":"levelo://app?vid=3c4f4857-7284-4ad5-90d8-169a8693eb52"},"vehicle_type_id":"4","last_reported":1732525896,"current_range_meters":23200,"station_id":"ce4bhg92rcd13ifvqf90","pricing_plan_id":"cebpf4jnsgd1na2vs0mg"},{"bike_id":"4eda1827-5c29-4fa1-b315-03138939280c","system_id":"levelo_inurba_marseille","lat":43.24081,"lon":5.37748,"is_reserved":false,"is_disabled":false,"rental_uris":{"android":"levelo://app?vid=4eda1827-5c29-4fa1-b315-03138939280c","ios":"levelo://app?vid=4eda1827-5c29-4fa1-b315-03138939280c"},"vehicle_type_id":"4","last_reported":1732525896,"current_range_meters":35600,"station_id":"ce4bhnp2rcd13ifvqgvg","pricing_plan_id":"cebpf4jnsgd1na2vs0mg"},{"bike_id":"ad41734b-a8fa-482b-b392-8cd6d12dc01d","system_id":"levelo_inurba_marseille","lat":43.30183,"lon":5.36612,"is_reserved":false,"is_disabled":true,"rental_uris":{"android":"levelo://app?vid=ad41734b-a8fa-482b-b392-8cd6d12dc01d","ios":"levelo://app?vid=ad41734b-a8fa-482b-b392-8cd6d12dc01d"},"vehicle_type_id":"4","last_reported":1732525896,"current_range_meters":24000,"station_id":"ce4bgrh2rcd13ifvqc8g","pricing_plan_id":"cebpf4jnsgd1na2vs0mg"},{"bike_id":"96babd83-d1be-499a-ba38-a50cdda14910","system_id":"levelo_inurba_marseille","lat":43.2958,"lon":5.36737,"is_reserved":false,"is_disabled":false,"rental_uris":{"android":"levelo://app?vid=96babd83-d1be-499a-ba38-a50cdda14910","ios":"levelo://app?vid=96babd83-d1be-499a-ba38-a50cdda14910"},"vehicle_type_id":"4","last_reported":1732525896,"current_range_meters":35600,"station_id":"ce4bgph2rcd13ifvqc2g","pricing_plan_id":"cebpf4jnsgd1na2vs0mg"},{"bike_id":"777b7fed-d395-4c97-b504-dee7c3479d4f","system_id":"levelo_inurba_marseille","lat":43.29836,"lon":5.3785,"is_reserved":false,"is_disabled":true,"rental_uris":{"android":"levelo://app?vid=777b7fed-d395-4c97-b504-dee7c3479d4f","ios":"levelo://app?vid=777b7fed-d395-4c97-b504-dee7c3479d4f"},"vehicle_type_id":"4","last_reported":1732525896,"current_range_meters":0,"station_id":"","pricing_plan_id":"cebpf4jnsgd1na2vs0mg"},{"bike_id":"cd78312a-142a-42d0-92e1-dbc654bf8bb4","system_id":"levelo_inurba_marseille","lat":43.24187,"lon":5.39722,"is_reserved":false,"is_disabled":true,"rental_uris":{"android":"levelo://app?vid=cd78312a-142a-42d0-92e1-dbc654bf8bb4","ios":"levelo://app?vid=cd78312a-142a-42d0-92e1-dbc654bf8bb4"},"vehicle_type_id":"4","last_reported":1732525896,"current_range_meters":6000,"station_id":"ce4bhn12rcd13ifvqgpg","pricing_plan_id":"cebpf4jnsgd1na2vs0mg"},{"bike_id":"dc5235be-0eb4-43cb-aad9-aae14d97885e","system_id":"levelo_inurba_marseille","lat":43.24082,"lon":5.37756,"is_reserved":false,"is_disabled":false,"rental_uris":{"android":"levelo://app?vid=dc5235be-0eb4-43cb-aad9-aae14d97885e","ios":"levelo://app?vid=dc5235be-0eb4-43cb-aad9-aae14d97885e"},"vehicle_type_id":"4","last_reported":1732525896,"current_range_meters":25200,"station_id":"ce4bhnp2rcd13ifvqgvg","pricing_plan_id":"cebpf4jnsgd1na2vs0mg"},{"bike_id":"935038d0-e307-49e5-ab69-c010784c0474","system_id":"levelo_inurba_marseille","lat":43.25934,"lon":5.40922,"is_reserved":false,"is_disabled":false,"rental_uris":{"android":"levelo://app?vid=935038d0-e307-49e5-ab69-c010784c0474","ios":"levelo://app?vid=935038d0-e307-49e5-ab69-c010784c0474"},"vehicle_type_id":"4","last_reported":1732525896,"current_range_meters":16800,"station_id":"ce4bhm92rcd13ifvqglg","pricing_plan_id":"cebpf4jnsgd1na2vs0mg"},{"bike_id":"ec8e2581-3028-4285-a5a9-c56e80a4caa3","system_id":"levelo_inurba_marseille","lat":43.29599,"lon":5.37063,"is_reserved":false,"is_disabled":true,"rental_uris":{"android":"levelo://app?vid=ec8e2581-3028-4285-a5a9-c56e80a4caa3","ios":"levelo://app?vid=ec8e2581-3028-4285-a5a9-c56e80a4caa3"},"vehicle_type_id":"4","last_reported":1732525896,"current_range_meters":0,"station_id":"","pricing_plan_id":"cebpf4jnsgd1na2vs0mg"},{"bike_id":"43f6da94-5cf1-446e-9b8d-b4c4e86bf027","system_id":"levelo_inurba_marseille","lat":43.26192,"lon":5.37446,"is_reserved":false,"is_disabled":true,"rental_uris":{"android":"levelo://app?vid=43f6da94-5cf1-446e-9b8d-b4c4e86bf027","ios":"levelo://app?vid=43f6da94-5cf1-446e-9b8d-b4c4e86bf027"},"vehicle_type_id":"4","last_reported":1732525896,"current_range_meters":2800,"station_id":"ce4bhgp2rcd13ifvqfc0","pricing_plan_id":"cebpf4jnsgd1na2vs0mg"},{"bike_id":"dd5ab154-647e-4dfa-88f1-0f781c7552f5","system_id":"levelo_inurba_marseille","lat":43.25583,"lon":5.38237,"is_reserved":false,"is_disabled":false,"rental_uris":{"android":"levelo://app?vid=dd5ab154-647e-4dfa-88f1-0f781c7552f5","ios":"levelo://app?vid=dd5ab154-647e-4dfa-88f1-0f781c7552f5"},"vehicle_type_id":"4","last_reported":1732525896,"current_range_meters":22800,"station_id":"ce4bhih2rcd13ifvqfs0","pricing_plan_id":"cebpf4jnsgd1na2vs0mg"},{"bike_id":"14a83065-2c68-475c-99a7-32e0815b9f50","system_id":"levelo_inurba_marseille","lat":43.24671,"lon":5.38165,"is_reserved":false,"is_disabled":true,"rental_uris":{"android":"levelo://app?vid=14a83065-2c68-475c-99a7-32e0815b9f50","ios":"levelo://app?vid=14a83065-2c68-475c-99a7-32e0815b9f50"},"vehicle_type_id":"4","last_reported":1732525896,"current_range_meters":0,"station_id":"ce4bhih2rcd13ifvqfr0","pricing_plan_id":"cebpf4jnsgd1na2vs0mg"},{"bike_id":"994195f6-b5da-4158-a5b5-8b38baad32b0","system_id":"levelo_inurba_marseille","lat":43.337255,"lon":5.391925,"is_reserved":false,"is_disabled":false,"rental_uris":{"android":"levelo://app?vid=994195f6-b5da-4158-a5b5-8b38baad32b0","ios":"levelo://app?vid=994195f6-b5da-4158-a5b5-8b38baad32b0"},"vehicle_type_id":"4","last_reported":1732525896,"current_range_meters":24400,"station_id":"ce4bhr92rcd13ifvqhsg","pricing_plan_id":"cebpf4jnsgd1na2vs0mg"},{"bike_id":"36ef9a42-f4d8-45f5-adc2-b51fb9b962d0","system_id":"levelo_inurba_marseille","lat":43.34146,"lon":5.40899,"is_reserved":false,"is_disabled":false,"rental_uris":{"android":"levelo://app?vid=36ef9a42-f4d8-45f5-adc2-b51fb9b962d0","ios":"levelo://app?vid=36ef9a42-f4d8-45f5-adc2-b51fb9b962d0"},"vehicle_type_id":"4","last_reported":1732525896,"current_range_meters":38800,"station_id":"ce4bhqh2rcd13ifvqhlg","pricing_plan_id":"cebpf4jnsgd1na2vs0mg"},{"bike_id":"24fc129a-3a98-4f25-9554-234fc3a2dc8d","system_id":"levelo_inurba_marseille","lat":43.30416,"lon":5.41283,"is_reserved":false,"is_disabled":true,"rental_uris":{"android":"levelo://app?vid=24fc129a-3a98-4f25-9554-234fc3a2dc8d","ios":"levelo://app?vid=24fc129a-3a98-4f25-9554-234fc3a2dc8d"},"vehicle_type_id":"4","last_reported":1732525896,"current_range_meters":26000,"station_id":"ce4bhop2rcd13ifvqh8g","pricing_plan_id":"cebpf4jnsgd1na2vs0mg"},{"bike_id":"f9bb7fe1-5ca1-47b2-944e-eb055f53c14e","system_id":"levelo_inurba_marseille","lat":43.3055,"lon":5.38375,"is_reserved":false,"is_disabled":true,"rental_uris":{"android":"levelo://app?vid=f9bb7fe1-5ca1-47b2-944e-eb055f53c14e","ios":"levelo://app?vid=f9bb7fe1-5ca1-47b2-944e-eb055f53c14e"},"vehicle_type_id":"4","last_reported":1732525896,"current_range_meters":19600,"station_id":"ce4bgg92rcd13ifvqb30","pricing_plan_id":"cebpf4jnsgd1na2vs0mg"},{"bike_id":"5d9127b2-409a-4e00-b212-9b69c1248067","system_id":"levelo_inurba_marseille","lat":43.26208,"lon":5.37928,"is_reserved":false,"is_disabled":false,"rental_uris":{"android":"levelo://app?vid=5d9127b2-409a-4e00-b212-9b69c1248067","ios":"levelo://app?vid=5d9127b2-409a-4e00-b212-9b69c1248067"},"vehicle_type_id":"4","last_reported":1732525896,"current_range_meters":8800,"station_id":"ce4bhjp2rcd13ifvqg90","pricing_plan_id":"cebpf4jnsgd1na2vs0mg"},{"bike_id":"ab62cdd5-3314-41c0-8cc9-b8644da6c7ff","system_id":"levelo_inurba_marseille","lat":43.25583,"lon":5.38234,"is_reserved":false,"is_disabled":false,"rental_uris":{"android":"levelo://app?vid=ab62cdd5-3314-41c0-8cc9-b8644da6c7ff","ios":"levelo://app?vid=ab62cdd5-3314-41c0-8cc9-b8644da6c7ff"},"vehicle_type_id":"4","last_reported":1732525896,"current_range_meters":24400,"station_id":"ce4bhih2rcd13ifvqfs0","pricing_plan_id":"cebpf4jnsgd1na2vs0mg"},{"bike_id":"e23b27a7-2b68-4ef9-8cef-da4a3b60c45c","system_id":"levelo_inurba_marseille","lat":43.28105,"lon":5.3784,"is_reserved":false,"is_disabled":false,"rental_uris":{"android":"levelo://app?vid=e23b27a7-2b68-4ef9-8cef-da4a3b60c45c","ios":"levelo://app?vid=e23b27a7-2b68-4ef9-8cef-da4a3b60c45c"},"vehicle_type_id":"4","last_reported":1732525896,"current_range_meters":38000,"station_id":"ce4bha12rcd13ifvqee0","pricing_plan_id":"cebpf4jnsgd1na2vs0mg"},{"bike_id":"b16be49c-1219-403e-8d71-504dfe6814db","system_id":"levelo_inurba_marseille","lat":43.24076,"lon":5.37765,"is_reserved":false,"is_disabled":false,"rental_uris":{"android":"levelo://app?vid=b16be49c-1219-403e-8d71-504dfe6814db","ios":"levelo://app?vid=b16be49c-1219-403e-8d71-504dfe6814db"},"vehicle_type_id":"4","last_reported":1732525896,"current_range_meters":26000,"station_id":"ce4bhnp2rcd13ifvqgvg","pricing_plan_id":"cebpf4jnsgd1na2vs0mg"},{"bike_id":"f8b957eb-ac36-4e56-96cf-7474e1d53753","system_id":"levelo_inurba_marseille","lat":43.24665,"lon":5.38164,"is_reserved":false,"is_disabled":false,"rental_uris":{"android":"levelo://app?vid=f8b957eb-ac36-4e56-96cf-7474e1d53753","ios":"levelo://app?vid=f8b957eb-ac36-4e56-96cf-7474e1d53753"},"vehicle_type_id":"4","last_reported":1732525896,"current_range_meters":10000,"station_id":"ce4bhih2rcd13ifvqfr0","pricing_plan_id":"cebpf4jnsgd1na2vs0mg"},{"bike_id":"62bcad95-d3e2-434c-81f4-127757d19c4c","system_id":"levelo_inurba_marseille","lat":43.2922,"lon":5.39592,"is_reserved":false,"is_disabled":true,"rental_uris":{"android":"levelo://app?vid=62bcad95-d3e2-434c-81f4-127757d19c4c","ios":"levelo://app?vid=62bcad95-d3e2-434c-81f4-127757d19c4c"},"vehicle_type_id":"4","last_reported":1732525896,"current_range_meters":0,"station_id":"","pricing_plan_id":"cebpf4jnsgd1na2vs0mg"},{"bike_id":"faddc5bf-9308-4490-a929-f5be12fd1597","system_id":"levelo_inurba_marseille","lat":43.25589,"lon":5.38224,"is_reserved":false,"is_disabled":false,"rental_uris":{"android":"levelo://app?vid=faddc5bf-9308-4490-a929-f5be12fd1597","ios":"levelo://app?vid=faddc5bf-9308-4490-a929-f5be12fd1597"},"vehicle_type_id":"4","last_reported":1732525896,"current_range_meters":38800,"station_id":"ce4bhih2rcd13ifvqfs0","pricing_plan_id":"cebpf4jnsgd1na2vs0mg"},{"bike_id":"36296f5c-0176-4be0-97c8-7930cda9c369","system_id":"levelo_inurba_marseille","lat":43.32103,"lon":5.36773,"is_reserved":false,"is_disabled":false,"rental_uris":{"android":"levelo://app?vid=36296f5c-0176-4be0-97c8-7930cda9c369","ios":"levelo://app?vid=36296f5c-0176-4be0-97c8-7930cda9c369"},"vehicle_type_id":"4","last_reported":1732525896,"current_range_meters":27600,"station_id":"ce4bhrh2rcd13ifvqhug","pricing_plan_id":"cebpf4jnsgd1na2vs0mg"},{"bike_id":"f2c34d78-6eb9-4239-853d-4d071e4b0a59","system_id":"levelo_inurba_marseille","lat":43.3095,"lon":5.39048,"is_reserved":false,"is_disabled":false,"rental_uris":{"android":"levelo://app?vid=f2c34d78-6eb9-4239-853d-4d071e4b0a59","ios":"levelo://app?vid=f2c34d78-6eb9-4239-853d-4d071e4b0a59"},"vehicle_type_id":"4","last_reported":1732525896,"current_range_meters":34800,"station_id":"ce4bgup2rcd13ifvqco0","pricing_plan_id":"cebpf4jnsgd1na2vs0mg"},{"bike_id":"3749f547-26de-49f3-8704-9a5a504b68f5","system_id":"levelo_inurba_marseille","lat":43.25581,"lon":5.38231,"is_reserved":false,"is_disabled":false,"rental_uris":{"android":"levelo://app?vid=3749f547-26de-49f3-8704-9a5a504b68f5","ios":"levelo://app?vid=3749f547-26de-49f3-8704-9a5a504b68f5"},"vehicle_type_id":"4","last_reported":1732525896,"current_range_meters":30400,"station_id":"ce4bhih2rcd13ifvqfs0","pricing_plan_id":"cebpf4jnsgd1na2vs0mg"},{"bike_id":"d2a52b58-fabe-4a57-94ba-464e41b85800","system_id":"levelo_inurba_marseille","lat":43.30075,"lon":5.37439,"is_reserved":false,"is_disabled":true,"rental_uris":{"android":"levelo://app?vid=d2a52b58-fabe-4a57-94ba-464e41b85800","ios":"levelo://app?vid=d2a52b58-fabe-4a57-94ba-464e41b85800"},"vehicle_type_id":"4","last_reported":1732525896,"current_range_meters":22400,"station_id":"","pricing_plan_id":"cebpf4jnsgd1na2vs0mg"},{"bike_id":"2511aeb5-6a88-47fa-82bb-ef23431585b2","system_id":"levelo_inurba_marseille","lat":43.24074,"lon":5.37757,"is_reserved":false,"is_disabled":false,"rental_uris":{"android":"levelo://app?vid=2511aeb5-6a88-47fa-82bb-ef23431585b2","ios":"levelo://app?vid=2511aeb5-6a88-47fa-82bb-ef23431585b2"},"vehicle_type_id":"4","last_reported":1732525896,"current_range_meters":22000,"station_id":"ce4bhnp2rcd13ifvqgvg","pricing_plan_id":"cebpf4jnsgd1na2vs0mg"},{"bike_id":"5d67fe2e-20c1-42bd-8834-ca1211da7f84","system_id":"levelo_inurba_marseille","lat":43.31081,"lon":5.42432,"is_reserved":false,"is_disabled":false,"rental_uris":{"android":"levelo://app?vid=5d67fe2e-20c1-42bd-8834-ca1211da7f84","ios":"levelo://app?vid=5d67fe2e-20c1-42bd-8834-ca1211da7f84"},"vehicle_type_id":"4","last_reported":1732525896,"current_range_meters":25200,"station_id":"ce4bhp92rcd13ifvqhag","pricing_plan_id":"cebpf4jnsgd1na2vs0mg"},{"bike_id":"c5d90a90-756c-407d-9f88-37a352971b6b","system_id":"levelo_inurba_marseille","lat":43.30548,"lon":5.36532,"is_reserved":false,"is_disabled":false,"rental_uris":{"android":"levelo://app?vid=c5d90a90-756c-407d-9f88-37a352971b6b","ios":"levelo://app?vid=c5d90a90-756c-407d-9f88-37a352971b6b"},"vehicle_type_id":"4","last_reported":1732525896,"current_range_meters":28800,"station_id":"ce4bgs12rcd13ifvqcag","pricing_plan_id":"cebpf4jnsgd1na2vs0mg"},{"bike_id":"e3e4303a-af7a-41b0-a9a9-e8b4ef9963b6","system_id":"levelo_inurba_marseille","lat":43.24069,"lon":5.37765,"is_reserved":false,"is_disabled":false,"rental_uris":{"android":"levelo://app?vid=e3e4303a-af7a-41b0-a9a9-e8b4ef9963b6","ios":"levelo://app?vid=e3e4303a-af7a-41b0-a9a9-e8b4ef9963b6"},"vehicle_type_id":"4","last_reported":1732525896,"current_range_meters":37600,"station_id":"ce4bhnp2rcd13ifvqgvg","pricing_plan_id":"cebpf4jnsgd1na2vs0mg"},{"bike_id":"8ac8ae6d-42b3-4068-a992-537653320638","system_id":"levelo_inurba_marseille","lat":43.25933,"lon":5.40912,"is_reserved":false,"is_disabled":false,"rental_uris":{"android":"levelo://app?vid=8ac8ae6d-42b3-4068-a992-537653320638","ios":"levelo://app?vid=8ac8ae6d-42b3-4068-a992-537653320638"},"vehicle_type_id":"4","last_reported":1732525896,"current_range_meters":33600,"station_id":"ce4bhm92rcd13ifvqglg","pricing_plan_id":"cebpf4jnsgd1na2vs0mg"},{"bike_id":"66d70828-b14f-4541-8984-1f382e380cdf","system_id":"levelo_inurba_marseille","lat":43.27323,"lon":5.39092,"is_reserved":false,"is_disabled":false,"rental_uris":{"android":"levelo://app?vid=66d70828-b14f-4541-8984-1f382e380cdf","ios":"levelo://app?vid=66d70828-b14f-4541-8984-1f382e380cdf"},"vehicle_type_id":"4","last_reported":1732525896,"current_range_meters":36800,"station_id":"ce4bhgp2rcd13ifvqfe0","pricing_plan_id":"cebpf4jnsgd1na2vs0mg"},{"bike_id":"a918e547-6f82-4e25-bfd2-d24f191d92a1","system_id":"levelo_inurba_marseille","lat":43.24073,"lon":5.37732,"is_reserved":false,"is_disabled":false,"rental_uris":{"android":"levelo://app?vid=a918e547-6f82-4e25-bfd2-d24f191d92a1","ios":"levelo://app?vid=a918e547-6f82-4e25-bfd2-d24f191d92a1"},"vehicle_type_id":"4","last_reported":1732525896,"current_range_meters":28400,"station_id":"ce4bhnp2rcd13ifvqgvg","pricing_plan_id":"cebpf4jnsgd1na2vs0mg"},{"bike_id":"6ec032f8-6dc9-4e9b-93c7-32903fc31720","system_id":"levelo_inurba_marseille","lat":43.28723,"lon":5.37938,"is_reserved":false,"is_disabled":false,"rental_uris":{"android":"levelo://app?vid=6ec032f8-6dc9-4e9b-93c7-32903fc31720","ios":"levelo://app?vid=6ec032f8-6dc9-4e9b-93c7-32903fc31720"},"vehicle_type_id":"4","last_reported":1732525896,"current_range_meters":36400,"station_id":"ce4bh9p2rcd13ifvqec0","pricing_plan_id":"cebpf4jnsgd1na2vs0mg"},{"bike_id":"763a1bd9-7037-4610-b7db-01de4dd0f793","system_id":"levelo_inurba_marseille","lat":43.28966,"lon":5.37837,"is_reserved":false,"is_disabled":true,"rental_uris":{"android":"levelo://app?vid=763a1bd9-7037-4610-b7db-01de4dd0f793","ios":"levelo://app?vid=763a1bd9-7037-4610-b7db-01de4dd0f793"},"vehicle_type_id":"4","last_reported":1732525896,"current_range_meters":14800,"station_id":"ce4bh9p2rcd13ifvqed0","pricing_plan_id":"cebpf4jnsgd1na2vs0mg"},{"bike_id":"565c3c82-4a2f-4a82-ad33-c6f3e4ff7942","system_id":"levelo_inurba_marseille","lat":43.30552,"lon":5.36562,"is_reserved":false,"is_disabled":false,"rental_uris":{"android":"levelo://app?vid=565c3c82-4a2f-4a82-ad33-c6f3e4ff7942","ios":"levelo://app?vid=565c3c82-4a2f-4a82-ad33-c6f3e4ff7942"},"vehicle_type_id":"4","last_reported":1732525896,"current_range_meters":38800,"station_id":"ce4bgs12rcd13ifvqcag","pricing_plan_id":"cebpf4jnsgd1na2vs0mg"},{"bike_id":"312c0e01-9256-495a-b053-113ea61bc4a3","system_id":"levelo_inurba_marseille","lat":43.30282,"lon":5.37709,"is_reserved":false,"is_disabled":false,"rental_uris":{"android":"levelo://app?vid=312c0e01-9256-495a-b053-113ea61bc4a3","ios":"levelo://app?vid=312c0e01-9256-495a-b053-113ea61bc4a3"},"vehicle_type_id":"4","last_reported":1732525896,"current_range_meters":33200,"station_id":"ce4bguh2rcd13ifvqcj0","pricing_plan_id":"cebpf4jnsgd1na2vs0mg"},{"bike_id":"ab9da7ad-8b50-41e0-a22a-c43716ca15c0","system_id":"levelo_inurba_marseille","lat":43.27491,"lon":5.42461,"is_reserved":false,"is_disabled":true,"rental_uris":{"android":"levelo://app?vid=ab9da7ad-8b50-41e0-a22a-c43716ca15c0","ios":"levelo://app?vid=ab9da7ad-8b50-41e0-a22a-c43716ca15c0"},"vehicle_type_id":"4","last_reported":1732525896,"current_range_meters":11600,"station_id":"ce4bhn92rcd13ifvqgrg","pricing_plan_id":"cebpf4jnsgd1na2vs0mg"},{"bike_id":"f99babce-6639-42c7-8052-be85bad7424e","system_id":"levelo_inurba_marseille","lat":43.24083,"lon":5.37752,"is_reserved":false,"is_disabled":false,"rental_uris":{"android":"levelo://app?vid=f99babce-6639-42c7-8052-be85bad7424e","ios":"levelo://app?vid=f99babce-6639-42c7-8052-be85bad7424e"},"vehicle_type_id":"4","last_reported":1732525896,"current_range_meters":32400,"station_id":"ce4bhnp2rcd13ifvqgvg","pricing_plan_id":"cebpf4jnsgd1na2vs0mg"},{"bike_id":"beb50664-6ae4-435f-9193-1424c288823e","system_id":"levelo_inurba_marseille","lat":43.31348,"lon":5.36705,"is_reserved":false,"is_disabled":false,"rental_uris":{"android":"levelo://app?vid=beb50664-6ae4-435f-9193-1424c288823e","ios":"levelo://app?vid=beb50664-6ae4-435f-9193-1424c288823e"},"vehicle_type_id":"4","last_reported":1732525896,"current_range_meters":27200,"station_id":"ce4bgr92rcd13ifvqc6g","pricing_plan_id":"cebpf4jnsgd1na2vs0mg"},{"bike_id":"035d01e3-1369-4008-8632-b2ce2c9bae94","system_id":"levelo_inurba_marseille","lat":43.30955,"lon":5.39039,"is_reserved":false,"is_disabled":false,"rental_uris":{"android":"levelo://app?vid=035d01e3-1369-4008-8632-b2ce2c9bae94","ios":"levelo://app?vid=035d01e3-1369-4008-8632-b2ce2c9bae94"},"vehicle_type_id":"4","last_reported":1732525896,"current_range_meters":21600,"station_id":"ce4bgup2rcd13ifvqco0","pricing_plan_id":"cebpf4jnsgd1na2vs0mg"},{"bike_id":"17ba6615-9f08-440e-93e9-f8f4f3600fcd","system_id":"levelo_inurba_marseille","lat":43.30528,"lon":5.36545,"is_reserved":false,"is_disabled":false,"rental_uris":{"android":"levelo://app?vid=17ba6615-9f08-440e-93e9-f8f4f3600fcd","ios":"levelo://app?vid=17ba6615-9f08-440e-93e9-f8f4f3600fcd"},"vehicle_type_id":"4","last_reported":1732525896,"current_range_meters":38800,"station_id":"ce4bgs12rcd13ifvqcag","pricing_plan_id":"cebpf4jnsgd1na2vs0mg"},{"bike_id":"cbc2167d-639d-4b33-b914-3ad6f36f2868","system_id":"levelo_inurba_marseille","lat":43.22923,"lon":5.35375,"is_reserved":false,"is_disabled":false,"rental_uris":{"android":"levelo://app?vid=cbc2167d-639d-4b33-b914-3ad6f36f2868","ios":"levelo://app?vid=cbc2167d-639d-4b33-b914-3ad6f36f2868"},"vehicle_type_id":"4","last_reported":1732525896,"current_range_meters":30800,"station_id":"cpo3532slgdg3j2ikp40","pricing_plan_id":"cebpf4jnsgd1na2vs0mg"},{"bike_id":"3e879c32-994d-42ce-927d-f18d298ca1ef","system_id":"levelo_inurba_marseille","lat":43.28265,"lon":5.35064,"is_reserved":false,"is_disabled":false,"rental_uris":{"android":"levelo://app?vid=3e879c32-994d-42ce-927d-f18d298ca1ef","ios":"levelo://app?vid=3e879c32-994d-42ce-927d-f18d298ca1ef"},"vehicle_type_id":"4","last_reported":1732525896,"current_range_meters":28400,"station_id":"ce4bhbp2rcd13ifvqerg","pricing_plan_id":"cebpf4jnsgd1na2vs0mg"},{"bike_id":"42ebe280-e795-413a-92ed-050d9a45dd8e","system_id":"levelo_inurba_marseille","lat":43.24073,"lon":5.37757,"is_reserved":false,"is_disabled":false,"rental_uris":{"android":"levelo://app?vid=42ebe280-e795-413a-92ed-050d9a45dd8e","ios":"levelo://app?vid=42ebe280-e795-413a-92ed-050d9a45dd8e"},"vehicle_type_id":"4","last_reported":1732525896,"current_range_meters":38800,"station_id":"ce4bhnp2rcd13ifvqgvg","pricing_plan_id":"cebpf4jnsgd1na2vs0mg"},{"bike_id":"8ff6927a-74d0-4610-b648-3cc754f0f233","system_id":"levelo_inurba_marseille","lat":43.28016,"lon":5.42449,"is_reserved":false,"is_disabled":false,"rental_uris":{"android":"levelo://app?vid=8ff6927a-74d0-4610-b648-3cc754f0f233","ios":"levelo://app?vid=8ff6927a-74d0-4610-b648-3cc754f0f233"},"vehicle_type_id":"4","last_reported":1732525896,"current_range_meters":24000,"station_id":"","pricing_plan_id":"cebpf4jnsgd1na2vs0mg"},{"bike_id":"1a5dfa7a-1d4a-4735-b35d-631116c77557","system_id":"levelo_inurba_marseille","lat":43.31719,"lon":5.42401,"is_reserved":false,"is_disabled":false,"rental_uris":{"android":"levelo://app?vid=1a5dfa7a-1d4a-4735-b35d-631116c77557","ios":"levelo://app?vid=1a5dfa7a-1d4a-4735-b35d-631116c77557"},"vehicle_type_id":"4","last_reported":1732525896,"current_range_meters":39200,"station_id":"ce4bhp92rcd13ifvqhbg","pricing_plan_id":"cebpf4jnsgd1na2vs0mg"},{"bike_id":"635f2088-37d7-4c7e-b140-3292398be605","system_id":"levelo_inurba_marseille","lat":43.24806,"lon":5.37453,"is_reserved":false,"is_disabled":false,"rental_uris":{"android":"levelo://app?vid=635f2088-37d7-4c7e-b140-3292398be605","ios":"levelo://app?vid=635f2088-37d7-4c7e-b140-3292398be605"},"vehicle_type_id":"4","last_reported":1732525896,"current_range_meters":30400,"station_id":"ce4bhgh2rcd13ifvqfb0","pricing_plan_id":"cebpf4jnsgd1na2vs0mg"},{"bike_id":"179cf083-7183-464c-b8bc-d50e822294f4","system_id":"levelo_inurba_marseille","lat":43.32288,"lon":5.38258,"is_reserved":false,"is_disabled":false,"rental_uris":{"android":"levelo://app?vid=179cf083-7183-464c-b8bc-d50e822294f4","ios":"levelo://app?vid=179cf083-7183-464c-b8bc-d50e822294f4"},"vehicle_type_id":"4","last_reported":1732525896,"current_range_meters":38000,"station_id":"ce4bhr12rcd13ifvqhqg","pricing_plan_id":"cebpf4jnsgd1na2vs0mg"},{"bike_id":"64411bfc-d714-4926-a402-1e5a305239af","system_id":"levelo_inurba_marseille","lat":43.31699,"lon":5.40471,"is_reserved":false,"is_disabled":false,"rental_uris":{"android":"levelo://app?vid=64411bfc-d714-4926-a402-1e5a305239af","ios":"levelo://app?vid=64411bfc-d714-4926-a402-1e5a305239af"},"vehicle_type_id":"4","last_reported":1732525896,"current_range_meters":38800,"station_id":"ce4bh012rcd13ifvqd00","pricing_plan_id":"cebpf4jnsgd1na2vs0mg"},{"bike_id":"20ba3e55-9bab-4ccf-9497-ab7699c90419","system_id":"levelo_inurba_marseille","lat":43.25937,"lon":5.40906,"is_reserved":false,"is_disabled":false,"rental_uris":{"android":"levelo://app?vid=20ba3e55-9bab-4ccf-9497-ab7699c90419","ios":"levelo://app?vid=20ba3e55-9bab-4ccf-9497-ab7699c90419"},"vehicle_type_id":"4","last_reported":1732525896,"current_range_meters":38000,"station_id":"ce4bhm92rcd13ifvqglg","pricing_plan_id":"cebpf4jnsgd1na2vs0mg"},{"bike_id":"9328bf07-69e7-4ddc-b711-0669ff412e1c","system_id":"levelo_inurba_marseille","lat":43.29282,"lon":5.40127,"is_reserved":false,"is_disabled":true,"rental_uris":{"android":"levelo://app?vid=9328bf07-69e7-4ddc-b711-0669ff412e1c","ios":"levelo://app?vid=9328bf07-69e7-4ddc-b711-0669ff412e1c"},"vehicle_type_id":"4","last_reported":1732525896,"current_range_meters":1600,"station_id":"ce4bh312rcd13ifvqdk0","pricing_plan_id":"cebpf4jnsgd1na2vs0mg"},{"bike_id":"4c2d5cfe-c292-430c-b3b4-323fb2bf03c1","system_id":"levelo_inurba_marseille","lat":43.30139,"lon":5.37412,"is_reserved":false,"is_disabled":true,"rental_uris":{"android":"levelo://app?vid=4c2d5cfe-c292-430c-b3b4-323fb2bf03c1","ios":"levelo://app?vid=4c2d5cfe-c292-430c-b3b4-323fb2bf03c1"},"vehicle_type_id":"4","last_reported":1732525896,"current_range_meters":35600,"station_id":"ce4bgs92rcd13ifvqcc0","pricing_plan_id":"cebpf4jnsgd1na2vs0mg"},{"bike_id":"ed00ff1c-a428-4ce5-a455-260378e65da7","system_id":"levelo_inurba_marseille","lat":43.287995,"lon":5.400224,"is_reserved":false,"is_disabled":true,"rental_uris":{"android":"levelo://app?vid=ed00ff1c-a428-4ce5-a455-260378e65da7","ios":"levelo://app?vid=ed00ff1c-a428-4ce5-a455-260378e65da7"},"vehicle_type_id":"4","last_reported":1732525896,"current_range_meters":800,"station_id":"","pricing_plan_id":"cebpf4jnsgd1na2vs0mg"},{"bike_id":"5a4d3b04-1c84-4ddc-b44a-35fe4ee6a3a6","system_id":"levelo_inurba_marseille","lat":43.31229,"lon":5.36844,"is_reserved":false,"is_disabled":false,"rental_uris":{"android":"levelo://app?vid=5a4d3b04-1c84-4ddc-b44a-35fe4ee6a3a6","ios":"levelo://app?vid=5a4d3b04-1c84-4ddc-b44a-35fe4ee6a3a6"},"vehicle_type_id":"4","last_reported":1732525896,"current_range_meters":28000,"station_id":"ce4bgl92rcd13ifvqbq0","pricing_plan_id":"cebpf4jnsgd1na2vs0mg"},{"bike_id":"858b65e1-94fc-4151-a71e-8b168cb19dcb","system_id":"levelo_inurba_marseille","lat":43.32249,"lon":5.39241,"is_reserved":false,"is_disabled":true,"rental_uris":{"android":"levelo://app?vid=858b65e1-94fc-4151-a71e-8b168cb19dcb","ios":"levelo://app?vid=858b65e1-94fc-4151-a71e-8b168cb19dcb"},"vehicle_type_id":"4","last_reported":1732525896,"current_range_meters":3200,"station_id":"","pricing_plan_id":"cebpf4jnsgd1na2vs0mg"},{"bike_id":"7994da04-0dad-4e03-9ffe-4ac4e9ef15ee","system_id":"levelo_inurba_marseille","lat":43.31346,"lon":5.36731,"is_reserved":false,"is_disabled":false,"rental_uris":{"android":"levelo://app?vid=7994da04-0dad-4e03-9ffe-4ac4e9ef15ee","ios":"levelo://app?vid=7994da04-0dad-4e03-9ffe-4ac4e9ef15ee"},"vehicle_type_id":"4","last_reported":1732525896,"current_range_meters":9200,"station_id":"ce4bgr92rcd13ifvqc6g","pricing_plan_id":"cebpf4jnsgd1na2vs0mg"},{"bike_id":"81e00953-83a5-4abf-a237-1c198387b0fa","system_id":"levelo_inurba_marseille","lat":43.24076,"lon":5.37751,"is_reserved":false,"is_disabled":false,"rental_uris":{"android":"levelo://app?vid=81e00953-83a5-4abf-a237-1c198387b0fa","ios":"levelo://app?vid=81e00953-83a5-4abf-a237-1c198387b0fa"},"vehicle_type_id":"4","last_reported":1732525896,"current_range_meters":28400,"station_id":"ce4bhnp2rcd13ifvqgvg","pricing_plan_id":"cebpf4jnsgd1na2vs0mg"},{"bike_id":"c19daa05-850d-4320-a7a9-0c3452315bd1","system_id":"levelo_inurba_marseille","lat":43.30519,"lon":5.36545,"is_reserved":false,"is_disabled":false,"rental_uris":{"android":"levelo://app?vid=c19daa05-850d-4320-a7a9-0c3452315bd1","ios":"levelo://app?vid=c19daa05-850d-4320-a7a9-0c3452315bd1"},"vehicle_type_id":"4","last_reported":1732525896,"current_range_meters":32000,"station_id":"ce4bgs12rcd13ifvqcag","pricing_plan_id":"cebpf4jnsgd1na2vs0mg"},{"bike_id":"6d5f872b-85b6-413d-b647-6459f2ce18e0","system_id":"levelo_inurba_marseille","lat":43.31714,"lon":5.37731,"is_reserved":false,"is_disabled":false,"rental_uris":{"android":"levelo://app?vid=6d5f872b-85b6-413d-b647-6459f2ce18e0","ios":"levelo://app?vid=6d5f872b-85b6-413d-b647-6459f2ce18e0"},"vehicle_type_id":"4","last_reported":1732525896,"current_range_meters":38800,"station_id":"ce4bgth2rcd13ifvqch0","pricing_plan_id":"cebpf4jnsgd1na2vs0mg"},{"bike_id":"bdcd807d-101c-4909-b854-901665fa1cfa","system_id":"levelo_inurba_marseille","lat":43.31368,"lon":5.38498,"is_reserved":false,"is_disabled":true,"rental_uris":{"android":"levelo://app?vid=bdcd807d-101c-4909-b854-901665fa1cfa","ios":"levelo://app?vid=bdcd807d-101c-4909-b854-901665fa1cfa"},"vehicle_type_id":"4","last_reported":1732525896,"current_range_meters":3200,"station_id":"ce4bgt92rcd13ifvqcf0","pricing_plan_id":"cebpf4jnsgd1na2vs0mg"},{"bike_id":"18020f0e-821d-489c-b686-8e09d7a63631","system_id":"levelo_inurba_marseille","lat":43.33608,"lon":5.41037,"is_reserved":false,"is_disabled":false,"rental_uris":{"android":"levelo://app?vid=18020f0e-821d-489c-b686-8e09d7a63631","ios":"levelo://app?vid=18020f0e-821d-489c-b686-8e09d7a63631"},"vehicle_type_id":"4","last_reported":1732525896,"current_range_meters":7200,"station_id":"ce4bhqh2rcd13ifvqhmg","pricing_plan_id":"cebpf4jnsgd1na2vs0mg"},{"bike_id":"6c2267c9-91a7-478b-82d3-a1a480d2069d","system_id":"levelo_inurba_marseille","lat":43.26787,"lon":5.39419,"is_reserved":false,"is_disabled":false,"rental_uris":{"android":"levelo://app?vid=6c2267c9-91a7-478b-82d3-a1a480d2069d","ios":"levelo://app?vid=6c2267c9-91a7-478b-82d3-a1a480d2069d"},"vehicle_type_id":"4","last_reported":1732525896,"current_range_meters":19200,"station_id":"ce4bhh12rcd13ifvqfg0","pricing_plan_id":"cebpf4jnsgd1na2vs0mg"},{"bike_id":"cbe67deb-3b21-4fc5-b9e6-9d1b2740617b","system_id":"levelo_inurba_marseille","lat":43.25504,"lon":5.37651,"is_reserved":false,"is_disabled":true,"rental_uris":{"android":"levelo://app?vid=cbe67deb-3b21-4fc5-b9e6-9d1b2740617b","ios":"levelo://app?vid=cbe67deb-3b21-4fc5-b9e6-9d1b2740617b"},"vehicle_type_id":"4","last_reported":1732525896,"current_range_meters":38800,"station_id":"ce4bhh12rcd13ifvqff0","pricing_plan_id":"cebpf4jnsgd1na2vs0mg"},{"bike_id":"890ceff7-9bd1-4363-9716-427976dbddef","system_id":"levelo_inurba_marseille","lat":43.27203,"lon":5.39192,"is_reserved":false,"is_disabled":true,"rental_uris":{"android":"levelo://app?vid=890ceff7-9bd1-4363-9716-427976dbddef","ios":"levelo://app?vid=890ceff7-9bd1-4363-9716-427976dbddef"},"vehicle_type_id":"4","last_reported":1732525896,"current_range_meters":0,"station_id":"ce4bhhp2rcd13ifvqfm0","pricing_plan_id":"cebpf4jnsgd1na2vs0mg"},{"bike_id":"c3d1c57b-5e1f-4c12-8b9b-8f38f205b30d","system_id":"levelo_inurba_marseille","lat":43.30154,"lon":5.38105,"is_reserved":false,"is_disabled":false,"rental_uris":{"android":"levelo://app?vid=c3d1c57b-5e1f-4c12-8b9b-8f38f205b30d","ios":"levelo://app?vid=c3d1c57b-5e1f-4c12-8b9b-8f38f205b30d"},"vehicle_type_id":"4","last_reported":1732525896,"current_range_meters":37600,"station_id":"ce4bgjp2rcd13ifvqbh0","pricing_plan_id":"cebpf4jnsgd1na2vs0mg"},{"bike_id":"552ae1f9-34eb-4d70-a19b-3616d3661778","system_id":"levelo_inurba_marseille","lat":43.33718,"lon":5.3918,"is_reserved":false,"is_disabled":false,"rental_uris":{"android":"levelo://app?vid=552ae1f9-34eb-4d70-a19b-3616d3661778","ios":"levelo://app?vid=552ae1f9-34eb-4d70-a19b-3616d3661778"},"vehicle_type_id":"4","last_reported":1732525896,"current_range_meters":10000,"station_id":"ce4bhr92rcd13ifvqhsg","pricing_plan_id":"cebpf4jnsgd1na2vs0mg"},{"bike_id":"3d7a1c28-a447-4ea7-9a6e-59953f365b38","system_id":"levelo_inurba_marseille","lat":43.29624,"lon":5.37171,"is_reserved":false,"is_disabled":false,"rental_uris":{"android":"levelo://app?vid=3d7a1c28-a447-4ea7-9a6e-59953f365b38","ios":"levelo://app?vid=3d7a1c28-a447-4ea7-9a6e-59953f365b38"},"vehicle_type_id":"4","last_reported":1732525896,"current_range_meters":32000,"station_id":"ce4bgnh2rcd13ifvqc0g","pricing_plan_id":"cebpf4jnsgd1na2vs0mg"},{"bike_id":"f7f3756c-1ec7-4782-9c87-6273f87b6774","system_id":"levelo_inurba_marseille","lat":43.337444,"lon":5.374475,"is_reserved":false,"is_disabled":true,"rental_uris":{"android":"levelo://app?vid=f7f3756c-1ec7-4782-9c87-6273f87b6774","ios":"levelo://app?vid=f7f3756c-1ec7-4782-9c87-6273f87b6774"},"vehicle_type_id":"4","last_reported":1732525896,"current_range_meters":24800,"station_id":"","pricing_plan_id":"cebpf4jnsgd1na2vs0mg"},{"bike_id":"740f162e-a0c7-4af9-899d-283ea1409dc6","system_id":"levelo_inurba_marseille","lat":43.26927,"lon":5.38913,"is_reserved":false,"is_disabled":true,"rental_uris":{"android":"levelo://app?vid=740f162e-a0c7-4af9-899d-283ea1409dc6","ios":"levelo://app?vid=740f162e-a0c7-4af9-899d-283ea1409dc6"},"vehicle_type_id":"4","last_reported":1732525896,"current_range_meters":38800,"station_id":"ce4bhhh2rcd13ifvqfl0","pricing_plan_id":"cebpf4jnsgd1na2vs0mg"},{"bike_id":"8a04a2dc-67e0-464e-baf9-2319803cccfb","system_id":"levelo_inurba_marseille","lat":43.26681,"lon":5.38273,"is_reserved":false,"is_disabled":false,"rental_uris":{"android":"levelo://app?vid=8a04a2dc-67e0-464e-baf9-2319803cccfb","ios":"levelo://app?vid=8a04a2dc-67e0-464e-baf9-2319803cccfb"},"vehicle_type_id":"4","last_reported":1732525896,"current_range_meters":22800,"station_id":"ce4bhg92rcd13ifvqf90","pricing_plan_id":"cebpf4jnsgd1na2vs0mg"},{"bike_id":"f6b8f847-1aeb-4642-812c-9e10f2849039","system_id":"levelo_inurba_marseille","lat":43.24074,"lon":5.37735,"is_reserved":false,"is_disabled":false,"rental_uris":{"android":"levelo://app?vid=f6b8f847-1aeb-4642-812c-9e10f2849039","ios":"levelo://app?vid=f6b8f847-1aeb-4642-812c-9e10f2849039"},"vehicle_type_id":"4","last_reported":1732525896,"current_range_meters":38800,"station_id":"ce4bhnp2rcd13ifvqgvg","pricing_plan_id":"cebpf4jnsgd1na2vs0mg"},{"bike_id":"fe0cb721-a66c-4c42-8145-d56581d22812","system_id":"levelo_inurba_marseille","lat":43.24081,"lon":5.37757,"is_reserved":false,"is_disabled":false,"rental_uris":{"android":"levelo://app?vid=fe0cb721-a66c-4c42-8145-d56581d22812","ios":"levelo://app?vid=fe0cb721-a66c-4c42-8145-d56581d22812"},"vehicle_type_id":"4","last_reported":1732525896,"current_range_meters":26000,"station_id":"ce4bhnp2rcd13ifvqgvg","pricing_plan_id":"cebpf4jnsgd1na2vs0mg"},{"bike_id":"08b3c297-a8ba-4b9e-a99f-f062b0bbea41","system_id":"levelo_inurba_marseille","lat":43.28458,"lon":5.35894,"is_reserved":false,"is_disabled":false,"rental_uris":{"android":"levelo://app?vid=08b3c297-a8ba-4b9e-a99f-f062b0bbea41","ios":"levelo://app?vid=08b3c297-a8ba-4b9e-a99f-f062b0bbea41"},"vehicle_type_id":"4","last_reported":1732525896,"current_range_meters":4400,"station_id":"ce4bhah2rcd13ifvqei0","pricing_plan_id":"cebpf4jnsgd1na2vs0mg"},{"bike_id":"96fef04f-f424-4b1e-a003-fc645e04ed3a","system_id":"levelo_inurba_marseille","lat":43.27361,"lon":5.36236,"is_reserved":false,"is_disabled":false,"rental_uris":{"android":"levelo://app?vid=96fef04f-f424-4b1e-a003-fc645e04ed3a","ios":"levelo://app?vid=96fef04f-f424-4b1e-a003-fc645e04ed3a"},"vehicle_type_id":"4","last_reported":1732525896,"current_range_meters":37600,"station_id":"ce4bhbh2rcd13ifvqeo0","pricing_plan_id":"cebpf4jnsgd1na2vs0mg"},{"bike_id":"b7b61d62-d3cf-45c0-ae9e-f05215122577","system_id":"levelo_inurba_marseille","lat":43.30929,"lon":5.40143,"is_reserved":false,"is_disabled":true,"rental_uris":{"android":"levelo://app?vid=b7b61d62-d3cf-45c0-ae9e-f05215122577","ios":"levelo://app?vid=b7b61d62-d3cf-45c0-ae9e-f05215122577"},"vehicle_type_id":"4","last_reported":1732525896,"current_range_meters":0,"station_id":"ce4bgvp2rcd13ifvqct0","pricing_plan_id":"cebpf4jnsgd1na2vs0mg"},{"bike_id":"92aaf2ae-6395-4985-bda4-652f2001ddbe","system_id":"levelo_inurba_marseille","lat":43.27575,"lon":5.38421,"is_reserved":false,"is_disabled":false,"rental_uris":{"android":"levelo://app?vid=92aaf2ae-6395-4985-bda4-652f2001ddbe","ios":"levelo://app?vid=92aaf2ae-6395-4985-bda4-652f2001ddbe"},"vehicle_type_id":"4","last_reported":1732525896,"current_range_meters":38800,"station_id":"ce4bhh92rcd13ifvqfi0","pricing_plan_id":"cebpf4jnsgd1na2vs0mg"},{"bike_id":"7f89b812-16cb-4135-bc5f-efa2b244ec26","system_id":"levelo_inurba_marseille","lat":43.26556,"lon":5.37289,"is_reserved":false,"is_disabled":true,"rental_uris":{"android":"levelo://app?vid=7f89b812-16cb-4135-bc5f-efa2b244ec26","ios":"levelo://app?vid=7f89b812-16cb-4135-bc5f-efa2b244ec26"},"vehicle_type_id":"4","last_reported":1732525896,"current_range_meters":37600,"station_id":"ce4bhg12rcd13ifvqf70","pricing_plan_id":"cebpf4jnsgd1na2vs0mg"},{"bike_id":"e2f0ef73-8018-4db5-80ea-af7dd90396dd","system_id":"levelo_inurba_marseille","lat":43.28151,"lon":5.42641,"is_reserved":false,"is_disabled":false,"rental_uris":{"android":"levelo://app?vid=e2f0ef73-8018-4db5-80ea-af7dd90396dd","ios":"levelo://app?vid=e2f0ef73-8018-4db5-80ea-af7dd90396dd"},"vehicle_type_id":"4","last_reported":1732525896,"current_range_meters":19200,"station_id":"ce4bhnh2rcd13ifvqgug","pricing_plan_id":"cebpf4jnsgd1na2vs0mg"},{"bike_id":"86ec5835-1e76-4455-9969-54b44bba3755","system_id":"levelo_inurba_marseille","lat":43.32484,"lon":5.36557,"is_reserved":false,"is_disabled":false,"rental_uris":{"android":"levelo://app?vid=86ec5835-1e76-4455-9969-54b44bba3755","ios":"levelo://app?vid=86ec5835-1e76-4455-9969-54b44bba3755"},"vehicle_type_id":"4","last_reported":1732525896,"current_range_meters":38800,"station_id":"ce4bhs12rcd13ifvqhvg","pricing_plan_id":"cebpf4jnsgd1na2vs0mg"},{"bike_id":"0ed83b47-52ec-43b9-b2f6-22975bee1154","system_id":"levelo_inurba_marseille","lat":43.27571,"lon":5.38433,"is_reserved":false,"is_disabled":false,"rental_uris":{"android":"levelo://app?vid=0ed83b47-52ec-43b9-b2f6-22975bee1154","ios":"levelo://app?vid=0ed83b47-52ec-43b9-b2f6-22975bee1154"},"vehicle_type_id":"4","last_reported":1732525896,"current_range_meters":28000,"station_id":"ce4bhh92rcd13ifvqfi0","pricing_plan_id":"cebpf4jnsgd1na2vs0mg"},{"bike_id":"63e5c75a-30c8-4be5-8ec8-448fdf89dbb8","system_id":"levelo_inurba_marseille","lat":43.23068,"lon":5.3549,"is_reserved":false,"is_disabled":false,"rental_uris":{"android":"levelo://app?vid=63e5c75a-30c8-4be5-8ec8-448fdf89dbb8","ios":"levelo://app?vid=63e5c75a-30c8-4be5-8ec8-448fdf89dbb8"},"vehicle_type_id":"4","last_reported":1732525896,"current_range_meters":37600,"station_id":"cpo3342slgdg3j2ifvpg","pricing_plan_id":"cebpf4jnsgd1na2vs0mg"},{"bike_id":"1edcc6aa-437d-45a4-9ad0-15bd1c92a1f4","system_id":"levelo_inurba_marseille","lat":43.30311,"lon":5.36897,"is_reserved":false,"is_disabled":false,"rental_uris":{"android":"levelo://app?vid=1edcc6aa-437d-45a4-9ad0-15bd1c92a1f4","ios":"levelo://app?vid=1edcc6aa-437d-45a4-9ad0-15bd1c92a1f4"},"vehicle_type_id":"4","last_reported":1732525896,"current_range_meters":36000,"station_id":"ce4bgqh2rcd13ifvqc5g","pricing_plan_id":"cebpf4jnsgd1na2vs0mg"},{"bike_id":"1e193d09-2cb0-4798-8e19-b0516f3ebb8e","system_id":"levelo_inurba_marseille","lat":43.28158,"lon":5.42641,"is_reserved":false,"is_disabled":false,"rental_uris":{"android":"levelo://app?vid=1e193d09-2cb0-4798-8e19-b0516f3ebb8e","ios":"levelo://app?vid=1e193d09-2cb0-4798-8e19-b0516f3ebb8e"},"vehicle_type_id":"4","last_reported":1732525896,"current_range_meters":12400,"station_id":"ce4bhnh2rcd13ifvqgug","pricing_plan_id":"cebpf4jnsgd1na2vs0mg"},{"bike_id":"6c052b4e-53c9-4a73-8562-1cd27721f1f4","system_id":"levelo_inurba_marseille","lat":43.27069,"lon":5.42282,"is_reserved":false,"is_disabled":false,"rental_uris":{"android":"levelo://app?vid=6c052b4e-53c9-4a73-8562-1cd27721f1f4","ios":"levelo://app?vid=6c052b4e-53c9-4a73-8562-1cd27721f1f4"},"vehicle_type_id":"4","last_reported":1732525896,"current_range_meters":14000,"station_id":"ce4bhk92rcd13ifvqgb0","pricing_plan_id":"cebpf4jnsgd1na2vs0mg"},{"bike_id":"0f22f840-4bd2-413b-a326-5e9bb8c6febb","system_id":"levelo_inurba_marseille","lat":43.28152,"lon":5.42645,"is_reserved":false,"is_disabled":false,"rental_uris":{"android":"levelo://app?vid=0f22f840-4bd2-413b-a326-5e9bb8c6febb","ios":"levelo://app?vid=0f22f840-4bd2-413b-a326-5e9bb8c6febb"},"vehicle_type_id":"4","last_reported":1732525896,"current_range_meters":38800,"station_id":"ce4bhnh2rcd13ifvqgug","pricing_plan_id":"cebpf4jnsgd1na2vs0mg"},{"bike_id":"6a30d627-309b-4ab9-ab1e-41d25a38cdaa","system_id":"levelo_inurba_marseille","lat":43.32545,"lon":5.4144,"is_reserved":false,"is_disabled":true,"rental_uris":{"android":"levelo://app?vid=6a30d627-309b-4ab9-ab1e-41d25a38cdaa","ios":"levelo://app?vid=6a30d627-309b-4ab9-ab1e-41d25a38cdaa"},"vehicle_type_id":"4","last_reported":1732525896,"current_range_meters":36000,"station_id":"ce4bhq12rcd13ifvqhhg","pricing_plan_id":"cebpf4jnsgd1na2vs0mg"},{"bike_id":"319287df-687a-4519-8559-afdae3b3272f","system_id":"levelo_inurba_marseille","lat":43.297898,"lon":5.381188,"is_reserved":false,"is_disabled":true,"rental_uris":{"android":"levelo://app?vid=319287df-687a-4519-8559-afdae3b3272f","ios":"levelo://app?vid=319287df-687a-4519-8559-afdae3b3272f"},"vehicle_type_id":"4","last_reported":1732525896,"current_range_meters":28800,"station_id":"ce4bgip2rcd13ifvqbb0","pricing_plan_id":"cebpf4jnsgd1na2vs0mg"},{"bike_id":"bca3fd95-577b-4655-a940-7281cdb56793","system_id":"levelo_inurba_marseille","lat":43.28031,"lon":5.36939,"is_reserved":false,"is_disabled":true,"rental_uris":{"android":"levelo://app?vid=bca3fd95-577b-4655-a940-7281cdb56793","ios":"levelo://app?vid=bca3fd95-577b-4655-a940-7281cdb56793"},"vehicle_type_id":"4","last_reported":1732525896,"current_range_meters":30400,"station_id":"ce4bha12rcd13ifvqef0","pricing_plan_id":"cebpf4jnsgd1na2vs0mg"},{"bike_id":"e5951ee3-4a5a-4ebb-b469-096c5188dfa3","system_id":"levelo_inurba_marseille","lat":43.23188,"lon":5.35554,"is_reserved":false,"is_disabled":false,"rental_uris":{"android":"levelo://app?vid=e5951ee3-4a5a-4ebb-b469-096c5188dfa3","ios":"levelo://app?vid=e5951ee3-4a5a-4ebb-b469-096c5188dfa3"},"vehicle_type_id":"4","last_reported":1732525896,"current_range_meters":12400,"station_id":"ce4bhu92rcd13ifvqi70","pricing_plan_id":"cebpf4jnsgd1na2vs0mg"},{"bike_id":"c20141a8-407c-4c2c-8eea-b473f4d01794","system_id":"levelo_inurba_marseille","lat":43.27402,"lon":5.42393,"is_reserved":false,"is_disabled":false,"rental_uris":{"android":"levelo://app?vid=c20141a8-407c-4c2c-8eea-b473f4d01794","ios":"levelo://app?vid=c20141a8-407c-4c2c-8eea-b473f4d01794"},"vehicle_type_id":"4","last_reported":1732525896,"current_range_meters":20000,"station_id":"","pricing_plan_id":"cebpf4jnsgd1na2vs0mg"},{"bike_id":"3cc26207-7312-4eaa-95b6-cfa66aac5ad8","system_id":"levelo_inurba_marseille","lat":43.23153,"lon":5.43713,"is_reserved":false,"is_disabled":false,"rental_uris":{"android":"levelo://app?vid=3cc26207-7312-4eaa-95b6-cfa66aac5ad8","ios":"levelo://app?vid=3cc26207-7312-4eaa-95b6-cfa66aac5ad8"},"vehicle_type_id":"4","last_reported":1732525896,"current_range_meters":14400,"station_id":"ce4bhmp2rcd13ifvqgog","pricing_plan_id":"cebpf4jnsgd1na2vs0mg"},{"bike_id":"33ae12dc-d757-46bf-b195-cf4bbca44eb2","system_id":"levelo_inurba_marseille","lat":43.305358,"lon":5.365505,"is_reserved":false,"is_disabled":false,"rental_uris":{"android":"levelo://app?vid=33ae12dc-d757-46bf-b195-cf4bbca44eb2","ios":"levelo://app?vid=33ae12dc-d757-46bf-b195-cf4bbca44eb2"},"vehicle_type_id":"4","last_reported":1732525896,"current_range_meters":38400,"station_id":"ce4bgs12rcd13ifvqcag","pricing_plan_id":"cebpf4jnsgd1na2vs0mg"},{"bike_id":"66aad5d7-efa9-4543-8e11-bbf0af584fcf","system_id":"levelo_inurba_marseille","lat":43.27813,"lon":5.40712,"is_reserved":false,"is_disabled":true,"rental_uris":{"android":"levelo://app?vid=66aad5d7-efa9-4543-8e11-bbf0af584fcf","ios":"levelo://app?vid=66aad5d7-efa9-4543-8e11-bbf0af584fcf"},"vehicle_type_id":"4","last_reported":1732525896,"current_range_meters":38800,"station_id":"ce4bhnh2rcd13ifvqgtg","pricing_plan_id":"cebpf4jnsgd1na2vs0mg"},{"bike_id":"81a37cae-e9cf-459f-9399-7a89da6edc9b","system_id":"levelo_inurba_marseille","lat":43.30605,"lon":5.37211,"is_reserved":false,"is_disabled":false,"rental_uris":{"android":"levelo://app?vid=81a37cae-e9cf-459f-9399-7a89da6edc9b","ios":"levelo://app?vid=81a37cae-e9cf-459f-9399-7a89da6edc9b"},"vehicle_type_id":"4","last_reported":1732525896,"current_range_meters":38800,"station_id":"ce4bgqh2rcd13ifvqc4g","pricing_plan_id":"cebpf4jnsgd1na2vs0mg"},{"bike_id":"6c948e9c-d5b3-4fe5-a918-1bd2f7c83b02","system_id":"levelo_inurba_marseille","lat":43.32111,"lon":5.36775,"is_reserved":false,"is_disabled":false,"rental_uris":{"android":"levelo://app?vid=6c948e9c-d5b3-4fe5-a918-1bd2f7c83b02","ios":"levelo://app?vid=6c948e9c-d5b3-4fe5-a918-1bd2f7c83b02"},"vehicle_type_id":"4","last_reported":1732525896,"current_range_meters":24800,"station_id":"ce4bhrh2rcd13ifvqhug","pricing_plan_id":"cebpf4jnsgd1na2vs0mg"},{"bike_id":"9e620abf-d324-4f99-84fc-d67e71109f2a","system_id":"levelo_inurba_marseille","lat":43.31077,"lon":5.42435,"is_reserved":false,"is_disabled":true,"rental_uris":{"android":"levelo://app?vid=9e620abf-d324-4f99-84fc-d67e71109f2a","ios":"levelo://app?vid=9e620abf-d324-4f99-84fc-d67e71109f2a"},"vehicle_type_id":"4","last_reported":1732525896,"current_range_meters":0,"station_id":"ce4bhp92rcd13ifvqhag","pricing_plan_id":"cebpf4jnsgd1na2vs0mg"},{"bike_id":"9388a7ff-9c5c-4c26-9899-39b2408cf7e3","system_id":"levelo_inurba_marseille","lat":43.31025,"lon":5.38342,"is_reserved":false,"is_disabled":true,"rental_uris":{"android":"levelo://app?vid=9388a7ff-9c5c-4c26-9899-39b2408cf7e3","ios":"levelo://app?vid=9388a7ff-9c5c-4c26-9899-39b2408cf7e3"},"vehicle_type_id":"4","last_reported":1732525896,"current_range_meters":0,"station_id":"","pricing_plan_id":"cebpf4jnsgd1na2vs0mg"},{"bike_id":"f0b812fb-308b-478f-b343-bd91863b177d","system_id":"levelo_inurba_marseille","lat":43.323456,"lon":5.40621,"is_reserved":false,"is_disabled":true,"rental_uris":{"android":"levelo://app?vid=f0b812fb-308b-478f-b343-bd91863b177d","ios":"levelo://app?vid=f0b812fb-308b-478f-b343-bd91863b177d"},"vehicle_type_id":"4","last_reported":1732525896,"current_range_meters":10800,"station_id":"ce4bhq92rcd13ifvqhjg","pricing_plan_id":"cebpf4jnsgd1na2vs0mg"},{"bike_id":"ac30c408-efb6-4cc0-8b69-b94fbc018051","system_id":"levelo_inurba_marseille","lat":43.30213,"lon":5.39468,"is_reserved":false,"is_disabled":true,"rental_uris":{"android":"levelo://app?vid=ac30c408-efb6-4cc0-8b69-b94fbc018051","ios":"levelo://app?vid=ac30c408-efb6-4cc0-8b69-b94fbc018051"},"vehicle_type_id":"4","last_reported":1732525896,"current_range_meters":32000,"station_id":"ce4bh0p2rcd13ifvqd70","pricing_plan_id":"cebpf4jnsgd1na2vs0mg"},{"bike_id":"f555f4a3-4562-4573-a2dc-e585d3b2c6f8","system_id":"levelo_inurba_marseille","lat":43.306,"lon":5.37226,"is_reserved":false,"is_disabled":false,"rental_uris":{"android":"levelo://app?vid=f555f4a3-4562-4573-a2dc-e585d3b2c6f8","ios":"levelo://app?vid=f555f4a3-4562-4573-a2dc-e585d3b2c6f8"},"vehicle_type_id":"4","last_reported":1732525896,"current_range_meters":38800,"station_id":"ce4bgqh2rcd13ifvqc4g","pricing_plan_id":"cebpf4jnsgd1na2vs0mg"},{"bike_id":"7993478e-0127-484e-9af9-906aa682b05d","system_id":"levelo_inurba_marseille","lat":43.30139,"lon":5.37425,"is_reserved":false,"is_disabled":false,"rental_uris":{"android":"levelo://app?vid=7993478e-0127-484e-9af9-906aa682b05d","ios":"levelo://app?vid=7993478e-0127-484e-9af9-906aa682b05d"},"vehicle_type_id":"4","last_reported":1732525896,"current_range_meters":36000,"station_id":"ce4bgs92rcd13ifvqcc0","pricing_plan_id":"cebpf4jnsgd1na2vs0mg"},{"bike_id":"f14e9fba-b9bd-4443-896c-9fd7a4fd971d","system_id":"levelo_inurba_marseille","lat":43.29896,"lon":5.4367,"is_reserved":false,"is_disabled":false,"rental_uris":{"android":"levelo://app?vid=f14e9fba-b9bd-4443-896c-9fd7a4fd971d","ios":"levelo://app?vid=f14e9fba-b9bd-4443-896c-9fd7a4fd971d"},"vehicle_type_id":"4","last_reported":1732525896,"current_range_meters":25200,"station_id":"ce4bhpp2rcd13ifvqhfg","pricing_plan_id":"cebpf4jnsgd1na2vs0mg"},{"bike_id":"97892baf-cb17-4471-ab19-13bfee4dddd7","system_id":"levelo_inurba_marseille","lat":43.27175,"lon":5.40997,"is_reserved":false,"is_disabled":true,"rental_uris":{"android":"levelo://app?vid=97892baf-cb17-4471-ab19-13bfee4dddd7","ios":"levelo://app?vid=97892baf-cb17-4471-ab19-13bfee4dddd7"},"vehicle_type_id":"4","last_reported":1732525896,"current_range_meters":32800,"station_id":"ce4bhl12rcd13ifvqgf0","pricing_plan_id":"cebpf4jnsgd1na2vs0mg"},{"bike_id":"5c53cfbd-2547-413a-b79a-f8cc3b1ca992","system_id":"levelo_inurba_marseille","lat":43.32108,"lon":5.36772,"is_reserved":false,"is_disabled":false,"rental_uris":{"android":"levelo://app?vid=5c53cfbd-2547-413a-b79a-f8cc3b1ca992","ios":"levelo://app?vid=5c53cfbd-2547-413a-b79a-f8cc3b1ca992"},"vehicle_type_id":"4","last_reported":1732525896,"current_range_meters":37600,"station_id":"ce4bhrh2rcd13ifvqhug","pricing_plan_id":"cebpf4jnsgd1na2vs0mg"},{"bike_id":"210a35fe-4338-4232-95a7-7fea277b2632","system_id":"levelo_inurba_marseille","lat":43.24072,"lon":5.37761,"is_reserved":false,"is_disabled":false,"rental_uris":{"android":"levelo://app?vid=210a35fe-4338-4232-95a7-7fea277b2632","ios":"levelo://app?vid=210a35fe-4338-4232-95a7-7fea277b2632"},"vehicle_type_id":"4","last_reported":1732525896,"current_range_meters":38800,"station_id":"ce4bhnp2rcd13ifvqgvg","pricing_plan_id":"cebpf4jnsgd1na2vs0mg"},{"bike_id":"343b544a-4e9a-4bfa-98c8-4eef0b4cb55d","system_id":"levelo_inurba_marseille","lat":43.26199,"lon":5.37934,"is_reserved":false,"is_disabled":false,"rental_uris":{"android":"levelo://app?vid=343b544a-4e9a-4bfa-98c8-4eef0b4cb55d","ios":"levelo://app?vid=343b544a-4e9a-4bfa-98c8-4eef0b4cb55d"},"vehicle_type_id":"4","last_reported":1732525896,"current_range_meters":28400,"station_id":"ce4bhjp2rcd13ifvqg90","pricing_plan_id":"cebpf4jnsgd1na2vs0mg"},{"bike_id":"04b9c9cb-be15-44a7-9bdc-6d22ca715c34","system_id":"levelo_inurba_marseille","lat":43.33731,"lon":5.39176,"is_reserved":false,"is_disabled":false,"rental_uris":{"android":"levelo://app?vid=04b9c9cb-be15-44a7-9bdc-6d22ca715c34","ios":"levelo://app?vid=04b9c9cb-be15-44a7-9bdc-6d22ca715c34"},"vehicle_type_id":"4","last_reported":1732525896,"current_range_meters":21600,"station_id":"ce4bhr92rcd13ifvqhsg","pricing_plan_id":"cebpf4jnsgd1na2vs0mg"},{"bike_id":"a92a765f-9fd8-4152-b328-4b40c2abaafe","system_id":"levelo_inurba_marseille","lat":43.26952,"lon":5.38639,"is_reserved":false,"is_disabled":false,"rental_uris":{"android":"levelo://app?vid=a92a765f-9fd8-4152-b328-4b40c2abaafe","ios":"levelo://app?vid=a92a765f-9fd8-4152-b328-4b40c2abaafe"},"vehicle_type_id":"4","last_reported":1732525896,"current_range_meters":8400,"station_id":"ce4bhh92rcd13ifvqfh0","pricing_plan_id":"cebpf4jnsgd1na2vs0mg"},{"bike_id":"3b1c97d8-be81-484f-81f9-990f5b17db10","system_id":"levelo_inurba_marseille","lat":43.3414,"lon":5.40919,"is_reserved":false,"is_disabled":true,"rental_uris":{"android":"levelo://app?vid=3b1c97d8-be81-484f-81f9-990f5b17db10","ios":"levelo://app?vid=3b1c97d8-be81-484f-81f9-990f5b17db10"},"vehicle_type_id":"4","last_reported":1732525896,"current_range_meters":38400,"station_id":"ce4bhqh2rcd13ifvqhlg","pricing_plan_id":"cebpf4jnsgd1na2vs0mg"},{"bike_id":"43ef1878-08c8-43ce-8a84-e0d20cc2548c","system_id":"levelo_inurba_marseille","lat":43.25941,"lon":5.40904,"is_reserved":false,"is_disabled":false,"rental_uris":{"android":"levelo://app?vid=43ef1878-08c8-43ce-8a84-e0d20cc2548c","ios":"levelo://app?vid=43ef1878-08c8-43ce-8a84-e0d20cc2548c"},"vehicle_type_id":"4","last_reported":1732525896,"current_range_meters":36800,"station_id":"ce4bhm92rcd13ifvqglg","pricing_plan_id":"cebpf4jnsgd1na2vs0mg"},{"bike_id":"56ca6b93-ca3d-4dfc-8e20-e35c24d8bd07","system_id":"levelo_inurba_marseille","lat":43.337444,"lon":5.374475,"is_reserved":false,"is_disabled":true,"rental_uris":{"android":"levelo://app?vid=56ca6b93-ca3d-4dfc-8e20-e35c24d8bd07","ios":"levelo://app?vid=56ca6b93-ca3d-4dfc-8e20-e35c24d8bd07"},"vehicle_type_id":"4","last_reported":1732525896,"current_range_meters":0,"station_id":"","pricing_plan_id":"cebpf4jnsgd1na2vs0mg"},{"bike_id":"3ab22db4-3674-431e-9d90-c9391c7ec55e","system_id":"levelo_inurba_marseille","lat":43.29623,"lon":5.37166,"is_reserved":false,"is_disabled":false,"rental_uris":{"android":"levelo://app?vid=3ab22db4-3674-431e-9d90-c9391c7ec55e","ios":"levelo://app?vid=3ab22db4-3674-431e-9d90-c9391c7ec55e"},"vehicle_type_id":"4","last_reported":1732525896,"current_range_meters":25600,"station_id":"ce4bgnh2rcd13ifvqc0g","pricing_plan_id":"cebpf4jnsgd1na2vs0mg"},{"bike_id":"89b60ab2-d6a6-4acf-aafc-578126cf416a","system_id":"levelo_inurba_marseille","lat":43.282686,"lon":5.350681,"is_reserved":false,"is_disabled":true,"rental_uris":{"android":"levelo://app?vid=89b60ab2-d6a6-4acf-aafc-578126cf416a","ios":"levelo://app?vid=89b60ab2-d6a6-4acf-aafc-578126cf416a"},"vehicle_type_id":"4","last_reported":1732525896,"current_range_meters":26800,"station_id":"ce4bhbp2rcd13ifvqerg","pricing_plan_id":"cebpf4jnsgd1na2vs0mg"},{"bike_id":"46ac22a8-6f10-4221-98a6-34eba5c97bfb","system_id":"levelo_inurba_marseille","lat":43.292005,"lon":5.373145,"is_reserved":false,"is_disabled":true,"rental_uris":{"android":"levelo://app?vid=46ac22a8-6f10-4221-98a6-34eba5c97bfb","ios":"levelo://app?vid=46ac22a8-6f10-4221-98a6-34eba5c97bfb"},"vehicle_type_id":"4","last_reported":1732525896,"current_range_meters":0,"station_id":"","pricing_plan_id":"cebpf4jnsgd1na2vs0mg"},{"bike_id":"5846e7ee-045c-466d-b02c-9cd3eadc9db6","system_id":"levelo_inurba_marseille","lat":43.29192,"lon":5.35806,"is_reserved":false,"is_disabled":true,"rental_uris":{"android":"levelo://app?vid=5846e7ee-045c-466d-b02c-9cd3eadc9db6","ios":"levelo://app?vid=5846e7ee-045c-466d-b02c-9cd3eadc9db6"},"vehicle_type_id":"4","last_reported":1732525896,"current_range_meters":38400,"station_id":"ce4bhb12rcd13ifvqel0","pricing_plan_id":"cebpf4jnsgd1na2vs0mg"},{"bike_id":"03806296-836b-4e4f-a9bd-b155dd467267","system_id":"levelo_inurba_marseille","lat":43.24073,"lon":5.37764,"is_reserved":false,"is_disabled":false,"rental_uris":{"android":"levelo://app?vid=03806296-836b-4e4f-a9bd-b155dd467267","ios":"levelo://app?vid=03806296-836b-4e4f-a9bd-b155dd467267"},"vehicle_type_id":"4","last_reported":1732525896,"current_range_meters":34800,"station_id":"ce4bhnp2rcd13ifvqgvg","pricing_plan_id":"cebpf4jnsgd1na2vs0mg"},{"bike_id":"ef2af3bf-a8ce-43db-befd-2ab1382c27c5","system_id":"levelo_inurba_marseille","lat":43.30531,"lon":5.36704,"is_reserved":false,"is_disabled":false,"rental_uris":{"android":"levelo://app?vid=ef2af3bf-a8ce-43db-befd-2ab1382c27c5","ios":"levelo://app?vid=ef2af3bf-a8ce-43db-befd-2ab1382c27c5"},"vehicle_type_id":"4","last_reported":1732525896,"current_range_meters":38000,"station_id":"ce4bgrp2rcd13ifvqc9g","pricing_plan_id":"cebpf4jnsgd1na2vs0mg"},{"bike_id":"43746d86-8a13-4845-9faf-ae69b548d714","system_id":"levelo_inurba_marseille","lat":43.29442,"lon":5.37924,"is_reserved":false,"is_disabled":true,"rental_uris":{"android":"levelo://app?vid=43746d86-8a13-4845-9faf-ae69b548d714","ios":"levelo://app?vid=43746d86-8a13-4845-9faf-ae69b548d714"},"vehicle_type_id":"4","last_reported":1732525896,"current_range_meters":0,"station_id":"","pricing_plan_id":"cebpf4jnsgd1na2vs0mg"},{"bike_id":"0becb924-61a4-42bd-8c89-f62301afaf6e","system_id":"levelo_inurba_marseille","lat":43.24083,"lon":5.37747,"is_reserved":false,"is_disabled":false,"rental_uris":{"android":"levelo://app?vid=0becb924-61a4-42bd-8c89-f62301afaf6e","ios":"levelo://app?vid=0becb924-61a4-42bd-8c89-f62301afaf6e"},"vehicle_type_id":"4","last_reported":1732525896,"current_range_meters":38400,"station_id":"ce4bhnp2rcd13ifvqgvg","pricing_plan_id":"cebpf4jnsgd1na2vs0mg"},{"bike_id":"7317920e-5975-4c67-a891-63736e89f140","system_id":"levelo_inurba_marseille","lat":43.29274,"lon":5.36786,"is_reserved":false,"is_disabled":true,"rental_uris":{"android":"levelo://app?vid=7317920e-5975-4c67-a891-63736e89f140","ios":"levelo://app?vid=7317920e-5975-4c67-a891-63736e89f140"},"vehicle_type_id":"4","last_reported":1732525896,"current_range_meters":24400,"station_id":"","pricing_plan_id":"cebpf4jnsgd1na2vs0mg"},{"bike_id":"4189d0b2-4c5c-4f68-b5f5-efbc28bb5587","system_id":"levelo_inurba_marseille","lat":43.30138,"lon":5.37424,"is_reserved":false,"is_disabled":false,"rental_uris":{"android":"levelo://app?vid=4189d0b2-4c5c-4f68-b5f5-efbc28bb5587","ios":"levelo://app?vid=4189d0b2-4c5c-4f68-b5f5-efbc28bb5587"},"vehicle_type_id":"4","last_reported":1732525896,"current_range_meters":36800,"station_id":"ce4bgs92rcd13ifvqcc0","pricing_plan_id":"cebpf4jnsgd1na2vs0mg"},{"bike_id":"a2b09865-004d-45eb-b301-cf3640220a72","system_id":"levelo_inurba_marseille","lat":43.296,"lon":5.38105,"is_reserved":false,"is_disabled":true,"rental_uris":{"android":"levelo://app?vid=a2b09865-004d-45eb-b301-cf3640220a72","ios":"levelo://app?vid=a2b09865-004d-45eb-b301-cf3640220a72"},"vehicle_type_id":"4","last_reported":1732525896,"current_range_meters":0,"station_id":"ce4bgl12rcd13ifvqbo0","pricing_plan_id":"cebpf4jnsgd1na2vs0mg"},{"bike_id":"3e3c0be4-7fb7-4ca3-945a-c2f577396c6f","system_id":"levelo_inurba_marseille","lat":43.26685,"lon":5.38269,"is_reserved":false,"is_disabled":false,"rental_uris":{"android":"levelo://app?vid=3e3c0be4-7fb7-4ca3-945a-c2f577396c6f","ios":"levelo://app?vid=3e3c0be4-7fb7-4ca3-945a-c2f577396c6f"},"vehicle_type_id":"4","last_reported":1732525896,"current_range_meters":27600,"station_id":"ce4bhg92rcd13ifvqf90","pricing_plan_id":"cebpf4jnsgd1na2vs0mg"},{"bike_id":"da08ab34-4f73-4ba0-8877-c061275e926d","system_id":"levelo_inurba_marseille","lat":43.30133,"lon":5.37419,"is_reserved":false,"is_disabled":false,"rental_uris":{"android":"levelo://app?vid=da08ab34-4f73-4ba0-8877-c061275e926d","ios":"levelo://app?vid=da08ab34-4f73-4ba0-8877-c061275e926d"},"vehicle_type_id":"4","last_reported":1732525896,"current_range_meters":28000,"station_id":"ce4bgs92rcd13ifvqcc0","pricing_plan_id":"cebpf4jnsgd1na2vs0mg"},{"bike_id":"2612e93b-efd9-47d8-9055-c03c0a09ca65","system_id":"levelo_inurba_marseille","lat":43.26781,"lon":5.39423,"is_reserved":false,"is_disabled":true,"rental_uris":{"android":"levelo://app?vid=2612e93b-efd9-47d8-9055-c03c0a09ca65","ios":"levelo://app?vid=2612e93b-efd9-47d8-9055-c03c0a09ca65"},"vehicle_type_id":"4","last_reported":1732525896,"current_range_meters":0,"station_id":"ce4bhh12rcd13ifvqfg0","pricing_plan_id":"cebpf4jnsgd1na2vs0mg"},{"bike_id":"8f1d6e37-5a85-4901-bfc4-e08c8386322f","system_id":"levelo_inurba_marseille","lat":43.2992,"lon":5.36376,"is_reserved":false,"is_disabled":false,"rental_uris":{"android":"levelo://app?vid=8f1d6e37-5a85-4901-bfc4-e08c8386322f","ios":"levelo://app?vid=8f1d6e37-5a85-4901-bfc4-e08c8386322f"},"vehicle_type_id":"4","last_reported":1732525896,"current_range_meters":36000,"station_id":"","pricing_plan_id":"cebpf4jnsgd1na2vs0mg"},