{"last_updated":1744146567,"ttl":60,"version":"2.2","data":{"bikes":[{"bike_id":"e615de16-bf28-45aa-8c0a-faafe76bdcdc","system_id":"levelo_inurba_marseille","lat":43.313373,"lon":5.396918,"is_reserved":false,"is_disabled":true,"rental_uris":{"android":"levelo://app?vid=e615de16-bf28-45aa-8c0a-faafe76bdcdc","ios":"levelo://app?vid=e615de16-bf28-45aa-8c0a-faafe76bdcdc"},"vehicle_type_id":"4","last_reported":1744146568,"current_range_meters":2800,"station_id":"","pricing_plan_id":"cebpf4jnsgd1na2vs0mg"},{"bike_id":"6011ab96-e955-4ca8-95b1-9776ff68c79a","system_id":"levelo_inurba_marseille","lat":43.27364,"lon":5.36234,"is_reserved":false,"is_disabled":true,"rental_uris":{"android":"levelo://app?vid=6011ab96-e955-4ca8-95b1-9776ff68c79a","ios":"levelo://app?vid=6011ab96-e955-4ca8-95b1-9776ff68c79a"},"vehicle_type_id":"4","last_reported":1744146568,"current_range_meters":2800,"station_id":"ce4bhbh2rcd13ifvqeo0","pricing_plan_id":"cebpf4jnsgd1na2vs0mg"},{"bike_id":"d3f35d20-0527-45ae-94a7-5416fa0141b3","system_id":"levelo_inurba_marseille","lat":43.2872,"lon":5.36085,"is_reserved":false,"is_disabled":false,"rental_uris":{"android":"levelo://app?vid=d3f35d20-0527-45ae-94a7-5416fa0141b3","ios":"levelo://app?vid=d3f35d20-0527-45ae-94a7-5416fa0141b3"},"vehicle_type_id":"4","last_reported":1744146568,"current_range_meters":3200,"station_id":"cki0cbj6b192h4jlfktg","pricing_plan_id":"cebpf4jnsgd1na2vs0mg"},{"bike_id":"60917ad7-b9cc-4573-928a-b99386b0d067","system_id":"levelo_inurba_marseille","lat":43.29567,"lon":5.3997,"is_reserved":false,"is_disabled":false,"rental_uris":{"android":"levelo://app?vid=60917ad7-b9cc-4573-928a-b99386b0d067","ios":"levelo://app?vid=60917ad7-b9cc-4573-928a-b99386b0d067"},"vehicle_type_id":"4","last_reported":1744146568,"current_range_meters":3200,"station_id":"ce4bh312rcd13ifvqdj0","pricing_plan_id":"cebpf4jnsgd1na2vs0mg"},{"bike_id":"560e17bf-ac37-4844-88f0-aa3a929cf095","system_id":"levelo_inurba_marseille","lat":43.29415,"lon":5.38647,"is_reserved":false,"is_disabled":true,"rental_uris":{"android":"levelo://app?vid=560e17bf-ac37-4844-88f0-aa3a929cf095","ios":"levelo://app?vid=560e17bf-ac37-4844-88f0-aa3a929cf095"},"vehicle_type_id":"4","last_reported":1744146568,"current_range_meters":3200,"station_id":"ce4bh2h2rcd13ifvqdh0","pricing_plan_id":"cebpf4jnsgd1na2vs0mg"},{"bike_id":"b95f3cd3-0a5b-40e0-b06e-939996ffefa6","system_id":"levelo_inurba_marseille","lat":43.27857,"lon":5.40686,"is_reserved":false,"is_disabled":true,"rental_uris":{"android":"levelo://app?vid=b95f3cd3-0a5b-40e0-b06e-939996ffefa6","ios":"levelo://app?vid=b95f3cd3-0a5b-40e0-b06e-939996ffefa6"},"vehicle_type_id":"4","last_reported":1744146568,"current_range_meters":3200,"station_id":"ce4bhnh2rcd13ifvqgtg","pricing_plan_id":"cebpf4jnsgd1na2vs0mg"},{"bike_id":"272ebb7a-2b78-4507-8be6-3d0cdfb99985","system_id":"levelo_inurba_marseille","lat":43.31161,"lon":5.38716,"is_reserved":false,"is_disabled":false,"rental_uris":{"android":"levelo://app?vid=272ebb7a-2b78-4507-8be6-3d0cdfb99985","ios":"levelo://app?vid=272ebb7a-2b78-4507-8be6-3d0cdfb99985"},"vehicle_type_id":"4","last_reported":1744146568,"current_range_meters":3600,"station_id":"ce4bgv12rcd13ifvqcp0","pricing_plan_id":"cebpf4jnsgd1na2vs0mg"},{"bike_id":"56ac43c2-6730-4de6-b3cf-2273c3fae518","system_id":"levelo_inurba_marseille","lat":43.28108,"lon":5.37836,"is_reserved":false,"is_disabled":false,"rental_uris":{"android":"levelo://app?vid=56ac43c2-6730-4de6-b3cf-2273c3fae518","ios":"levelo://app?vid=56ac43c2-6730-4de6-b3cf-2273c3fae518"},"vehicle_type_id":"4","last_reported":1744146568,"current_range_meters":3600,"station_id":"ce4bha12rcd13ifvqee0","pricing_plan_id":"cebpf4jnsgd1na2vs0mg"},{"bike_id":"5b79fd17-71c7-46ba-a08e-72b15d99e820","system_id":"levelo_inurba_marseille","lat":43.22519,"lon":5.34764,"is_reserved":false,"is_disabled":true,"rental_uris":{"android":"levelo://app?vid=5b79fd17-71c7-46ba-a08e-72b15d99e820","ios":"levelo://app?vid=5b79fd17-71c7-46ba-a08e-72b15d99e820"},"vehicle_type_id":"4","last_reported":1744146568,"current_range_meters":3600,"station_id":"st_cvj5dfep6f1abm77gieg","pricing_plan_id":"cebpf4jnsgd1na2vs0mg"},{"bike_id":"a41ed1c8-66a6-494b-a01d-66f32b31d7cf","system_id":"levelo_inurba_marseille","lat":43.26214,"lon":5.3746,"is_reserved":false,"is_disabled":true,"rental_uris":{"android":"levelo://app?vid=a41ed1c8-66a6-494b-a01d-66f32b31d7cf","ios":"levelo://app?vid=a41ed1c8-66a6-494b-a01d-66f32b31d7cf"},"vehicle_type_id":"4","last_reported":1744146568,"current_range_meters":4000,"station_id":"ce4bhgp2rcd13ifvqfc0","pricing_plan_id":"cebpf4jnsgd1na2vs0mg"},{"bike_id":"27b027e0-2b3b-4dbb-8644-29d6a2f5b755","system_id":"levelo_inurba_marseille","lat":43.28716,"lon":5.37937,"is_reserved":false,"is_disabled":false,"rental_uris":{"android":"levelo://app?vid=27b027e0-2b3b-4dbb-8644-29d6a2f5b755","ios":"levelo://app?vid=27b027e0-2b3b-4dbb-8644-29d6a2f5b755"},"vehicle_type_id":"4","last_reported":1744146568,"current_range_meters":4000,"station_id":"ce4bh9p2rcd13ifvqec0","pricing_plan_id":"cebpf4jnsgd1na2vs0mg"},{"bike_id":"fe2c091d-5946-4a0e-9891-91ef3a545c2c","system_id":"levelo_inurba_marseille","lat":43.288599,"lon":5.3585,"is_reserved":false,"is_disabled":false,"rental_uris":{"android":"levelo://app?vid=fe2c091d-5946-4a0e-9891-91ef3a545c2c","ios":"levelo://app?vid=fe2c091d-5946-4a0e-9891-91ef3a545c2c"},"vehicle_type_id":"4","last_reported":1744146568,"current_range_meters":4000,"station_id":"ce4bhb12rcd13ifvqem0","pricing_plan_id":"cebpf4jnsgd1na2vs0mg"},{"bike_id":"c49dfa76-18df-4644-9d2b-5a4da075b5ba","system_id":"levelo_inurba_marseille","lat":43.31065,"lon":5.38345,"is_reserved":false,"is_disabled":false,"rental_uris":{"android":"levelo://app?vid=c49dfa76-18df-4644-9d2b-5a4da075b5ba","ios":"levelo://app?vid=c49dfa76-18df-4644-9d2b-5a4da075b5ba"},"vehicle_type_id":"4","last_reported":1744146568,"current_range_meters":4400,"station_id":"ce4bgv92rcd13ifvqcr0","pricing_plan_id":"cebpf4jnsgd1na2vs0mg"},{"bike_id":"c17c018e-ef3a-485d-8a2f-b6431ecfd8de","system_id":"levelo_inurba_marseille","lat":43.29969,"lon":5.38482,"is_reserved":false,"is_disabled":false,"rental_uris":{"android":"levelo://app?vid=c17c018e-ef3a-485d-8a2f-b6431ecfd8de","ios":"levelo://app?vid=c17c018e-ef3a-485d-8a2f-b6431ecfd8de"},"vehicle_type_id":"4","last_reported":1744146568,"current_range_meters":4400,"station_id":"ce4bgj92rcd13ifvqbd0","pricing_plan_id":"cebpf4jnsgd1na2vs0mg"},{"bike_id":"e2b6c7a8-af77-432a-8cc5-ca923f607e7a","system_id":"levelo_inurba_marseille","lat":43.31162,"lon":5.38717,"is_reserved":false,"is_disabled":false,"rental_uris":{"android":"levelo://app?vid=e2b6c7a8-af77-432a-8cc5-ca923f607e7a","ios":"levelo://app?vid=e2b6c7a8-af77-432a-8cc5-ca923f607e7a"},"vehicle_type_id":"4","last_reported":1744146568,"current_range_meters":4000,"station_id":"ce4bgv12rcd13ifvqcp0","pricing_plan_id":"cebpf4jnsgd1na2vs0mg"},{"bike_id":"19829531-2b5b-4511-917d-4c3d89262461","system_id":"levelo_inurba_marseille","lat":43.30431,"lon":5.38881,"is_reserved":false,"is_disabled":false,"rental_uris":{"android":"levelo://app?vid=19829531-2b5b-4511-917d-4c3d89262461","ios":"levelo://app?vid=19829531-2b5b-4511-917d-4c3d89262461"},"vehicle_type_id":"4","last_reported":1744146568,"current_range_meters":4400,"station_id":"ce4bgk12rcd13ifvqbi0","pricing_plan_id":"cebpf4jnsgd1na2vs0mg"},{"bike_id":"0b82e51d-cca2-4160-a216-65cd59072878","system_id":"levelo_inurba_marseille","lat":43.3012,"lon":5.39862,"is_reserved":false,"is_disabled":false,"rental_uris":{"android":"levelo://app?vid=0b82e51d-cca2-4160-a216-65cd59072878","ios":"levelo://app?vid=0b82e51d-cca2-4160-a216-65cd59072878"},"vehicle_type_id":"4","last_reported":1744146568,"current_range_meters":4400,"station_id":"ce4bhop2rcd13ifvqh7g","pricing_plan_id":"cebpf4jnsgd1na2vs0mg"},{"bike_id":"cc057f14-b1e1-4dee-b107-8741c01c5964","system_id":"levelo_inurba_marseille","lat":43.32116,"lon":5.3678,"is_reserved":false,"is_disabled":true,"rental_uris":{"android":"levelo://app?vid=cc057f14-b1e1-4dee-b107-8741c01c5964","ios":"levelo://app?vid=cc057f14-b1e1-4dee-b107-8741c01c5964"},"vehicle_type_id":"4","last_reported":1744146568,"current_range_meters":4400,"station_id":"ce4bhrh2rcd13ifvqhug","pricing_plan_id":"cebpf4jnsgd1na2vs0mg"},{"bike_id":"21a5bc84-856d-43a2-b028-f173da65e0c7","system_id":"levelo_inurba_marseille","lat":43.27987,"lon":5.41657,"is_reserved":false,"is_disabled":false,"rental_uris":{"android":"levelo://app?vid=21a5bc84-856d-43a2-b028-f173da65e0c7","ios":"levelo://app?vid=21a5bc84-856d-43a2-b028-f173da65e0c7"},"vehicle_type_id":"4","last_reported":1744146568,"current_range_meters":4400,"station_id":"ce4bho12rcd13ifvqh1g","pricing_plan_id":"cebpf4jnsgd1na2vs0mg"},{"bike_id":"cac9db0b-e95d-4428-81c5-61e0c324daf6","system_id":"levelo_inurba_marseille","lat":43.3031,"lon":5.40441,"is_reserved":false,"is_disabled":false,"rental_uris":{"android":"levelo://app?vid=cac9db0b-e95d-4428-81c5-61e0c324daf6","ios":"levelo://app?vid=cac9db0b-e95d-4428-81c5-61e0c324daf6"},"vehicle_type_id":"4","last_reported":1744146568,"current_range_meters":4400,"station_id":"ce4bh012rcd13ifvqd10","pricing_plan_id":"cebpf4jnsgd1na2vs0mg"},{"bike_id":"8b4a5c52-3413-49f2-b7f4-7f3508a08342","system_id":"levelo_inurba_marseille","lat":43.30247,"lon":5.40089,"is_reserved":false,"is_disabled":false,"rental_uris":{"android":"levelo://app?vid=8b4a5c52-3413-49f2-b7f4-7f3508a08342","ios":"levelo://app?vid=8b4a5c52-3413-49f2-b7f4-7f3508a08342"},"vehicle_type_id":"4","last_reported":1744146568,"current_range_meters":4800,"station_id":"ce4bgvh2rcd13ifvqcs0","pricing_plan_id":"cebpf4jnsgd1na2vs0mg"},{"bike_id":"87bda883-ac94-49fc-94c2-3a86e52b4f97","system_id":"levelo_inurba_marseille","lat":43.307155,"lon":5.383464,"is_reserved":false,"is_disabled":false,"rental_uris":{"android":"levelo://app?vid=87bda883-ac94-49fc-94c2-3a86e52b4f97","ios":"levelo://app?vid=87bda883-ac94-49fc-94c2-3a86e52b4f97"},"vehicle_type_id":"4","last_reported":1744146568,"current_range_meters":4800,"station_id":"","pricing_plan_id":"cebpf4jnsgd1na2vs0mg"},{"bike_id":"5ca6609a-18fb-49cf-b295-ced5258955e6","system_id":"levelo_inurba_marseille","lat":43.24388,"lon":5.37057,"is_reserved":false,"is_disabled":false,"rental_uris":{"android":"levelo://app?vid=5ca6609a-18fb-49cf-b295-ced5258955e6","ios":"levelo://app?vid=5ca6609a-18fb-49cf-b295-ced5258955e6"},"vehicle_type_id":"4","last_reported":1744146568,"current_range_meters":4800,"station_id":"ce4bhhh2rcd13ifvqfk0","pricing_plan_id":"cebpf4jnsgd1na2vs0mg"},{"bike_id":"3944b4a0-54fb-4d6c-af80-4ca20b89931c","system_id":"levelo_inurba_marseille","lat":43.27985,"lon":5.41657,"is_reserved":false,"is_disabled":false,"rental_uris":{"android":"levelo://app?vid=3944b4a0-54fb-4d6c-af80-4ca20b89931c","ios":"levelo://app?vid=3944b4a0-54fb-4d6c-af80-4ca20b89931c"},"vehicle_type_id":"4","last_reported":1744146568,"current_range_meters":5600,"station_id":"ce4bho12rcd13ifvqh1g","pricing_plan_id":"cebpf4jnsgd1na2vs0mg"},{"bike_id":"83048e5e-4a32-4a69-87af-ee93450509d9","system_id":"levelo_inurba_marseille","lat":43.29715,"lon":5.36617,"is_reserved":false,"is_disabled":false,"rental_uris":{"android":"levelo://app?vid=83048e5e-4a32-4a69-87af-ee93450509d9","ios":"levelo://app?vid=83048e5e-4a32-4a69-87af-ee93450509d9"},"vehicle_type_id":"4","last_reported":1744146568,"current_range_meters":5600,"station_id":"ce4bgn12rcd13ifvqbt0","pricing_plan_id":"cebpf4jnsgd1na2vs0mg"},{"bike_id":"a0e61320-600e-47a5-9068-420908f74229","system_id":"levelo_inurba_marseille","lat":43.28429,"lon":5.37543,"is_reserved":false,"is_disabled":false,"rental_uris":{"android":"levelo://app?vid=a0e61320-600e-47a5-9068-420908f74229","ios":"levelo://app?vid=a0e61320-600e-47a5-9068-420908f74229"},"vehicle_type_id":"4","last_reported":1744146568,"current_range_meters":5600,"station_id":"ce4bh412rcd13ifvqds0","pricing_plan_id":"cebpf4jnsgd1na2vs0mg"},{"bike_id":"e20b304f-0bb8-4157-84de-fcbcf7549ad4","system_id":"levelo_inurba_marseille","lat":43.29967,"lon":5.37178,"is_reserved":false,"is_disabled":false,"rental_uris":{"android":"levelo://app?vid=e20b304f-0bb8-4157-84de-fcbcf7549ad4","ios":"levelo://app?vid=e20b304f-0bb8-4157-84de-fcbcf7549ad4"},"vehicle_type_id":"4","last_reported":1744146568,"current_range_meters":6000,"station_id":"ce4bgr92rcd13ifvqc7g","pricing_plan_id":"cebpf4jnsgd1na2vs0mg"},{"bike_id":"86cd6be3-842c-482f-b1f9-0fea60de76c1","system_id":"levelo_inurba_marseille","lat":43.31134,"lon":5.3774,"is_reserved":false,"is_disabled":false,"rental_uris":{"android":"levelo://app?vid=86cd6be3-842c-482f-b1f9-0fea60de76c1","ios":"levelo://app?vid=86cd6be3-842c-482f-b1f9-0fea60de76c1"},"vehicle_type_id":"4","last_reported":1744146568,"current_range_meters":6000,"station_id":"ce4bgt92rcd13ifvqcg0","pricing_plan_id":"cebpf4jnsgd1na2vs0mg"},{"bike_id":"3ea3a003-2b79-4394-9296-9c53c80fdbe9","system_id":"levelo_inurba_marseille","lat":43.27907,"lon":5.39574,"is_reserved":false,"is_disabled":false,"rental_uris":{"android":"levelo://app?vid=3ea3a003-2b79-4394-9296-9c53c80fdbe9","ios":"levelo://app?vid=3ea3a003-2b79-4394-9296-9c53c80fdbe9"},"vehicle_type_id":"4","last_reported":1744146568,"current_range_meters":6400,"station_id":"ce4bhf92rcd13ifvqf40","pricing_plan_id":"cebpf4jnsgd1na2vs0mg"},{"bike_id":"a2bc1534-fa4c-44c0-9bf1-e145e671d810","system_id":"levelo_inurba_marseille","lat":43.30318,"lon":5.4006,"is_reserved":false,"is_disabled":false,"rental_uris":{"android":"levelo://app?vid=a2bc1534-fa4c-44c0-9bf1-e145e671d810","ios":"levelo://app?vid=a2bc1534-fa4c-44c0-9bf1-e145e671d810"},"vehicle_type_id":"4","last_reported":1744146568,"current_range_meters":6400,"station_id":"ce4bgvh2rcd13ifvqcs0","pricing_plan_id":"cebpf4jnsgd1na2vs0mg"},{"bike_id":"dbb76cf4-a87a-48e7-9856-e53897e09667","system_id":"levelo_inurba_marseille","lat":43.29573,"lon":5.39974,"is_reserved":false,"is_disabled":false,"rental_uris":{"android":"levelo://app?vid=dbb76cf4-a87a-48e7-9856-e53897e09667","ios":"levelo://app?vid=dbb76cf4-a87a-48e7-9856-e53897e09667"},"vehicle_type_id":"4","last_reported":1744146568,"current_range_meters":6400,"station_id":"ce4bh312rcd13ifvqdj0","pricing_plan_id":"cebpf4jnsgd1na2vs0mg"},{"bike_id":"52a3a737-d744-44aa-901d-daf29012d3d4","system_id":"levelo_inurba_marseille","lat":43.3092,"lon":5.37183,"is_reserved":false,"is_disabled":false,"rental_uris":{"android":"levelo://app?vid=52a3a737-d744-44aa-901d-daf29012d3d4","ios":"levelo://app?vid=52a3a737-d744-44aa-901d-daf29012d3d4"},"vehicle_type_id":"4","last_reported":1744146568,"current_range_meters":6400,"station_id":"ce4bguh2rcd13ifvqckg","pricing_plan_id":"cebpf4jnsgd1na2vs0mg"},{"bike_id":"7a6c07ab-bbf0-4615-ac96-016f3662591e","system_id":"levelo_inurba_marseille","lat":43.30783,"lon":5.37631,"is_reserved":false,"is_disabled":false,"rental_uris":{"android":"levelo://app?vid=7a6c07ab-bbf0-4615-ac96-016f3662591e","ios":"levelo://app?vid=7a6c07ab-bbf0-4615-ac96-016f3662591e"},"vehicle_type_id":"4","last_reported":1744146568,"current_range_meters":6400,"station_id":"ce4bgv92rcd13ifvqcq0","pricing_plan_id":"cebpf4jnsgd1na2vs0mg"},{"bike_id":"95e4d341-aa1d-45d3-97d4-58ce3861535b","system_id":"levelo_inurba_marseille","lat":43.21186,"lon":5.35071,"is_reserved":false,"is_disabled":true,"rental_uris":{"android":"levelo://app?vid=95e4d341-aa1d-45d3-97d4-58ce3861535b","ios":"levelo://app?vid=95e4d341-aa1d-45d3-97d4-58ce3861535b"},"vehicle_type_id":"4","last_reported":1744146568,"current_range_meters":6400,"station_id":"","pricing_plan_id":"cebpf4jnsgd1na2vs0mg"},{"bike_id":"a2d46cb9-9eeb-44f6-ab18-0e5c210fd7b5","system_id":"levelo_inurba_marseille","lat":43.28901,"lon":5.36659,"is_reserved":false,"is_disabled":true,"rental_uris":{"android":"levelo://app?vid=a2d46cb9-9eeb-44f6-ab18-0e5c210fd7b5","ios":"levelo://app?vid=a2d46cb9-9eeb-44f6-ab18-0e5c210fd7b5"},"vehicle_type_id":"4","last_reported":1744146568,"current_range_meters":6400,"station_id":"ce4bhap2rcd13ifvqek0","pricing_plan_id":"cebpf4jnsgd1na2vs0mg"},{"bike_id":"4b8dddbd-4a73-4c7c-a615-40a931cd78e8","system_id":"levelo_inurba_marseille","lat":43.25079,"lon":5.39535,"is_reserved":false,"is_disabled":false,"rental_uris":{"android":"levelo://app?vid=4b8dddbd-4a73-4c7c-a615-40a931cd78e8","ios":"levelo://app?vid=4b8dddbd-4a73-4c7c-a615-40a931cd78e8"},"vehicle_type_id":"4","last_reported":1744146568,"current_range_meters":6800,"station_id":"ce4bhm12rcd13ifvqgkg","pricing_plan_id":"cebpf4jnsgd1na2vs0mg"},{"bike_id":"c5fb24e6-da81-4c8b-a57b-0bdcae5727b6","system_id":"levelo_inurba_marseille","lat":43.25085,"lon":5.3951,"is_reserved":false,"is_disabled":false,"rental_uris":{"android":"levelo://app?vid=c5fb24e6-da81-4c8b-a57b-0bdcae5727b6","ios":"levelo://app?vid=c5fb24e6-da81-4c8b-a57b-0bdcae5727b6"},"vehicle_type_id":"4","last_reported":1744146568,"current_range_meters":6800,"station_id":"ce4bhm12rcd13ifvqgkg","pricing_plan_id":"cebpf4jnsgd1na2vs0mg"},{"bike_id":"995e03b4-eefd-46d7-9d4d-abb00a296bb5","system_id":"levelo_inurba_marseille","lat":43.2318,"lon":5.39984,"is_reserved":false,"is_disabled":false,"rental_uris":{"android":"levelo://app?vid=995e03b4-eefd-46d7-9d4d-abb00a296bb5","ios":"levelo://app?vid=995e03b4-eefd-46d7-9d4d-abb00a296bb5"},"vehicle_type_id":"4","last_reported":1744146568,"current_range_meters":6800,"station_id":"ce4bhn12rcd13ifvqgqg","pricing_plan_id":"cebpf4jnsgd1na2vs0mg"},{"bike_id":"94cc02d0-1cba-4ce3-a6ee-2b2a43266460","system_id":"levelo_inurba_marseille","lat":43.25086,"lon":5.39519,"is_reserved":false,"is_disabled":false,"rental_uris":{"android":"levelo://app?vid=94cc02d0-1cba-4ce3-a6ee-2b2a43266460","ios":"levelo://app?vid=94cc02d0-1cba-4ce3-a6ee-2b2a43266460"},"vehicle_type_id":"4","last_reported":1744146568,"current_range_meters":6800,"station_id":"ce4bhm12rcd13ifvqgkg","pricing_plan_id":"cebpf4jnsgd1na2vs0mg"},{"bike_id":"f9155b56-65f6-4869-aceb-65901f1d58c2","system_id":"levelo_inurba_marseille","lat":43.2941,"lon":5.38626,"is_reserved":false,"is_disabled":false,"rental_uris":{"android":"levelo://app?vid=f9155b56-65f6-4869-aceb-65901f1d58c2","ios":"levelo://app?vid=f9155b56-65f6-4869-aceb-65901f1d58c2"},"vehicle_type_id":"4","last_reported":1744146568,"current_range_meters":6800,"station_id":"ce4bh2h2rcd13ifvqdh0","pricing_plan_id":"cebpf4jnsgd1na2vs0mg"},{"bike_id":"35a9b3bf-fcf8-4f5d-9807-70a22f3ce6b3","system_id":"levelo_inurba_marseille","lat":43.29583,"lon":5.3999,"is_reserved":false,"is_disabled":false,"rental_uris":{"android":"levelo://app?vid=35a9b3bf-fcf8-4f5d-9807-70a22f3ce6b3","ios":"levelo://app?vid=35a9b3bf-fcf8-4f5d-9807-70a22f3ce6b3"},"vehicle_type_id":"4","last_reported":1744146568,"current_range_meters":6800,"station_id":"ce4bh312rcd13ifvqdj0","pricing_plan_id":"cebpf4jnsgd1na2vs0mg"},{"bike_id":"e7e1ab45-7d32-4b6d-ad17-3b30963cb3b2","system_id":"levelo_inurba_marseille","lat":43.25073,"lon":5.39514,"is_reserved":false,"is_disabled":false,"rental_uris":{"android":"levelo://app?vid=e7e1ab45-7d32-4b6d-ad17-3b30963cb3b2","ios":"levelo://app?vid=e7e1ab45-7d32-4b6d-ad17-3b30963cb3b2"},"vehicle_type_id":"4","last_reported":1744146568,"current_range_meters":6800,"station_id":"ce4bhm12rcd13ifvqgkg","pricing_plan_id":"cebpf4jnsgd1na2vs0mg"},{"bike_id":"fe15bbb3-41d5-44a5-be9a-d99b3ed36373","system_id":"levelo_inurba_marseille","lat":43.28436,"lon":5.39179,"is_reserved":false,"is_disabled":true,"rental_uris":{"android":"levelo://app?vid=fe15bbb3-41d5-44a5-be9a-d99b3ed36373","ios":"levelo://app?vid=fe15bbb3-41d5-44a5-be9a-d99b3ed36373"},"vehicle_type_id":"4","last_reported":1744146568,"current_range_meters":7200,"station_id":"ce4bhoh2rcd13ifvqh5g","pricing_plan_id":"cebpf4jnsgd1na2vs0mg"},{"bike_id":"f4822b87-2284-4a37-8410-69cf3e5cbb74","system_id":"levelo_inurba_marseille","lat":43.28664,"lon":5.36351,"is_reserved":false,"is_disabled":false,"rental_uris":{"android":"levelo://app?vid=f4822b87-2284-4a37-8410-69cf3e5cbb74","ios":"levelo://app?vid=f4822b87-2284-4a37-8410-69cf3e5cbb74"},"vehicle_type_id":"4","last_reported":1744146568,"current_range_meters":7200,"station_id":"ce4bhah2rcd13ifvqej0","pricing_plan_id":"cebpf4jnsgd1na2vs0mg"},{"bike_id":"79bc10d7-e5ca-4b09-b891-43dda8027d86","system_id":"levelo_inurba_marseille","lat":43.28602,"lon":5.37066,"is_reserved":false,"is_disabled":false,"rental_uris":{"android":"levelo://app?vid=79bc10d7-e5ca-4b09-b891-43dda8027d86","ios":"levelo://app?vid=79bc10d7-e5ca-4b09-b891-43dda8027d86"},"vehicle_type_id":"4","last_reported":1744146568,"current_range_meters":7200,"station_id":"ce4bht12rcd13ifvqi60","pricing_plan_id":"cebpf4jnsgd1na2vs0mg"},{"bike_id":"1f36a339-4564-479e-92ec-6ec45eee838c","system_id":"levelo_inurba_marseille","lat":43.29465,"lon":5.39059,"is_reserved":false,"is_disabled":false,"rental_uris":{"android":"levelo://app?vid=1f36a339-4564-479e-92ec-6ec45eee838c","ios":"levelo://app?vid=1f36a339-4564-479e-92ec-6ec45eee838c"},"vehicle_type_id":"4","last_reported":1744146568,"current_range_meters":7200,"station_id":"","pricing_plan_id":"cebpf4jnsgd1na2vs0mg"},{"bike_id":"02f5f556-9aca-41a9-928c-e217b6392b4b","system_id":"levelo_inurba_marseille","lat":43.31827,"lon":5.43511,"is_reserved":false,"is_disabled":false,"rental_uris":{"android":"levelo://app?vid=02f5f556-9aca-41a9-928c-e217b6392b4b","ios":"levelo://app?vid=02f5f556-9aca-41a9-928c-e217b6392b4b"},"vehicle_type_id":"4","last_reported":1744146568,"current_range_meters":7200,"station_id":"","pricing_plan_id":"cebpf4jnsgd1na2vs0mg"},{"bike_id":"ecef8e9e-03dc-4612-b74e-b978f92e2873","system_id":"levelo_inurba_marseille","lat":43.30074,"lon":5.39064,"is_reserved":false,"is_disabled":true,"rental_uris":{"android":"levelo://app?vid=ecef8e9e-03dc-4612-b74e-b978f92e2873","ios":"levelo://app?vid=ecef8e9e-03dc-4612-b74e-b978f92e2873"},"vehicle_type_id":"4","last_reported":1744146568,"current_range_meters":7200,"station_id":"ce4bh192rcd13ifvqdb0","pricing_plan_id":"cebpf4jnsgd1na2vs0mg"},{"bike_id":"16386ba7-1029-4d33-9f96-b519d68cd1b4","system_id":"levelo_inurba_marseille","lat":43.29263,"lon":5.40114,"is_reserved":false,"is_disabled":false,"rental_uris":{"android":"levelo://app?vid=16386ba7-1029-4d33-9f96-b519d68cd1b4","ios":"levelo://app?vid=16386ba7-1029-4d33-9f96-b519d68cd1b4"},"vehicle_type_id":"4","last_reported":1744146568,"current_range_meters":7200,"station_id":"ce4bh312rcd13ifvqdk0","pricing_plan_id":"cebpf4jnsgd1na2vs0mg"},{"bike_id":"f39be6f5-2f69-4c37-b021-559d20b299a4","system_id":"levelo_inurba_marseille","lat":43.30032,"lon":5.37651,"is_reserved":false,"is_disabled":false,"rental_uris":{"android":"levelo://app?vid=f39be6f5-2f69-4c37-b021-559d20b299a4","ios":"levelo://app?vid=f39be6f5-2f69-4c37-b021-559d20b299a4"},"vehicle_type_id":"4","last_reported":1744146568,"current_range_meters":7200,"station_id":"","pricing_plan_id":"cebpf4jnsgd1na2vs0mg"},{"bike_id":"67fc83c3-dfdb-49cf-a05a-5435b4fd9258","system_id":"levelo_inurba_marseille","lat":43.31331,"lon":5.40177,"is_reserved":false,"is_disabled":false,"rental_uris":{"android":"levelo://app?vid=67fc83c3-dfdb-49cf-a05a-5435b4fd9258","ios":"levelo://app?vid=67fc83c3-dfdb-49cf-a05a-5435b4fd9258"},"vehicle_type_id":"4","last_reported":1744146568,"current_range_meters":7200,"station_id":"ce4bh092rcd13ifvqd30","pricing_plan_id":"cebpf4jnsgd1na2vs0mg"},{"bike_id":"456b79bb-81b6-42d9-a52b-1ca6c839f098","system_id":"levelo_inurba_marseille","lat":43.3041,"lon":5.41287,"is_reserved":false,"is_disabled":true,"rental_uris":{"android":"levelo://app?vid=456b79bb-81b6-42d9-a52b-1ca6c839f098","ios":"levelo://app?vid=456b79bb-81b6-42d9-a52b-1ca6c839f098"},"vehicle_type_id":"4","last_reported":1744146568,"current_range_meters":7200,"station_id":"ce4bhop2rcd13ifvqh8g","pricing_plan_id":"cebpf4jnsgd1na2vs0mg"},{"bike_id":"3576b946-70b3-456f-a60a-d98e227f015c","system_id":"levelo_inurba_marseille","lat":43.30081,"lon":5.38227,"is_reserved":false,"is_disabled":false,"rental_uris":{"android":"levelo://app?vid=3576b946-70b3-456f-a60a-d98e227f015c","ios":"levelo://app?vid=3576b946-70b3-456f-a60a-d98e227f015c"},"vehicle_type_id":"4","last_reported":1744146568,"current_range_meters":8000,"station_id":"ce4bgup2rcd13ifvqcn0","pricing_plan_id":"cebpf4jnsgd1na2vs0mg"},{"bike_id":"7dc5c599-1f28-44ab-9cd8-5d0e7c40b09b","system_id":"levelo_inurba_marseille","lat":43.30259,"lon":5.40084,"is_reserved":false,"is_disabled":false,"rental_uris":{"android":"levelo://app?vid=7dc5c599-1f28-44ab-9cd8-5d0e7c40b09b","ios":"levelo://app?vid=7dc5c599-1f28-44ab-9cd8-5d0e7c40b09b"},"vehicle_type_id":"4","last_reported":1744146568,"current_range_meters":8000,"station_id":"ce4bgvh2rcd13ifvqcs0","pricing_plan_id":"cebpf4jnsgd1na2vs0mg"},{"bike_id":"f366ee45-9569-49b7-8d64-bc1957b0e4ec","system_id":"levelo_inurba_marseille","lat":43.30307,"lon":5.36912,"is_reserved":false,"is_disabled":false,"rental_uris":{"android":"levelo://app?vid=f366ee45-9569-49b7-8d64-bc1957b0e4ec","ios":"levelo://app?vid=f366ee45-9569-49b7-8d64-bc1957b0e4ec"},"vehicle_type_id":"4","last_reported":1744146568,"current_range_meters":8000,"station_id":"ce4bgqh2rcd13ifvqc5g","pricing_plan_id":"cebpf4jnsgd1na2vs0mg"},{"bike_id":"2e9000dc-6400-4918-a994-dd60039ca96d","system_id":"levelo_inurba_marseille","lat":43.31989,"lon":5.38139,"is_reserved":false,"is_disabled":true,"rental_uris":{"android":"levelo://app?vid=2e9000dc-6400-4918-a994-dd60039ca96d","ios":"levelo://app?vid=2e9000dc-6400-4918-a994-dd60039ca96d"},"vehicle_type_id":"4","last_reported":1744146568,"current_range_meters":8000,"station_id":"ce4bhr12rcd13ifvqhpg","pricing_plan_id":"cebpf4jnsgd1na2vs0mg"},{"bike_id":"f17ce36f-e80a-4732-89e2-7a7dfab19d87","system_id":"levelo_inurba_marseille","lat":43.29897,"lon":5.43694,"is_reserved":false,"is_disabled":false,"rental_uris":{"android":"levelo://app?vid=f17ce36f-e80a-4732-89e2-7a7dfab19d87","ios":"levelo://app?vid=f17ce36f-e80a-4732-89e2-7a7dfab19d87"},"vehicle_type_id":"4","last_reported":1744146568,"current_range_meters":8400,"station_id":"ce4bhpp2rcd13ifvqhfg","pricing_plan_id":"cebpf4jnsgd1na2vs0mg"},{"bike_id":"3a528c7f-78ca-45e3-b37c-932d08094502","system_id":"levelo_inurba_marseille","lat":43.30216,"lon":5.39473,"is_reserved":false,"is_disabled":false,"rental_uris":{"android":"levelo://app?vid=3a528c7f-78ca-45e3-b37c-932d08094502","ios":"levelo://app?vid=3a528c7f-78ca-45e3-b37c-932d08094502"},"vehicle_type_id":"4","last_reported":1744146568,"current_range_meters":8400,"station_id":"ce4bh0p2rcd13ifvqd70","pricing_plan_id":"cebpf4jnsgd1na2vs0mg"},{"bike_id":"82f28cf6-556c-431d-a12b-bd3ce5fc2f28","system_id":"levelo_inurba_marseille","lat":43.27504,"lon":5.37729,"is_reserved":false,"is_disabled":false,"rental_uris":{"android":"levelo://app?vid=82f28cf6-556c-431d-a12b-bd3ce5fc2f28","ios":"levelo://app?vid=82f28cf6-556c-431d-a12b-bd3ce5fc2f28"},"vehicle_type_id":"4","last_reported":1744146568,"current_range_meters":8400,"station_id":"","pricing_plan_id":"cebpf4jnsgd1na2vs0mg"},{"bike_id":"d45266db-ce1c-4e80-92b5-33f447d0f24d","system_id":"levelo_inurba_marseille","lat":43.24659,"lon":5.38166,"is_reserved":false,"is_disabled":false,"rental_uris":{"android":"levelo://app?vid=d45266db-ce1c-4e80-92b5-33f447d0f24d","ios":"levelo://app?vid=d45266db-ce1c-4e80-92b5-33f447d0f24d"},"vehicle_type_id":"4","last_reported":1744146568,"current_range_meters":8400,"station_id":"ce4bhih2rcd13ifvqfr0","pricing_plan_id":"cebpf4jnsgd1na2vs0mg"},{"bike_id":"abe869f6-b9c1-4c77-a06e-893567811d7a","system_id":"levelo_inurba_marseille","lat":43.294162,"lon":5.386227,"is_reserved":false,"is_disabled":false,"rental_uris":{"android":"levelo://app?vid=abe869f6-b9c1-4c77-a06e-893567811d7a","ios":"levelo://app?vid=abe869f6-b9c1-4c77-a06e-893567811d7a"},"vehicle_type_id":"4","last_reported":1744146568,"current_range_meters":8400,"station_id":"ce4bho92rcd13ifvqh3g","pricing_plan_id":"cebpf4jnsgd1na2vs0mg"},{"bike_id":"56a4a4a4-4316-44d3-9501-d08029498d76","system_id":"levelo_inurba_marseille","lat":43.24804,"lon":5.37455,"is_reserved":false,"is_disabled":false,"rental_uris":{"android":"levelo://app?vid=56a4a4a4-4316-44d3-9501-d08029498d76","ios":"levelo://app?vid=56a4a4a4-4316-44d3-9501-d08029498d76"},"vehicle_type_id":"4","last_reported":1744146568,"current_range_meters":8400,"station_id":"ce4bhgh2rcd13ifvqfb0","pricing_plan_id":"cebpf4jnsgd1na2vs0mg"},{"bike_id":"49bd6e77-d561-4866-886e-a2b311584d16","system_id":"levelo_inurba_marseille","lat":43.286638,"lon":5.36353,"is_reserved":false,"is_disabled":false,"rental_uris":{"android":"levelo://app?vid=49bd6e77-d561-4866-886e-a2b311584d16","ios":"levelo://app?vid=49bd6e77-d561-4866-886e-a2b311584d16"},"vehicle_type_id":"4","last_reported":1744146568,"current_range_meters":8400,"station_id":"ce4bhah2rcd13ifvqej0","pricing_plan_id":"cebpf4jnsgd1na2vs0mg"},{"bike_id":"81b4eeec-d26b-4050-a92d-04743fb93072","system_id":"levelo_inurba_marseille","lat":43.23191,"lon":5.39983,"is_reserved":false,"is_disabled":true,"rental_uris":{"android":"levelo://app?vid=81b4eeec-d26b-4050-a92d-04743fb93072","ios":"levelo://app?vid=81b4eeec-d26b-4050-a92d-04743fb93072"},"vehicle_type_id":"4","last_reported":1744146568,"current_range_meters":8400,"station_id":"ce4bhn12rcd13ifvqgqg","pricing_plan_id":"cebpf4jnsgd1na2vs0mg"},{"bike_id":"70810d3e-9936-4863-b211-84f880613e88","system_id":"levelo_inurba_marseille","lat":43.31289,"lon":5.37294,"is_reserved":false,"is_disabled":false,"rental_uris":{"android":"levelo://app?vid=70810d3e-9936-4863-b211-84f880613e88","ios":"levelo://app?vid=70810d3e-9936-4863-b211-84f880613e88"},"vehicle_type_id":"4","last_reported":1744146568,"current_range_meters":8400,"station_id":"","pricing_plan_id":"cebpf4jnsgd1na2vs0mg"},{"bike_id":"f7b2b6fd-9044-41e7-aa81-5e02ec54db79","system_id":"levelo_inurba_marseille","lat":43.29719,"lon":5.36622,"is_reserved":false,"is_disabled":false,"rental_uris":{"android":"levelo://app?vid=f7b2b6fd-9044-41e7-aa81-5e02ec54db79","ios":"levelo://app?vid=f7b2b6fd-9044-41e7-aa81-5e02ec54db79"},"vehicle_type_id":"4","last_reported":1744146568,"current_range_meters":8400,"station_id":"ce4bgn12rcd13ifvqbt0","pricing_plan_id":"cebpf4jnsgd1na2vs0mg"},{"bike_id":"d2e37b92-09f3-4680-8cd4-9521f2b1f6a1","system_id":"levelo_inurba_marseille","lat":43.29551,"lon":5.38539,"is_reserved":false,"is_disabled":false,"rental_uris":{"android":"levelo://app?vid=d2e37b92-09f3-4680-8cd4-9521f2b1f6a1","ios":"levelo://app?vid=d2e37b92-09f3-4680-8cd4-9521f2b1f6a1"},"vehicle_type_id":"4","last_reported":1744146568,"current_range_meters":8400,"station_id":"ce4bgih2rcd13ifvqba0","pricing_plan_id":"cebpf4jnsgd1na2vs0mg"},{"bike_id":"5cd1fd40-06f1-4a7e-84bc-4417ad88331e","system_id":"levelo_inurba_marseille","lat":43.2812,"lon":5.37862,"is_reserved":false,"is_disabled":false,"rental_uris":{"android":"levelo://app?vid=5cd1fd40-06f1-4a7e-84bc-4417ad88331e","ios":"levelo://app?vid=5cd1fd40-06f1-4a7e-84bc-4417ad88331e"},"vehicle_type_id":"4","last_reported":1744146568,"current_range_meters":8800,"station_id":"ce4bha12rcd13ifvqee0","pricing_plan_id":"cebpf4jnsgd1na2vs0mg"},{"bike_id":"4e3b9d0e-0c3a-47fe-8d87-d2fe7d5063a5","system_id":"levelo_inurba_marseille","lat":43.30875,"lon":5.39634,"is_reserved":false,"is_disabled":false,"rental_uris":{"android":"levelo://app?vid=4e3b9d0e-0c3a-47fe-8d87-d2fe7d5063a5","ios":"levelo://app?vid=4e3b9d0e-0c3a-47fe-8d87-d2fe7d5063a5"},"vehicle_type_id":"4","last_reported":1744146568,"current_range_meters":8800,"station_id":"ce4bh012rcd13ifvqcv0","pricing_plan_id":"cebpf4jnsgd1na2vs0mg"},{"bike_id":"ec41b842-c84f-4ab1-894c-fc6101e00efb","system_id":"levelo_inurba_marseille","lat":43.31687,"lon":5.40298,"is_reserved":false,"is_disabled":false,"rental_uris":{"android":"levelo://app?vid=ec41b842-c84f-4ab1-894c-fc6101e00efb","ios":"levelo://app?vid=ec41b842-c84f-4ab1-894c-fc6101e00efb"},"vehicle_type_id":"4","last_reported":1744146568,"current_range_meters":8800,"station_id":"","pricing_plan_id":"cebpf4jnsgd1na2vs0mg"},{"bike_id":"ad53d0a4-da1a-47ff-a1fe-f15416737e09","system_id":"levelo_inurba_marseille","lat":43.292743,"lon":5.401037,"is_reserved":false,"is_disabled":false,"rental_uris":{"android":"levelo://app?vid=ad53d0a4-da1a-47ff-a1fe-f15416737e09","ios":"levelo://app?vid=ad53d0a4-da1a-47ff-a1fe-f15416737e09"},"vehicle_type_id":"4","last_reported":1744146568,"current_range_meters":8800,"station_id":"ce4bh312rcd13ifvqdk0","pricing_plan_id":"cebpf4jnsgd1na2vs0mg"},{"bike_id":"2f5e2435-717c-4d93-9eb2-bfd5ae86f2fb","system_id":"levelo_inurba_marseille","lat":43.30052,"lon":5.39094,"is_reserved":false,"is_disabled":false,"rental_uris":{"android":"levelo://app?vid=2f5e2435-717c-4d93-9eb2-bfd5ae86f2fb","ios":"levelo://app?vid=2f5e2435-717c-4d93-9eb2-bfd5ae86f2fb"},"vehicle_type_id":"4","last_reported":1744146568,"current_range_meters":8400,"station_id":"ce4bh192rcd13ifvqdb0","pricing_plan_id":"cebpf4jnsgd1na2vs0mg"},{"bike_id":"37b2591d-7265-4820-a87b-554301495f71","system_id":"levelo_inurba_marseille","lat":43.28947,"lon":5.36642,"is_reserved":false,"is_disabled":true,"rental_uris":{"android":"levelo://app?vid=37b2591d-7265-4820-a87b-554301495f71","ios":"levelo://app?vid=37b2591d-7265-4820-a87b-554301495f71"},"vehicle_type_id":"4","last_reported":1744146568,"current_range_meters":9200,"station_id":"ce4bhap2rcd13ifvqek0","pricing_plan_id":"cebpf4jnsgd1na2vs0mg"},{"bike_id":"9b757910-c3ed-4a06-a368-8bfd9d50c7d2","system_id":"levelo_inurba_marseille","lat":43.28402,"lon":5.37495,"is_reserved":false,"is_disabled":false,"rental_uris":{"android":"levelo://app?vid=9b757910-c3ed-4a06-a368-8bfd9d50c7d2","ios":"levelo://app?vid=9b757910-c3ed-4a06-a368-8bfd9d50c7d2"},"vehicle_type_id":"4","last_reported":1744146568,"current_range_meters":9200,"station_id":"ce4bh412rcd13ifvqds0","pricing_plan_id":"cebpf4jnsgd1na2vs0mg"},{"bike_id":"7f754e4a-077a-469a-a722-7e86af70d5f0","system_id":"levelo_inurba_marseille","lat":43.29547,"lon":5.40004,"is_reserved":false,"is_disabled":false,"rental_uris":{"android":"levelo://app?vid=7f754e4a-077a-469a-a722-7e86af70d5f0","ios":"levelo://app?vid=7f754e4a-077a-469a-a722-7e86af70d5f0"},"vehicle_type_id":"4","last_reported":1744146568,"current_range_meters":9200,"station_id":"ce4bh312rcd13ifvqdj0","pricing_plan_id":"cebpf4jnsgd1na2vs0mg"},{"bike_id":"98dc8e3b-f052-4f53-9f40-371303435505","system_id":"levelo_inurba_marseille","lat":43.26193,"lon":5.37443,"is_reserved":false,"is_disabled":false,"rental_uris":{"android":"levelo://app?vid=98dc8e3b-f052-4f53-9f40-371303435505","ios":"levelo://app?vid=98dc8e3b-f052-4f53-9f40-371303435505"},"vehicle_type_id":"4","last_reported":1744146568,"current_range_meters":9200,"station_id":"ce4bhgp2rcd13ifvqfc0","pricing_plan_id":"cebpf4jnsgd1na2vs0mg"},{"bike_id":"3d0cae43-5b75-4aac-b7cb-471ce1151dd5","system_id":"levelo_inurba_marseille","lat":43.33025,"lon":5.39521,"is_reserved":false,"is_disabled":false,"rental_uris":{"android":"levelo://app?vid=3d0cae43-5b75-4aac-b7cb-471ce1151dd5","ios":"levelo://app?vid=3d0cae43-5b75-4aac-b7cb-471ce1151dd5"},"vehicle_type_id":"4","last_reported":1744146568,"current_range_meters":9200,"station_id":"","pricing_plan_id":"cebpf4jnsgd1na2vs0mg"},{"bike_id":"9ae6852b-6b22-43ab-9ed3-b9ba4d298e4b","system_id":"levelo_inurba_marseille","lat":43.26225,"lon":5.4045,"is_reserved":false,"is_disabled":false,"rental_uris":{"android":"levelo://app?vid=9ae6852b-6b22-43ab-9ed3-b9ba4d298e4b","ios":"levelo://app?vid=9ae6852b-6b22-43ab-9ed3-b9ba4d298e4b"},"vehicle_type_id":"4","last_reported":1744146568,"current_range_meters":9200,"station_id":"ce4bhmh2rcd13ifvqgmg","pricing_plan_id":"cebpf4jnsgd1na2vs0mg"},{"bike_id":"b17fbd70-7e18-4693-8ec2-f4287e5034a5","system_id":"levelo_inurba_marseille","lat":43.29015,"lon":5.38622,"is_reserved":false,"is_disabled":false,"rental_uris":{"android":"levelo://app?vid=b17fbd70-7e18-4693-8ec2-f4287e5034a5","ios":"levelo://app?vid=b17fbd70-7e18-4693-8ec2-f4287e5034a5"},"vehicle_type_id":"4","last_reported":1744146568,"current_range_meters":9200,"station_id":"ce4bh4p2rcd13ifvqe0g","pricing_plan_id":"cebpf4jnsgd1na2vs0mg"},{"bike_id":"40ca292a-76ff-4d5b-8d13-4fd0ee6d51c4","system_id":"levelo_inurba_marseille","lat":43.29685,"lon":5.37626,"is_reserved":false,"is_disabled":false,"rental_uris":{"android":"levelo://app?vid=40ca292a-76ff-4d5b-8d13-4fd0ee6d51c4","ios":"levelo://app?vid=40ca292a-76ff-4d5b-8d13-4fd0ee6d51c4"},"vehicle_type_id":"4","last_reported":1744146568,"current_range_meters":9200,"station_id":"","pricing_plan_id":"cebpf4jnsgd1na2vs0mg"},{"bike_id":"0cf8032b-9016-4630-b350-7d0879be21f0","system_id":"levelo_inurba_marseille","lat":43.30569,"lon":5.37326,"is_reserved":false,"is_disabled":false,"rental_uris":{"android":"levelo://app?vid=0cf8032b-9016-4630-b350-7d0879be21f0","ios":"levelo://app?vid=0cf8032b-9016-4630-b350-7d0879be21f0"},"vehicle_type_id":"4","last_reported":1744146568,"current_range_meters":9600,"station_id":"","pricing_plan_id":"cebpf4jnsgd1na2vs0mg"},{"bike_id":"96d0fc19-6495-4847-9110-3ba0e4d66b74","system_id":"levelo_inurba_marseille","lat":43.303197,"lon":5.404328,"is_reserved":false,"is_disabled":false,"rental_uris":{"android":"levelo://app?vid=96d0fc19-6495-4847-9110-3ba0e4d66b74","ios":"levelo://app?vid=96d0fc19-6495-4847-9110-3ba0e4d66b74"},"vehicle_type_id":"4","last_reported":1744146568,"current_range_meters":9200,"station_id":"ce4bh012rcd13ifvqd10","pricing_plan_id":"cebpf4jnsgd1na2vs0mg"},{"bike_id":"5e6ad826-38da-4531-b4ba-2eda8622ede3","system_id":"levelo_inurba_marseille","lat":43.31094,"lon":5.4046,"is_reserved":false,"is_disabled":false,"rental_uris":{"android":"levelo://app?vid=5e6ad826-38da-4531-b4ba-2eda8622ede3","ios":"levelo://app?vid=5e6ad826-38da-4531-b4ba-2eda8622ede3"},"vehicle_type_id":"4","last_reported":1744146568,"current_range_meters":9200,"station_id":"","pricing_plan_id":"cebpf4jnsgd1na2vs0mg"},{"bike_id":"7ab1cfeb-8935-4bfd-a210-331c212db326","system_id":"levelo_inurba_marseille","lat":43.29533,"lon":5.38537,"is_reserved":false,"is_disabled":false,"rental_uris":{"android":"levelo://app?vid=7ab1cfeb-8935-4bfd-a210-331c212db326","ios":"levelo://app?vid=7ab1cfeb-8935-4bfd-a210-331c212db326"},"vehicle_type_id":"4","last_reported":1744146568,"current_range_meters":9200,"station_id":"ce4bgih2rcd13ifvqba0","pricing_plan_id":"cebpf4jnsgd1na2vs0mg"},{"bike_id":"930f8f1f-9c1c-4d73-8fa0-15b8d8a442fe","system_id":"levelo_inurba_marseille","lat":43.29406,"lon":5.38624,"is_reserved":false,"is_disabled":false,"rental_uris":{"android":"levelo://app?vid=930f8f1f-9c1c-4d73-8fa0-15b8d8a442fe","ios":"levelo://app?vid=930f8f1f-9c1c-4d73-8fa0-15b8d8a442fe"},"vehicle_type_id":"4","last_reported":1744146568,"current_range_meters":9200,"station_id":"ce4bh2h2rcd13ifvqdh0","pricing_plan_id":"cebpf4jnsgd1na2vs0mg"},{"bike_id":"8c3a87bc-d5ff-412d-93d9-dc60835ec37a","system_id":"levelo_inurba_marseille","lat":43.28854,"lon":5.35858,"is_reserved":false,"is_disabled":false,"rental_uris":{"android":"levelo://app?vid=8c3a87bc-d5ff-412d-93d9-dc60835ec37a","ios":"levelo://app?vid=8c3a87bc-d5ff-412d-93d9-dc60835ec37a"},"vehicle_type_id":"4","last_reported":1744146568,"current_range_meters":9600,"station_id":"ce4bhb12rcd13ifvqem0","pricing_plan_id":"cebpf4jnsgd1na2vs0mg"},{"bike_id":"ba31ca11-97eb-4d79-834f-b589c64930f4","system_id":"levelo_inurba_marseille","lat":43.29708,"lon":5.36618,"is_reserved":false,"is_disabled":false,"rental_uris":{"android":"levelo://app?vid=ba31ca11-97eb-4d79-834f-b589c64930f4","ios":"levelo://app?vid=ba31ca11-97eb-4d79-834f-b589c64930f4"},"vehicle_type_id":"4","last_reported":1744146568,"current_range_meters":9600,"station_id":"ce4bgn12rcd13ifvqbt0","pricing_plan_id":"cebpf4jnsgd1na2vs0mg"},{"bike_id":"206a1704-c4cf-4570-a1fc-6ea0bdf2b66a","system_id":"levelo_inurba_marseille","lat":43.29194,"lon":5.39352,"is_reserved":false,"is_disabled":false,"rental_uris":{"android":"levelo://app?vid=206a1704-c4cf-4570-a1fc-6ea0bdf2b66a","ios":"levelo://app?vid=206a1704-c4cf-4570-a1fc-6ea0bdf2b66a"},"vehicle_type_id":"4","last_reported":1744146568,"current_range_meters":9600,"station_id":"ce4bh192rcd13ifvqdd0","pricing_plan_id":"cebpf4jnsgd1na2vs0mg"},{"bike_id":"92e751ad-a6dc-45f0-b006-3bc25d5954a6","system_id":"levelo_inurba_marseille","lat":43.289399,"lon":5.366357,"is_reserved":false,"is_disabled":false,"rental_uris":{"android":"levelo://app?vid=92e751ad-a6dc-45f0-b006-3bc25d5954a6","ios":"levelo://app?vid=92e751ad-a6dc-45f0-b006-3bc25d5954a6"},"vehicle_type_id":"4","last_reported":1744146568,"current_range_meters":9600,"station_id":"ce4bhap2rcd13ifvqek0","pricing_plan_id":"cebpf4jnsgd1na2vs0mg"},{"bike_id":"df136d95-e79c-413e-88c1-df03fad44875","system_id":"levelo_inurba_marseille","lat":43.31071,"lon":5.38343,"is_reserved":false,"is_disabled":false,"rental_uris":{"android":"levelo://app?vid=df136d95-e79c-413e-88c1-df03fad44875","ios":"levelo://app?vid=df136d95-e79c-413e-88c1-df03fad44875"},"vehicle_type_id":"4","last_reported":1744146568,"current_range_meters":9600,"station_id":"ce4bgv92rcd13ifvqcr0","pricing_plan_id":"cebpf4jnsgd1na2vs0mg"},{"bike_id":"68d1cc33-0218-451e-8e10-d32225c21263","system_id":"levelo_inurba_marseille","lat":43.23146,"lon":5.43698,"is_reserved":false,"is_disabled":true,"rental_uris":{"android":"levelo://app?vid=68d1cc33-0218-451e-8e10-d32225c21263","ios":"levelo://app?vid=68d1cc33-0218-451e-8e10-d32225c21263"},"vehicle_type_id":"4","last_reported":1744146568,"current_range_meters":9600,"station_id":"ce4bhmp2rcd13ifvqgog","pricing_plan_id":"cebpf4jnsgd1na2vs0mg"},{"bike_id":"03463ad5-a25d-43f4-b789-bb8878e17078","system_id":"levelo_inurba_marseille","lat":43.27833,"lon":5.39206,"is_reserved":false,"is_disabled":false,"rental_uris":{"android":"levelo://app?vid=03463ad5-a25d-43f4-b789-bb8878e17078","ios":"levelo://app?vid=03463ad5-a25d-43f4-b789-bb8878e17078"},"vehicle_type_id":"4","last_reported":1744146568,"current_range_meters":9600,"station_id":"ce4bhjp2rcd13ifvqga0","pricing_plan_id":"cebpf4jnsgd1na2vs0mg"},{"bike_id":"1b96eb49-ce49-4647-a6d7-d55db9a48315","system_id":"levelo_inurba_marseille","lat":43.323364,"lon":5.40623,"is_reserved":false,"is_disabled":false,"rental_uris":{"android":"levelo://app?vid=1b96eb49-ce49-4647-a6d7-d55db9a48315","ios":"levelo://app?vid=1b96eb49-ce49-4647-a6d7-d55db9a48315"},"vehicle_type_id":"4","last_reported":1744146568,"current_range_meters":9600,"station_id":"ce4bhq92rcd13ifvqhjg","pricing_plan_id":"cebpf4jnsgd1na2vs0mg"},{"bike_id":"f1b3c0ee-1239-478a-87cc-7b3899e208aa","system_id":"levelo_inurba_marseille","lat":43.28352,"lon":5.38097,"is_reserved":false,"is_disabled":false,"rental_uris":{"android":"levelo://app?vid=f1b3c0ee-1239-478a-87cc-7b3899e208aa","ios":"levelo://app?vid=f1b3c0ee-1239-478a-87cc-7b3899e208aa"},"vehicle_type_id":"4","last_reported":1744146568,"current_range_meters":9600,"station_id":"ce4bh412rcd13ifvqdr0","pricing_plan_id":"cebpf4jnsgd1na2vs0mg"},{"bike_id":"ff85d859-6e25-4ab6-9dd4-461048d94450","system_id":"levelo_inurba_marseille","lat":43.31172,"lon":5.38716,"is_reserved":false,"is_disabled":false,"rental_uris":{"android":"levelo://app?vid=ff85d859-6e25-4ab6-9dd4-461048d94450","ios":"levelo://app?vid=ff85d859-6e25-4ab6-9dd4-461048d94450"},"vehicle_type_id":"4","last_reported":1744146568,"current_range_meters":10000,"station_id":"ce4bgv12rcd13ifvqcp0","pricing_plan_id":"cebpf4jnsgd1na2vs0mg"},{"bike_id":"c75d140a-e17c-4b84-9e69-a98bb193d68b","system_id":"levelo_inurba_marseille","lat":43.336,"lon":5.41031,"is_reserved":false,"is_disabled":false,"rental_uris":{"android":"levelo://app?vid=c75d140a-e17c-4b84-9e69-a98bb193d68b","ios":"levelo://app?vid=c75d140a-e17c-4b84-9e69-a98bb193d68b"},"vehicle_type_id":"4","last_reported":1744146568,"current_range_meters":10000,"station_id":"ce4bhqh2rcd13ifvqhmg","pricing_plan_id":"cebpf4jnsgd1na2vs0mg"},{"bike_id":"6af5c8a6-6e6f-47d5-8681-346a73801d42","system_id":"levelo_inurba_marseille","lat":43.30774,"lon":5.38161,"is_reserved":false,"is_disabled":false,"rental_uris":{"android":"levelo://app?vid=6af5c8a6-6e6f-47d5-8681-346a73801d42","ios":"levelo://app?vid=6af5c8a6-6e6f-47d5-8681-346a73801d42"},"vehicle_type_id":"4","last_reported":1744146568,"current_range_meters":10000,"station_id":"ce4bgt12rcd13ifvqce0","pricing_plan_id":"cebpf4jnsgd1na2vs0mg"},{"bike_id":"a9a51fd8-61e4-48d3-832b-62d65e9e355e","system_id":"levelo_inurba_marseille","lat":43.25121,"lon":5.40321,"is_reserved":false,"is_disabled":false,"rental_uris":{"android":"levelo://app?vid=a9a51fd8-61e4-48d3-832b-62d65e9e355e","ios":"levelo://app?vid=a9a51fd8-61e4-48d3-832b-62d65e9e355e"},"vehicle_type_id":"4","last_reported":1744146568,"current_range_meters":10000,"station_id":"ce4bhlh2rcd13ifvqgig","pricing_plan_id":"cebpf4jnsgd1na2vs0mg"},{"bike_id":"4b2937b2-181e-4485-9356-c12fb210030a","system_id":"levelo_inurba_marseille","lat":43.28411,"lon":5.37522,"is_reserved":false,"is_disabled":false,"rental_uris":{"android":"levelo://app?vid=4b2937b2-181e-4485-9356-c12fb210030a","ios":"levelo://app?vid=4b2937b2-181e-4485-9356-c12fb210030a"},"vehicle_type_id":"4","last_reported":1744146568,"current_range_meters":10000,"station_id":"ce4bh412rcd13ifvqds0","pricing_plan_id":"cebpf4jnsgd1na2vs0mg"},{"bike_id":"0aa02c49-cbb3-4907-a588-f754056f3ba8","system_id":"levelo_inurba_marseille","lat":43.308,"lon":5.38156,"is_reserved":false,"is_disabled":true,"rental_uris":{"android":"levelo://app?vid=0aa02c49-cbb3-4907-a588-f754056f3ba8","ios":"levelo://app?vid=0aa02c49-cbb3-4907-a588-f754056f3ba8"},"vehicle_type_id":"4","last_reported":1744146568,"current_range_meters":10000,"station_id":"ce4bgt12rcd13ifvqce0","pricing_plan_id":"cebpf4jnsgd1na2vs0mg"},{"bike_id":"ca1cb9af-e981-4da8-ae84-4ca0779eecf9","system_id":"levelo_inurba_marseille","lat":43.31488,"lon":5.373057,"is_reserved":false,"is_disabled":false,"rental_uris":{"android":"levelo://app?vid=ca1cb9af-e981-4da8-ae84-4ca0779eecf9","ios":"levelo://app?vid=ca1cb9af-e981-4da8-ae84-4ca0779eecf9"},"vehicle_type_id":"4","last_reported":1744146568,"current_range_meters":10000,"station_id":"ce4bgt12rcd13ifvqcd0","pricing_plan_id":"cebpf4jnsgd1na2vs0mg"},{"bike_id":"557e216a-f1fd-448c-87dc-bf453f47c735","system_id":"levelo_inurba_marseille","lat":43.2924,"lon":5.40908,"is_reserved":false,"is_disabled":false,"rental_uris":{"android":"levelo://app?vid=557e216a-f1fd-448c-87dc-bf453f47c735","ios":"levelo://app?vid=557e216a-f1fd-448c-87dc-bf453f47c735"},"vehicle_type_id":"4","last_reported":1744146568,"current_range_meters":10000,"station_id":"ce4bh192rcd13ifvqdc0","pricing_plan_id":"cebpf4jnsgd1na2vs0mg"},{"bike_id":"dbe61d62-f779-4d7d-82fe-6df46a011a15","system_id":"levelo_inurba_marseille","lat":43.24799,"lon":5.37451,"is_reserved":false,"is_disabled":false,"rental_uris":{"android":"levelo://app?vid=dbe61d62-f779-4d7d-82fe-6df46a011a15","ios":"levelo://app?vid=dbe61d62-f779-4d7d-82fe-6df46a011a15"},"vehicle_type_id":"4","last_reported":1744146568,"current_range_meters":10800,"station_id":"ce4bhgh2rcd13ifvqfb0","pricing_plan_id":"cebpf4jnsgd1na2vs0mg"},{"bike_id":"1ca7d0c4-b7aa-4350-ad9f-4e24c2ba029a","system_id":"levelo_inurba_marseille","lat":43.30372,"lon":5.42534,"is_reserved":false,"is_disabled":true,"rental_uris":{"android":"levelo://app?vid=1ca7d0c4-b7aa-4350-ad9f-4e24c2ba029a","ios":"levelo://app?vid=1ca7d0c4-b7aa-4350-ad9f-4e24c2ba029a"},"vehicle_type_id":"4","last_reported":1744146568,"current_range_meters":10800,"station_id":"","pricing_plan_id":"cebpf4jnsgd1na2vs0mg"},{"bike_id":"1d4cc106-d69d-407d-b87c-1ac7ece2fdb8","system_id":"levelo_inurba_marseille","lat":43.31069,"lon":5.38348,"is_reserved":false,"is_disabled":false,"rental_uris":{"android":"levelo://app?vid=1d4cc106-d69d-407d-b87c-1ac7ece2fdb8","ios":"levelo://app?vid=1d4cc106-d69d-407d-b87c-1ac7ece2fdb8"},"vehicle_type_id":"4","last_reported":1744146568,"current_range_meters":10800,"station_id":"ce4bgv92rcd13ifvqcr0","pricing_plan_id":"cebpf4jnsgd1na2vs0mg"},{"bike_id":"95689897-fa9d-475d-ba89-a3d96e067c50","system_id":"levelo_inurba_marseille","lat":43.30257,"lon":5.40075,"is_reserved":false,"is_disabled":false,"rental_uris":{"android":"levelo://app?vid=95689897-fa9d-475d-ba89-a3d96e067c50","ios":"levelo://app?vid=95689897-fa9d-475d-ba89-a3d96e067c50"},"vehicle_type_id":"4","last_reported":1744146568,"current_range_meters":10800,"station_id":"ce4bgvh2rcd13ifvqcs0","pricing_plan_id":"cebpf4jnsgd1na2vs0mg"},{"bike_id":"2219d906-d8eb-4861-9914-1da6aead283d","system_id":"levelo_inurba_marseille","lat":43.31065,"lon":5.38377,"is_reserved":false,"is_disabled":false,"rental_uris":{"android":"levelo://app?vid=2219d906-d8eb-4861-9914-1da6aead283d","ios":"levelo://app?vid=2219d906-d8eb-4861-9914-1da6aead283d"},"vehicle_type_id":"4","last_reported":1744146568,"current_range_meters":10800,"station_id":"ce4bgv92rcd13ifvqcr0","pricing_plan_id":"cebpf4jnsgd1na2vs0mg"},{"bike_id":"08f9c0c8-8b33-4578-8a03-20f44d582241","system_id":"levelo_inurba_marseille","lat":43.30596,"lon":5.37162,"is_reserved":false,"is_disabled":false,"rental_uris":{"android":"levelo://app?vid=08f9c0c8-8b33-4578-8a03-20f44d582241","ios":"levelo://app?vid=08f9c0c8-8b33-4578-8a03-20f44d582241"},"vehicle_type_id":"4","last_reported":1744146568,"current_range_meters":10800,"station_id":"","pricing_plan_id":"cebpf4jnsgd1na2vs0mg"},{"bike_id":"7bbaafda-b5fc-4a12-8e6a-4c7bfb25d3b7","system_id":"levelo_inurba_marseille","lat":43.31715,"lon":5.42406,"is_reserved":false,"is_disabled":false,"rental_uris":{"android":"levelo://app?vid=7bbaafda-b5fc-4a12-8e6a-4c7bfb25d3b7","ios":"levelo://app?vid=7bbaafda-b5fc-4a12-8e6a-4c7bfb25d3b7"},"vehicle_type_id":"4","last_reported":1744146568,"current_range_meters":10800,"station_id":"ce4bhp92rcd13ifvqhbg","pricing_plan_id":"cebpf4jnsgd1na2vs0mg"},{"bike_id":"e34f7c01-c5fa-4cd6-8388-b5cd12b4b9c7","system_id":"levelo_inurba_marseille","lat":43.28602,"lon":5.35108,"is_reserved":false,"is_disabled":true,"rental_uris":{"android":"levelo://app?vid=e34f7c01-c5fa-4cd6-8388-b5cd12b4b9c7","ios":"levelo://app?vid=e34f7c01-c5fa-4cd6-8388-b5cd12b4b9c7"},"vehicle_type_id":"4","last_reported":1744146568,"current_range_meters":10800,"station_id":"ce4bhch2rcd13ifvqeug","pricing_plan_id":"cebpf4jnsgd1na2vs0mg"},{"bike_id":"546a3976-9f8c-40bf-8a6a-f02c67815294","system_id":"levelo_inurba_marseille","lat":43.28428,"lon":5.39162,"is_reserved":false,"is_disabled":false,"rental_uris":{"android":"levelo://app?vid=546a3976-9f8c-40bf-8a6a-f02c67815294","ios":"levelo://app?vid=546a3976-9f8c-40bf-8a6a-f02c67815294"},"vehicle_type_id":"4","last_reported":1744146568,"current_range_meters":11200,"station_id":"ce4bhoh2rcd13ifvqh5g","pricing_plan_id":"cebpf4jnsgd1na2vs0mg"},{"bike_id":"9fce7fb9-26b6-4832-9f96-ea1b75c489f0","system_id":"levelo_inurba_marseille","lat":43.23187,"lon":5.35556,"is_reserved":false,"is_disabled":false,"rental_uris":{"android":"levelo://app?vid=9fce7fb9-26b6-4832-9f96-ea1b75c489f0","ios":"levelo://app?vid=9fce7fb9-26b6-4832-9f96-ea1b75c489f0"},"vehicle_type_id":"4","last_reported":1744146568,"current_range_meters":11200,"station_id":"ce4bhu92rcd13ifvqi70","pricing_plan_id":"cebpf4jnsgd1na2vs0mg"},{"bike_id":"a396175d-4372-4172-bc6f-f5acf9ab3e7b","system_id":"levelo_inurba_marseille","lat":43.29562,"lon":5.39973,"is_reserved":false,"is_disabled":false,"rental_uris":{"android":"levelo://app?vid=a396175d-4372-4172-bc6f-f5acf9ab3e7b","ios":"levelo://app?vid=a396175d-4372-4172-bc6f-f5acf9ab3e7b"},"vehicle_type_id":"4","last_reported":1744146568,"current_range_meters":11200,"station_id":"ce4bh312rcd13ifvqdj0","pricing_plan_id":"cebpf4jnsgd1na2vs0mg"},{"bike_id":"957353d4-9983-4f94-899c-582a70d62764","system_id":"levelo_inurba_marseille","lat":43.25724,"lon":5.41106,"is_reserved":false,"is_disabled":false,"rental_uris":{"android":"levelo://app?vid=957353d4-9983-4f94-899c-582a70d62764","ios":"levelo://app?vid=957353d4-9983-4f94-899c-582a70d62764"},"vehicle_type_id":"4","last_reported":1744146568,"current_range_meters":11200,"station_id":"ce4bhkp2rcd13ifvqgd0","pricing_plan_id":"cebpf4jnsgd1na2vs0mg"},{"bike_id":"ade4f32d-7c6e-4698-af59-be03f5a8ba7c","system_id":"levelo_inurba_marseille","lat":43.27994,"lon":5.41645,"is_reserved":false,"is_disabled":false,"rental_uris":{"android":"levelo://app?vid=ade4f32d-7c6e-4698-af59-be03f5a8ba7c","ios":"levelo://app?vid=ade4f32d-7c6e-4698-af59-be03f5a8ba7c"},"vehicle_type_id":"4","last_reported":1744146568,"current_range_meters":11200,"station_id":"ce4bho12rcd13ifvqh1g","pricing_plan_id":"cebpf4jnsgd1na2vs0mg"},{"bike_id":"05ebd012-a397-44d6-8d3a-b4fd8a759a09","system_id":"levelo_inurba_marseille","lat":43.30777,"lon":5.43526,"is_reserved":false,"is_disabled":false,"rental_uris":{"android":"levelo://app?vid=05ebd012-a397-44d6-8d3a-b4fd8a759a09","ios":"levelo://app?vid=05ebd012-a397-44d6-8d3a-b4fd8a759a09"},"vehicle_type_id":"4","last_reported":1744146568,"current_range_meters":11200,"station_id":"ce4bhph2rcd13ifvqheg","pricing_plan_id":"cebpf4jnsgd1na2vs0mg"},{"bike_id":"098b34c4-10a2-481f-b2a3-61f7a3b8f4ed","system_id":"levelo_inurba_marseille","lat":43.30933,"lon":5.40161,"is_reserved":false,"is_disabled":false,"rental_uris":{"android":"levelo://app?vid=098b34c4-10a2-481f-b2a3-61f7a3b8f4ed","ios":"levelo://app?vid=098b34c4-10a2-481f-b2a3-61f7a3b8f4ed"},"vehicle_type_id":"4","last_reported":1744146568,"current_range_meters":11200,"station_id":"ce4bgvp2rcd13ifvqct0","pricing_plan_id":"cebpf4jnsgd1na2vs0mg"},{"bike_id":"8cb93f06-0f24-4001-b155-0ddabb0c57f2","system_id":"levelo_inurba_marseille","lat":43.23146,"lon":5.4372,"is_reserved":false,"is_disabled":false,"rental_uris":{"android":"levelo://app?vid=8cb93f06-0f24-4001-b155-0ddabb0c57f2","ios":"levelo://app?vid=8cb93f06-0f24-4001-b155-0ddabb0c57f2"},"vehicle_type_id":"4","last_reported":1744146568,"current_range_meters":11200,"station_id":"ce4bhmp2rcd13ifvqgog","pricing_plan_id":"cebpf4jnsgd1na2vs0mg"},{"bike_id":"b397701f-0d3d-44bf-ab3e-3ccc7e74fb2e","system_id":"levelo_inurba_marseille","lat":43.264559,"lon":5.422674,"is_reserved":false,"is_disabled":false,"rental_uris":{"android":"levelo://app?vid=b397701f-0d3d-44bf-ab3e-3ccc7e74fb2e","ios":"levelo://app?vid=b397701f-0d3d-44bf-ab3e-3ccc7e74fb2e"},"vehicle_type_id":"4","last_reported":1744146568,"current_range_meters":11200,"station_id":"","pricing_plan_id":"cebpf4jnsgd1na2vs0mg"},{"bike_id":"0dcd3596-1b1a-4a56-91e8-c928b0f7bc51","system_id":"levelo_inurba_marseille","lat":43.31534,"lon":5.38035,"is_reserved":false,"is_disabled":false,"rental_uris":{"android":"levelo://app?vid=0dcd3596-1b1a-4a56-91e8-c928b0f7bc51","ios":"levelo://app?vid=0dcd3596-1b1a-4a56-91e8-c928b0f7bc51"},"vehicle_type_id":"4","last_reported":1744146568,"current_range_meters":11600,"station_id":"ce4bhsp2rcd13ifvqi50","pricing_plan_id":"cebpf4jnsgd1na2vs0mg"},{"bike_id":"e50f3dc9-8c8f-43c1-9141-0ee8d31a7229","system_id":"levelo_inurba_marseille","lat":43.28019,"lon":5.36953,"is_reserved":false,"is_disabled":false,"rental_uris":{"android":"levelo://app?vid=e50f3dc9-8c8f-43c1-9141-0ee8d31a7229","ios":"levelo://app?vid=e50f3dc9-8c8f-43c1-9141-0ee8d31a7229"},"vehicle_type_id":"4","last_reported":1744146568,"current_range_meters":11200,"station_id":"ce4bha12rcd13ifvqef0","pricing_plan_id":"cebpf4jnsgd1na2vs0mg"},{"bike_id":"80663e12-6b64-446d-88c9-20255bde1a8a","system_id":"levelo_inurba_marseille","lat":43.30886,"lon":5.39654,"is_reserved":false,"is_disabled":true,"rental_uris":{"android":"levelo://app?vid=80663e12-6b64-446d-88c9-20255bde1a8a","ios":"levelo://app?vid=80663e12-6b64-446d-88c9-20255bde1a8a"},"vehicle_type_id":"4","last_reported":1744146568,"current_range_meters":11600,"station_id":"ce4bh012rcd13ifvqcv0","pricing_plan_id":"cebpf4jnsgd1na2vs0mg"},{"bike_id":"ae8acc12-d36d-43ae-9b5c-d788c29ead74","system_id":"levelo_inurba_marseille","lat":43.24814,"lon":5.37462,"is_reserved":false,"is_disabled":false,"rental_uris":{"android":"levelo://app?vid=ae8acc12-d36d-43ae-9b5c-d788c29ead74","ios":"levelo://app?vid=ae8acc12-d36d-43ae-9b5c-d788c29ead74"},"vehicle_type_id":"4","last_reported":1744146568,"current_range_meters":11600,"station_id":"ce4bhgh2rcd13ifvqfb0","pricing_plan_id":"cebpf4jnsgd1na2vs0mg"},{"bike_id":"a67f3026-44eb-4216-ab2b-2a41c419a168","system_id":"levelo_inurba_marseille","lat":43.281605,"lon":5.370237,"is_reserved":false,"is_disabled":false,"rental_uris":{"android":"levelo://app?vid=a67f3026-44eb-4216-ab2b-2a41c419a168","ios":"levelo://app?vid=a67f3026-44eb-4216-ab2b-2a41c419a168"},"vehicle_type_id":"4","last_reported":1744146568,"current_range_meters":11600,"station_id":"ce4bha12rcd13ifvqef0","pricing_plan_id":"cebpf4jnsgd1na2vs0mg"},{"bike_id":"eb644b94-1dc3-40e3-ba63-8a08ecda79c0","system_id":"levelo_inurba_marseille","lat":43.255823,"lon":5.382385,"is_reserved":false,"is_disabled":false,"rental_uris":{"android":"levelo://app?vid=eb644b94-1dc3-40e3-ba63-8a08ecda79c0","ios":"levelo://app?vid=eb644b94-1dc3-40e3-ba63-8a08ecda79c0"},"vehicle_type_id":"4","last_reported":1744146568,"current_range_meters":11600,"station_id":"ce4bhih2rcd13ifvqfs0","pricing_plan_id":"cebpf4jnsgd1na2vs0mg"},{"bike_id":"0ee2e0c3-3a98-444b-bc62-75ca3dd3eabd","system_id":"levelo_inurba_marseille","lat":43.28342,"lon":5.381,"is_reserved":false,"is_disabled":false,"rental_uris":{"android":"levelo://app?vid=0ee2e0c3-3a98-444b-bc62-75ca3dd3eabd","ios":"levelo://app?vid=0ee2e0c3-3a98-444b-bc62-75ca3dd3eabd"},"vehicle_type_id":"4","last_reported":1744146568,"current_range_meters":12000,"station_id":"ce4bh412rcd13ifvqdr0","pricing_plan_id":"cebpf4jnsgd1na2vs0mg"},{"bike_id":"ebae96c6-135d-4301-9591-5fd7bb8e5397","system_id":"levelo_inurba_marseille","lat":43.29278,"lon":5.40127,"is_reserved":false,"is_disabled":false,"rental_uris":{"android":"levelo://app?vid=ebae96c6-135d-4301-9591-5fd7bb8e5397","ios":"levelo://app?vid=ebae96c6-135d-4301-9591-5fd7bb8e5397"},"vehicle_type_id":"4","last_reported":1744146568,"current_range_meters":12000,"station_id":"ce4bh312rcd13ifvqdk0","pricing_plan_id":"cebpf4jnsgd1na2vs0mg"},{"bike_id":"111c76dd-f0f7-46e3-85a8-314ab6ead02d","system_id":"levelo_inurba_marseille","lat":43.24656,"lon":5.38163,"is_reserved":false,"is_disabled":false,"rental_uris":{"android":"levelo://app?vid=111c76dd-f0f7-46e3-85a8-314ab6ead02d","ios":"levelo://app?vid=111c76dd-f0f7-46e3-85a8-314ab6ead02d"},"vehicle_type_id":"4","last_reported":1744146568,"current_range_meters":12000,"station_id":"ce4bhih2rcd13ifvqfr0","pricing_plan_id":"cebpf4jnsgd1na2vs0mg"},{"bike_id":"729edbc8-bee8-42d2-a91e-b237ab67d2d3","system_id":"levelo_inurba_marseille","lat":43.27069,"lon":5.42278,"is_reserved":false,"is_disabled":false,"rental_uris":{"android":"levelo://app?vid=729edbc8-bee8-42d2-a91e-b237ab67d2d3","ios":"levelo://app?vid=729edbc8-bee8-42d2-a91e-b237ab67d2d3"},"vehicle_type_id":"4","last_reported":1744146568,"current_range_meters":11600,"station_id":"ce4bhk92rcd13ifvqgb0","pricing_plan_id":"cebpf4jnsgd1na2vs0mg"},{"bike_id":"05c83a82-3289-4ba5-9a2e-b976c5b9a9b4","system_id":"levelo_inurba_marseille","lat":43.29422,"lon":5.3861,"is_reserved":false,"is_disabled":false,"rental_uris":{"android":"levelo://app?vid=05c83a82-3289-4ba5-9a2e-b976c5b9a9b4","ios":"levelo://app?vid=05c83a82-3289-4ba5-9a2e-b976c5b9a9b4"},"vehicle_type_id":"4","last_reported":1744146568,"current_range_meters":12000,"station_id":"ce4bh2h2rcd13ifvqdh0","pricing_plan_id":"cebpf4jnsgd1na2vs0mg"},{"bike_id":"fee8e70d-3dbf-493e-a350-a76fa563c89b","system_id":"levelo_inurba_marseille","lat":43.27561,"lon":5.384297,"is_reserved":false,"is_disabled":false,"rental_uris":{"android":"levelo://app?vid=fee8e70d-3dbf-493e-a350-a76fa563c89b","ios":"levelo://app?vid=fee8e70d-3dbf-493e-a350-a76fa563c89b"},"vehicle_type_id":"4","last_reported":1744146568,"current_range_meters":12400,"station_id":"ce4bhh92rcd13ifvqfi0","pricing_plan_id":"cebpf4jnsgd1na2vs0mg"},{"bike_id":"6ab91a54-57cd-4508-b51e-2f52b8fb3cf4","system_id":"levelo_inurba_marseille","lat":43.29875,"lon":5.38906,"is_reserved":false,"is_disabled":false,"rental_uris":{"android":"levelo://app?vid=6ab91a54-57cd-4508-b51e-2f52b8fb3cf4","ios":"levelo://app?vid=6ab91a54-57cd-4508-b51e-2f52b8fb3cf4"},"vehicle_type_id":"4","last_reported":1744146568,"current_range_meters":12400,"station_id":"ce4bh392rcd13ifvqdl0","pricing_plan_id":"cebpf4jnsgd1na2vs0mg"},{"bike_id":"894923f7-24a8-4f05-8d0c-1af4b4d3211a","system_id":"levelo_inurba_marseille","lat":43.303069,"lon":5.39205,"is_reserved":false,"is_disabled":true,"rental_uris":{"android":"levelo://app?vid=894923f7-24a8-4f05-8d0c-1af4b4d3211a","ios":"levelo://app?vid=894923f7-24a8-4f05-8d0c-1af4b4d3211a"},"vehicle_type_id":"4","last_reported":1744146568,"current_range_meters":12400,"station_id":"ce4bgkh2rcd13ifvqbk0","pricing_plan_id":"cebpf4jnsgd1na2vs0mg"},{"bike_id":"8379372e-c06d-426f-85f9-acdc4eafa151","system_id":"levelo_inurba_marseille","lat":43.21743,"lon":5.34603,"is_reserved":false,"is_disabled":true,"rental_uris":{"android":"levelo://app?vid=8379372e-c06d-426f-85f9-acdc4eafa151","ios":"levelo://app?vid=8379372e-c06d-426f-85f9-acdc4eafa151"},"vehicle_type_id":"4","last_reported":1744146568,"current_range_meters":12400,"station_id":"st_cvj6r9ubvosntc0bgbag","pricing_plan_id":"cebpf4jnsgd1na2vs0mg"},{"bike_id":"fe554949-79fc-40fb-9308-e13fc7147f59","system_id":"levelo_inurba_marseille","lat":43.31073,"lon":5.42438,"is_reserved":false,"is_disabled":false,"rental_uris":{"android":"levelo://app?vid=fe554949-79fc-40fb-9308-e13fc7147f59","ios":"levelo://app?vid=fe554949-79fc-40fb-9308-e13fc7147f59"},"vehicle_type_id":"4","last_reported":1744146568,"current_range_meters":12400,"station_id":"ce4bhp92rcd13ifvqhag","pricing_plan_id":"cebpf4jnsgd1na2vs0mg"},{"bike_id":"6fee220c-0468-42ff-9a2f-d0d8a2025df0","system_id":"levelo_inurba_marseille","lat":43.31328,"lon":5.39688,"is_reserved":false,"is_disabled":false,"rental_uris":{"android":"levelo://app?vid=6fee220c-0468-42ff-9a2f-d0d8a2025df0","ios":"levelo://app?vid=6fee220c-0468-42ff-9a2f-d0d8a2025df0"},"vehicle_type_id":"4","last_reported":1744146568,"current_range_meters":12800,"station_id":"ce4bgvp2rcd13ifvqcu0","pricing_plan_id":"cebpf4jnsgd1na2vs0mg"},{"bike_id":"2b539354-2334-4f2e-883c-1328a00d046f","system_id":"levelo_inurba_marseille","lat":43.27824,"lon":5.39213,"is_reserved":false,"is_disabled":false,"rental_uris":{"android":"levelo://app?vid=2b539354-2334-4f2e-883c-1328a00d046f","ios":"levelo://app?vid=2b539354-2334-4f2e-883c-1328a00d046f"},"vehicle_type_id":"4","last_reported":1744146568,"current_range_meters":12800,"station_id":"ce4bhjp2rcd13ifvqga0","pricing_plan_id":"cebpf4jnsgd1na2vs0mg"},{"bike_id":"76055e52-9550-430a-942e-266679872c8d","system_id":"levelo_inurba_marseille","lat":43.28662,"lon":5.36342,"is_reserved":false,"is_disabled":false,"rental_uris":{"android":"levelo://app?vid=76055e52-9550-430a-942e-266679872c8d","ios":"levelo://app?vid=76055e52-9550-430a-942e-266679872c8d"},"vehicle_type_id":"4","last_reported":1744146568,"current_range_meters":12800,"station_id":"ce4bhah2rcd13ifvqej0","pricing_plan_id":"cebpf4jnsgd1na2vs0mg"},{"bike_id":"612731d2-d819-48e3-b425-db5915ef53ee","system_id":"levelo_inurba_marseille","lat":43.28117,"lon":5.37865,"is_reserved":false,"is_disabled":false,"rental_uris":{"android":"levelo://app?vid=612731d2-d819-48e3-b425-db5915ef53ee","ios":"levelo://app?vid=612731d2-d819-48e3-b425-db5915ef53ee"},"vehicle_type_id":"4","last_reported":1744146568,"current_range_meters":12800,"station_id":"ce4bha12rcd13ifvqee0","pricing_plan_id":"cebpf4jnsgd1na2vs0mg"},{"bike_id":"507cd00d-2154-4494-b000-241a78332fc7","system_id":"levelo_inurba_marseille","lat":43.28447,"lon":5.35892,"is_reserved":false,"is_disabled":false,"rental_uris":{"android":"levelo://app?vid=507cd00d-2154-4494-b000-241a78332fc7","ios":"levelo://app?vid=507cd00d-2154-4494-b000-241a78332fc7"},"vehicle_type_id":"4","last_reported":1744146568,"current_range_meters":13600,"station_id":"ce4bhah2rcd13ifvqei0","pricing_plan_id":"cebpf4jnsgd1na2vs0mg"},{"bike_id":"75d9cc88-2117-44c3-9d56-d428c47d1f06","system_id":"levelo_inurba_marseille","lat":43.25111,"lon":5.40334,"is_reserved":false,"is_disabled":false,"rental_uris":{"android":"levelo://app?vid=75d9cc88-2117-44c3-9d56-d428c47d1f06","ios":"levelo://app?vid=75d9cc88-2117-44c3-9d56-d428c47d1f06"},"vehicle_type_id":"4","last_reported":1744146568,"current_range_meters":13600,"station_id":"ce4bhlh2rcd13ifvqgig","pricing_plan_id":"cebpf4jnsgd1na2vs0mg"},{"bike_id":"022f0036-d183-476e-8539-c410d028d994","system_id":"levelo_inurba_marseille","lat":43.29041,"lon":5.39974,"is_reserved":false,"is_disabled":false,"rental_uris":{"android":"levelo://app?vid=022f0036-d183-476e-8539-c410d028d994","ios":"levelo://app?vid=022f0036-d183-476e-8539-c410d028d994"},"vehicle_type_id":"4","last_reported":1744146568,"current_range_meters":13600,"station_id":"ce4bh392rcd13ifvqdm0","pricing_plan_id":"cebpf4jnsgd1na2vs0mg"},{"bike_id":"e3b368ff-54fa-43ed-99a8-1821b1f73801","system_id":"levelo_inurba_marseille","lat":43.2903,"lon":5.38638,"is_reserved":false,"is_disabled":false,"rental_uris":{"android":"levelo://app?vid=e3b368ff-54fa-43ed-99a8-1821b1f73801","ios":"levelo://app?vid=e3b368ff-54fa-43ed-99a8-1821b1f73801"},"vehicle_type_id":"4","last_reported":1744146568,"current_range_meters":13600,"station_id":"ce4bh4p2rcd13ifvqe0g","pricing_plan_id":"cebpf4jnsgd1na2vs0mg"},{"bike_id":"4612345c-75a3-4189-8a6d-651578d0ecd4","system_id":"levelo_inurba_marseille","lat":43.24829,"lon":5.37444,"is_reserved":false,"is_disabled":true,"rental_uris":{"android":"levelo://app?vid=4612345c-75a3-4189-8a6d-651578d0ecd4","ios":"levelo://app?vid=4612345c-75a3-4189-8a6d-651578d0ecd4"},"vehicle_type_id":"4","last_reported":1744146568,"current_range_meters":14000,"station_id":"ce4bhgh2rcd13ifvqfb0","pricing_plan_id":"cebpf4jnsgd1na2vs0mg"},{"bike_id":"8eccc3d9-19cb-4c1d-b27f-e3b5feee92ea","system_id":"levelo_inurba_marseille","lat":43.229316,"lon":5.353769,"is_reserved":false,"is_disabled":false,"rental_uris":{"android":"levelo://app?vid=8eccc3d9-19cb-4c1d-b27f-e3b5feee92ea","ios":"levelo://app?vid=8eccc3d9-19cb-4c1d-b27f-e3b5feee92ea"},"vehicle_type_id":"4","last_reported":1744146568,"current_range_meters":14000,"station_id":"cpo3532slgdg3j2ikp40","pricing_plan_id":"cebpf4jnsgd1na2vs0mg"},{"bike_id":"77bf1b8c-314e-4df8-8865-c0b5cdb8fbee","system_id":"levelo_inurba_marseille","lat":43.25087,"lon":5.395196,"is_reserved":false,"is_disabled":false,"rental_uris":{"android":"levelo://app?vid=77bf1b8c-314e-4df8-8865-c0b5cdb8fbee","ios":"levelo://app?vid=77bf1b8c-314e-4df8-8865-c0b5cdb8fbee"},"vehicle_type_id":"4","last_reported":1744146568,"current_range_meters":14000,"station_id":"ce4bhm12rcd13ifvqgkg","pricing_plan_id":"cebpf4jnsgd1na2vs0mg"},{"bike_id":"5cef5330-1ce4-4a84-af6e-c73f86416aa1","system_id":"levelo_inurba_marseille","lat":43.2319,"lon":5.35541,"is_reserved":false,"is_disabled":false,"rental_uris":{"android":"levelo://app?vid=5cef5330-1ce4-4a84-af6e-c73f86416aa1","ios":"levelo://app?vid=5cef5330-1ce4-4a84-af6e-c73f86416aa1"},"vehicle_type_id":"4","last_reported":1744146568,"current_range_meters":14000,"station_id":"ce4bhu92rcd13ifvqi70","pricing_plan_id":"cebpf4jnsgd1na2vs0mg"},{"bike_id":"c3887e15-c656-45e0-adf4-d565bd215c33","system_id":"levelo_inurba_marseille","lat":43.30262,"lon":5.40056,"is_reserved":false,"is_disabled":false,"rental_uris":{"android":"levelo://app?vid=c3887e15-c656-45e0-adf4-d565bd215c33","ios":"levelo://app?vid=c3887e15-c656-45e0-adf4-d565bd215c33"},"vehicle_type_id":"4","last_reported":1744146568,"current_range_meters":14000,"station_id":"ce4bgvh2rcd13ifvqcs0","pricing_plan_id":"cebpf4jnsgd1na2vs0mg"},{"bike_id":"dc92e84f-c532-4ea5-ba73-f4002b6f85aa","system_id":"levelo_inurba_marseille","lat":43.298974,"lon":5.436618,"is_reserved":false,"is_disabled":false,"rental_uris":{"android":"levelo://app?vid=dc92e84f-c532-4ea5-ba73-f4002b6f85aa","ios":"levelo://app?vid=dc92e84f-c532-4ea5-ba73-f4002b6f85aa"},"vehicle_type_id":"4","last_reported":1744146568,"current_range_meters":14000,"station_id":"ce4bhpp2rcd13ifvqhfg","pricing_plan_id":"cebpf4jnsgd1na2vs0mg"},{"bike_id":"a0dc90c3-e3a3-4b74-8b3c-7c45d442c462","system_id":"levelo_inurba_marseille","lat":43.29708,"lon":5.36611,"is_reserved":false,"is_disabled":false,"rental_uris":{"android":"levelo://app?vid=a0dc90c3-e3a3-4b74-8b3c-7c45d442c462","ios":"levelo://app?vid=a0dc90c3-e3a3-4b74-8b3c-7c45d442c462"},"vehicle_type_id":"4","last_reported":1744146568,"current_range_meters":14000,"station_id":"ce4bgn12rcd13ifvqbt0","pricing_plan_id":"cebpf4jnsgd1na2vs0mg"},{"bike_id":"fc6adbd9-2933-4ce3-9706-d59df17b53d6","system_id":"levelo_inurba_marseille","lat":43.30891,"lon":5.37074,"is_reserved":false,"is_disabled":false,"rental_uris":{"android":"levelo://app?vid=fc6adbd9-2933-4ce3-9706-d59df17b53d6","ios":"levelo://app?vid=fc6adbd9-2933-4ce3-9706-d59df17b53d6"},"vehicle_type_id":"4","last_reported":1744146568,"current_range_meters":14400,"station_id":"","pricing_plan_id":"cebpf4jnsgd1na2vs0mg"},{"bike_id":"e24c6fd3-f9cb-40c7-9e57-dd2c20540e9b","system_id":"levelo_inurba_marseille","lat":43.31723,"lon":5.4241,"is_reserved":false,"is_disabled":false,"rental_uris":{"android":"levelo://app?vid=e24c6fd3-f9cb-40c7-9e57-dd2c20540e9b","ios":"levelo://app?vid=e24c6fd3-f9cb-40c7-9e57-dd2c20540e9b"},"vehicle_type_id":"4","last_reported":1744146568,"current_range_meters":14400,"station_id":"ce4bhp92rcd13ifvqhbg","pricing_plan_id":"cebpf4jnsgd1na2vs0mg"},{"bike_id":"75a266eb-85dd-4c22-a199-3f72063c6511","system_id":"levelo_inurba_marseille","lat":43.26206,"lon":5.37438,"is_reserved":false,"is_disabled":false,"rental_uris":{"android":"levelo://app?vid=75a266eb-85dd-4c22-a199-3f72063c6511","ios":"levelo://app?vid=75a266eb-85dd-4c22-a199-3f72063c6511"},"vehicle_type_id":"4","last_reported":1744146568,"current_range_meters":14400,"station_id":"ce4bhgp2rcd13ifvqfc0","pricing_plan_id":"cebpf4jnsgd1na2vs0mg"},{"bike_id":"061d0a44-ce2c-4048-bd87-735996161c5a","system_id":"levelo_inurba_marseille","lat":43.316332,"lon":5.373315,"is_reserved":false,"is_disabled":false,"rental_uris":{"android":"levelo://app?vid=061d0a44-ce2c-4048-bd87-735996161c5a","ios":"levelo://app?vid=061d0a44-ce2c-4048-bd87-735996161c5a"},"vehicle_type_id":"4","last_reported":1744146568,"current_range_meters":14400,"station_id":"ce4bhs12rcd13ifvqhvg","pricing_plan_id":"cebpf4jnsgd1na2vs0mg"},{"bike_id":"1fad9df5-7127-4a09-91da-1fedcf97b2a1","system_id":"levelo_inurba_marseille","lat":43.29973,"lon":5.37179,"is_reserved":false,"is_disabled":false,"rental_uris":{"android":"levelo://app?vid=1fad9df5-7127-4a09-91da-1fedcf97b2a1","ios":"levelo://app?vid=1fad9df5-7127-4a09-91da-1fedcf97b2a1"},"vehicle_type_id":"4","last_reported":1744146568,"current_range_meters":14800,"station_id":"ce4bgr92rcd13ifvqc7g","pricing_plan_id":"cebpf4jnsgd1na2vs0mg"},{"bike_id":"5e84043f-8df0-4b6b-a0d7-581555c0b430","system_id":"levelo_inurba_marseille","lat":43.31332,"lon":5.39686,"is_reserved":false,"is_disabled":false,"rental_uris":{"android":"levelo://app?vid=5e84043f-8df0-4b6b-a0d7-581555c0b430","ios":"levelo://app?vid=5e84043f-8df0-4b6b-a0d7-581555c0b430"},"vehicle_type_id":"4","last_reported":1744146568,"current_range_meters":14800,"station_id":"ce4bgvp2rcd13ifvqcu0","pricing_plan_id":"cebpf4jnsgd1na2vs0mg"},{"bike_id":"606a193b-cd9c-4902-b91a-b77f6adc5e47","system_id":"levelo_inurba_marseille","lat":43.28436,"lon":5.39182,"is_reserved":false,"is_disabled":false,"rental_uris":{"android":"levelo://app?vid=606a193b-cd9c-4902-b91a-b77f6adc5e47","ios":"levelo://app?vid=606a193b-cd9c-4902-b91a-b77f6adc5e47"},"vehicle_type_id":"4","last_reported":1744146568,"current_range_meters":15200,"station_id":"ce4bhoh2rcd13ifvqh5g","pricing_plan_id":"cebpf4jnsgd1na2vs0mg"},{"bike_id":"9ee718c0-ea57-42ff-a704-f0ad84c3a7e6","system_id":"levelo_inurba_marseille","lat":43.29025,"lon":5.38639,"is_reserved":false,"is_disabled":false,"rental_uris":{"android":"levelo://app?vid=9ee718c0-ea57-42ff-a704-f0ad84c3a7e6","ios":"levelo://app?vid=9ee718c0-ea57-42ff-a704-f0ad84c3a7e6"},"vehicle_type_id":"4","last_reported":1744146568,"current_range_meters":14800,"station_id":"ce4bh4p2rcd13ifvqe0g","pricing_plan_id":"cebpf4jnsgd1na2vs0mg"},{"bike_id":"cd962847-3885-4a6a-bf9e-b95d449c734a","system_id":"levelo_inurba_marseille","lat":43.29547,"lon":5.42292,"is_reserved":false,"is_disabled":false,"rental_uris":{"android":"levelo://app?vid=cd962847-3885-4a6a-bf9e-b95d449c734a","ios":"levelo://app?vid=cd962847-3885-4a6a-bf9e-b95d449c734a"},"vehicle_type_id":"4","last_reported":1744146568,"current_range_meters":15200,"station_id":"ce4bhph2rcd13ifvqhdg","pricing_plan_id":"cebpf4jnsgd1na2vs0mg"},{"bike_id":"f53331ce-1edf-4754-a071-c887ba20ad8f","system_id":"levelo_inurba_marseille","lat":43.23961,"lon":5.36627,"is_reserved":false,"is_disabled":false,"rental_uris":{"android":"levelo://app?vid=f53331ce-1edf-4754-a071-c887ba20ad8f","ios":"levelo://app?vid=f53331ce-1edf-4754-a071-c887ba20ad8f"},"vehicle_type_id":"4","last_reported":1744146568,"current_range_meters":15200,"station_id":"ce4bhi12rcd13ifvqfp0","pricing_plan_id":"cebpf4jnsgd1na2vs0mg"},{"bike_id":"46c99737-914c-4908-aeb8-48d54b22c93a","system_id":"levelo_inurba_marseille","lat":43.31718,"lon":5.42407,"is_reserved":false,"is_disabled":false,"rental_uris":{"android":"levelo://app?vid=46c99737-914c-4908-aeb8-48d54b22c93a","ios":"levelo://app?vid=46c99737-914c-4908-aeb8-48d54b22c93a"},"vehicle_type_id":"4","last_reported":1744146568,"current_range_meters":15200,"station_id":"ce4bhp92rcd13ifvqhbg","pricing_plan_id":"cebpf4jnsgd1na2vs0mg"},{"bike_id":"b9665310-ec8e-4a03-8353-c7e11de67893","system_id":"levelo_inurba_marseille","lat":43.27556,"lon":5.38421,"is_reserved":false,"is_disabled":false,"rental_uris":{"android":"levelo://app?vid=b9665310-ec8e-4a03-8353-c7e11de67893","ios":"levelo://app?vid=b9665310-ec8e-4a03-8353-c7e11de67893"},"vehicle_type_id":"4","last_reported":1744146568,"current_range_meters":16000,"station_id":"ce4bhh92rcd13ifvqfi0","pricing_plan_id":"cebpf4jnsgd1na2vs0mg"},{"bike_id":"1e099cf5-9456-4ac3-8d36-9153ce8a87f2","system_id":"levelo_inurba_marseille","lat":43.29579,"lon":5.39967,"is_reserved":false,"is_disabled":true,"rental_uris":{"android":"levelo://app?vid=1e099cf5-9456-4ac3-8d36-9153ce8a87f2","ios":"levelo://app?vid=1e099cf5-9456-4ac3-8d36-9153ce8a87f2"},"vehicle_type_id":"4","last_reported":1744146568,"current_range_meters":16000,"station_id":"ce4bh312rcd13ifvqdj0","pricing_plan_id":"cebpf4jnsgd1na2vs0mg"},{"bike_id":"976cec5e-1d70-490b-bdf7-6c40c593f342","system_id":"levelo_inurba_marseille","lat":43.2922,"lon":5.39323,"is_reserved":false,"is_disabled":false,"rental_uris":{"android":"levelo://app?vid=976cec5e-1d70-490b-bdf7-6c40c593f342","ios":"levelo://app?vid=976cec5e-1d70-490b-bdf7-6c40c593f342"},"vehicle_type_id":"4","last_reported":1744146568,"current_range_meters":16000,"station_id":"ce4bh192rcd13ifvqdd0","pricing_plan_id":"cebpf4jnsgd1na2vs0mg"},{"bike_id":"bdc4b697-9674-4fda-b5a3-e6251dbe8ef0","system_id":"levelo_inurba_marseille","lat":43.295692,"lon":5.375239,"is_reserved":false,"is_disabled":false,"rental_uris":{"android":"levelo://app?vid=bdc4b697-9674-4fda-b5a3-e6251dbe8ef0","ios":"levelo://app?vid=bdc4b697-9674-4fda-b5a3-e6251dbe8ef0"},"vehicle_type_id":"4","last_reported":1744146568,"current_range_meters":16000,"station_id":"ce4bgk12rcd13ifvqbi0","pricing_plan_id":"cebpf4jnsgd1na2vs0mg"},{"bike_id":"0e5a636e-348d-45ef-a577-497af77b86a3","system_id":"levelo_inurba_marseille","lat":43.29905,"lon":5.381597,"is_reserved":false,"is_disabled":false,"rental_uris":{"android":"levelo://app?vid=0e5a636e-348d-45ef-a577-497af77b86a3","ios":"levelo://app?vid=0e5a636e-348d-45ef-a577-497af77b86a3"},"vehicle_type_id":"4","last_reported":1744146568,"current_range_meters":16000,"station_id":"ce4bgj12rcd13ifvqbc0","pricing_plan_id":"cebpf4jnsgd1na2vs0mg"},{"bike_id":"d118b3dd-7da9-49e4-9cf4-f59ca32a672a","system_id":"levelo_inurba_marseille","lat":43.28414,"lon":5.34978,"is_reserved":false,"is_disabled":false,"rental_uris":{"android":"levelo://app?vid=d118b3dd-7da9-49e4-9cf4-f59ca32a672a","ios":"levelo://app?vid=d118b3dd-7da9-49e4-9cf4-f59ca32a672a"},"vehicle_type_id":"4","last_reported":1744146568,"current_range_meters":16000,"station_id":"ce4bhbh2rcd13ifvqepg","pricing_plan_id":"cebpf4jnsgd1na2vs0mg"},{"bike_id":"6bd6c344-4dd1-46a8-8ef2-458ec94a9d84","system_id":"levelo_inurba_marseille","lat":43.27985,"lon":5.38755,"is_reserved":false,"is_disabled":false,"rental_uris":{"android":"levelo://app?vid=6bd6c344-4dd1-46a8-8ef2-458ec94a9d84","ios":"levelo://app?vid=6bd6c344-4dd1-46a8-8ef2-458ec94a9d84"},"vehicle_type_id":"4","last_reported":1744146568,"current_range_meters":16000,"station_id":"ce4bhg12rcd13ifvqf80","pricing_plan_id":"cebpf4jnsgd1na2vs0mg"},{"bike_id":"883c8d90-abeb-4704-9c82-a9172c11ee9f","system_id":"levelo_inurba_marseille","lat":43.2954,"lon":5.38537,"is_reserved":false,"is_disabled":false,"rental_uris":{"android":"levelo://app?vid=883c8d90-abeb-4704-9c82-a9172c11ee9f","ios":"levelo://app?vid=883c8d90-abeb-4704-9c82-a9172c11ee9f"},"vehicle_type_id":"4","last_reported":1744146568,"current_range_meters":16000,"station_id":"ce4bgih2rcd13ifvqba0","pricing_plan_id":"cebpf4jnsgd1na2vs0mg"},{"bike_id":"7d704dfc-1eb6-49d7-a9df-919a3b5b6c0a","system_id":"levelo_inurba_marseille","lat":43.27813,"lon":5.39216,"is_reserved":false,"is_disabled":false,"rental_uris":{"android":"levelo://app?vid=7d704dfc-1eb6-49d7-a9df-919a3b5b6c0a","ios":"levelo://app?vid=7d704dfc-1eb6-49d7-a9df-919a3b5b6c0a"},"vehicle_type_id":"4","last_reported":1744146568,"current_range_meters":16000,"station_id":"ce4bhjp2rcd13ifvqga0","pricing_plan_id":"cebpf4jnsgd1na2vs0mg"},{"bike_id":"e82d3cbf-6990-4eca-9743-6a7db542c284","system_id":"levelo_inurba_marseille","lat":43.32339,"lon":5.40619,"is_reserved":false,"is_disabled":false,"rental_uris":{"android":"levelo://app?vid=e82d3cbf-6990-4eca-9743-6a7db542c284","ios":"levelo://app?vid=e82d3cbf-6990-4eca-9743-6a7db542c284"},"vehicle_type_id":"4","last_reported":1744146568,"current_range_meters":16000,"station_id":"ce4bhq92rcd13ifvqhjg","pricing_plan_id":"cebpf4jnsgd1na2vs0mg"},{"bike_id":"b2ab7a9b-ab6f-40c3-9641-ca257733fa28","system_id":"levelo_inurba_marseille","lat":43.30811,"lon":5.38159,"is_reserved":false,"is_disabled":false,"rental_uris":{"android":"levelo://app?vid=b2ab7a9b-ab6f-40c3-9641-ca257733fa28","ios":"levelo://app?vid=b2ab7a9b-ab6f-40c3-9641-ca257733fa28"},"vehicle_type_id":"4","last_reported":1744146568,"current_range_meters":16000,"station_id":"ce4bgt12rcd13ifvqce0","pricing_plan_id":"cebpf4jnsgd1na2vs0mg"},{"bike_id":"5273534c-3473-4abd-9c4b-e677a5c1499a","system_id":"levelo_inurba_marseille","lat":43.29037,"lon":5.36962,"is_reserved":false,"is_disabled":false,"rental_uris":{"android":"levelo://app?vid=5273534c-3473-4abd-9c4b-e677a5c1499a","ios":"levelo://app?vid=5273534c-3473-4abd-9c4b-e677a5c1499a"},"vehicle_type_id":"4","last_reported":1744146568,"current_range_meters":16000,"station_id":"","pricing_plan_id":"cebpf4jnsgd1na2vs0mg"},{"bike_id":"bacb9c5b-6c82-412f-8256-7b8a9761a108","system_id":"levelo_inurba_marseille","lat":43.301298,"lon":5.392311,"is_reserved":false,"is_disabled":false,"rental_uris":{"android":"levelo://app?vid=bacb9c5b-6c82-412f-8256-7b8a9761a108","ios":"levelo://app?vid=bacb9c5b-6c82-412f-8256-7b8a9761a108"},"vehicle_type_id":"4","last_reported":1744146568,"current_range_meters":16400,"station_id":"ce4bh0p2rcd13ifvqd70","pricing_plan_id":"cebpf4jnsgd1na2vs0mg"},{"bike_id":"6530ca4f-a646-4648-8000-b12c2c22a131","system_id":"levelo_inurba_marseille","lat":43.2481,"lon":5.37458,"is_reserved":false,"is_disabled":true,"rental_uris":{"android":"levelo://app?vid=6530ca4f-a646-4648-8000-b12c2c22a131","ios":"levelo://app?vid=6530ca4f-a646-4648-8000-b12c2c22a131"},"vehicle_type_id":"4","last_reported":1744146568,"current_range_meters":16400,"station_id":"ce4bhgh2rcd13ifvqfb0","pricing_plan_id":"cebpf4jnsgd1na2vs0mg"},{"bike_id":"f8fd05f6-b019-4162-a9df-dc82b614e530","system_id":"levelo_inurba_marseille","lat":43.28447,"lon":5.39224,"is_reserved":false,"is_disabled":false,"rental_uris":{"android":"levelo://app?vid=f8fd05f6-b019-4162-a9df-dc82b614e530","ios":"levelo://app?vid=f8fd05f6-b019-4162-a9df-dc82b614e530"},"vehicle_type_id":"4","last_reported":1744146568,"current_range_meters":16400,"station_id":"ce4bhoh2rcd13ifvqh5g","pricing_plan_id":"cebpf4jnsgd1na2vs0mg"},{"bike_id":"f732e6ee-b929-4d52-b9e6-b13da1311992","system_id":"levelo_inurba_marseille","lat":43.292857,"lon":5.401246,"is_reserved":false,"is_disabled":false,"rental_uris":{"android":"levelo://app?vid=f732e6ee-b929-4d52-b9e6-b13da1311992","ios":"levelo://app?vid=f732e6ee-b929-4d52-b9e6-b13da1311992"},"vehicle_type_id":"4","last_reported":1744146568,"current_range_meters":16400,"station_id":"ce4bh312rcd13ifvqdk0","pricing_plan_id":"cebpf4jnsgd1na2vs0mg"},{"bike_id":"8608fed8-5511-445a-b382-7039018c22a6","system_id":"levelo_inurba_marseille","lat":43.27089,"lon":5.42347,"is_reserved":false,"is_disabled":false,"rental_uris":{"android":"levelo://app?vid=8608fed8-5511-445a-b382-7039018c22a6","ios":"levelo://app?vid=8608fed8-5511-445a-b382-7039018c22a6"},"vehicle_type_id":"4","last_reported":1744146568,"current_range_meters":16400,"station_id":"","pricing_plan_id":"cebpf4jnsgd1na2vs0mg"},{"bike_id":"def16230-6839-41bc-97e8-197ff2eb3975","system_id":"levelo_inurba_marseille","lat":43.29533,"lon":5.38538,"is_reserved":false,"is_disabled":false,"rental_uris":{"android":"levelo://app?vid=def16230-6839-41bc-97e8-197ff2eb3975","ios":"levelo://app?vid=def16230-6839-41bc-97e8-197ff2eb3975"},"vehicle_type_id":"4","last_reported":1744146568,"current_range_meters":16400,"station_id":"ce4bgih2rcd13ifvqba0","pricing_plan_id":"cebpf4jnsgd1na2vs0mg"},{"bike_id":"88ba98bf-28ff-4e6c-914e-98694c3dc54c","system_id":"levelo_inurba_marseille","lat":43.28688,"lon":5.374074,"is_reserved":false,"is_disabled":false,"rental_uris":{"android":"levelo://app?vid=88ba98bf-28ff-4e6c-914e-98694c3dc54c","ios":"levelo://app?vid=88ba98bf-28ff-4e6c-914e-98694c3dc54c"},"vehicle_type_id":"4","last_reported":1744146568,"current_range_meters":16800,"station_id":"ce4bh3p2rcd13ifvqdq0","pricing_plan_id":"cebpf4jnsgd1na2vs0mg"},{"bike_id":"297e56fc-7ca2-4eaa-88af-2f8bb3eb7566","system_id":"levelo_inurba_marseille","lat":43.30798,"lon":5.38156,"is_reserved":false,"is_disabled":false,"rental_uris":{"android":"levelo://app?vid=297e56fc-7ca2-4eaa-88af-2f8bb3eb7566","ios":"levelo://app?vid=297e56fc-7ca2-4eaa-88af-2f8bb3eb7566"},"vehicle_type_id":"4","last_reported":1744146568,"current_range_meters":16400,"station_id":"ce4bgt12rcd13ifvqce0","pricing_plan_id":"cebpf4jnsgd1na2vs0mg"},{"bike_id":"cfa10923-000d-4d6c-a18c-69dd84627bc9","system_id":"levelo_inurba_marseille","lat":43.302003,"lon":5.388086,"is_reserved":false,"is_disabled":false,"rental_uris":{"android":"levelo://app?vid=cfa10923-000d-4d6c-a18c-69dd84627bc9","ios":"levelo://app?vid=cfa10923-000d-4d6c-a18c-69dd84627bc9"},"vehicle_type_id":"4","last_reported":1744146568,"current_range_meters":16400,"station_id":"ce4bgv92rcd13ifvqcr0","pricing_plan_id":"cebpf4jnsgd1na2vs0mg"},{"bike_id":"047ce789-b8f3-440b-8633-b59d14a4ccd3","system_id":"levelo_inurba_marseille","lat":43.26939,"lon":5.40251,"is_reserved":false,"is_disabled":false,"rental_uris":{"android":"levelo://app?vid=047ce789-b8f3-440b-8633-b59d14a4ccd3","ios":"levelo://app?vid=047ce789-b8f3-440b-8633-b59d14a4ccd3"},"vehicle_type_id":"4","last_reported":1744146568,"current_range_meters":16400,"station_id":"cjm6bp8fraef2m0cb0m0","pricing_plan_id":"cebpf4jnsgd1na2vs0mg"},{"bike_id":"020572ba-a5aa-440a-b36f-c17175204926","system_id":"levelo_inurba_marseille","lat":43.29525,"lon":5.38538,"is_reserved":false,"is_disabled":false,"rental_uris":{"android":"levelo://app?vid=020572ba-a5aa-440a-b36f-c17175204926","ios":"levelo://app?vid=020572ba-a5aa-440a-b36f-c17175204926"},"vehicle_type_id":"4","last_reported":1744146568,"current_range_meters":16400,"station_id":"ce4bgih2rcd13ifvqba0","pricing_plan_id":"cebpf4jnsgd1na2vs0mg"},{"bike_id":"dec00c47-da8d-4bf0-b261-90ff4e867046","system_id":"levelo_inurba_marseille","lat":43.27982,"lon":5.41661,"is_reserved":false,"is_disabled":false,"rental_uris":{"android":"levelo://app?vid=dec00c47-da8d-4bf0-b261-90ff4e867046","ios":"levelo://app?vid=dec00c47-da8d-4bf0-b261-90ff4e867046"},"vehicle_type_id":"4","last_reported":1744146568,"current_range_meters":16400,"station_id":"ce4bho12rcd13ifvqh1g","pricing_plan_id":"cebpf4jnsgd1na2vs0mg"},{"bike_id":"7e488337-315e-40a4-a3f1-0d4cba19e8a8","system_id":"levelo_inurba_marseille","lat":43.24669,"lon":5.38146,"is_reserved":false,"is_disabled":false,"rental_uris":{"android":"levelo://app?vid=7e488337-315e-40a4-a3f1-0d4cba19e8a8","ios":"levelo://app?vid=7e488337-315e-40a4-a3f1-0d4cba19e8a8"},"vehicle_type_id":"4","last_reported":1744146568,"current_range_meters":16400,"station_id":"ce4bhih2rcd13ifvqfr0","pricing_plan_id":"cebpf4jnsgd1na2vs0mg"},{"bike_id":"d4149091-f901-4685-9c82-fdd641c067f5","system_id":"levelo_inurba_marseille","lat":43.24664,"lon":5.38166,"is_reserved":false,"is_disabled":false,"rental_uris":{"android":"levelo://app?vid=d4149091-f901-4685-9c82-fdd641c067f5","ios":"levelo://app?vid=d4149091-f901-4685-9c82-fdd641c067f5"},"vehicle_type_id":"4","last_reported":1744146568,"current_range_meters":16800,"station_id":"ce4bhih2rcd13ifvqfr0","pricing_plan_id":"cebpf4jnsgd1na2vs0mg"},{"bike_id":"edf92683-0c32-4b77-9509-d6f3456c71e1","system_id":"levelo_inurba_marseille","lat":43.30592,"lon":5.39351,"is_reserved":false,"is_disabled":true,"rental_uris":{"android":"levelo://app?vid=edf92683-0c32-4b77-9509-d6f3456c71e1","ios":"levelo://app?vid=edf92683-0c32-4b77-9509-d6f3456c71e1"},"vehicle_type_id":"4","last_reported":1744146568,"current_range_meters":16800,"station_id":"ce4bh0p2rcd13ifvqd80","pricing_plan_id":"cebpf4jnsgd1na2vs0mg"},{"bike_id":"d5d3a988-c5da-4720-a345-12daae6e42f0","system_id":"levelo_inurba_marseille","lat":43.29972,"lon":5.38485,"is_reserved":false,"is_disabled":false,"rental_uris":{"android":"levelo://app?vid=d5d3a988-c5da-4720-a345-12daae6e42f0","ios":"levelo://app?vid=d5d3a988-c5da-4720-a345-12daae6e42f0"},"vehicle_type_id":"4","last_reported":1744146568,"current_range_meters":16800,"station_id":"ce4bgj92rcd13ifvqbd0","pricing_plan_id":"cebpf4jnsgd1na2vs0mg"},{"bike_id":"50db4b0f-056b-4066-ae91-47ae9dd33202","system_id":"levelo_inurba_marseille","lat":43.29528,"lon":5.38541,"is_reserved":false,"is_disabled":false,"rental_uris":{"android":"levelo://app?vid=50db4b0f-056b-4066-ae91-47ae9dd33202","ios":"levelo://app?vid=50db4b0f-056b-4066-ae91-47ae9dd33202"},"vehicle_type_id":"4","last_reported":1744146568,"current_range_meters":16800,"station_id":"ce4bgih2rcd13ifvqba0","pricing_plan_id":"cebpf4jnsgd1na2vs0mg"},{"bike_id":"bebf99fa-a528-4bcf-87cc-101e425c5167","system_id":"levelo_inurba_marseille","lat":43.26934,"lon":5.40255,"is_reserved":false,"is_disabled":false,"rental_uris":{"android":"levelo://app?vid=bebf99fa-a528-4bcf-87cc-101e425c5167","ios":"levelo://app?vid=bebf99fa-a528-4bcf-87cc-101e425c5167"},"vehicle_type_id":"4","last_reported":1744146568,"current_range_meters":16400,"station_id":"cjm6bp8fraef2m0cb0m0","pricing_plan_id":"cebpf4jnsgd1na2vs0mg"},{"bike_id":"52dfef30-eef0-4dd6-a138-a48c8dcc2c3a","system_id":"levelo_inurba_marseille","lat":43.30494,"lon":5.42939,"is_reserved":false,"is_disabled":true,"rental_uris":{"android":"levelo://app?vid=52dfef30-eef0-4dd6-a138-a48c8dcc2c3a","ios":"levelo://app?vid=52dfef30-eef0-4dd6-a138-a48c8dcc2c3a"},"vehicle_type_id":"4","last_reported":1744146568,"current_range_meters":16800,"station_id":"","pricing_plan_id":"cebpf4jnsgd1na2vs0mg"},{"bike_id":"81b593d6-ee15-4f80-80d0-437e82e4e51c","system_id":"levelo_inurba_marseille","lat":43.27171,"lon":5.40991,"is_reserved":false,"is_disabled":false,"rental_uris":{"android":"levelo://app?vid=81b593d6-ee15-4f80-80d0-437e82e4e51c","ios":"levelo://app?vid=81b593d6-ee15-4f80-80d0-437e82e4e51c"},"vehicle_type_id":"4","last_reported":1744146568,"current_range_meters":16800,"station_id":"ce4bhl12rcd13ifvqgf0","pricing_plan_id":"cebpf4jnsgd1na2vs0mg"},{"bike_id":"bb8c20fc-e5c2-49eb-89e1-be1bff38b1bc","system_id":"levelo_inurba_marseille","lat":43.295395,"lon":5.385459,"is_reserved":false,"is_disabled":false,"rental_uris":{"android":"levelo://app?vid=bb8c20fc-e5c2-49eb-89e1-be1bff38b1bc","ios":"levelo://app?vid=bb8c20fc-e5c2-49eb-89e1-be1bff38b1bc"},"vehicle_type_id":"4","last_reported":1744146568,"current_range_meters":16800,"station_id":"ce4bgih2rcd13ifvqba0","pricing_plan_id":"cebpf4jnsgd1na2vs0mg"},{"bike_id":"f59c962d-e3aa-411f-b6eb-24802869fd2c","system_id":"levelo_inurba_marseille","lat":43.2176,"lon":5.34595,"is_reserved":false,"is_disabled":false,"rental_uris":{"android":"levelo://app?vid=f59c962d-e3aa-411f-b6eb-24802869fd2c","ios":"levelo://app?vid=f59c962d-e3aa-411f-b6eb-24802869fd2c"},"vehicle_type_id":"4","last_reported":1744146568,"current_range_meters":16800,"station_id":"st_cvj6r9ubvosntc0bgbag","pricing_plan_id":"cebpf4jnsgd1na2vs0mg"},{"bike_id":"e2267f0c-d827-414b-b770-932c79aaf9a0","system_id":"levelo_inurba_marseille","lat":43.28424,"lon":5.39181,"is_reserved":false,"is_disabled":false,"rental_uris":{"android":"levelo://app?vid=e2267f0c-d827-414b-b770-932c79aaf9a0","ios":"levelo://app?vid=e2267f0c-d827-414b-b770-932c79aaf9a0"},"vehicle_type_id":"4","last_reported":1744146568,"current_range_meters":16800,"station_id":"ce4bhoh2rcd13ifvqh5g","pricing_plan_id":"cebpf4jnsgd1na2vs0mg"},{"bike_id":"b37944fb-f9c1-4c8e-ac3a-9da227afb433","system_id":"levelo_inurba_marseille","lat":43.30814,"lon":5.3815,"is_reserved":false,"is_disabled":true,"rental_uris":{"android":"levelo://app?vid=b37944fb-f9c1-4c8e-ac3a-9da227afb433","ios":"levelo://app?vid=b37944fb-f9c1-4c8e-ac3a-9da227afb433"},"vehicle_type_id":"4","last_reported":1744146568,"current_range_meters":16800,"station_id":"ce4bgt12rcd13ifvqce0","pricing_plan_id":"cebpf4jnsgd1na2vs0mg"},{"bike_id":"4d213367-ff85-4d7b-b918-df2c932cc61f","system_id":"levelo_inurba_marseille","lat":43.29714,"lon":5.36617,"is_reserved":false,"is_disabled":false,"rental_uris":{"android":"levelo://app?vid=4d213367-ff85-4d7b-b918-df2c932cc61f","ios":"levelo://app?vid=4d213367-ff85-4d7b-b918-df2c932cc61f"},"vehicle_type_id":"4","last_reported":1744146568,"current_range_meters":16800,"station_id":"ce4bgn12rcd13ifvqbt0","pricing_plan_id":"cebpf4jnsgd1na2vs0mg"},{"bike_id":"9c1d7a33-cfb2-425a-93e3-caf1da246a76","system_id":"levelo_inurba_marseille","lat":43.289295,"lon":5.366375,"is_reserved":false,"is_disabled":false,"rental_uris":{"android":"levelo://app?vid=9c1d7a33-cfb2-425a-93e3-caf1da246a76","ios":"levelo://app?vid=9c1d7a33-cfb2-425a-93e3-caf1da246a76"},"vehicle_type_id":"4","last_reported":1744146568,"current_range_meters":17200,"station_id":"","pricing_plan_id":"cebpf4jnsgd1na2vs0mg"},{"bike_id":"8dc20961-1d9e-4b25-a34f-4cf0046efaf2","system_id":"levelo_inurba_marseille","lat":43.30339,"lon":5.4048,"is_reserved":false,"is_disabled":false,"rental_uris":{"android":"levelo://app?vid=8dc20961-1d9e-4b25-a34f-4cf0046efaf2","ios":"levelo://app?vid=8dc20961-1d9e-4b25-a34f-4cf0046efaf2"},"vehicle_type_id":"4","last_reported":1744146568,"current_range_meters":17200,"station_id":"ce4bh012rcd13ifvqd10","pricing_plan_id":"cebpf4jnsgd1na2vs0mg"},{"bike_id":"4f20fc10-8c35-481b-8dc5-bc54d44ce8af","system_id":"levelo_inurba_marseille","lat":43.2791,"lon":5.38011,"is_reserved":false,"is_disabled":false,"rental_uris":{"android":"levelo://app?vid=4f20fc10-8c35-481b-8dc5-bc54d44ce8af","ios":"levelo://app?vid=4f20fc10-8c35-481b-8dc5-bc54d44ce8af"},"vehicle_type_id":"4","last_reported":1744146568,"current_range_meters":17200,"station_id":"ce4bhf92rcd13ifvqf50","pricing_plan_id":"cebpf4jnsgd1na2vs0mg"},{"bike_id":"b3014d67-1beb-4a0f-a0f5-829e0d2a4492","system_id":"levelo_inurba_marseille","lat":43.21756,"lon":5.34614,"is_reserved":false,"is_disabled":false,"rental_uris":{"android":"levelo://app?vid=b3014d67-1beb-4a0f-a0f5-829e0d2a4492","ios":"levelo://app?vid=b3014d67-1beb-4a0f-a0f5-829e0d2a4492"},"vehicle_type_id":"4","last_reported":1744146568,"current_range_meters":17200,"station_id":"ce4bhu92rcd13ifvqi70","pricing_plan_id":"cebpf4jnsgd1na2vs0mg"},{"bike_id":"35a14d94-7ae1-4ccb-a30e-39f547babf00","system_id":"levelo_inurba_marseille","lat":43.31178,"lon":5.3872,"is_reserved":false,"is_disabled":false,"rental_uris":{"android":"levelo://app?vid=35a14d94-7ae1-4ccb-a30e-39f547babf00","ios":"levelo://app?vid=35a14d94-7ae1-4ccb-a30e-39f547babf00"},"vehicle_type_id":"4","last_reported":1744146568,"current_range_meters":17200,"station_id":"ce4bgv12rcd13ifvqcp0","pricing_plan_id":"cebpf4jnsgd1na2vs0mg"},{"bike_id":"339717b0-db0e-4437-ae06-2f237623b3c1","system_id":"levelo_inurba_marseille","lat":43.29904,"lon":5.38143,"is_reserved":false,"is_disabled":false,"rental_uris":{"android":"levelo://app?vid=339717b0-db0e-4437-ae06-2f237623b3c1","ios":"levelo://app?vid=339717b0-db0e-4437-ae06-2f237623b3c1"},"vehicle_type_id":"4","last_reported":1744146568,"current_range_meters":17600,"station_id":"ce4bgj12rcd13ifvqbc0","pricing_plan_id":"cebpf4jnsgd1na2vs0mg"},{"bike_id":"389cb267-bb97-45d8-bf71-395c32dccbe9","system_id":"levelo_inurba_marseille","lat":43.28405,"lon":5.37537,"is_reserved":false,"is_disabled":false,"rental_uris":{"android":"levelo://app?vid=389cb267-bb97-45d8-bf71-395c32dccbe9","ios":"levelo://app?vid=389cb267-bb97-45d8-bf71-395c32dccbe9"},"vehicle_type_id":"4","last_reported":1744146568,"current_range_meters":17600,"station_id":"ce4bh412rcd13ifvqds0","pricing_plan_id":"cebpf4jnsgd1na2vs0mg"},{"bike_id":"17fd7f6f-e307-465c-b7a7-f478bcf30dc7","system_id":"levelo_inurba_marseille","lat":43.24662,"lon":5.38167,"is_reserved":false,"is_disabled":false,"rental_uris":{"android":"levelo://app?vid=17fd7f6f-e307-465c-b7a7-f478bcf30dc7","ios":"levelo://app?vid=17fd7f6f-e307-465c-b7a7-f478bcf30dc7"},"vehicle_type_id":"4","last_reported":1744146568,"current_range_meters":17600,"station_id":"ce4bhih2rcd13ifvqfr0","pricing_plan_id":"cebpf4jnsgd1na2vs0mg"},{"bike_id":"b4b93a64-d083-4ab2-bbd0-53609c602fb5","system_id":"levelo_inurba_marseille","lat":43.30923,"lon":5.40148,"is_reserved":false,"is_disabled":true,"rental_uris":{"android":"levelo://app?vid=b4b93a64-d083-4ab2-bbd0-53609c602fb5","ios":"levelo://app?vid=b4b93a64-d083-4ab2-bbd0-53609c602fb5"},"vehicle_type_id":"4","last_reported":1744146568,"current_range_meters":17600,"station_id":"ce4bgvp2rcd13ifvqct0","pricing_plan_id":"cebpf4jnsgd1na2vs0mg"},{"bike_id":"7bd3f7de-3a74-4fff-b4c6-181d8b119e52","system_id":"levelo_inurba_marseille","lat":43.29807,"lon":5.40414,"is_reserved":false,"is_disabled":true,"rental_uris":{"android":"levelo://app?vid=7bd3f7de-3a74-4fff-b4c6-181d8b119e52","ios":"levelo://app?vid=7bd3f7de-3a74-4fff-b4c6-181d8b119e52"},"vehicle_type_id":"4","last_reported":1744146568,"current_range_meters":17600,"station_id":"ce4bh112rcd13ifvqd90","pricing_plan_id":"cebpf4jnsgd1na2vs0mg"},{"bike_id":"d7b2134e-575c-40f1-9b3b-0ad40ab4b220","system_id":"levelo_inurba_marseille","lat":43.29838,"lon":5.43701,"is_reserved":false,"is_disabled":false,"rental_uris":{"android":"levelo://app?vid=d7b2134e-575c-40f1-9b3b-0ad40ab4b220","ios":"levelo://app?vid=d7b2134e-575c-40f1-9b3b-0ad40ab4b220"},"vehicle_type_id":"4","last_reported":1744146568,"current_range_meters":17600,"station_id":"","pricing_plan_id":"cebpf4jnsgd1na2vs0mg"},{"bike_id":"bc6d7d9f-9e03-47fe-817a-1a612db2f0c0","system_id":"levelo_inurba_marseille","lat":43.32357,"lon":5.38882,"is_reserved":false,"is_disabled":false,"rental_uris":{"android":"levelo://app?vid=bc6d7d9f-9e03-47fe-817a-1a612db2f0c0","ios":"levelo://app?vid=bc6d7d9f-9e03-47fe-817a-1a612db2f0c0"},"vehicle_type_id":"4","last_reported":1744146568,"current_range_meters":17600,"station_id":"ce4bhqp2rcd13ifvqhog","pricing_plan_id":"cebpf4jnsgd1na2vs0mg"},{"bike_id":"d803fa79-8ee9-4084-b199-d3e0b14c5169","system_id":"levelo_inurba_marseille","lat":43.29189,"lon":5.39326,"is_reserved":false,"is_disabled":false,"rental_uris":{"android":"levelo://app?vid=d803fa79-8ee9-4084-b199-d3e0b14c5169","ios":"levelo://app?vid=d803fa79-8ee9-4084-b199-d3e0b14c5169"},"vehicle_type_id":"4","last_reported":1744146568,"current_range_meters":17600,"station_id":"ce4bh192rcd13ifvqdd0","pricing_plan_id":"cebpf4jnsgd1na2vs0mg"},{"bike_id":"800e3e3c-6ab6-48d8-8a69-3938eb1aed86","system_id":"levelo_inurba_marseille","lat":43.31272,"lon":5.37415,"is_reserved":false,"is_disabled":false,"rental_uris":{"android":"levelo://app?vid=800e3e3c-6ab6-48d8-8a69-3938eb1aed86","ios":"levelo://app?vid=800e3e3c-6ab6-48d8-8a69-3938eb1aed86"},"vehicle_type_id":"4","last_reported":1744146568,"current_range_meters":17600,"station_id":"","pricing_plan_id":"cebpf4jnsgd1na2vs0mg"},{"bike_id":"68b2b97c-dfa2-455e-98c0-2b19e9ad3657","system_id":"levelo_inurba_marseille","lat":43.29257,"lon":5.40905,"is_reserved":false,"is_disabled":false,"rental_uris":{"android":"levelo://app?vid=68b2b97c-dfa2-455e-98c0-2b19e9ad3657","ios":"levelo://app?vid=68b2b97c-dfa2-455e-98c0-2b19e9ad3657"},"vehicle_type_id":"4","last_reported":1744146568,"current_range_meters":17600,"station_id":"ce4bh192rcd13ifvqdc0","pricing_plan_id":"cebpf4jnsgd1na2vs0mg"},{"bike_id":"524ce5e2-40a1-4d2d-a58b-970b021b8e15","system_id":"levelo_inurba_marseille","lat":43.31271,"lon":5.40158,"is_reserved":false,"is_disabled":false,"rental_uris":{"android":"levelo://app?vid=524ce5e2-40a1-4d2d-a58b-970b021b8e15","ios":"levelo://app?vid=524ce5e2-40a1-4d2d-a58b-970b021b8e15"},"vehicle_type_id":"4","last_reported":1744146568,"current_range_meters":18000,"station_id":"ce4bh092rcd13ifvqd30","pricing_plan_id":"cebpf4jnsgd1na2vs0mg"},{"bike_id":"262814d8-70e8-4e84-b322-6064a998c97a","system_id":"levelo_inurba_marseille","lat":43.30647,"lon":5.40097,"is_reserved":false,"is_disabled":false,"rental_uris":{"android":"levelo://app?vid=262814d8-70e8-4e84-b322-6064a998c97a","ios":"levelo://app?vid=262814d8-70e8-4e84-b322-6064a998c97a"},"vehicle_type_id":"4","last_reported":1744146568,"current_range_meters":18000,"station_id":"ce4bh112rcd13ifvqda0","pricing_plan_id":"cebpf4jnsgd1na2vs0mg"},{"bike_id":"0ae5321e-af17-4580-9771-06dde2b85fdb","system_id":"levelo_inurba_marseille","lat":43.28931,"lon":5.36408,"is_reserved":false,"is_disabled":false,"rental_uris":{"android":"levelo://app?vid=0ae5321e-af17-4580-9771-06dde2b85fdb","ios":"levelo://app?vid=0ae5321e-af17-4580-9771-06dde2b85fdb"},"vehicle_type_id":"4","last_reported":1744146568,"current_range_meters":18000,"station_id":"ce4bhc92rcd13ifvqetg","pricing_plan_id":"cebpf4jnsgd1na2vs0mg"},{"bike_id":"156c0a40-ea07-4d21-a353-8611d33e7c8c","system_id":"levelo_inurba_marseille","lat":43.28925,"lon":5.38367,"is_reserved":false,"is_disabled":false,"rental_uris":{"android":"levelo://app?vid=156c0a40-ea07-4d21-a353-8611d33e7c8c","ios":"levelo://app?vid=156c0a40-ea07-4d21-a353-8611d33e7c8c"},"vehicle_type_id":"4","last_reported":1744146568,"current_range_meters":16800,"station_id":"ce4bh612rcd13ifvqe6g","pricing_plan_id":"cebpf4jnsgd1na2vs0mg"},{"bike_id":"805f64ff-45b0-4422-bda5-8499fd7f4d53","system_id":"levelo_inurba_marseille","lat":43.28731,"lon":5.36087,"is_reserved":false,"is_disabled":false,"rental_uris":{"android":"levelo://app?vid=805f64ff-45b0-4422-bda5-8499fd7f4d53","ios":"levelo://app?vid=805f64ff-45b0-4422-bda5-8499fd7f4d53"},"vehicle_type_id":"4","last_reported":1744146568,"current_range_meters":18000,"station_id":"cki0cbj6b192h4jlfktg","pricing_plan_id":"cebpf4jnsgd1na2vs0mg"},{"bike_id":"97ba1268-c890-4d51-8527-8f0e9547bfe1","system_id":"levelo_inurba_marseille","lat":43.24165,"lon":5.39717,"is_reserved":false,"is_disabled":false,"rental_uris":{"android":"levelo://app?vid=97ba1268-c890-4d51-8527-8f0e9547bfe1","ios":"levelo://app?vid=97ba1268-c890-4d51-8527-8f0e9547bfe1"},"vehicle_type_id":"4","last_reported":1744146568,"current_range_meters":18000,"station_id":"ce4bhn12rcd13ifvqgpg","pricing_plan_id":"cebpf4jnsgd1na2vs0mg"},{"bike_id":"d4c7f440-41d8-463a-8a85-461dd0d9ff51","system_id":"levelo_inurba_marseille","lat":43.29047,"lon":5.37165,"is_reserved":false,"is_disabled":false,"rental_uris":{"android":"levelo://app?vid=d4c7f440-41d8-463a-8a85-461dd0d9ff51","ios":"levelo://app?vid=d4c7f440-41d8-463a-8a85-461dd0d9ff51"},