{"last_updated":1734361851,"ttl":60,"version":"2.2","data":{"bikes":[{"bike_id":"25a4561f-9b48-480c-8b9f-14a2ad6fadc3","system_id":"levelo_inurba_marseille","lat":43.27069,"lon":5.42279,"is_reserved":false,"is_disabled":false,"rental_uris":{"android":"levelo://app?vid=25a4561f-9b48-480c-8b9f-14a2ad6fadc3","ios":"levelo://app?vid=25a4561f-9b48-480c-8b9f-14a2ad6fadc3"},"vehicle_type_id":"4","last_reported":1734361851,"current_range_meters":36800,"station_id":"ce4bhk92rcd13ifvqgb0","pricing_plan_id":"cebpf4jnsgd1na2vs0mg"},{"bike_id":"e00b33fb-4162-4741-b4b5-c6e56427ffed","system_id":"levelo_inurba_marseille","lat":43.29961,"lon":5.41331,"is_reserved":false,"is_disabled":false,"rental_uris":{"android":"levelo://app?vid=e00b33fb-4162-4741-b4b5-c6e56427ffed","ios":"levelo://app?vid=e00b33fb-4162-4741-b4b5-c6e56427ffed"},"vehicle_type_id":"4","last_reported":1734361851,"current_range_meters":37600,"station_id":"ce4bhp12rcd13ifvqh9g","pricing_plan_id":"cebpf4jnsgd1na2vs0mg"},{"bike_id":"1caf6a6a-ec92-4cb1-9c1c-4461fe3e3292","system_id":"levelo_inurba_marseille","lat":43.27194,"lon":5.39166,"is_reserved":false,"is_disabled":false,"rental_uris":{"android":"levelo://app?vid=1caf6a6a-ec92-4cb1-9c1c-4461fe3e3292","ios":"levelo://app?vid=1caf6a6a-ec92-4cb1-9c1c-4461fe3e3292"},"vehicle_type_id":"4","last_reported":1734361851,"current_range_meters":38800,"station_id":"ce4bhhp2rcd13ifvqfm0","pricing_plan_id":"cebpf4jnsgd1na2vs0mg"},{"bike_id":"80afd530-d640-4a7b-94a7-e4e4c81c3b16","system_id":"levelo_inurba_marseille","lat":43.25716,"lon":5.41111,"is_reserved":false,"is_disabled":false,"rental_uris":{"android":"levelo://app?vid=80afd530-d640-4a7b-94a7-e4e4c81c3b16","ios":"levelo://app?vid=80afd530-d640-4a7b-94a7-e4e4c81c3b16"},"vehicle_type_id":"4","last_reported":1734361851,"current_range_meters":24800,"station_id":"ce4bhkp2rcd13ifvqgd0","pricing_plan_id":"cebpf4jnsgd1na2vs0mg"},{"bike_id":"a12cbbc6-73f1-402f-be39-06e88f8e57e1","system_id":"levelo_inurba_marseille","lat":43.31354,"lon":5.36704,"is_reserved":false,"is_disabled":false,"rental_uris":{"android":"levelo://app?vid=a12cbbc6-73f1-402f-be39-06e88f8e57e1","ios":"levelo://app?vid=a12cbbc6-73f1-402f-be39-06e88f8e57e1"},"vehicle_type_id":"4","last_reported":1734361851,"current_range_meters":7200,"station_id":"ce4bgr92rcd13ifvqc6g","pricing_plan_id":"cebpf4jnsgd1na2vs0mg"},{"bike_id":"e4b7d6d2-4f88-4c86-b684-a33f42f75547","system_id":"levelo_inurba_marseille","lat":43.31122,"lon":5.37776,"is_reserved":false,"is_disabled":false,"rental_uris":{"android":"levelo://app?vid=e4b7d6d2-4f88-4c86-b684-a33f42f75547","ios":"levelo://app?vid=e4b7d6d2-4f88-4c86-b684-a33f42f75547"},"vehicle_type_id":"4","last_reported":1734361851,"current_range_meters":12000,"station_id":"ce4bgt92rcd13ifvqcg0","pricing_plan_id":"cebpf4jnsgd1na2vs0mg"},{"bike_id":"9091e2fb-40d8-4ca2-8a75-7c8163b0ce08","system_id":"levelo_inurba_marseille","lat":43.24809,"lon":5.37458,"is_reserved":false,"is_disabled":false,"rental_uris":{"android":"levelo://app?vid=9091e2fb-40d8-4ca2-8a75-7c8163b0ce08","ios":"levelo://app?vid=9091e2fb-40d8-4ca2-8a75-7c8163b0ce08"},"vehicle_type_id":"4","last_reported":1734361851,"current_range_meters":35600,"station_id":"ce4bhgh2rcd13ifvqfb0","pricing_plan_id":"cebpf4jnsgd1na2vs0mg"},{"bike_id":"ed8635a9-8a62-4be7-9d4b-a4dbff1f7c6d","system_id":"levelo_inurba_marseille","lat":43.28519,"lon":5.38043,"is_reserved":false,"is_disabled":true,"rental_uris":{"android":"levelo://app?vid=ed8635a9-8a62-4be7-9d4b-a4dbff1f7c6d","ios":"levelo://app?vid=ed8635a9-8a62-4be7-9d4b-a4dbff1f7c6d"},"vehicle_type_id":"4","last_reported":1734361851,"current_range_meters":24400,"station_id":"","pricing_plan_id":"cebpf4jnsgd1na2vs0mg"},{"bike_id":"fba0f1f9-c2a0-4d7c-88cf-5f7749eb75a1","system_id":"levelo_inurba_marseille","lat":43.2849,"lon":5.38557,"is_reserved":false,"is_disabled":false,"rental_uris":{"android":"levelo://app?vid=fba0f1f9-c2a0-4d7c-88cf-5f7749eb75a1","ios":"levelo://app?vid=fba0f1f9-c2a0-4d7c-88cf-5f7749eb75a1"},"vehicle_type_id":"4","last_reported":1734361851,"current_range_meters":38400,"station_id":"ce4bh8p2rcd13ifvqeb0","pricing_plan_id":"cebpf4jnsgd1na2vs0mg"},{"bike_id":"b1141b56-3e7b-49ed-8c3a-fdb8940f3e60","system_id":"levelo_inurba_marseille","lat":43.30014,"lon":5.37746,"is_reserved":false,"is_disabled":true,"rental_uris":{"android":"levelo://app?vid=b1141b56-3e7b-49ed-8c3a-fdb8940f3e60","ios":"levelo://app?vid=b1141b56-3e7b-49ed-8c3a-fdb8940f3e60"},"vehicle_type_id":"4","last_reported":1734361851,"current_range_meters":10000,"station_id":"","pricing_plan_id":"cebpf4jnsgd1na2vs0mg"},{"bike_id":"21d155f3-ec9c-4036-88d6-08e6b320a41b","system_id":"levelo_inurba_marseille","lat":43.27206,"lon":5.39197,"is_reserved":false,"is_disabled":false,"rental_uris":{"android":"levelo://app?vid=21d155f3-ec9c-4036-88d6-08e6b320a41b","ios":"levelo://app?vid=21d155f3-ec9c-4036-88d6-08e6b320a41b"},"vehicle_type_id":"4","last_reported":1734361851,"current_range_meters":16400,"station_id":"ce4bhhp2rcd13ifvqfm0","pricing_plan_id":"cebpf4jnsgd1na2vs0mg"},{"bike_id":"4ed590f1-6122-4bff-89a4-126ac828ea54","system_id":"levelo_inurba_marseille","lat":43.25941,"lon":5.4091,"is_reserved":false,"is_disabled":false,"rental_uris":{"android":"levelo://app?vid=4ed590f1-6122-4bff-89a4-126ac828ea54","ios":"levelo://app?vid=4ed590f1-6122-4bff-89a4-126ac828ea54"},"vehicle_type_id":"4","last_reported":1734361851,"current_range_meters":38000,"station_id":"ce4bhm92rcd13ifvqglg","pricing_plan_id":"cebpf4jnsgd1na2vs0mg"},{"bike_id":"10086f5f-eb94-421a-8247-01c4a38e23de","system_id":"levelo_inurba_marseille","lat":43.26786,"lon":5.39928,"is_reserved":false,"is_disabled":true,"rental_uris":{"android":"levelo://app?vid=10086f5f-eb94-421a-8247-01c4a38e23de","ios":"levelo://app?vid=10086f5f-eb94-421a-8247-01c4a38e23de"},"vehicle_type_id":"4","last_reported":1734361851,"current_range_meters":0,"station_id":"","pricing_plan_id":"cebpf4jnsgd1na2vs0mg"},{"bike_id":"5a0471c3-d871-4c27-b65e-9e6e90f8779d","system_id":"levelo_inurba_marseille","lat":43.27063,"lon":5.4027,"is_reserved":false,"is_disabled":true,"rental_uris":{"android":"levelo://app?vid=5a0471c3-d871-4c27-b65e-9e6e90f8779d","ios":"levelo://app?vid=5a0471c3-d871-4c27-b65e-9e6e90f8779d"},"vehicle_type_id":"4","last_reported":1734361851,"current_range_meters":0,"station_id":"ce4bhk92rcd13ifvqgc0","pricing_plan_id":"cebpf4jnsgd1na2vs0mg"},{"bike_id":"19b63edb-b49d-48d7-a32f-d786a72a8236","system_id":"levelo_inurba_marseille","lat":43.28496,"lon":5.35074,"is_reserved":false,"is_disabled":false,"rental_uris":{"android":"levelo://app?vid=19b63edb-b49d-48d7-a32f-d786a72a8236","ios":"levelo://app?vid=19b63edb-b49d-48d7-a32f-d786a72a8236"},"vehicle_type_id":"4","last_reported":1734361851,"current_range_meters":33200,"station_id":"","pricing_plan_id":"cebpf4jnsgd1na2vs0mg"},{"bike_id":"5c764385-04d4-482f-9db8-673ff9ab3a74","system_id":"levelo_inurba_marseille","lat":43.28366,"lon":5.38095,"is_reserved":false,"is_disabled":false,"rental_uris":{"android":"levelo://app?vid=5c764385-04d4-482f-9db8-673ff9ab3a74","ios":"levelo://app?vid=5c764385-04d4-482f-9db8-673ff9ab3a74"},"vehicle_type_id":"4","last_reported":1734361851,"current_range_meters":30800,"station_id":"ce4bh412rcd13ifvqdr0","pricing_plan_id":"cebpf4jnsgd1na2vs0mg"},{"bike_id":"c6f86fb1-ccae-4de7-ae88-4a4c635f0f72","system_id":"levelo_inurba_marseille","lat":43.29582,"lon":5.36746,"is_reserved":false,"is_disabled":false,"rental_uris":{"android":"levelo://app?vid=c6f86fb1-ccae-4de7-ae88-4a4c635f0f72","ios":"levelo://app?vid=c6f86fb1-ccae-4de7-ae88-4a4c635f0f72"},"vehicle_type_id":"4","last_reported":1734361851,"current_range_meters":38000,"station_id":"ce4bgph2rcd13ifvqc2g","pricing_plan_id":"cebpf4jnsgd1na2vs0mg"},{"bike_id":"a9add84d-c75f-470e-bb85-a72bfb7f3362","system_id":"levelo_inurba_marseille","lat":43.2811,"lon":5.3785,"is_reserved":false,"is_disabled":false,"rental_uris":{"android":"levelo://app?vid=a9add84d-c75f-470e-bb85-a72bfb7f3362","ios":"levelo://app?vid=a9add84d-c75f-470e-bb85-a72bfb7f3362"},"vehicle_type_id":"4","last_reported":1734361851,"current_range_meters":38800,"station_id":"ce4bha12rcd13ifvqee0","pricing_plan_id":"cebpf4jnsgd1na2vs0mg"},{"bike_id":"59c7cc84-e59f-414f-9b78-f7acc20287c1","system_id":"levelo_inurba_marseille","lat":43.29905,"lon":5.37469,"is_reserved":false,"is_disabled":false,"rental_uris":{"android":"levelo://app?vid=59c7cc84-e59f-414f-9b78-f7acc20287c1","ios":"levelo://app?vid=59c7cc84-e59f-414f-9b78-f7acc20287c1"},"vehicle_type_id":"4","last_reported":1734361851,"current_range_meters":21600,"station_id":"ce4bgjh2rcd13ifvqbg0","pricing_plan_id":"cebpf4jnsgd1na2vs0mg"},{"bike_id":"62f0ab6a-86f0-4ab3-a136-029222de68e6","system_id":"levelo_inurba_marseille","lat":43.30526,"lon":5.38435,"is_reserved":false,"is_disabled":false,"rental_uris":{"android":"levelo://app?vid=62f0ab6a-86f0-4ab3-a136-029222de68e6","ios":"levelo://app?vid=62f0ab6a-86f0-4ab3-a136-029222de68e6"},"vehicle_type_id":"4","last_reported":1734361851,"current_range_meters":32000,"station_id":"ce4bgg92rcd13ifvqb30","pricing_plan_id":"cebpf4jnsgd1na2vs0mg"},{"bike_id":"371f53d4-97c1-4517-98db-12fda4440840","system_id":"levelo_inurba_marseille","lat":43.2926,"lon":5.40902,"is_reserved":false,"is_disabled":true,"rental_uris":{"android":"levelo://app?vid=371f53d4-97c1-4517-98db-12fda4440840","ios":"levelo://app?vid=371f53d4-97c1-4517-98db-12fda4440840"},"vehicle_type_id":"4","last_reported":1734361851,"current_range_meters":0,"station_id":"ce4bh192rcd13ifvqdc0","pricing_plan_id":"cebpf4jnsgd1na2vs0mg"},{"bike_id":"96de67e6-ba6f-4b49-a94c-d0e81f1e0e7a","system_id":"levelo_inurba_marseille","lat":43.30547,"lon":5.36547,"is_reserved":false,"is_disabled":false,"rental_uris":{"android":"levelo://app?vid=96de67e6-ba6f-4b49-a94c-d0e81f1e0e7a","ios":"levelo://app?vid=96de67e6-ba6f-4b49-a94c-d0e81f1e0e7a"},"vehicle_type_id":"4","last_reported":1734361851,"current_range_meters":35600,"station_id":"ce4bgs12rcd13ifvqcag","pricing_plan_id":"cebpf4jnsgd1na2vs0mg"},{"bike_id":"50244c3e-4e5b-46da-b67a-4ca59f009d77","system_id":"levelo_inurba_marseille","lat":43.24662,"lon":5.38172,"is_reserved":false,"is_disabled":false,"rental_uris":{"android":"levelo://app?vid=50244c3e-4e5b-46da-b67a-4ca59f009d77","ios":"levelo://app?vid=50244c3e-4e5b-46da-b67a-4ca59f009d77"},"vehicle_type_id":"4","last_reported":1734361851,"current_range_meters":26000,"station_id":"ce4bhih2rcd13ifvqfr0","pricing_plan_id":"cebpf4jnsgd1na2vs0mg"},{"bike_id":"4a5b16fa-6734-4092-a7df-237694ef6411","system_id":"levelo_inurba_marseille","lat":43.30129,"lon":5.39861,"is_reserved":false,"is_disabled":false,"rental_uris":{"android":"levelo://app?vid=4a5b16fa-6734-4092-a7df-237694ef6411","ios":"levelo://app?vid=4a5b16fa-6734-4092-a7df-237694ef6411"},"vehicle_type_id":"4","last_reported":1734361851,"current_range_meters":11200,"station_id":"ce4bh0h2rcd13ifvqd40","pricing_plan_id":"cebpf4jnsgd1na2vs0mg"},{"bike_id":"4d69ec8c-f95e-471b-a9bf-1d843e48682d","system_id":"levelo_inurba_marseille","lat":43.27838,"lon":5.39214,"is_reserved":false,"is_disabled":false,"rental_uris":{"android":"levelo://app?vid=4d69ec8c-f95e-471b-a9bf-1d843e48682d","ios":"levelo://app?vid=4d69ec8c-f95e-471b-a9bf-1d843e48682d"},"vehicle_type_id":"4","last_reported":1734361851,"current_range_meters":17200,"station_id":"ce4bhjp2rcd13ifvqga0","pricing_plan_id":"cebpf4jnsgd1na2vs0mg"},{"bike_id":"8debc475-1181-4a47-a3de-8dfa086f7824","system_id":"levelo_inurba_marseille","lat":43.27373,"lon":5.36263,"is_reserved":false,"is_disabled":false,"rental_uris":{"android":"levelo://app?vid=8debc475-1181-4a47-a3de-8dfa086f7824","ios":"levelo://app?vid=8debc475-1181-4a47-a3de-8dfa086f7824"},"vehicle_type_id":"4","last_reported":1734361851,"current_range_meters":33600,"station_id":"ce4bhbh2rcd13ifvqeo0","pricing_plan_id":"cebpf4jnsgd1na2vs0mg"},{"bike_id":"7b3a3fbc-253c-4a90-9248-53ba9d24e6f2","system_id":"levelo_inurba_marseille","lat":43.31296,"lon":5.36956,"is_reserved":false,"is_disabled":false,"rental_uris":{"android":"levelo://app?vid=7b3a3fbc-253c-4a90-9248-53ba9d24e6f2","ios":"levelo://app?vid=7b3a3fbc-253c-4a90-9248-53ba9d24e6f2"},"vehicle_type_id":"4","last_reported":1734361851,"current_range_meters":36800,"station_id":"","pricing_plan_id":"cebpf4jnsgd1na2vs0mg"},{"bike_id":"a716bf4a-483b-4082-8d5e-a159c3e6bcca","system_id":"levelo_inurba_marseille","lat":43.299597,"lon":5.413337,"is_reserved":false,"is_disabled":true,"rental_uris":{"android":"levelo://app?vid=a716bf4a-483b-4082-8d5e-a159c3e6bcca","ios":"levelo://app?vid=a716bf4a-483b-4082-8d5e-a159c3e6bcca"},"vehicle_type_id":"4","last_reported":1734361851,"current_range_meters":34000,"station_id":"ce4bhp12rcd13ifvqh9g","pricing_plan_id":"cebpf4jnsgd1na2vs0mg"},{"bike_id":"a4be901a-c286-4046-92e7-25ad4a40a528","system_id":"levelo_inurba_marseille","lat":43.27304,"lon":5.39098,"is_reserved":false,"is_disabled":false,"rental_uris":{"android":"levelo://app?vid=a4be901a-c286-4046-92e7-25ad4a40a528","ios":"levelo://app?vid=a4be901a-c286-4046-92e7-25ad4a40a528"},"vehicle_type_id":"4","last_reported":1734361851,"current_range_meters":38800,"station_id":"ce4bhgp2rcd13ifvqfe0","pricing_plan_id":"cebpf4jnsgd1na2vs0mg"},{"bike_id":"75979f35-52fb-4ff9-aef4-c293842957ed","system_id":"levelo_inurba_marseille","lat":43.32536,"lon":5.41455,"is_reserved":false,"is_disabled":true,"rental_uris":{"android":"levelo://app?vid=75979f35-52fb-4ff9-aef4-c293842957ed","ios":"levelo://app?vid=75979f35-52fb-4ff9-aef4-c293842957ed"},"vehicle_type_id":"4","last_reported":1734361851,"current_range_meters":36800,"station_id":"ce4bhq12rcd13ifvqhhg","pricing_plan_id":"cebpf4jnsgd1na2vs0mg"},{"bike_id":"59d04a27-89e9-48e6-b924-f373e2f8bb99","system_id":"levelo_inurba_marseille","lat":43.23058,"lon":5.35486,"is_reserved":false,"is_disabled":false,"rental_uris":{"android":"levelo://app?vid=59d04a27-89e9-48e6-b924-f373e2f8bb99","ios":"levelo://app?vid=59d04a27-89e9-48e6-b924-f373e2f8bb99"},"vehicle_type_id":"4","last_reported":1734361851,"current_range_meters":27600,"station_id":"cpo3342slgdg3j2ifvpg","pricing_plan_id":"cebpf4jnsgd1na2vs0mg"},{"bike_id":"01dd261f-922b-4db8-a73b-009ae8f8ee61","system_id":"levelo_inurba_marseille","lat":43.30816,"lon":5.38015,"is_reserved":false,"is_disabled":false,"rental_uris":{"android":"levelo://app?vid=01dd261f-922b-4db8-a73b-009ae8f8ee61","ios":"levelo://app?vid=01dd261f-922b-4db8-a73b-009ae8f8ee61"},"vehicle_type_id":"4","last_reported":1734361851,"current_range_meters":12000,"station_id":"","pricing_plan_id":"cebpf4jnsgd1na2vs0mg"},{"bike_id":"ba98bdce-aee7-48db-921f-e5b23de6229a","system_id":"levelo_inurba_marseille","lat":43.33794,"lon":5.42101,"is_reserved":false,"is_disabled":true,"rental_uris":{"android":"levelo://app?vid=ba98bdce-aee7-48db-921f-e5b23de6229a","ios":"levelo://app?vid=ba98bdce-aee7-48db-921f-e5b23de6229a"},"vehicle_type_id":"4","last_reported":1734361851,"current_range_meters":400,"station_id":"","pricing_plan_id":"cebpf4jnsgd1na2vs0mg"},{"bike_id":"dc3d71bb-e7fb-44be-9744-c5c2e707f55c","system_id":"levelo_inurba_marseille","lat":43.2792,"lon":5.39598,"is_reserved":false,"is_disabled":false,"rental_uris":{"android":"levelo://app?vid=dc3d71bb-e7fb-44be-9744-c5c2e707f55c","ios":"levelo://app?vid=dc3d71bb-e7fb-44be-9744-c5c2e707f55c"},"vehicle_type_id":"4","last_reported":1734361851,"current_range_meters":22000,"station_id":"ce4bhf92rcd13ifvqf40","pricing_plan_id":"cebpf4jnsgd1na2vs0mg"},{"bike_id":"ff1272a5-0138-44d9-a2b3-5267b97b4d8d","system_id":"levelo_inurba_marseille","lat":43.30317,"lon":5.40442,"is_reserved":false,"is_disabled":false,"rental_uris":{"android":"levelo://app?vid=ff1272a5-0138-44d9-a2b3-5267b97b4d8d","ios":"levelo://app?vid=ff1272a5-0138-44d9-a2b3-5267b97b4d8d"},"vehicle_type_id":"4","last_reported":1734361851,"current_range_meters":34000,"station_id":"ce4bh012rcd13ifvqd10","pricing_plan_id":"cebpf4jnsgd1na2vs0mg"},{"bike_id":"bc2b9ba5-f9c0-428c-bec4-97fe96553dcd","system_id":"levelo_inurba_marseille","lat":43.30432,"lon":5.39746,"is_reserved":false,"is_disabled":false,"rental_uris":{"android":"levelo://app?vid=bc2b9ba5-f9c0-428c-bec4-97fe96553dcd","ios":"levelo://app?vid=bc2b9ba5-f9c0-428c-bec4-97fe96553dcd"},"vehicle_type_id":"4","last_reported":1734361851,"current_range_meters":33200,"station_id":"ce4bh092rcd13ifvqd20","pricing_plan_id":"cebpf4jnsgd1na2vs0mg"},{"bike_id":"ec3e158f-186d-41b3-b6e7-79290c12db17","system_id":"levelo_inurba_marseille","lat":43.2758,"lon":5.38422,"is_reserved":false,"is_disabled":false,"rental_uris":{"android":"levelo://app?vid=ec3e158f-186d-41b3-b6e7-79290c12db17","ios":"levelo://app?vid=ec3e158f-186d-41b3-b6e7-79290c12db17"},"vehicle_type_id":"4","last_reported":1734361851,"current_range_meters":36000,"station_id":"ce4bhh92rcd13ifvqfi0","pricing_plan_id":"cebpf4jnsgd1na2vs0mg"},{"bike_id":"c3e06171-606e-48df-8fdf-8daebe9ad97f","system_id":"levelo_inurba_marseille","lat":43.23195,"lon":5.39981,"is_reserved":false,"is_disabled":false,"rental_uris":{"android":"levelo://app?vid=c3e06171-606e-48df-8fdf-8daebe9ad97f","ios":"levelo://app?vid=c3e06171-606e-48df-8fdf-8daebe9ad97f"},"vehicle_type_id":"4","last_reported":1734361851,"current_range_meters":32800,"station_id":"ce4bhn12rcd13ifvqgqg","pricing_plan_id":"cebpf4jnsgd1na2vs0mg"},{"bike_id":"98de24e9-67b4-441e-84ba-73e6a9f21beb","system_id":"levelo_inurba_marseille","lat":43.33737,"lon":5.39183,"is_reserved":false,"is_disabled":false,"rental_uris":{"android":"levelo://app?vid=98de24e9-67b4-441e-84ba-73e6a9f21beb","ios":"levelo://app?vid=98de24e9-67b4-441e-84ba-73e6a9f21beb"},"vehicle_type_id":"4","last_reported":1734361851,"current_range_meters":39200,"station_id":"ce4bhr92rcd13ifvqhsg","pricing_plan_id":"cebpf4jnsgd1na2vs0mg"},{"bike_id":"66d918e2-88c4-49ce-8026-bb26cbc55991","system_id":"levelo_inurba_marseille","lat":43.31293,"lon":5.37052,"is_reserved":false,"is_disabled":false,"rental_uris":{"android":"levelo://app?vid=66d918e2-88c4-49ce-8026-bb26cbc55991","ios":"levelo://app?vid=66d918e2-88c4-49ce-8026-bb26cbc55991"},"vehicle_type_id":"4","last_reported":1734361851,"current_range_meters":35600,"station_id":"","pricing_plan_id":"cebpf4jnsgd1na2vs0mg"},{"bike_id":"0eeb99b4-fd8c-499b-80a3-89a1ddf4ee6d","system_id":"levelo_inurba_marseille","lat":43.31994,"lon":5.38149,"is_reserved":false,"is_disabled":false,"rental_uris":{"android":"levelo://app?vid=0eeb99b4-fd8c-499b-80a3-89a1ddf4ee6d","ios":"levelo://app?vid=0eeb99b4-fd8c-499b-80a3-89a1ddf4ee6d"},"vehicle_type_id":"4","last_reported":1734361851,"current_range_meters":38800,"station_id":"ce4bhr12rcd13ifvqhpg","pricing_plan_id":"cebpf4jnsgd1na2vs0mg"},{"bike_id":"31f72d62-ba68-4913-ad69-9aebe7e0b768","system_id":"levelo_inurba_marseille","lat":43.25488,"lon":5.37656,"is_reserved":false,"is_disabled":false,"rental_uris":{"android":"levelo://app?vid=31f72d62-ba68-4913-ad69-9aebe7e0b768","ios":"levelo://app?vid=31f72d62-ba68-4913-ad69-9aebe7e0b768"},"vehicle_type_id":"4","last_reported":1734361851,"current_range_meters":36400,"station_id":"ce4bhh12rcd13ifvqff0","pricing_plan_id":"cebpf4jnsgd1na2vs0mg"},{"bike_id":"f90a56d8-6b58-4667-b1e0-9be9da1c9d3e","system_id":"levelo_inurba_marseille","lat":43.289307,"lon":5.37909,"is_reserved":false,"is_disabled":true,"rental_uris":{"android":"levelo://app?vid=f90a56d8-6b58-4667-b1e0-9be9da1c9d3e","ios":"levelo://app?vid=f90a56d8-6b58-4667-b1e0-9be9da1c9d3e"},"vehicle_type_id":"4","last_reported":1734361851,"current_range_meters":31200,"station_id":"","pricing_plan_id":"cebpf4jnsgd1na2vs0mg"},{"bike_id":"5cfe0866-a6de-4846-8e30-be3ec7edb873","system_id":"levelo_inurba_marseille","lat":43.297837,"lon":5.434707,"is_reserved":false,"is_disabled":false,"rental_uris":{"android":"levelo://app?vid=5cfe0866-a6de-4846-8e30-be3ec7edb873","ios":"levelo://app?vid=5cfe0866-a6de-4846-8e30-be3ec7edb873"},"vehicle_type_id":"4","last_reported":1734361851,"current_range_meters":38800,"station_id":"ce4bhpp2rcd13ifvqhfg","pricing_plan_id":"cebpf4jnsgd1na2vs0mg"},{"bike_id":"f370f215-93c5-42e3-9f05-5193627c78fc","system_id":"levelo_inurba_marseille","lat":43.30586,"lon":5.37215,"is_reserved":false,"is_disabled":false,"rental_uris":{"android":"levelo://app?vid=f370f215-93c5-42e3-9f05-5193627c78fc","ios":"levelo://app?vid=f370f215-93c5-42e3-9f05-5193627c78fc"},"vehicle_type_id":"4","last_reported":1734361851,"current_range_meters":24400,"station_id":"ce4bgqh2rcd13ifvqc4g","pricing_plan_id":"cebpf4jnsgd1na2vs0mg"},{"bike_id":"54a3e14d-7496-46c2-b3c0-3e1f9e2617e4","system_id":"levelo_inurba_marseille","lat":43.2959,"lon":5.38109,"is_reserved":false,"is_disabled":false,"rental_uris":{"android":"levelo://app?vid=54a3e14d-7496-46c2-b3c0-3e1f9e2617e4","ios":"levelo://app?vid=54a3e14d-7496-46c2-b3c0-3e1f9e2617e4"},"vehicle_type_id":"4","last_reported":1734361851,"current_range_meters":26000,"station_id":"ce4bgl12rcd13ifvqbo0","pricing_plan_id":"cebpf4jnsgd1na2vs0mg"},{"bike_id":"9d2d5322-3204-44e5-b000-b6e64e0f3f6e","system_id":"levelo_inurba_marseille","lat":43.30248,"lon":5.40093,"is_reserved":false,"is_disabled":false,"rental_uris":{"android":"levelo://app?vid=9d2d5322-3204-44e5-b000-b6e64e0f3f6e","ios":"levelo://app?vid=9d2d5322-3204-44e5-b000-b6e64e0f3f6e"},"vehicle_type_id":"4","last_reported":1734361851,"current_range_meters":38800,"station_id":"ce4bgvh2rcd13ifvqcs0","pricing_plan_id":"cebpf4jnsgd1na2vs0mg"},{"bike_id":"e90a5c4c-74bf-492a-8732-ece9e8212ad7","system_id":"levelo_inurba_marseille","lat":43.30593,"lon":5.37219,"is_reserved":false,"is_disabled":false,"rental_uris":{"android":"levelo://app?vid=e90a5c4c-74bf-492a-8732-ece9e8212ad7","ios":"levelo://app?vid=e90a5c4c-74bf-492a-8732-ece9e8212ad7"},"vehicle_type_id":"4","last_reported":1734361851,"current_range_meters":38800,"station_id":"ce4bgqh2rcd13ifvqc4g","pricing_plan_id":"cebpf4jnsgd1na2vs0mg"},{"bike_id":"db347a16-049d-465c-8aac-d6c3050cc094","system_id":"levelo_inurba_marseille","lat":43.28107,"lon":5.37843,"is_reserved":false,"is_disabled":false,"rental_uris":{"android":"levelo://app?vid=db347a16-049d-465c-8aac-d6c3050cc094","ios":"levelo://app?vid=db347a16-049d-465c-8aac-d6c3050cc094"},"vehicle_type_id":"4","last_reported":1734361851,"current_range_meters":38800,"station_id":"ce4bha12rcd13ifvqee0","pricing_plan_id":"cebpf4jnsgd1na2vs0mg"},{"bike_id":"910839e7-d435-484c-9bd4-418c188fceee","system_id":"levelo_inurba_marseille","lat":43.32059,"lon":5.41536,"is_reserved":false,"is_disabled":false,"rental_uris":{"android":"levelo://app?vid=910839e7-d435-484c-9bd4-418c188fceee","ios":"levelo://app?vid=910839e7-d435-484c-9bd4-418c188fceee"},"vehicle_type_id":"4","last_reported":1734361851,"current_range_meters":39200,"station_id":"ce4bhq92rcd13ifvqhkg","pricing_plan_id":"cebpf4jnsgd1na2vs0mg"},{"bike_id":"0854f93a-27ef-4312-bd8f-be30bba0059f","system_id":"levelo_inurba_marseille","lat":43.28619,"lon":5.35099,"is_reserved":false,"is_disabled":true,"rental_uris":{"android":"levelo://app?vid=0854f93a-27ef-4312-bd8f-be30bba0059f","ios":"levelo://app?vid=0854f93a-27ef-4312-bd8f-be30bba0059f"},"vehicle_type_id":"4","last_reported":1734361851,"current_range_meters":28000,"station_id":"","pricing_plan_id":"cebpf4jnsgd1na2vs0mg"},{"bike_id":"fd3f2f0b-789c-4e44-b20a-98c9d3dd4e75","system_id":"levelo_inurba_marseille","lat":43.27068,"lon":5.42285,"is_reserved":false,"is_disabled":false,"rental_uris":{"android":"levelo://app?vid=fd3f2f0b-789c-4e44-b20a-98c9d3dd4e75","ios":"levelo://app?vid=fd3f2f0b-789c-4e44-b20a-98c9d3dd4e75"},"vehicle_type_id":"4","last_reported":1734361851,"current_range_meters":17600,"station_id":"ce4bhk92rcd13ifvqgb0","pricing_plan_id":"cebpf4jnsgd1na2vs0mg"},{"bike_id":"6b3317ad-a4da-4137-b5b2-a43ee041fbba","system_id":"levelo_inurba_marseille","lat":43.30543,"lon":5.38433,"is_reserved":false,"is_disabled":false,"rental_uris":{"android":"levelo://app?vid=6b3317ad-a4da-4137-b5b2-a43ee041fbba","ios":"levelo://app?vid=6b3317ad-a4da-4137-b5b2-a43ee041fbba"},"vehicle_type_id":"4","last_reported":1734361851,"current_range_meters":37600,"station_id":"ce4bgg92rcd13ifvqb30","pricing_plan_id":"cebpf4jnsgd1na2vs0mg"},{"bike_id":"e515661c-3c9a-4c14-a402-3c8db6e7c7d6","system_id":"levelo_inurba_marseille","lat":43.30547,"lon":5.36719,"is_reserved":false,"is_disabled":false,"rental_uris":{"android":"levelo://app?vid=e515661c-3c9a-4c14-a402-3c8db6e7c7d6","ios":"levelo://app?vid=e515661c-3c9a-4c14-a402-3c8db6e7c7d6"},"vehicle_type_id":"4","last_reported":1734361851,"current_range_meters":32800,"station_id":"ce4bgrp2rcd13ifvqc9g","pricing_plan_id":"cebpf4jnsgd1na2vs0mg"},{"bike_id":"25c8b347-d00a-4af3-b5ab-c07f1de0e7bc","system_id":"levelo_inurba_marseille","lat":43.3076,"lon":5.37651,"is_reserved":false,"is_disabled":false,"rental_uris":{"android":"levelo://app?vid=25c8b347-d00a-4af3-b5ab-c07f1de0e7bc","ios":"levelo://app?vid=25c8b347-d00a-4af3-b5ab-c07f1de0e7bc"},"vehicle_type_id":"4","last_reported":1734361851,"current_range_meters":15200,"station_id":"ce4bgv92rcd13ifvqcq0","pricing_plan_id":"cebpf4jnsgd1na2vs0mg"},{"bike_id":"875d6eb1-5c9d-4cf1-ab0c-07b39b12252c","system_id":"levelo_inurba_marseille","lat":43.23186,"lon":5.35557,"is_reserved":false,"is_disabled":false,"rental_uris":{"android":"levelo://app?vid=875d6eb1-5c9d-4cf1-ab0c-07b39b12252c","ios":"levelo://app?vid=875d6eb1-5c9d-4cf1-ab0c-07b39b12252c"},"vehicle_type_id":"4","last_reported":1734361851,"current_range_meters":26000,"station_id":"ce4bhu92rcd13ifvqi70","pricing_plan_id":"cebpf4jnsgd1na2vs0mg"},{"bike_id":"54c50622-44ac-4291-b988-b7637bdc78a9","system_id":"levelo_inurba_marseille","lat":43.30537,"lon":5.3843,"is_reserved":false,"is_disabled":false,"rental_uris":{"android":"levelo://app?vid=54c50622-44ac-4291-b988-b7637bdc78a9","ios":"levelo://app?vid=54c50622-44ac-4291-b988-b7637bdc78a9"},"vehicle_type_id":"4","last_reported":1734361851,"current_range_meters":39200,"station_id":"ce4bgg92rcd13ifvqb30","pricing_plan_id":"cebpf4jnsgd1na2vs0mg"},{"bike_id":"7fe9abdb-aded-4ac1-aebc-aa3a0721a66c","system_id":"levelo_inurba_marseille","lat":43.23967,"lon":5.36634,"is_reserved":false,"is_disabled":false,"rental_uris":{"android":"levelo://app?vid=7fe9abdb-aded-4ac1-aebc-aa3a0721a66c","ios":"levelo://app?vid=7fe9abdb-aded-4ac1-aebc-aa3a0721a66c"},"vehicle_type_id":"4","last_reported":1734361851,"current_range_meters":27200,"station_id":"ce4bhi12rcd13ifvqfp0","pricing_plan_id":"cebpf4jnsgd1na2vs0mg"},{"bike_id":"459e6972-8e3d-4b8b-8dac-aba6ff1ec863","system_id":"levelo_inurba_marseille","lat":43.28282,"lon":5.35077,"is_reserved":false,"is_disabled":false,"rental_uris":{"android":"levelo://app?vid=459e6972-8e3d-4b8b-8dac-aba6ff1ec863","ios":"levelo://app?vid=459e6972-8e3d-4b8b-8dac-aba6ff1ec863"},"vehicle_type_id":"4","last_reported":1734361851,"current_range_meters":38800,"station_id":"ce4bhbp2rcd13ifvqerg","pricing_plan_id":"cebpf4jnsgd1na2vs0mg"},{"bike_id":"eb3a6391-2311-4c2d-8d44-09b4ce034be3","system_id":"levelo_inurba_marseille","lat":43.28273,"lon":5.35074,"is_reserved":false,"is_disabled":false,"rental_uris":{"android":"levelo://app?vid=eb3a6391-2311-4c2d-8d44-09b4ce034be3","ios":"levelo://app?vid=eb3a6391-2311-4c2d-8d44-09b4ce034be3"},"vehicle_type_id":"4","last_reported":1734361851,"current_range_meters":28400,"station_id":"ce4bhbp2rcd13ifvqerg","pricing_plan_id":"cebpf4jnsgd1na2vs0mg"},{"bike_id":"8914bb17-7251-4066-b905-d58eaff8838d","system_id":"levelo_inurba_marseille","lat":43.27181,"lon":5.40999,"is_reserved":false,"is_disabled":false,"rental_uris":{"android":"levelo://app?vid=8914bb17-7251-4066-b905-d58eaff8838d","ios":"levelo://app?vid=8914bb17-7251-4066-b905-d58eaff8838d"},"vehicle_type_id":"4","last_reported":1734361851,"current_range_meters":29600,"station_id":"ce4bhl12rcd13ifvqgf0","pricing_plan_id":"cebpf4jnsgd1na2vs0mg"},{"bike_id":"8ee62417-ba9c-4b61-84a5-5bd7e2cbee2e","system_id":"levelo_inurba_marseille","lat":43.337444,"lon":5.374475,"is_reserved":false,"is_disabled":true,"rental_uris":{"android":"levelo://app?vid=8ee62417-ba9c-4b61-84a5-5bd7e2cbee2e","ios":"levelo://app?vid=8ee62417-ba9c-4b61-84a5-5bd7e2cbee2e"},"vehicle_type_id":"4","last_reported":1734361851,"current_range_meters":0,"station_id":"","pricing_plan_id":"cebpf4jnsgd1na2vs0mg"},{"bike_id":"de4d151c-6004-46ad-8ac8-659e9a3ea1ce","system_id":"levelo_inurba_marseille","lat":43.25725,"lon":5.41109,"is_reserved":false,"is_disabled":false,"rental_uris":{"android":"levelo://app?vid=de4d151c-6004-46ad-8ac8-659e9a3ea1ce","ios":"levelo://app?vid=de4d151c-6004-46ad-8ac8-659e9a3ea1ce"},"vehicle_type_id":"4","last_reported":1734361851,"current_range_meters":18800,"station_id":"ce4bhkp2rcd13ifvqgd0","pricing_plan_id":"cebpf4jnsgd1na2vs0mg"},{"bike_id":"7a8e4bef-b518-4149-b011-c473fe4ec2ff","system_id":"levelo_inurba_marseille","lat":43.2979,"lon":5.38094,"is_reserved":false,"is_disabled":false,"rental_uris":{"android":"levelo://app?vid=7a8e4bef-b518-4149-b011-c473fe4ec2ff","ios":"levelo://app?vid=7a8e4bef-b518-4149-b011-c473fe4ec2ff"},"vehicle_type_id":"4","last_reported":1734361851,"current_range_meters":39200,"station_id":"ce4bgip2rcd13ifvqbb0","pricing_plan_id":"cebpf4jnsgd1na2vs0mg"},{"bike_id":"056177a6-f3a6-40fa-80e0-574bf5840c95","system_id":"levelo_inurba_marseille","lat":43.28342,"lon":5.38654,"is_reserved":false,"is_disabled":true,"rental_uris":{"android":"levelo://app?vid=056177a6-f3a6-40fa-80e0-574bf5840c95","ios":"levelo://app?vid=056177a6-f3a6-40fa-80e0-574bf5840c95"},"vehicle_type_id":"4","last_reported":1734361851,"current_range_meters":29600,"station_id":"ce4bh492rcd13ifvqdvg","pricing_plan_id":"cebpf4jnsgd1na2vs0mg"},{"bike_id":"2a03e7a9-e623-43fe-99c0-8c16e6af2b40","system_id":"levelo_inurba_marseille","lat":43.26986,"lon":5.39869,"is_reserved":false,"is_disabled":false,"rental_uris":{"android":"levelo://app?vid=2a03e7a9-e623-43fe-99c0-8c16e6af2b40","ios":"levelo://app?vid=2a03e7a9-e623-43fe-99c0-8c16e6af2b40"},"vehicle_type_id":"4","last_reported":1734361851,"current_range_meters":16400,"station_id":"","pricing_plan_id":"cebpf4jnsgd1na2vs0mg"},{"bike_id":"69c046ee-9f41-4aee-b304-96727c1acaf7","system_id":"levelo_inurba_marseille","lat":43.30314,"lon":5.36901,"is_reserved":false,"is_disabled":false,"rental_uris":{"android":"levelo://app?vid=69c046ee-9f41-4aee-b304-96727c1acaf7","ios":"levelo://app?vid=69c046ee-9f41-4aee-b304-96727c1acaf7"},"vehicle_type_id":"4","last_reported":1734361851,"current_range_meters":36800,"station_id":"ce4bgqh2rcd13ifvqc5g","pricing_plan_id":"cebpf4jnsgd1na2vs0mg"},{"bike_id":"e606a92f-e9f4-45d1-ab12-06df69c96def","system_id":"levelo_inurba_marseille","lat":43.26214,"lon":5.37441,"is_reserved":false,"is_disabled":false,"rental_uris":{"android":"levelo://app?vid=e606a92f-e9f4-45d1-ab12-06df69c96def","ios":"levelo://app?vid=e606a92f-e9f4-45d1-ab12-06df69c96def"},"vehicle_type_id":"4","last_reported":1734361851,"current_range_meters":29600,"station_id":"ce4bhgp2rcd13ifvqfc0","pricing_plan_id":"cebpf4jnsgd1na2vs0mg"},{"bike_id":"1723bbb9-95c9-4620-835c-9389366897dc","system_id":"levelo_inurba_marseille","lat":43.30597,"lon":5.37226,"is_reserved":false,"is_disabled":false,"rental_uris":{"android":"levelo://app?vid=1723bbb9-95c9-4620-835c-9389366897dc","ios":"levelo://app?vid=1723bbb9-95c9-4620-835c-9389366897dc"},"vehicle_type_id":"4","last_reported":1734361851,"current_range_meters":36000,"station_id":"ce4bgqh2rcd13ifvqc4g","pricing_plan_id":"cebpf4jnsgd1na2vs0mg"},{"bike_id":"9a5e4ab1-27ed-4305-badd-6bfc4b22e168","system_id":"levelo_inurba_marseille","lat":43.24981,"lon":5.38937,"is_reserved":false,"is_disabled":false,"rental_uris":{"android":"levelo://app?vid=9a5e4ab1-27ed-4305-badd-6bfc4b22e168","ios":"levelo://app?vid=9a5e4ab1-27ed-4305-badd-6bfc4b22e168"},"vehicle_type_id":"4","last_reported":1734361851,"current_range_meters":36800,"station_id":"ce4bhgp2rcd13ifvqfd0","pricing_plan_id":"cebpf4jnsgd1na2vs0mg"},{"bike_id":"0e2e421d-cab6-4bab-ab43-0de2daec6dd5","system_id":"levelo_inurba_marseille","lat":43.278805,"lon":5.388003,"is_reserved":false,"is_disabled":true,"rental_uris":{"android":"levelo://app?vid=0e2e421d-cab6-4bab-ab43-0de2daec6dd5","ios":"levelo://app?vid=0e2e421d-cab6-4bab-ab43-0de2daec6dd5"},"vehicle_type_id":"4","last_reported":1734361851,"current_range_meters":0,"station_id":"","pricing_plan_id":"cebpf4jnsgd1na2vs0mg"},{"bike_id":"b2fbf76e-693d-4da8-9de7-c4eed8e25dce","system_id":"levelo_inurba_marseille","lat":43.28858,"lon":5.35854,"is_reserved":false,"is_disabled":false,"rental_uris":{"android":"levelo://app?vid=b2fbf76e-693d-4da8-9de7-c4eed8e25dce","ios":"levelo://app?vid=b2fbf76e-693d-4da8-9de7-c4eed8e25dce"},"vehicle_type_id":"4","last_reported":1734361851,"current_range_meters":32800,"station_id":"ce4bhb12rcd13ifvqem0","pricing_plan_id":"cebpf4jnsgd1na2vs0mg"},{"bike_id":"60f692b6-8226-499b-9750-6d52ff8860c2","system_id":"levelo_inurba_marseille","lat":43.24671,"lon":5.38163,"is_reserved":false,"is_disabled":false,"rental_uris":{"android":"levelo://app?vid=60f692b6-8226-499b-9750-6d52ff8860c2","ios":"levelo://app?vid=60f692b6-8226-499b-9750-6d52ff8860c2"},"vehicle_type_id":"4","last_reported":1734361851,"current_range_meters":36000,"station_id":"ce4bhih2rcd13ifvqfr0","pricing_plan_id":"cebpf4jnsgd1na2vs0mg"},{"bike_id":"25c0c336-834d-421d-b66d-e51c42a0ba97","system_id":"levelo_inurba_marseille","lat":43.30698,"lon":5.36833,"is_reserved":false,"is_disabled":false,"rental_uris":{"android":"levelo://app?vid=25c0c336-834d-421d-b66d-e51c42a0ba97","ios":"levelo://app?vid=25c0c336-834d-421d-b66d-e51c42a0ba97"},"vehicle_type_id":"4","last_reported":1734361851,"current_range_meters":22800,"station_id":"","pricing_plan_id":"cebpf4jnsgd1na2vs0mg"},{"bike_id":"5c3c1393-6013-4339-9dfc-90dce462af03","system_id":"levelo_inurba_marseille","lat":43.25864,"lon":5.39917,"is_reserved":false,"is_disabled":false,"rental_uris":{"android":"levelo://app?vid=5c3c1393-6013-4339-9dfc-90dce462af03","ios":"levelo://app?vid=5c3c1393-6013-4339-9dfc-90dce462af03"},"vehicle_type_id":"4","last_reported":1734361851,"current_range_meters":38000,"station_id":"ce4bhl92rcd13ifvqghg","pricing_plan_id":"cebpf4jnsgd1na2vs0mg"},{"bike_id":"2d05377a-4c0b-4490-8e49-d1c0b4129e93","system_id":"levelo_inurba_marseille","lat":43.246492,"lon":5.389128,"is_reserved":false,"is_disabled":false,"rental_uris":{"android":"levelo://app?vid=2d05377a-4c0b-4490-8e49-d1c0b4129e93","ios":"levelo://app?vid=2d05377a-4c0b-4490-8e49-d1c0b4129e93"},"vehicle_type_id":"4","last_reported":1734361851,"current_range_meters":32400,"station_id":"ce4bhg12rcd13ifvqf60","pricing_plan_id":"cebpf4jnsgd1na2vs0mg"},{"bike_id":"5ce2e0da-569f-4880-baec-26c3582bd0fa","system_id":"levelo_inurba_marseille","lat":43.27905,"lon":5.39587,"is_reserved":false,"is_disabled":false,"rental_uris":{"android":"levelo://app?vid=5ce2e0da-569f-4880-baec-26c3582bd0fa","ios":"levelo://app?vid=5ce2e0da-569f-4880-baec-26c3582bd0fa"},"vehicle_type_id":"4","last_reported":1734361851,"current_range_meters":7200,"station_id":"ce4bhf92rcd13ifvqf40","pricing_plan_id":"cebpf4jnsgd1na2vs0mg"},{"bike_id":"584b569e-7298-4afe-b48b-612c38273697","system_id":"levelo_inurba_marseille","lat":43.31078,"lon":5.38351,"is_reserved":false,"is_disabled":true,"rental_uris":{"android":"levelo://app?vid=584b569e-7298-4afe-b48b-612c38273697","ios":"levelo://app?vid=584b569e-7298-4afe-b48b-612c38273697"},"vehicle_type_id":"4","last_reported":1734361851,"current_range_meters":0,"station_id":"ce4bgv92rcd13ifvqcr0","pricing_plan_id":"cebpf4jnsgd1na2vs0mg"},{"bike_id":"6fcca420-7b9a-4500-9580-675e569a2a96","system_id":"levelo_inurba_marseille","lat":43.26551,"lon":5.37293,"is_reserved":false,"is_disabled":false,"rental_uris":{"android":"levelo://app?vid=6fcca420-7b9a-4500-9580-675e569a2a96","ios":"levelo://app?vid=6fcca420-7b9a-4500-9580-675e569a2a96"},"vehicle_type_id":"4","last_reported":1734361851,"current_range_meters":26000,"station_id":"ce4bhg12rcd13ifvqf70","pricing_plan_id":"cebpf4jnsgd1na2vs0mg"},{"bike_id":"45818565-9a61-42c5-a778-39d583374116","system_id":"levelo_inurba_marseille","lat":43.30542,"lon":5.36556,"is_reserved":false,"is_disabled":false,"rental_uris":{"android":"levelo://app?vid=45818565-9a61-42c5-a778-39d583374116","ios":"levelo://app?vid=45818565-9a61-42c5-a778-39d583374116"},"vehicle_type_id":"4","last_reported":1734361851,"current_range_meters":37600,"station_id":"ce4bgs12rcd13ifvqcag","pricing_plan_id":"cebpf4jnsgd1na2vs0mg"},{"bike_id":"2b15d063-7a3f-4ab1-9a96-79820bd042f5","system_id":"levelo_inurba_marseille","lat":43.30241,"lon":5.40094,"is_reserved":false,"is_disabled":true,"rental_uris":{"android":"levelo://app?vid=2b15d063-7a3f-4ab1-9a96-79820bd042f5","ios":"levelo://app?vid=2b15d063-7a3f-4ab1-9a96-79820bd042f5"},"vehicle_type_id":"4","last_reported":1734361851,"current_range_meters":21600,"station_id":"ce4bgvh2rcd13ifvqcs0","pricing_plan_id":"cebpf4jnsgd1na2vs0mg"},{"bike_id":"c2f59a26-f067-484a-ba7c-5aab09beea22","system_id":"levelo_inurba_marseille","lat":43.29627,"lon":5.37167,"is_reserved":false,"is_disabled":false,"rental_uris":{"android":"levelo://app?vid=c2f59a26-f067-484a-ba7c-5aab09beea22","ios":"levelo://app?vid=c2f59a26-f067-484a-ba7c-5aab09beea22"},"vehicle_type_id":"4","last_reported":1734361851,"current_range_meters":39200,"station_id":"ce4bgnh2rcd13ifvqc0g","pricing_plan_id":"cebpf4jnsgd1na2vs0mg"},{"bike_id":"54c11d0c-45a0-42d8-8ca0-d10a61cb44e5","system_id":"levelo_inurba_marseille","lat":43.26556,"lon":5.37304,"is_reserved":false,"is_disabled":false,"rental_uris":{"android":"levelo://app?vid=54c11d0c-45a0-42d8-8ca0-d10a61cb44e5","ios":"levelo://app?vid=54c11d0c-45a0-42d8-8ca0-d10a61cb44e5"},"vehicle_type_id":"4","last_reported":1734361851,"current_range_meters":35600,"station_id":"ce4bhg12rcd13ifvqf70","pricing_plan_id":"cebpf4jnsgd1na2vs0mg"},{"bike_id":"b2bff0de-3d26-46f2-86c0-2d73c52b5878","system_id":"levelo_inurba_marseille","lat":43.29596,"lon":5.38102,"is_reserved":false,"is_disabled":false,"rental_uris":{"android":"levelo://app?vid=b2bff0de-3d26-46f2-86c0-2d73c52b5878","ios":"levelo://app?vid=b2bff0de-3d26-46f2-86c0-2d73c52b5878"},"vehicle_type_id":"4","last_reported":1734361851,"current_range_meters":38000,"station_id":"ce4bgl12rcd13ifvqbo0","pricing_plan_id":"cebpf4jnsgd1na2vs0mg"},{"bike_id":"8516f8e4-e3d6-408b-bf58-3767cf307f14","system_id":"levelo_inurba_marseille","lat":43.27995,"lon":5.41659,"is_reserved":false,"is_disabled":false,"rental_uris":{"android":"levelo://app?vid=8516f8e4-e3d6-408b-bf58-3767cf307f14","ios":"levelo://app?vid=8516f8e4-e3d6-408b-bf58-3767cf307f14"},"vehicle_type_id":"4","last_reported":1734361851,"current_range_meters":22800,"station_id":"ce4bho12rcd13ifvqh1g","pricing_plan_id":"cebpf4jnsgd1na2vs0mg"},{"bike_id":"88091754-b5d2-4564-ad93-322e5ec98b19","system_id":"levelo_inurba_marseille","lat":43.24648,"lon":5.38896,"is_reserved":false,"is_disabled":false,"rental_uris":{"android":"levelo://app?vid=88091754-b5d2-4564-ad93-322e5ec98b19","ios":"levelo://app?vid=88091754-b5d2-4564-ad93-322e5ec98b19"},"vehicle_type_id":"4","last_reported":1734361851,"current_range_meters":36400,"station_id":"ce4bhg12rcd13ifvqf60","pricing_plan_id":"cebpf4jnsgd1na2vs0mg"},{"bike_id":"4dbf72e9-c9b0-452d-b6c3-1ab70788c312","system_id":"levelo_inurba_marseille","lat":43.27947,"lon":5.41043,"is_reserved":false,"is_disabled":false,"rental_uris":{"android":"levelo://app?vid=4dbf72e9-c9b0-452d-b6c3-1ab70788c312","ios":"levelo://app?vid=4dbf72e9-c9b0-452d-b6c3-1ab70788c312"},"vehicle_type_id":"4","last_reported":1734361851,"current_range_meters":30000,"station_id":"ce4bhnp2rcd13ifvqh0g","pricing_plan_id":"cebpf4jnsgd1na2vs0mg"},{"bike_id":"76ec3642-6b04-4fa3-81b8-996f867e214d","system_id":"levelo_inurba_marseille","lat":43.24176,"lon":5.39714,"is_reserved":false,"is_disabled":true,"rental_uris":{"android":"levelo://app?vid=76ec3642-6b04-4fa3-81b8-996f867e214d","ios":"levelo://app?vid=76ec3642-6b04-4fa3-81b8-996f867e214d"},"vehicle_type_id":"4","last_reported":1734361851,"current_range_meters":17600,"station_id":"ce4bhn12rcd13ifvqgpg","pricing_plan_id":"cebpf4jnsgd1na2vs0mg"},{"bike_id":"b086f938-3dea-4025-a3c6-185d7dca2dfd","system_id":"levelo_inurba_marseille","lat":43.29618,"lon":5.37717,"is_reserved":false,"is_disabled":true,"rental_uris":{"android":"levelo://app?vid=b086f938-3dea-4025-a3c6-185d7dca2dfd","ios":"levelo://app?vid=b086f938-3dea-4025-a3c6-185d7dca2dfd"},"vehicle_type_id":"4","last_reported":1734361851,"current_range_meters":0,"station_id":"ce4bgi92rcd13ifvqb90","pricing_plan_id":"cebpf4jnsgd1na2vs0mg"},{"bike_id":"4f77a188-5b6b-4fd4-a15d-65dfddf5ab48","system_id":"levelo_inurba_marseille","lat":43.29704,"lon":5.36616,"is_reserved":false,"is_disabled":false,"rental_uris":{"android":"levelo://app?vid=4f77a188-5b6b-4fd4-a15d-65dfddf5ab48","ios":"levelo://app?vid=4f77a188-5b6b-4fd4-a15d-65dfddf5ab48"},"vehicle_type_id":"4","last_reported":1734361851,"current_range_meters":38800,"station_id":"ce4bgn12rcd13ifvqbt0","pricing_plan_id":"cebpf4jnsgd1na2vs0mg"},{"bike_id":"c79fda0c-3646-416a-baf5-0f4a8f48e7d8","system_id":"levelo_inurba_marseille","lat":43.29913,"lon":5.37472,"is_reserved":false,"is_disabled":false,"rental_uris":{"android":"levelo://app?vid=c79fda0c-3646-416a-baf5-0f4a8f48e7d8","ios":"levelo://app?vid=c79fda0c-3646-416a-baf5-0f4a8f48e7d8"},"vehicle_type_id":"4","last_reported":1734361851,"current_range_meters":39200,"station_id":"ce4bgjh2rcd13ifvqbg0","pricing_plan_id":"cebpf4jnsgd1na2vs0mg"},{"bike_id":"b7cc72ab-18af-4b4f-b1a4-6aad8509be19","system_id":"levelo_inurba_marseille","lat":43.28157,"lon":5.42628,"is_reserved":false,"is_disabled":false,"rental_uris":{"android":"levelo://app?vid=b7cc72ab-18af-4b4f-b1a4-6aad8509be19","ios":"levelo://app?vid=b7cc72ab-18af-4b4f-b1a4-6aad8509be19"},"vehicle_type_id":"4","last_reported":1734361851,"current_range_meters":12400,"station_id":"ce4bhnh2rcd13ifvqgug","pricing_plan_id":"cebpf4jnsgd1na2vs0mg"},{"bike_id":"eb754f73-4f6d-4a71-ac7c-b7c2518211c6","system_id":"levelo_inurba_marseille","lat":43.28281,"lon":5.3508,"is_reserved":false,"is_disabled":false,"rental_uris":{"android":"levelo://app?vid=eb754f73-4f6d-4a71-ac7c-b7c2518211c6","ios":"levelo://app?vid=eb754f73-4f6d-4a71-ac7c-b7c2518211c6"},"vehicle_type_id":"4","last_reported":1734361851,"current_range_meters":35200,"station_id":"ce4bhbp2rcd13ifvqerg","pricing_plan_id":"cebpf4jnsgd1na2vs0mg"},{"bike_id":"24a68509-a7b7-4773-acf8-05132d920676","system_id":"levelo_inurba_marseille","lat":43.30207,"lon":5.38052,"is_reserved":false,"is_disabled":false,"rental_uris":{"android":"levelo://app?vid=24a68509-a7b7-4773-acf8-05132d920676","ios":"levelo://app?vid=24a68509-a7b7-4773-acf8-05132d920676"},"vehicle_type_id":"4","last_reported":1734361851,"current_range_meters":24400,"station_id":"","pricing_plan_id":"cebpf4jnsgd1na2vs0mg"},{"bike_id":"3c5cb875-410f-42bd-812c-da745e86dabc","system_id":"levelo_inurba_marseille","lat":43.25937,"lon":5.40897,"is_reserved":false,"is_disabled":false,"rental_uris":{"android":"levelo://app?vid=3c5cb875-410f-42bd-812c-da745e86dabc","ios":"levelo://app?vid=3c5cb875-410f-42bd-812c-da745e86dabc"},"vehicle_type_id":"4","last_reported":1734361851,"current_range_meters":9600,"station_id":"ce4bhm92rcd13ifvqglg","pricing_plan_id":"cebpf4jnsgd1na2vs0mg"},{"bike_id":"7b7689db-74d6-46f6-a1ba-98ba247cfee8","system_id":"levelo_inurba_marseille","lat":43.28154,"lon":5.42647,"is_reserved":false,"is_disabled":true,"rental_uris":{"android":"levelo://app?vid=7b7689db-74d6-46f6-a1ba-98ba247cfee8","ios":"levelo://app?vid=7b7689db-74d6-46f6-a1ba-98ba247cfee8"},"vehicle_type_id":"4","last_reported":1734361851,"current_range_meters":0,"station_id":"ce4bhnh2rcd13ifvqgug","pricing_plan_id":"cebpf4jnsgd1na2vs0mg"},{"bike_id":"d83f2751-857b-4bf2-a664-7c5522f117f7","system_id":"levelo_inurba_marseille","lat":43.30636,"lon":5.40065,"is_reserved":false,"is_disabled":false,"rental_uris":{"android":"levelo://app?vid=d83f2751-857b-4bf2-a664-7c5522f117f7","ios":"levelo://app?vid=d83f2751-857b-4bf2-a664-7c5522f117f7"},"vehicle_type_id":"4","last_reported":1734361851,"current_range_meters":27200,"station_id":"ce4bh112rcd13ifvqda0","pricing_plan_id":"cebpf4jnsgd1na2vs0mg"},{"bike_id":"8d654d43-9638-4d6a-84ed-0f57ccdac7f5","system_id":"levelo_inurba_marseille","lat":43.28271,"lon":5.35083,"is_reserved":false,"is_disabled":false,"rental_uris":{"android":"levelo://app?vid=8d654d43-9638-4d6a-84ed-0f57ccdac7f5","ios":"levelo://app?vid=8d654d43-9638-4d6a-84ed-0f57ccdac7f5"},"vehicle_type_id":"4","last_reported":1734361851,"current_range_meters":38800,"station_id":"ce4bhbp2rcd13ifvqerg","pricing_plan_id":"cebpf4jnsgd1na2vs0mg"},{"bike_id":"f63cc70c-bdbe-4720-9517-ea1667f11531","system_id":"levelo_inurba_marseille","lat":43.24805,"lon":5.37452,"is_reserved":false,"is_disabled":false,"rental_uris":{"android":"levelo://app?vid=f63cc70c-bdbe-4720-9517-ea1667f11531","ios":"levelo://app?vid=f63cc70c-bdbe-4720-9517-ea1667f11531"},"vehicle_type_id":"4","last_reported":1734361851,"current_range_meters":10800,"station_id":"ce4bhgh2rcd13ifvqfb0","pricing_plan_id":"cebpf4jnsgd1na2vs0mg"},{"bike_id":"2c31c5ca-19ae-40e8-8c55-2a75041f29f1","system_id":"levelo_inurba_marseille","lat":43.26955,"lon":5.38636,"is_reserved":false,"is_disabled":false,"rental_uris":{"android":"levelo://app?vid=2c31c5ca-19ae-40e8-8c55-2a75041f29f1","ios":"levelo://app?vid=2c31c5ca-19ae-40e8-8c55-2a75041f29f1"},"vehicle_type_id":"4","last_reported":1734361851,"current_range_meters":29600,"station_id":"ce4bhh92rcd13ifvqfh0","pricing_plan_id":"cebpf4jnsgd1na2vs0mg"},{"bike_id":"76161a88-001a-4fcb-8463-f6d3d4fa201a","system_id":"levelo_inurba_marseille","lat":43.26831,"lon":5.39652,"is_reserved":false,"is_disabled":false,"rental_uris":{"android":"levelo://app?vid=76161a88-001a-4fcb-8463-f6d3d4fa201a","ios":"levelo://app?vid=76161a88-001a-4fcb-8463-f6d3d4fa201a"},"vehicle_type_id":"4","last_reported":1734361851,"current_range_meters":10800,"station_id":"","pricing_plan_id":"cebpf4jnsgd1na2vs0mg"},{"bike_id":"7dc1a192-837f-413e-98a5-38f43bdb5ecf","system_id":"levelo_inurba_marseille","lat":43.27843,"lon":5.39211,"is_reserved":false,"is_disabled":false,"rental_uris":{"android":"levelo://app?vid=7dc1a192-837f-413e-98a5-38f43bdb5ecf","ios":"levelo://app?vid=7dc1a192-837f-413e-98a5-38f43bdb5ecf"},"vehicle_type_id":"4","last_reported":1734361851,"current_range_meters":33200,"station_id":"ce4bhjp2rcd13ifvqga0","pricing_plan_id":"cebpf4jnsgd1na2vs0mg"},{"bike_id":"bb1c0ef0-184d-4b17-9016-88e561b3d27b","system_id":"levelo_inurba_marseille","lat":43.28615,"lon":5.35099,"is_reserved":false,"is_disabled":true,"rental_uris":{"android":"levelo://app?vid=bb1c0ef0-184d-4b17-9016-88e561b3d27b","ios":"levelo://app?vid=bb1c0ef0-184d-4b17-9016-88e561b3d27b"},"vehicle_type_id":"4","last_reported":1734361851,"current_range_meters":26800,"station_id":"ce4bhch2rcd13ifvqeug","pricing_plan_id":"cebpf4jnsgd1na2vs0mg"},{"bike_id":"eea4ab17-ee4a-4274-b018-a71cbdefaef9","system_id":"levelo_inurba_marseille","lat":43.23064,"lon":5.35493,"is_reserved":false,"is_disabled":false,"rental_uris":{"android":"levelo://app?vid=eea4ab17-ee4a-4274-b018-a71cbdefaef9","ios":"levelo://app?vid=eea4ab17-ee4a-4274-b018-a71cbdefaef9"},"vehicle_type_id":"4","last_reported":1734361851,"current_range_meters":36800,"station_id":"cpo3342slgdg3j2ifvpg","pricing_plan_id":"cebpf4jnsgd1na2vs0mg"},{"bike_id":"8e9a2a8f-2a70-421a-ab74-6c2a0b953b9c","system_id":"levelo_inurba_marseille","lat":43.29097,"lon":5.38136,"is_reserved":false,"is_disabled":false,"rental_uris":{"android":"levelo://app?vid=8e9a2a8f-2a70-421a-ab74-6c2a0b953b9c","ios":"levelo://app?vid=8e9a2a8f-2a70-421a-ab74-6c2a0b953b9c"},"vehicle_type_id":"4","last_reported":1734361851,"current_range_meters":17200,"station_id":"ce4bh512rcd13ifvqe2g","pricing_plan_id":"cebpf4jnsgd1na2vs0mg"},{"bike_id":"8eb79a9f-a77c-4b8c-bdeb-19543ebf429e","system_id":"levelo_inurba_marseille","lat":43.24654,"lon":5.38915,"is_reserved":false,"is_disabled":false,"rental_uris":{"android":"levelo://app?vid=8eb79a9f-a77c-4b8c-bdeb-19543ebf429e","ios":"levelo://app?vid=8eb79a9f-a77c-4b8c-bdeb-19543ebf429e"},"vehicle_type_id":"4","last_reported":1734361851,"current_range_meters":17600,"station_id":"ce4bhg12rcd13ifvqf60","pricing_plan_id":"cebpf4jnsgd1na2vs0mg"},{"bike_id":"62ae4568-3963-4162-91fe-14454e2a5ed0","system_id":"levelo_inurba_marseille","lat":43.24666,"lon":5.38169,"is_reserved":false,"is_disabled":true,"rental_uris":{"android":"levelo://app?vid=62ae4568-3963-4162-91fe-14454e2a5ed0","ios":"levelo://app?vid=62ae4568-3963-4162-91fe-14454e2a5ed0"},"vehicle_type_id":"4","last_reported":1734361851,"current_range_meters":38800,"station_id":"ce4bhih2rcd13ifvqfr0","pricing_plan_id":"cebpf4jnsgd1na2vs0mg"},{"bike_id":"16ff838f-1cdb-4ddb-b5eb-dde2105d633a","system_id":"levelo_inurba_marseille","lat":43.26567,"lon":5.37296,"is_reserved":false,"is_disabled":false,"rental_uris":{"android":"levelo://app?vid=16ff838f-1cdb-4ddb-b5eb-dde2105d633a","ios":"levelo://app?vid=16ff838f-1cdb-4ddb-b5eb-dde2105d633a"},"vehicle_type_id":"4","last_reported":1734361851,"current_range_meters":30400,"station_id":"ce4bhg12rcd13ifvqf70","pricing_plan_id":"cebpf4jnsgd1na2vs0mg"},{"bike_id":"93b8097a-5418-40b4-828a-7bfd05e180a1","system_id":"levelo_inurba_marseille","lat":43.26486,"lon":5.39544,"is_reserved":false,"is_disabled":false,"rental_uris":{"android":"levelo://app?vid=93b8097a-5418-40b4-828a-7bfd05e180a1","ios":"levelo://app?vid=93b8097a-5418-40b4-828a-7bfd05e180a1"},"vehicle_type_id":"4","last_reported":1734361851,"current_range_meters":38800,"station_id":"ce4bhi12rcd13ifvqfq0","pricing_plan_id":"cebpf4jnsgd1na2vs0mg"},{"bike_id":"07974290-673e-48e4-818f-9ca1fff3397c","system_id":"levelo_inurba_marseille","lat":43.2418,"lon":5.39736,"is_reserved":false,"is_disabled":true,"rental_uris":{"android":"levelo://app?vid=07974290-673e-48e4-818f-9ca1fff3397c","ios":"levelo://app?vid=07974290-673e-48e4-818f-9ca1fff3397c"},"vehicle_type_id":"4","last_reported":1734361851,"current_range_meters":0,"station_id":"ce4bhn12rcd13ifvqgpg","pricing_plan_id":"cebpf4jnsgd1na2vs0mg"},{"bike_id":"8e7c3683-99a9-4188-89c4-858575c3d04c","system_id":"levelo_inurba_marseille","lat":43.27656,"lon":5.38951,"is_reserved":false,"is_disabled":true,"rental_uris":{"android":"levelo://app?vid=8e7c3683-99a9-4188-89c4-858575c3d04c","ios":"levelo://app?vid=8e7c3683-99a9-4188-89c4-858575c3d04c"},"vehicle_type_id":"4","last_reported":1734361851,"current_range_meters":35200,"station_id":"ce4bhi12rcd13ifvqfo0","pricing_plan_id":"cebpf4jnsgd1na2vs0mg"},{"bike_id":"bf71b712-b0b1-401f-88fb-1f03f0ed5192","system_id":"levelo_inurba_marseille","lat":43.28447,"lon":5.39205,"is_reserved":false,"is_disabled":false,"rental_uris":{"android":"levelo://app?vid=bf71b712-b0b1-401f-88fb-1f03f0ed5192","ios":"levelo://app?vid=bf71b712-b0b1-401f-88fb-1f03f0ed5192"},"vehicle_type_id":"4","last_reported":1734361851,"current_range_meters":30400,"station_id":"ce4bhoh2rcd13ifvqh5g","pricing_plan_id":"cebpf4jnsgd1na2vs0mg"},{"bike_id":"a0fcbaba-7b0b-4aea-9621-758d41cc1e96","system_id":"levelo_inurba_marseille","lat":43.27311,"lon":5.39096,"is_reserved":false,"is_disabled":false,"rental_uris":{"android":"levelo://app?vid=a0fcbaba-7b0b-4aea-9621-758d41cc1e96","ios":"levelo://app?vid=a0fcbaba-7b0b-4aea-9621-758d41cc1e96"},"vehicle_type_id":"4","last_reported":1734361851,"current_range_meters":7200,"station_id":"ce4bhgp2rcd13ifvqfe0","pricing_plan_id":"cebpf4jnsgd1na2vs0mg"},{"bike_id":"01846dd2-59f2-46df-b071-3d2d59252b4c","system_id":"levelo_inurba_marseille","lat":43.29487,"lon":5.37402,"is_reserved":false,"is_disabled":false,"rental_uris":{"android":"levelo://app?vid=01846dd2-59f2-46df-b071-3d2d59252b4c","ios":"levelo://app?vid=01846dd2-59f2-46df-b071-3d2d59252b4c"},"vehicle_type_id":"4","last_reported":1734361851,"current_range_meters":3600,"station_id":"","pricing_plan_id":"cebpf4jnsgd1na2vs0mg"},{"bike_id":"8ecf3ad5-c87f-40b6-b4f5-aa4431f260b4","system_id":"levelo_inurba_marseille","lat":43.2619,"lon":5.37447,"is_reserved":false,"is_disabled":false,"rental_uris":{"android":"levelo://app?vid=8ecf3ad5-c87f-40b6-b4f5-aa4431f260b4","ios":"levelo://app?vid=8ecf3ad5-c87f-40b6-b4f5-aa4431f260b4"},"vehicle_type_id":"4","last_reported":1734361851,"current_range_meters":38800,"station_id":"ce4bhgp2rcd13ifvqfc0","pricing_plan_id":"cebpf4jnsgd1na2vs0mg"},{"bike_id":"621491f6-ccb0-4336-9455-1c394e692f77","system_id":"levelo_inurba_marseille","lat":43.33017,"lon":5.39036,"is_reserved":false,"is_disabled":true,"rental_uris":{"android":"levelo://app?vid=621491f6-ccb0-4336-9455-1c394e692f77","ios":"levelo://app?vid=621491f6-ccb0-4336-9455-1c394e692f77"},"vehicle_type_id":"4","last_reported":1734361851,"current_range_meters":0,"station_id":"ce4bhr92rcd13ifvqhrg","pricing_plan_id":"cebpf4jnsgd1na2vs0mg"},{"bike_id":"c36dcfa8-7a81-4c93-87b4-ed30b5c43d56","system_id":"levelo_inurba_marseille","lat":43.25582,"lon":5.38243,"is_reserved":false,"is_disabled":false,"rental_uris":{"android":"levelo://app?vid=c36dcfa8-7a81-4c93-87b4-ed30b5c43d56","ios":"levelo://app?vid=c36dcfa8-7a81-4c93-87b4-ed30b5c43d56"},"vehicle_type_id":"4","last_reported":1734361851,"current_range_meters":22000,"station_id":"ce4bhih2rcd13ifvqfs0","pricing_plan_id":"cebpf4jnsgd1na2vs0mg"},{"bike_id":"47147b0f-3618-4e94-a865-ad87d02400e1","system_id":"levelo_inurba_marseille","lat":43.2956,"lon":5.37532,"is_reserved":false,"is_disabled":false,"rental_uris":{"android":"levelo://app?vid=47147b0f-3618-4e94-a865-ad87d02400e1","ios":"levelo://app?vid=47147b0f-3618-4e94-a865-ad87d02400e1"},"vehicle_type_id":"4","last_reported":1734361851,"current_range_meters":28000,"station_id":"ce4bgh92rcd13ifvqb50","pricing_plan_id":"cebpf4jnsgd1na2vs0mg"},{"bike_id":"c1b8dee9-9ce1-42c1-9ed1-4aa5a9cfa85f","system_id":"levelo_inurba_marseille","lat":43.29421,"lon":5.38613,"is_reserved":false,"is_disabled":true,"rental_uris":{"android":"levelo://app?vid=c1b8dee9-9ce1-42c1-9ed1-4aa5a9cfa85f","ios":"levelo://app?vid=c1b8dee9-9ce1-42c1-9ed1-4aa5a9cfa85f"},"vehicle_type_id":"4","last_reported":1734361851,"current_range_meters":1600,"station_id":"ce4bh2h2rcd13ifvqdh0","pricing_plan_id":"cebpf4jnsgd1na2vs0mg"},{"bike_id":"da367a13-9571-4681-95fb-35c39e82c933","system_id":"levelo_inurba_marseille","lat":43.27679,"lon":5.38935,"is_reserved":false,"is_disabled":false,"rental_uris":{"android":"levelo://app?vid=da367a13-9571-4681-95fb-35c39e82c933","ios":"levelo://app?vid=da367a13-9571-4681-95fb-35c39e82c933"},"vehicle_type_id":"4","last_reported":1734361851,"current_range_meters":28800,"station_id":"ce4bhi12rcd13ifvqfo0","pricing_plan_id":"cebpf4jnsgd1na2vs0mg"},{"bike_id":"bcc80c81-fcd8-4c4d-9f22-b139d4ccc9a7","system_id":"levelo_inurba_marseille","lat":43.27849,"lon":5.40722,"is_reserved":false,"is_disabled":false,"rental_uris":{"android":"levelo://app?vid=bcc80c81-fcd8-4c4d-9f22-b139d4ccc9a7","ios":"levelo://app?vid=bcc80c81-fcd8-4c4d-9f22-b139d4ccc9a7"},"vehicle_type_id":"4","last_reported":1734361851,"current_range_meters":24400,"station_id":"ce4bhnh2rcd13ifvqgtg","pricing_plan_id":"cebpf4jnsgd1na2vs0mg"},{"bike_id":"c1f3f1df-93f6-4bed-a748-9e86d7cd5cbd","system_id":"levelo_inurba_marseille","lat":43.28151,"lon":5.42641,"is_reserved":false,"is_disabled":false,"rental_uris":{"android":"levelo://app?vid=c1f3f1df-93f6-4bed-a748-9e86d7cd5cbd","ios":"levelo://app?vid=c1f3f1df-93f6-4bed-a748-9e86d7cd5cbd"},"vehicle_type_id":"4","last_reported":1734361851,"current_range_meters":8000,"station_id":"ce4bhnh2rcd13ifvqgug","pricing_plan_id":"cebpf4jnsgd1na2vs0mg"},{"bike_id":"6afe920d-4000-429a-84e5-416689c1fee2","system_id":"levelo_inurba_marseille","lat":43.28854,"lon":5.35852,"is_reserved":false,"is_disabled":false,"rental_uris":{"android":"levelo://app?vid=6afe920d-4000-429a-84e5-416689c1fee2","ios":"levelo://app?vid=6afe920d-4000-429a-84e5-416689c1fee2"},"vehicle_type_id":"4","last_reported":1734361851,"current_range_meters":14000,"station_id":"ce4bhb12rcd13ifvqem0","pricing_plan_id":"cebpf4jnsgd1na2vs0mg"},{"bike_id":"7409c13c-87ac-498e-a27f-3defaf30edde","system_id":"levelo_inurba_marseille","lat":43.2704,"lon":5.4028,"is_reserved":false,"is_disabled":false,"rental_uris":{"android":"levelo://app?vid=7409c13c-87ac-498e-a27f-3defaf30edde","ios":"levelo://app?vid=7409c13c-87ac-498e-a27f-3defaf30edde"},"vehicle_type_id":"4","last_reported":1734361851,"current_range_meters":33600,"station_id":"ce4bhk92rcd13ifvqgc0","pricing_plan_id":"cebpf4jnsgd1na2vs0mg"},{"bike_id":"8b9e3f05-45dc-4d65-bae6-d9504ba1819f","system_id":"levelo_inurba_marseille","lat":43.31756,"lon":5.39024,"is_reserved":false,"is_disabled":false,"rental_uris":{"android":"levelo://app?vid=8b9e3f05-45dc-4d65-bae6-d9504ba1819f","ios":"levelo://app?vid=8b9e3f05-45dc-4d65-bae6-d9504ba1819f"},"vehicle_type_id":"4","last_reported":1734361851,"current_range_meters":7200,"station_id":"ce4bhqp2rcd13ifvqhng","pricing_plan_id":"cebpf4jnsgd1na2vs0mg"},{"bike_id":"877102fb-2ee0-406c-ba55-366aef5ae437","system_id":"levelo_inurba_marseille","lat":43.30135,"lon":5.39887,"is_reserved":false,"is_disabled":false,"rental_uris":{"android":"levelo://app?vid=877102fb-2ee0-406c-ba55-366aef5ae437","ios":"levelo://app?vid=877102fb-2ee0-406c-ba55-366aef5ae437"},"vehicle_type_id":"4","last_reported":1734361851,"current_range_meters":28800,"station_id":"ce4bh0h2rcd13ifvqd40","pricing_plan_id":"cebpf4jnsgd1na2vs0mg"},{"bike_id":"f96d3b14-bf65-4d36-a4de-9485da88900c","system_id":"levelo_inurba_marseille","lat":43.31703,"lon":5.40477,"is_reserved":false,"is_disabled":true,"rental_uris":{"android":"levelo://app?vid=f96d3b14-bf65-4d36-a4de-9485da88900c","ios":"levelo://app?vid=f96d3b14-bf65-4d36-a4de-9485da88900c"},"vehicle_type_id":"4","last_reported":1734361851,"current_range_meters":36800,"station_id":"ce4bh012rcd13ifvqd00","pricing_plan_id":"cebpf4jnsgd1na2vs0mg"},{"bike_id":"504b7892-dba5-477a-8e35-d89d7f700bd1","system_id":"levelo_inurba_marseille","lat":43.27494,"lon":5.42465,"is_reserved":false,"is_disabled":false,"rental_uris":{"android":"levelo://app?vid=504b7892-dba5-477a-8e35-d89d7f700bd1","ios":"levelo://app?vid=504b7892-dba5-477a-8e35-d89d7f700bd1"},"vehicle_type_id":"4","last_reported":1734361851,"current_range_meters":37600,"station_id":"ce4bhn92rcd13ifvqgrg","pricing_plan_id":"cebpf4jnsgd1na2vs0mg"},{"bike_id":"679d31d4-e8f0-4997-ab5e-24dd875b6989","system_id":"levelo_inurba_marseille","lat":43.24652,"lon":5.38906,"is_reserved":false,"is_disabled":false,"rental_uris":{"android":"levelo://app?vid=679d31d4-e8f0-4997-ab5e-24dd875b6989","ios":"levelo://app?vid=679d31d4-e8f0-4997-ab5e-24dd875b6989"},"vehicle_type_id":"4","last_reported":1734361851,"current_range_meters":34000,"station_id":"ce4bhg12rcd13ifvqf60","pricing_plan_id":"cebpf4jnsgd1na2vs0mg"},{"bike_id":"d7c1cf73-5ea5-4c2f-a402-88978e03c60a","system_id":"levelo_inurba_marseille","lat":43.29474,"lon":5.3623,"is_reserved":false,"is_disabled":false,"rental_uris":{"android":"levelo://app?vid=d7c1cf73-5ea5-4c2f-a402-88978e03c60a","ios":"levelo://app?vid=d7c1cf73-5ea5-4c2f-a402-88978e03c60a"},"vehicle_type_id":"4","last_reported":1734361851,"current_range_meters":6400,"station_id":"","pricing_plan_id":"cebpf4jnsgd1na2vs0mg"},{"bike_id":"3ae80103-8e35-4100-9ada-0ce3cf2efd16","system_id":"levelo_inurba_marseille","lat":43.32485,"lon":5.36575,"is_reserved":false,"is_disabled":false,"rental_uris":{"android":"levelo://app?vid=3ae80103-8e35-4100-9ada-0ce3cf2efd16","ios":"levelo://app?vid=3ae80103-8e35-4100-9ada-0ce3cf2efd16"},"vehicle_type_id":"4","last_reported":1734361851,"current_range_meters":18800,"station_id":"ce4bhs12rcd13ifvqhvg","pricing_plan_id":"cebpf4jnsgd1na2vs0mg"},{"bike_id":"45e69198-43e0-423d-83f4-b48541e23fe6","system_id":"levelo_inurba_marseille","lat":43.30795,"lon":5.43526,"is_reserved":false,"is_disabled":false,"rental_uris":{"android":"levelo://app?vid=45e69198-43e0-423d-83f4-b48541e23fe6","ios":"levelo://app?vid=45e69198-43e0-423d-83f4-b48541e23fe6"},"vehicle_type_id":"4","last_reported":1734361851,"current_range_meters":38800,"station_id":"ce4bhph2rcd13ifvqheg","pricing_plan_id":"cebpf4jnsgd1na2vs0mg"},{"bike_id":"5814528b-d19f-4b65-b050-a777c02f5e92","system_id":"levelo_inurba_marseille","lat":43.28713,"lon":5.37933,"is_reserved":false,"is_disabled":false,"rental_uris":{"android":"levelo://app?vid=5814528b-d19f-4b65-b050-a777c02f5e92","ios":"levelo://app?vid=5814528b-d19f-4b65-b050-a777c02f5e92"},"vehicle_type_id":"4","last_reported":1734361851,"current_range_meters":20000,"station_id":"ce4bh9p2rcd13ifvqec0","pricing_plan_id":"cebpf4jnsgd1na2vs0mg"},{"bike_id":"93f234b8-1913-4d3a-9bd4-b95f11f93e1d","system_id":"levelo_inurba_marseille","lat":43.28454,"lon":5.35894,"is_reserved":false,"is_disabled":false,"rental_uris":{"android":"levelo://app?vid=93f234b8-1913-4d3a-9bd4-b95f11f93e1d","ios":"levelo://app?vid=93f234b8-1913-4d3a-9bd4-b95f11f93e1d"},"vehicle_type_id":"4","last_reported":1734361851,"current_range_meters":16400,"station_id":"ce4bhah2rcd13ifvqei0","pricing_plan_id":"cebpf4jnsgd1na2vs0mg"},{"bike_id":"e2ffdb4e-7393-4caf-b351-a5a551c5e9dc","system_id":"levelo_inurba_marseille","lat":43.26498,"lon":5.39539,"is_reserved":false,"is_disabled":false,"rental_uris":{"android":"levelo://app?vid=e2ffdb4e-7393-4caf-b351-a5a551c5e9dc","ios":"levelo://app?vid=e2ffdb4e-7393-4caf-b351-a5a551c5e9dc"},"vehicle_type_id":"4","last_reported":1734361851,"current_range_meters":39200,"station_id":"ce4bhi12rcd13ifvqfq0","pricing_plan_id":"cebpf4jnsgd1na2vs0mg"},{"bike_id":"cbb68f09-4301-44c8-a7d1-12f19bd07863","system_id":"levelo_inurba_marseille","lat":43.306079,"lon":5.372198,"is_reserved":false,"is_disabled":false,"rental_uris":{"android":"levelo://app?vid=cbb68f09-4301-44c8-a7d1-12f19bd07863","ios":"levelo://app?vid=cbb68f09-4301-44c8-a7d1-12f19bd07863"},"vehicle_type_id":"4","last_reported":1734361851,"current_range_meters":28800,"station_id":"ce4bgqh2rcd13ifvqc4g","pricing_plan_id":"cebpf4jnsgd1na2vs0mg"},{"bike_id":"bbd73bd0-2c6e-4dd4-9a26-4f73a5d27b91","system_id":"levelo_inurba_marseille","lat":43.27676,"lon":5.3888,"is_reserved":false,"is_disabled":false,"rental_uris":{"android":"levelo://app?vid=bbd73bd0-2c6e-4dd4-9a26-4f73a5d27b91","ios":"levelo://app?vid=bbd73bd0-2c6e-4dd4-9a26-4f73a5d27b91"},"vehicle_type_id":"4","last_reported":1734361851,"current_range_meters":21600,"station_id":"ce4bhi12rcd13ifvqfo0","pricing_plan_id":"cebpf4jnsgd1na2vs0mg"},{"bike_id":"b3d4a825-833d-4715-a119-83ce42b17e8d","system_id":"levelo_inurba_marseille","lat":43.26206,"lon":5.37445,"is_reserved":false,"is_disabled":false,"rental_uris":{"android":"levelo://app?vid=b3d4a825-833d-4715-a119-83ce42b17e8d","ios":"levelo://app?vid=b3d4a825-833d-4715-a119-83ce42b17e8d"},"vehicle_type_id":"4","last_reported":1734361851,"current_range_meters":14000,"station_id":"ce4bhgp2rcd13ifvqfc0","pricing_plan_id":"cebpf4jnsgd1na2vs0mg"},{"bike_id":"dd61c0e2-e3a0-4f10-b24a-cd8e3099b7ef","system_id":"levelo_inurba_marseille","lat":43.29225,"lon":5.36066,"is_reserved":false,"is_disabled":false,"rental_uris":{"android":"levelo://app?vid=dd61c0e2-e3a0-4f10-b24a-cd8e3099b7ef","ios":"levelo://app?vid=dd61c0e2-e3a0-4f10-b24a-cd8e3099b7ef"},"vehicle_type_id":"4","last_reported":1734361851,"current_range_meters":32000,"station_id":"ce4bhbh2rcd13ifvqeqg","pricing_plan_id":"cebpf4jnsgd1na2vs0mg"},{"bike_id":"01972dcb-5194-4c11-855e-693a28551e27","system_id":"levelo_inurba_marseille","lat":43.29713,"lon":5.36612,"is_reserved":false,"is_disabled":false,"rental_uris":{"android":"levelo://app?vid=01972dcb-5194-4c11-855e-693a28551e27","ios":"levelo://app?vid=01972dcb-5194-4c11-855e-693a28551e27"},"vehicle_type_id":"4","last_reported":1734361851,"current_range_meters":38800,"station_id":"ce4bgn12rcd13ifvqbt0","pricing_plan_id":"cebpf4jnsgd1na2vs0mg"},{"bike_id":"f953f43e-1805-4821-ae2b-e06e1efa84c6","system_id":"levelo_inurba_marseille","lat":43.30532,"lon":5.36548,"is_reserved":false,"is_disabled":false,"rental_uris":{"android":"levelo://app?vid=f953f43e-1805-4821-ae2b-e06e1efa84c6","ios":"levelo://app?vid=f953f43e-1805-4821-ae2b-e06e1efa84c6"},"vehicle_type_id":"4","last_reported":1734361851,"current_range_meters":36000,"station_id":"ce4bgs12rcd13ifvqcag","pricing_plan_id":"cebpf4jnsgd1na2vs0mg"},{"bike_id":"740600ff-51bf-48ac-bead-83c9124077ca","system_id":"levelo_inurba_marseille","lat":43.27428,"lon":5.39416,"is_reserved":false,"is_disabled":false,"rental_uris":{"android":"levelo://app?vid=740600ff-51bf-48ac-bead-83c9124077ca","ios":"levelo://app?vid=740600ff-51bf-48ac-bead-83c9124077ca"},"vehicle_type_id":"4","last_reported":1734361851,"current_range_meters":24800,"station_id":"ce4bhdp2rcd13ifvqf20","pricing_plan_id":"cebpf4jnsgd1na2vs0mg"},{"bike_id":"b3b6de97-f02e-4cd8-96c7-65922ad829a7","system_id":"levelo_inurba_marseille","lat":43.24653,"lon":5.38894,"is_reserved":false,"is_disabled":false,"rental_uris":{"android":"levelo://app?vid=b3b6de97-f02e-4cd8-96c7-65922ad829a7","ios":"levelo://app?vid=b3b6de97-f02e-4cd8-96c7-65922ad829a7"},"vehicle_type_id":"4","last_reported":1734361851,"current_range_meters":16400,"station_id":"ce4bhg12rcd13ifvqf60","pricing_plan_id":"cebpf4jnsgd1na2vs0mg"},{"bike_id":"623c9d14-c4f2-4210-a918-79ed399b21d5","system_id":"levelo_inurba_marseille","lat":43.30207,"lon":5.39461,"is_reserved":false,"is_disabled":false,"rental_uris":{"android":"levelo://app?vid=623c9d14-c4f2-4210-a918-79ed399b21d5","ios":"levelo://app?vid=623c9d14-c4f2-4210-a918-79ed399b21d5"},"vehicle_type_id":"4","last_reported":1734361851,"current_range_meters":9600,"station_id":"ce4bh0p2rcd13ifvqd70","pricing_plan_id":"cebpf4jnsgd1na2vs0mg"},{"bike_id":"b080cd93-ae1d-416c-aff0-33280d88921a","system_id":"levelo_inurba_marseille","lat":43.26506,"lon":5.39549,"is_reserved":false,"is_disabled":false,"rental_uris":{"android":"levelo://app?vid=b080cd93-ae1d-416c-aff0-33280d88921a","ios":"levelo://app?vid=b080cd93-ae1d-416c-aff0-33280d88921a"},"vehicle_type_id":"4","last_reported":1734361851,"current_range_meters":35600,"station_id":"ce4bhi12rcd13ifvqfq0","pricing_plan_id":"cebpf4jnsgd1na2vs0mg"},{"bike_id":"818655c2-9e4a-485a-b6f8-75b9611689aa","system_id":"levelo_inurba_marseille","lat":43.29282,"lon":5.40128,"is_reserved":false,"is_disabled":true,"rental_uris":{"android":"levelo://app?vid=818655c2-9e4a-485a-b6f8-75b9611689aa","ios":"levelo://app?vid=818655c2-9e4a-485a-b6f8-75b9611689aa"},"vehicle_type_id":"4","last_reported":1734361851,"current_range_meters":1200,"station_id":"ce4bh312rcd13ifvqdk0","pricing_plan_id":"cebpf4jnsgd1na2vs0mg"},{"bike_id":"22cfe5ba-d34f-4452-a8b6-212d64b4bd9b","system_id":"levelo_inurba_marseille","lat":43.24153,"lon":5.3971,"is_reserved":false,"is_disabled":false,"rental_uris":{"android":"levelo://app?vid=22cfe5ba-d34f-4452-a8b6-212d64b4bd9b","ios":"levelo://app?vid=22cfe5ba-d34f-4452-a8b6-212d64b4bd9b"},"vehicle_type_id":"4","last_reported":1734361851,"current_range_meters":33200,"station_id":"ce4bhn12rcd13ifvqgpg","pricing_plan_id":"cebpf4jnsgd1na2vs0mg"},{"bike_id":"012bf7e8-caab-4a76-ac9e-eb37f258f686","system_id":"levelo_inurba_marseille","lat":43.24388,"lon":5.37066,"is_reserved":false,"is_disabled":false,"rental_uris":{"android":"levelo://app?vid=012bf7e8-caab-4a76-ac9e-eb37f258f686","ios":"levelo://app?vid=012bf7e8-caab-4a76-ac9e-eb37f258f686"},"vehicle_type_id":"4","last_reported":1734361851,"current_range_meters":38800,"station_id":"ce4bhhh2rcd13ifvqfk0","pricing_plan_id":"cebpf4jnsgd1na2vs0mg"},{"bike_id":"b4d5f12c-ac05-4575-ba91-0c28905bee45","system_id":"levelo_inurba_marseille","lat":43.27995,"lon":5.40022,"is_reserved":false,"is_disabled":false,"rental_uris":{"android":"levelo://app?vid=b4d5f12c-ac05-4575-ba91-0c28905bee45","ios":"levelo://app?vid=b4d5f12c-ac05-4575-ba91-0c28905bee45"},"vehicle_type_id":"4","last_reported":1734361851,"current_range_meters":33600,"station_id":"ce4bho92rcd13ifvqh4g","pricing_plan_id":"cebpf4jnsgd1na2vs0mg"},{"bike_id":"b58d450e-0a79-4971-84ec-e990225689de","system_id":"levelo_inurba_marseille","lat":43.29263,"lon":5.36844,"is_reserved":false,"is_disabled":true,"rental_uris":{"android":"levelo://app?vid=b58d450e-0a79-4971-84ec-e990225689de","ios":"levelo://app?vid=b58d450e-0a79-4971-84ec-e990225689de"},"vehicle_type_id":"4","last_reported":1734361851,"current_range_meters":400,"station_id":"ce4bhbp2rcd13ifvqesg","pricing_plan_id":"cebpf4jnsgd1na2vs0mg"},{"bike_id":"a3ae6ee4-d060-4597-a716-f8c3846f7f84","system_id":"levelo_inurba_marseille","lat":43.28281,"lon":5.3508,"is_reserved":false,"is_disabled":false,"rental_uris":{"android":"levelo://app?vid=a3ae6ee4-d060-4597-a716-f8c3846f7f84","ios":"levelo://app?vid=a3ae6ee4-d060-4597-a716-f8c3846f7f84"},"vehicle_type_id":"4","last_reported":1734361851,"current_range_meters":38800,"station_id":"ce4bhbp2rcd13ifvqerg","pricing_plan_id":"cebpf4jnsgd1na2vs0mg"},{"bike_id":"074e9dc8-f6cf-4bd7-b43d-e16a09d8bc72","system_id":"levelo_inurba_marseille","lat":43.26485,"lon":5.39555,"is_reserved":false,"is_disabled":false,"rental_uris":{"android":"levelo://app?vid=074e9dc8-f6cf-4bd7-b43d-e16a09d8bc72","ios":"levelo://app?vid=074e9dc8-f6cf-4bd7-b43d-e16a09d8bc72"},"vehicle_type_id":"4","last_reported":1734361851,"current_range_meters":29600,"station_id":"ce4bhi12rcd13ifvqfq0","pricing_plan_id":"cebpf4jnsgd1na2vs0mg"},{"bike_id":"55c6cf2e-15ea-4da3-8ba8-142990e6bdb6","system_id":"levelo_inurba_marseille","lat":43.27213,"lon":5.39203,"is_reserved":false,"is_disabled":false,"rental_uris":{"android":"levelo://app?vid=55c6cf2e-15ea-4da3-8ba8-142990e6bdb6","ios":"levelo://app?vid=55c6cf2e-15ea-4da3-8ba8-142990e6bdb6"},"vehicle_type_id":"4","last_reported":1734361851,"current_range_meters":16800,"station_id":"ce4bhhp2rcd13ifvqfm0","pricing_plan_id":"cebpf4jnsgd1na2vs0mg"},{"bike_id":"abe53e70-500f-4418-80b4-583298940a44","system_id":"levelo_inurba_marseille","lat":43.29922,"lon":5.37459,"is_reserved":false,"is_disabled":false,"rental_uris":{"android":"levelo://app?vid=abe53e70-500f-4418-80b4-583298940a44","ios":"levelo://app?vid=abe53e70-500f-4418-80b4-583298940a44"},"vehicle_type_id":"4","last_reported":1734361851,"current_range_meters":30000,"station_id":"ce4bgjh2rcd13ifvqbg0","pricing_plan_id":"cebpf4jnsgd1na2vs0mg"},{"bike_id":"0a6e5bae-fb48-41a4-9ec2-da2a1d6ffbd5","system_id":"levelo_inurba_marseille","lat":43.27673,"lon":5.38919,"is_reserved":false,"is_disabled":false,"rental_uris":{"android":"levelo://app?vid=0a6e5bae-fb48-41a4-9ec2-da2a1d6ffbd5","ios":"levelo://app?vid=0a6e5bae-fb48-41a4-9ec2-da2a1d6ffbd5"},"vehicle_type_id":"4","last_reported":1734361851,"current_range_meters":38800,"station_id":"ce4bhi12rcd13ifvqfo0","pricing_plan_id":"cebpf4jnsgd1na2vs0mg"},{"bike_id":"403c1fe0-6db0-43ab-acb4-ce56e4fab5d6","system_id":"levelo_inurba_marseille","lat":43.23196,"lon":5.35566,"is_reserved":false,"is_disabled":false,"rental_uris":{"android":"levelo://app?vid=403c1fe0-6db0-43ab-acb4-ce56e4fab5d6","ios":"levelo://app?vid=403c1fe0-6db0-43ab-acb4-ce56e4fab5d6"},"vehicle_type_id":"4","last_reported":1734361851,"current_range_meters":36000,"station_id":"ce4bhu92rcd13ifvqi70","pricing_plan_id":"cebpf4jnsgd1na2vs0mg"},{"bike_id":"05bb37cf-145b-44c6-a394-2d2ff7f1e214","system_id":"levelo_inurba_marseille","lat":43.28276,"lon":5.35066,"is_reserved":false,"is_disabled":false,"rental_uris":{"android":"levelo://app?vid=05bb37cf-145b-44c6-a394-2d2ff7f1e214","ios":"levelo://app?vid=05bb37cf-145b-44c6-a394-2d2ff7f1e214"},"vehicle_type_id":"4","last_reported":1734361851,"current_range_meters":39200,"station_id":"ce4bhbp2rcd13ifvqerg","pricing_plan_id":"cebpf4jnsgd1na2vs0mg"},{"bike_id":"24c981c7-4288-4afb-a831-deb1678d7ce2","system_id":"levelo_inurba_marseille","lat":43.30781,"lon":5.3766,"is_reserved":false,"is_disabled":false,"rental_uris":{"android":"levelo://app?vid=24c981c7-4288-4afb-a831-deb1678d7ce2","ios":"levelo://app?vid=24c981c7-4288-4afb-a831-deb1678d7ce2"},"vehicle_type_id":"4","last_reported":1734361851,"current_range_meters":20000,"station_id":"ce4bgv92rcd13ifvqcq0","pricing_plan_id":"cebpf4jnsgd1na2vs0mg"},{"bike_id":"c3483561-43d1-425a-a137-2bf17035859d","system_id":"levelo_inurba_marseille","lat":43.28474,"lon":5.38417,"is_reserved":false,"is_disabled":false,"rental_uris":{"android":"levelo://app?vid=c3483561-43d1-425a-a137-2bf17035859d","ios":"levelo://app?vid=c3483561-43d1-425a-a137-2bf17035859d"},"vehicle_type_id":"4","last_reported":1734361851,"current_range_meters":4400,"station_id":"ce4bh512rcd13ifvqe3g","pricing_plan_id":"cebpf4jnsgd1na2vs0mg"},{"bike_id":"9e80ef61-daef-4e5f-98ff-2ed0b2a7fb96","system_id":"levelo_inurba_marseille","lat":43.30785,"lon":5.38165,"is_reserved":false,"is_disabled":false,"rental_uris":{"android":"levelo://app?vid=9e80ef61-daef-4e5f-98ff-2ed0b2a7fb96","ios":"levelo://app?vid=9e80ef61-daef-4e5f-98ff-2ed0b2a7fb96"},"vehicle_type_id":"4","last_reported":1734361851,"current_range_meters":21600,"station_id":"ce4bgt12rcd13ifvqce0","pricing_plan_id":"cebpf4jnsgd1na2vs0mg"},{"bike_id":"f43558b8-c4b6-43e9-9b84-82d2d65bb979","system_id":"levelo_inurba_marseille","lat":43.29566,"lon":5.39956,"is_reserved":false,"is_disabled":false,"rental_uris":{"android":"levelo://app?vid=f43558b8-c4b6-43e9-9b84-82d2d65bb979","ios":"levelo://app?vid=f43558b8-c4b6-43e9-9b84-82d2d65bb979"},"vehicle_type_id":"4","last_reported":1734361851,"current_range_meters":16000,"station_id":"ce4bh312rcd13ifvqdj0","pricing_plan_id":"cebpf4jnsgd1na2vs0mg"},{"bike_id":"777892e2-39b3-497d-9b83-8adcbb8093b9","system_id":"levelo_inurba_marseille","lat":43.24643,"lon":5.389,"is_reserved":false,"is_disabled":false,"rental_uris":{"android":"levelo://app?vid=777892e2-39b3-497d-9b83-8adcbb8093b9","ios":"levelo://app?vid=777892e2-39b3-497d-9b83-8adcbb8093b9"},"vehicle_type_id":"4","last_reported":1734361851,"current_range_meters":5600,"station_id":"ce4bhg12rcd13ifvqf60","pricing_plan_id":"cebpf4jnsgd1na2vs0mg"},{"bike_id":"cf19dc43-e205-4f3a-9f29-9319fcedb952","system_id":"levelo_inurba_marseille","lat":43.30545,"lon":5.36539,"is_reserved":false,"is_disabled":false,"rental_uris":{"android":"levelo://app?vid=cf19dc43-e205-4f3a-9f29-9319fcedb952","ios":"levelo://app?vid=cf19dc43-e205-4f3a-9f29-9319fcedb952"},"vehicle_type_id":"4","last_reported":1734361851,"current_range_meters":22400,"station_id":"ce4bgs12rcd13ifvqcag","pricing_plan_id":"cebpf4jnsgd1na2vs0mg"},{"bike_id":"424682d3-cb91-40a6-9c39-2a1f07cead55","system_id":"levelo_inurba_marseille","lat":43.28473,"lon":5.38544,"is_reserved":false,"is_disabled":false,"rental_uris":{"android":"levelo://app?vid=424682d3-cb91-40a6-9c39-2a1f07cead55","ios":"levelo://app?vid=424682d3-cb91-40a6-9c39-2a1f07cead55"},"vehicle_type_id":"4","last_reported":1734361851,"current_range_meters":38800,"station_id":"ce4bh8p2rcd13ifvqeb0","pricing_plan_id":"cebpf4jnsgd1na2vs0mg"},{"bike_id":"ad3e51cb-df7c-4ce4-b243-f609a121c657","system_id":"levelo_inurba_marseille","lat":43.24169,"lon":5.36402,"is_reserved":false,"is_disabled":false,"rental_uris":{"android":"levelo://app?vid=ad3e51cb-df7c-4ce4-b243-f609a121c657","ios":"levelo://app?vid=ad3e51cb-df7c-4ce4-b243-f609a121c657"},"vehicle_type_id":"4","last_reported":1734361851,"current_range_meters":20800,"station_id":"cpo36qri1sfpv3e86is0","pricing_plan_id":"cebpf4jnsgd1na2vs0mg"},{"bike_id":"3bf936d4-6f74-4f01-8dbf-683436f99f4c","system_id":"levelo_inurba_marseille","lat":43.26202,"lon":5.37448,"is_reserved":false,"is_disabled":false,"rental_uris":{"android":"levelo://app?vid=3bf936d4-6f74-4f01-8dbf-683436f99f4c","ios":"levelo://app?vid=3bf936d4-6f74-4f01-8dbf-683436f99f4c"},"vehicle_type_id":"4","last_reported":1734361851,"current_range_meters":36800,"station_id":"ce4bhgp2rcd13ifvqfc0","pricing_plan_id":"cebpf4jnsgd1na2vs0mg"},{"bike_id":"6c2f8196-548c-49d5-bcb1-35ab07679de5","system_id":"levelo_inurba_marseille","lat":43.31754,"lon":5.39019,"is_reserved":false,"is_disabled":false,"rental_uris":{"android":"levelo://app?vid=6c2f8196-548c-49d5-bcb1-35ab07679de5","ios":"levelo://app?vid=6c2f8196-548c-49d5-bcb1-35ab07679de5"},"vehicle_type_id":"4","last_reported":1734361851,"current_range_meters":35600,"station_id":"ce4bhqp2rcd13ifvqhng","pricing_plan_id":"cebpf4jnsgd1na2vs0mg"},{"bike_id":"6a8fc9ff-6867-422d-aa7d-21a00e56554e","system_id":"levelo_inurba_marseille","lat":43.27315,"lon":5.39103,"is_reserved":false,"is_disabled":false,"rental_uris":{"android":"levelo://app?vid=6a8fc9ff-6867-422d-aa7d-21a00e56554e","ios":"levelo://app?vid=6a8fc9ff-6867-422d-aa7d-21a00e56554e"},"vehicle_type_id":"4","last_reported":1734361851,"current_range_meters":3200,"station_id":"ce4bhgp2rcd13ifvqfe0","pricing_plan_id":"cebpf4jnsgd1na2vs0mg"},{"bike_id":"855ff2b8-19b8-4fb3-bd68-eae7559a4945","system_id":"levelo_inurba_marseille","lat":43.29625,"lon":5.37156,"is_reserved":false,"is_disabled":false,"rental_uris":{"android":"levelo://app?vid=855ff2b8-19b8-4fb3-bd68-eae7559a4945","ios":"levelo://app?vid=855ff2b8-19b8-4fb3-bd68-eae7559a4945"},"vehicle_type_id":"4","last_reported":1734361851,"current_range_meters":38800,"station_id":"ce4bgnh2rcd13ifvqc0g","pricing_plan_id":"cebpf4jnsgd1na2vs0mg"},{"bike_id":"81391304-b451-4119-80ac-f61ef4862eb2","system_id":"levelo_inurba_marseille","lat":43.337444,"lon":5.374475,"is_reserved":false,"is_disabled":true,"rental_uris":{"android":"levelo://app?vid=81391304-b451-4119-80ac-f61ef4862eb2","ios":"levelo://app?vid=81391304-b451-4119-80ac-f61ef4862eb2"},"vehicle_type_id":"4","last_reported":1734361851,"current_range_meters":0,"station_id":"","pricing_plan_id":"cebpf4jnsgd1na2vs0mg"},{"bike_id":"b7d44192-4c2e-4b7e-894d-faff7dad6b35","system_id":"levelo_inurba_marseille","lat":43.30812,"lon":5.3718,"is_reserved":false,"is_disabled":false,"rental_uris":{"android":"levelo://app?vid=b7d44192-4c2e-4b7e-894d-faff7dad6b35","ios":"levelo://app?vid=b7d44192-4c2e-4b7e-894d-faff7dad6b35"},"vehicle_type_id":"4","last_reported":1734361851,"current_range_meters":19600,"station_id":"","pricing_plan_id":"cebpf4jnsgd1na2vs0mg"},{"bike_id":"d8ae6b7c-c981-4c70-a21c-bb13552f8641","system_id":"levelo_inurba_marseille","lat":43.308066,"lon":5.373326,"is_reserved":false,"is_disabled":false,"rental_uris":{"android":"levelo://app?vid=d8ae6b7c-c981-4c70-a21c-bb13552f8641","ios":"levelo://app?vid=d8ae6b7c-c981-4c70-a21c-bb13552f8641"},"vehicle_type_id":"4","last_reported":1734361851,"current_range_meters":25200,"station_id":"","pricing_plan_id":"cebpf4jnsgd1na2vs0mg"},{"bike_id":"ee4559c5-fd91-4084-935c-b2ff1b3e4318","system_id":"levelo_inurba_marseille","lat":43.32059,"lon":5.41538,"is_reserved":false,"is_disabled":false,"rental_uris":{"android":"levelo://app?vid=ee4559c5-fd91-4084-935c-b2ff1b3e4318","ios":"levelo://app?vid=ee4559c5-fd91-4084-935c-b2ff1b3e4318"},"vehicle_type_id":"4","last_reported":1734361851,"current_range_meters":19200,"station_id":"ce4bhq92rcd13ifvqhkg","pricing_plan_id":"cebpf4jnsgd1na2vs0mg"},{"bike_id":"72b8a19f-950c-483a-bd81-5a134afcbaea","system_id":"levelo_inurba_marseille","lat":43.3373,"lon":5.39189,"is_reserved":false,"is_disabled":false,"rental_uris":{"android":"levelo://app?vid=72b8a19f-950c-483a-bd81-5a134afcbaea","ios":"levelo://app?vid=72b8a19f-950c-483a-bd81-5a134afcbaea"},"vehicle_type_id":"4","last_reported":1734361851,"current_range_meters":39200,"station_id":"ce4bhr92rcd13ifvqhsg","pricing_plan_id":"cebpf4jnsgd1na2vs0mg"},{"bike_id":"1f27b495-daeb-4812-a727-5d01516e0080","system_id":"levelo_inurba_marseille","lat":43.31277,"lon":5.40169,"is_reserved":false,"is_disabled":false,"rental_uris":{"android":"levelo://app?vid=1f27b495-daeb-4812-a727-5d01516e0080","ios":"levelo://app?vid=1f27b495-daeb-4812-a727-5d01516e0080"},"vehicle_type_id":"4","last_reported":1734361851,"current_range_meters":29600,"station_id":"ce4bh092rcd13ifvqd30","pricing_plan_id":"cebpf4jnsgd1na2vs0mg"},{"bike_id":"1abfde3b-96c4-43f4-a25e-ede209cc74f2","system_id":"levelo_inurba_marseille","lat":43.29917,"lon":5.38121,"is_reserved":false,"is_disabled":false,"rental_uris":{"android":"levelo://app?vid=1abfde3b-96c4-43f4-a25e-ede209cc74f2","ios":"levelo://app?vid=1abfde3b-96c4-43f4-a25e-ede209cc74f2"},"vehicle_type_id":"4","last_reported":1734361851,"current_range_meters":28000,"station_id":"ce4bgj12rcd13ifvqbc0","pricing_plan_id":"cebpf4jnsgd1na2vs0mg"},{"bike_id":"2fd4aaa6-998c-4943-b0bc-22f4c311866e","system_id":"levelo_inurba_marseille","lat":43.29092,"lon":5.38147,"is_reserved":false,"is_disabled":false,"rental_uris":{"android":"levelo://app?vid=2fd4aaa6-998c-4943-b0bc-22f4c311866e","ios":"levelo://app?vid=2fd4aaa6-998c-4943-b0bc-22f4c311866e"},"vehicle_type_id":"4","last_reported":1734361851,"current_range_meters":38800,"station_id":"ce4bh512rcd13ifvqe2g","pricing_plan_id":"cebpf4jnsgd1na2vs0mg"},{"bike_id":"a9b8d4fe-cbf5-47d7-b45d-e51289d0b0d0","system_id":"levelo_inurba_marseille","lat":43.26933,"lon":5.38642,"is_reserved":false,"is_disabled":false,"rental_uris":{"android":"levelo://app?vid=a9b8d4fe-cbf5-47d7-b45d-e51289d0b0d0","ios":"levelo://app?vid=a9b8d4fe-cbf5-47d7-b45d-e51289d0b0d0"},"vehicle_type_id":"4","last_reported":1734361851,"current_range_meters":17200,"station_id":"ce4bhh92rcd13ifvqfh0","pricing_plan_id":"cebpf4jnsgd1na2vs0mg"},{"bike_id":"126aea7d-47ef-46e0-9f18-ab17db8ceeeb","system_id":"levelo_inurba_marseille","lat":43.29552,"lon":5.42293,"is_reserved":false,"is_disabled":false,"rental_uris":{"android":"levelo://app?vid=126aea7d-47ef-46e0-9f18-ab17db8ceeeb","ios":"levelo://app?vid=126aea7d-47ef-46e0-9f18-ab17db8ceeeb"},"vehicle_type_id":"4","last_reported":1734361851,"current_range_meters":38800,"station_id":"ce4bhph2rcd13ifvqhdg","pricing_plan_id":"cebpf4jnsgd1na2vs0mg"},{"bike_id":"6d508ea7-1740-47db-a8c4-e7c1f75d5945","system_id":"levelo_inurba_marseille","lat":43.26941,"lon":5.38642,"is_reserved":false,"is_disabled":true,"rental_uris":{"android":"levelo://app?vid=6d508ea7-1740-47db-a8c4-e7c1f75d5945","ios":"levelo://app?vid=6d508ea7-1740-47db-a8c4-e7c1f75d5945"},"vehicle_type_id":"4","last_reported":1734361851,"current_range_meters":0,"station_id":"ce4bhh92rcd13ifvqfh0","pricing_plan_id":"cebpf4jnsgd1na2vs0mg"},{"bike_id":"83847b59-4e95-4b65-8724-c7049dbfa1d4","system_id":"levelo_inurba_marseille","lat":43.31267,"lon":5.40171,"is_reserved":false,"is_disabled":false,"rental_uris":{"android":"levelo://app?vid=83847b59-4e95-4b65-8724-c7049dbfa1d4","ios":"levelo://app?vid=83847b59-4e95-4b65-8724-c7049dbfa1d4"},"vehicle_type_id":"4","last_reported":1734361851,"current_range_meters":16000,"station_id":"ce4bh092rcd13ifvqd30","pricing_plan_id":"cebpf4jnsgd1na2vs0mg"},{"bike_id":"91211e89-7723-4933-9a04-0ba006bd6010","system_id":"levelo_inurba_marseille","lat":43.29277,"lon":5.36851,"is_reserved":false,"is_disabled":false,"rental_uris":{"android":"levelo://app?vid=91211e89-7723-4933-9a04-0ba006bd6010","ios":"levelo://app?vid=91211e89-7723-4933-9a04-0ba006bd6010"},"vehicle_type_id":"4","last_reported":1734361851,"current_range_meters":13600,"station_id":"ce4bhbp2rcd13ifvqesg","pricing_plan_id":"cebpf4jnsgd1na2vs0mg"},{"bike_id":"2fd35e3f-a30b-4e59-bdcf-acab4694b69f","system_id":"levelo_inurba_marseille","lat":43.27433,"lon":5.39408,"is_reserved":false,"is_disabled":false,"rental_uris":{"android":"levelo://app?vid=2fd35e3f-a30b-4e59-bdcf-acab4694b69f","ios":"levelo://app?vid=2fd35e3f-a30b-4e59-bdcf-acab4694b69f"},"vehicle_type_id":"4","last_reported":1734361851,"current_range_meters":37600,"station_id":"ce4bhdp2rcd13ifvqf20","pricing_plan_id":"cebpf4jnsgd1na2vs0mg"},{"bike_id":"dc29da33-6bba-4ec1-8aff-5e63b5dd4a23","system_id":"levelo_inurba_marseille","lat":43.24658,"lon":5.3891,"is_reserved":false,"is_disabled":false,"rental_uris":{"android":"levelo://app?vid=dc29da33-6bba-4ec1-8aff-5e63b5dd4a23","ios":"levelo://app?vid=dc29da33-6bba-4ec1-8aff-5e63b5dd4a23"},"vehicle_type_id":"4","last_reported":1734361851,"current_range_meters":18800,"station_id":"ce4bhg12rcd13ifvqf60","pricing_plan_id":"cebpf4jnsgd1na2vs0mg"},{"bike_id":"26579991-0e4b-445a-93aa-31ab44d1afae","system_id":"levelo_inurba_marseille","lat":43.33612,"lon":5.40983,"is_reserved":false,"is_disabled":true,"rental_uris":{"android":"levelo://app?vid=26579991-0e4b-445a-93aa-31ab44d1afae","ios":"levelo://app?vid=26579991-0e4b-445a-93aa-31ab44d1afae"},"vehicle_type_id":"4","last_reported":1734361851,"current_range_meters":38400,"station_id":"ce4bhqh2rcd13ifvqhmg","pricing_plan_id":"cebpf4jnsgd1na2vs0mg"},{"bike_id":"33c7bbdf-5cb2-4f17-81d2-da9f727634e9","system_id":"levelo_inurba_marseille","lat":43.23167,"lon":5.43683,"is_reserved":false,"is_disabled":true,"rental_uris":{"android":"levelo://app?vid=33c7bbdf-5cb2-4f17-81d2-da9f727634e9","ios":"levelo://app?vid=33c7bbdf-5cb2-4f17-81d2-da9f727634e9"},"vehicle_type_id":"4","last_reported":1734361851,"current_range_meters":0,"station_id":"ce4bhmp2rcd13ifvqgog","pricing_plan_id":"cebpf4jnsgd1na2vs0mg"},{"bike_id":"c1f2f608-52c4-4bfc-9fa5-8849aa0a4af5","system_id":"levelo_inurba_marseille","lat":43.27812,"lon":5.4072,"is_reserved":false,"is_disabled":false,"rental_uris":{"android":"levelo://app?vid=c1f2f608-52c4-4bfc-9fa5-8849aa0a4af5","ios":"levelo://app?vid=c1f2f608-52c4-4bfc-9fa5-8849aa0a4af5"},"vehicle_type_id":"4","last_reported":1734361851,"current_range_meters":36800,"station_id":"ce4bhnh2rcd13ifvqgtg","pricing_plan_id":"cebpf4jnsgd1na2vs0mg"},{"bike_id":"dee21283-4521-4c1a-b53d-9510ded6ec60","system_id":"levelo_inurba_marseille","lat":43.23963,"lon":5.3666,"is_reserved":false,"is_disabled":false,"rental_uris":{"android":"levelo://app?vid=dee21283-4521-4c1a-b53d-9510ded6ec60","ios":"levelo://app?vid=dee21283-4521-4c1a-b53d-9510ded6ec60"},"vehicle_type_id":"4","last_reported":1734361851,"current_range_meters":38800,"station_id":"ce4bhi12rcd13ifvqfp0","pricing_plan_id":"cebpf4jnsgd1na2vs0mg"},{"bike_id":"1012753e-7bc0-44fd-a4d6-df7e280e8ee8","system_id":"levelo_inurba_marseille","lat":43.32489,"lon":5.36569,"is_reserved":false,"is_disabled":false,"rental_uris":{"android":"levelo://app?vid=1012753e-7bc0-44fd-a4d6-df7e280e8ee8","ios":"levelo://app?vid=1012753e-7bc0-44fd-a4d6-df7e280e8ee8"},"vehicle_type_id":"4","last_reported":1734361851,"current_range_meters":30000,"station_id":"ce4bhs12rcd13ifvqhvg","pricing_plan_id":"cebpf4jnsgd1na2vs0mg"},{"bike_id":"e3e8673a-b072-439e-bc5e-2c4bae2011dd","system_id":"levelo_inurba_marseille","lat":43.29896,"lon":5.43674,"is_reserved":false,"is_disabled":false,"rental_uris":{"android":"levelo://app?vid=e3e8673a-b072-439e-bc5e-2c4bae2011dd","ios":"levelo://app?vid=e3e8673a-b072-439e-bc5e-2c4bae2011dd"},"vehicle_type_id":"4","last_reported":1734361851,"current_range_meters":8400,"station_id":"ce4bhpp2rcd13ifvqhfg","pricing_plan_id":"cebpf4jnsgd1na2vs0mg"},{"bike_id":"e132ec11-ed4b-45b2-86f1-cd8587e424cc","system_id":"levelo_inurba_marseille","lat":43.281543,"lon":5.426621,"is_reserved":false,"is_disabled":false,"rental_uris":{"android":"levelo://app?vid=e132ec11-ed4b-45b2-86f1-cd8587e424cc","ios":"levelo://app?vid=e132ec11-ed4b-45b2-86f1-cd8587e424cc"},"vehicle_type_id":"4","last_reported":1734361851,"current_range_meters":3600,"station_id":"ce4bhnh2rcd13ifvqgug","pricing_plan_id":"cebpf4jnsgd1na2vs0mg"},{"bike_id":"53c7c0a7-9095-462a-b5c9-22aa956f82ef","system_id":"levelo_inurba_marseille","lat":43.29841,"lon":5.36271,"is_reserved":false,"is_disabled":false,"rental_uris":{"android":"levelo://app?vid=53c7c0a7-9095-462a-b5c9-22aa956f82ef","ios":"levelo://app?vid=53c7c0a7-9095-462a-b5c9-22aa956f82ef"},"vehicle_type_id":"4","last_reported":1734361851,"current_range_meters":36000,"station_id":"ce4bgpp2rcd13ifvqc3g","pricing_plan_id":"cebpf4jnsgd1na2vs0mg"},{"bike_id":"1bfdae48-e94d-42a4-8c83-8cfafb4b60b0","system_id":"levelo_inurba_marseille","lat":43.25118,"lon":5.403195,"is_reserved":false,"is_disabled":false,"rental_uris":{"android":"levelo://app?vid=1bfdae48-e94d-42a4-8c83-8cfafb4b60b0","ios":"levelo://app?vid=1bfdae48-e94d-42a4-8c83-8cfafb4b60b0"},"vehicle_type_id":"4","last_reported":1734361851,"current_range_meters":7200,"station_id":"ce4bhlh2rcd13ifvqgig","pricing_plan_id":"cebpf4jnsgd1na2vs0mg"},{"bike_id":"226d4aa3-c5db-49a2-a88a-364032e8f443","system_id":"levelo_inurba_marseille","lat":43.28848,"lon":5.35869,"is_reserved":false,"is_disabled":false,"rental_uris":{"android":"levelo://app?vid=226d4aa3-c5db-49a2-a88a-364032e8f443","ios":"levelo://app?vid=226d4aa3-c5db-49a2-a88a-364032e8f443"},"vehicle_type_id":"4","last_reported":1734361851,"current_range_meters":37600,"station_id":"ce4bhb12rcd13ifvqem0","pricing_plan_id":"cebpf4jnsgd1na2vs0mg"},{"bike_id":"aaf90d7a-33bb-4d2a-a7ca-924049b6d1c2","system_id":"levelo_inurba_marseille","lat":43.27054,"lon":5.40263,"is_reserved":false,"is_disabled":false,"rental_uris":{"android":"levelo://app?vid=aaf90d7a-33bb-4d2a-a7ca-924049b6d1c2","ios":"levelo://app?vid=aaf90d7a-33bb-4d2a-a7ca-924049b6d1c2"},"vehicle_type_id":"4","last_reported":1734361851,"current_range_meters":24400,"station_id":"ce4bhk92rcd13ifvqgc0","pricing_plan_id":"cebpf4jnsgd1na2vs0mg"},{"bike_id":"026f0ae5-8686-448f-bb9f-701b34a7ac3d","system_id":"levelo_inurba_marseille","lat":43.31078,"lon":5.38362,"is_reserved":false,"is_disabled":true,"rental_uris":{"android":"levelo://app?vid=026f0ae5-8686-448f-bb9f-701b34a7ac3d","ios":"levelo://app?vid=026f0ae5-8686-448f-bb9f-701b34a7ac3d"},"vehicle_type_id":"4","last_reported":1734361851,"current_range_meters":3600,"station_id":"ce4bgv92rcd13ifvqcr0","pricing_plan_id":"cebpf4jnsgd1na2vs0mg"},{"bike_id":"547f264c-2798-4377-936b-6ff1631a7912","system_id":"levelo_inurba_marseille","lat":43.29279,"lon":5.36853,"is_reserved":false,"is_disabled":false,"rental_uris":{"android":"levelo://app?vid=547f264c-2798-4377-936b-6ff1631a7912","ios":"levelo://app?vid=547f264c-2798-4377-936b-6ff1631a7912"},"vehicle_type_id":"4","last_reported":1734361851,"current_range_meters":14400,"station_id":"ce4bhbp2rcd13ifvqesg","pricing_plan_id":"cebpf4jnsgd1na2vs0mg"},{"bike_id":"ae738dcd-be7d-4601-bf1b-076997bccd85","system_id":"levelo_inurba_marseille","lat":43.29227,"lon":5.36084,"is_reserved":false,"is_disabled":false,"rental_uris":{"android":"levelo://app?vid=ae738dcd-be7d-4601-bf1b-076997bccd85","ios":"levelo://app?vid=ae738dcd-be7d-4601-bf1b-076997bccd85"},"vehicle_type_id":"4","last_reported":1734361851,"current_range_meters":37600,"station_id":"ce4bhbh2rcd13ifvqeqg","pricing_plan_id":"cebpf4jnsgd1na2vs0mg"},{"bike_id":"3c4cfa80-caff-42e4-b530-3c27bd3d8583","system_id":"levelo_inurba_marseille","lat":43.28103,"lon":5.37709,"is_reserved":false,"is_disabled":false,"rental_uris":{"android":"levelo://app?vid=3c4cfa80-caff-42e4-b530-3c27bd3d8583","ios":"levelo://app?vid=3c4cfa80-caff-42e4-b530-3c27bd3d8583"},"vehicle_type_id":"4","last_reported":1734361851,"current_range_meters":26800,"station_id":"","pricing_plan_id":"cebpf4jnsgd1na2vs0mg"},{"bike_id":"486a7877-a416-4a93-84d6-e5033e623729","system_id":"levelo_inurba_marseille","lat":43.28999,"lon":5.35603,"is_reserved":false,"is_disabled":false,"rental_uris":{"android":"levelo://app?vid=486a7877-a416-4a93-84d6-e5033e623729","ios":"levelo://app?vid=486a7877-a416-4a93-84d6-e5033e623729"},"vehicle_type_id":"4","last_reported":1734361851,"current_range_meters":38800,"station_id":"ce4bhb92rcd13ifvqen0","pricing_plan_id":"cebpf4jnsgd1na2vs0mg"},{"bike_id":"4ed10e94-e92a-4bbe-ac72-bc1e243bc2e8","system_id":"levelo_inurba_marseille","lat":43.29033,"lon":5.39975,"is_reserved":false,"is_disabled":false,"rental_uris":{"android":"levelo://app?vid=4ed10e94-e92a-4bbe-ac72-bc1e243bc2e8","ios":"levelo://app?vid=4ed10e94-e92a-4bbe-ac72-bc1e243bc2e8"},"vehicle_type_id":"4","last_reported":1734361851,"current_range_meters":27200,"station_id":"ce4bh392rcd13ifvqdm0","pricing_plan_id":"cebpf4jnsgd1na2vs0mg"},{"bike_id":"70a52be1-0b6c-469f-8e3b-bf80c9db44b3","system_id":"levelo_inurba_marseille","lat":43.27947,"lon":5.41049,"is_reserved":false,"is_disabled":false,"rental_uris":{"android":"levelo://app?vid=70a52be1-0b6c-469f-8e3b-bf80c9db44b3","ios":"levelo://app?vid=70a52be1-0b6c-469f-8e3b-bf80c9db44b3"},"vehicle_type_id":"4","last_reported":1734361851,"current_range_meters":12800,"station_id":"ce4bhnp2rcd13ifvqh0g","pricing_plan_id":"cebpf4jnsgd1na2vs0mg"},{"bike_id":"3378baff-d323-47ec-81fa-89389acd2a5e","system_id":"levelo_inurba_marseille","lat":43.30879,"lon":5.39666,"is_reserved":false,"is_disabled":false,"rental_uris":{"android":"levelo://app?vid=3378baff-d323-47ec-81fa-89389acd2a5e","ios":"levelo://app?vid=3378baff-d323-47ec-81fa-89389acd2a5e"},"vehicle_type_id":"4","last_reported":1734361851,"current_range_meters":27200,"station_id":"ce4bh012rcd13ifvqcv0","pricing_plan_id":"cebpf4jnsgd1na2vs0mg"},{"bike_id":"1ca8841b-54dc-4e49-bc1d-e9ff6b338144","system_id":"levelo_inurba_marseille","lat":43.30539,"lon":5.38427,"is_reserved":false,"is_disabled":false,"rental_uris":{"android":"levelo://app?vid=1ca8841b-54dc-4e49-bc1d-e9ff6b338144","ios":"levelo://app?vid=1ca8841b-54dc-4e49-bc1d-e9ff6b338144"},"vehicle_type_id":"4","last_reported":1734361851,"current_range_meters":30000,"station_id":"ce4bgg92rcd13ifvqb30","pricing_plan_id":"cebpf4jnsgd1na2vs0mg"},{"bike_id":"42f7d856-99f6-4b0b-a3e4-1308f35bdaf5","system_id":"levelo_inurba_marseille","lat":43.30595,"lon":5.37227,"is_reserved":false,"is_disabled":false,"rental_uris":{"android":"levelo://app?vid=42f7d856-99f6-4b0b-a3e4-1308f35bdaf5","ios":"levelo://app?vid=42f7d856-99f6-4b0b-a3e4-1308f35bdaf5"},"vehicle_type_id":"4","last_reported":1734361851,"current_range_meters":9200,"station_id":"ce4bgqh2rcd13ifvqc4g","pricing_plan_id":"cebpf4jnsgd1na2vs0mg"},{"bike_id":"c39b3f33-4c8b-41f7-b2f1-d64c26b0e4bd","system_id":"levelo_inurba_marseille","lat":43.28299,"lon":5.43283,"is_reserved":false,"is_disabled":true,"rental_uris":{"android":"levelo://app?vid=c39b3f33-4c8b-41f7-b2f1-d64c26b0e4bd","ios":"levelo://app?vid=c39b3f33-4c8b-41f7-b2f1-d64c26b0e4bd"},"vehicle_type_id":"4","last_reported":1734361851,"current_range_meters":0,"station_id":"","pricing_plan_id":"cebpf4jnsgd1na2vs0mg"},{"bike_id":"b68c698b-20ba-4ee3-8db8-d69e8bd3d589","system_id":"levelo_inurba_marseille","lat":43.28081,"lon":5.39667,"is_reserved":false,"is_disabled":false,"rental_uris":{"android":"levelo://app?vid=b68c698b-20ba-4ee3-8db8-d69e8bd3d589","ios":"levelo://app?vid=b68c698b-20ba-4ee3-8db8-d69e8bd3d589"},"vehicle_type_id":"4","last_reported":1734361851,"current_range_meters":24000,"station_id":"ce4bho12rcd13ifvqh2g","pricing_plan_id":"cebpf4jnsgd1na2vs0mg"},{"bike_id":"64e9fc8d-9797-40f1-b090-d115a710de2c","system_id":"levelo_inurba_marseille","lat":43.27205,"lon":5.39185,"is_reserved":false,"is_disabled":false,"rental_uris":{"android":"levelo://app?vid=64e9fc8d-9797-40f1-b090-d115a710de2c","ios":"levelo://app?vid=64e9fc8d-9797-40f1-b090-d115a710de2c"},"vehicle_type_id":"4","last_reported":1734361851,"current_range_meters":12800,"station_id":"ce4bhhp2rcd13ifvqfm0","pricing_plan_id":"cebpf4jnsgd1na2vs0mg"},{"bike_id":"e30b9a9b-26ec-467e-83b2-e3fc0d0a2b96","system_id":"levelo_inurba_marseille","lat":43.28418,"lon":5.3499,"is_reserved":false,"is_disabled":false,"rental_uris":{"android":"levelo://app?vid=e30b9a9b-26ec-467e-83b2-e3fc0d0a2b96","ios":"levelo://app?vid=e30b9a9b-26ec-467e-83b2-e3fc0d0a2b96"},"vehicle_type_id":"4","last_reported":1734361851,"current_range_meters":15200,"station_id":"ce4bhbh2rcd13ifvqepg","pricing_plan_id":"cebpf4jnsgd1na2vs0mg"},{"bike_id":"f4420437-f888-4a35-94aa-ef10a7d130f6","system_id":"levelo_inurba_marseille","lat":43.30134,"lon":5.39885,"is_reserved":false,"is_disabled":true,"rental_uris":{"android":"levelo://app?vid=f4420437-f888-4a35-94aa-ef10a7d130f6","ios":"levelo://app?vid=f4420437-f888-4a35-94aa-ef10a7d130f6"},"vehicle_type_id":"4","last_reported":1734361851,"current_range_meters":0,"station_id":"ce4bh0h2rcd13ifvqd40","pricing_plan_id":"cebpf4jnsgd1na2vs0mg"},{"bike_id":"5ffc39a5-7a4a-499e-9e1b-f06fcbe47d21","system_id":"levelo_inurba_marseille","lat":43.25718,"lon":5.41121,"is_reserved":false,"is_disabled":false,"rental_uris":{"android":"levelo://app?vid=5ffc39a5-7a4a-499e-9e1b-f06fcbe47d21","ios":"levelo://app?vid=5ffc39a5-7a4a-499e-9e1b-f06fcbe47d21"},"vehicle_type_id":"4","last_reported":1734361851,"current_range_meters":39200,"station_id":"ce4bhkp2rcd13ifvqgd0","pricing_plan_id":"cebpf4jnsgd1na2vs0mg"},{"bike_id":"25679180-af10-41d7-b2db-f53eb5d3bcad","system_id":"levelo_inurba_marseille","lat":43.27315,"lon":5.39091,"is_reserved":false,"is_disabled":true,"rental_uris":{"android":"levelo://app?vid=25679180-af10-41d7-b2db-f53eb5d3bcad","ios":"levelo://app?vid=25679180-af10-41d7-b2db-f53eb5d3bcad"},"vehicle_type_id":"4","last_reported":1734361851,"current_range_meters":400,"station_id":"ce4bhgp2rcd13ifvqfe0","pricing_plan_id":"cebpf4jnsgd1na2vs0mg"},{"bike_id":"232ae6c1-4156-48fa-b885-131e0552ef9d","system_id":"levelo_inurba_marseille","lat":43.31746,"lon":5.39016,"is_reserved":false,"is_disabled":false,"rental_uris":{"android":"levelo://app?vid=232ae6c1-4156-48fa-b885-131e0552ef9d","ios":"levelo://app?vid=232ae6c1-4156-48fa-b885-131e0552ef9d"},"vehicle_type_id":"4","last_reported":1734361851,"current_range_meters":11600,"station_id":"ce4bhqp2rcd13ifvqhng","pricing_plan_id":"cebpf4jnsgd1na2vs0mg"},{"bike_id":"01855138-f013-45a3-9d99-3819c8120925","system_id":"levelo_inurba_marseille","lat":43.23194,"lon":5.35547,"is_reserved":false,"is_disabled":false,"rental_uris":{"android":"levelo://app?vid=01855138-f013-45a3-9d99-3819c8120925","ios":"levelo://app?vid=01855138-f013-45a3-9d99-3819c8120925"},"vehicle_type_id":"4","last_reported":1734361851,"current_range_meters":38800,"station_id":"ce4bhu92rcd13ifvqi70","pricing_plan_id":"cebpf4jnsgd1na2vs0mg"},{"bike_id":"3ac363dd-ac40-4eff-81a0-c3b72746b35c","system_id":"levelo_inurba_marseille","lat":43.337444,"lon":5.374475,"is_reserved":false,"is_disabled":true,"rental_uris":{"android":"levelo://app?vid=3ac363dd-ac40-4eff-81a0-c3b72746b35c","ios":"levelo://app?vid=3ac363dd-ac40-4eff-81a0-c3b72746b35c"},"vehicle_type_id":"4","last_reported":1734361851,"current_range_meters":0,"station_id":"","pricing_plan_id":"cebpf4jnsgd1na2vs0mg"},{"bike_id":"e7710428-ab62-4ba2-aa0a-18c4368ff8dc","system_id":"levelo_inurba_marseille","lat":43.32033,"lon":5.41576,"is_reserved":false,"is_disabled":false,"rental_uris":{"android":"levelo://app?vid=e7710428-ab62-4ba2-aa0a-18c4368ff8dc","ios":"levelo://app?vid=e7710428-ab62-4ba2-aa0a-18c4368ff8dc"},"vehicle_type_id":"4","last_reported":1734361851,"current_range_meters":30400,"station_id":"ce4bhq92rcd13ifvqhkg","pricing_plan_id":"cebpf4jnsgd1na2vs0mg"},{"bike_id":"faf32848-2b1c-47ea-893b-105509fad07e","system_id":"levelo_inurba_marseille","lat":43.32057,"lon":5.41546,"is_reserved":false,"is_disabled":false,"rental_uris":{"android":"levelo://app?vid=faf32848-2b1c-47ea-893b-105509fad07e","ios":"levelo://app?vid=faf32848-2b1c-47ea-893b-105509fad07e"},"vehicle_type_id":"4","last_reported":1734361851,"current_range_meters":27600,"station_id":"ce4bhq92rcd13ifvqhkg","pricing_plan_id":"cebpf4jnsgd1na2vs0mg"},{"bike_id":"2efb7d51-a47a-4a59-ba9d-05f24e2bdb32","system_id":"levelo_inurba_marseille","lat":43.25936,"lon":5.40902,"is_reserved":false,"is_disabled":false,"rental_uris":{"android":"levelo://app?vid=2efb7d51-a47a-4a59-ba9d-05f24e2bdb32","ios":"levelo://app?vid=2efb7d51-a47a-4a59-ba9d-05f24e2bdb32"},"vehicle_type_id":"4","last_reported":1734361851,"current_range_meters":38800,"station_id":"ce4bhm92rcd13ifvqglg","pricing_plan_id":"cebpf4jnsgd1na2vs0mg"},{"bike_id":"da01e1c6-37ff-4b8b-93f9-159ec8112d8a","system_id":"levelo_inurba_marseille","lat":43.30137,"lon":5.39884,"is_reserved":false,"is_disabled":false,"rental_uris":{"android":"levelo://app?vid=da01e1c6-37ff-4b8b-93f9-159ec8112d8a","ios":"levelo://app?vid=da01e1c6-37ff-4b8b-93f9-159ec8112d8a"},"vehicle_type_id":"4","last_reported":1734361851,"current_range_meters":12400,"station_id":"ce4bh0h2rcd13ifvqd40","pricing_plan_id":"cebpf4jnsgd1na2vs0mg"},{"bike_id":"5a0d43f2-170f-40ef-87e3-85557115c38d","system_id":"levelo_inurba_marseille","lat":43.3061,"lon":5.37259,"is_reserved":false,"is_disabled":false,"rental_uris":{"android":"levelo://app?vid=5a0d43f2-170f-40ef-87e3-85557115c38d","ios":"levelo://app?vid=5a0d43f2-170f-40ef-87e3-85557115c38d"},"vehicle_type_id":"4","last_reported":1734361851,"current_range_meters":38800,"station_id":"ce4bgqh2rcd13ifvqc4g","pricing_plan_id":"cebpf4jnsgd1na2vs0mg"},