{"last_updated":1756321699,"ttl":60,"version":"2.2","data":{"bikes":[{"bike_id":"d1762990-e8df-4b54-a68e-7f7608dd3734","system_id":"levelo_inurba_marseille","lat":43.29969,"lon":5.3718,"is_reserved":false,"is_disabled":false,"rental_uris":{"android":"levelo://app?vid=d1762990-e8df-4b54-a68e-7f7608dd3734","ios":"levelo://app?vid=d1762990-e8df-4b54-a68e-7f7608dd3734"},"vehicle_type_id":"4","last_reported":1756321699,"current_range_meters":2800,"station_id":"ce4bgr92rcd13ifvqc7g","pricing_plan_id":"cebpf4jnsgd1na2vs0mg"},{"bike_id":"5b068e37-768d-49a9-b348-2b41ab7cb06b","system_id":"levelo_inurba_marseille","lat":43.297137,"lon":5.366096,"is_reserved":false,"is_disabled":false,"rental_uris":{"android":"levelo://app?vid=5b068e37-768d-49a9-b348-2b41ab7cb06b","ios":"levelo://app?vid=5b068e37-768d-49a9-b348-2b41ab7cb06b"},"vehicle_type_id":"4","last_reported":1756321699,"current_range_meters":2800,"station_id":"ce4bgn12rcd13ifvqbt0","pricing_plan_id":"cebpf4jnsgd1na2vs0mg"},{"bike_id":"16be216b-6622-446d-bf19-76f24c6060b4","system_id":"levelo_inurba_marseille","lat":43.296137,"lon":5.395822,"is_reserved":false,"is_disabled":false,"rental_uris":{"android":"levelo://app?vid=16be216b-6622-446d-bf19-76f24c6060b4","ios":"levelo://app?vid=16be216b-6622-446d-bf19-76f24c6060b4"},"vehicle_type_id":"4","last_reported":1756321699,"current_range_meters":2800,"station_id":"","pricing_plan_id":"cebpf4jnsgd1na2vs0mg"},{"bike_id":"a78c6bac-73b3-4df6-b305-2843e07271e7","system_id":"levelo_inurba_marseille","lat":43.29527,"lon":5.38546,"is_reserved":false,"is_disabled":false,"rental_uris":{"android":"levelo://app?vid=a78c6bac-73b3-4df6-b305-2843e07271e7","ios":"levelo://app?vid=a78c6bac-73b3-4df6-b305-2843e07271e7"},"vehicle_type_id":"4","last_reported":1756321699,"current_range_meters":3200,"station_id":"ce4bgih2rcd13ifvqba0","pricing_plan_id":"cebpf4jnsgd1na2vs0mg"},{"bike_id":"5279cf4a-e0a2-482c-a502-235d219f5851","system_id":"levelo_inurba_marseille","lat":43.293701,"lon":5.378518,"is_reserved":false,"is_disabled":false,"rental_uris":{"android":"levelo://app?vid=5279cf4a-e0a2-482c-a502-235d219f5851","ios":"levelo://app?vid=5279cf4a-e0a2-482c-a502-235d219f5851"},"vehicle_type_id":"4","last_reported":1756321699,"current_range_meters":3200,"station_id":"ce4bgjh2rcd13ifvqbf0","pricing_plan_id":"cebpf4jnsgd1na2vs0mg"},{"bike_id":"7f673aa9-f125-4b2b-be61-a812ce24a477","system_id":"levelo_inurba_marseille","lat":43.29533,"lon":5.3855,"is_reserved":false,"is_disabled":false,"rental_uris":{"android":"levelo://app?vid=7f673aa9-f125-4b2b-be61-a812ce24a477","ios":"levelo://app?vid=7f673aa9-f125-4b2b-be61-a812ce24a477"},"vehicle_type_id":"4","last_reported":1756321699,"current_range_meters":3200,"station_id":"ce4bgih2rcd13ifvqba0","pricing_plan_id":"cebpf4jnsgd1na2vs0mg"},{"bike_id":"ce35a071-4441-4674-926e-930f55feeb90","system_id":"levelo_inurba_marseille","lat":43.30137,"lon":5.38776,"is_reserved":false,"is_disabled":false,"rental_uris":{"android":"levelo://app?vid=ce35a071-4441-4674-926e-930f55feeb90","ios":"levelo://app?vid=ce35a071-4441-4674-926e-930f55feeb90"},"vehicle_type_id":"4","last_reported":1756321699,"current_range_meters":2800,"station_id":"ce4bghh2rcd13ifvqb60","pricing_plan_id":"cebpf4jnsgd1na2vs0mg"},{"bike_id":"400bdd24-1219-4e8c-992d-37f7a12a3450","system_id":"levelo_inurba_marseille","lat":43.284098,"lon":5.375202,"is_reserved":false,"is_disabled":false,"rental_uris":{"android":"levelo://app?vid=400bdd24-1219-4e8c-992d-37f7a12a3450","ios":"levelo://app?vid=400bdd24-1219-4e8c-992d-37f7a12a3450"},"vehicle_type_id":"4","last_reported":1756321699,"current_range_meters":3200,"station_id":"ce4bh412rcd13ifvqds0","pricing_plan_id":"cebpf4jnsgd1na2vs0mg"},{"bike_id":"eaeb0eea-a819-4280-86a6-0b0cb2e7701a","system_id":"levelo_inurba_marseille","lat":43.22915,"lon":5.35387,"is_reserved":false,"is_disabled":false,"rental_uris":{"android":"levelo://app?vid=eaeb0eea-a819-4280-86a6-0b0cb2e7701a","ios":"levelo://app?vid=eaeb0eea-a819-4280-86a6-0b0cb2e7701a"},"vehicle_type_id":"4","last_reported":1756321699,"current_range_meters":3200,"station_id":"cpo3532slgdg3j2ikp40","pricing_plan_id":"cebpf4jnsgd1na2vs0mg"},{"bike_id":"37a4ce09-ba45-45a1-8d7e-095e9160eb5b","system_id":"levelo_inurba_marseille","lat":43.29628,"lon":5.40599,"is_reserved":false,"is_disabled":false,"rental_uris":{"android":"levelo://app?vid=37a4ce09-ba45-45a1-8d7e-095e9160eb5b","ios":"levelo://app?vid=37a4ce09-ba45-45a1-8d7e-095e9160eb5b"},"vehicle_type_id":"4","last_reported":1756321699,"current_range_meters":3200,"station_id":"ce4bh0h2rcd13ifvqd60","pricing_plan_id":"cebpf4jnsgd1na2vs0mg"},{"bike_id":"4599d54e-23f7-4921-80df-d32de123de7a","system_id":"levelo_inurba_marseille","lat":43.285728,"lon":5.394942,"is_reserved":false,"is_disabled":false,"rental_uris":{"android":"levelo://app?vid=4599d54e-23f7-4921-80df-d32de123de7a","ios":"levelo://app?vid=4599d54e-23f7-4921-80df-d32de123de7a"},"vehicle_type_id":"4","last_reported":1756321699,"current_range_meters":0,"station_id":"ce4bh292rcd13ifvqdg0","pricing_plan_id":"cebpf4jnsgd1na2vs0mg"},{"bike_id":"bffe6922-339f-4d53-9d2c-57b2160acb91","system_id":"levelo_inurba_marseille","lat":43.2781,"lon":5.40733,"is_reserved":false,"is_disabled":true,"rental_uris":{"android":"levelo://app?vid=bffe6922-339f-4d53-9d2c-57b2160acb91","ios":"levelo://app?vid=bffe6922-339f-4d53-9d2c-57b2160acb91"},"vehicle_type_id":"4","last_reported":1756321699,"current_range_meters":3600,"station_id":"ce4bhnh2rcd13ifvqgtg","pricing_plan_id":"cebpf4jnsgd1na2vs0mg"},{"bike_id":"bd39d057-1eb6-4e5e-a809-1dc9c19e1228","system_id":"levelo_inurba_marseille","lat":43.29964,"lon":5.37174,"is_reserved":false,"is_disabled":false,"rental_uris":{"android":"levelo://app?vid=bd39d057-1eb6-4e5e-a809-1dc9c19e1228","ios":"levelo://app?vid=bd39d057-1eb6-4e5e-a809-1dc9c19e1228"},"vehicle_type_id":"4","last_reported":1756321699,"current_range_meters":3600,"station_id":"ce4bgr92rcd13ifvqc7g","pricing_plan_id":"cebpf4jnsgd1na2vs0mg"},{"bike_id":"6c57398c-1f97-4554-833b-bc3633dd328a","system_id":"levelo_inurba_marseille","lat":43.29704,"lon":5.36611,"is_reserved":false,"is_disabled":false,"rental_uris":{"android":"levelo://app?vid=6c57398c-1f97-4554-833b-bc3633dd328a","ios":"levelo://app?vid=6c57398c-1f97-4554-833b-bc3633dd328a"},"vehicle_type_id":"4","last_reported":1756321699,"current_range_meters":4000,"station_id":"ce4bgn12rcd13ifvqbt0","pricing_plan_id":"cebpf4jnsgd1na2vs0mg"},{"bike_id":"7c494aa6-5cbe-490f-b90f-6193ab62c745","system_id":"levelo_inurba_marseille","lat":43.21187,"lon":5.35071,"is_reserved":false,"is_disabled":false,"rental_uris":{"android":"levelo://app?vid=7c494aa6-5cbe-490f-b90f-6193ab62c745","ios":"levelo://app?vid=7c494aa6-5cbe-490f-b90f-6193ab62c745"},"vehicle_type_id":"4","last_reported":1756321699,"current_range_meters":4000,"station_id":"st_cvj6sg6p6f1abm77japg","pricing_plan_id":"cebpf4jnsgd1na2vs0mg"},{"bike_id":"3d3cec0d-0f8f-4f4b-bc23-75944370cb64","system_id":"levelo_inurba_marseille","lat":43.31268,"lon":5.40178,"is_reserved":false,"is_disabled":false,"rental_uris":{"android":"levelo://app?vid=3d3cec0d-0f8f-4f4b-bc23-75944370cb64","ios":"levelo://app?vid=3d3cec0d-0f8f-4f4b-bc23-75944370cb64"},"vehicle_type_id":"4","last_reported":1756321699,"current_range_meters":4000,"station_id":"ce4bh092rcd13ifvqd30","pricing_plan_id":"cebpf4jnsgd1na2vs0mg"},{"bike_id":"e3186861-30ad-4955-ad3d-d848890795d6","system_id":"levelo_inurba_marseille","lat":43.31891,"lon":5.4071,"is_reserved":false,"is_disabled":false,"rental_uris":{"android":"levelo://app?vid=e3186861-30ad-4955-ad3d-d848890795d6","ios":"levelo://app?vid=e3186861-30ad-4955-ad3d-d848890795d6"},"vehicle_type_id":"4","last_reported":1756321699,"current_range_meters":4000,"station_id":"ce4bhq12rcd13ifvqhig","pricing_plan_id":"cebpf4jnsgd1na2vs0mg"},{"bike_id":"78d22a10-7d17-4f45-8687-386a646e0861","system_id":"levelo_inurba_marseille","lat":43.29928,"lon":5.36546,"is_reserved":false,"is_disabled":false,"rental_uris":{"android":"levelo://app?vid=78d22a10-7d17-4f45-8687-386a646e0861","ios":"levelo://app?vid=78d22a10-7d17-4f45-8687-386a646e0861"},"vehicle_type_id":"4","last_reported":1756321699,"current_range_meters":4400,"station_id":"ce4bgm92rcd13ifvqbr0","pricing_plan_id":"cebpf4jnsgd1na2vs0mg"},{"bike_id":"a1fb0611-d880-468c-aba2-d8b0a162e768","system_id":"levelo_inurba_marseille","lat":43.27814,"lon":5.40717,"is_reserved":false,"is_disabled":false,"rental_uris":{"android":"levelo://app?vid=a1fb0611-d880-468c-aba2-d8b0a162e768","ios":"levelo://app?vid=a1fb0611-d880-468c-aba2-d8b0a162e768"},"vehicle_type_id":"4","last_reported":1756321699,"current_range_meters":4400,"station_id":"ce4bhnh2rcd13ifvqgtg","pricing_plan_id":"cebpf4jnsgd1na2vs0mg"},{"bike_id":"cf1d1195-f161-4c65-8397-21d03cded88d","system_id":"levelo_inurba_marseille","lat":43.3014,"lon":5.38773,"is_reserved":false,"is_disabled":false,"rental_uris":{"android":"levelo://app?vid=cf1d1195-f161-4c65-8397-21d03cded88d","ios":"levelo://app?vid=cf1d1195-f161-4c65-8397-21d03cded88d"},"vehicle_type_id":"4","last_reported":1756321699,"current_range_meters":4400,"station_id":"ce4bghh2rcd13ifvqb60","pricing_plan_id":"cebpf4jnsgd1na2vs0mg"},{"bike_id":"a0ff4aea-1655-4148-90a5-e26596ee57e0","system_id":"levelo_inurba_marseille","lat":43.28708,"lon":5.39991,"is_reserved":false,"is_disabled":false,"rental_uris":{"android":"levelo://app?vid=a0ff4aea-1655-4148-90a5-e26596ee57e0","ios":"levelo://app?vid=a0ff4aea-1655-4148-90a5-e26596ee57e0"},"vehicle_type_id":"4","last_reported":1756321699,"current_range_meters":4400,"station_id":"ce4bho92rcd13ifvqh3g","pricing_plan_id":"cebpf4jnsgd1na2vs0mg"},{"bike_id":"743e7956-cdec-4287-9bfe-7ec2ab35ffd3","system_id":"levelo_inurba_marseille","lat":43.31493,"lon":5.3731,"is_reserved":false,"is_disabled":false,"rental_uris":{"android":"levelo://app?vid=743e7956-cdec-4287-9bfe-7ec2ab35ffd3","ios":"levelo://app?vid=743e7956-cdec-4287-9bfe-7ec2ab35ffd3"},"vehicle_type_id":"4","last_reported":1756321699,"current_range_meters":4400,"station_id":"ce4bgt12rcd13ifvqcd0","pricing_plan_id":"cebpf4jnsgd1na2vs0mg"},{"bike_id":"5a36511d-6d50-40a9-9b82-a9aaabfdf078","system_id":"levelo_inurba_marseille","lat":43.28358,"lon":5.38092,"is_reserved":false,"is_disabled":false,"rental_uris":{"android":"levelo://app?vid=5a36511d-6d50-40a9-9b82-a9aaabfdf078","ios":"levelo://app?vid=5a36511d-6d50-40a9-9b82-a9aaabfdf078"},"vehicle_type_id":"4","last_reported":1756321699,"current_range_meters":4800,"station_id":"ce4bh412rcd13ifvqdr0","pricing_plan_id":"cebpf4jnsgd1na2vs0mg"},{"bike_id":"35050881-b194-4860-95d3-e5d5cf3a6cd9","system_id":"levelo_inurba_marseille","lat":43.30273,"lon":5.37718,"is_reserved":false,"is_disabled":false,"rental_uris":{"android":"levelo://app?vid=35050881-b194-4860-95d3-e5d5cf3a6cd9","ios":"levelo://app?vid=35050881-b194-4860-95d3-e5d5cf3a6cd9"},"vehicle_type_id":"4","last_reported":1756321699,"current_range_meters":4400,"station_id":"ce4bguh2rcd13ifvqcj0","pricing_plan_id":"cebpf4jnsgd1na2vs0mg"},{"bike_id":"0dca0f10-702c-4a84-987c-659d1d9bd912","system_id":"levelo_inurba_marseille","lat":43.30883,"lon":5.37191,"is_reserved":false,"is_disabled":true,"rental_uris":{"android":"levelo://app?vid=0dca0f10-702c-4a84-987c-659d1d9bd912","ios":"levelo://app?vid=0dca0f10-702c-4a84-987c-659d1d9bd912"},"vehicle_type_id":"4","last_reported":1756321699,"current_range_meters":5600,"station_id":"ce4bguh2rcd13ifvqckg","pricing_plan_id":"cebpf4jnsgd1na2vs0mg"},{"bike_id":"70698924-f07a-4421-af4c-f1094e75e7d4","system_id":"levelo_inurba_marseille","lat":43.21191,"lon":5.35072,"is_reserved":false,"is_disabled":false,"rental_uris":{"android":"levelo://app?vid=70698924-f07a-4421-af4c-f1094e75e7d4","ios":"levelo://app?vid=70698924-f07a-4421-af4c-f1094e75e7d4"},"vehicle_type_id":"4","last_reported":1756321699,"current_range_meters":5600,"station_id":"st_cvj6sg6p6f1abm77japg","pricing_plan_id":"cebpf4jnsgd1na2vs0mg"},{"bike_id":"e1cc485f-c6f0-41fe-b8d8-b5e94a231de5","system_id":"levelo_inurba_marseille","lat":43.30739,"lon":5.37722,"is_reserved":false,"is_disabled":false,"rental_uris":{"android":"levelo://app?vid=e1cc485f-c6f0-41fe-b8d8-b5e94a231de5","ios":"levelo://app?vid=e1cc485f-c6f0-41fe-b8d8-b5e94a231de5"},"vehicle_type_id":"4","last_reported":1756321699,"current_range_meters":6000,"station_id":"","pricing_plan_id":"cebpf4jnsgd1na2vs0mg"},{"bike_id":"c510575e-aecf-4bde-9e94-1bdc489658de","system_id":"levelo_inurba_marseille","lat":43.31268,"lon":5.40176,"is_reserved":false,"is_disabled":false,"rental_uris":{"android":"levelo://app?vid=c510575e-aecf-4bde-9e94-1bdc489658de","ios":"levelo://app?vid=c510575e-aecf-4bde-9e94-1bdc489658de"},"vehicle_type_id":"4","last_reported":1756321699,"current_range_meters":6000,"station_id":"ce4bh092rcd13ifvqd30","pricing_plan_id":"cebpf4jnsgd1na2vs0mg"},{"bike_id":"0057da0b-4e87-4607-9056-eec964fdb885","system_id":"levelo_inurba_marseille","lat":43.295375,"lon":5.385402,"is_reserved":false,"is_disabled":false,"rental_uris":{"android":"levelo://app?vid=0057da0b-4e87-4607-9056-eec964fdb885","ios":"levelo://app?vid=0057da0b-4e87-4607-9056-eec964fdb885"},"vehicle_type_id":"4","last_reported":1756321699,"current_range_meters":6000,"station_id":"ce4bgih2rcd13ifvqba0","pricing_plan_id":"cebpf4jnsgd1na2vs0mg"},{"bike_id":"0bca5eac-8c75-4185-bab5-086a60a31f9c","system_id":"levelo_inurba_marseille","lat":43.31164,"lon":5.3872,"is_reserved":false,"is_disabled":false,"rental_uris":{"android":"levelo://app?vid=0bca5eac-8c75-4185-bab5-086a60a31f9c","ios":"levelo://app?vid=0bca5eac-8c75-4185-bab5-086a60a31f9c"},"vehicle_type_id":"4","last_reported":1756321699,"current_range_meters":6000,"station_id":"ce4bgv12rcd13ifvqcp0","pricing_plan_id":"cebpf4jnsgd1na2vs0mg"},{"bike_id":"6641a108-77c0-432e-b44f-0e9cc4e08ed0","system_id":"levelo_inurba_marseille","lat":43.27049,"lon":5.42296,"is_reserved":false,"is_disabled":false,"rental_uris":{"android":"levelo://app?vid=6641a108-77c0-432e-b44f-0e9cc4e08ed0","ios":"levelo://app?vid=6641a108-77c0-432e-b44f-0e9cc4e08ed0"},"vehicle_type_id":"4","last_reported":1756321699,"current_range_meters":6400,"station_id":"ce4bhk92rcd13ifvqgb0","pricing_plan_id":"cebpf4jnsgd1na2vs0mg"},{"bike_id":"90818589-d657-4d1f-974e-f14568e221d0","system_id":"levelo_inurba_marseille","lat":43.26808,"lon":5.40274,"is_reserved":false,"is_disabled":false,"rental_uris":{"android":"levelo://app?vid=90818589-d657-4d1f-974e-f14568e221d0","ios":"levelo://app?vid=90818589-d657-4d1f-974e-f14568e221d0"},"vehicle_type_id":"4","last_reported":1756321699,"current_range_meters":6400,"station_id":"ce501612rcd8frsf0b60","pricing_plan_id":"cebpf4jnsgd1na2vs0mg"},{"bike_id":"eeb42e78-373a-42a8-ad92-d1dc5831d4c3","system_id":"levelo_inurba_marseille","lat":43.248086,"lon":5.374593,"is_reserved":false,"is_disabled":true,"rental_uris":{"android":"levelo://app?vid=eeb42e78-373a-42a8-ad92-d1dc5831d4c3","ios":"levelo://app?vid=eeb42e78-373a-42a8-ad92-d1dc5831d4c3"},"vehicle_type_id":"4","last_reported":1756321699,"current_range_meters":6400,"station_id":"ce4bhgh2rcd13ifvqfb0","pricing_plan_id":"cebpf4jnsgd1na2vs0mg"},{"bike_id":"f59989ba-bbd1-4712-96d4-226fc2679c2c","system_id":"levelo_inurba_marseille","lat":43.27902,"lon":5.38011,"is_reserved":false,"is_disabled":false,"rental_uris":{"android":"levelo://app?vid=f59989ba-bbd1-4712-96d4-226fc2679c2c","ios":"levelo://app?vid=f59989ba-bbd1-4712-96d4-226fc2679c2c"},"vehicle_type_id":"4","last_reported":1756321699,"current_range_meters":6400,"station_id":"ce4bhf92rcd13ifvqf50","pricing_plan_id":"cebpf4jnsgd1na2vs0mg"},{"bike_id":"3a8b134a-3743-4c3a-a67a-59bcb3f19a1e","system_id":"levelo_inurba_marseille","lat":43.28443,"lon":5.39201,"is_reserved":false,"is_disabled":false,"rental_uris":{"android":"levelo://app?vid=3a8b134a-3743-4c3a-a67a-59bcb3f19a1e","ios":"levelo://app?vid=3a8b134a-3743-4c3a-a67a-59bcb3f19a1e"},"vehicle_type_id":"4","last_reported":1756321699,"current_range_meters":6400,"station_id":"ce4bhoh2rcd13ifvqh5g","pricing_plan_id":"cebpf4jnsgd1na2vs0mg"},{"bike_id":"2732b203-8d34-41ae-80bd-b4f151d77aad","system_id":"levelo_inurba_marseille","lat":43.30249,"lon":5.4057,"is_reserved":false,"is_disabled":false,"rental_uris":{"android":"levelo://app?vid=2732b203-8d34-41ae-80bd-b4f151d77aad","ios":"levelo://app?vid=2732b203-8d34-41ae-80bd-b4f151d77aad"},"vehicle_type_id":"4","last_reported":1756321699,"current_range_meters":6400,"station_id":"","pricing_plan_id":"cebpf4jnsgd1na2vs0mg"},{"bike_id":"74145815-36b3-428d-a6fa-8a92b99c3fac","system_id":"levelo_inurba_marseille","lat":43.29554,"lon":5.42288,"is_reserved":false,"is_disabled":false,"rental_uris":{"android":"levelo://app?vid=74145815-36b3-428d-a6fa-8a92b99c3fac","ios":"levelo://app?vid=74145815-36b3-428d-a6fa-8a92b99c3fac"},"vehicle_type_id":"4","last_reported":1756321699,"current_range_meters":6400,"station_id":"ce4bhph2rcd13ifvqhdg","pricing_plan_id":"cebpf4jnsgd1na2vs0mg"},{"bike_id":"14f61f71-807a-452d-9b58-1b489a3978d8","system_id":"levelo_inurba_marseille","lat":43.29706,"lon":5.36595,"is_reserved":false,"is_disabled":false,"rental_uris":{"android":"levelo://app?vid=14f61f71-807a-452d-9b58-1b489a3978d8","ios":"levelo://app?vid=14f61f71-807a-452d-9b58-1b489a3978d8"},"vehicle_type_id":"4","last_reported":1756321699,"current_range_meters":6000,"station_id":"ce4bgn12rcd13ifvqbt0","pricing_plan_id":"cebpf4jnsgd1na2vs0mg"},{"bike_id":"9cc355f9-5741-45c5-a2bf-1214b02b1d12","system_id":"levelo_inurba_marseille","lat":43.29841,"lon":5.36273,"is_reserved":false,"is_disabled":false,"rental_uris":{"android":"levelo://app?vid=9cc355f9-5741-45c5-a2bf-1214b02b1d12","ios":"levelo://app?vid=9cc355f9-5741-45c5-a2bf-1214b02b1d12"},"vehicle_type_id":"4","last_reported":1756321699,"current_range_meters":6400,"station_id":"ce4bgpp2rcd13ifvqc3g","pricing_plan_id":"cebpf4jnsgd1na2vs0mg"},{"bike_id":"ea0a431b-832a-4577-b1e8-3b72e9153132","system_id":"levelo_inurba_marseille","lat":43.320498,"lon":5.415439,"is_reserved":false,"is_disabled":false,"rental_uris":{"android":"levelo://app?vid=ea0a431b-832a-4577-b1e8-3b72e9153132","ios":"levelo://app?vid=ea0a431b-832a-4577-b1e8-3b72e9153132"},"vehicle_type_id":"4","last_reported":1756321699,"current_range_meters":6400,"station_id":"ce4bhq92rcd13ifvqhkg","pricing_plan_id":"cebpf4jnsgd1na2vs0mg"},{"bike_id":"49abfefd-a455-456a-9a5e-cada97202516","system_id":"levelo_inurba_marseille","lat":43.29992,"lon":5.38438,"is_reserved":false,"is_disabled":false,"rental_uris":{"android":"levelo://app?vid=49abfefd-a455-456a-9a5e-cada97202516","ios":"levelo://app?vid=49abfefd-a455-456a-9a5e-cada97202516"},"vehicle_type_id":"4","last_reported":1756321699,"current_range_meters":6400,"station_id":"ce4bgj92rcd13ifvqbd0","pricing_plan_id":"cebpf4jnsgd1na2vs0mg"},{"bike_id":"919403d1-9d41-4322-8f42-253c1dba9d3b","system_id":"levelo_inurba_marseille","lat":43.2175,"lon":5.34603,"is_reserved":false,"is_disabled":false,"rental_uris":{"android":"levelo://app?vid=919403d1-9d41-4322-8f42-253c1dba9d3b","ios":"levelo://app?vid=919403d1-9d41-4322-8f42-253c1dba9d3b"},"vehicle_type_id":"4","last_reported":1756321699,"current_range_meters":6800,"station_id":"st_cvj6r9ubvosntc0bgbag","pricing_plan_id":"cebpf4jnsgd1na2vs0mg"},{"bike_id":"2b0bc58d-2849-4648-879b-e134fc1f2690","system_id":"levelo_inurba_marseille","lat":43.28853,"lon":5.35845,"is_reserved":false,"is_disabled":false,"rental_uris":{"android":"levelo://app?vid=2b0bc58d-2849-4648-879b-e134fc1f2690","ios":"levelo://app?vid=2b0bc58d-2849-4648-879b-e134fc1f2690"},"vehicle_type_id":"4","last_reported":1756321699,"current_range_meters":6800,"station_id":"ce4bhb12rcd13ifvqem0","pricing_plan_id":"cebpf4jnsgd1na2vs0mg"},{"bike_id":"0d502687-08ef-4491-8893-8a03d8688be8","system_id":"levelo_inurba_marseille","lat":43.29621,"lon":5.36123,"is_reserved":false,"is_disabled":false,"rental_uris":{"android":"levelo://app?vid=0d502687-08ef-4491-8893-8a03d8688be8","ios":"levelo://app?vid=0d502687-08ef-4491-8893-8a03d8688be8"},"vehicle_type_id":"4","last_reported":1756321699,"current_range_meters":6800,"station_id":"","pricing_plan_id":"cebpf4jnsgd1na2vs0mg"},{"bike_id":"b4355a8b-6620-41c5-aaa4-2b969fb59e8f","system_id":"levelo_inurba_marseille","lat":43.26686,"lon":5.38269,"is_reserved":false,"is_disabled":true,"rental_uris":{"android":"levelo://app?vid=b4355a8b-6620-41c5-aaa4-2b969fb59e8f","ios":"levelo://app?vid=b4355a8b-6620-41c5-aaa4-2b969fb59e8f"},"vehicle_type_id":"4","last_reported":1756321699,"current_range_meters":6800,"station_id":"ce4bhg92rcd13ifvqf90","pricing_plan_id":"cebpf4jnsgd1na2vs0mg"},{"bike_id":"9ea7398b-3313-4fa1-98cc-8b0803b6ea42","system_id":"levelo_inurba_marseille","lat":43.297393,"lon":5.365258,"is_reserved":false,"is_disabled":false,"rental_uris":{"android":"levelo://app?vid=9ea7398b-3313-4fa1-98cc-8b0803b6ea42","ios":"levelo://app?vid=9ea7398b-3313-4fa1-98cc-8b0803b6ea42"},"vehicle_type_id":"4","last_reported":1756321699,"current_range_meters":6800,"station_id":"ce4bgn12rcd13ifvqbt0","pricing_plan_id":"cebpf4jnsgd1na2vs0mg"},{"bike_id":"a8b78047-a049-4805-bf45-036240db314e","system_id":"levelo_inurba_marseille","lat":43.30597,"lon":5.37229,"is_reserved":false,"is_disabled":false,"rental_uris":{"android":"levelo://app?vid=a8b78047-a049-4805-bf45-036240db314e","ios":"levelo://app?vid=a8b78047-a049-4805-bf45-036240db314e"},"vehicle_type_id":"4","last_reported":1756321699,"current_range_meters":6800,"station_id":"ce4bgqh2rcd13ifvqc4g","pricing_plan_id":"cebpf4jnsgd1na2vs0mg"},{"bike_id":"484c328d-5cf7-4d91-8f0f-247f3952febb","system_id":"levelo_inurba_marseille","lat":43.29261,"lon":5.38435,"is_reserved":false,"is_disabled":false,"rental_uris":{"android":"levelo://app?vid=484c328d-5cf7-4d91-8f0f-247f3952febb","ios":"levelo://app?vid=484c328d-5cf7-4d91-8f0f-247f3952febb"},"vehicle_type_id":"4","last_reported":1756321699,"current_range_meters":7200,"station_id":"ce4bh692rcd13ifvqea0","pricing_plan_id":"cebpf4jnsgd1na2vs0mg"},{"bike_id":"1f8f9369-8b0c-477a-a3d0-c632f558bab9","system_id":"levelo_inurba_marseille","lat":43.29632,"lon":5.40603,"is_reserved":false,"is_disabled":false,"rental_uris":{"android":"levelo://app?vid=1f8f9369-8b0c-477a-a3d0-c632f558bab9","ios":"levelo://app?vid=1f8f9369-8b0c-477a-a3d0-c632f558bab9"},"vehicle_type_id":"4","last_reported":1756321699,"current_range_meters":7200,"station_id":"ce4bh0h2rcd13ifvqd60","pricing_plan_id":"cebpf4jnsgd1na2vs0mg"},{"bike_id":"4499fe48-1114-481a-b6d4-387f7a2a7138","system_id":"levelo_inurba_marseille","lat":43.296218,"lon":5.377281,"is_reserved":false,"is_disabled":false,"rental_uris":{"android":"levelo://app?vid=4499fe48-1114-481a-b6d4-387f7a2a7138","ios":"levelo://app?vid=4499fe48-1114-481a-b6d4-387f7a2a7138"},"vehicle_type_id":"4","last_reported":1756321699,"current_range_meters":7200,"station_id":"ce4bgi92rcd13ifvqb90","pricing_plan_id":"cebpf4jnsgd1na2vs0mg"},{"bike_id":"d6f6730b-8ea9-42a3-a1eb-3405a2d763f0","system_id":"levelo_inurba_marseille","lat":43.31478,"lon":5.37314,"is_reserved":false,"is_disabled":false,"rental_uris":{"android":"levelo://app?vid=d6f6730b-8ea9-42a3-a1eb-3405a2d763f0","ios":"levelo://app?vid=d6f6730b-8ea9-42a3-a1eb-3405a2d763f0"},"vehicle_type_id":"4","last_reported":1756321699,"current_range_meters":7200,"station_id":"ce4bgt12rcd13ifvqcd0","pricing_plan_id":"cebpf4jnsgd1na2vs0mg"},{"bike_id":"507b8e66-2703-4d99-a6a1-01a86f68aff8","system_id":"levelo_inurba_marseille","lat":43.310758,"lon":5.383622,"is_reserved":false,"is_disabled":false,"rental_uris":{"android":"levelo://app?vid=507b8e66-2703-4d99-a6a1-01a86f68aff8","ios":"levelo://app?vid=507b8e66-2703-4d99-a6a1-01a86f68aff8"},"vehicle_type_id":"4","last_reported":1756321699,"current_range_meters":8000,"station_id":"ce4bgv92rcd13ifvqcr0","pricing_plan_id":"cebpf4jnsgd1na2vs0mg"},{"bike_id":"def8aed4-5bc2-40a6-b52c-27e5b1cd5a76","system_id":"levelo_inurba_marseille","lat":43.26539,"lon":5.37333,"is_reserved":false,"is_disabled":false,"rental_uris":{"android":"levelo://app?vid=def8aed4-5bc2-40a6-b52c-27e5b1cd5a76","ios":"levelo://app?vid=def8aed4-5bc2-40a6-b52c-27e5b1cd5a76"},"vehicle_type_id":"4","last_reported":1756321699,"current_range_meters":8000,"station_id":"","pricing_plan_id":"cebpf4jnsgd1na2vs0mg"},{"bike_id":"c21ed5c8-4079-4cdb-b51f-37b964bd70ae","system_id":"levelo_inurba_marseille","lat":43.29773,"lon":5.37112,"is_reserved":false,"is_disabled":false,"rental_uris":{"android":"levelo://app?vid=c21ed5c8-4079-4cdb-b51f-37b964bd70ae","ios":"levelo://app?vid=c21ed5c8-4079-4cdb-b51f-37b964bd70ae"},"vehicle_type_id":"4","last_reported":1756321699,"current_range_meters":7200,"station_id":"ce4bgop2rcd13ifvqc1g","pricing_plan_id":"cebpf4jnsgd1na2vs0mg"},{"bike_id":"69a01144-4cb0-4f43-b8a7-d8bba1210d75","system_id":"levelo_inurba_marseille","lat":43.31553,"lon":5.37502,"is_reserved":false,"is_disabled":false,"rental_uris":{"android":"levelo://app?vid=69a01144-4cb0-4f43-b8a7-d8bba1210d75","ios":"levelo://app?vid=69a01144-4cb0-4f43-b8a7-d8bba1210d75"},"vehicle_type_id":"4","last_reported":1756321699,"current_range_meters":8000,"station_id":"","pricing_plan_id":"cebpf4jnsgd1na2vs0mg"},{"bike_id":"10290824-dcac-48b4-99c8-5e60258c2aa4","system_id":"levelo_inurba_marseille","lat":43.243898,"lon":5.37058,"is_reserved":false,"is_disabled":false,"rental_uris":{"android":"levelo://app?vid=10290824-dcac-48b4-99c8-5e60258c2aa4","ios":"levelo://app?vid=10290824-dcac-48b4-99c8-5e60258c2aa4"},"vehicle_type_id":"4","last_reported":1756321699,"current_range_meters":8400,"station_id":"ce4bhhh2rcd13ifvqfk0","pricing_plan_id":"cebpf4jnsgd1na2vs0mg"},{"bike_id":"0f2017f4-e5c1-46a2-a7d8-e957ce265a72","system_id":"levelo_inurba_marseille","lat":43.33762,"lon":5.37484,"is_reserved":false,"is_disabled":false,"rental_uris":{"android":"levelo://app?vid=0f2017f4-e5c1-46a2-a7d8-e957ce265a72","ios":"levelo://app?vid=0f2017f4-e5c1-46a2-a7d8-e957ce265a72"},"vehicle_type_id":"4","last_reported":1756321699,"current_range_meters":8400,"station_id":"","pricing_plan_id":"cebpf4jnsgd1na2vs0mg"},{"bike_id":"68aaa911-efc9-46f2-88a0-971b7d93557e","system_id":"levelo_inurba_marseille","lat":43.31882,"lon":5.40727,"is_reserved":false,"is_disabled":false,"rental_uris":{"android":"levelo://app?vid=68aaa911-efc9-46f2-88a0-971b7d93557e","ios":"levelo://app?vid=68aaa911-efc9-46f2-88a0-971b7d93557e"},"vehicle_type_id":"4","last_reported":1756321699,"current_range_meters":8400,"station_id":"ce4bhq12rcd13ifvqhig","pricing_plan_id":"cebpf4jnsgd1na2vs0mg"},{"bike_id":"51842e17-ef10-4624-a23e-c8a182427991","system_id":"levelo_inurba_marseille","lat":43.316395,"lon":5.381817,"is_reserved":false,"is_disabled":false,"rental_uris":{"android":"levelo://app?vid=51842e17-ef10-4624-a23e-c8a182427991","ios":"levelo://app?vid=51842e17-ef10-4624-a23e-c8a182427991"},"vehicle_type_id":"4","last_reported":1756321699,"current_range_meters":8400,"station_id":"","pricing_plan_id":"cebpf4jnsgd1na2vs0mg"},{"bike_id":"d0dc509f-9180-4819-9d2d-54dd08644812","system_id":"levelo_inurba_marseille","lat":43.27994,"lon":5.40003,"is_reserved":false,"is_disabled":false,"rental_uris":{"android":"levelo://app?vid=d0dc509f-9180-4819-9d2d-54dd08644812","ios":"levelo://app?vid=d0dc509f-9180-4819-9d2d-54dd08644812"},"vehicle_type_id":"4","last_reported":1756321699,"current_range_meters":8400,"station_id":"ce4bho92rcd13ifvqh4g","pricing_plan_id":"cebpf4jnsgd1na2vs0mg"},{"bike_id":"24df2c59-c2ae-4cf6-8d73-b821e9ca9612","system_id":"levelo_inurba_marseille","lat":43.27983,"lon":5.39969,"is_reserved":false,"is_disabled":true,"rental_uris":{"android":"levelo://app?vid=24df2c59-c2ae-4cf6-8d73-b821e9ca9612","ios":"levelo://app?vid=24df2c59-c2ae-4cf6-8d73-b821e9ca9612"},"vehicle_type_id":"4","last_reported":1756321699,"current_range_meters":8400,"station_id":"ce4bho92rcd13ifvqh4g","pricing_plan_id":"cebpf4jnsgd1na2vs0mg"},{"bike_id":"c555f173-7656-49a9-89a7-f07c776158fa","system_id":"levelo_inurba_marseille","lat":43.25063,"lon":5.39528,"is_reserved":false,"is_disabled":false,"rental_uris":{"android":"levelo://app?vid=c555f173-7656-49a9-89a7-f07c776158fa","ios":"levelo://app?vid=c555f173-7656-49a9-89a7-f07c776158fa"},"vehicle_type_id":"4","last_reported":1756321699,"current_range_meters":8000,"station_id":"ce4bhm12rcd13ifvqgkg","pricing_plan_id":"cebpf4jnsgd1na2vs0mg"},{"bike_id":"76c67a76-4360-4d1b-b1ee-4df685ddb5b0","system_id":"levelo_inurba_marseille","lat":43.24797,"lon":5.3746,"is_reserved":false,"is_disabled":false,"rental_uris":{"android":"levelo://app?vid=76c67a76-4360-4d1b-b1ee-4df685ddb5b0","ios":"levelo://app?vid=76c67a76-4360-4d1b-b1ee-4df685ddb5b0"},"vehicle_type_id":"4","last_reported":1756321699,"current_range_meters":8400,"station_id":"ce4bhgh2rcd13ifvqfb0","pricing_plan_id":"cebpf4jnsgd1na2vs0mg"},{"bike_id":"8ff3ebc3-b8cc-483f-9232-7e0c6220b0be","system_id":"levelo_inurba_marseille","lat":43.29956,"lon":5.4132,"is_reserved":false,"is_disabled":true,"rental_uris":{"android":"levelo://app?vid=8ff3ebc3-b8cc-483f-9232-7e0c6220b0be","ios":"levelo://app?vid=8ff3ebc3-b8cc-483f-9232-7e0c6220b0be"},"vehicle_type_id":"4","last_reported":1756321699,"current_range_meters":8800,"station_id":"ce4bhp12rcd13ifvqh9g","pricing_plan_id":"cebpf4jnsgd1na2vs0mg"},{"bike_id":"a79b6166-93d1-40ff-986d-a995e819e2c5","system_id":"levelo_inurba_marseille","lat":43.32361,"lon":5.38885,"is_reserved":false,"is_disabled":false,"rental_uris":{"android":"levelo://app?vid=a79b6166-93d1-40ff-986d-a995e819e2c5","ios":"levelo://app?vid=a79b6166-93d1-40ff-986d-a995e819e2c5"},"vehicle_type_id":"4","last_reported":1756321699,"current_range_meters":8800,"station_id":"ce4bhqp2rcd13ifvqhog","pricing_plan_id":"cebpf4jnsgd1na2vs0mg"},{"bike_id":"e9099ed8-f39c-4735-a545-38ff6ccc85d8","system_id":"levelo_inurba_marseille","lat":43.32353,"lon":5.38887,"is_reserved":false,"is_disabled":false,"rental_uris":{"android":"levelo://app?vid=e9099ed8-f39c-4735-a545-38ff6ccc85d8","ios":"levelo://app?vid=e9099ed8-f39c-4735-a545-38ff6ccc85d8"},"vehicle_type_id":"4","last_reported":1756321699,"current_range_meters":8800,"station_id":"ce4bhqp2rcd13ifvqhog","pricing_plan_id":"cebpf4jnsgd1na2vs0mg"},{"bike_id":"39002f5b-a23e-4630-90a0-e2481b8443c4","system_id":"levelo_inurba_marseille","lat":43.25006,"lon":5.389113,"is_reserved":false,"is_disabled":false,"rental_uris":{"android":"levelo://app?vid=39002f5b-a23e-4630-90a0-e2481b8443c4","ios":"levelo://app?vid=39002f5b-a23e-4630-90a0-e2481b8443c4"},"vehicle_type_id":"4","last_reported":1756321699,"current_range_meters":8800,"station_id":"","pricing_plan_id":"cebpf4jnsgd1na2vs0mg"},{"bike_id":"50db7e3d-2002-410d-94fd-da97a816f51d","system_id":"levelo_inurba_marseille","lat":43.25938,"lon":5.40899,"is_reserved":false,"is_disabled":false,"rental_uris":{"android":"levelo://app?vid=50db7e3d-2002-410d-94fd-da97a816f51d","ios":"levelo://app?vid=50db7e3d-2002-410d-94fd-da97a816f51d"},"vehicle_type_id":"4","last_reported":1756321699,"current_range_meters":8800,"station_id":"ce4bhm92rcd13ifvqglg","pricing_plan_id":"cebpf4jnsgd1na2vs0mg"},{"bike_id":"b37a746f-8635-4074-97ca-ab1234c566b4","system_id":"levelo_inurba_marseille","lat":43.245477,"lon":5.395223,"is_reserved":false,"is_disabled":false,"rental_uris":{"android":"levelo://app?vid=b37a746f-8635-4074-97ca-ab1234c566b4","ios":"levelo://app?vid=b37a746f-8635-4074-97ca-ab1234c566b4"},"vehicle_type_id":"4","last_reported":1756321699,"current_range_meters":9200,"station_id":"ce4bhlp2rcd13ifvqgjg","pricing_plan_id":"cebpf4jnsgd1na2vs0mg"},{"bike_id":"5d816f1e-064d-4cc3-9650-475fb30fca15","system_id":"levelo_inurba_marseille","lat":43.30524,"lon":5.36709,"is_reserved":false,"is_disabled":false,"rental_uris":{"android":"levelo://app?vid=5d816f1e-064d-4cc3-9650-475fb30fca15","ios":"levelo://app?vid=5d816f1e-064d-4cc3-9650-475fb30fca15"},"vehicle_type_id":"4","last_reported":1756321699,"current_range_meters":9200,"station_id":"ce4bgrp2rcd13ifvqc9g","pricing_plan_id":"cebpf4jnsgd1na2vs0mg"},{"bike_id":"bd6b0212-6a8d-4845-8e60-756a33d3b64c","system_id":"levelo_inurba_marseille","lat":43.323345,"lon":5.406122,"is_reserved":false,"is_disabled":false,"rental_uris":{"android":"levelo://app?vid=bd6b0212-6a8d-4845-8e60-756a33d3b64c","ios":"levelo://app?vid=bd6b0212-6a8d-4845-8e60-756a33d3b64c"},"vehicle_type_id":"4","last_reported":1756321699,"current_range_meters":9200,"station_id":"ce4bhq92rcd13ifvqhjg","pricing_plan_id":"cebpf4jnsgd1na2vs0mg"},{"bike_id":"333efd37-9d8e-4452-98d7-03968be1c1b0","system_id":"levelo_inurba_marseille","lat":43.28722,"lon":5.37941,"is_reserved":false,"is_disabled":false,"rental_uris":{"android":"levelo://app?vid=333efd37-9d8e-4452-98d7-03968be1c1b0","ios":"levelo://app?vid=333efd37-9d8e-4452-98d7-03968be1c1b0"},"vehicle_type_id":"4","last_reported":1756321699,"current_range_meters":9200,"station_id":"ce4bh9p2rcd13ifvqec0","pricing_plan_id":"cebpf4jnsgd1na2vs0mg"},{"bike_id":"a6ef8657-5b8a-423b-993f-c3df43dec0a0","system_id":"levelo_inurba_marseille","lat":43.326998,"lon":5.392208,"is_reserved":false,"is_disabled":false,"rental_uris":{"android":"levelo://app?vid=a6ef8657-5b8a-423b-993f-c3df43dec0a0","ios":"levelo://app?vid=a6ef8657-5b8a-423b-993f-c3df43dec0a0"},"vehicle_type_id":"4","last_reported":1756321699,"current_range_meters":9200,"station_id":"","pricing_plan_id":"cebpf4jnsgd1na2vs0mg"},{"bike_id":"bb0f1d06-621a-48fd-998e-cdfb3af52d6e","system_id":"levelo_inurba_marseille","lat":43.30954,"lon":5.39028,"is_reserved":false,"is_disabled":false,"rental_uris":{"android":"levelo://app?vid=bb0f1d06-621a-48fd-998e-cdfb3af52d6e","ios":"levelo://app?vid=bb0f1d06-621a-48fd-998e-cdfb3af52d6e"},"vehicle_type_id":"4","last_reported":1756321699,"current_range_meters":9200,"station_id":"ce4bgup2rcd13ifvqco0","pricing_plan_id":"cebpf4jnsgd1na2vs0mg"},{"bike_id":"8ca0632e-8d97-45bd-a29b-da491fed64e4","system_id":"levelo_inurba_marseille","lat":43.26027,"lon":5.3755,"is_reserved":false,"is_disabled":false,"rental_uris":{"android":"levelo://app?vid=8ca0632e-8d97-45bd-a29b-da491fed64e4","ios":"levelo://app?vid=8ca0632e-8d97-45bd-a29b-da491fed64e4"},"vehicle_type_id":"4","last_reported":1756321699,"current_range_meters":9200,"station_id":"ce4bhgh2rcd13ifvqfa0","pricing_plan_id":"cebpf4jnsgd1na2vs0mg"},{"bike_id":"efa4cc8a-6991-462e-8ab7-b72260bc29a3","system_id":"levelo_inurba_marseille","lat":43.27946,"lon":5.3959,"is_reserved":false,"is_disabled":false,"rental_uris":{"android":"levelo://app?vid=efa4cc8a-6991-462e-8ab7-b72260bc29a3","ios":"levelo://app?vid=efa4cc8a-6991-462e-8ab7-b72260bc29a3"},"vehicle_type_id":"4","last_reported":1756321699,"current_range_meters":9600,"station_id":"ce4bhf92rcd13ifvqf40","pricing_plan_id":"cebpf4jnsgd1na2vs0mg"},{"bike_id":"59af4a4f-3ca3-4baf-abe8-6c5b24bdda22","system_id":"levelo_inurba_marseille","lat":43.292682,"lon":5.384313,"is_reserved":false,"is_disabled":false,"rental_uris":{"android":"levelo://app?vid=59af4a4f-3ca3-4baf-abe8-6c5b24bdda22","ios":"levelo://app?vid=59af4a4f-3ca3-4baf-abe8-6c5b24bdda22"},"vehicle_type_id":"4","last_reported":1756321699,"current_range_meters":9600,"station_id":"ce4bh692rcd13ifvqea0","pricing_plan_id":"cebpf4jnsgd1na2vs0mg"},{"bike_id":"1d7023ef-959e-48df-b075-0a4bd90cc9ae","system_id":"levelo_inurba_marseille","lat":43.27365,"lon":5.36253,"is_reserved":false,"is_disabled":true,"rental_uris":{"android":"levelo://app?vid=1d7023ef-959e-48df-b075-0a4bd90cc9ae","ios":"levelo://app?vid=1d7023ef-959e-48df-b075-0a4bd90cc9ae"},"vehicle_type_id":"4","last_reported":1756321699,"current_range_meters":9600,"station_id":"ce4bhbh2rcd13ifvqeo0","pricing_plan_id":"cebpf4jnsgd1na2vs0mg"},{"bike_id":"2d0e77b8-c9d8-4e57-b6d3-0a222f73256a","system_id":"levelo_inurba_marseille","lat":43.26189,"lon":5.37453,"is_reserved":false,"is_disabled":true,"rental_uris":{"android":"levelo://app?vid=2d0e77b8-c9d8-4e57-b6d3-0a222f73256a","ios":"levelo://app?vid=2d0e77b8-c9d8-4e57-b6d3-0a222f73256a"},"vehicle_type_id":"4","last_reported":1756321699,"current_range_meters":9600,"station_id":"ce4bhgp2rcd13ifvqfc0","pricing_plan_id":"cebpf4jnsgd1na2vs0mg"},{"bike_id":"a134b4f2-0eb1-44bf-90a6-b55287c842ea","system_id":"levelo_inurba_marseille","lat":43.27493,"lon":5.42462,"is_reserved":false,"is_disabled":false,"rental_uris":{"android":"levelo://app?vid=a134b4f2-0eb1-44bf-90a6-b55287c842ea","ios":"levelo://app?vid=a134b4f2-0eb1-44bf-90a6-b55287c842ea"},"vehicle_type_id":"4","last_reported":1756321699,"current_range_meters":9600,"station_id":"ce4bhn92rcd13ifvqgrg","pricing_plan_id":"cebpf4jnsgd1na2vs0mg"},{"bike_id":"1546df9e-d1cb-482b-8d1f-d121540fd829","system_id":"levelo_inurba_marseille","lat":43.21191,"lon":5.35077,"is_reserved":false,"is_disabled":false,"rental_uris":{"android":"levelo://app?vid=1546df9e-d1cb-482b-8d1f-d121540fd829","ios":"levelo://app?vid=1546df9e-d1cb-482b-8d1f-d121540fd829"},"vehicle_type_id":"4","last_reported":1756321699,"current_range_meters":9600,"station_id":"st_cvj6sg6p6f1abm77japg","pricing_plan_id":"cebpf4jnsgd1na2vs0mg"},{"bike_id":"ccd80e23-9cae-4b8f-8980-c02f52080d9a","system_id":"levelo_inurba_marseille","lat":43.27805,"lon":5.40712,"is_reserved":false,"is_disabled":false,"rental_uris":{"android":"levelo://app?vid=ccd80e23-9cae-4b8f-8980-c02f52080d9a","ios":"levelo://app?vid=ccd80e23-9cae-4b8f-8980-c02f52080d9a"},"vehicle_type_id":"4","last_reported":1756321699,"current_range_meters":9600,"station_id":"ce4bhnh2rcd13ifvqgtg","pricing_plan_id":"cebpf4jnsgd1na2vs0mg"},{"bike_id":"38d8ef3e-e8d7-4990-bcc0-c58cc350dc96","system_id":"levelo_inurba_marseille","lat":43.26013,"lon":5.37563,"is_reserved":false,"is_disabled":true,"rental_uris":{"android":"levelo://app?vid=38d8ef3e-e8d7-4990-bcc0-c58cc350dc96","ios":"levelo://app?vid=38d8ef3e-e8d7-4990-bcc0-c58cc350dc96"},"vehicle_type_id":"4","last_reported":1756321699,"current_range_meters":9600,"station_id":"ce4bhgh2rcd13ifvqfa0","pricing_plan_id":"cebpf4jnsgd1na2vs0mg"},{"bike_id":"c1c1254b-bab4-492a-aa98-e0bb18ca3fe7","system_id":"levelo_inurba_marseille","lat":43.25491,"lon":5.37653,"is_reserved":false,"is_disabled":false,"rental_uris":{"android":"levelo://app?vid=c1c1254b-bab4-492a-aa98-e0bb18ca3fe7","ios":"levelo://app?vid=c1c1254b-bab4-492a-aa98-e0bb18ca3fe7"},"vehicle_type_id":"4","last_reported":1756321699,"current_range_meters":10000,"station_id":"ce4bhh12rcd13ifvqff0","pricing_plan_id":"cebpf4jnsgd1na2vs0mg"},{"bike_id":"aee74029-853b-4651-87ac-b9c6f3199af0","system_id":"levelo_inurba_marseille","lat":43.31882,"lon":5.40744,"is_reserved":false,"is_disabled":false,"rental_uris":{"android":"levelo://app?vid=aee74029-853b-4651-87ac-b9c6f3199af0","ios":"levelo://app?vid=aee74029-853b-4651-87ac-b9c6f3199af0"},"vehicle_type_id":"4","last_reported":1756321699,"current_range_meters":10000,"station_id":"ce4bhq12rcd13ifvqhig","pricing_plan_id":"cebpf4jnsgd1na2vs0mg"},{"bike_id":"6d9ac2af-014d-4305-9984-ef7c233b83da","system_id":"levelo_inurba_marseille","lat":43.3205,"lon":5.41537,"is_reserved":false,"is_disabled":false,"rental_uris":{"android":"levelo://app?vid=6d9ac2af-014d-4305-9984-ef7c233b83da","ios":"levelo://app?vid=6d9ac2af-014d-4305-9984-ef7c233b83da"},"vehicle_type_id":"4","last_reported":1756321699,"current_range_meters":10000,"station_id":"ce4bhq92rcd13ifvqhkg","pricing_plan_id":"cebpf4jnsgd1na2vs0mg"},{"bike_id":"e337d582-364a-4312-af91-67d0c81052aa","system_id":"levelo_inurba_marseille","lat":43.3253,"lon":5.36451,"is_reserved":false,"is_disabled":false,"rental_uris":{"android":"levelo://app?vid=e337d582-364a-4312-af91-67d0c81052aa","ios":"levelo://app?vid=e337d582-364a-4312-af91-67d0c81052aa"},"vehicle_type_id":"4","last_reported":1756321699,"current_range_meters":10000,"station_id":"","pricing_plan_id":"cebpf4jnsgd1na2vs0mg"},{"bike_id":"8b8601ff-72f1-447e-bef9-12af006ae23b","system_id":"levelo_inurba_marseille","lat":43.29853,"lon":5.36286,"is_reserved":false,"is_disabled":false,"rental_uris":{"android":"levelo://app?vid=8b8601ff-72f1-447e-bef9-12af006ae23b","ios":"levelo://app?vid=8b8601ff-72f1-447e-bef9-12af006ae23b"},"vehicle_type_id":"4","last_reported":1756321699,"current_range_meters":10000,"station_id":"ce4bgpp2rcd13ifvqc3g","pricing_plan_id":"cebpf4jnsgd1na2vs0mg"},{"bike_id":"bbbca1d7-8759-4aa4-bdaa-3d98186e2727","system_id":"levelo_inurba_marseille","lat":43.306119,"lon":5.372407,"is_reserved":false,"is_disabled":false,"rental_uris":{"android":"levelo://app?vid=bbbca1d7-8759-4aa4-bdaa-3d98186e2727","ios":"levelo://app?vid=bbbca1d7-8759-4aa4-bdaa-3d98186e2727"},"vehicle_type_id":"4","last_reported":1756321699,"current_range_meters":10000,"station_id":"ce4bgqh2rcd13ifvqc4g","pricing_plan_id":"cebpf4jnsgd1na2vs0mg"},{"bike_id":"78687725-2004-45c9-bfb0-fa47e9d39239","system_id":"levelo_inurba_marseille","lat":43.242335,"lon":5.368007,"is_reserved":false,"is_disabled":false,"rental_uris":{"android":"levelo://app?vid=78687725-2004-45c9-bfb0-fa47e9d39239","ios":"levelo://app?vid=78687725-2004-45c9-bfb0-fa47e9d39239"},"vehicle_type_id":"4","last_reported":1756321699,"current_range_meters":10800,"station_id":"cpo36qri1sfpv3e86is0","pricing_plan_id":"cebpf4jnsgd1na2vs0mg"},{"bike_id":"27c8ad9c-60de-495f-9238-5a03f1e879b2","system_id":"levelo_inurba_marseille","lat":43.26788,"lon":5.39412,"is_reserved":false,"is_disabled":false,"rental_uris":{"android":"levelo://app?vid=27c8ad9c-60de-495f-9238-5a03f1e879b2","ios":"levelo://app?vid=27c8ad9c-60de-495f-9238-5a03f1e879b2"},"vehicle_type_id":"4","last_reported":1756321699,"current_range_meters":10800,"station_id":"ce4bhh12rcd13ifvqfg0","pricing_plan_id":"cebpf4jnsgd1na2vs0mg"},{"bike_id":"a7c879e6-fbdc-41cc-b936-a235aa17adb5","system_id":"levelo_inurba_marseille","lat":43.331206,"lon":5.38779,"is_reserved":false,"is_disabled":false,"rental_uris":{"android":"levelo://app?vid=a7c879e6-fbdc-41cc-b936-a235aa17adb5","ios":"levelo://app?vid=a7c879e6-fbdc-41cc-b936-a235aa17adb5"},"vehicle_type_id":"4","last_reported":1756321699,"current_range_meters":10800,"station_id":"","pricing_plan_id":"cebpf4jnsgd1na2vs0mg"},{"bike_id":"0a7a41b0-4f64-4056-a412-414745866583","system_id":"levelo_inurba_marseille","lat":43.29288,"lon":5.37446,"is_reserved":false,"is_disabled":false,"rental_uris":{"android":"levelo://app?vid=0a7a41b0-4f64-4056-a412-414745866583","ios":"levelo://app?vid=0a7a41b0-4f64-4056-a412-414745866583"},"vehicle_type_id":"4","last_reported":1756321699,"current_range_meters":10800,"station_id":"ce4bgi12rcd13ifvqb70","pricing_plan_id":"cebpf4jnsgd1na2vs0mg"},{"bike_id":"4654beae-f29c-4402-ba55-cf417bdfb454","system_id":"levelo_inurba_marseille","lat":43.29812,"lon":5.40404,"is_reserved":false,"is_disabled":false,"rental_uris":{"android":"levelo://app?vid=4654beae-f29c-4402-ba55-cf417bdfb454","ios":"levelo://app?vid=4654beae-f29c-4402-ba55-cf417bdfb454"},"vehicle_type_id":"4","last_reported":1756321699,"current_range_meters":10800,"station_id":"ce4bh112rcd13ifvqd90","pricing_plan_id":"cebpf4jnsgd1na2vs0mg"},{"bike_id":"5bce688b-fc81-4596-8277-b66f54be87c1","system_id":"levelo_inurba_marseille","lat":43.33768,"lon":5.37438,"is_reserved":false,"is_disabled":false,"rental_uris":{"android":"levelo://app?vid=5bce688b-fc81-4596-8277-b66f54be87c1","ios":"levelo://app?vid=5bce688b-fc81-4596-8277-b66f54be87c1"},"vehicle_type_id":"4","last_reported":1756321699,"current_range_meters":10800,"station_id":"","pricing_plan_id":"cebpf4jnsgd1na2vs0mg"},{"bike_id":"4e11efe4-b3a1-4f54-b1bb-15bae5386b88","system_id":"levelo_inurba_marseille","lat":43.29608,"lon":5.37722,"is_reserved":false,"is_disabled":false,"rental_uris":{"android":"levelo://app?vid=4e11efe4-b3a1-4f54-b1bb-15bae5386b88","ios":"levelo://app?vid=4e11efe4-b3a1-4f54-b1bb-15bae5386b88"},"vehicle_type_id":"4","last_reported":1756321699,"current_range_meters":10800,"station_id":"ce4bgi92rcd13ifvqb90","pricing_plan_id":"cebpf4jnsgd1na2vs0mg"},{"bike_id":"6edb1530-71b8-45ee-838f-f07e5a0e8ab9","system_id":"levelo_inurba_marseille","lat":43.262092,"lon":5.374478,"is_reserved":false,"is_disabled":true,"rental_uris":{"android":"levelo://app?vid=6edb1530-71b8-45ee-838f-f07e5a0e8ab9","ios":"levelo://app?vid=6edb1530-71b8-45ee-838f-f07e5a0e8ab9"},"vehicle_type_id":"4","last_reported":1756321699,"current_range_meters":10800,"station_id":"ce4bhgp2rcd13ifvqfc0","pricing_plan_id":"cebpf4jnsgd1na2vs0mg"},{"bike_id":"b79f626f-4cce-45e0-9b7e-79f3f3a6033f","system_id":"levelo_inurba_marseille","lat":43.24631,"lon":5.43155,"is_reserved":false,"is_disabled":false,"rental_uris":{"android":"levelo://app?vid=b79f626f-4cce-45e0-9b7e-79f3f3a6033f","ios":"levelo://app?vid=b79f626f-4cce-45e0-9b7e-79f3f3a6033f"},"vehicle_type_id":"4","last_reported":1756321699,"current_range_meters":11200,"station_id":"st_d2m6c4gdas8pm72e190g","pricing_plan_id":"cebpf4jnsgd1na2vs0mg"},{"bike_id":"ce297a97-a3d1-49a9-a32a-9688a034bb89","system_id":"levelo_inurba_marseille","lat":43.30308,"lon":5.36914,"is_reserved":false,"is_disabled":false,"rental_uris":{"android":"levelo://app?vid=ce297a97-a3d1-49a9-a32a-9688a034bb89","ios":"levelo://app?vid=ce297a97-a3d1-49a9-a32a-9688a034bb89"},"vehicle_type_id":"4","last_reported":1756321699,"current_range_meters":11200,"station_id":"ce4bgqh2rcd13ifvqc5g","pricing_plan_id":"cebpf4jnsgd1na2vs0mg"},{"bike_id":"ffd26ff4-feae-4ee6-8c4f-b019239a08a0","system_id":"levelo_inurba_marseille","lat":43.28982,"lon":5.37826,"is_reserved":false,"is_disabled":false,"rental_uris":{"android":"levelo://app?vid=ffd26ff4-feae-4ee6-8c4f-b019239a08a0","ios":"levelo://app?vid=ffd26ff4-feae-4ee6-8c4f-b019239a08a0"},"vehicle_type_id":"4","last_reported":1756321699,"current_range_meters":10800,"station_id":"ce4bh9p2rcd13ifvqed0","pricing_plan_id":"cebpf4jnsgd1na2vs0mg"},{"bike_id":"0964fac3-75df-4df1-9aee-c9c59e91cbaa","system_id":"levelo_inurba_marseille","lat":43.246061,"lon":5.373623,"is_reserved":false,"is_disabled":false,"rental_uris":{"android":"levelo://app?vid=0964fac3-75df-4df1-9aee-c9c59e91cbaa","ios":"levelo://app?vid=0964fac3-75df-4df1-9aee-c9c59e91cbaa"},"vehicle_type_id":"4","last_reported":1756321699,"current_range_meters":11200,"station_id":"ce4bhhh2rcd13ifvqfk0","pricing_plan_id":"cebpf4jnsgd1na2vs0mg"},{"bike_id":"bda76a15-7e18-4349-b9d4-1ac5e560c505","system_id":"levelo_inurba_marseille","lat":43.292579,"lon":5.384407,"is_reserved":false,"is_disabled":false,"rental_uris":{"android":"levelo://app?vid=bda76a15-7e18-4349-b9d4-1ac5e560c505","ios":"levelo://app?vid=bda76a15-7e18-4349-b9d4-1ac5e560c505"},"vehicle_type_id":"4","last_reported":1756321699,"current_range_meters":11600,"station_id":"ce4bh692rcd13ifvqea0","pricing_plan_id":"cebpf4jnsgd1na2vs0mg"},{"bike_id":"e5eabf25-4e1c-476e-b130-9f83cdcfc80c","system_id":"levelo_inurba_marseille","lat":43.29802,"lon":5.41716,"is_reserved":false,"is_disabled":false,"rental_uris":{"android":"levelo://app?vid=e5eabf25-4e1c-476e-b130-9f83cdcfc80c","ios":"levelo://app?vid=e5eabf25-4e1c-476e-b130-9f83cdcfc80c"},"vehicle_type_id":"4","last_reported":1756321699,"current_range_meters":11600,"station_id":"","pricing_plan_id":"cebpf4jnsgd1na2vs0mg"},{"bike_id":"1e852faa-0778-4e8a-a9c8-6c774f7c3cf4","system_id":"levelo_inurba_marseille","lat":43.26032,"lon":5.37572,"is_reserved":false,"is_disabled":false,"rental_uris":{"android":"levelo://app?vid=1e852faa-0778-4e8a-a9c8-6c774f7c3cf4","ios":"levelo://app?vid=1e852faa-0778-4e8a-a9c8-6c774f7c3cf4"},"vehicle_type_id":"4","last_reported":1756321699,"current_range_meters":11600,"station_id":"ce4bhgh2rcd13ifvqfa0","pricing_plan_id":"cebpf4jnsgd1na2vs0mg"},{"bike_id":"615becba-8303-43f9-bfd3-d793f6951182","system_id":"levelo_inurba_marseille","lat":43.31363,"lon":5.38491,"is_reserved":false,"is_disabled":false,"rental_uris":{"android":"levelo://app?vid=615becba-8303-43f9-bfd3-d793f6951182","ios":"levelo://app?vid=615becba-8303-43f9-bfd3-d793f6951182"},"vehicle_type_id":"4","last_reported":1756321699,"current_range_meters":11200,"station_id":"ce4bgt92rcd13ifvqcf0","pricing_plan_id":"cebpf4jnsgd1na2vs0mg"},{"bike_id":"3eb38be6-4fa2-458c-876d-a39b74b64b9c","system_id":"levelo_inurba_marseille","lat":43.27618,"lon":5.36114,"is_reserved":false,"is_disabled":false,"rental_uris":{"android":"levelo://app?vid=3eb38be6-4fa2-458c-876d-a39b74b64b9c","ios":"levelo://app?vid=3eb38be6-4fa2-458c-876d-a39b74b64b9c"},"vehicle_type_id":"4","last_reported":1756321699,"current_range_meters":11600,"station_id":"ce4bgj92rcd13ifvqbe0","pricing_plan_id":"cebpf4jnsgd1na2vs0mg"},{"bike_id":"59c2c00d-7109-4dfa-bddd-f3239d5b9f3c","system_id":"levelo_inurba_marseille","lat":43.29526,"lon":5.38545,"is_reserved":false,"is_disabled":false,"rental_uris":{"android":"levelo://app?vid=59c2c00d-7109-4dfa-bddd-f3239d5b9f3c","ios":"levelo://app?vid=59c2c00d-7109-4dfa-bddd-f3239d5b9f3c"},"vehicle_type_id":"4","last_reported":1756321699,"current_range_meters":11600,"station_id":"ce4bgih2rcd13ifvqba0","pricing_plan_id":"cebpf4jnsgd1na2vs0mg"},{"bike_id":"350b9cae-2a83-488d-a6e2-27259f78a953","system_id":"levelo_inurba_marseille","lat":43.29579,"lon":5.36746,"is_reserved":false,"is_disabled":false,"rental_uris":{"android":"levelo://app?vid=350b9cae-2a83-488d-a6e2-27259f78a953","ios":"levelo://app?vid=350b9cae-2a83-488d-a6e2-27259f78a953"},"vehicle_type_id":"4","last_reported":1756321699,"current_range_meters":12000,"station_id":"ce4bgph2rcd13ifvqc2g","pricing_plan_id":"cebpf4jnsgd1na2vs0mg"},{"bike_id":"a04425fd-c7b0-4fd9-9ee2-194644176f1d","system_id":"levelo_inurba_marseille","lat":43.3088,"lon":5.37206,"is_reserved":false,"is_disabled":false,"rental_uris":{"android":"levelo://app?vid=a04425fd-c7b0-4fd9-9ee2-194644176f1d","ios":"levelo://app?vid=a04425fd-c7b0-4fd9-9ee2-194644176f1d"},"vehicle_type_id":"4","last_reported":1756321699,"current_range_meters":11600,"station_id":"ce4bguh2rcd13ifvqckg","pricing_plan_id":"cebpf4jnsgd1na2vs0mg"},{"bike_id":"d97e0228-246d-4dc8-a487-4de939b0d8ac","system_id":"levelo_inurba_marseille","lat":43.27167,"lon":5.40995,"is_reserved":false,"is_disabled":false,"rental_uris":{"android":"levelo://app?vid=d97e0228-246d-4dc8-a487-4de939b0d8ac","ios":"levelo://app?vid=d97e0228-246d-4dc8-a487-4de939b0d8ac"},"vehicle_type_id":"4","last_reported":1756321699,"current_range_meters":11600,"station_id":"ce4bhl12rcd13ifvqgf0","pricing_plan_id":"cebpf4jnsgd1na2vs0mg"},{"bike_id":"3448e159-471f-45cf-b0bc-dcb672574311","system_id":"levelo_inurba_marseille","lat":43.261899,"lon":5.374527,"is_reserved":false,"is_disabled":true,"rental_uris":{"android":"levelo://app?vid=3448e159-471f-45cf-b0bc-dcb672574311","ios":"levelo://app?vid=3448e159-471f-45cf-b0bc-dcb672574311"},"vehicle_type_id":"4","last_reported":1756321699,"current_range_meters":12000,"station_id":"ce4bhgp2rcd13ifvqfc0","pricing_plan_id":"cebpf4jnsgd1na2vs0mg"},{"bike_id":"9308f021-ec84-4fe8-8c25-145b6405b7e0","system_id":"levelo_inurba_marseille","lat":43.305465,"lon":5.366866,"is_reserved":false,"is_disabled":true,"rental_uris":{"android":"levelo://app?vid=9308f021-ec84-4fe8-8c25-145b6405b7e0","ios":"levelo://app?vid=9308f021-ec84-4fe8-8c25-145b6405b7e0"},"vehicle_type_id":"4","last_reported":1756321699,"current_range_meters":12000,"station_id":"ce4bgrp2rcd13ifvqc9g","pricing_plan_id":"cebpf4jnsgd1na2vs0mg"},{"bike_id":"882bcd89-5217-4bfc-b798-6bd5c57cc39e","system_id":"levelo_inurba_marseille","lat":43.298426,"lon":5.362846,"is_reserved":false,"is_disabled":false,"rental_uris":{"android":"levelo://app?vid=882bcd89-5217-4bfc-b798-6bd5c57cc39e","ios":"levelo://app?vid=882bcd89-5217-4bfc-b798-6bd5c57cc39e"},"vehicle_type_id":"4","last_reported":1756321699,"current_range_meters":12000,"station_id":"ce4bgpp2rcd13ifvqc3g","pricing_plan_id":"cebpf4jnsgd1na2vs0mg"},{"bike_id":"3c43becd-3be8-4a34-b8a7-cc3827fcc9d7","system_id":"levelo_inurba_marseille","lat":43.28947,"lon":5.36383,"is_reserved":false,"is_disabled":false,"rental_uris":{"android":"levelo://app?vid=3c43becd-3be8-4a34-b8a7-cc3827fcc9d7","ios":"levelo://app?vid=3c43becd-3be8-4a34-b8a7-cc3827fcc9d7"},"vehicle_type_id":"4","last_reported":1756321699,"current_range_meters":12000,"station_id":"ce4bhc92rcd13ifvqetg","pricing_plan_id":"cebpf4jnsgd1na2vs0mg"},{"bike_id":"6497e370-3edd-4a33-95ba-a2657ea2617c","system_id":"levelo_inurba_marseille","lat":43.2938,"lon":5.37854,"is_reserved":false,"is_disabled":false,"rental_uris":{"android":"levelo://app?vid=6497e370-3edd-4a33-95ba-a2657ea2617c","ios":"levelo://app?vid=6497e370-3edd-4a33-95ba-a2657ea2617c"},"vehicle_type_id":"4","last_reported":1756321699,"current_range_meters":11600,"station_id":"ce4bgjh2rcd13ifvqbf0","pricing_plan_id":"cebpf4jnsgd1na2vs0mg"},{"bike_id":"321aacaa-ebe4-4ef8-974a-5c6a8da001e2","system_id":"levelo_inurba_marseille","lat":43.29244,"lon":5.38453,"is_reserved":false,"is_disabled":false,"rental_uris":{"android":"levelo://app?vid=321aacaa-ebe4-4ef8-974a-5c6a8da001e2","ios":"levelo://app?vid=321aacaa-ebe4-4ef8-974a-5c6a8da001e2"},"vehicle_type_id":"4","last_reported":1756321699,"current_range_meters":12400,"station_id":"ce4bh692rcd13ifvqea0","pricing_plan_id":"cebpf4jnsgd1na2vs0mg"},{"bike_id":"b5ae0016-67e1-4c37-91cb-4d986fbc09a4","system_id":"levelo_inurba_marseille","lat":43.24621,"lon":5.43156,"is_reserved":false,"is_disabled":false,"rental_uris":{"android":"levelo://app?vid=b5ae0016-67e1-4c37-91cb-4d986fbc09a4","ios":"levelo://app?vid=b5ae0016-67e1-4c37-91cb-4d986fbc09a4"},"vehicle_type_id":"4","last_reported":1756321699,"current_range_meters":12400,"station_id":"st_d2m6c4gdas8pm72e190g","pricing_plan_id":"cebpf4jnsgd1na2vs0mg"},{"bike_id":"f9bee4e7-3272-4bb4-b05c-cd5fb342938a","system_id":"levelo_inurba_marseille","lat":43.32083,"lon":5.36811,"is_reserved":false,"is_disabled":false,"rental_uris":{"android":"levelo://app?vid=f9bee4e7-3272-4bb4-b05c-cd5fb342938a","ios":"levelo://app?vid=f9bee4e7-3272-4bb4-b05c-cd5fb342938a"},"vehicle_type_id":"4","last_reported":1756321699,"current_range_meters":12400,"station_id":"ce4bhrh2rcd13ifvqhug","pricing_plan_id":"cebpf4jnsgd1na2vs0mg"},{"bike_id":"d0e46995-321b-47fe-a20d-c99459222f42","system_id":"levelo_inurba_marseille","lat":43.29175,"lon":5.3715,"is_reserved":false,"is_disabled":false,"rental_uris":{"android":"levelo://app?vid=d0e46995-321b-47fe-a20d-c99459222f42","ios":"levelo://app?vid=d0e46995-321b-47fe-a20d-c99459222f42"},"vehicle_type_id":"4","last_reported":1756321699,"current_range_meters":12400,"station_id":"ce4bha92rcd13ifvqeh0","pricing_plan_id":"cebpf4jnsgd1na2vs0mg"},{"bike_id":"6bfbf7b1-a4a1-4287-abfb-a1fa867bee3a","system_id":"levelo_inurba_marseille","lat":43.23059,"lon":5.35492,"is_reserved":false,"is_disabled":false,"rental_uris":{"android":"levelo://app?vid=6bfbf7b1-a4a1-4287-abfb-a1fa867bee3a","ios":"levelo://app?vid=6bfbf7b1-a4a1-4287-abfb-a1fa867bee3a"},"vehicle_type_id":"4","last_reported":1756321699,"current_range_meters":12400,"station_id":"cpo3342slgdg3j2ifvpg","pricing_plan_id":"cebpf4jnsgd1na2vs0mg"},{"bike_id":"31d7c89e-546f-432e-b07b-01b6a761d09b","system_id":"levelo_inurba_marseille","lat":43.2463,"lon":5.43147,"is_reserved":false,"is_disabled":false,"rental_uris":{"android":"levelo://app?vid=31d7c89e-546f-432e-b07b-01b6a761d09b","ios":"levelo://app?vid=31d7c89e-546f-432e-b07b-01b6a761d09b"},"vehicle_type_id":"4","last_reported":1756321699,"current_range_meters":12400,"station_id":"st_d2m6c4gdas8pm72e190g","pricing_plan_id":"cebpf4jnsgd1na2vs0mg"},{"bike_id":"1c3b0613-50aa-4498-9c4d-5c451dc5230f","system_id":"levelo_inurba_marseille","lat":43.26026,"lon":5.37551,"is_reserved":false,"is_disabled":false,"rental_uris":{"android":"levelo://app?vid=1c3b0613-50aa-4498-9c4d-5c451dc5230f","ios":"levelo://app?vid=1c3b0613-50aa-4498-9c4d-5c451dc5230f"},"vehicle_type_id":"4","last_reported":1756321699,"current_range_meters":12400,"station_id":"ce4bhgh2rcd13ifvqfa0","pricing_plan_id":"cebpf4jnsgd1na2vs0mg"},{"bike_id":"851053e8-d3be-4f09-af43-d2598eb82f5e","system_id":"levelo_inurba_marseille","lat":43.26557,"lon":5.37289,"is_reserved":false,"is_disabled":false,"rental_uris":{"android":"levelo://app?vid=851053e8-d3be-4f09-af43-d2598eb82f5e","ios":"levelo://app?vid=851053e8-d3be-4f09-af43-d2598eb82f5e"},"vehicle_type_id":"4","last_reported":1756321699,"current_range_meters":12400,"station_id":"ce4bhg12rcd13ifvqf70","pricing_plan_id":"cebpf4jnsgd1na2vs0mg"},{"bike_id":"68a3d595-6168-469d-a2bf-71280baa9a46","system_id":"levelo_inurba_marseille","lat":43.28219,"lon":5.39059,"is_reserved":false,"is_disabled":false,"rental_uris":{"android":"levelo://app?vid=68a3d595-6168-469d-a2bf-71280baa9a46","ios":"levelo://app?vid=68a3d595-6168-469d-a2bf-71280baa9a46"},"vehicle_type_id":"4","last_reported":1756321699,"current_range_meters":12800,"station_id":"ce4bhn92rcd13ifvqgsg","pricing_plan_id":"cebpf4jnsgd1na2vs0mg"},{"bike_id":"0f969274-ed3a-4d5e-b4e6-7a3984afd615","system_id":"levelo_inurba_marseille","lat":43.26025,"lon":5.37558,"is_reserved":false,"is_disabled":false,"rental_uris":{"android":"levelo://app?vid=0f969274-ed3a-4d5e-b4e6-7a3984afd615","ios":"levelo://app?vid=0f969274-ed3a-4d5e-b4e6-7a3984afd615"},"vehicle_type_id":"4","last_reported":1756321699,"current_range_meters":12800,"station_id":"ce4bhgh2rcd13ifvqfa0","pricing_plan_id":"cebpf4jnsgd1na2vs0mg"},{"bike_id":"3ce18fbc-ec38-4f9e-9dd9-9a3dee5c503d","system_id":"levelo_inurba_marseille","lat":43.26042,"lon":5.37551,"is_reserved":false,"is_disabled":true,"rental_uris":{"android":"levelo://app?vid=3ce18fbc-ec38-4f9e-9dd9-9a3dee5c503d","ios":"levelo://app?vid=3ce18fbc-ec38-4f9e-9dd9-9a3dee5c503d"},"vehicle_type_id":"4","last_reported":1756321699,"current_range_meters":12800,"station_id":"ce4bhgh2rcd13ifvqfa0","pricing_plan_id":"cebpf4jnsgd1na2vs0mg"},{"bike_id":"da56be69-d1d8-4e58-9211-9f80a01d3f01","system_id":"levelo_inurba_marseille","lat":43.26548,"lon":5.37293,"is_reserved":false,"is_disabled":false,"rental_uris":{"android":"levelo://app?vid=da56be69-d1d8-4e58-9211-9f80a01d3f01","ios":"levelo://app?vid=da56be69-d1d8-4e58-9211-9f80a01d3f01"},"vehicle_type_id":"4","last_reported":1756321699,"current_range_meters":12800,"station_id":"","pricing_plan_id":"cebpf4jnsgd1na2vs0mg"},{"bike_id":"00435e02-097d-4af3-9658-42eee575a82d","system_id":"levelo_inurba_marseille","lat":43.249508,"lon":5.404854,"is_reserved":false,"is_disabled":false,"rental_uris":{"android":"levelo://app?vid=00435e02-097d-4af3-9658-42eee575a82d","ios":"levelo://app?vid=00435e02-097d-4af3-9658-42eee575a82d"},"vehicle_type_id":"4","last_reported":1756321699,"current_range_meters":12800,"station_id":"st_d2ngiaodas8pm72gd1h0","pricing_plan_id":"cebpf4jnsgd1na2vs0mg"},{"bike_id":"7f515382-4b2e-45a5-95ea-e7101115e025","system_id":"levelo_inurba_marseille","lat":43.26781,"lon":5.39411,"is_reserved":false,"is_disabled":false,"rental_uris":{"android":"levelo://app?vid=7f515382-4b2e-45a5-95ea-e7101115e025","ios":"levelo://app?vid=7f515382-4b2e-45a5-95ea-e7101115e025"},"vehicle_type_id":"4","last_reported":1756321699,"current_range_meters":12800,"station_id":"ce4bhh12rcd13ifvqfg0","pricing_plan_id":"cebpf4jnsgd1na2vs0mg"},{"bike_id":"07f3c348-251f-475b-bdcc-b91dd94163be","system_id":"levelo_inurba_marseille","lat":43.21745,"lon":5.34611,"is_reserved":false,"is_disabled":true,"rental_uris":{"android":"levelo://app?vid=07f3c348-251f-475b-bdcc-b91dd94163be","ios":"levelo://app?vid=07f3c348-251f-475b-bdcc-b91dd94163be"},"vehicle_type_id":"4","last_reported":1756321699,"current_range_meters":12800,"station_id":"st_cvj6r9ubvosntc0bgbag","pricing_plan_id":"cebpf4jnsgd1na2vs0mg"},{"bike_id":"685105d1-bcda-4899-9d64-d94adf158a64","system_id":"levelo_inurba_marseille","lat":43.314676,"lon":5.373608,"is_reserved":false,"is_disabled":true,"rental_uris":{"android":"levelo://app?vid=685105d1-bcda-4899-9d64-d94adf158a64","ios":"levelo://app?vid=685105d1-bcda-4899-9d64-d94adf158a64"},"vehicle_type_id":"4","last_reported":1756321699,"current_range_meters":13600,"station_id":"","pricing_plan_id":"cebpf4jnsgd1na2vs0mg"},{"bike_id":"2d35c570-724e-42d6-9b57-babd6cb61039","system_id":"levelo_inurba_marseille","lat":43.26025,"lon":5.37551,"is_reserved":false,"is_disabled":false,"rental_uris":{"android":"levelo://app?vid=2d35c570-724e-42d6-9b57-babd6cb61039","ios":"levelo://app?vid=2d35c570-724e-42d6-9b57-babd6cb61039"},"vehicle_type_id":"4","last_reported":1756321699,"current_range_meters":13600,"station_id":"ce4bhgh2rcd13ifvqfa0","pricing_plan_id":"cebpf4jnsgd1na2vs0mg"},{"bike_id":"f92c61bc-3306-45e6-a3fa-f80c5ad538ef","system_id":"levelo_inurba_marseille","lat":43.29293,"lon":5.37463,"is_reserved":false,"is_disabled":false,"rental_uris":{"android":"levelo://app?vid=f92c61bc-3306-45e6-a3fa-f80c5ad538ef","ios":"levelo://app?vid=f92c61bc-3306-45e6-a3fa-f80c5ad538ef"},"vehicle_type_id":"4","last_reported":1756321699,"current_range_meters":13600,"station_id":"ce4bgi12rcd13ifvqb70","pricing_plan_id":"cebpf4jnsgd1na2vs0mg"},{"bike_id":"4db00c46-fd2c-4f92-af00-732ea18acab4","system_id":"levelo_inurba_marseille","lat":43.28102,"lon":5.3784,"is_reserved":false,"is_disabled":false,"rental_uris":{"android":"levelo://app?vid=4db00c46-fd2c-4f92-af00-732ea18acab4","ios":"levelo://app?vid=4db00c46-fd2c-4f92-af00-732ea18acab4"},"vehicle_type_id":"4","last_reported":1756321699,"current_range_meters":13600,"station_id":"ce4bha12rcd13ifvqee0","pricing_plan_id":"cebpf4jnsgd1na2vs0mg"},{"bike_id":"d1e0c5c0-2021-47c7-80fe-e78f82330db3","system_id":"levelo_inurba_marseille","lat":43.211908,"lon":5.350738,"is_reserved":false,"is_disabled":false,"rental_uris":{"android":"levelo://app?vid=d1e0c5c0-2021-47c7-80fe-e78f82330db3","ios":"levelo://app?vid=d1e0c5c0-2021-47c7-80fe-e78f82330db3"},"vehicle_type_id":"4","last_reported":1756321699,"current_range_meters":13600,"station_id":"st_cvj6sg6p6f1abm77japg","pricing_plan_id":"cebpf4jnsgd1na2vs0mg"},{"bike_id":"a3e7151e-a501-48fe-8ab7-a81ae271a7f5","system_id":"levelo_inurba_marseille","lat":43.255768,"lon":5.382404,"is_reserved":false,"is_disabled":false,"rental_uris":{"android":"levelo://app?vid=a3e7151e-a501-48fe-8ab7-a81ae271a7f5","ios":"levelo://app?vid=a3e7151e-a501-48fe-8ab7-a81ae271a7f5"},"vehicle_type_id":"4","last_reported":1756321699,"current_range_meters":13600,"station_id":"ce4bhih2rcd13ifvqfs0","pricing_plan_id":"cebpf4jnsgd1na2vs0mg"},{"bike_id":"c55046a0-228b-4997-8a76-cbff2cefba92","system_id":"levelo_inurba_marseille","lat":43.31486,"lon":5.37289,"is_reserved":false,"is_disabled":false,"rental_uris":{"android":"levelo://app?vid=c55046a0-228b-4997-8a76-cbff2cefba92","ios":"levelo://app?vid=c55046a0-228b-4997-8a76-cbff2cefba92"},"vehicle_type_id":"4","last_reported":1756321699,"current_range_meters":13600,"station_id":"ce4bgt12rcd13ifvqcd0","pricing_plan_id":"cebpf4jnsgd1na2vs0mg"},{"bike_id":"3dff11d5-3872-4ffe-8cce-b5631d6c6058","system_id":"levelo_inurba_marseille","lat":43.32096,"lon":5.38586,"is_reserved":false,"is_disabled":false,"rental_uris":{"android":"levelo://app?vid=3dff11d5-3872-4ffe-8cce-b5631d6c6058","ios":"levelo://app?vid=3dff11d5-3872-4ffe-8cce-b5631d6c6058"},"vehicle_type_id":"4","last_reported":1756321699,"current_range_meters":13600,"station_id":"","pricing_plan_id":"cebpf4jnsgd1na2vs0mg"},{"bike_id":"6d884f55-13ec-41ca-a104-b5cde65a5b14","system_id":"levelo_inurba_marseille","lat":43.29267,"lon":5.38429,"is_reserved":false,"is_disabled":false,"rental_uris":{"android":"levelo://app?vid=6d884f55-13ec-41ca-a104-b5cde65a5b14","ios":"levelo://app?vid=6d884f55-13ec-41ca-a104-b5cde65a5b14"},"vehicle_type_id":"4","last_reported":1756321699,"current_range_meters":13600,"station_id":"ce4bh692rcd13ifvqea0","pricing_plan_id":"cebpf4jnsgd1na2vs0mg"},{"bike_id":"f20384e7-93f1-472a-b03e-f2f5b81ae300","system_id":"levelo_inurba_marseille","lat":43.244345,"lon":5.379894,"is_reserved":false,"is_disabled":false,"rental_uris":{"android":"levelo://app?vid=f20384e7-93f1-472a-b03e-f2f5b81ae300","ios":"levelo://app?vid=f20384e7-93f1-472a-b03e-f2f5b81ae300"},"vehicle_type_id":"4","last_reported":1756321699,"current_range_meters":13600,"station_id":"ce4bhgh2rcd13ifvqfb0","pricing_plan_id":"cebpf4jnsgd1na2vs0mg"},{"bike_id":"2ee3838b-f787-4023-b736-b8b1a4298a7d","system_id":"levelo_inurba_marseille","lat":43.25492,"lon":5.3765,"is_reserved":false,"is_disabled":false,"rental_uris":{"android":"levelo://app?vid=2ee3838b-f787-4023-b736-b8b1a4298a7d","ios":"levelo://app?vid=2ee3838b-f787-4023-b736-b8b1a4298a7d"},"vehicle_type_id":"4","last_reported":1756321699,"current_range_meters":13600,"station_id":"ce4bhh12rcd13ifvqff0","pricing_plan_id":"cebpf4jnsgd1na2vs0mg"},{"bike_id":"17a3f824-fca8-4c52-b9b9-7670e855e9ec","system_id":"levelo_inurba_marseille","lat":43.22489,"lon":5.34797,"is_reserved":false,"is_disabled":false,"rental_uris":{"android":"levelo://app?vid=17a3f824-fca8-4c52-b9b9-7670e855e9ec","ios":"levelo://app?vid=17a3f824-fca8-4c52-b9b9-7670e855e9ec"},"vehicle_type_id":"4","last_reported":1756321699,"current_range_meters":13600,"station_id":"st_cvj5dfep6f1abm77gieg","pricing_plan_id":"cebpf4jnsgd1na2vs0mg"},{"bike_id":"ddd79231-0de2-478b-8c02-0105364226b9","system_id":"levelo_inurba_marseille","lat":43.29846,"lon":5.36278,"is_reserved":false,"is_disabled":false,"rental_uris":{"android":"levelo://app?vid=ddd79231-0de2-478b-8c02-0105364226b9","ios":"levelo://app?vid=ddd79231-0de2-478b-8c02-0105364226b9"},"vehicle_type_id":"4","last_reported":1756321699,"current_range_meters":13600,"station_id":"ce4bgpp2rcd13ifvqc3g","pricing_plan_id":"cebpf4jnsgd1na2vs0mg"},{"bike_id":"b544be72-e517-4e78-baea-097b0c331889","system_id":"levelo_inurba_marseille","lat":43.24809,"lon":5.37462,"is_reserved":false,"is_disabled":false,"rental_uris":{"android":"levelo://app?vid=b544be72-e517-4e78-baea-097b0c331889","ios":"levelo://app?vid=b544be72-e517-4e78-baea-097b0c331889"},"vehicle_type_id":"4","last_reported":1756321699,"current_range_meters":14000,"station_id":"ce4bhgh2rcd13ifvqfb0","pricing_plan_id":"cebpf4jnsgd1na2vs0mg"},{"bike_id":"064887b2-9e63-44f9-8778-ad23a8de1c69","system_id":"levelo_inurba_marseille","lat":43.26024,"lon":5.37567,"is_reserved":false,"is_disabled":false,"rental_uris":{"android":"levelo://app?vid=064887b2-9e63-44f9-8778-ad23a8de1c69","ios":"levelo://app?vid=064887b2-9e63-44f9-8778-ad23a8de1c69"},"vehicle_type_id":"4","last_reported":1756321699,"current_range_meters":14000,"station_id":"ce4bhgh2rcd13ifvqfa0","pricing_plan_id":"cebpf4jnsgd1na2vs0mg"},{"bike_id":"421ad947-ea30-4d8f-8d31-b6c6b000f1e2","system_id":"levelo_inurba_marseille","lat":43.29597,"lon":5.38117,"is_reserved":false,"is_disabled":false,"rental_uris":{"android":"levelo://app?vid=421ad947-ea30-4d8f-8d31-b6c6b000f1e2","ios":"levelo://app?vid=421ad947-ea30-4d8f-8d31-b6c6b000f1e2"},"vehicle_type_id":"4","last_reported":1756321699,"current_range_meters":14000,"station_id":"ce4bgl12rcd13ifvqbo0","pricing_plan_id":"cebpf4jnsgd1na2vs0mg"},{"bike_id":"901693be-e0fd-48c6-abfc-fe8f5561b51a","system_id":"levelo_inurba_marseille","lat":43.26014,"lon":5.37549,"is_reserved":false,"is_disabled":false,"rental_uris":{"android":"levelo://app?vid=901693be-e0fd-48c6-abfc-fe8f5561b51a","ios":"levelo://app?vid=901693be-e0fd-48c6-abfc-fe8f5561b51a"},"vehicle_type_id":"4","last_reported":1756321699,"current_range_meters":14000,"station_id":"ce4bhgh2rcd13ifvqfa0","pricing_plan_id":"cebpf4jnsgd1na2vs0mg"},{"bike_id":"84df9495-68c4-4c06-b42b-bbb451ec18b2","system_id":"levelo_inurba_marseille","lat":43.31221,"lon":5.36862,"is_reserved":false,"is_disabled":false,"rental_uris":{"android":"levelo://app?vid=84df9495-68c4-4c06-b42b-bbb451ec18b2","ios":"levelo://app?vid=84df9495-68c4-4c06-b42b-bbb451ec18b2"},"vehicle_type_id":"4","last_reported":1756321699,"current_range_meters":14000,"station_id":"ce4bgl92rcd13ifvqbq0","pricing_plan_id":"cebpf4jnsgd1na2vs0mg"},{"bike_id":"87a609e1-d59c-4124-be64-0e6ad13873d2","system_id":"levelo_inurba_marseille","lat":43.28855,"lon":5.39315,"is_reserved":false,"is_disabled":false,"rental_uris":{"android":"levelo://app?vid=87a609e1-d59c-4124-be64-0e6ad13873d2","ios":"levelo://app?vid=87a609e1-d59c-4124-be64-0e6ad13873d2"},"vehicle_type_id":"4","last_reported":1756321699,"current_range_meters":14400,"station_id":"ce4bh2p2rcd13ifvqdi0","pricing_plan_id":"cebpf4jnsgd1na2vs0mg"},{"bike_id":"5c26a54e-1e97-4ad3-a16d-614ad930b130","system_id":"levelo_inurba_marseille","lat":43.321026,"lon":5.367688,"is_reserved":false,"is_disabled":false,"rental_uris":{"android":"levelo://app?vid=5c26a54e-1e97-4ad3-a16d-614ad930b130","ios":"levelo://app?vid=5c26a54e-1e97-4ad3-a16d-614ad930b130"},"vehicle_type_id":"4","last_reported":1756321699,"current_range_meters":14400,"station_id":"ce4bhrh2rcd13ifvqhug","pricing_plan_id":"cebpf4jnsgd1na2vs0mg"},{"bike_id":"db526668-1205-422f-99f2-dc09210cda94","system_id":"levelo_inurba_marseille","lat":43.29277,"lon":5.36866,"is_reserved":false,"is_disabled":false,"rental_uris":{"android":"levelo://app?vid=db526668-1205-422f-99f2-dc09210cda94","ios":"levelo://app?vid=db526668-1205-422f-99f2-dc09210cda94"},"vehicle_type_id":"4","last_reported":1756321699,"current_range_meters":14400,"station_id":"ce4bhbp2rcd13ifvqesg","pricing_plan_id":"cebpf4jnsgd1na2vs0mg"},{"bike_id":"a21c8ecc-ab26-4186-a33d-0ee72599780b","system_id":"levelo_inurba_marseille","lat":43.25083,"lon":5.3952,"is_reserved":false,"is_disabled":true,"rental_uris":{"android":"levelo://app?vid=a21c8ecc-ab26-4186-a33d-0ee72599780b","ios":"levelo://app?vid=a21c8ecc-ab26-4186-a33d-0ee72599780b"},"vehicle_type_id":"4","last_reported":1756321699,"current_range_meters":14400,"station_id":"ce4bhm12rcd13ifvqgkg","pricing_plan_id":"cebpf4jnsgd1na2vs0mg"},{"bike_id":"f67c8e5e-7af8-4847-a4ce-1e12088b4291","system_id":"levelo_inurba_marseille","lat":43.33026,"lon":5.39247,"is_reserved":false,"is_disabled":false,"rental_uris":{"android":"levelo://app?vid=f67c8e5e-7af8-4847-a4ce-1e12088b4291","ios":"levelo://app?vid=f67c8e5e-7af8-4847-a4ce-1e12088b4291"},"vehicle_type_id":"4","last_reported":1756321699,"current_range_meters":14400,"station_id":"","pricing_plan_id":"cebpf4jnsgd1na2vs0mg"},{"bike_id":"98c96329-3edb-4eec-a3f6-606d0522135f","system_id":"levelo_inurba_marseille","lat":43.21184,"lon":5.35068,"is_reserved":false,"is_disabled":false,"rental_uris":{"android":"levelo://app?vid=98c96329-3edb-4eec-a3f6-606d0522135f","ios":"levelo://app?vid=98c96329-3edb-4eec-a3f6-606d0522135f"},"vehicle_type_id":"4","last_reported":1756321699,"current_range_meters":14400,"station_id":"st_cvj6sg6p6f1abm77japg","pricing_plan_id":"cebpf4jnsgd1na2vs0mg"},{"bike_id":"3d399bfe-7fbc-42b7-a070-a73b13325d3f","system_id":"levelo_inurba_marseille","lat":43.23057,"lon":5.35492,"is_reserved":false,"is_disabled":false,"rental_uris":{"android":"levelo://app?vid=3d399bfe-7fbc-42b7-a070-a73b13325d3f","ios":"levelo://app?vid=3d399bfe-7fbc-42b7-a070-a73b13325d3f"},"vehicle_type_id":"4","last_reported":1756321699,"current_range_meters":14400,"station_id":"cpo3342slgdg3j2ifvpg","pricing_plan_id":"cebpf4jnsgd1na2vs0mg"},{"bike_id":"814645c9-7af5-4408-879c-1836489b0342","system_id":"levelo_inurba_marseille","lat":43.26575,"lon":5.37288,"is_reserved":false,"is_disabled":false,"rental_uris":{"android":"levelo://app?vid=814645c9-7af5-4408-879c-1836489b0342","ios":"levelo://app?vid=814645c9-7af5-4408-879c-1836489b0342"},"vehicle_type_id":"4","last_reported":1756321699,"current_range_meters":14400,"station_id":"ce4bhg12rcd13ifvqf70","pricing_plan_id":"cebpf4jnsgd1na2vs0mg"},{"bike_id":"951daac7-67e3-488d-bafd-22b0f6e03d3d","system_id":"levelo_inurba_marseille","lat":43.29619,"lon":5.37163,"is_reserved":false,"is_disabled":false,"rental_uris":{"android":"levelo://app?vid=951daac7-67e3-488d-bafd-22b0f6e03d3d","ios":"levelo://app?vid=951daac7-67e3-488d-bafd-22b0f6e03d3d"},"vehicle_type_id":"4","last_reported":1756321699,"current_range_meters":14400,"station_id":"ce4bgnh2rcd13ifvqc0g","pricing_plan_id":"cebpf4jnsgd1na2vs0mg"},{"bike_id":"2c594c40-f8a7-46ee-9fbc-75aef4f2ab1a","system_id":"levelo_inurba_marseille","lat":43.21177,"lon":5.35081,"is_reserved":false,"is_disabled":false,"rental_uris":{"android":"levelo://app?vid=2c594c40-f8a7-46ee-9fbc-75aef4f2ab1a","ios":"levelo://app?vid=2c594c40-f8a7-46ee-9fbc-75aef4f2ab1a"},"vehicle_type_id":"4","last_reported":1756321699,"current_range_meters":14400,"station_id":"st_cvj6sg6p6f1abm77japg","pricing_plan_id":"cebpf4jnsgd1na2vs0mg"},{"bike_id":"11a38367-deb6-4141-b3c1-0cba6ea43c8d","system_id":"levelo_inurba_marseille","lat":43.2901,"lon":5.35575,"is_reserved":false,"is_disabled":true,"rental_uris":{"android":"levelo://app?vid=11a38367-deb6-4141-b3c1-0cba6ea43c8d","ios":"levelo://app?vid=11a38367-deb6-4141-b3c1-0cba6ea43c8d"},"vehicle_type_id":"4","last_reported":1756321699,"current_range_meters":14800,"station_id":"ce4bhb92rcd13ifvqen0","pricing_plan_id":"cebpf4jnsgd1na2vs0mg"},{"bike_id":"9db80a24-6dae-423b-b479-187168133b96","system_id":"levelo_inurba_marseille","lat":43.28683,"lon":5.38668,"is_reserved":false,"is_disabled":false,"rental_uris":{"android":"levelo://app?vid=9db80a24-6dae-423b-b479-187168133b96","ios":"levelo://app?vid=9db80a24-6dae-423b-b479-187168133b96"},"vehicle_type_id":"4","last_reported":1756321699,"current_range_meters":14800,"station_id":"ce4bh492rcd13ifvqdug","pricing_plan_id":"cebpf4jnsgd1na2vs0mg"},{"bike_id":"c22ca9a8-e621-4aa0-99e1-0f6f617fe6db","system_id":"levelo_inurba_marseille","lat":43.306546,"lon":5.400928,"is_reserved":false,"is_disabled":false,"rental_uris":{"android":"levelo://app?vid=c22ca9a8-e621-4aa0-99e1-0f6f617fe6db","ios":"levelo://app?vid=c22ca9a8-e621-4aa0-99e1-0f6f617fe6db"},"vehicle_type_id":"4","last_reported":1756321699,"current_range_meters":14800,"station_id":"ce4bh112rcd13ifvqda0","pricing_plan_id":"cebpf4jnsgd1na2vs0mg"},{"bike_id":"a449fb2f-f1b0-4299-81dc-23d84745d332","system_id":"levelo_inurba_marseille","lat":43.262,"lon":5.37928,"is_reserved":false,"is_disabled":false,"rental_uris":{"android":"levelo://app?vid=a449fb2f-f1b0-4299-81dc-23d84745d332","ios":"levelo://app?vid=a449fb2f-f1b0-4299-81dc-23d84745d332"},"vehicle_type_id":"4","last_reported":1756321699,"current_range_meters":14800,"station_id":"ce4bhjp2rcd13ifvqg90","pricing_plan_id":"cebpf4jnsgd1na2vs0mg"},{"bike_id":"074c6cac-b1f7-437d-b592-1ddf7e034824","system_id":"levelo_inurba_marseille","lat":43.29963,"lon":5.38505,"is_reserved":false,"is_disabled":false,"rental_uris":{"android":"levelo://app?vid=074c6cac-b1f7-437d-b592-1ddf7e034824","ios":"levelo://app?vid=074c6cac-b1f7-437d-b592-1ddf7e034824"},"vehicle_type_id":"4","last_reported":1756321699,"current_range_meters":14800,"station_id":"ce4bgj92rcd13ifvqbd0","pricing_plan_id":"cebpf4jnsgd1na2vs0mg"},{"bike_id":"2069bb10-8fc4-46cb-b293-68ee5a76feb7","system_id":"levelo_inurba_marseille","lat":43.26187,"lon":5.37461,"is_reserved":false,"is_disabled":false,"rental_uris":{"android":"levelo://app?vid=2069bb10-8fc4-46cb-b293-68ee5a76feb7","ios":"levelo://app?vid=2069bb10-8fc4-46cb-b293-68ee5a76feb7"},"vehicle_type_id":"4","last_reported":1756321699,"current_range_meters":14800,"station_id":"ce4bhgp2rcd13ifvqfc0","pricing_plan_id":"cebpf4jnsgd1na2vs0mg"},{"bike_id":"c561b3be-23f4-46ed-8d38-1fc2450f503d","system_id":"levelo_inurba_marseille","lat":43.23647,"lon":5.36215,"is_reserved":false,"is_disabled":false,"rental_uris":{"android":"levelo://app?vid=c561b3be-23f4-46ed-8d38-1fc2450f503d","ios":"levelo://app?vid=c561b3be-23f4-46ed-8d38-1fc2450f503d"},"vehicle_type_id":"4","last_reported":1756321699,"current_range_meters":14800,"station_id":"","pricing_plan_id":"cebpf4jnsgd1na2vs0mg"},{"bike_id":"d4a1c419-c333-431b-a3bc-3aa17f334726","system_id":"levelo_inurba_marseille","lat":43.26211,"lon":5.37442,"is_reserved":false,"is_disabled":false,"rental_uris":{"android":"levelo://app?vid=d4a1c419-c333-431b-a3bc-3aa17f334726","ios":"levelo://app?vid=d4a1c419-c333-431b-a3bc-3aa17f334726"},"vehicle_type_id":"4","last_reported":1756321699,"current_range_meters":14800,"station_id":"ce4bhgp2rcd13ifvqfc0","pricing_plan_id":"cebpf4jnsgd1na2vs0mg"},{"bike_id":"feba326a-c492-49ce-ae6b-f63e32f39fe0","system_id":"levelo_inurba_marseille","lat":43.24385,"lon":5.37069,"is_reserved":false,"is_disabled":false,"rental_uris":{"android":"levelo://app?vid=feba326a-c492-49ce-ae6b-f63e32f39fe0","ios":"levelo://app?vid=feba326a-c492-49ce-ae6b-f63e32f39fe0"},"vehicle_type_id":"4","last_reported":1756321699,"current_range_meters":14800,"station_id":"ce4bhhh2rcd13ifvqfk0","pricing_plan_id":"cebpf4jnsgd1na2vs0mg"},{"bike_id":"2e5e8746-a598-46c0-9f94-659aa049d863","system_id":"levelo_inurba_marseille","lat":43.29295,"lon":5.37167,"is_reserved":false,"is_disabled":false,"rental_uris":{"android":"levelo://app?vid=2e5e8746-a598-46c0-9f94-659aa049d863","ios":"levelo://app?vid=2e5e8746-a598-46c0-9f94-659aa049d863"},"vehicle_type_id":"4","last_reported":1756321699,"current_range_meters":15200,"station_id":"ce4bgh92rcd13ifvqb40","pricing_plan_id":"cebpf4jnsgd1na2vs0mg"},{"bike_id":"98fc5516-a5dd-420b-b325-c10d171a0d25","system_id":"levelo_inurba_marseille","lat":43.28362,"lon":5.38627,"is_reserved":false,"is_disabled":false,"rental_uris":{"android":"levelo://app?vid=98fc5516-a5dd-420b-b325-c10d171a0d25","ios":"levelo://app?vid=98fc5516-a5dd-420b-b325-c10d171a0d25"},"vehicle_type_id":"4","last_reported":1756321699,"current_range_meters":15200,"station_id":"ce4bh492rcd13ifvqdvg","pricing_plan_id":"cebpf4jnsgd1na2vs0mg"},{"bike_id":"d810acf0-5bd2-4bf1-848d-31cd30d105e6","system_id":"levelo_inurba_marseille","lat":43.269831,"lon":5.392782,"is_reserved":false,"is_disabled":false,"rental_uris":{"android":"levelo://app?vid=d810acf0-5bd2-4bf1-848d-31cd30d105e6","ios":"levelo://app?vid=d810acf0-5bd2-4bf1-848d-31cd30d105e6"},"vehicle_type_id":"4","last_reported":1756321699,"current_range_meters":15200,"station_id":"","pricing_plan_id":"cebpf4jnsgd1na2vs0mg"},{"bike_id":"8664629f-109a-4eeb-8d74-965d4a60ba74","system_id":"levelo_inurba_marseille","lat":43.24802,"lon":5.37464,"is_reserved":false,"is_disabled":false,"rental_uris":{"android":"levelo://app?vid=8664629f-109a-4eeb-8d74-965d4a60ba74","ios":"levelo://app?vid=8664629f-109a-4eeb-8d74-965d4a60ba74"},"vehicle_type_id":"4","last_reported":1756321699,"current_range_meters":15200,"station_id":"ce4bhgh2rcd13ifvqfb0","pricing_plan_id":"cebpf4jnsgd1na2vs0mg"},{"bike_id":"19eabc24-80d3-4327-b947-9ec7f85cd494","system_id":"levelo_inurba_marseille","lat":43.27317,"lon":5.39112,"is_reserved":false,"is_disabled":true,"rental_uris":{"android":"levelo://app?vid=19eabc24-80d3-4327-b947-9ec7f85cd494","ios":"levelo://app?vid=19eabc24-80d3-4327-b947-9ec7f85cd494"},"vehicle_type_id":"4","last_reported":1756321699,"current_range_meters":15200,"station_id":"ce4bhgp2rcd13ifvqfe0","pricing_plan_id":"cebpf4jnsgd1na2vs0mg"},{"bike_id":"b5b514eb-5c6c-41c2-941d-56b714a98961","system_id":"levelo_inurba_marseille","lat":43.29382,"lon":5.37847,"is_reserved":false,"is_disabled":false,"rental_uris":{"android":"levelo://app?vid=b5b514eb-5c6c-41c2-941d-56b714a98961","ios":"levelo://app?vid=b5b514eb-5c6c-41c2-941d-56b714a98961"},"vehicle_type_id":"4","last_reported":1756321699,"current_range_meters":15200,"station_id":"ce4bgjh2rcd13ifvqbf0","pricing_plan_id":"cebpf4jnsgd1na2vs0mg"},{"bike_id":"4390fec5-e5b7-4b30-b7e4-8bd8c36aab99","system_id":"levelo_inurba_marseille","lat":43.25997,"lon":5.37583,"is_reserved":false,"is_disabled":false,"rental_uris":{"android":"levelo://app?vid=4390fec5-e5b7-4b30-b7e4-8bd8c36aab99","ios":"levelo://app?vid=4390fec5-e5b7-4b30-b7e4-8bd8c36aab99"},"vehicle_type_id":"4","last_reported":1756321699,"current_range_meters":15200,"station_id":"ce4bhgh2rcd13ifvqfa0","pricing_plan_id":"cebpf4jnsgd1na2vs0mg"},{"bike_id":"b5775e1c-d63d-4178-a673-6a5a3db1f0ee","system_id":"levelo_inurba_marseille","lat":43.29879,"lon":5.3972,"is_reserved":false,"is_disabled":false,"rental_uris":{"android":"levelo://app?vid=b5775e1c-d63d-4178-a673-6a5a3db1f0ee","ios":"levelo://app?vid=b5775e1c-d63d-4178-a673-6a5a3db1f0ee"},"vehicle_type_id":"4","last_reported":1756321699,"current_range_meters":14800,"station_id":"ce4bh0h2rcd13ifvqd50","pricing_plan_id":"cebpf4jnsgd1na2vs0mg"},{"bike_id":"feded75c-b64f-4d09-af8b-e87db9db28a2","system_id":"levelo_inurba_marseille","lat":43.29835,"lon":5.36274,"is_reserved":false,"is_disabled":false,"rental_uris":{"android":"levelo://app?vid=feded75c-b64f-4d09-af8b-e87db9db28a2","ios":"levelo://app?vid=feded75c-b64f-4d09-af8b-e87db9db28a2"},"vehicle_type_id":"4","last_reported":1756321699,"current_range_meters":15200,"station_id":"ce4bgpp2rcd13ifvqc3g","pricing_plan_id":"cebpf4jnsgd1na2vs0mg"},{"bike_id":"191b8562-39fd-4efd-9cb3-23d3b4c5d9c8","system_id":"levelo_inurba_marseille","lat":43.29275,"lon":5.36846,"is_reserved":false,"is_disabled":false,"rental_uris":{"android":"levelo://app?vid=191b8562-39fd-4efd-9cb3-23d3b4c5d9c8","ios":"levelo://app?vid=191b8562-39fd-4efd-9cb3-23d3b4c5d9c8"},"vehicle_type_id":"4","last_reported":1756321699,"current_range_meters":15200,"station_id":"ce4bhbp2rcd13ifvqesg","pricing_plan_id":"cebpf4jnsgd1na2vs0mg"},{"bike_id":"1ead3eee-c052-4307-9f25-b0a932f0b7f7","system_id":"levelo_inurba_marseille","lat":43.26195,"lon":5.37444,"is_reserved":false,"is_disabled":false,"rental_uris":{"android":"levelo://app?vid=1ead3eee-c052-4307-9f25-b0a932f0b7f7","ios":"levelo://app?vid=1ead3eee-c052-4307-9f25-b0a932f0b7f7"},"vehicle_type_id":"4","last_reported":1756321699,"current_range_meters":16000,"station_id":"ce4bhgp2rcd13ifvqfc0","pricing_plan_id":"cebpf4jnsgd1na2vs0mg"},{"bike_id":"5dd83fad-2449-4d56-be74-c8599abb9a5e","system_id":"levelo_inurba_marseille","lat":43.26204,"lon":5.37467,"is_reserved":false,"is_disabled":false,"rental_uris":{"android":"levelo://app?vid=5dd83fad-2449-4d56-be74-c8599abb9a5e","ios":"levelo://app?vid=5dd83fad-2449-4d56-be74-c8599abb9a5e"},"vehicle_type_id":"4","last_reported":1756321699,"current_range_meters":16000,"station_id":"ce4bhgp2rcd13ifvqfc0","pricing_plan_id":"cebpf4jnsgd1na2vs0mg"},{"bike_id":"e51c15e0-a860-421c-b683-1b09908b0dcc","system_id":"levelo_inurba_marseille","lat":43.29844,"lon":5.362819,"is_reserved":false,"is_disabled":false,"rental_uris":{"android":"levelo://app?vid=e51c15e0-a860-421c-b683-1b09908b0dcc","ios":"levelo://app?vid=e51c15e0-a860-421c-b683-1b09908b0dcc"},"vehicle_type_id":"4","last_reported":1756321699,"current_range_meters":16000,"station_id":"ce4bgpp2rcd13ifvqc3g","pricing_plan_id":"cebpf4jnsgd1na2vs0mg"},{"bike_id":"4264d112-7a38-4c4d-9a98-e948f5d3c9be","system_id":"levelo_inurba_marseille","lat":43.29929,"lon":5.36548,"is_reserved":false,"is_disabled":false,"rental_uris":{"android":"levelo://app?vid=4264d112-7a38-4c4d-9a98-e948f5d3c9be","ios":"levelo://app?vid=4264d112-7a38-4c4d-9a98-e948f5d3c9be"},"vehicle_type_id":"4","last_reported":1756321699,"current_range_meters":16000,"station_id":"ce4bgm92rcd13ifvqbr0","pricing_plan_id":"cebpf4jnsgd1na2vs0mg"},{"bike_id":"c65f2a49-7d9d-4b2a-ad2e-4cdabaae1d8b","system_id":"levelo_inurba_marseille","lat":43.28941,"lon":5.39638,"is_reserved":false,"is_disabled":false,"rental_uris":{"android":"levelo://app?vid=c65f2a49-7d9d-4b2a-ad2e-4cdabaae1d8b","ios":"levelo://app?vid=c65f2a49-7d9d-4b2a-ad2e-4cdabaae1d8b"},"vehicle_type_id":"4","last_reported":1756321699,"current_range_meters":16000,"station_id":"ce4bh3h2rcd13ifvqdn0","pricing_plan_id":"cebpf4jnsgd1na2vs0mg"},{"bike_id":"ffd21136-ae47-45ee-8fc5-e7f85ea84802","system_id":"levelo_inurba_marseille","lat":43.29826,"lon":5.3828,"is_reserved":false,"is_disabled":false,"rental_uris":{"android":"levelo://app?vid=ffd21136-ae47-45ee-8fc5-e7f85ea84802","ios":"levelo://app?vid=ffd21136-ae47-45ee-8fc5-e7f85ea84802"},"vehicle_type_id":"4","last_reported":1756321699,"current_range_meters":16000,"station_id":"","pricing_plan_id":"cebpf4jnsgd1na2vs0mg"},{"bike_id":"94c44f36-d45b-48d8-9eb0-02cde482dcfd","system_id":"levelo_inurba_marseille","lat":43.26025,"lon":5.37543,"is_reserved":false,"is_disabled":false,"rental_uris":{"android":"levelo://app?vid=94c44f36-d45b-48d8-9eb0-02cde482dcfd","ios":"levelo://app?vid=94c44f36-d45b-48d8-9eb0-02cde482dcfd"},"vehicle_type_id":"4","last_reported":1756321699,"current_range_meters":16000,"station_id":"ce4bhgh2rcd13ifvqfa0","pricing_plan_id":"cebpf4jnsgd1na2vs0mg"},{"bike_id":"2f728fcb-a1d6-4cde-8969-f33776a7c0b6","system_id":"levelo_inurba_marseille","lat":43.27799,"lon":5.40743,"is_reserved":false,"is_disabled":false,"rental_uris":{"android":"levelo://app?vid=2f728fcb-a1d6-4cde-8969-f33776a7c0b6","ios":"levelo://app?vid=2f728fcb-a1d6-4cde-8969-f33776a7c0b6"},"vehicle_type_id":"4","last_reported":1756321699,"current_range_meters":16000,"station_id":"ce4bhnh2rcd13ifvqgtg","pricing_plan_id":"cebpf4jnsgd1na2vs0mg"},{"bike_id":"ea341be7-92e8-4597-8f5d-72ecaf4e2b76","system_id":"levelo_inurba_marseille","lat":43.292808,"lon":5.368731,"is_reserved":false,"is_disabled":false,"rental_uris":{"android":"levelo://app?vid=ea341be7-92e8-4597-8f5d-72ecaf4e2b76","ios":"levelo://app?vid=ea341be7-92e8-4597-8f5d-72ecaf4e2b76"},"vehicle_type_id":"4","last_reported":1756321699,"current_range_meters":16400,"station_id":"ce4bhbp2rcd13ifvqesg","pricing_plan_id":"cebpf4jnsgd1na2vs0mg"},{"bike_id":"a029d878-b479-4ed1-b5e6-f040cdc84263","system_id":"levelo_inurba_marseille","lat":43.26557,"lon":5.37292,"is_reserved":false,"is_disabled":false,"rental_uris":{"android":"levelo://app?vid=a029d878-b479-4ed1-b5e6-f040cdc84263","ios":"levelo://app?vid=a029d878-b479-4ed1-b5e6-f040cdc84263"},"vehicle_type_id":"4","last_reported":1756321699,"current_range_meters":16400,"station_id":"ce4bhg12rcd13ifvqf70","pricing_plan_id":"cebpf4jnsgd1na2vs0mg"},{"bike_id":"c67682e4-ad86-4b65-b4ef-e774963b7e60","system_id":"levelo_inurba_marseille","lat":43.2319,"lon":5.35564,"is_reserved":false,"is_disabled":false,"rental_uris":{"android":"levelo://app?vid=c67682e4-ad86-4b65-b4ef-e774963b7e60","ios":"levelo://app?vid=c67682e4-ad86-4b65-b4ef-e774963b7e60"},"vehicle_type_id":"4","last_reported":1756321699,"current_range_meters":16400,"station_id":"ce4bhu92rcd13ifvqi70","pricing_plan_id":"cebpf4jnsgd1na2vs0mg"},{"bike_id":"136b2298-bb0f-46aa-a429-8a2b7fbeecca","system_id":"levelo_inurba_marseille","lat":43.29295,"lon":5.37463,"is_reserved":false,"is_disabled":false,"rental_uris":{"android":"levelo://app?vid=136b2298-bb0f-46aa-a429-8a2b7fbeecca","ios":"levelo://app?vid=136b2298-bb0f-46aa-a429-8a2b7fbeecca"},"vehicle_type_id":"4","last_reported":1756321699,"current_range_meters":16400,"station_id":"ce4bgi12rcd13ifvqb70","pricing_plan_id":"cebpf4jnsgd1na2vs0mg"},{"bike_id":"59d6deaa-8469-4acf-b8b3-cd575b2e0c6f","system_id":"levelo_inurba_marseille","lat":43.29267,"lon":5.36831,"is_reserved":false,"is_disabled":false,"rental_uris":{"android":"levelo://app?vid=59d6deaa-8469-4acf-b8b3-cd575b2e0c6f","ios":"levelo://app?vid=59d6deaa-8469-4acf-b8b3-cd575b2e0c6f"},"vehicle_type_id":"4","last_reported":1756321699,"current_range_meters":16400,"station_id":"ce4bhbp2rcd13ifvqesg","pricing_plan_id":"cebpf4jnsgd1na2vs0mg"},{"bike_id":"80adb315-0115-4d09-becb-58103acb6aeb","system_id":"levelo_inurba_marseille","lat":43.24386,"lon":5.37062,"is_reserved":false,"is_disabled":false,"rental_uris":{"android":"levelo://app?vid=80adb315-0115-4d09-becb-58103acb6aeb","ios":"levelo://app?vid=80adb315-0115-4d09-becb-58103acb6aeb"},"vehicle_type_id":"4","last_reported":1756321699,"current_range_meters":16400,"station_id":"ce4bhhh2rcd13ifvqfk0","pricing_plan_id":"cebpf4jnsgd1na2vs0mg"},{"bike_id":"8cae0566-5a3b-4efd-b678-839ebe00ba10","system_id":"levelo_inurba_marseille","lat":43.30931,"lon":5.4016,"is_reserved":false,"is_disabled":false,"rental_uris":{"android":"levelo://app?vid=8cae0566-5a3b-4efd-b678-839ebe00ba10","ios":"levelo://app?vid=8cae0566-5a3b-4efd-b678-839ebe00ba10"},"vehicle_type_id":"4","last_reported":1756321699,"current_range_meters":16400,"station_id":"ce4bgvp2rcd13ifvqct0","pricing_plan_id":"cebpf4jnsgd1na2vs0mg"},{"bike_id":"7e8dca62-4c7a-423b-be70-e3968491278d","system_id":"levelo_inurba_marseille","lat":43.26546,"lon":5.37287,"is_reserved":false,"is_disabled":false,"rental_uris":{"android":"levelo://app?vid=7e8dca62-4c7a-423b-be70-e3968491278d","ios":"levelo://app?vid=7e8dca62-4c7a-423b-be70-e3968491278d"},"vehicle_type_id":"4","last_reported":1756321699,"current_range_meters":16400,"station_id":"ce4bhg12rcd13ifvqf70","pricing_plan_id":"cebpf4jnsgd1na2vs0mg"},{"bike_id":"651c04c7-c2f3-4258-98c4-2abdeb471500","system_id":"levelo_inurba_marseille","lat":43.26555,"lon":5.37305,"is_reserved":false,"is_disabled":false,"rental_uris":{"android":"levelo://app?vid=651c04c7-c2f3-4258-98c4-2abdeb471500","ios":"levelo://app?vid=651c04c7-c2f3-4258-98c4-2abdeb471500"},"vehicle_type_id":"4","last_reported":1756321699,"current_range_meters":16400,"station_id":"ce4bhg12rcd13ifvqf70","pricing_plan_id":"cebpf4jnsgd1na2vs0mg"},{"bike_id":"ffe6df59-3fc1-4d81-9326-f6f6418e7718","system_id":"levelo_inurba_marseille","lat":43.297853,"lon":5.373351,"is_reserved":false,"is_disabled":false,"rental_uris":{"android":"levelo://app?vid=ffe6df59-3fc1-4d81-9326-f6f6418e7718","ios":"levelo://app?vid=ffe6df59-3fc1-4d81-9326-f6f6418e7718"},"vehicle_type_id":"4","last_reported":1756321699,"current_range_meters":16800,"station_id":"","pricing_plan_id":"cebpf4jnsgd1na2vs0mg"},{"bike_id":"23ae6fed-deff-411b-8b6e-f95e32ccd4d0","system_id":"levelo_inurba_marseille","lat":43.32136,"lon":5.36772,"is_reserved":false,"is_disabled":false,"rental_uris":{"android":"levelo://app?vid=23ae6fed-deff-411b-8b6e-f95e32ccd4d0","ios":"levelo://app?vid=23ae6fed-deff-411b-8b6e-f95e32ccd4d0"},"vehicle_type_id":"4","last_reported":1756321699,"current_range_meters":16800,"station_id":"","pricing_plan_id":"cebpf4jnsgd1na2vs0mg"},{"bike_id":"fca7dc66-8528-4f1e-8c94-5fe1bc9d7b21","system_id":"levelo_inurba_marseille","lat":43.29525,"lon":5.3854,"is_reserved":false,"is_disabled":false,"rental_uris":{"android":"levelo://app?vid=fca7dc66-8528-4f1e-8c94-5fe1bc9d7b21","ios":"levelo://app?vid=fca7dc66-8528-4f1e-8c94-5fe1bc9d7b21"},"vehicle_type_id":"4","last_reported":1756321699,"current_range_meters":16800,"station_id":"ce4bgih2rcd13ifvqba0","pricing_plan_id":"cebpf4jnsgd1na2vs0mg"},{"bike_id":"89b8acbc-b215-475a-8441-30d3f29cd601","system_id":"levelo_inurba_marseille","lat":43.27362,"lon":5.36257,"is_reserved":false,"is_disabled":false,"rental_uris":{"android":"levelo://app?vid=89b8acbc-b215-475a-8441-30d3f29cd601","ios":"levelo://app?vid=89b8acbc-b215-475a-8441-30d3f29cd601"},"vehicle_type_id":"4","last_reported":1756321699,"current_range_meters":16800,"station_id":"ce4bhbh2rcd13ifvqeo0","pricing_plan_id":"cebpf4jnsgd1na2vs0mg"},{"bike_id":"05d97e45-19dc-4128-88fe-ffa6fa61464f","system_id":"levelo_inurba_marseille","lat":43.26234,"lon":5.3746,"is_reserved":false,"is_disabled":false,"rental_uris":{"android":"levelo://app?vid=05d97e45-19dc-4128-88fe-ffa6fa61464f","ios":"levelo://app?vid=05d97e45-19dc-4128-88fe-ffa6fa61464f"},"vehicle_type_id":"4","last_reported":1756321699,"current_range_meters":16800,"station_id":"ce4bhgp2rcd13ifvqfc0","pricing_plan_id":"cebpf4jnsgd1na2vs0mg"},{"bike_id":"cbb82a1d-d8d4-4600-a4c5-543c94a335f5","system_id":"levelo_inurba_marseille","lat":43.24383,"lon":5.3707,"is_reserved":false,"is_disabled":false,"rental_uris":{"android":"levelo://app?vid=cbb82a1d-d8d4-4600-a4c5-543c94a335f5","ios":"levelo://app?vid=cbb82a1d-d8d4-4600-a4c5-543c94a335f5"},"vehicle_type_id":"4","last_reported":1756321699,"current_range_meters":16800,"station_id":"ce4bhhh2rcd13ifvqfk0","pricing_plan_id":"cebpf4jnsgd1na2vs0mg"},{"bike_id":"d282645e-2ec3-4c0e-baa7-a143ca7f504d","system_id":"levelo_inurba_marseille","lat":43.28096,"lon":5.37854,"is_reserved":false,"is_disabled":false,"rental_uris":{"android":"levelo://app?vid=d282645e-2ec3-4c0e-baa7-a143ca7f504d","ios":"levelo://app?vid=d282645e-2ec3-4c0e-baa7-a143ca7f504d"},"vehicle_type_id":"4","last_reported":1756321699,"current_range_meters":16400,"station_id":"ce4bha12rcd13ifvqee0","pricing_plan_id":"cebpf4jnsgd1na2vs0mg"},{"bike_id":"086e12eb-242e-4645-8fe3-05a62b40f96e","system_id":"levelo_inurba_marseille","lat":43.24627,"lon":5.43155,"is_reserved":false,"is_disabled":false,"rental_uris":{"android":"levelo://app?vid=086e12eb-242e-4645-8fe3-05a62b40f96e","ios":"levelo://app?vid=086e12eb-242e-4645-8fe3-05a62b40f96e"},"vehicle_type_id":"4","last_reported":1756321699,"current_range_meters":16800,"station_id":"st_d2m6c4gdas8pm72e190g","pricing_plan_id":"cebpf4jnsgd1na2vs0mg"},{"bike_id":"0793473c-7c91-4d1f-8ffb-c00486129b1d","system_id":"levelo_inurba_marseille","lat":43.30097,"lon":5.39087,"is_reserved":false,"is_disabled":true,"rental_uris":{"android":"levelo://app?vid=0793473c-7c91-4d1f-8ffb-c00486129b1d","ios":"levelo://app?vid=0793473c-7c91-4d1f-8ffb-c00486129b1d"},"vehicle_type_id":"4","last_reported":1756321699,"current_range_meters":16800,"station_id":"ce4bh192rcd13ifvqdb0","pricing_plan_id":"cebpf4jnsgd1na2vs0mg"},{"bike_id":"c6dd3bb6-cc32-4f8c-8628-2301e548446b","system_id":"levelo_inurba_marseille","lat":43.3043,"lon":5.38888,"is_reserved":false,"is_disabled":false,"rental_uris":{"android":"levelo://app?vid=c6dd3bb6-cc32-4f8c-8628-2301e548446b","ios":"levelo://app?vid=c6dd3bb6-cc32-4f8c-8628-2301e548446b"},"vehicle_type_id":"4","last_reported":1756321699,"current_range_meters":16800,"station_id":"ce4bgk12rcd13ifvqbi0","pricing_plan_id":"cebpf4jnsgd1na2vs0mg"},{"bike_id":"8df4d72a-2534-4225-b0d0-5b48bd4c7385","system_id":"levelo_inurba_marseille","lat":43.29449,"lon":5.39768,"is_reserved":false,"is_disabled":false,"rental_uris":{"android":"levelo://app?vid=8df4d72a-2534-4225-b0d0-5b48bd4c7385","ios":"levelo://app?vid=8df4d72a-2534-4225-b0d0-5b48bd4c7385"},"vehicle_type_id":"4","last_reported":1756321699,"current_range_meters":17200,"station_id":"ce4bh3h2rcd13ifvqdo0","pricing_plan_id":"cebpf4jnsgd1na2vs0mg"},{"bike_id":"1c66c897-9e2a-4a5f-b08e-baee951a9639","system_id":"levelo_inurba_marseille","lat":43.26227,"lon":5.40453,"is_reserved":false,"is_disabled":false,"rental_uris":{"android":"levelo://app?vid=1c66c897-9e2a-4a5f-b08e-baee951a9639","ios":"levelo://app?vid=1c66c897-9e2a-4a5f-b08e-baee951a9639"},"vehicle_type_id":"4","last_reported":1756321699,"current_range_meters":17200,"station_id":"ce4bhmh2rcd13ifvqgmg","pricing_plan_id":"cebpf4jnsgd1na2vs0mg"},{"bike_id":"9e491dab-9cb4-4b06-a794-7917114b8be5","system_id":"levelo_inurba_marseille","lat":43.29254,"lon":5.38443,"is_reserved":false,"is_disabled":false,"rental_uris":{"android":"levelo://app?vid=9e491dab-9cb4-4b06-a794-7917114b8be5","ios":"levelo://app?vid=9e491dab-9cb4-4b06-a794-7917114b8be5"},"vehicle_type_id":"4","last_reported":1756321699,"current_range_meters":17200,"station_id":"ce4bh692rcd13ifvqea0","pricing_plan_id":"cebpf4jnsgd1na2vs0mg"},{"bike_id":"3f921f5c-86f5-4588-90b8-64e1963f99a0","system_id":"levelo_inurba_marseille","lat":43.30881,"lon":5.39661,"is_reserved":false,"is_disabled":false,"rental_uris":{"android":"levelo://app?vid=3f921f5c-86f5-4588-90b8-64e1963f99a0","ios":"levelo://app?vid=3f921f5c-86f5-4588-90b8-64e1963f99a0"},"vehicle_type_id":"4","last_reported":1756321699,"current_range_meters":17200,"station_id":"ce4bh012rcd13ifvqcv0","pricing_plan_id":"cebpf4jnsgd1na2vs0mg"},{"bike_id":"1091f287-02ee-4a66-888b-59c35fd65791","system_id":"levelo_inurba_marseille","lat":43.23193,"lon":5.3556,"is_reserved":false,"is_disabled":false,"rental_uris":{"android":"levelo://app?vid=1091f287-02ee-4a66-888b-59c35fd65791","ios":"levelo://app?vid=1091f287-02ee-4a66-888b-59c35fd65791"},"vehicle_type_id":"4","last_reported":1756321699,"current_range_meters":17200,"station_id":"ce4bhu92rcd13ifvqi70","pricing_plan_id":"cebpf4jnsgd1na2vs0mg"},{"bike_id":"a5111d90-7a2c-4331-ac7f-caad20168099","system_id":"levelo_inurba_marseille","lat":43.26194,"lon":5.37452,"is_reserved":false,"is_disabled":false,"rental_uris":{"android":"levelo://app?vid=a5111d90-7a2c-4331-ac7f-caad20168099","ios":"levelo://app?vid=a5111d90-7a2c-4331-ac7f-caad20168099"},"vehicle_type_id":"4","last_reported":1756321699,"current_range_meters":17200,"station_id":"ce4bhgp2rcd13ifvqfc0","pricing_plan_id":"cebpf4jnsgd1na2vs0mg"},{"bike_id":"2ddde0e2-2088-418b-9262-4b0d6e96e416","system_id":"levelo_inurba_marseille","lat":43.26025,"lon":5.37565,"is_reserved":false,"is_disabled":false,"rental_uris":{"android":"levelo://app?vid=2ddde0e2-2088-418b-9262-4b0d6e96e416","ios":"levelo://app?vid=2ddde0e2-2088-418b-9262-4b0d6e96e416"},"vehicle_type_id":"4","last_reported":1756321699,"current_range_meters":17600,"station_id":"ce4bhgh2rcd13ifvqfa0","pricing_plan_id":"cebpf4jnsgd1na2vs0mg"},{"bike_id":"42515969-df58-4bc3-81b4-d2c5b3092781","system_id":"levelo_inurba_marseille","lat":43.27719,"lon":5.41979,"is_reserved":false,"is_disabled":false,"rental_uris":{"android":"levelo://app?vid=42515969-df58-4bc3-81b4-d2c5b3092781","ios":"levelo://app?vid=42515969-df58-4bc3-81b4-d2c5b3092781"},"vehicle_type_id":"4","last_reported":1756321699,"current_range_meters":17600,"station_id":"","pricing_plan_id":"cebpf4jnsgd1na2vs0mg"},{"bike_id":"77875178-d3c9-4473-a4aa-f50794d4f886","system_id":"levelo_inurba_marseille","lat":43.29194,"lon":5.39326,"is_reserved":false,"is_disabled":false,"rental_uris":{"android":"levelo://app?vid=77875178-d3c9-4473-a4aa-f50794d4f886","ios":"levelo://app?vid=77875178-d3c9-4473-a4aa-f50794d4f886"},"vehicle_type_id":"4","last_reported":1756321699,"current_range_meters":17600,"station_id":"ce4bh192rcd13ifvqdd0","pricing_plan_id":"cebpf4jnsgd1na2vs0mg"},{"bike_id":"8b9db76d-9ff8-4949-9b68-cf93d79e2d6d","system_id":"levelo_inurba_marseille","lat":43.25869,"lon":5.39895,"is_reserved":false,"is_disabled":false,"rental_uris":{"android":"levelo://app?vid=8b9db76d-9ff8-4949-9b68-cf93d79e2d6d","ios":"levelo://app?vid=8b9db76d-9ff8-4949-9b68-cf93d79e2d6d"},"vehicle_type_id":"4","last_reported":1756321699,"current_range_meters":17600,"station_id":"ce4bhl92rcd13ifvqghg","pricing_plan_id":"cebpf4jnsgd1na2vs0mg"},{"bike_id":"9443d546-5dee-45fe-a3b8-7cfbdb1c9f95","system_id":"levelo_inurba_marseille","lat":43.30632,"lon":5.40073,"is_reserved":false,"is_disabled":false,"rental_uris":{"android":"levelo://app?vid=9443d546-5dee-45fe-a3b8-7cfbdb1c9f95","ios":"levelo://app?vid=9443d546-5dee-45fe-a3b8-7cfbdb1c9f95"},"vehicle_type_id":"4","last_reported":1756321699,"current_range_meters":17600,"station_id":"ce4bh112rcd13ifvqda0","pricing_plan_id":"cebpf4jnsgd1na2vs0mg"},{"bike_id":"5580a045-958c-447a-9b59-1b8addcab2e8","system_id":"levelo_inurba_marseille","lat":43.2466,"lon":5.3818,"is_reserved":false,"is_disabled":false,"rental_uris":{"android":"levelo://app?vid=5580a045-958c-447a-9b59-1b8addcab2e8","ios":"levelo://app?vid=5580a045-958c-447a-9b59-1b8addcab2e8"},"vehicle_type_id":"4","last_reported":1756321699,"current_range_meters":17600,"station_id":"ce4bhih2rcd13ifvqfr0","pricing_plan_id":"cebpf4jnsgd1na2vs0mg"},{"bike_id":"841cbbb3-3f1e-41dc-b4b3-7555313c30db","system_id":"levelo_inurba_marseille","lat":43.26561,"lon":5.37272,"is_reserved":false,"is_disabled":false,"rental_uris":{"android":"levelo://app?vid=841cbbb3-3f1e-41dc-b4b3-7555313c30db","ios":"levelo://app?vid=841cbbb3-3f1e-41dc-b4b3-7555313c30db"},"vehicle_type_id":"4","last_reported":1756321699,"current_range_meters":17600,"station_id":"ce4bhg12rcd13ifvqf70","pricing_plan_id":"cebpf4jnsgd1na2vs0mg"},{"bike_id":"131927a1-aedf-47d1-a070-2e9836467902","system_id":"levelo_inurba_marseille","lat":43.26023,"lon":5.37562,"is_reserved":false,"is_disabled":false,"rental_uris":{"android":"levelo://app?vid=131927a1-aedf-47d1-a070-2e9836467902","ios":"levelo://app?vid=131927a1-aedf-47d1-a070-2e9836467902"},"vehicle_type_id":"4","last_reported":1756321699,"current_range_meters":17600,"station_id":"ce4bhgh2rcd13ifvqfa0","pricing_plan_id":"cebpf4jnsgd1na2vs0mg"},{"bike_id":"ec0f9f0d-0796-42ac-9cf5-bb8596cdf342","system_id":"levelo_inurba_marseille","lat":43.211902,"lon":5.350744,"is_reserved":false,"is_disabled":false,"rental_uris":{"android":"levelo://app?vid=ec0f9f0d-0796-42ac-9cf5-bb8596cdf342","ios":"levelo://app?vid=ec0f9f0d-0796-42ac-9cf5-bb8596cdf342"},"vehicle_type_id":"4","last_reported":1756321699,"current_range_meters":17600,"station_id":"","pricing_plan_id":"cebpf4jnsgd1na2vs0mg"},{"bike_id":"ac6aaa20-6e63-469c-b48c-e5965ee2a708","system_id":"levelo_inurba_marseille","lat":43.26676,"lon":5.38265,"is_reserved":false,"is_disabled":false,"rental_uris":{"android":"levelo://app?vid=ac6aaa20-6e63-469c-b48c-e5965ee2a708","ios":"levelo://app?vid=ac6aaa20-6e63-469c-b48c-e5965ee2a708"},