{"last_updated":1728745719,"ttl":60,"version":"2.2","data":{"bikes":[{"bike_id":"a90cfefd-ccd4-4d2f-906c-f11429f46878","system_id":"levelo_inurba_marseille","lat":43.30371,"lon":5.36464,"is_reserved":false,"is_disabled":false,"rental_uris":{"android":"levelo://app?vid=a90cfefd-ccd4-4d2f-906c-f11429f46878","ios":"levelo://app?vid=a90cfefd-ccd4-4d2f-906c-f11429f46878"},"vehicle_type_id":"4","last_reported":1728745719,"current_range_meters":4000,"station_id":"","pricing_plan_id":"cebpf4jnsgd1na2vs0mg"},{"bike_id":"a88cc3d5-4214-4799-a463-c01d33dbb23e","system_id":"levelo_inurba_marseille","lat":43.25008,"lon":5.38913,"is_reserved":false,"is_disabled":false,"rental_uris":{"android":"levelo://app?vid=a88cc3d5-4214-4799-a463-c01d33dbb23e","ios":"levelo://app?vid=a88cc3d5-4214-4799-a463-c01d33dbb23e"},"vehicle_type_id":"4","last_reported":1728745719,"current_range_meters":21600,"station_id":"ce4bhgp2rcd13ifvqfd0","pricing_plan_id":"cebpf4jnsgd1na2vs0mg"},{"bike_id":"dfc73125-20e9-4b72-9649-d06407fdb3a3","system_id":"levelo_inurba_marseille","lat":43.24657,"lon":5.38892,"is_reserved":false,"is_disabled":false,"rental_uris":{"android":"levelo://app?vid=dfc73125-20e9-4b72-9649-d06407fdb3a3","ios":"levelo://app?vid=dfc73125-20e9-4b72-9649-d06407fdb3a3"},"vehicle_type_id":"4","last_reported":1728745719,"current_range_meters":37600,"station_id":"ce4bhg12rcd13ifvqf60","pricing_plan_id":"cebpf4jnsgd1na2vs0mg"},{"bike_id":"42afc22f-e3cc-4703-9359-14739f904264","system_id":"levelo_inurba_marseille","lat":43.27177,"lon":5.40995,"is_reserved":false,"is_disabled":false,"rental_uris":{"android":"levelo://app?vid=42afc22f-e3cc-4703-9359-14739f904264","ios":"levelo://app?vid=42afc22f-e3cc-4703-9359-14739f904264"},"vehicle_type_id":"4","last_reported":1728745719,"current_range_meters":38800,"station_id":"ce4bhl12rcd13ifvqgf0","pricing_plan_id":"cebpf4jnsgd1na2vs0mg"},{"bike_id":"a44f69d5-33e1-43f5-908d-3211580cd61d","system_id":"levelo_inurba_marseille","lat":43.261651,"lon":5.38261,"is_reserved":false,"is_disabled":false,"rental_uris":{"android":"levelo://app?vid=a44f69d5-33e1-43f5-908d-3211580cd61d","ios":"levelo://app?vid=a44f69d5-33e1-43f5-908d-3211580cd61d"},"vehicle_type_id":"4","last_reported":1728745719,"current_range_meters":38000,"station_id":"ce4bhjp2rcd13ifvqg90","pricing_plan_id":"cebpf4jnsgd1na2vs0mg"},{"bike_id":"34248517-6eca-403d-8a86-84d3e2687901","system_id":"levelo_inurba_marseille","lat":43.2928,"lon":5.36846,"is_reserved":false,"is_disabled":false,"rental_uris":{"android":"levelo://app?vid=34248517-6eca-403d-8a86-84d3e2687901","ios":"levelo://app?vid=34248517-6eca-403d-8a86-84d3e2687901"},"vehicle_type_id":"4","last_reported":1728745719,"current_range_meters":12000,"station_id":"ce4bhbp2rcd13ifvqesg","pricing_plan_id":"cebpf4jnsgd1na2vs0mg"},{"bike_id":"3ef42292-5f8b-43cb-a0ec-0de8543cadff","system_id":"levelo_inurba_marseille","lat":43.33025,"lon":5.39036,"is_reserved":false,"is_disabled":false,"rental_uris":{"android":"levelo://app?vid=3ef42292-5f8b-43cb-a0ec-0de8543cadff","ios":"levelo://app?vid=3ef42292-5f8b-43cb-a0ec-0de8543cadff"},"vehicle_type_id":"4","last_reported":1728745719,"current_range_meters":24400,"station_id":"ce4bhr92rcd13ifvqhrg","pricing_plan_id":"cebpf4jnsgd1na2vs0mg"},{"bike_id":"98eb0ce6-ce6c-4b88-a65d-7e90a2142057","system_id":"levelo_inurba_marseille","lat":43.28413,"lon":5.37511,"is_reserved":false,"is_disabled":false,"rental_uris":{"android":"levelo://app?vid=98eb0ce6-ce6c-4b88-a65d-7e90a2142057","ios":"levelo://app?vid=98eb0ce6-ce6c-4b88-a65d-7e90a2142057"},"vehicle_type_id":"4","last_reported":1728745719,"current_range_meters":6400,"station_id":"ce4bh412rcd13ifvqds0","pricing_plan_id":"cebpf4jnsgd1na2vs0mg"},{"bike_id":"61432fa4-e69a-43e1-a752-60da459a1e2e","system_id":"levelo_inurba_marseille","lat":43.33724,"lon":5.3918,"is_reserved":false,"is_disabled":false,"rental_uris":{"android":"levelo://app?vid=61432fa4-e69a-43e1-a752-60da459a1e2e","ios":"levelo://app?vid=61432fa4-e69a-43e1-a752-60da459a1e2e"},"vehicle_type_id":"4","last_reported":1728745719,"current_range_meters":36800,"station_id":"ce4bhr92rcd13ifvqhsg","pricing_plan_id":"cebpf4jnsgd1na2vs0mg"},{"bike_id":"9836cd14-9dd6-4a0e-9d81-c2cc5da3bf99","system_id":"levelo_inurba_marseille","lat":43.28471,"lon":5.35876,"is_reserved":false,"is_disabled":false,"rental_uris":{"android":"levelo://app?vid=9836cd14-9dd6-4a0e-9d81-c2cc5da3bf99","ios":"levelo://app?vid=9836cd14-9dd6-4a0e-9d81-c2cc5da3bf99"},"vehicle_type_id":"4","last_reported":1728745719,"current_range_meters":25600,"station_id":"ce4bhah2rcd13ifvqei0","pricing_plan_id":"cebpf4jnsgd1na2vs0mg"},{"bike_id":"76a7aa55-6b43-4db3-be1d-f34667277aab","system_id":"levelo_inurba_marseille","lat":43.31992,"lon":5.38148,"is_reserved":false,"is_disabled":false,"rental_uris":{"android":"levelo://app?vid=76a7aa55-6b43-4db3-be1d-f34667277aab","ios":"levelo://app?vid=76a7aa55-6b43-4db3-be1d-f34667277aab"},"vehicle_type_id":"4","last_reported":1728745719,"current_range_meters":24800,"station_id":"ce4bhr12rcd13ifvqhpg","pricing_plan_id":"cebpf4jnsgd1na2vs0mg"},{"bike_id":"5478a3d2-c2ee-4a89-aa83-e762ee9240f8","system_id":"levelo_inurba_marseille","lat":43.26939,"lon":5.40254,"is_reserved":false,"is_disabled":false,"rental_uris":{"android":"levelo://app?vid=5478a3d2-c2ee-4a89-aa83-e762ee9240f8","ios":"levelo://app?vid=5478a3d2-c2ee-4a89-aa83-e762ee9240f8"},"vehicle_type_id":"4","last_reported":1728745719,"current_range_meters":32800,"station_id":"cjm6bp8fraef2m0cb0m0","pricing_plan_id":"cebpf4jnsgd1na2vs0mg"},{"bike_id":"af965d61-9088-4807-915b-ea32923e4324","system_id":"levelo_inurba_marseille","lat":43.29727,"lon":5.37682,"is_reserved":false,"is_disabled":false,"rental_uris":{"android":"levelo://app?vid=af965d61-9088-4807-915b-ea32923e4324","ios":"levelo://app?vid=af965d61-9088-4807-915b-ea32923e4324"},"vehicle_type_id":"4","last_reported":1728745719,"current_range_meters":37600,"station_id":"ce4bgkh2rcd13ifvqbl0","pricing_plan_id":"cebpf4jnsgd1na2vs0mg"},{"bike_id":"a8e339e3-b204-4726-9770-ba52b941046a","system_id":"levelo_inurba_marseille","lat":43.26561,"lon":5.37282,"is_reserved":false,"is_disabled":false,"rental_uris":{"android":"levelo://app?vid=a8e339e3-b204-4726-9770-ba52b941046a","ios":"levelo://app?vid=a8e339e3-b204-4726-9770-ba52b941046a"},"vehicle_type_id":"4","last_reported":1728745719,"current_range_meters":2800,"station_id":"ce4bhg12rcd13ifvqf70","pricing_plan_id":"cebpf4jnsgd1na2vs0mg"},{"bike_id":"b0911f2f-980f-419e-85e3-795a5b177f22","system_id":"levelo_inurba_marseille","lat":43.23195,"lon":5.3555,"is_reserved":false,"is_disabled":false,"rental_uris":{"android":"levelo://app?vid=b0911f2f-980f-419e-85e3-795a5b177f22","ios":"levelo://app?vid=b0911f2f-980f-419e-85e3-795a5b177f22"},"vehicle_type_id":"4","last_reported":1728745719,"current_range_meters":22800,"station_id":"ce4bhu92rcd13ifvqi70","pricing_plan_id":"cebpf4jnsgd1na2vs0mg"},{"bike_id":"c5c33660-077d-4f97-b2f0-40691ac09116","system_id":"levelo_inurba_marseille","lat":43.24392,"lon":5.37058,"is_reserved":false,"is_disabled":false,"rental_uris":{"android":"levelo://app?vid=c5c33660-077d-4f97-b2f0-40691ac09116","ios":"levelo://app?vid=c5c33660-077d-4f97-b2f0-40691ac09116"},"vehicle_type_id":"4","last_reported":1728745719,"current_range_meters":38000,"station_id":"ce4bhhh2rcd13ifvqfk0","pricing_plan_id":"cebpf4jnsgd1na2vs0mg"},{"bike_id":"37ff171e-0de1-4bda-a774-bbb511396519","system_id":"levelo_inurba_marseille","lat":43.28672,"lon":5.36342,"is_reserved":false,"is_disabled":false,"rental_uris":{"android":"levelo://app?vid=37ff171e-0de1-4bda-a774-bbb511396519","ios":"levelo://app?vid=37ff171e-0de1-4bda-a774-bbb511396519"},"vehicle_type_id":"4","last_reported":1728745719,"current_range_meters":12800,"station_id":"ce4bhah2rcd13ifvqej0","pricing_plan_id":"cebpf4jnsgd1na2vs0mg"},{"bike_id":"931d1f9c-4cb2-40a2-a856-914a1c55fcf3","system_id":"levelo_inurba_marseille","lat":43.24574,"lon":5.4166,"is_reserved":false,"is_disabled":false,"rental_uris":{"android":"levelo://app?vid=931d1f9c-4cb2-40a2-a856-914a1c55fcf3","ios":"levelo://app?vid=931d1f9c-4cb2-40a2-a856-914a1c55fcf3"},"vehicle_type_id":"4","last_reported":1728745719,"current_range_meters":10800,"station_id":"","pricing_plan_id":"cebpf4jnsgd1na2vs0mg"},{"bike_id":"99982ac4-0420-4b54-b02a-1b0469029394","system_id":"levelo_inurba_marseille","lat":43.30904,"lon":5.36844,"is_reserved":false,"is_disabled":false,"rental_uris":{"android":"levelo://app?vid=99982ac4-0420-4b54-b02a-1b0469029394","ios":"levelo://app?vid=99982ac4-0420-4b54-b02a-1b0469029394"},"vehicle_type_id":"4","last_reported":1728745719,"current_range_meters":8800,"station_id":"ce4bgn92rcd13ifvqbvg","pricing_plan_id":"cebpf4jnsgd1na2vs0mg"},{"bike_id":"3e60b11f-d675-430d-9979-c4e64a7c6c68","system_id":"levelo_inurba_marseille","lat":43.29619,"lon":5.3716,"is_reserved":false,"is_disabled":false,"rental_uris":{"android":"levelo://app?vid=3e60b11f-d675-430d-9979-c4e64a7c6c68","ios":"levelo://app?vid=3e60b11f-d675-430d-9979-c4e64a7c6c68"},"vehicle_type_id":"4","last_reported":1728745719,"current_range_meters":24800,"station_id":"ce4bgnh2rcd13ifvqc0g","pricing_plan_id":"cebpf4jnsgd1na2vs0mg"},{"bike_id":"875534d4-8ed2-4b45-aa45-24b2e8bfd0ca","system_id":"levelo_inurba_marseille","lat":43.30915,"lon":5.40179,"is_reserved":false,"is_disabled":false,"rental_uris":{"android":"levelo://app?vid=875534d4-8ed2-4b45-aa45-24b2e8bfd0ca","ios":"levelo://app?vid=875534d4-8ed2-4b45-aa45-24b2e8bfd0ca"},"vehicle_type_id":"4","last_reported":1728745719,"current_range_meters":14000,"station_id":"ce4bgvp2rcd13ifvqct0","pricing_plan_id":"cebpf4jnsgd1na2vs0mg"},{"bike_id":"3390d4f9-8a9d-4ec7-b24e-37db65a32b42","system_id":"levelo_inurba_marseille","lat":43.28488,"lon":5.38565,"is_reserved":false,"is_disabled":false,"rental_uris":{"android":"levelo://app?vid=3390d4f9-8a9d-4ec7-b24e-37db65a32b42","ios":"levelo://app?vid=3390d4f9-8a9d-4ec7-b24e-37db65a32b42"},"vehicle_type_id":"4","last_reported":1728745719,"current_range_meters":8400,"station_id":"ce4bh8p2rcd13ifvqeb0","pricing_plan_id":"cebpf4jnsgd1na2vs0mg"},{"bike_id":"8a657c15-2568-458d-a7ab-4173e7455e63","system_id":"levelo_inurba_marseille","lat":43.24388,"lon":5.37062,"is_reserved":false,"is_disabled":false,"rental_uris":{"android":"levelo://app?vid=8a657c15-2568-458d-a7ab-4173e7455e63","ios":"levelo://app?vid=8a657c15-2568-458d-a7ab-4173e7455e63"},"vehicle_type_id":"4","last_reported":1728745719,"current_range_meters":2000,"station_id":"ce4bhhh2rcd13ifvqfk0","pricing_plan_id":"cebpf4jnsgd1na2vs0mg"},{"bike_id":"4551742e-7f71-430b-8996-f78d99237d01","system_id":"levelo_inurba_marseille","lat":43.27619,"lon":5.36118,"is_reserved":false,"is_disabled":false,"rental_uris":{"android":"levelo://app?vid=4551742e-7f71-430b-8996-f78d99237d01","ios":"levelo://app?vid=4551742e-7f71-430b-8996-f78d99237d01"},"vehicle_type_id":"4","last_reported":1728745719,"current_range_meters":27600,"station_id":"ce4bgj92rcd13ifvqbe0","pricing_plan_id":"cebpf4jnsgd1na2vs0mg"},{"bike_id":"3d56fd43-7f3a-478f-a81b-fba7289193d9","system_id":"levelo_inurba_marseille","lat":43.27993,"lon":5.41658,"is_reserved":false,"is_disabled":false,"rental_uris":{"android":"levelo://app?vid=3d56fd43-7f3a-478f-a81b-fba7289193d9","ios":"levelo://app?vid=3d56fd43-7f3a-478f-a81b-fba7289193d9"},"vehicle_type_id":"4","last_reported":1728745719,"current_range_meters":24800,"station_id":"ce4bho12rcd13ifvqh1g","pricing_plan_id":"cebpf4jnsgd1na2vs0mg"},{"bike_id":"9d0f36cf-8bc6-4fdb-8a42-87ab259e208c","system_id":"levelo_inurba_marseille","lat":43.31076,"lon":5.383562,"is_reserved":false,"is_disabled":false,"rental_uris":{"android":"levelo://app?vid=9d0f36cf-8bc6-4fdb-8a42-87ab259e208c","ios":"levelo://app?vid=9d0f36cf-8bc6-4fdb-8a42-87ab259e208c"},"vehicle_type_id":"4","last_reported":1728745719,"current_range_meters":37600,"station_id":"ce4bgv92rcd13ifvqcr0","pricing_plan_id":"cebpf4jnsgd1na2vs0mg"},{"bike_id":"912f294c-df31-4eb9-a9b6-403ef99917af","system_id":"levelo_inurba_marseille","lat":43.24996,"lon":5.38933,"is_reserved":false,"is_disabled":false,"rental_uris":{"android":"levelo://app?vid=912f294c-df31-4eb9-a9b6-403ef99917af","ios":"levelo://app?vid=912f294c-df31-4eb9-a9b6-403ef99917af"},"vehicle_type_id":"4","last_reported":1728745719,"current_range_meters":3200,"station_id":"ce4bhgp2rcd13ifvqfd0","pricing_plan_id":"cebpf4jnsgd1na2vs0mg"},{"bike_id":"851d29bb-dfef-4b3b-b9e6-d79f9e5b9fc1","system_id":"levelo_inurba_marseille","lat":43.25582,"lon":5.38229,"is_reserved":false,"is_disabled":false,"rental_uris":{"android":"levelo://app?vid=851d29bb-dfef-4b3b-b9e6-d79f9e5b9fc1","ios":"levelo://app?vid=851d29bb-dfef-4b3b-b9e6-d79f9e5b9fc1"},"vehicle_type_id":"4","last_reported":1728745719,"current_range_meters":38000,"station_id":"ce4bhih2rcd13ifvqfs0","pricing_plan_id":"cebpf4jnsgd1na2vs0mg"},{"bike_id":"ce03b50f-c863-4a60-84be-11ff7bdf92f8","system_id":"levelo_inurba_marseille","lat":43.276154,"lon":5.360939,"is_reserved":false,"is_disabled":false,"rental_uris":{"android":"levelo://app?vid=ce03b50f-c863-4a60-84be-11ff7bdf92f8","ios":"levelo://app?vid=ce03b50f-c863-4a60-84be-11ff7bdf92f8"},"vehicle_type_id":"4","last_reported":1728745719,"current_range_meters":12400,"station_id":"ce4bgj92rcd13ifvqbe0","pricing_plan_id":"cebpf4jnsgd1na2vs0mg"},{"bike_id":"9b15ecb7-e24b-4c8f-999e-06ec4f56eaee","system_id":"levelo_inurba_marseille","lat":43.293085,"lon":5.374609,"is_reserved":false,"is_disabled":false,"rental_uris":{"android":"levelo://app?vid=9b15ecb7-e24b-4c8f-999e-06ec4f56eaee","ios":"levelo://app?vid=9b15ecb7-e24b-4c8f-999e-06ec4f56eaee"},"vehicle_type_id":"4","last_reported":1728745719,"current_range_meters":10000,"station_id":"ce4bgi12rcd13ifvqb70","pricing_plan_id":"cebpf4jnsgd1na2vs0mg"},{"bike_id":"dd26c2c0-4031-49f7-afde-18a02cce525c","system_id":"levelo_inurba_marseille","lat":43.24074,"lon":5.37756,"is_reserved":false,"is_disabled":false,"rental_uris":{"android":"levelo://app?vid=dd26c2c0-4031-49f7-afde-18a02cce525c","ios":"levelo://app?vid=dd26c2c0-4031-49f7-afde-18a02cce525c"},"vehicle_type_id":"4","last_reported":1728745719,"current_range_meters":34000,"station_id":"ce4bhnp2rcd13ifvqgvg","pricing_plan_id":"cebpf4jnsgd1na2vs0mg"},{"bike_id":"86851483-6460-4f2a-8d92-b3b47e5c55aa","system_id":"levelo_inurba_marseille","lat":43.23965,"lon":5.36625,"is_reserved":false,"is_disabled":false,"rental_uris":{"android":"levelo://app?vid=86851483-6460-4f2a-8d92-b3b47e5c55aa","ios":"levelo://app?vid=86851483-6460-4f2a-8d92-b3b47e5c55aa"},"vehicle_type_id":"4","last_reported":1728745719,"current_range_meters":39200,"station_id":"ce4bhi12rcd13ifvqfp0","pricing_plan_id":"cebpf4jnsgd1na2vs0mg"},{"bike_id":"900d410e-a263-4441-80a1-af67345a66d2","system_id":"levelo_inurba_marseille","lat":43.24387,"lon":5.37054,"is_reserved":false,"is_disabled":false,"rental_uris":{"android":"levelo://app?vid=900d410e-a263-4441-80a1-af67345a66d2","ios":"levelo://app?vid=900d410e-a263-4441-80a1-af67345a66d2"},"vehicle_type_id":"4","last_reported":1728745719,"current_range_meters":24000,"station_id":"ce4bhhh2rcd13ifvqfk0","pricing_plan_id":"cebpf4jnsgd1na2vs0mg"},{"bike_id":"93cf6e6a-b59b-4d63-9a00-c25bf3ea1f05","system_id":"levelo_inurba_marseille","lat":43.29894,"lon":5.43656,"is_reserved":false,"is_disabled":false,"rental_uris":{"android":"levelo://app?vid=93cf6e6a-b59b-4d63-9a00-c25bf3ea1f05","ios":"levelo://app?vid=93cf6e6a-b59b-4d63-9a00-c25bf3ea1f05"},"vehicle_type_id":"4","last_reported":1728745719,"current_range_meters":39200,"station_id":"ce4bhpp2rcd13ifvqhfg","pricing_plan_id":"cebpf4jnsgd1na2vs0mg"},{"bike_id":"2d3c5673-bfcc-4185-abb7-fedd0d46f6ce","system_id":"levelo_inurba_marseille","lat":43.26787,"lon":5.39406,"is_reserved":false,"is_disabled":false,"rental_uris":{"android":"levelo://app?vid=2d3c5673-bfcc-4185-abb7-fedd0d46f6ce","ios":"levelo://app?vid=2d3c5673-bfcc-4185-abb7-fedd0d46f6ce"},"vehicle_type_id":"4","last_reported":1728745719,"current_range_meters":4000,"station_id":"ce4bhh12rcd13ifvqfg0","pricing_plan_id":"cebpf4jnsgd1na2vs0mg"},{"bike_id":"f8e0d7fe-c882-4bde-99c8-563454686a55","system_id":"levelo_inurba_marseille","lat":43.25093,"lon":5.39524,"is_reserved":false,"is_disabled":false,"rental_uris":{"android":"levelo://app?vid=f8e0d7fe-c882-4bde-99c8-563454686a55","ios":"levelo://app?vid=f8e0d7fe-c882-4bde-99c8-563454686a55"},"vehicle_type_id":"4","last_reported":1728745719,"current_range_meters":16000,"station_id":"ce4bhm12rcd13ifvqgkg","pricing_plan_id":"cebpf4jnsgd1na2vs0mg"},{"bike_id":"715a27b7-59c5-4d1b-a0dd-06f21d803df4","system_id":"levelo_inurba_marseille","lat":43.26949,"lon":5.38633,"is_reserved":false,"is_disabled":false,"rental_uris":{"android":"levelo://app?vid=715a27b7-59c5-4d1b-a0dd-06f21d803df4","ios":"levelo://app?vid=715a27b7-59c5-4d1b-a0dd-06f21d803df4"},"vehicle_type_id":"4","last_reported":1728745719,"current_range_meters":28000,"station_id":"ce4bhh92rcd13ifvqfh0","pricing_plan_id":"cebpf4jnsgd1na2vs0mg"},{"bike_id":"ee3d77b2-c4c3-417a-8170-d8edb7edeab8","system_id":"levelo_inurba_marseille","lat":43.22936,"lon":5.35375,"is_reserved":false,"is_disabled":false,"rental_uris":{"android":"levelo://app?vid=ee3d77b2-c4c3-417a-8170-d8edb7edeab8","ios":"levelo://app?vid=ee3d77b2-c4c3-417a-8170-d8edb7edeab8"},"vehicle_type_id":"4","last_reported":1728745719,"current_range_meters":11600,"station_id":"cpo3532slgdg3j2ikp40","pricing_plan_id":"cebpf4jnsgd1na2vs0mg"},{"bike_id":"e896502d-4ba8-4393-865f-5632bc094df8","system_id":"levelo_inurba_marseille","lat":43.28846,"lon":5.393,"is_reserved":false,"is_disabled":false,"rental_uris":{"android":"levelo://app?vid=e896502d-4ba8-4393-865f-5632bc094df8","ios":"levelo://app?vid=e896502d-4ba8-4393-865f-5632bc094df8"},"vehicle_type_id":"4","last_reported":1728745719,"current_range_meters":22400,"station_id":"ce4bh2p2rcd13ifvqdi0","pricing_plan_id":"cebpf4jnsgd1na2vs0mg"},{"bike_id":"59337b9f-8c74-4938-b5cf-c56f4c4b2077","system_id":"levelo_inurba_marseille","lat":43.24806,"lon":5.37454,"is_reserved":false,"is_disabled":false,"rental_uris":{"android":"levelo://app?vid=59337b9f-8c74-4938-b5cf-c56f4c4b2077","ios":"levelo://app?vid=59337b9f-8c74-4938-b5cf-c56f4c4b2077"},"vehicle_type_id":"4","last_reported":1728745719,"current_range_meters":28400,"station_id":"ce4bhgh2rcd13ifvqfb0","pricing_plan_id":"cebpf4jnsgd1na2vs0mg"},{"bike_id":"3db67eaf-c84f-4a60-92e0-408da943a48f","system_id":"levelo_inurba_marseille","lat":43.289215,"lon":5.354773,"is_reserved":false,"is_disabled":false,"rental_uris":{"android":"levelo://app?vid=3db67eaf-c84f-4a60-92e0-408da943a48f","ios":"levelo://app?vid=3db67eaf-c84f-4a60-92e0-408da943a48f"},"vehicle_type_id":"4","last_reported":1728745719,"current_range_meters":33600,"station_id":"","pricing_plan_id":"cebpf4jnsgd1na2vs0mg"},{"bike_id":"5dbc7dcc-9d48-4fd7-8ea7-69f4e7ca2466","system_id":"levelo_inurba_marseille","lat":43.26551,"lon":5.37286,"is_reserved":false,"is_disabled":false,"rental_uris":{"android":"levelo://app?vid=5dbc7dcc-9d48-4fd7-8ea7-69f4e7ca2466","ios":"levelo://app?vid=5dbc7dcc-9d48-4fd7-8ea7-69f4e7ca2466"},"vehicle_type_id":"4","last_reported":1728745719,"current_range_meters":38800,"station_id":"ce4bhg12rcd13ifvqf70","pricing_plan_id":"cebpf4jnsgd1na2vs0mg"},{"bike_id":"149e83d7-9dcc-4ede-9aee-f1b734bfc952","system_id":"levelo_inurba_marseille","lat":43.22933,"lon":5.35374,"is_reserved":false,"is_disabled":false,"rental_uris":{"android":"levelo://app?vid=149e83d7-9dcc-4ede-9aee-f1b734bfc952","ios":"levelo://app?vid=149e83d7-9dcc-4ede-9aee-f1b734bfc952"},"vehicle_type_id":"4","last_reported":1728745719,"current_range_meters":19600,"station_id":"cpo3532slgdg3j2ikp40","pricing_plan_id":"cebpf4jnsgd1na2vs0mg"},{"bike_id":"caac0ae9-97a5-4abe-bfc2-b67d3e720f3d","system_id":"levelo_inurba_marseille","lat":43.2962,"lon":5.3717,"is_reserved":false,"is_disabled":false,"rental_uris":{"android":"levelo://app?vid=caac0ae9-97a5-4abe-bfc2-b67d3e720f3d","ios":"levelo://app?vid=caac0ae9-97a5-4abe-bfc2-b67d3e720f3d"},"vehicle_type_id":"4","last_reported":1728745719,"current_range_meters":28800,"station_id":"ce4bgnh2rcd13ifvqc0g","pricing_plan_id":"cebpf4jnsgd1na2vs0mg"},{"bike_id":"a751214b-619f-4483-a2f5-200322f27979","system_id":"levelo_inurba_marseille","lat":43.2984,"lon":5.36265,"is_reserved":false,"is_disabled":false,"rental_uris":{"android":"levelo://app?vid=a751214b-619f-4483-a2f5-200322f27979","ios":"levelo://app?vid=a751214b-619f-4483-a2f5-200322f27979"},"vehicle_type_id":"4","last_reported":1728745719,"current_range_meters":18800,"station_id":"ce4bgpp2rcd13ifvqc3g","pricing_plan_id":"cebpf4jnsgd1na2vs0mg"},{"bike_id":"44bacf3d-60cf-42b0-9ee5-0b032eed80fe","system_id":"levelo_inurba_marseille","lat":43.302701,"lon":5.377763,"is_reserved":false,"is_disabled":false,"rental_uris":{"android":"levelo://app?vid=44bacf3d-60cf-42b0-9ee5-0b032eed80fe","ios":"levelo://app?vid=44bacf3d-60cf-42b0-9ee5-0b032eed80fe"},"vehicle_type_id":"4","last_reported":1728745719,"current_range_meters":14800,"station_id":"ce4bguh2rcd13ifvqcj0","pricing_plan_id":"cebpf4jnsgd1na2vs0mg"},{"bike_id":"04d491a2-e441-4c04-be53-76f016febe01","system_id":"levelo_inurba_marseille","lat":43.29622,"lon":5.37151,"is_reserved":false,"is_disabled":false,"rental_uris":{"android":"levelo://app?vid=04d491a2-e441-4c04-be53-76f016febe01","ios":"levelo://app?vid=04d491a2-e441-4c04-be53-76f016febe01"},"vehicle_type_id":"4","last_reported":1728745719,"current_range_meters":17600,"station_id":"ce4bh412rcd13ifvqds0","pricing_plan_id":"cebpf4jnsgd1na2vs0mg"},{"bike_id":"c951d7bb-f2c9-48b1-b4f5-dbab92545c73","system_id":"levelo_inurba_marseille","lat":43.303101,"lon":5.368981,"is_reserved":false,"is_disabled":false,"rental_uris":{"android":"levelo://app?vid=c951d7bb-f2c9-48b1-b4f5-dbab92545c73","ios":"levelo://app?vid=c951d7bb-f2c9-48b1-b4f5-dbab92545c73"},"vehicle_type_id":"4","last_reported":1728745719,"current_range_meters":38000,"station_id":"ce4bgqh2rcd13ifvqc5g","pricing_plan_id":"cebpf4jnsgd1na2vs0mg"},{"bike_id":"1f1319e5-4702-4f88-906e-39a6240bb97c","system_id":"levelo_inurba_marseille","lat":43.29074,"lon":5.37168,"is_reserved":false,"is_disabled":false,"rental_uris":{"android":"levelo://app?vid=1f1319e5-4702-4f88-906e-39a6240bb97c","ios":"levelo://app?vid=1f1319e5-4702-4f88-906e-39a6240bb97c"},"vehicle_type_id":"4","last_reported":1728745719,"current_range_meters":10800,"station_id":"ce4bh5p2rcd13ifvqe4g","pricing_plan_id":"cebpf4jnsgd1na2vs0mg"},{"bike_id":"da9b31ee-43b4-4389-85de-211de3ba1c9a","system_id":"levelo_inurba_marseille","lat":43.2465,"lon":5.38891,"is_reserved":false,"is_disabled":false,"rental_uris":{"android":"levelo://app?vid=da9b31ee-43b4-4389-85de-211de3ba1c9a","ios":"levelo://app?vid=da9b31ee-43b4-4389-85de-211de3ba1c9a"},"vehicle_type_id":"4","last_reported":1728745719,"current_range_meters":18000,"station_id":"ce4bhg12rcd13ifvqf60","pricing_plan_id":"cebpf4jnsgd1na2vs0mg"},{"bike_id":"232277c0-5be2-4250-aa0a-4aaa02810008","system_id":"levelo_inurba_marseille","lat":43.27993,"lon":5.41657,"is_reserved":false,"is_disabled":false,"rental_uris":{"android":"levelo://app?vid=232277c0-5be2-4250-aa0a-4aaa02810008","ios":"levelo://app?vid=232277c0-5be2-4250-aa0a-4aaa02810008"},"vehicle_type_id":"4","last_reported":1728745719,"current_range_meters":2000,"station_id":"ce4bho12rcd13ifvqh1g","pricing_plan_id":"cebpf4jnsgd1na2vs0mg"},{"bike_id":"ab8d6d1c-6313-4cdc-9fe6-08b625ac0002","system_id":"levelo_inurba_marseille","lat":43.28002,"lon":5.40009,"is_reserved":false,"is_disabled":false,"rental_uris":{"android":"levelo://app?vid=ab8d6d1c-6313-4cdc-9fe6-08b625ac0002","ios":"levelo://app?vid=ab8d6d1c-6313-4cdc-9fe6-08b625ac0002"},"vehicle_type_id":"4","last_reported":1728745719,"current_range_meters":28800,"station_id":"ce4bho92rcd13ifvqh4g","pricing_plan_id":"cebpf4jnsgd1na2vs0mg"},{"bike_id":"56c62ade-06e9-444f-ba50-b0fc3f256e59","system_id":"levelo_inurba_marseille","lat":43.24078,"lon":5.3776,"is_reserved":false,"is_disabled":false,"rental_uris":{"android":"levelo://app?vid=56c62ade-06e9-444f-ba50-b0fc3f256e59","ios":"levelo://app?vid=56c62ade-06e9-444f-ba50-b0fc3f256e59"},"vehicle_type_id":"4","last_reported":1728745719,"current_range_meters":13600,"station_id":"ce4bhnp2rcd13ifvqgvg","pricing_plan_id":"cebpf4jnsgd1na2vs0mg"},{"bike_id":"15f774a7-f6e4-4a99-8c49-728815052f87","system_id":"levelo_inurba_marseille","lat":43.28852,"lon":5.35874,"is_reserved":false,"is_disabled":false,"rental_uris":{"android":"levelo://app?vid=15f774a7-f6e4-4a99-8c49-728815052f87","ios":"levelo://app?vid=15f774a7-f6e4-4a99-8c49-728815052f87"},"vehicle_type_id":"4","last_reported":1728745719,"current_range_meters":24800,"station_id":"ce4bhb12rcd13ifvqem0","pricing_plan_id":"cebpf4jnsgd1na2vs0mg"},{"bike_id":"f19f9bad-7fb2-4822-b5c1-9aaa7ae70421","system_id":"levelo_inurba_marseille","lat":43.31123,"lon":5.37779,"is_reserved":false,"is_disabled":false,"rental_uris":{"android":"levelo://app?vid=f19f9bad-7fb2-4822-b5c1-9aaa7ae70421","ios":"levelo://app?vid=f19f9bad-7fb2-4822-b5c1-9aaa7ae70421"},"vehicle_type_id":"4","last_reported":1728745719,"current_range_meters":4000,"station_id":"ce4bgt92rcd13ifvqcg0","pricing_plan_id":"cebpf4jnsgd1na2vs0mg"},{"bike_id":"ef30f89d-b034-48c1-9840-938de673d548","system_id":"levelo_inurba_marseille","lat":43.29256,"lon":5.38442,"is_reserved":false,"is_disabled":false,"rental_uris":{"android":"levelo://app?vid=ef30f89d-b034-48c1-9840-938de673d548","ios":"levelo://app?vid=ef30f89d-b034-48c1-9840-938de673d548"},"vehicle_type_id":"4","last_reported":1728745719,"current_range_meters":2800,"station_id":"ce4bh692rcd13ifvqea0","pricing_plan_id":"cebpf4jnsgd1na2vs0mg"},{"bike_id":"206043b2-ab87-418c-9833-e902812cd9dc","system_id":"levelo_inurba_marseille","lat":43.3015,"lon":5.38082,"is_reserved":false,"is_disabled":false,"rental_uris":{"android":"levelo://app?vid=206043b2-ab87-418c-9833-e902812cd9dc","ios":"levelo://app?vid=206043b2-ab87-418c-9833-e902812cd9dc"},"vehicle_type_id":"4","last_reported":1728745719,"current_range_meters":24800,"station_id":"ce4bgjp2rcd13ifvqbh0","pricing_plan_id":"cebpf4jnsgd1na2vs0mg"},{"bike_id":"a6b2af99-b8ef-4a5c-a569-b245afa8339f","system_id":"levelo_inurba_marseille","lat":43.29279,"lon":5.36841,"is_reserved":false,"is_disabled":false,"rental_uris":{"android":"levelo://app?vid=a6b2af99-b8ef-4a5c-a569-b245afa8339f","ios":"levelo://app?vid=a6b2af99-b8ef-4a5c-a569-b245afa8339f"},"vehicle_type_id":"4","last_reported":1728745719,"current_range_meters":22400,"station_id":"ce4bhbp2rcd13ifvqesg","pricing_plan_id":"cebpf4jnsgd1na2vs0mg"},{"bike_id":"2fd3fc85-901e-4125-9eb8-61951126a742","system_id":"levelo_inurba_marseille","lat":43.24078,"lon":5.3775,"is_reserved":false,"is_disabled":false,"rental_uris":{"android":"levelo://app?vid=2fd3fc85-901e-4125-9eb8-61951126a742","ios":"levelo://app?vid=2fd3fc85-901e-4125-9eb8-61951126a742"},"vehicle_type_id":"4","last_reported":1728745719,"current_range_meters":16000,"station_id":"ce4bhnp2rcd13ifvqgvg","pricing_plan_id":"cebpf4jnsgd1na2vs0mg"},{"bike_id":"ad9508a3-6339-4b15-ad7f-7867f29affe1","system_id":"levelo_inurba_marseille","lat":43.23968,"lon":5.36629,"is_reserved":false,"is_disabled":false,"rental_uris":{"android":"levelo://app?vid=ad9508a3-6339-4b15-ad7f-7867f29affe1","ios":"levelo://app?vid=ad9508a3-6339-4b15-ad7f-7867f29affe1"},"vehicle_type_id":"4","last_reported":1728745719,"current_range_meters":28800,"station_id":"ce4bhi12rcd13ifvqfp0","pricing_plan_id":"cebpf4jnsgd1na2vs0mg"},{"bike_id":"e0c05fe3-e5fc-4287-9d68-72ab1d6074d8","system_id":"levelo_inurba_marseille","lat":43.26214,"lon":5.37444,"is_reserved":false,"is_disabled":false,"rental_uris":{"android":"levelo://app?vid=e0c05fe3-e5fc-4287-9d68-72ab1d6074d8","ios":"levelo://app?vid=e0c05fe3-e5fc-4287-9d68-72ab1d6074d8"},"vehicle_type_id":"4","last_reported":1728745719,"current_range_meters":2000,"station_id":"ce4bhgp2rcd13ifvqfc0","pricing_plan_id":"cebpf4jnsgd1na2vs0mg"},{"bike_id":"759ce870-3bc5-4a2e-a8c9-bec4e8008e45","system_id":"levelo_inurba_marseille","lat":43.337444,"lon":5.374475,"is_reserved":false,"is_disabled":false,"rental_uris":{"android":"levelo://app?vid=759ce870-3bc5-4a2e-a8c9-bec4e8008e45","ios":"levelo://app?vid=759ce870-3bc5-4a2e-a8c9-bec4e8008e45"},"vehicle_type_id":"4","last_reported":1728745719,"current_range_meters":27200,"station_id":"","pricing_plan_id":"cebpf4jnsgd1na2vs0mg"},{"bike_id":"e8dad087-0e79-4a71-a9b8-a450539a630d","system_id":"levelo_inurba_marseille","lat":43.28999,"lon":5.3561,"is_reserved":false,"is_disabled":false,"rental_uris":{"android":"levelo://app?vid=e8dad087-0e79-4a71-a9b8-a450539a630d","ios":"levelo://app?vid=e8dad087-0e79-4a71-a9b8-a450539a630d"},"vehicle_type_id":"4","last_reported":1728745719,"current_range_meters":24400,"station_id":"ce4bhb92rcd13ifvqen0","pricing_plan_id":"cebpf4jnsgd1na2vs0mg"},{"bike_id":"9662c834-e814-444b-97f5-74cee922c4fd","system_id":"levelo_inurba_marseille","lat":43.23964,"lon":5.3663,"is_reserved":false,"is_disabled":false,"rental_uris":{"android":"levelo://app?vid=9662c834-e814-444b-97f5-74cee922c4fd","ios":"levelo://app?vid=9662c834-e814-444b-97f5-74cee922c4fd"},"vehicle_type_id":"4","last_reported":1728745719,"current_range_meters":38400,"station_id":"ce4bhi12rcd13ifvqfp0","pricing_plan_id":"cebpf4jnsgd1na2vs0mg"},{"bike_id":"543e20bb-2a3b-4641-a9b0-594106236770","system_id":"levelo_inurba_marseille","lat":43.27677,"lon":5.38876,"is_reserved":false,"is_disabled":false,"rental_uris":{"android":"levelo://app?vid=543e20bb-2a3b-4641-a9b0-594106236770","ios":"levelo://app?vid=543e20bb-2a3b-4641-a9b0-594106236770"},"vehicle_type_id":"4","last_reported":1728745719,"current_range_meters":4000,"station_id":"ce4bhi12rcd13ifvqfo0","pricing_plan_id":"cebpf4jnsgd1na2vs0mg"},{"bike_id":"877095d9-28a9-4d0f-814f-b66c76ba33da","system_id":"levelo_inurba_marseille","lat":43.26954,"lon":5.38631,"is_reserved":false,"is_disabled":false,"rental_uris":{"android":"levelo://app?vid=877095d9-28a9-4d0f-814f-b66c76ba33da","ios":"levelo://app?vid=877095d9-28a9-4d0f-814f-b66c76ba33da"},"vehicle_type_id":"4","last_reported":1728745719,"current_range_meters":29600,"station_id":"ce4bhh92rcd13ifvqfh0","pricing_plan_id":"cebpf4jnsgd1na2vs0mg"},{"bike_id":"628b70e0-70d2-4a50-bd81-f02589a5a65c","system_id":"levelo_inurba_marseille","lat":43.29218,"lon":5.37164,"is_reserved":false,"is_disabled":false,"rental_uris":{"android":"levelo://app?vid=628b70e0-70d2-4a50-bd81-f02589a5a65c","ios":"levelo://app?vid=628b70e0-70d2-4a50-bd81-f02589a5a65c"},"vehicle_type_id":"4","last_reported":1728745719,"current_range_meters":8400,"station_id":"","pricing_plan_id":"cebpf4jnsgd1na2vs0mg"},{"bike_id":"7baf50e4-1e07-4c71-b387-11e51c22e3af","system_id":"levelo_inurba_marseille","lat":43.27612,"lon":5.36111,"is_reserved":false,"is_disabled":false,"rental_uris":{"android":"levelo://app?vid=7baf50e4-1e07-4c71-b387-11e51c22e3af","ios":"levelo://app?vid=7baf50e4-1e07-4c71-b387-11e51c22e3af"},"vehicle_type_id":"4","last_reported":1728745719,"current_range_meters":6800,"station_id":"ce4bgj92rcd13ifvqbe0","pricing_plan_id":"cebpf4jnsgd1na2vs0mg"},{"bike_id":"e266114d-389b-4e86-bb41-f347240eafe0","system_id":"levelo_inurba_marseille","lat":43.32536,"lon":5.41424,"is_reserved":false,"is_disabled":false,"rental_uris":{"android":"levelo://app?vid=e266114d-389b-4e86-bb41-f347240eafe0","ios":"levelo://app?vid=e266114d-389b-4e86-bb41-f347240eafe0"},"vehicle_type_id":"4","last_reported":1728745719,"current_range_meters":27200,"station_id":"ce4bhq12rcd13ifvqhhg","pricing_plan_id":"cebpf4jnsgd1na2vs0mg"},{"bike_id":"ec9e6092-0ad7-44c0-8f38-5625dda9492f","system_id":"levelo_inurba_marseille","lat":43.31121,"lon":5.37754,"is_reserved":false,"is_disabled":false,"rental_uris":{"android":"levelo://app?vid=ec9e6092-0ad7-44c0-8f38-5625dda9492f","ios":"levelo://app?vid=ec9e6092-0ad7-44c0-8f38-5625dda9492f"},"vehicle_type_id":"4","last_reported":1728745719,"current_range_meters":3600,"station_id":"ce4bgt92rcd13ifvqcg0","pricing_plan_id":"cebpf4jnsgd1na2vs0mg"},{"bike_id":"d0dfc7e9-38a8-423e-9b51-208163dfaedc","system_id":"levelo_inurba_marseille","lat":43.28474,"lon":5.35897,"is_reserved":false,"is_disabled":false,"rental_uris":{"android":"levelo://app?vid=d0dfc7e9-38a8-423e-9b51-208163dfaedc","ios":"levelo://app?vid=d0dfc7e9-38a8-423e-9b51-208163dfaedc"},"vehicle_type_id":"4","last_reported":1728745719,"current_range_meters":2800,"station_id":"ce4bhah2rcd13ifvqei0","pricing_plan_id":"cebpf4jnsgd1na2vs0mg"},{"bike_id":"d0f33f37-82c3-4d11-93b0-7e8032a1376a","system_id":"levelo_inurba_marseille","lat":43.2988,"lon":5.38902,"is_reserved":false,"is_disabled":false,"rental_uris":{"android":"levelo://app?vid=d0f33f37-82c3-4d11-93b0-7e8032a1376a","ios":"levelo://app?vid=d0f33f37-82c3-4d11-93b0-7e8032a1376a"},"vehicle_type_id":"4","last_reported":1728745719,"current_range_meters":30800,"station_id":"ce4bh392rcd13ifvqdl0","pricing_plan_id":"cebpf4jnsgd1na2vs0mg"},{"bike_id":"7bbb55c7-9834-48a9-bc94-2dc7e9b242c8","system_id":"levelo_inurba_marseille","lat":43.28431,"lon":5.34982,"is_reserved":false,"is_disabled":false,"rental_uris":{"android":"levelo://app?vid=7bbb55c7-9834-48a9-bc94-2dc7e9b242c8","ios":"levelo://app?vid=7bbb55c7-9834-48a9-bc94-2dc7e9b242c8"},"vehicle_type_id":"4","last_reported":1728745719,"current_range_meters":3200,"station_id":"ce4bhbh2rcd13ifvqepg","pricing_plan_id":"cebpf4jnsgd1na2vs0mg"},{"bike_id":"d771367a-6c9d-4df7-a025-0fc9882197ee","system_id":"levelo_inurba_marseille","lat":43.28427,"lon":5.37508,"is_reserved":false,"is_disabled":false,"rental_uris":{"android":"levelo://app?vid=d771367a-6c9d-4df7-a025-0fc9882197ee","ios":"levelo://app?vid=d771367a-6c9d-4df7-a025-0fc9882197ee"},"vehicle_type_id":"4","last_reported":1728745719,"current_range_meters":2000,"station_id":"ce4bh412rcd13ifvqds0","pricing_plan_id":"cebpf4jnsgd1na2vs0mg"},{"bike_id":"98f23933-0743-4813-895e-8d2629e680e6","system_id":"levelo_inurba_marseille","lat":43.27996,"lon":5.41666,"is_reserved":false,"is_disabled":false,"rental_uris":{"android":"levelo://app?vid=98f23933-0743-4813-895e-8d2629e680e6","ios":"levelo://app?vid=98f23933-0743-4813-895e-8d2629e680e6"},"vehicle_type_id":"4","last_reported":1728745719,"current_range_meters":6400,"station_id":"ce4bho12rcd13ifvqh1g","pricing_plan_id":"cebpf4jnsgd1na2vs0mg"},{"bike_id":"fd301c4f-88d0-470b-8444-02e732c4a052","system_id":"levelo_inurba_marseille","lat":43.24977,"lon":5.38099,"is_reserved":false,"is_disabled":false,"rental_uris":{"android":"levelo://app?vid=fd301c4f-88d0-470b-8444-02e732c4a052","ios":"levelo://app?vid=fd301c4f-88d0-470b-8444-02e732c4a052"},"vehicle_type_id":"4","last_reported":1728745719,"current_range_meters":28000,"station_id":"","pricing_plan_id":"cebpf4jnsgd1na2vs0mg"},{"bike_id":"67f04806-dab4-4bfb-95ef-97906df6f684","system_id":"levelo_inurba_marseille","lat":43.28463,"lon":5.35886,"is_reserved":false,"is_disabled":false,"rental_uris":{"android":"levelo://app?vid=67f04806-dab4-4bfb-95ef-97906df6f684","ios":"levelo://app?vid=67f04806-dab4-4bfb-95ef-97906df6f684"},"vehicle_type_id":"4","last_reported":1728745719,"current_range_meters":24800,"station_id":"ce4bhah2rcd13ifvqei0","pricing_plan_id":"cebpf4jnsgd1na2vs0mg"},{"bike_id":"b8f90421-7564-4f3a-a9c8-26764beb1784","system_id":"levelo_inurba_marseille","lat":43.29712,"lon":5.36597,"is_reserved":false,"is_disabled":false,"rental_uris":{"android":"levelo://app?vid=b8f90421-7564-4f3a-a9c8-26764beb1784","ios":"levelo://app?vid=b8f90421-7564-4f3a-a9c8-26764beb1784"},"vehicle_type_id":"4","last_reported":1728745719,"current_range_meters":19200,"station_id":"ce4bgn12rcd13ifvqbt0","pricing_plan_id":"cebpf4jnsgd1na2vs0mg"},{"bike_id":"bdd73c8a-3b4e-4008-b26f-32f11dc7e958","system_id":"levelo_inurba_marseille","lat":43.24659,"lon":5.38169,"is_reserved":false,"is_disabled":false,"rental_uris":{"android":"levelo://app?vid=bdd73c8a-3b4e-4008-b26f-32f11dc7e958","ios":"levelo://app?vid=bdd73c8a-3b4e-4008-b26f-32f11dc7e958"},"vehicle_type_id":"4","last_reported":1728745719,"current_range_meters":27200,"station_id":"ce4bhih2rcd13ifvqfr0","pricing_plan_id":"cebpf4jnsgd1na2vs0mg"},{"bike_id":"f2ec553b-f583-4634-bf60-a39b93078fc1","system_id":"levelo_inurba_marseille","lat":43.24393,"lon":5.37063,"is_reserved":false,"is_disabled":false,"rental_uris":{"android":"levelo://app?vid=f2ec553b-f583-4634-bf60-a39b93078fc1","ios":"levelo://app?vid=f2ec553b-f583-4634-bf60-a39b93078fc1"},"vehicle_type_id":"4","last_reported":1728745719,"current_range_meters":28400,"station_id":"ce4bhhh2rcd13ifvqfk0","pricing_plan_id":"cebpf4jnsgd1na2vs0mg"},{"bike_id":"794b7b04-11a7-4f66-b706-71c47e237818","system_id":"levelo_inurba_marseille","lat":43.28463,"lon":5.35886,"is_reserved":false,"is_disabled":false,"rental_uris":{"android":"levelo://app?vid=794b7b04-11a7-4f66-b706-71c47e237818","ios":"levelo://app?vid=794b7b04-11a7-4f66-b706-71c47e237818"},"vehicle_type_id":"4","last_reported":1728745719,"current_range_meters":16000,"station_id":"ce4bhah2rcd13ifvqei0","pricing_plan_id":"cebpf4jnsgd1na2vs0mg"},{"bike_id":"1a90ad3a-447a-4014-8cf5-1bb8f629a10e","system_id":"levelo_inurba_marseille","lat":43.29576,"lon":5.36741,"is_reserved":false,"is_disabled":false,"rental_uris":{"android":"levelo://app?vid=1a90ad3a-447a-4014-8cf5-1bb8f629a10e","ios":"levelo://app?vid=1a90ad3a-447a-4014-8cf5-1bb8f629a10e"},"vehicle_type_id":"4","last_reported":1728745719,"current_range_meters":24800,"station_id":"ce4bgph2rcd13ifvqc2g","pricing_plan_id":"cebpf4jnsgd1na2vs0mg"},{"bike_id":"92c1af36-5649-40f5-84ed-a7b062884571","system_id":"levelo_inurba_marseille","lat":43.23967,"lon":5.36628,"is_reserved":false,"is_disabled":false,"rental_uris":{"android":"levelo://app?vid=92c1af36-5649-40f5-84ed-a7b062884571","ios":"levelo://app?vid=92c1af36-5649-40f5-84ed-a7b062884571"},"vehicle_type_id":"4","last_reported":1728745719,"current_range_meters":33600,"station_id":"ce4bhi12rcd13ifvqfp0","pricing_plan_id":"cebpf4jnsgd1na2vs0mg"},{"bike_id":"e96fc579-e18d-4b93-809a-53572064d07e","system_id":"levelo_inurba_marseille","lat":43.2893,"lon":5.36657,"is_reserved":false,"is_disabled":false,"rental_uris":{"android":"levelo://app?vid=e96fc579-e18d-4b93-809a-53572064d07e","ios":"levelo://app?vid=e96fc579-e18d-4b93-809a-53572064d07e"},"vehicle_type_id":"4","last_reported":1728745719,"current_range_meters":9200,"station_id":"ce4bhap2rcd13ifvqek0","pricing_plan_id":"cebpf4jnsgd1na2vs0mg"},{"bike_id":"6cb5b02c-2401-484a-8b7d-b4d2106d6b08","system_id":"levelo_inurba_marseille","lat":43.23199,"lon":5.35553,"is_reserved":false,"is_disabled":false,"rental_uris":{"android":"levelo://app?vid=6cb5b02c-2401-484a-8b7d-b4d2106d6b08","ios":"levelo://app?vid=6cb5b02c-2401-484a-8b7d-b4d2106d6b08"},"vehicle_type_id":"4","last_reported":1728745719,"current_range_meters":30800,"station_id":"ce4bhu92rcd13ifvqi70","pricing_plan_id":"cebpf4jnsgd1na2vs0mg"},{"bike_id":"2297a603-ffdf-4296-809f-38805c35e3e1","system_id":"levelo_inurba_marseille","lat":43.31761,"lon":5.39001,"is_reserved":false,"is_disabled":false,"rental_uris":{"android":"levelo://app?vid=2297a603-ffdf-4296-809f-38805c35e3e1","ios":"levelo://app?vid=2297a603-ffdf-4296-809f-38805c35e3e1"},"vehicle_type_id":"4","last_reported":1728745719,"current_range_meters":38800,"station_id":"ce4bhqp2rcd13ifvqhng","pricing_plan_id":"cebpf4jnsgd1na2vs0mg"},{"bike_id":"c88cdfb0-4bf9-4a8c-8ce2-b63c2598193b","system_id":"levelo_inurba_marseille","lat":43.29578,"lon":5.3673,"is_reserved":false,"is_disabled":false,"rental_uris":{"android":"levelo://app?vid=c88cdfb0-4bf9-4a8c-8ce2-b63c2598193b","ios":"levelo://app?vid=c88cdfb0-4bf9-4a8c-8ce2-b63c2598193b"},"vehicle_type_id":"4","last_reported":1728745719,"current_range_meters":36800,"station_id":"ce4bgph2rcd13ifvqc2g","pricing_plan_id":"cebpf4jnsgd1na2vs0mg"},{"bike_id":"eac4e8f1-ac84-4048-ad4c-5213afa836f2","system_id":"levelo_inurba_marseille","lat":43.27133,"lon":5.40011,"is_reserved":false,"is_disabled":false,"rental_uris":{"android":"levelo://app?vid=eac4e8f1-ac84-4048-ad4c-5213afa836f2","ios":"levelo://app?vid=eac4e8f1-ac84-4048-ad4c-5213afa836f2"},"vehicle_type_id":"4","last_reported":1728745719,"current_range_meters":24400,"station_id":"","pricing_plan_id":"cebpf4jnsgd1na2vs0mg"},{"bike_id":"3cefb2cd-0e86-429c-b21e-6c0c5fe39dde","system_id":"levelo_inurba_marseille","lat":43.26783,"lon":5.39414,"is_reserved":false,"is_disabled":false,"rental_uris":{"android":"levelo://app?vid=3cefb2cd-0e86-429c-b21e-6c0c5fe39dde","ios":"levelo://app?vid=3cefb2cd-0e86-429c-b21e-6c0c5fe39dde"},"vehicle_type_id":"4","last_reported":1728745719,"current_range_meters":38800,"station_id":"ce4bhh12rcd13ifvqfg0","pricing_plan_id":"cebpf4jnsgd1na2vs0mg"},{"bike_id":"c5464d19-7e89-4b17-8180-fdd3350999d7","system_id":"levelo_inurba_marseille","lat":43.27049,"lon":5.4026,"is_reserved":false,"is_disabled":false,"rental_uris":{"android":"levelo://app?vid=c5464d19-7e89-4b17-8180-fdd3350999d7","ios":"levelo://app?vid=c5464d19-7e89-4b17-8180-fdd3350999d7"},"vehicle_type_id":"4","last_reported":1728745719,"current_range_meters":4400,"station_id":"ce4bhk92rcd13ifvqgc0","pricing_plan_id":"cebpf4jnsgd1na2vs0mg"},{"bike_id":"accb871e-a6d6-4416-b0e7-cca548384eeb","system_id":"levelo_inurba_marseille","lat":43.26552,"lon":5.37282,"is_reserved":false,"is_disabled":false,"rental_uris":{"android":"levelo://app?vid=accb871e-a6d6-4416-b0e7-cca548384eeb","ios":"levelo://app?vid=accb871e-a6d6-4416-b0e7-cca548384eeb"},"vehicle_type_id":"4","last_reported":1728745719,"current_range_meters":37600,"station_id":"ce4bhg12rcd13ifvqf70","pricing_plan_id":"cebpf4jnsgd1na2vs0mg"},{"bike_id":"b93e1d22-da02-4463-b7cf-6df40b34bd2b","system_id":"levelo_inurba_marseille","lat":43.24997,"lon":5.38934,"is_reserved":false,"is_disabled":false,"rental_uris":{"android":"levelo://app?vid=b93e1d22-da02-4463-b7cf-6df40b34bd2b","ios":"levelo://app?vid=b93e1d22-da02-4463-b7cf-6df40b34bd2b"},"vehicle_type_id":"4","last_reported":1728745719,"current_range_meters":25200,"station_id":"ce4bhgp2rcd13ifvqfd0","pricing_plan_id":"cebpf4jnsgd1na2vs0mg"},{"bike_id":"c675b22c-c93c-44bd-ada5-be134af7cbc6","system_id":"levelo_inurba_marseille","lat":43.31884,"lon":5.40736,"is_reserved":false,"is_disabled":false,"rental_uris":{"android":"levelo://app?vid=c675b22c-c93c-44bd-ada5-be134af7cbc6","ios":"levelo://app?vid=c675b22c-c93c-44bd-ada5-be134af7cbc6"},"vehicle_type_id":"4","last_reported":1728745719,"current_range_meters":37600,"station_id":"ce4bhq12rcd13ifvqhig","pricing_plan_id":"cebpf4jnsgd1na2vs0mg"},{"bike_id":"ed6f5853-c281-4213-8ebc-213791edfd0a","system_id":"levelo_inurba_marseille","lat":43.24387,"lon":5.37062,"is_reserved":false,"is_disabled":false,"rental_uris":{"android":"levelo://app?vid=ed6f5853-c281-4213-8ebc-213791edfd0a","ios":"levelo://app?vid=ed6f5853-c281-4213-8ebc-213791edfd0a"},"vehicle_type_id":"4","last_reported":1728745719,"current_range_meters":36400,"station_id":"ce4bhhh2rcd13ifvqfk0","pricing_plan_id":"cebpf4jnsgd1na2vs0mg"},{"bike_id":"0dc9b50f-b2f6-42d2-92e5-8250c249e42c","system_id":"levelo_inurba_marseille","lat":43.248062,"lon":5.374567,"is_reserved":false,"is_disabled":false,"rental_uris":{"android":"levelo://app?vid=0dc9b50f-b2f6-42d2-92e5-8250c249e42c","ios":"levelo://app?vid=0dc9b50f-b2f6-42d2-92e5-8250c249e42c"},"vehicle_type_id":"4","last_reported":1728745719,"current_range_meters":12400,"station_id":"ce4bhgh2rcd13ifvqfb0","pricing_plan_id":"cebpf4jnsgd1na2vs0mg"},{"bike_id":"ab60104f-a926-4f8b-ac10-c5f372e3525e","system_id":"levelo_inurba_marseille","lat":43.25868,"lon":5.39896,"is_reserved":false,"is_disabled":false,"rental_uris":{"android":"levelo://app?vid=ab60104f-a926-4f8b-ac10-c5f372e3525e","ios":"levelo://app?vid=ab60104f-a926-4f8b-ac10-c5f372e3525e"},"vehicle_type_id":"4","last_reported":1728745719,"current_range_meters":38800,"station_id":"ce4bhl92rcd13ifvqghg","pricing_plan_id":"cebpf4jnsgd1na2vs0mg"},{"bike_id":"01dcbdb8-26bd-4cf3-b8d6-b1019cbe1ddb","system_id":"levelo_inurba_marseille","lat":43.27809,"lon":5.40704,"is_reserved":false,"is_disabled":false,"rental_uris":{"android":"levelo://app?vid=01dcbdb8-26bd-4cf3-b8d6-b1019cbe1ddb","ios":"levelo://app?vid=01dcbdb8-26bd-4cf3-b8d6-b1019cbe1ddb"},"vehicle_type_id":"4","last_reported":1728745719,"current_range_meters":38800,"station_id":"ce4bhnh2rcd13ifvqgtg","pricing_plan_id":"cebpf4jnsgd1na2vs0mg"},{"bike_id":"25e59862-8a09-482d-b3a5-7138deb4afc5","system_id":"levelo_inurba_marseille","lat":43.2306,"lon":5.3549,"is_reserved":false,"is_disabled":false,"rental_uris":{"android":"levelo://app?vid=25e59862-8a09-482d-b3a5-7138deb4afc5","ios":"levelo://app?vid=25e59862-8a09-482d-b3a5-7138deb4afc5"},"vehicle_type_id":"4","last_reported":1728745719,"current_range_meters":19200,"station_id":"cpo3342slgdg3j2ifvpg","pricing_plan_id":"cebpf4jnsgd1na2vs0mg"},{"bike_id":"7bac7836-a75a-491f-98e0-0ff022602dac","system_id":"levelo_inurba_marseille","lat":43.2962,"lon":5.37171,"is_reserved":false,"is_disabled":false,"rental_uris":{"android":"levelo://app?vid=7bac7836-a75a-491f-98e0-0ff022602dac","ios":"levelo://app?vid=7bac7836-a75a-491f-98e0-0ff022602dac"},"vehicle_type_id":"4","last_reported":1728745719,"current_range_meters":14000,"station_id":"ce4bgnh2rcd13ifvqc0g","pricing_plan_id":"cebpf4jnsgd1na2vs0mg"},{"bike_id":"c1935fc9-98d9-43d0-b3ab-499b26d70188","system_id":"levelo_inurba_marseille","lat":43.3176,"lon":5.39011,"is_reserved":false,"is_disabled":false,"rental_uris":{"android":"levelo://app?vid=c1935fc9-98d9-43d0-b3ab-499b26d70188","ios":"levelo://app?vid=c1935fc9-98d9-43d0-b3ab-499b26d70188"},"vehicle_type_id":"4","last_reported":1728745719,"current_range_meters":4400,"station_id":"ce4bhqp2rcd13ifvqhng","pricing_plan_id":"cebpf4jnsgd1na2vs0mg"},{"bike_id":"b933402b-d1ca-49a8-bbf7-fb19281d941c","system_id":"levelo_inurba_marseille","lat":43.23197,"lon":5.3555,"is_reserved":false,"is_disabled":false,"rental_uris":{"android":"levelo://app?vid=b933402b-d1ca-49a8-bbf7-fb19281d941c","ios":"levelo://app?vid=b933402b-d1ca-49a8-bbf7-fb19281d941c"},"vehicle_type_id":"4","last_reported":1728745719,"current_range_meters":20000,"station_id":"ce4bhu92rcd13ifvqi70","pricing_plan_id":"cebpf4jnsgd1na2vs0mg"},{"bike_id":"68a48546-28ec-4218-a008-021a1ba46359","system_id":"levelo_inurba_marseille","lat":43.25585,"lon":5.38222,"is_reserved":false,"is_disabled":false,"rental_uris":{"android":"levelo://app?vid=68a48546-28ec-4218-a008-021a1ba46359","ios":"levelo://app?vid=68a48546-28ec-4218-a008-021a1ba46359"},"vehicle_type_id":"4","last_reported":1728745719,"current_range_meters":37600,"station_id":"ce4bhih2rcd13ifvqfs0","pricing_plan_id":"cebpf4jnsgd1na2vs0mg"},{"bike_id":"bc968eca-cd6f-4115-9227-2a54b1c9c701","system_id":"levelo_inurba_marseille","lat":43.27174,"lon":5.40994,"is_reserved":false,"is_disabled":false,"rental_uris":{"android":"levelo://app?vid=bc968eca-cd6f-4115-9227-2a54b1c9c701","ios":"levelo://app?vid=bc968eca-cd6f-4115-9227-2a54b1c9c701"},"vehicle_type_id":"4","last_reported":1728745719,"current_range_meters":28000,"station_id":"ce4bhl12rcd13ifvqgf0","pricing_plan_id":"cebpf4jnsgd1na2vs0mg"},{"bike_id":"13cea10b-aa15-43fe-9a85-70a22d46d926","system_id":"levelo_inurba_marseille","lat":43.32108,"lon":5.36767,"is_reserved":false,"is_disabled":false,"rental_uris":{"android":"levelo://app?vid=13cea10b-aa15-43fe-9a85-70a22d46d926","ios":"levelo://app?vid=13cea10b-aa15-43fe-9a85-70a22d46d926"},"vehicle_type_id":"4","last_reported":1728745719,"current_range_meters":20400,"station_id":"ce4bhrh2rcd13ifvqhug","pricing_plan_id":"cebpf4jnsgd1na2vs0mg"},{"bike_id":"f33ec3ad-e077-41e4-8354-708776d0455f","system_id":"levelo_inurba_marseille","lat":43.29025,"lon":5.3814,"is_reserved":false,"is_disabled":false,"rental_uris":{"android":"levelo://app?vid=f33ec3ad-e077-41e4-8354-708776d0455f","ios":"levelo://app?vid=f33ec3ad-e077-41e4-8354-708776d0455f"},"vehicle_type_id":"4","last_reported":1728745719,"current_range_meters":36800,"station_id":"ce4bh4p2rcd13ifvqe1g","pricing_plan_id":"cebpf4jnsgd1na2vs0mg"},{"bike_id":"fae8af6e-dabe-449a-bc0f-0236de291332","system_id":"levelo_inurba_marseille","lat":43.29535,"lon":5.38559,"is_reserved":false,"is_disabled":false,"rental_uris":{"android":"levelo://app?vid=fae8af6e-dabe-449a-bc0f-0236de291332","ios":"levelo://app?vid=fae8af6e-dabe-449a-bc0f-0236de291332"},"vehicle_type_id":"4","last_reported":1728745719,"current_range_meters":16800,"station_id":"ce4bgih2rcd13ifvqba0","pricing_plan_id":"cebpf4jnsgd1na2vs0mg"},{"bike_id":"d1ab5e3f-2a17-4f92-b44f-8a4184e5871e","system_id":"levelo_inurba_marseille","lat":43.24808,"lon":5.37458,"is_reserved":false,"is_disabled":false,"rental_uris":{"android":"levelo://app?vid=d1ab5e3f-2a17-4f92-b44f-8a4184e5871e","ios":"levelo://app?vid=d1ab5e3f-2a17-4f92-b44f-8a4184e5871e"},"vehicle_type_id":"4","last_reported":1728745719,"current_range_meters":11200,"station_id":"ce4bhgh2rcd13ifvqfb0","pricing_plan_id":"cebpf4jnsgd1na2vs0mg"},{"bike_id":"f53f4fb9-6e52-425d-83a0-652ff05fd177","system_id":"levelo_inurba_marseille","lat":43.28413,"lon":5.37502,"is_reserved":false,"is_disabled":false,"rental_uris":{"android":"levelo://app?vid=f53f4fb9-6e52-425d-83a0-652ff05fd177","ios":"levelo://app?vid=f53f4fb9-6e52-425d-83a0-652ff05fd177"},"vehicle_type_id":"4","last_reported":1728745719,"current_range_meters":30800,"station_id":"ce4bh412rcd13ifvqds0","pricing_plan_id":"cebpf4jnsgd1na2vs0mg"},{"bike_id":"e4a3467e-fab8-472a-b7be-5d4d1f9882ff","system_id":"levelo_inurba_marseille","lat":43.3136,"lon":5.36696,"is_reserved":false,"is_disabled":false,"rental_uris":{"android":"levelo://app?vid=e4a3467e-fab8-472a-b7be-5d4d1f9882ff","ios":"levelo://app?vid=e4a3467e-fab8-472a-b7be-5d4d1f9882ff"},"vehicle_type_id":"4","last_reported":1728745719,"current_range_meters":35600,"station_id":"ce4bgr92rcd13ifvqc6g","pricing_plan_id":"cebpf4jnsgd1na2vs0mg"},{"bike_id":"30fa29f6-99b6-43bc-abfc-62873fbefb16","system_id":"levelo_inurba_marseille","lat":43.22932,"lon":5.35375,"is_reserved":false,"is_disabled":false,"rental_uris":{"android":"levelo://app?vid=30fa29f6-99b6-43bc-abfc-62873fbefb16","ios":"levelo://app?vid=30fa29f6-99b6-43bc-abfc-62873fbefb16"},"vehicle_type_id":"4","last_reported":1728745719,"current_range_meters":9600,"station_id":"cpo3532slgdg3j2ikp40","pricing_plan_id":"cebpf4jnsgd1na2vs0mg"},{"bike_id":"a07f585e-3484-40df-b0ec-ae33855567f1","system_id":"levelo_inurba_marseille","lat":43.27676,"lon":5.38877,"is_reserved":false,"is_disabled":false,"rental_uris":{"android":"levelo://app?vid=a07f585e-3484-40df-b0ec-ae33855567f1","ios":"levelo://app?vid=a07f585e-3484-40df-b0ec-ae33855567f1"},"vehicle_type_id":"4","last_reported":1728745719,"current_range_meters":8400,"station_id":"ce4bhi12rcd13ifvqfo0","pricing_plan_id":"cebpf4jnsgd1na2vs0mg"},{"bike_id":"fad1fea0-bac3-4330-8597-1b20baac27f5","system_id":"levelo_inurba_marseille","lat":43.28849,"lon":5.39323,"is_reserved":false,"is_disabled":false,"rental_uris":{"android":"levelo://app?vid=fad1fea0-bac3-4330-8597-1b20baac27f5","ios":"levelo://app?vid=fad1fea0-bac3-4330-8597-1b20baac27f5"},"vehicle_type_id":"4","last_reported":1728745719,"current_range_meters":32400,"station_id":"ce4bh2p2rcd13ifvqdi0","pricing_plan_id":"cebpf4jnsgd1na2vs0mg"},{"bike_id":"62622ce8-5517-46cf-9ec6-064501fd3008","system_id":"levelo_inurba_marseille","lat":43.29577,"lon":5.36738,"is_reserved":false,"is_disabled":false,"rental_uris":{"android":"levelo://app?vid=62622ce8-5517-46cf-9ec6-064501fd3008","ios":"levelo://app?vid=62622ce8-5517-46cf-9ec6-064501fd3008"},"vehicle_type_id":"4","last_reported":1728745719,"current_range_meters":18800,"station_id":"ce4bgph2rcd13ifvqc2g","pricing_plan_id":"cebpf4jnsgd1na2vs0mg"},{"bike_id":"e4f0f21e-0c3d-4d74-b01c-3addb8ce8acf","system_id":"levelo_inurba_marseille","lat":43.28352,"lon":5.38115,"is_reserved":false,"is_disabled":false,"rental_uris":{"android":"levelo://app?vid=e4f0f21e-0c3d-4d74-b01c-3addb8ce8acf","ios":"levelo://app?vid=e4f0f21e-0c3d-4d74-b01c-3addb8ce8acf"},"vehicle_type_id":"4","last_reported":1728745719,"current_range_meters":7200,"station_id":"ce4bh412rcd13ifvqdr0","pricing_plan_id":"cebpf4jnsgd1na2vs0mg"},{"bike_id":"e6336660-e5d0-4336-aab6-9e2081b4b551","system_id":"levelo_inurba_marseille","lat":43.33726,"lon":5.39198,"is_reserved":false,"is_disabled":false,"rental_uris":{"android":"levelo://app?vid=e6336660-e5d0-4336-aab6-9e2081b4b551","ios":"levelo://app?vid=e6336660-e5d0-4336-aab6-9e2081b4b551"},"vehicle_type_id":"4","last_reported":1728745719,"current_range_meters":24000,"station_id":"ce4bhr92rcd13ifvqhsg","pricing_plan_id":"cebpf4jnsgd1na2vs0mg"},{"bike_id":"ab47664c-0450-4138-b005-9b8e1b8810bd","system_id":"levelo_inurba_marseille","lat":43.29578,"lon":5.36739,"is_reserved":false,"is_disabled":false,"rental_uris":{"android":"levelo://app?vid=ab47664c-0450-4138-b005-9b8e1b8810bd","ios":"levelo://app?vid=ab47664c-0450-4138-b005-9b8e1b8810bd"},"vehicle_type_id":"4","last_reported":1728745719,"current_range_meters":38800,"station_id":"ce4bgph2rcd13ifvqc2g","pricing_plan_id":"cebpf4jnsgd1na2vs0mg"},{"bike_id":"a11c25de-f1d8-4f1e-9036-bb73f5a03114","system_id":"levelo_inurba_marseille","lat":43.29259,"lon":5.38433,"is_reserved":false,"is_disabled":false,"rental_uris":{"android":"levelo://app?vid=a11c25de-f1d8-4f1e-9036-bb73f5a03114","ios":"levelo://app?vid=a11c25de-f1d8-4f1e-9036-bb73f5a03114"},"vehicle_type_id":"4","last_reported":1728745719,"current_range_meters":24000,"station_id":"ce4bh692rcd13ifvqea0","pricing_plan_id":"cebpf4jnsgd1na2vs0mg"},{"bike_id":"159b48e8-4712-48cd-aa4b-083ea0ae9a87","system_id":"levelo_inurba_marseille","lat":43.25297,"lon":5.40216,"is_reserved":false,"is_disabled":false,"rental_uris":{"android":"levelo://app?vid=159b48e8-4712-48cd-aa4b-083ea0ae9a87","ios":"levelo://app?vid=159b48e8-4712-48cd-aa4b-083ea0ae9a87"},"vehicle_type_id":"4","last_reported":1728745719,"current_range_meters":2800,"station_id":"","pricing_plan_id":"cebpf4jnsgd1na2vs0mg"},{"bike_id":"8fe8aa96-9d30-4c4c-b911-77ddb0f9b595","system_id":"levelo_inurba_marseille","lat":43.29619,"lon":5.37153,"is_reserved":false,"is_disabled":false,"rental_uris":{"android":"levelo://app?vid=8fe8aa96-9d30-4c4c-b911-77ddb0f9b595","ios":"levelo://app?vid=8fe8aa96-9d30-4c4c-b911-77ddb0f9b595"},"vehicle_type_id":"4","last_reported":1728745719,"current_range_meters":38000,"station_id":"ce4bgnh2rcd13ifvqc0g","pricing_plan_id":"cebpf4jnsgd1na2vs0mg"},{"bike_id":"55582e1e-1cd8-4e96-933c-025471d1c473","system_id":"levelo_inurba_marseille","lat":43.26944,"lon":5.38936,"is_reserved":false,"is_disabled":false,"rental_uris":{"android":"levelo://app?vid=55582e1e-1cd8-4e96-933c-025471d1c473","ios":"levelo://app?vid=55582e1e-1cd8-4e96-933c-025471d1c473"},"vehicle_type_id":"4","last_reported":1728745719,"current_range_meters":10800,"station_id":"ce4bhhh2rcd13ifvqfl0","pricing_plan_id":"cebpf4jnsgd1na2vs0mg"},{"bike_id":"827f06d8-ce2f-46a5-96e7-1ae5a8b2316d","system_id":"levelo_inurba_marseille","lat":43.27549,"lon":5.38432,"is_reserved":false,"is_disabled":false,"rental_uris":{"android":"levelo://app?vid=827f06d8-ce2f-46a5-96e7-1ae5a8b2316d","ios":"levelo://app?vid=827f06d8-ce2f-46a5-96e7-1ae5a8b2316d"},"vehicle_type_id":"4","last_reported":1728745719,"current_range_meters":37600,"station_id":"ce4bhh92rcd13ifvqfi0","pricing_plan_id":"cebpf4jnsgd1na2vs0mg"},{"bike_id":"ee051660-567f-455b-962a-2f2ee930e880","system_id":"levelo_inurba_marseille","lat":43.29784,"lon":5.3811,"is_reserved":false,"is_disabled":false,"rental_uris":{"android":"levelo://app?vid=ee051660-567f-455b-962a-2f2ee930e880","ios":"levelo://app?vid=ee051660-567f-455b-962a-2f2ee930e880"},"vehicle_type_id":"4","last_reported":1728745719,"current_range_meters":38000,"station_id":"ce4bgip2rcd13ifvqbb0","pricing_plan_id":"cebpf4jnsgd1na2vs0mg"},{"bike_id":"17f0a58b-fa96-470d-a1b0-89c2a0c2bfbe","system_id":"levelo_inurba_marseille","lat":43.23189,"lon":5.3555,"is_reserved":false,"is_disabled":false,"rental_uris":{"android":"levelo://app?vid=17f0a58b-fa96-470d-a1b0-89c2a0c2bfbe","ios":"levelo://app?vid=17f0a58b-fa96-470d-a1b0-89c2a0c2bfbe"},"vehicle_type_id":"4","last_reported":1728745719,"current_range_meters":22800,"station_id":"ce4bhu92rcd13ifvqi70","pricing_plan_id":"cebpf4jnsgd1na2vs0mg"},{"bike_id":"e0855b8f-f92b-46bb-a8df-591cacc56865","system_id":"levelo_inurba_marseille","lat":43.30549,"lon":5.3655,"is_reserved":false,"is_disabled":false,"rental_uris":{"android":"levelo://app?vid=e0855b8f-f92b-46bb-a8df-591cacc56865","ios":"levelo://app?vid=e0855b8f-f92b-46bb-a8df-591cacc56865"},"vehicle_type_id":"4","last_reported":1728745719,"current_range_meters":16000,"station_id":"ce4bgs12rcd13ifvqcag","pricing_plan_id":"cebpf4jnsgd1na2vs0mg"},{"bike_id":"0383fd16-e9b8-4410-b536-493a9708d1c6","system_id":"levelo_inurba_marseille","lat":43.33026,"lon":5.39033,"is_reserved":false,"is_disabled":false,"rental_uris":{"android":"levelo://app?vid=0383fd16-e9b8-4410-b536-493a9708d1c6","ios":"levelo://app?vid=0383fd16-e9b8-4410-b536-493a9708d1c6"},"vehicle_type_id":"4","last_reported":1728745719,"current_range_meters":16400,"station_id":"ce4bhr92rcd13ifvqhrg","pricing_plan_id":"cebpf4jnsgd1na2vs0mg"},{"bike_id":"b25409bc-df4d-476a-893e-c6a5838692b2","system_id":"levelo_inurba_marseille","lat":43.23195,"lon":5.35553,"is_reserved":false,"is_disabled":false,"rental_uris":{"android":"levelo://app?vid=b25409bc-df4d-476a-893e-c6a5838692b2","ios":"levelo://app?vid=b25409bc-df4d-476a-893e-c6a5838692b2"},"vehicle_type_id":"4","last_reported":1728745719,"current_range_meters":39200,"station_id":"ce4bhu92rcd13ifvqi70","pricing_plan_id":"cebpf4jnsgd1na2vs0mg"},{"bike_id":"8fb2b431-bcb9-46ba-80fb-e26e84592fc5","system_id":"levelo_inurba_marseille","lat":43.23192,"lon":5.35555,"is_reserved":false,"is_disabled":false,"rental_uris":{"android":"levelo://app?vid=8fb2b431-bcb9-46ba-80fb-e26e84592fc5","ios":"levelo://app?vid=8fb2b431-bcb9-46ba-80fb-e26e84592fc5"},"vehicle_type_id":"4","last_reported":1728745719,"current_range_meters":30800,"station_id":"ce4bhu92rcd13ifvqi70","pricing_plan_id":"cebpf4jnsgd1na2vs0mg"},{"bike_id":"3b838b7d-61e5-4ebf-a7bc-5955890a35ae","system_id":"levelo_inurba_marseille","lat":43.296251,"lon":5.371611,"is_reserved":false,"is_disabled":false,"rental_uris":{"android":"levelo://app?vid=3b838b7d-61e5-4ebf-a7bc-5955890a35ae","ios":"levelo://app?vid=3b838b7d-61e5-4ebf-a7bc-5955890a35ae"},"vehicle_type_id":"4","last_reported":1728745719,"current_range_meters":16000,"station_id":"ce4bgnh2rcd13ifvqc0g","pricing_plan_id":"cebpf4jnsgd1na2vs0mg"},{"bike_id":"ab0eebf0-db22-498d-b02e-b976afec7bf0","system_id":"levelo_inurba_marseille","lat":43.254974,"lon":5.376306,"is_reserved":false,"is_disabled":false,"rental_uris":{"android":"levelo://app?vid=ab0eebf0-db22-498d-b02e-b976afec7bf0","ios":"levelo://app?vid=ab0eebf0-db22-498d-b02e-b976afec7bf0"},"vehicle_type_id":"4","last_reported":1728745719,"current_range_meters":6800,"station_id":"ce4bhh12rcd13ifvqff0","pricing_plan_id":"cebpf4jnsgd1na2vs0mg"},{"bike_id":"e2f25126-29b7-4581-a4fe-9e458716fb1d","system_id":"levelo_inurba_marseille","lat":43.23962,"lon":5.36628,"is_reserved":false,"is_disabled":false,"rental_uris":{"android":"levelo://app?vid=e2f25126-29b7-4581-a4fe-9e458716fb1d","ios":"levelo://app?vid=e2f25126-29b7-4581-a4fe-9e458716fb1d"},"vehicle_type_id":"4","last_reported":1728745719,"current_range_meters":28000,"station_id":"ce4bhi12rcd13ifvqfp0","pricing_plan_id":"cebpf4jnsgd1na2vs0mg"},{"bike_id":"386afdab-5ca5-4bd2-984e-31a0a109f099","system_id":"levelo_inurba_marseille","lat":43.3014,"lon":5.37419,"is_reserved":false,"is_disabled":false,"rental_uris":{"android":"levelo://app?vid=386afdab-5ca5-4bd2-984e-31a0a109f099","ios":"levelo://app?vid=386afdab-5ca5-4bd2-984e-31a0a109f099"},"vehicle_type_id":"4","last_reported":1728745719,"current_range_meters":39200,"station_id":"ce4bgs92rcd13ifvqcc0","pricing_plan_id":"cebpf4jnsgd1na2vs0mg"},{"bike_id":"8dc8b5c8-f938-440d-b2c2-9a921dbd5488","system_id":"levelo_inurba_marseille","lat":43.26933,"lon":5.38911,"is_reserved":false,"is_disabled":false,"rental_uris":{"android":"levelo://app?vid=8dc8b5c8-f938-440d-b2c2-9a921dbd5488","ios":"levelo://app?vid=8dc8b5c8-f938-440d-b2c2-9a921dbd5488"},"vehicle_type_id":"4","last_reported":1728745719,"current_range_meters":38800,"station_id":"ce4bhhh2rcd13ifvqfl0","pricing_plan_id":"cebpf4jnsgd1na2vs0mg"},{"bike_id":"21f68cbd-8241-403e-bcc4-932d38c5066d","system_id":"levelo_inurba_marseille","lat":43.29602,"lon":5.38102,"is_reserved":false,"is_disabled":false,"rental_uris":{"android":"levelo://app?vid=21f68cbd-8241-403e-bcc4-932d38c5066d","ios":"levelo://app?vid=21f68cbd-8241-403e-bcc4-932d38c5066d"},"vehicle_type_id":"4","last_reported":1728745719,"current_range_meters":27200,"station_id":"ce4bgl12rcd13ifvqbo0","pricing_plan_id":"cebpf4jnsgd1na2vs0mg"},{"bike_id":"e6d95782-3d20-4b54-bda7-485ef01c4d65","system_id":"levelo_inurba_marseille","lat":43.27428,"lon":5.39398,"is_reserved":false,"is_disabled":false,"rental_uris":{"android":"levelo://app?vid=e6d95782-3d20-4b54-bda7-485ef01c4d65","ios":"levelo://app?vid=e6d95782-3d20-4b54-bda7-485ef01c4d65"},"vehicle_type_id":"4","last_reported":1728745719,"current_range_meters":38800,"station_id":"ce4bhdp2rcd13ifvqf20","pricing_plan_id":"cebpf4jnsgd1na2vs0mg"},{"bike_id":"d1c7e8a4-b77e-4de5-9348-2775dac74185","system_id":"levelo_inurba_marseille","lat":43.29806,"lon":5.38089,"is_reserved":false,"is_disabled":false,"rental_uris":{"android":"levelo://app?vid=d1c7e8a4-b77e-4de5-9348-2775dac74185","ios":"levelo://app?vid=d1c7e8a4-b77e-4de5-9348-2775dac74185"},"vehicle_type_id":"4","last_reported":1728745719,"current_range_meters":39200,"station_id":"ce4bgip2rcd13ifvqbb0","pricing_plan_id":"cebpf4jnsgd1na2vs0mg"},{"bike_id":"7403741e-4245-45ff-b3ef-ff0586b4a575","system_id":"levelo_inurba_marseille","lat":43.29009,"lon":5.35607,"is_reserved":false,"is_disabled":false,"rental_uris":{"android":"levelo://app?vid=7403741e-4245-45ff-b3ef-ff0586b4a575","ios":"levelo://app?vid=7403741e-4245-45ff-b3ef-ff0586b4a575"},"vehicle_type_id":"4","last_reported":1728745719,"current_range_meters":8000,"station_id":"ce4bhb92rcd13ifvqen0","pricing_plan_id":"cebpf4jnsgd1na2vs0mg"},{"bike_id":"dfb27903-3541-4f9d-9283-5d3345b57dd7","system_id":"levelo_inurba_marseille","lat":43.28111,"lon":5.37847,"is_reserved":false,"is_disabled":false,"rental_uris":{"android":"levelo://app?vid=dfb27903-3541-4f9d-9283-5d3345b57dd7","ios":"levelo://app?vid=dfb27903-3541-4f9d-9283-5d3345b57dd7"},"vehicle_type_id":"4","last_reported":1728745719,"current_range_meters":37600,"station_id":"ce4bha12rcd13ifvqee0","pricing_plan_id":"cebpf4jnsgd1na2vs0mg"},{"bike_id":"b3b2de45-6e13-4551-8667-b0149c47447a","system_id":"levelo_inurba_marseille","lat":43.23156,"lon":5.437,"is_reserved":false,"is_disabled":false,"rental_uris":{"android":"levelo://app?vid=b3b2de45-6e13-4551-8667-b0149c47447a","ios":"levelo://app?vid=b3b2de45-6e13-4551-8667-b0149c47447a"},"vehicle_type_id":"4","last_reported":1728745719,"current_range_meters":20000,"station_id":"ce4bhmp2rcd13ifvqgog","pricing_plan_id":"cebpf4jnsgd1na2vs0mg"},{"bike_id":"b1990f25-927c-4207-910f-d5bc58d49ea7","system_id":"levelo_inurba_marseille","lat":43.24179,"lon":5.39723,"is_reserved":false,"is_disabled":false,"rental_uris":{"android":"levelo://app?vid=b1990f25-927c-4207-910f-d5bc58d49ea7","ios":"levelo://app?vid=b1990f25-927c-4207-910f-d5bc58d49ea7"},"vehicle_type_id":"4","last_reported":1728745719,"current_range_meters":4400,"station_id":"ce4bhn12rcd13ifvqgpg","pricing_plan_id":"cebpf4jnsgd1na2vs0mg"},{"bike_id":"e6049eb7-a913-4c30-b891-92576278de4c","system_id":"levelo_inurba_marseille","lat":43.24803,"lon":5.37451,"is_reserved":false,"is_disabled":false,"rental_uris":{"android":"levelo://app?vid=e6049eb7-a913-4c30-b891-92576278de4c","ios":"levelo://app?vid=e6049eb7-a913-4c30-b891-92576278de4c"},"vehicle_type_id":"4","last_reported":1728745719,"current_range_meters":27600,"station_id":"ce4bhgh2rcd13ifvqfb0","pricing_plan_id":"cebpf4jnsgd1na2vs0mg"},{"bike_id":"64d3378c-e0ea-4570-8db3-f47dc1281eb5","system_id":"levelo_inurba_marseille","lat":43.24803,"lon":5.3745,"is_reserved":false,"is_disabled":false,"rental_uris":{"android":"levelo://app?vid=64d3378c-e0ea-4570-8db3-f47dc1281eb5","ios":"levelo://app?vid=64d3378c-e0ea-4570-8db3-f47dc1281eb5"},"vehicle_type_id":"4","last_reported":1728745719,"current_range_meters":9600,"station_id":"ce4bhgh2rcd13ifvqfb0","pricing_plan_id":"cebpf4jnsgd1na2vs0mg"},{"bike_id":"3995ecb7-d449-4ee1-8785-e5517cffed3d","system_id":"levelo_inurba_marseille","lat":43.27565,"lon":5.38409,"is_reserved":false,"is_disabled":false,"rental_uris":{"android":"levelo://app?vid=3995ecb7-d449-4ee1-8785-e5517cffed3d","ios":"levelo://app?vid=3995ecb7-d449-4ee1-8785-e5517cffed3d"},"vehicle_type_id":"4","last_reported":1728745719,"current_range_meters":38000,"station_id":"ce4bhh92rcd13ifvqfi0","pricing_plan_id":"cebpf4jnsgd1na2vs0mg"},{"bike_id":"0beef6cb-481a-414a-93f6-7f4854df3fa6","system_id":"levelo_inurba_marseille","lat":43.27677,"lon":5.38862,"is_reserved":false,"is_disabled":false,"rental_uris":{"android":"levelo://app?vid=0beef6cb-481a-414a-93f6-7f4854df3fa6","ios":"levelo://app?vid=0beef6cb-481a-414a-93f6-7f4854df3fa6"},"vehicle_type_id":"4","last_reported":1728745719,"current_range_meters":22000,"station_id":"ce4bhi12rcd13ifvqfo0","pricing_plan_id":"cebpf4jnsgd1na2vs0mg"},{"bike_id":"19e0e40e-63be-4804-b3b8-2787230e9bca","system_id":"levelo_inurba_marseille","lat":43.2962,"lon":5.37165,"is_reserved":false,"is_disabled":false,"rental_uris":{"android":"levelo://app?vid=19e0e40e-63be-4804-b3b8-2787230e9bca","ios":"levelo://app?vid=19e0e40e-63be-4804-b3b8-2787230e9bca"},"vehicle_type_id":"4","last_reported":1728745719,"current_range_meters":39200,"station_id":"ce4bgnh2rcd13ifvqc0g","pricing_plan_id":"cebpf4jnsgd1na2vs0mg"},{"bike_id":"b9a64df2-122d-44d5-b6d8-c291946ea5f0","system_id":"levelo_inurba_marseille","lat":43.2923,"lon":5.36075,"is_reserved":false,"is_disabled":false,"rental_uris":{"android":"levelo://app?vid=b9a64df2-122d-44d5-b6d8-c291946ea5f0","ios":"levelo://app?vid=b9a64df2-122d-44d5-b6d8-c291946ea5f0"},"vehicle_type_id":"4","last_reported":1728745719,"current_range_meters":33600,"station_id":"ce4bhbh2rcd13ifvqeqg","pricing_plan_id":"cebpf4jnsgd1na2vs0mg"},{"bike_id":"a3b990e1-d55b-440c-9480-31946d2d9e8e","system_id":"levelo_inurba_marseille","lat":43.2979,"lon":5.37102,"is_reserved":false,"is_disabled":false,"rental_uris":{"android":"levelo://app?vid=a3b990e1-d55b-440c-9480-31946d2d9e8e","ios":"levelo://app?vid=a3b990e1-d55b-440c-9480-31946d2d9e8e"},"vehicle_type_id":"4","last_reported":1728745719,"current_range_meters":38400,"station_id":"ce4bgop2rcd13ifvqc1g","pricing_plan_id":"cebpf4jnsgd1na2vs0mg"},{"bike_id":"2d389120-6a09-49fe-a25c-e21dd5071970","system_id":"levelo_inurba_marseille","lat":43.28616,"lon":5.35101,"is_reserved":false,"is_disabled":false,"rental_uris":{"android":"levelo://app?vid=2d389120-6a09-49fe-a25c-e21dd5071970","ios":"levelo://app?vid=2d389120-6a09-49fe-a25c-e21dd5071970"},"vehicle_type_id":"4","last_reported":1728745719,"current_range_meters":35200,"station_id":"ce4bhch2rcd13ifvqeug","pricing_plan_id":"cebpf4jnsgd1na2vs0mg"},{"bike_id":"133f35eb-be84-49cf-8db4-2afb09de71e4","system_id":"levelo_inurba_marseille","lat":43.31355,"lon":5.36713,"is_reserved":false,"is_disabled":false,"rental_uris":{"android":"levelo://app?vid=133f35eb-be84-49cf-8db4-2afb09de71e4","ios":"levelo://app?vid=133f35eb-be84-49cf-8db4-2afb09de71e4"},"vehicle_type_id":"4","last_reported":1728745719,"current_range_meters":38000,"station_id":"ce4bgr92rcd13ifvqc6g","pricing_plan_id":"cebpf4jnsgd1na2vs0mg"},{"bike_id":"d7213e9f-e259-4043-a9b0-926d0b5839fd","system_id":"levelo_inurba_marseille","lat":43.29976,"lon":5.38491,"is_reserved":false,"is_disabled":false,"rental_uris":{"android":"levelo://app?vid=d7213e9f-e259-4043-a9b0-926d0b5839fd","ios":"levelo://app?vid=d7213e9f-e259-4043-a9b0-926d0b5839fd"},"vehicle_type_id":"4","last_reported":1728745719,"current_range_meters":11200,"station_id":"ce4bgj92rcd13ifvqbd0","pricing_plan_id":"cebpf4jnsgd1na2vs0mg"},{"bike_id":"5ab70f1b-3f2c-4f8b-a0cc-cdba02fd83d4","system_id":"levelo_inurba_marseille","lat":43.32479,"lon":5.3656,"is_reserved":false,"is_disabled":false,"rental_uris":{"android":"levelo://app?vid=5ab70f1b-3f2c-4f8b-a0cc-cdba02fd83d4","ios":"levelo://app?vid=5ab70f1b-3f2c-4f8b-a0cc-cdba02fd83d4"},"vehicle_type_id":"4","last_reported":1728745719,"current_range_meters":22000,"station_id":"ce4bhs12rcd13ifvqhvg","pricing_plan_id":"cebpf4jnsgd1na2vs0mg"},{"bike_id":"c6483540-ded4-49b8-8d23-62c26cc8813f","system_id":"levelo_inurba_marseille","lat":43.29809,"lon":5.38082,"is_reserved":false,"is_disabled":false,"rental_uris":{"android":"levelo://app?vid=c6483540-ded4-49b8-8d23-62c26cc8813f","ios":"levelo://app?vid=c6483540-ded4-49b8-8d23-62c26cc8813f"},"vehicle_type_id":"4","last_reported":1728745719,"current_range_meters":13600,"station_id":"ce4bgip2rcd13ifvqbb0","pricing_plan_id":"cebpf4jnsgd1na2vs0mg"},{"bike_id":"4ef6fcc8-e29f-4f7b-bfb6-492772c7e8d5","system_id":"levelo_inurba_marseille","lat":43.26204,"lon":5.37925,"is_reserved":false,"is_disabled":false,"rental_uris":{"android":"levelo://app?vid=4ef6fcc8-e29f-4f7b-bfb6-492772c7e8d5","ios":"levelo://app?vid=4ef6fcc8-e29f-4f7b-bfb6-492772c7e8d5"},"vehicle_type_id":"4","last_reported":1728745719,"current_range_meters":38800,"station_id":"ce4bhjp2rcd13ifvqg90","pricing_plan_id":"cebpf4jnsgd1na2vs0mg"},{"bike_id":"092b0836-7fc6-4398-a8ce-013142346652","system_id":"levelo_inurba_marseille","lat":43.29549,"lon":5.42283,"is_reserved":false,"is_disabled":false,"rental_uris":{"android":"levelo://app?vid=092b0836-7fc6-4398-a8ce-013142346652","ios":"levelo://app?vid=092b0836-7fc6-4398-a8ce-013142346652"},"vehicle_type_id":"4","last_reported":1728745719,"current_range_meters":16400,"station_id":"ce4bhph2rcd13ifvqhdg","pricing_plan_id":"cebpf4jnsgd1na2vs0mg"},{"bike_id":"5215c02b-9ef4-43e3-a63b-5be648682d97","system_id":"levelo_inurba_marseille","lat":43.29271,"lon":5.36837,"is_reserved":false,"is_disabled":false,"rental_uris":{"android":"levelo://app?vid=5215c02b-9ef4-43e3-a63b-5be648682d97","ios":"levelo://app?vid=5215c02b-9ef4-43e3-a63b-5be648682d97"},"vehicle_type_id":"4","last_reported":1728745719,"current_range_meters":4800,"station_id":"ce4bhbp2rcd13ifvqesg","pricing_plan_id":"cebpf4jnsgd1na2vs0mg"},{"bike_id":"0e05ad9f-cdae-4c0b-871f-37599bddacee","system_id":"levelo_inurba_marseille","lat":43.29073,"lon":5.37167,"is_reserved":false,"is_disabled":false,"rental_uris":{"android":"levelo://app?vid=0e05ad9f-cdae-4c0b-871f-37599bddacee","ios":"levelo://app?vid=0e05ad9f-cdae-4c0b-871f-37599bddacee"},"vehicle_type_id":"4","last_reported":1728745719,"current_range_meters":20400,"station_id":"ce4bh5p2rcd13ifvqe4g","pricing_plan_id":"cebpf4jnsgd1na2vs0mg"},{"bike_id":"0431a0d6-f983-494b-95d5-fa5e1c25101d","system_id":"levelo_inurba_marseille","lat":43.289337,"lon":5.396237,"is_reserved":false,"is_disabled":false,"rental_uris":{"android":"levelo://app?vid=0431a0d6-f983-494b-95d5-fa5e1c25101d","ios":"levelo://app?vid=0431a0d6-f983-494b-95d5-fa5e1c25101d"},"vehicle_type_id":"4","last_reported":1728745719,"current_range_meters":19200,"station_id":"ce4bh3h2rcd13ifvqdn0","pricing_plan_id":"cebpf4jnsgd1na2vs0mg"},{"bike_id":"ba683a66-bc5f-42b6-85bb-0f00dad8b260","system_id":"levelo_inurba_marseille","lat":43.2693,"lon":5.38911,"is_reserved":false,"is_disabled":false,"rental_uris":{"android":"levelo://app?vid=ba683a66-bc5f-42b6-85bb-0f00dad8b260","ios":"levelo://app?vid=ba683a66-bc5f-42b6-85bb-0f00dad8b260"},"vehicle_type_id":"4","last_reported":1728745719,"current_range_meters":39200,"station_id":"ce4bhhh2rcd13ifvqfl0","pricing_plan_id":"cebpf4jnsgd1na2vs0mg"},{"bike_id":"1db455cd-57ef-4a47-a30a-353a9feeb44b","system_id":"levelo_inurba_marseille","lat":43.2549,"lon":5.37646,"is_reserved":false,"is_disabled":false,"rental_uris":{"android":"levelo://app?vid=1db455cd-57ef-4a47-a30a-353a9feeb44b","ios":"levelo://app?vid=1db455cd-57ef-4a47-a30a-353a9feeb44b"},"vehicle_type_id":"4","last_reported":1728745719,"current_range_meters":36800,"station_id":"ce4bhh12rcd13ifvqff0","pricing_plan_id":"cebpf4jnsgd1na2vs0mg"},{"bike_id":"c12cb0d6-db93-4418-b913-57eec8fad5ea","system_id":"levelo_inurba_marseille","lat":43.27944,"lon":5.41044,"is_reserved":false,"is_disabled":false,"rental_uris":{"android":"levelo://app?vid=c12cb0d6-db93-4418-b913-57eec8fad5ea","ios":"levelo://app?vid=c12cb0d6-db93-4418-b913-57eec8fad5ea"},"vehicle_type_id":"4","last_reported":1728745719,"current_range_meters":21600,"station_id":"ce4bhnp2rcd13ifvqh0g","pricing_plan_id":"cebpf4jnsgd1na2vs0mg"},{"bike_id":"70ce3182-d903-4b25-88d2-18289d61bc4d","system_id":"levelo_inurba_marseille","lat":43.2467,"lon":5.38159,"is_reserved":false,"is_disabled":false,"rental_uris":{"android":"levelo://app?vid=70ce3182-d903-4b25-88d2-18289d61bc4d","ios":"levelo://app?vid=70ce3182-d903-4b25-88d2-18289d61bc4d"},"vehicle_type_id":"4","last_reported":1728745719,"current_range_meters":24400,"station_id":"ce4bhih2rcd13ifvqfr0","pricing_plan_id":"cebpf4jnsgd1na2vs0mg"},{"bike_id":"aad69708-28ac-43e6-945e-619f5a7c6bfd","system_id":"levelo_inurba_marseille","lat":43.33781,"lon":5.37443,"is_reserved":false,"is_disabled":false,"rental_uris":{"android":"levelo://app?vid=aad69708-28ac-43e6-945e-619f5a7c6bfd","ios":"levelo://app?vid=aad69708-28ac-43e6-945e-619f5a7c6bfd"},"vehicle_type_id":"4","last_reported":1728745719,"current_range_meters":37600,"station_id":"","pricing_plan_id":"cebpf4jnsgd1na2vs0mg"},{"bike_id":"0de0ed70-b3d6-4823-90bf-f1596da4e1c3","system_id":"levelo_inurba_marseille","lat":43.28279,"lon":5.35078,"is_reserved":false,"is_disabled":false,"rental_uris":{"android":"levelo://app?vid=0de0ed70-b3d6-4823-90bf-f1596da4e1c3","ios":"levelo://app?vid=0de0ed70-b3d6-4823-90bf-f1596da4e1c3"},"vehicle_type_id":"4","last_reported":1728745719,"current_range_meters":4800,"station_id":"ce4bhbp2rcd13ifvqerg","pricing_plan_id":"cebpf4jnsgd1na2vs0mg"},{"bike_id":"b1e06e6e-5c0a-46ff-8c06-20a8212fe730","system_id":"levelo_inurba_marseille","lat":43.29202,"lon":5.3932,"is_reserved":false,"is_disabled":false,"rental_uris":{"android":"levelo://app?vid=b1e06e6e-5c0a-46ff-8c06-20a8212fe730","ios":"levelo://app?vid=b1e06e6e-5c0a-46ff-8c06-20a8212fe730"},"vehicle_type_id":"4","last_reported":1728745719,"current_range_meters":39200,"station_id":"ce4bh192rcd13ifvqdd0","pricing_plan_id":"cebpf4jnsgd1na2vs0mg"},{"bike_id":"9762b94e-42dd-4249-bb80-f40d89dda736","system_id":"levelo_inurba_marseille","lat":43.290253,"lon":5.375531,"is_reserved":false,"is_disabled":false,"rental_uris":{"android":"levelo://app?vid=9762b94e-42dd-4249-bb80-f40d89dda736","ios":"levelo://app?vid=9762b94e-42dd-4249-bb80-f40d89dda736"},"vehicle_type_id":"4","last_reported":1728745719,"current_range_meters":20400,"station_id":"ce4bh692rcd13ifvqe90","pricing_plan_id":"cebpf4jnsgd1na2vs0mg"},{"bike_id":"53dcf638-1c12-496e-903a-3b56a48fc86d","system_id":"levelo_inurba_marseille","lat":43.29258,"lon":5.38432,"is_reserved":false,"is_disabled":false,"rental_uris":{"android":"levelo://app?vid=53dcf638-1c12-496e-903a-3b56a48fc86d","ios":"levelo://app?vid=53dcf638-1c12-496e-903a-3b56a48fc86d"},"vehicle_type_id":"4","last_reported":1728745719,"current_range_meters":31200,"station_id":"ce4bh692rcd13ifvqea0","pricing_plan_id":"cebpf4jnsgd1na2vs0mg"},{"bike_id":"6139feac-d4d8-41b0-9fd5-16f71e1ea8f0","system_id":"levelo_inurba_marseille","lat":43.29307,"lon":5.3716,"is_reserved":false,"is_disabled":false,"rental_uris":{"android":"levelo://app?vid=6139feac-d4d8-41b0-9fd5-16f71e1ea8f0","ios":"levelo://app?vid=6139feac-d4d8-41b0-9fd5-16f71e1ea8f0"},"vehicle_type_id":"4","last_reported":1728745719,"current_range_meters":38800,"station_id":"ce4bgh92rcd13ifvqb40","pricing_plan_id":"cebpf4jnsgd1na2vs0mg"},{"bike_id":"e95c1dcf-3473-4d09-95f4-726e791c83ce","system_id":"levelo_inurba_marseille","lat":43.2558,"lon":5.382313,"is_reserved":false,"is_disabled":false,"rental_uris":{"android":"levelo://app?vid=e95c1dcf-3473-4d09-95f4-726e791c83ce","ios":"levelo://app?vid=e95c1dcf-3473-4d09-95f4-726e791c83ce"},"vehicle_type_id":"4","last_reported":1728745719,"current_range_meters":17200,"station_id":"ce4bhih2rcd13ifvqfs0","pricing_plan_id":"cebpf4jnsgd1na2vs0mg"},{"bike_id":"8509fa5d-c6d9-4cb2-b4b1-4f2065b2666e","system_id":"levelo_inurba_marseille","lat":43.2834,"lon":5.410543,"is_reserved":false,"is_disabled":false,"rental_uris":{"android":"levelo://app?vid=8509fa5d-c6d9-4cb2-b4b1-4f2065b2666e","ios":"levelo://app?vid=8509fa5d-c6d9-4cb2-b4b1-4f2065b2666e"},"vehicle_type_id":"4","last_reported":1728745719,"current_range_meters":4400,"station_id":"","pricing_plan_id":"cebpf4jnsgd1na2vs0mg"},{"bike_id":"c81fe518-cf00-4b26-a3a2-c118bd055894","system_id":"levelo_inurba_marseille","lat":43.24387,"lon":5.37056,"is_reserved":false,"is_disabled":false,"rental_uris":{"android":"levelo://app?vid=c81fe518-cf00-4b26-a3a2-c118bd055894","ios":"levelo://app?vid=c81fe518-cf00-4b26-a3a2-c118bd055894"},"vehicle_type_id":"4","last_reported":1728745719,"current_range_meters":22800,"station_id":"ce4bhhh2rcd13ifvqfk0","pricing_plan_id":"cebpf4jnsgd1na2vs0mg"},{"bike_id":"a3ea275e-07a6-49a3-b85c-be297ac1b071","system_id":"levelo_inurba_marseille","lat":43.24074,"lon":5.37764,"is_reserved":false,"is_disabled":false,"rental_uris":{"android":"levelo://app?vid=a3ea275e-07a6-49a3-b85c-be297ac1b071","ios":"levelo://app?vid=a3ea275e-07a6-49a3-b85c-be297ac1b071"},"vehicle_type_id":"4","last_reported":1728745719,"current_range_meters":8800,"station_id":"ce4bhnp2rcd13ifvqgvg","pricing_plan_id":"cebpf4jnsgd1na2vs0mg"},{"bike_id":"e075c0a3-4437-4850-a2ce-3dadd21e2288","system_id":"levelo_inurba_marseille","lat":43.24392,"lon":5.37061,"is_reserved":false,"is_disabled":false,"rental_uris":{"android":"levelo://app?vid=e075c0a3-4437-4850-a2ce-3dadd21e2288","ios":"levelo://app?vid=e075c0a3-4437-4850-a2ce-3dadd21e2288"},"vehicle_type_id":"4","last_reported":1728745719,"current_range_meters":27600,"station_id":"ce4bhhh2rcd13ifvqfk0","pricing_plan_id":"cebpf4jnsgd1na2vs0mg"},{"bike_id":"895d853d-31c2-4754-a7e6-d25da7504b6a","system_id":"levelo_inurba_marseille","lat":43.24186,"lon":5.39729,"is_reserved":false,"is_disabled":false,"rental_uris":{"android":"levelo://app?vid=895d853d-31c2-4754-a7e6-d25da7504b6a","ios":"levelo://app?vid=895d853d-31c2-4754-a7e6-d25da7504b6a"},"vehicle_type_id":"4","last_reported":1728745719,"current_range_meters":32800,"station_id":"ce4bhn12rcd13ifvqgpg","pricing_plan_id":"cebpf4jnsgd1na2vs0mg"},{"bike_id":"27311a75-ebb6-43d6-9fb5-f3ba72a10e0e","system_id":"levelo_inurba_marseille","lat":43.29899,"lon":5.43656,"is_reserved":false,"is_disabled":false,"rental_uris":{"android":"levelo://app?vid=27311a75-ebb6-43d6-9fb5-f3ba72a10e0e","ios":"levelo://app?vid=27311a75-ebb6-43d6-9fb5-f3ba72a10e0e"},"vehicle_type_id":"4","last_reported":1728745719,"current_range_meters":23200,"station_id":"ce4bhpp2rcd13ifvqhfg","pricing_plan_id":"cebpf4jnsgd1na2vs0mg"},{"bike_id":"febaa1fe-2cbb-414d-a22e-d37c36e7c935","system_id":"levelo_inurba_marseille","lat":43.278388,"lon":5.406919,"is_reserved":false,"is_disabled":false,"rental_uris":{"android":"levelo://app?vid=febaa1fe-2cbb-414d-a22e-d37c36e7c935","ios":"levelo://app?vid=febaa1fe-2cbb-414d-a22e-d37c36e7c935"},"vehicle_type_id":"4","last_reported":1728745719,"current_range_meters":36400,"station_id":"ce4bhnh2rcd13ifvqgtg","pricing_plan_id":"cebpf4jnsgd1na2vs0mg"},{"bike_id":"07cfd4fd-4c9f-4a22-98d2-86f13933e51d","system_id":"levelo_inurba_marseille","lat":43.29555,"lon":5.42286,"is_reserved":false,"is_disabled":false,"rental_uris":{"android":"levelo://app?vid=07cfd4fd-4c9f-4a22-98d2-86f13933e51d","ios":"levelo://app?vid=07cfd4fd-4c9f-4a22-98d2-86f13933e51d"},"vehicle_type_id":"4","last_reported":1728745719,"current_range_meters":20400,"station_id":"ce4bhph2rcd13ifvqhdg","pricing_plan_id":"cebpf4jnsgd1na2vs0mg"},{"bike_id":"0a90763c-b5c7-4876-a2cb-56ff32584ed5","system_id":"levelo_inurba_marseille","lat":43.30948,"lon":5.39031,"is_reserved":false,"is_disabled":false,"rental_uris":{"android":"levelo://app?vid=0a90763c-b5c7-4876-a2cb-56ff32584ed5","ios":"levelo://app?vid=0a90763c-b5c7-4876-a2cb-56ff32584ed5"},"vehicle_type_id":"4","last_reported":1728745719,"current_range_meters":14000,"station_id":"ce4bgup2rcd13ifvqco0","pricing_plan_id":"cebpf4jnsgd1na2vs0mg"},{"bike_id":"2e73b65c-05eb-4812-845a-932bba9eb19d","system_id":"levelo_inurba_marseille","lat":43.29622,"lon":5.3715,"is_reserved":false,"is_disabled":false,"rental_uris":{"android":"levelo://app?vid=2e73b65c-05eb-4812-845a-932bba9eb19d","ios":"levelo://app?vid=2e73b65c-05eb-4812-845a-932bba9eb19d"},"vehicle_type_id":"4","last_reported":1728745719,"current_range_meters":20000,"station_id":"ce4bgnh2rcd13ifvqc0g","pricing_plan_id":"cebpf4jnsgd1na2vs0mg"},{"bike_id":"54baefa9-fbb4-4f0d-b372-424f5a9c938d","system_id":"levelo_inurba_marseille","lat":43.32484,"lon":5.36561,"is_reserved":false,"is_disabled":false,"rental_uris":{"android":"levelo://app?vid=54baefa9-fbb4-4f0d-b372-424f5a9c938d","ios":"levelo://app?vid=54baefa9-fbb4-4f0d-b372-424f5a9c938d"},"vehicle_type_id":"4","last_reported":1728745719,"current_range_meters":39200,"station_id":"ce4bhs12rcd13ifvqhvg","pricing_plan_id":"cebpf4jnsgd1na2vs0mg"},{"bike_id":"20f06317-6073-4c49-8a22-231ba8100d07","system_id":"levelo_inurba_marseille","lat":43.28038,"lon":5.3695,"is_reserved":false,"is_disabled":false,"rental_uris":{"android":"levelo://app?vid=20f06317-6073-4c49-8a22-231ba8100d07","ios":"levelo://app?vid=20f06317-6073-4c49-8a22-231ba8100d07"},"vehicle_type_id":"4","last_reported":1728745719,"current_range_meters":12800,"station_id":"ce4bha12rcd13ifvqef0","pricing_plan_id":"cebpf4jnsgd1na2vs0mg"},{"bike_id":"84f238c4-dc22-4456-8b63-f96c1ae0dffd","system_id":"levelo_inurba_marseille","lat":43.29199,"lon":5.35803,"is_reserved":false,"is_disabled":false,"rental_uris":{"android":"levelo://app?vid=84f238c4-dc22-4456-8b63-f96c1ae0dffd","ios":"levelo://app?vid=84f238c4-dc22-4456-8b63-f96c1ae0dffd"},"vehicle_type_id":"4","last_reported":1728745719,"current_range_meters":26800,"station_id":"ce4bhb12rcd13ifvqel0","pricing_plan_id":"cebpf4jnsgd1na2vs0mg"},{"bike_id":"03dab6ed-f63b-42ce-96ba-60825410a702","system_id":"levelo_inurba_marseille","lat":43.335832,"lon":5.410333,"is_reserved":false,"is_disabled":false,"rental_uris":{"android":"levelo://app?vid=03dab6ed-f63b-42ce-96ba-60825410a702","ios":"levelo://app?vid=03dab6ed-f63b-42ce-96ba-60825410a702"},"vehicle_type_id":"4","last_reported":1728745719,"current_range_meters":30800,"station_id":"ce4bhqh2rcd13ifvqhmg","pricing_plan_id":"cebpf4jnsgd1na2vs0mg"},{"bike_id":"72ade63f-e3f7-44ed-a0d7-5b78be04197b","system_id":"levelo_inurba_marseille","lat":43.30537,"lon":5.36561,"is_reserved":false,"is_disabled":false,"rental_uris":{"android":"levelo://app?vid=72ade63f-e3f7-44ed-a0d7-5b78be04197b","ios":"levelo://app?vid=72ade63f-e3f7-44ed-a0d7-5b78be04197b"},"vehicle_type_id":"4","last_reported":1728745719,"current_range_meters":32800,"station_id":"ce4bgs12rcd13ifvqcag","pricing_plan_id":"cebpf4jnsgd1na2vs0mg"},{"bike_id":"f0aa32d8-4ddd-496a-9571-e8bae9de7c44","system_id":"levelo_inurba_marseille","lat":43.27158,"lon":5.38605,"is_reserved":false,"is_disabled":false,"rental_uris":{"android":"levelo://app?vid=f0aa32d8-4ddd-496a-9571-e8bae9de7c44","ios":"levelo://app?vid=f0aa32d8-4ddd-496a-9571-e8bae9de7c44"},"vehicle_type_id":"4","last_reported":1728745719,"current_range_meters":14400,"station_id":"","pricing_plan_id":"cebpf4jnsgd1na2vs0mg"},{"bike_id":"3b2e55c3-662a-40b8-9774-1a39486344eb","system_id":"levelo_inurba_marseille","lat":43.32535,"lon":5.41448,"is_reserved":false,"is_disabled":false,"rental_uris":{"android":"levelo://app?vid=3b2e55c3-662a-40b8-9774-1a39486344eb","ios":"levelo://app?vid=3b2e55c3-662a-40b8-9774-1a39486344eb"},"vehicle_type_id":"4","last_reported":1728745719,"current_range_meters":4400,"station_id":"ce4bhq12rcd13ifvqhhg","pricing_plan_id":"cebpf4jnsgd1na2vs0mg"},{"bike_id":"ed589c7a-af37-48cf-bdf9-934c76c73b9a","system_id":"levelo_inurba_marseille","lat":43.296215,"lon":5.377101,"is_reserved":false,"is_disabled":false,"rental_uris":{"android":"levelo://app?vid=ed589c7a-af37-48cf-bdf9-934c76c73b9a","ios":"levelo://app?vid=ed589c7a-af37-48cf-bdf9-934c76c73b9a"},"vehicle_type_id":"4","last_reported":1728745719,"current_range_meters":37600,"station_id":"ce4bgi92rcd13ifvqb90","pricing_plan_id":"cebpf4jnsgd1na2vs0mg"},{"bike_id":"06254218-f69e-4075-87f9-1812a5e73a7f","system_id":"levelo_inurba_marseille","lat":43.29206,"lon":5.35911,"is_reserved":false,"is_disabled":false,"rental_uris":{"android":"levelo://app?vid=06254218-f69e-4075-87f9-1812a5e73a7f","ios":"levelo://app?vid=06254218-f69e-4075-87f9-1812a5e73a7f"},"vehicle_type_id":"4","last_reported":1728745719,"current_range_meters":4400,"station_id":"ce4bhb12rcd13ifvqel0","pricing_plan_id":"cebpf4jnsgd1na2vs0mg"},{"bike_id":"c748f5a8-e2cd-4885-bbe1-5e182c0db74f","system_id":"levelo_inurba_marseille","lat":43.24393,"lon":5.37067,"is_reserved":false,"is_disabled":false,"rental_uris":{"android":"levelo://app?vid=c748f5a8-e2cd-4885-bbe1-5e182c0db74f","ios":"levelo://app?vid=c748f5a8-e2cd-4885-bbe1-5e182c0db74f"},"vehicle_type_id":"4","last_reported":1728745719,"current_range_meters":26800,"station_id":"ce4bhhh2rcd13ifvqfk0","pricing_plan_id":"cebpf4jnsgd1na2vs0mg"},{"bike_id":"238e03cb-2d0f-490f-b701-2b47aa7b8da9","system_id":"levelo_inurba_marseille","lat":43.29613,"lon":5.37721,"is_reserved":false,"is_disabled":false,"rental_uris":{"android":"levelo://app?vid=238e03cb-2d0f-490f-b701-2b47aa7b8da9","ios":"levelo://app?vid=238e03cb-2d0f-490f-b701-2b47aa7b8da9"},"vehicle_type_id":"4","last_reported":1728745719,"current_range_meters":36800,"station_id":"ce4bgi92rcd13ifvqb90","pricing_plan_id":"cebpf4jnsgd1na2vs0mg"},{"bike_id":"61fe1980-84c0-4685-a8e5-a122c194a5a0","system_id":"levelo_inurba_marseille","lat":43.26204,"lon":5.37931,"is_reserved":false,"is_disabled":false,"rental_uris":{"android":"levelo://app?vid=61fe1980-84c0-4685-a8e5-a122c194a5a0","ios":"levelo://app?vid=61fe1980-84c0-4685-a8e5-a122c194a5a0"},"vehicle_type_id":"4","last_reported":1728745719,"current_range_meters":6400,"station_id":"ce4bhjp2rcd13ifvqg90","pricing_plan_id":"cebpf4jnsgd1na2vs0mg"},{"bike_id":"642b1b6e-59cc-4c3f-9132-c6f54c15a069","system_id":"levelo_inurba_marseille","lat":43.3021,"lon":5.39464,"is_reserved":false,"is_disabled":false,"rental_uris":{"android":"levelo://app?vid=642b1b6e-59cc-4c3f-9132-c6f54c15a069","ios":"levelo://app?vid=642b1b6e-59cc-4c3f-9132-c6f54c15a069"},"vehicle_type_id":"4","last_reported":1728745719,"current_range_meters":16400,"station_id":"ce4bh0p2rcd13ifvqd70","pricing_plan_id":"cebpf4jnsgd1na2vs0mg"},{"bike_id":"cef48778-43bb-4f85-be6e-1988093bf4d7","system_id":"levelo_inurba_marseille","lat":43.3108,"lon":5.4243,"is_reserved":false,"is_disabled":false,"rental_uris":{"android":"levelo://app?vid=cef48778-43bb-4f85-be6e-1988093bf4d7","ios":"levelo://app?vid=cef48778-43bb-4f85-be6e-1988093bf4d7"},"vehicle_type_id":"4","last_reported":1728745719,"current_range_meters":6800,"station_id":"ce4bhp92rcd13ifvqhag","pricing_plan_id":"cebpf4jnsgd1na2vs0mg"},{"bike_id":"f8d023de-be2b-4cde-a045-42d21fdf53e2","system_id":"levelo_inurba_marseille","lat":43.25,"lon":5.38918,"is_reserved":false,"is_disabled":false,"rental_uris":{"android":"levelo://app?vid=f8d023de-be2b-4cde-a045-42d21fdf53e2","ios":"levelo://app?vid=f8d023de-be2b-4cde-a045-42d21fdf53e2"},"vehicle_type_id":"4","last_reported":1728745719,"current_range_meters":38000,"station_id":"ce4bhgp2rcd13ifvqfd0","pricing_plan_id":"cebpf4jnsgd1na2vs0mg"},{"bike_id":"aab696e8-17e9-4860-874e-864eafaa9aa7","system_id":"levelo_inurba_marseille","lat":43.26572,"lon":5.39002,"is_reserved":false,"is_disabled":false,"rental_uris":{"android":"levelo://app?vid=aab696e8-17e9-4860-874e-864eafaa9aa7","ios":"levelo://app?vid=aab696e8-17e9-4860-874e-864eafaa9aa7"},"vehicle_type_id":"4","last_reported":1728745719,"current_range_meters":2000,"station_id":"ce4bhe12rcd13ifvqf30","pricing_plan_id":"cebpf4jnsgd1na2vs0mg"},{"bike_id":"d4bda529-e26a-43fa-a05e-4b17d9881887","system_id":"levelo_inurba_marseille","lat":43.23967,"lon":5.36621,"is_reserved":false,"is_disabled":false,"rental_uris":{"android":"levelo://app?vid=d4bda529-e26a-43fa-a05e-4b17d9881887","ios":"levelo://app?vid=d4bda529-e26a-43fa-a05e-4b17d9881887"},"vehicle_type_id":"4","last_reported":1728745719,"current_range_meters":16400,"station_id":"ce4bhi12rcd13ifvqfp0","pricing_plan_id":"cebpf4jnsgd1na2vs0mg"},{"bike_id":"863551da-2418-4241-98f4-2258700e8cff","system_id":"levelo_inurba_marseille","lat":43.29622,"lon":5.37717,"is_reserved":false,"is_disabled":false,"rental_uris":{"android":"levelo://app?vid=863551da-2418-4241-98f4-2258700e8cff","ios":"levelo://app?vid=863551da-2418-4241-98f4-2258700e8cff"},"vehicle_type_id":"4","last_reported":1728745719,"current_range_meters":25200,"station_id":"ce4bgi92rcd13ifvqb90","pricing_plan_id":"cebpf4jnsgd1na2vs0mg"},{"bike_id":"121abe7e-b3cf-4910-88a1-ace98cbe3ff0","system_id":"levelo_inurba_marseille","lat":43.29528,"lon":5.37511,"is_reserved":false,"is_disabled":false,"rental_uris":{"android":"levelo://app?vid=121abe7e-b3cf-4910-88a1-ace98cbe3ff0","ios":"levelo://app?vid=121abe7e-b3cf-4910-88a1-ace98cbe3ff0"},"vehicle_type_id":"4","last_reported":1728745719,"current_range_meters":10000,"station_id":"ce4bgkp2rcd13ifvqbmg","pricing_plan_id":"cebpf4jnsgd1na2vs0mg"},{"bike_id":"edc59b59-9d24-45c6-b26f-5477928f41a5","system_id":"levelo_inurba_marseille","lat":43.265684,"lon":5.390019,"is_reserved":false,"is_disabled":false,"rental_uris":{"android":"levelo://app?vid=edc59b59-9d24-45c6-b26f-5477928f41a5","ios":"levelo://app?vid=edc59b59-9d24-45c6-b26f-5477928f41a5"},"vehicle_type_id":"4","last_reported":1728745719,"current_range_meters":8800,"station_id":"ce4bhe12rcd13ifvqf30","pricing_plan_id":"cebpf4jnsgd1na2vs0mg"},{"bike_id":"ef2bc3a1-f294-44d0-b718-13ceefb82523","system_id":"levelo_inurba_marseille","lat":43.26554,"lon":5.37279,"is_reserved":false,"is_disabled":false,"rental_uris":{"android":"levelo://app?vid=ef2bc3a1-f294-44d0-b718-13ceefb82523","ios":"levelo://app?vid=ef2bc3a1-f294-44d0-b718-13ceefb82523"},"vehicle_type_id":"4","last_reported":1728745719,"current_range_meters":24000,"station_id":"ce4bhg12rcd13ifvqf70","pricing_plan_id":"cebpf4jnsgd1na2vs0mg"},{"bike_id":"69252f39-27e0-42d2-bb7f-36bee8cbfd05","system_id":"levelo_inurba_marseille","lat":43.30956,"lon":5.39027,"is_reserved":false,"is_disabled":false,"rental_uris":{"android":"levelo://app?vid=69252f39-27e0-42d2-bb7f-36bee8cbfd05","ios":"levelo://app?vid=69252f39-27e0-42d2-bb7f-36bee8cbfd05"},"vehicle_type_id":"4","last_reported":1728745719,"current_range_meters":29600,"station_id":"ce4bgup2rcd13ifvqco0","pricing_plan_id":"cebpf4jnsgd1na2vs0mg"},{"bike_id":"174539a4-490f-44cd-ab8c-7c98a3a1f34a","system_id":"levelo_inurba_marseille","lat":43.29796,"lon":5.38091,"is_reserved":false,"is_disabled":false,"rental_uris":{"android":"levelo://app?vid=174539a4-490f-44cd-ab8c-7c98a3a1f34a","ios":"levelo://app?vid=174539a4-490f-44cd-ab8c-7c98a3a1f34a"},"vehicle_type_id":"4","last_reported":1728745719,"current_range_meters":24800,"station_id":"ce4bgip2rcd13ifvqbb0","pricing_plan_id":"cebpf4jnsgd1na2vs0mg"},{"bike_id":"67feb8e4-5061-4d63-991f-0f410ed0dc5e","system_id":"levelo_inurba_marseille","lat":43.26202,"lon":5.37929,"is_reserved":false,"is_disabled":false,"rental_uris":{"android":"levelo://app?vid=67feb8e4-5061-4d63-991f-0f410ed0dc5e","ios":"levelo://app?vid=67feb8e4-5061-4d63-991f-0f410ed0dc5e"},"vehicle_type_id":"4","last_reported":1728745719,"current_range_meters":37600,"station_id":"ce4bhjp2rcd13ifvqg90","pricing_plan_id":"cebpf4jnsgd1na2vs0mg"},{"bike_id":"adf7f252-dbc1-459a-8043-ad1f1eca0157","system_id":"levelo_inurba_marseille","lat":43.3372,"lon":5.39179,"is_reserved":false,"is_disabled":false,"rental_uris":{"android":"levelo://app?vid=adf7f252-dbc1-459a-8043-ad1f1eca0157","ios":"levelo://app?vid=adf7f252-dbc1-459a-8043-ad1f1eca0157"},"vehicle_type_id":"4","last_reported":1728745719,"current_range_meters":18800,"station_id":"ce4bhr92rcd13ifvqhsg","pricing_plan_id":"cebpf4jnsgd1na2vs0mg"},{"bike_id":"27329865-ff2a-401b-9de3-d6055e4ebdfb","system_id":"levelo_inurba_marseille","lat":43.24391,"lon":5.37059,"is_reserved":false,"is_disabled":false,"rental_uris":{"android":"levelo://app?vid=27329865-ff2a-401b-9de3-d6055e4ebdfb","ios":"levelo://app?vid=27329865-ff2a-401b-9de3-d6055e4ebdfb"},"vehicle_type_id":"4","last_reported":1728745719,"current_range_meters":28400,"station_id":"ce4bhhh2rcd13ifvqfk0","pricing_plan_id":"cebpf4jnsgd1na2vs0mg"},{"bike_id":"4117f8cf-4d1e-4742-8d47-90f8d12a7db1","system_id":"levelo_inurba_marseille","lat":43.26193,"lon":5.37925,"is_reserved":false,"is_disabled":false,"rental_uris":{"android":"levelo://app?vid=4117f8cf-4d1e-4742-8d47-90f8d12a7db1","ios":"levelo://app?vid=4117f8cf-4d1e-4742-8d47-90f8d12a7db1"},"vehicle_type_id":"4","last_reported":1728745719,"current_range_meters":39200,"station_id":"ce4bhjp2rcd13ifvqg90","pricing_plan_id":"cebpf4jnsgd1na2vs0mg"},{"bike_id":"3fc23d84-1944-499e-aa12-8ebe4d2f37fc","system_id":"levelo_inurba_marseille","lat":43.30146,"lon":5.3988,"is_reserved":false,"is_disabled":false,"rental_uris":{"android":"levelo://app?vid=3fc23d84-1944-499e-aa12-8ebe4d2f37fc","ios":"levelo://app?vid=3fc23d84-1944-499e-aa12-8ebe4d2f37fc"},"vehicle_type_id":"4","last_reported":1728745719,"current_range_meters":18000,"station_id":"ce4bh0h2rcd13ifvqd40","pricing_plan_id":"cebpf4jnsgd1na2vs0mg"},{"bike_id":"d5588d22-b149-4d3f-99b1-2e291393061c","system_id":"levelo_inurba_marseille","lat":43.29897,"lon":5.389,"is_reserved":false,"is_disabled":false,"rental_uris":{"android":"levelo://app?vid=d5588d22-b149-4d3f-99b1-2e291393061c","ios":"levelo://app?vid=d5588d22-b149-4d3f-99b1-2e291393061c"},"vehicle_type_id":"4","last_reported":1728745719,"current_range_meters":34800,"station_id":"ce4bh392rcd13ifvqdl0","pricing_plan_id":"cebpf4jnsgd1na2vs0mg"},{"bike_id":"9f566eea-77ce-4c54-bee2-8a91c4e0d469","system_id":"levelo_inurba_marseille","lat":43.28932,"lon":5.38399,"is_reserved":false,"is_disabled":false,"rental_uris":{"android":"levelo://app?vid=9f566eea-77ce-4c54-bee2-8a91c4e0d469","ios":"levelo://app?vid=9f566eea-77ce-4c54-bee2-8a91c4e0d469"},"vehicle_type_id":"4","last_reported":1728745719,"current_range_meters":27600,"station_id":"ce4bh612rcd13ifvqe6g","pricing_plan_id":"cebpf4jnsgd1na2vs0mg"},{"bike_id":"66c046b7-a78a-4181-b6f3-3f31bf3e6d4d","system_id":"levelo_inurba_marseille","lat":43.24812,"lon":5.37462,"is_reserved":false,"is_disabled":false,"rental_uris":{"android":"levelo://app?vid=66c046b7-a78a-4181-b6f3-3f31bf3e6d4d","ios":"levelo://app?vid=66c046b7-a78a-4181-b6f3-3f31bf3e6d4d"},"vehicle_type_id":"4","last_reported":1728745719,"current_range_meters":11200,"station_id":"ce4bhgh2rcd13ifvqfb0","pricing_plan_id":"cebpf4jnsgd1na2vs0mg"},{"bike_id":"f622a37e-7e22-4494-9095-d99d5f9ab81a","system_id":"levelo_inurba_marseille","lat":43.27945,"lon":5.41054,"is_reserved":false,"is_disabled":false,"rental_uris":{"android":"levelo://app?vid=f622a37e-7e22-4494-9095-d99d5f9ab81a","ios":"levelo://app?vid=f622a37e-7e22-4494-9095-d99d5f9ab81a"},"vehicle_type_id":"4","last_reported":1728745719,"current_range_meters":16400,"station_id":"ce4bhnp2rcd13ifvqh0g","pricing_plan_id":"cebpf4jnsgd1na2vs0mg"},{"bike_id":"521b6d3c-6126-47bd-886f-649ad3c52fe2","system_id":"levelo_inurba_marseille","lat":43.31705,"lon":5.37751,"is_reserved":false,"is_disabled":false,"rental_uris":{"android":"levelo://app?vid=521b6d3c-6126-47bd-886f-649ad3c52fe2","ios":"levelo://app?vid=521b6d3c-6126-47bd-886f-649ad3c52fe2"},"vehicle_type_id":"4","last_reported":1728745719,"current_range_meters":30400,"station_id":"ce4bgth2rcd13ifvqch0","pricing_plan_id":"cebpf4jnsgd1na2vs0mg"},{"bike_id":"339a0e4b-54b4-4dcb-943a-cad8221194bc","system_id":"levelo_inurba_marseille","lat":43.23193,"lon":5.35552,"is_reserved":false,"is_disabled":false,"rental_uris":{"android":"levelo://app?vid=339a0e4b-54b4-4dcb-943a-cad8221194bc","ios":"levelo://app?vid=339a0e4b-54b4-4dcb-943a-cad8221194bc"},"vehicle_type_id":"4","last_reported":1728745719,"current_range_meters":22400,"station_id":"ce4bhu92rcd13ifvqi70","pricing_plan_id":"cebpf4jnsgd1na2vs0mg"},{"bike_id":"a4ec7723-fb73-42ce-a3b5-bd783c1d854f","system_id":"levelo_inurba_marseille","lat":43.29916,"lon":5.37448,"is_reserved":false,"is_disabled":false,"rental_uris":{"android":"levelo://app?vid=a4ec7723-fb73-42ce-a3b5-bd783c1d854f","ios":"levelo://app?vid=a4ec7723-fb73-42ce-a3b5-bd783c1d854f"},"vehicle_type_id":"4","last_reported":1728745719,"current_range_meters":12400,"station_id":"ce4bgjh2rcd13ifvqbg0","pricing_plan_id":"cebpf4jnsgd1na2vs0mg"},{"bike_id":"593f5a72-f11e-4736-bfc7-032df0e5bd67","system_id":"levelo_inurba_marseille","lat":43.2558,"lon":5.38229,"is_reserved":false,"is_disabled":false,"rental_uris":{"android":"levelo://app?vid=593f5a72-f11e-4736-bfc7-032df0e5bd67","ios":"levelo://app?vid=593f5a72-f11e-4736-bfc7-032df0e5bd67"},"vehicle_type_id":"4","last_reported":1728745719,"current_range_meters":11200,"station_id":"ce4bhih2rcd13ifvqfs0","pricing_plan_id":"cebpf4jnsgd1na2vs0mg"},{"bike_id":"a7a0f3b8-ab19-4a3e-a406-fb8f1247635e","system_id":"levelo_inurba_marseille","lat":43.28686,"lon":5.38726,"is_reserved":false,"is_disabled":false,"rental_uris":{"android":"levelo://app?vid=a7a0f3b8-ab19-4a3e-a406-fb8f1247635e","ios":"levelo://app?vid=a7a0f3b8-ab19-4a3e-a406-fb8f1247635e"},"vehicle_type_id":"4","last_reported":1728745719,"current_range_meters":26800,"station_id":"ce4bho92rcd13ifvqh3g","pricing_plan_id":"cebpf4jnsgd1na2vs0mg"},{"bike_id":"a0c0b69c-3020-4870-8a36-f2b84f108fca","system_id":"levelo_inurba_marseille","lat":43.25927,"lon":5.40899,"is_reserved":false,"is_disabled":false,"rental_uris":{"android":"levelo://app?vid=a0c0b69c-3020-4870-8a36-f2b84f108fca","ios":"levelo://app?vid=a0c0b69c-3020-4870-8a36-f2b84f108fca"},"vehicle_type_id":"4","last_reported":1728745719,"current_range_meters":16000,"station_id":"ce4bhm92rcd13ifvqglg","pricing_plan_id":"cebpf4jnsgd1na2vs0mg"},{"bike_id":"7098ba5c-4eff-490c-a052-b49c458ddadb","system_id":"levelo_inurba_marseille","lat":43.28611,"lon":5.3706,"is_reserved":false,"is_disabled":false,"rental_uris":{"android":"levelo://app?vid=7098ba5c-4eff-490c-a052-b49c458ddadb","ios":"levelo://app?vid=7098ba5c-4eff-490c-a052-b49c458ddadb"},"vehicle_type_id":"4","last_reported":1728745719,"current_range_meters":27600,"station_id":"ce4bht12rcd13ifvqi60","pricing_plan_id":"cebpf4jnsgd1na2vs0mg"},{"bike_id":"26d7e2fc-7d02-4b34-985a-740e6ca16bad","system_id":"levelo_inurba_marseille","lat":43.313671,"lon":5.384882,"is_reserved":false,"is_disabled":false,"rental_uris":{"android":"levelo://app?vid=26d7e2fc-7d02-4b34-985a-740e6ca16bad","ios":"levelo://app?vid=26d7e2fc-7d02-4b34-985a-740e6ca16bad"},"vehicle_type_id":"4","last_reported":1728745719,"current_range_meters":17200,"station_id":"ce4bgt92rcd13ifvqcf0","pricing_plan_id":"cebpf4jnsgd1na2vs0mg"},{"bike_id":"65c9a878-1de7-4457-af18-93d11cc54742","system_id":"levelo_inurba_marseille","lat":43.29721,"lon":5.37693,"is_reserved":false,"is_disabled":false,"rental_uris":{"android":"levelo://app?vid=65c9a878-1de7-4457-af18-93d11cc54742","ios":"levelo://app?vid=65c9a878-1de7-4457-af18-93d11cc54742"},"vehicle_type_id":"4","last_reported":1728745719,"current_range_meters":36000,"station_id":"ce4bgkh2rcd13ifvqbl0","pricing_plan_id":"cebpf4jnsgd1na2vs0mg"},{"bike_id":"904466af-25d0-423c-9edb-fb7fc8114abe","system_id":"levelo_inurba_marseille","lat":43.23192,"lon":5.35546,"is_reserved":false,"is_disabled":false,"rental_uris":{"android":"levelo://app?vid=904466af-25d0-423c-9edb-fb7fc8114abe","ios":"levelo://app?vid=904466af-25d0-423c-9edb-fb7fc8114abe"},"vehicle_type_id":"4","last_reported":1728745719,"current_range_meters":16800,"station_id":"ce4bhu92rcd13ifvqi70","pricing_plan_id":"cebpf4jnsgd1na2vs0mg"},