{"last_updated":1743091960,"ttl":60,"version":"2.2","data":{"bikes":[{"bike_id":"532b4ba2-87fc-4812-af49-a3de09f45529","system_id":"levelo_inurba_marseille","lat":43.301357,"lon":5.374042,"is_reserved":false,"is_disabled":false,"rental_uris":{"android":"levelo://app?vid=532b4ba2-87fc-4812-af49-a3de09f45529","ios":"levelo://app?vid=532b4ba2-87fc-4812-af49-a3de09f45529"},"vehicle_type_id":"4","last_reported":1743091960,"current_range_meters":2800,"station_id":"ce4bgs92rcd13ifvqcc0","pricing_plan_id":"cebpf4jnsgd1na2vs0mg"},{"bike_id":"de85321c-daf5-4fc0-a19c-2b52bcd97f1a","system_id":"levelo_inurba_marseille","lat":43.29276,"lon":5.36849,"is_reserved":false,"is_disabled":false,"rental_uris":{"android":"levelo://app?vid=de85321c-daf5-4fc0-a19c-2b52bcd97f1a","ios":"levelo://app?vid=de85321c-daf5-4fc0-a19c-2b52bcd97f1a"},"vehicle_type_id":"4","last_reported":1743091960,"current_range_meters":2800,"station_id":"ce4bhbp2rcd13ifvqesg","pricing_plan_id":"cebpf4jnsgd1na2vs0mg"},{"bike_id":"44156654-a4cf-4f20-b992-8a27bbcc69ed","system_id":"levelo_inurba_marseille","lat":43.23193,"lon":5.39989,"is_reserved":false,"is_disabled":true,"rental_uris":{"android":"levelo://app?vid=44156654-a4cf-4f20-b992-8a27bbcc69ed","ios":"levelo://app?vid=44156654-a4cf-4f20-b992-8a27bbcc69ed"},"vehicle_type_id":"4","last_reported":1743091960,"current_range_meters":2800,"station_id":"ce4bhn12rcd13ifvqgqg","pricing_plan_id":"cebpf4jnsgd1na2vs0mg"},{"bike_id":"86293512-a2c9-452b-824f-5daef6c38daf","system_id":"levelo_inurba_marseille","lat":43.29198,"lon":5.35805,"is_reserved":false,"is_disabled":false,"rental_uris":{"android":"levelo://app?vid=86293512-a2c9-452b-824f-5daef6c38daf","ios":"levelo://app?vid=86293512-a2c9-452b-824f-5daef6c38daf"},"vehicle_type_id":"4","last_reported":1743091960,"current_range_meters":2800,"station_id":"ce4bhb12rcd13ifvqel0","pricing_plan_id":"cebpf4jnsgd1na2vs0mg"},{"bike_id":"305699e5-eabb-4684-9f38-1a1f808b9bea","system_id":"levelo_inurba_marseille","lat":43.26069,"lon":5.39393,"is_reserved":false,"is_disabled":false,"rental_uris":{"android":"levelo://app?vid=305699e5-eabb-4684-9f38-1a1f808b9bea","ios":"levelo://app?vid=305699e5-eabb-4684-9f38-1a1f808b9bea"},"vehicle_type_id":"4","last_reported":1743091960,"current_range_meters":1200,"station_id":"ce4bhh92rcd13ifvqfj0","pricing_plan_id":"cebpf4jnsgd1na2vs0mg"},{"bike_id":"26fa4ee6-134c-4940-bad2-2c722f5cdf32","system_id":"levelo_inurba_marseille","lat":43.30418,"lon":5.41285,"is_reserved":false,"is_disabled":false,"rental_uris":{"android":"levelo://app?vid=26fa4ee6-134c-4940-bad2-2c722f5cdf32","ios":"levelo://app?vid=26fa4ee6-134c-4940-bad2-2c722f5cdf32"},"vehicle_type_id":"4","last_reported":1743091960,"current_range_meters":2800,"station_id":"ce4bhop2rcd13ifvqh8g","pricing_plan_id":"cebpf4jnsgd1na2vs0mg"},{"bike_id":"7f9d372a-e6f4-41de-bfd4-626023e27690","system_id":"levelo_inurba_marseille","lat":43.28171,"lon":5.44263,"is_reserved":false,"is_disabled":false,"rental_uris":{"android":"levelo://app?vid=7f9d372a-e6f4-41de-bfd4-626023e27690","ios":"levelo://app?vid=7f9d372a-e6f4-41de-bfd4-626023e27690"},"vehicle_type_id":"4","last_reported":1743091960,"current_range_meters":3200,"station_id":"","pricing_plan_id":"cebpf4jnsgd1na2vs0mg"},{"bike_id":"47656f35-bde2-48b2-a47f-cea9757718b5","system_id":"levelo_inurba_marseille","lat":43.32542,"lon":5.41421,"is_reserved":false,"is_disabled":false,"rental_uris":{"android":"levelo://app?vid=47656f35-bde2-48b2-a47f-cea9757718b5","ios":"levelo://app?vid=47656f35-bde2-48b2-a47f-cea9757718b5"},"vehicle_type_id":"4","last_reported":1743091960,"current_range_meters":3200,"station_id":"ce4bhq12rcd13ifvqhhg","pricing_plan_id":"cebpf4jnsgd1na2vs0mg"},{"bike_id":"3d81f6da-fe9d-4934-ad4c-1141e1eecd92","system_id":"levelo_inurba_marseille","lat":43.24166,"lon":5.36392,"is_reserved":false,"is_disabled":false,"rental_uris":{"android":"levelo://app?vid=3d81f6da-fe9d-4934-ad4c-1141e1eecd92","ios":"levelo://app?vid=3d81f6da-fe9d-4934-ad4c-1141e1eecd92"},"vehicle_type_id":"4","last_reported":1743091960,"current_range_meters":3200,"station_id":"cpo36qri1sfpv3e86is0","pricing_plan_id":"cebpf4jnsgd1na2vs0mg"},{"bike_id":"39132323-c731-49ab-98e3-c68cfd77b0de","system_id":"levelo_inurba_marseille","lat":43.26405,"lon":5.40407,"is_reserved":false,"is_disabled":false,"rental_uris":{"android":"levelo://app?vid=39132323-c731-49ab-98e3-c68cfd77b0de","ios":"levelo://app?vid=39132323-c731-49ab-98e3-c68cfd77b0de"},"vehicle_type_id":"4","last_reported":1743091960,"current_range_meters":3200,"station_id":"","pricing_plan_id":"cebpf4jnsgd1na2vs0mg"},{"bike_id":"d3446dd6-b83a-46ca-8e52-6948c2c7d7d1","system_id":"levelo_inurba_marseille","lat":43.317351,"lon":5.423823,"is_reserved":false,"is_disabled":false,"rental_uris":{"android":"levelo://app?vid=d3446dd6-b83a-46ca-8e52-6948c2c7d7d1","ios":"levelo://app?vid=d3446dd6-b83a-46ca-8e52-6948c2c7d7d1"},"vehicle_type_id":"4","last_reported":1743091960,"current_range_meters":3200,"station_id":"ce4bhp92rcd13ifvqhbg","pricing_plan_id":"cebpf4jnsgd1na2vs0mg"},{"bike_id":"a25fa441-6b91-498c-a8aa-d016384a3ad1","system_id":"levelo_inurba_marseille","lat":43.28615,"lon":5.35101,"is_reserved":false,"is_disabled":false,"rental_uris":{"android":"levelo://app?vid=a25fa441-6b91-498c-a8aa-d016384a3ad1","ios":"levelo://app?vid=a25fa441-6b91-498c-a8aa-d016384a3ad1"},"vehicle_type_id":"4","last_reported":1743091960,"current_range_meters":3200,"station_id":"ce4bhch2rcd13ifvqeug","pricing_plan_id":"cebpf4jnsgd1na2vs0mg"},{"bike_id":"067247e0-a27c-4e52-9052-c6b9eea5c7f4","system_id":"levelo_inurba_marseille","lat":43.31411,"lon":5.37441,"is_reserved":false,"is_disabled":false,"rental_uris":{"android":"levelo://app?vid=067247e0-a27c-4e52-9052-c6b9eea5c7f4","ios":"levelo://app?vid=067247e0-a27c-4e52-9052-c6b9eea5c7f4"},"vehicle_type_id":"4","last_reported":1743091960,"current_range_meters":3200,"station_id":"","pricing_plan_id":"cebpf4jnsgd1na2vs0mg"},{"bike_id":"53dbe9bc-141a-40c3-9f2f-e48ea12153ab","system_id":"levelo_inurba_marseille","lat":43.29545,"lon":5.383112,"is_reserved":false,"is_disabled":false,"rental_uris":{"android":"levelo://app?vid=53dbe9bc-141a-40c3-9f2f-e48ea12153ab","ios":"levelo://app?vid=53dbe9bc-141a-40c3-9f2f-e48ea12153ab"},"vehicle_type_id":"4","last_reported":1743091960,"current_range_meters":3200,"station_id":"ce4bh2h2rcd13ifvqdh0","pricing_plan_id":"cebpf4jnsgd1na2vs0mg"},{"bike_id":"be155a78-f93c-4c9b-a5c0-3d88cf50e3f2","system_id":"levelo_inurba_marseille","lat":43.273024,"lon":5.392299,"is_reserved":false,"is_disabled":false,"rental_uris":{"android":"levelo://app?vid=be155a78-f93c-4c9b-a5c0-3d88cf50e3f2","ios":"levelo://app?vid=be155a78-f93c-4c9b-a5c0-3d88cf50e3f2"},"vehicle_type_id":"4","last_reported":1743091960,"current_range_meters":3200,"station_id":"ce4bhh92rcd13ifvqfj0","pricing_plan_id":"cebpf4jnsgd1na2vs0mg"},{"bike_id":"06a5d18d-e138-405f-9a51-5fd1374baeb9","system_id":"levelo_inurba_marseille","lat":43.2842,"lon":5.34973,"is_reserved":false,"is_disabled":false,"rental_uris":{"android":"levelo://app?vid=06a5d18d-e138-405f-9a51-5fd1374baeb9","ios":"levelo://app?vid=06a5d18d-e138-405f-9a51-5fd1374baeb9"},"vehicle_type_id":"4","last_reported":1743091960,"current_range_meters":3600,"station_id":"ce4bhbh2rcd13ifvqepg","pricing_plan_id":"cebpf4jnsgd1na2vs0mg"},{"bike_id":"2b5a38cb-a075-41f2-9a16-ba14db357009","system_id":"levelo_inurba_marseille","lat":43.294224,"lon":5.386187,"is_reserved":false,"is_disabled":false,"rental_uris":{"android":"levelo://app?vid=2b5a38cb-a075-41f2-9a16-ba14db357009","ios":"levelo://app?vid=2b5a38cb-a075-41f2-9a16-ba14db357009"},"vehicle_type_id":"4","last_reported":1743091960,"current_range_meters":3200,"station_id":"ce4bh2h2rcd13ifvqdh0","pricing_plan_id":"cebpf4jnsgd1na2vs0mg"},{"bike_id":"342f558a-b7e5-4ad0-a8ef-721f02a25118","system_id":"levelo_inurba_marseille","lat":43.32084,"lon":5.36771,"is_reserved":false,"is_disabled":false,"rental_uris":{"android":"levelo://app?vid=342f558a-b7e5-4ad0-a8ef-721f02a25118","ios":"levelo://app?vid=342f558a-b7e5-4ad0-a8ef-721f02a25118"},"vehicle_type_id":"4","last_reported":1743091960,"current_range_meters":3600,"station_id":"ce4bhrh2rcd13ifvqhug","pricing_plan_id":"cebpf4jnsgd1na2vs0mg"},{"bike_id":"95c96f78-7a13-4877-b261-67fd6918fad7","system_id":"levelo_inurba_marseille","lat":43.315338,"lon":5.388205,"is_reserved":false,"is_disabled":true,"rental_uris":{"android":"levelo://app?vid=95c96f78-7a13-4877-b261-67fd6918fad7","ios":"levelo://app?vid=95c96f78-7a13-4877-b261-67fd6918fad7"},"vehicle_type_id":"4","last_reported":1743091960,"current_range_meters":3600,"station_id":"","pricing_plan_id":"cebpf4jnsgd1na2vs0mg"},{"bike_id":"faca6982-d1dd-4663-a5d5-70979a5b8d62","system_id":"levelo_inurba_marseille","lat":43.30546,"lon":5.36544,"is_reserved":false,"is_disabled":false,"rental_uris":{"android":"levelo://app?vid=faca6982-d1dd-4663-a5d5-70979a5b8d62","ios":"levelo://app?vid=faca6982-d1dd-4663-a5d5-70979a5b8d62"},"vehicle_type_id":"4","last_reported":1743091960,"current_range_meters":4400,"station_id":"ce4bgs12rcd13ifvqcag","pricing_plan_id":"cebpf4jnsgd1na2vs0mg"},{"bike_id":"d3503c05-3df0-4af3-9d56-edd26d69e333","system_id":"levelo_inurba_marseille","lat":43.305297,"lon":5.365247,"is_reserved":false,"is_disabled":false,"rental_uris":{"android":"levelo://app?vid=d3503c05-3df0-4af3-9d56-edd26d69e333","ios":"levelo://app?vid=d3503c05-3df0-4af3-9d56-edd26d69e333"},"vehicle_type_id":"4","last_reported":1743091960,"current_range_meters":4400,"station_id":"ce4bgs12rcd13ifvqcag","pricing_plan_id":"cebpf4jnsgd1na2vs0mg"},{"bike_id":"1e0b2636-48a1-4292-92c0-73b807651a12","system_id":"levelo_inurba_marseille","lat":43.289703,"lon":5.37838,"is_reserved":false,"is_disabled":false,"rental_uris":{"android":"levelo://app?vid=1e0b2636-48a1-4292-92c0-73b807651a12","ios":"levelo://app?vid=1e0b2636-48a1-4292-92c0-73b807651a12"},"vehicle_type_id":"4","last_reported":1743091960,"current_range_meters":4400,"station_id":"ce4bgip2rcd13ifvqbb0","pricing_plan_id":"cebpf4jnsgd1na2vs0mg"},{"bike_id":"795063b1-bbcb-4106-a9e7-6aa8fb383fb3","system_id":"levelo_inurba_marseille","lat":43.28153,"lon":5.42637,"is_reserved":false,"is_disabled":false,"rental_uris":{"android":"levelo://app?vid=795063b1-bbcb-4106-a9e7-6aa8fb383fb3","ios":"levelo://app?vid=795063b1-bbcb-4106-a9e7-6aa8fb383fb3"},"vehicle_type_id":"4","last_reported":1743091960,"current_range_meters":4400,"station_id":"ce4bhnh2rcd13ifvqgug","pricing_plan_id":"cebpf4jnsgd1na2vs0mg"},{"bike_id":"b3f42f7b-ae83-4e86-9dc7-0e66070e513a","system_id":"levelo_inurba_marseille","lat":43.28941,"lon":5.36639,"is_reserved":false,"is_disabled":false,"rental_uris":{"android":"levelo://app?vid=b3f42f7b-ae83-4e86-9dc7-0e66070e513a","ios":"levelo://app?vid=b3f42f7b-ae83-4e86-9dc7-0e66070e513a"},"vehicle_type_id":"4","last_reported":1743091960,"current_range_meters":4400,"station_id":"ce4bhap2rcd13ifvqek0","pricing_plan_id":"cebpf4jnsgd1na2vs0mg"},{"bike_id":"fd79a9f3-860e-41c4-8e7f-2b44ad9a0703","system_id":"levelo_inurba_marseille","lat":43.29226,"lon":5.36077,"is_reserved":false,"is_disabled":false,"rental_uris":{"android":"levelo://app?vid=fd79a9f3-860e-41c4-8e7f-2b44ad9a0703","ios":"levelo://app?vid=fd79a9f3-860e-41c4-8e7f-2b44ad9a0703"},"vehicle_type_id":"4","last_reported":1743091960,"current_range_meters":4400,"station_id":"ce4bhbh2rcd13ifvqeqg","pricing_plan_id":"cebpf4jnsgd1na2vs0mg"},{"bike_id":"ac1b5e3c-51c7-4b43-baa0-c4b698cd40ca","system_id":"levelo_inurba_marseille","lat":43.28264,"lon":5.35063,"is_reserved":false,"is_disabled":false,"rental_uris":{"android":"levelo://app?vid=ac1b5e3c-51c7-4b43-baa0-c4b698cd40ca","ios":"levelo://app?vid=ac1b5e3c-51c7-4b43-baa0-c4b698cd40ca"},"vehicle_type_id":"4","last_reported":1743091960,"current_range_meters":4400,"station_id":"ce4bhbp2rcd13ifvqerg","pricing_plan_id":"cebpf4jnsgd1na2vs0mg"},{"bike_id":"96813cd0-0cee-4f6f-91cf-707f2245da85","system_id":"levelo_inurba_marseille","lat":43.23195,"lon":5.39977,"is_reserved":false,"is_disabled":false,"rental_uris":{"android":"levelo://app?vid=96813cd0-0cee-4f6f-91cf-707f2245da85","ios":"levelo://app?vid=96813cd0-0cee-4f6f-91cf-707f2245da85"},"vehicle_type_id":"4","last_reported":1743091960,"current_range_meters":4400,"station_id":"ce4bhn12rcd13ifvqgqg","pricing_plan_id":"cebpf4jnsgd1na2vs0mg"},{"bike_id":"1e93332f-347f-40e0-bb6c-423a33d46b23","system_id":"levelo_inurba_marseille","lat":43.29195,"lon":5.39316,"is_reserved":false,"is_disabled":false,"rental_uris":{"android":"levelo://app?vid=1e93332f-347f-40e0-bb6c-423a33d46b23","ios":"levelo://app?vid=1e93332f-347f-40e0-bb6c-423a33d46b23"},"vehicle_type_id":"4","last_reported":1743091960,"current_range_meters":4800,"station_id":"ce4bh192rcd13ifvqdd0","pricing_plan_id":"cebpf4jnsgd1na2vs0mg"},{"bike_id":"dd6189c9-badf-4198-b963-8a9492c69302","system_id":"levelo_inurba_marseille","lat":43.25505,"lon":5.37651,"is_reserved":false,"is_disabled":false,"rental_uris":{"android":"levelo://app?vid=dd6189c9-badf-4198-b963-8a9492c69302","ios":"levelo://app?vid=dd6189c9-badf-4198-b963-8a9492c69302"},"vehicle_type_id":"4","last_reported":1743091960,"current_range_meters":4800,"station_id":"ce4bhh12rcd13ifvqff0","pricing_plan_id":"cebpf4jnsgd1na2vs0mg"},{"bike_id":"a3e6f248-b75b-40dc-9ce0-a569e7377691","system_id":"levelo_inurba_marseille","lat":43.25932,"lon":5.40912,"is_reserved":false,"is_disabled":true,"rental_uris":{"android":"levelo://app?vid=a3e6f248-b75b-40dc-9ce0-a569e7377691","ios":"levelo://app?vid=a3e6f248-b75b-40dc-9ce0-a569e7377691"},"vehicle_type_id":"4","last_reported":1743091960,"current_range_meters":4800,"station_id":"ce4bhm92rcd13ifvqglg","pricing_plan_id":"cebpf4jnsgd1na2vs0mg"},{"bike_id":"e5bc5f55-6d6c-4b2b-87b5-4942a728d8d1","system_id":"levelo_inurba_marseille","lat":43.23964,"lon":5.3663,"is_reserved":false,"is_disabled":false,"rental_uris":{"android":"levelo://app?vid=e5bc5f55-6d6c-4b2b-87b5-4942a728d8d1","ios":"levelo://app?vid=e5bc5f55-6d6c-4b2b-87b5-4942a728d8d1"},"vehicle_type_id":"4","last_reported":1743091960,"current_range_meters":4800,"station_id":"ce4bhi12rcd13ifvqfp0","pricing_plan_id":"cebpf4jnsgd1na2vs0mg"},{"bike_id":"84133674-7aff-41bb-a9a2-48e4357ca555","system_id":"levelo_inurba_marseille","lat":43.29974,"lon":5.38488,"is_reserved":false,"is_disabled":false,"rental_uris":{"android":"levelo://app?vid=84133674-7aff-41bb-a9a2-48e4357ca555","ios":"levelo://app?vid=84133674-7aff-41bb-a9a2-48e4357ca555"},"vehicle_type_id":"4","last_reported":1743091960,"current_range_meters":4400,"station_id":"ce4bgj92rcd13ifvqbd0","pricing_plan_id":"cebpf4jnsgd1na2vs0mg"},{"bike_id":"e3a29d38-a611-4b12-87ef-2fb8a21c41d5","system_id":"levelo_inurba_marseille","lat":43.22928,"lon":5.35377,"is_reserved":false,"is_disabled":false,"rental_uris":{"android":"levelo://app?vid=e3a29d38-a611-4b12-87ef-2fb8a21c41d5","ios":"levelo://app?vid=e3a29d38-a611-4b12-87ef-2fb8a21c41d5"},"vehicle_type_id":"4","last_reported":1743091960,"current_range_meters":4800,"station_id":"cpo3532slgdg3j2ikp40","pricing_plan_id":"cebpf4jnsgd1na2vs0mg"},{"bike_id":"9c66cc15-0096-423b-bdc5-f6e3c74078ab","system_id":"levelo_inurba_marseille","lat":43.31207,"lon":5.37868,"is_reserved":false,"is_disabled":false,"rental_uris":{"android":"levelo://app?vid=9c66cc15-0096-423b-bdc5-f6e3c74078ab","ios":"levelo://app?vid=9c66cc15-0096-423b-bdc5-f6e3c74078ab"},"vehicle_type_id":"4","last_reported":1743091960,"current_range_meters":4800,"station_id":"","pricing_plan_id":"cebpf4jnsgd1na2vs0mg"},{"bike_id":"20e011e7-a0bb-4e0d-8926-e9642c329ce8","system_id":"levelo_inurba_marseille","lat":43.28937,"lon":5.36385,"is_reserved":false,"is_disabled":false,"rental_uris":{"android":"levelo://app?vid=20e011e7-a0bb-4e0d-8926-e9642c329ce8","ios":"levelo://app?vid=20e011e7-a0bb-4e0d-8926-e9642c329ce8"},"vehicle_type_id":"4","last_reported":1743091960,"current_range_meters":4800,"station_id":"ce4bhc92rcd13ifvqetg","pricing_plan_id":"cebpf4jnsgd1na2vs0mg"},{"bike_id":"a91d1271-084b-43f9-8a4f-a8178dd8db23","system_id":"levelo_inurba_marseille","lat":43.30532,"lon":5.36521,"is_reserved":false,"is_disabled":false,"rental_uris":{"android":"levelo://app?vid=a91d1271-084b-43f9-8a4f-a8178dd8db23","ios":"levelo://app?vid=a91d1271-084b-43f9-8a4f-a8178dd8db23"},"vehicle_type_id":"4","last_reported":1743091960,"current_range_meters":4800,"station_id":"ce4bgs12rcd13ifvqcag","pricing_plan_id":"cebpf4jnsgd1na2vs0mg"},{"bike_id":"edfa6b79-d157-425d-9e75-2963d4e9c097","system_id":"levelo_inurba_marseille","lat":43.2904,"lon":5.37567,"is_reserved":false,"is_disabled":false,"rental_uris":{"android":"levelo://app?vid=edfa6b79-d157-425d-9e75-2963d4e9c097","ios":"levelo://app?vid=edfa6b79-d157-425d-9e75-2963d4e9c097"},"vehicle_type_id":"4","last_reported":1743091960,"current_range_meters":5600,"station_id":"ce4bh692rcd13ifvqe90","pricing_plan_id":"cebpf4jnsgd1na2vs0mg"},{"bike_id":"2d5d3805-3fdf-4f8e-8145-2f7be9ce0056","system_id":"levelo_inurba_marseille","lat":43.304192,"lon":5.412828,"is_reserved":false,"is_disabled":false,"rental_uris":{"android":"levelo://app?vid=2d5d3805-3fdf-4f8e-8145-2f7be9ce0056","ios":"levelo://app?vid=2d5d3805-3fdf-4f8e-8145-2f7be9ce0056"},"vehicle_type_id":"4","last_reported":1743091960,"current_range_meters":5600,"station_id":"","pricing_plan_id":"cebpf4jnsgd1na2vs0mg"},{"bike_id":"45b9c181-7754-416b-85fd-81736cd35eb8","system_id":"levelo_inurba_marseille","lat":43.31487,"lon":5.37307,"is_reserved":false,"is_disabled":false,"rental_uris":{"android":"levelo://app?vid=45b9c181-7754-416b-85fd-81736cd35eb8","ios":"levelo://app?vid=45b9c181-7754-416b-85fd-81736cd35eb8"},"vehicle_type_id":"4","last_reported":1743091960,"current_range_meters":5600,"station_id":"ce4bgt12rcd13ifvqcd0","pricing_plan_id":"cebpf4jnsgd1na2vs0mg"},{"bike_id":"bb7d131e-bf2d-415d-aec5-53ab2b5836c0","system_id":"levelo_inurba_marseille","lat":43.31375,"lon":5.36715,"is_reserved":false,"is_disabled":false,"rental_uris":{"android":"levelo://app?vid=bb7d131e-bf2d-415d-aec5-53ab2b5836c0","ios":"levelo://app?vid=bb7d131e-bf2d-415d-aec5-53ab2b5836c0"},"vehicle_type_id":"4","last_reported":1743091960,"current_range_meters":5600,"station_id":"ce4bgr92rcd13ifvqc6g","pricing_plan_id":"cebpf4jnsgd1na2vs0mg"},{"bike_id":"3440ae68-e205-42cf-8956-9a783c13588d","system_id":"levelo_inurba_marseille","lat":43.23069,"lon":5.35512,"is_reserved":false,"is_disabled":false,"rental_uris":{"android":"levelo://app?vid=3440ae68-e205-42cf-8956-9a783c13588d","ios":"levelo://app?vid=3440ae68-e205-42cf-8956-9a783c13588d"},"vehicle_type_id":"4","last_reported":1743091960,"current_range_meters":5600,"station_id":"cpo3342slgdg3j2ifvpg","pricing_plan_id":"cebpf4jnsgd1na2vs0mg"},{"bike_id":"04aaec48-cf6c-4228-b6da-83d08dbaaeb6","system_id":"levelo_inurba_marseille","lat":43.29583,"lon":5.3674,"is_reserved":false,"is_disabled":false,"rental_uris":{"android":"levelo://app?vid=04aaec48-cf6c-4228-b6da-83d08dbaaeb6","ios":"levelo://app?vid=04aaec48-cf6c-4228-b6da-83d08dbaaeb6"},"vehicle_type_id":"4","last_reported":1743091960,"current_range_meters":5600,"station_id":"ce4bgph2rcd13ifvqc2g","pricing_plan_id":"cebpf4jnsgd1na2vs0mg"},{"bike_id":"661516f4-b522-4734-b142-2c5b9467dda6","system_id":"levelo_inurba_marseille","lat":43.26195,"lon":5.37447,"is_reserved":false,"is_disabled":false,"rental_uris":{"android":"levelo://app?vid=661516f4-b522-4734-b142-2c5b9467dda6","ios":"levelo://app?vid=661516f4-b522-4734-b142-2c5b9467dda6"},"vehicle_type_id":"4","last_reported":1743091960,"current_range_meters":6000,"station_id":"ce4bhgp2rcd13ifvqfc0","pricing_plan_id":"cebpf4jnsgd1na2vs0mg"},{"bike_id":"aedbf740-2550-40bb-b5ee-f82676c1e02d","system_id":"levelo_inurba_marseille","lat":43.29266,"lon":5.367,"is_reserved":false,"is_disabled":false,"rental_uris":{"android":"levelo://app?vid=aedbf740-2550-40bb-b5ee-f82676c1e02d","ios":"levelo://app?vid=aedbf740-2550-40bb-b5ee-f82676c1e02d"},"vehicle_type_id":"4","last_reported":1743091960,"current_range_meters":6000,"station_id":"ce4bhbh2rcd13ifvqeqg","pricing_plan_id":"cebpf4jnsgd1na2vs0mg"},{"bike_id":"a3a81113-0b79-47ac-914d-dcffe9f5ede4","system_id":"levelo_inurba_marseille","lat":43.28135,"lon":5.4264,"is_reserved":false,"is_disabled":false,"rental_uris":{"android":"levelo://app?vid=a3a81113-0b79-47ac-914d-dcffe9f5ede4","ios":"levelo://app?vid=a3a81113-0b79-47ac-914d-dcffe9f5ede4"},"vehicle_type_id":"4","last_reported":1743091960,"current_range_meters":6000,"station_id":"ce4bhnh2rcd13ifvqgug","pricing_plan_id":"cebpf4jnsgd1na2vs0mg"},{"bike_id":"1dd765a9-64b4-439c-a196-df55419cc971","system_id":"levelo_inurba_marseille","lat":43.24171,"lon":5.36401,"is_reserved":false,"is_disabled":false,"rental_uris":{"android":"levelo://app?vid=1dd765a9-64b4-439c-a196-df55419cc971","ios":"levelo://app?vid=1dd765a9-64b4-439c-a196-df55419cc971"},"vehicle_type_id":"4","last_reported":1743091960,"current_range_meters":6000,"station_id":"cpo36qri1sfpv3e86is0","pricing_plan_id":"cebpf4jnsgd1na2vs0mg"},{"bike_id":"9a8fc139-be1f-4984-8865-e577c6bd8735","system_id":"levelo_inurba_marseille","lat":43.305936,"lon":5.393625,"is_reserved":false,"is_disabled":false,"rental_uris":{"android":"levelo://app?vid=9a8fc139-be1f-4984-8865-e577c6bd8735","ios":"levelo://app?vid=9a8fc139-be1f-4984-8865-e577c6bd8735"},"vehicle_type_id":"4","last_reported":1743091960,"current_range_meters":6000,"station_id":"ce4bhnp2rcd13ifvqgvg","pricing_plan_id":"cebpf4jnsgd1na2vs0mg"},{"bike_id":"4c19df2c-e56b-46d5-99f8-0692f59ced6a","system_id":"levelo_inurba_marseille","lat":43.284707,"lon":5.384283,"is_reserved":false,"is_disabled":false,"rental_uris":{"android":"levelo://app?vid=4c19df2c-e56b-46d5-99f8-0692f59ced6a","ios":"levelo://app?vid=4c19df2c-e56b-46d5-99f8-0692f59ced6a"},"vehicle_type_id":"4","last_reported":1743091960,"current_range_meters":6000,"station_id":"ce4bgt92rcd13ifvqcf0","pricing_plan_id":"cebpf4jnsgd1na2vs0mg"},{"bike_id":"f2704b9c-c316-4f5f-9155-65f7581186ce","system_id":"levelo_inurba_marseille","lat":43.28009,"lon":5.36935,"is_reserved":false,"is_disabled":false,"rental_uris":{"android":"levelo://app?vid=f2704b9c-c316-4f5f-9155-65f7581186ce","ios":"levelo://app?vid=f2704b9c-c316-4f5f-9155-65f7581186ce"},"vehicle_type_id":"4","last_reported":1743091960,"current_range_meters":6400,"station_id":"ce4bha12rcd13ifvqef0","pricing_plan_id":"cebpf4jnsgd1na2vs0mg"},{"bike_id":"279357a7-4858-46e5-8a66-9bb7d8f1e0bb","system_id":"levelo_inurba_marseille","lat":43.29615,"lon":5.37702,"is_reserved":false,"is_disabled":false,"rental_uris":{"android":"levelo://app?vid=279357a7-4858-46e5-8a66-9bb7d8f1e0bb","ios":"levelo://app?vid=279357a7-4858-46e5-8a66-9bb7d8f1e0bb"},"vehicle_type_id":"4","last_reported":1743091960,"current_range_meters":6000,"station_id":"","pricing_plan_id":"cebpf4jnsgd1na2vs0mg"},{"bike_id":"6623bcce-557f-4122-835c-6ecbd0c74040","system_id":"levelo_inurba_marseille","lat":43.28464,"lon":5.35894,"is_reserved":false,"is_disabled":false,"rental_uris":{"android":"levelo://app?vid=6623bcce-557f-4122-835c-6ecbd0c74040","ios":"levelo://app?vid=6623bcce-557f-4122-835c-6ecbd0c74040"},"vehicle_type_id":"4","last_reported":1743091960,"current_range_meters":6000,"station_id":"ce4bhah2rcd13ifvqei0","pricing_plan_id":"cebpf4jnsgd1na2vs0mg"},{"bike_id":"f19bf8d4-4ae7-4ab4-b1a8-f48a199c9129","system_id":"levelo_inurba_marseille","lat":43.24409,"lon":5.3706,"is_reserved":false,"is_disabled":false,"rental_uris":{"android":"levelo://app?vid=f19bf8d4-4ae7-4ab4-b1a8-f48a199c9129","ios":"levelo://app?vid=f19bf8d4-4ae7-4ab4-b1a8-f48a199c9129"},"vehicle_type_id":"4","last_reported":1743091960,"current_range_meters":6000,"station_id":"ce4bhhh2rcd13ifvqfk0","pricing_plan_id":"cebpf4jnsgd1na2vs0mg"},{"bike_id":"11875813-b31f-4761-9cf7-459086cfde6e","system_id":"levelo_inurba_marseille","lat":43.26555,"lon":5.37285,"is_reserved":false,"is_disabled":false,"rental_uris":{"android":"levelo://app?vid=11875813-b31f-4761-9cf7-459086cfde6e","ios":"levelo://app?vid=11875813-b31f-4761-9cf7-459086cfde6e"},"vehicle_type_id":"4","last_reported":1743091960,"current_range_meters":6000,"station_id":"ce4bhg12rcd13ifvqf70","pricing_plan_id":"cebpf4jnsgd1na2vs0mg"},{"bike_id":"eed7bd5c-f231-4e20-ae6a-79da1b178700","system_id":"levelo_inurba_marseille","lat":43.29782,"lon":5.39342,"is_reserved":false,"is_disabled":false,"rental_uris":{"android":"levelo://app?vid=eed7bd5c-f231-4e20-ae6a-79da1b178700","ios":"levelo://app?vid=eed7bd5c-f231-4e20-ae6a-79da1b178700"},"vehicle_type_id":"4","last_reported":1743091960,"current_range_meters":6000,"station_id":"chh1huq6cuj3fo74tm60","pricing_plan_id":"cebpf4jnsgd1na2vs0mg"},{"bike_id":"00e6c0f3-ef37-49a6-a3dd-8a8133b8875f","system_id":"levelo_inurba_marseille","lat":43.291956,"lon":5.393242,"is_reserved":false,"is_disabled":false,"rental_uris":{"android":"levelo://app?vid=00e6c0f3-ef37-49a6-a3dd-8a8133b8875f","ios":"levelo://app?vid=00e6c0f3-ef37-49a6-a3dd-8a8133b8875f"},"vehicle_type_id":"4","last_reported":1743091960,"current_range_meters":6400,"station_id":"ce4bh192rcd13ifvqdd0","pricing_plan_id":"cebpf4jnsgd1na2vs0mg"},{"bike_id":"74780e9e-e9d4-4713-9612-faac58402c70","system_id":"levelo_inurba_marseille","lat":43.28412,"lon":5.34991,"is_reserved":false,"is_disabled":false,"rental_uris":{"android":"levelo://app?vid=74780e9e-e9d4-4713-9612-faac58402c70","ios":"levelo://app?vid=74780e9e-e9d4-4713-9612-faac58402c70"},"vehicle_type_id":"4","last_reported":1743091960,"current_range_meters":6400,"station_id":"ce4bhbh2rcd13ifvqepg","pricing_plan_id":"cebpf4jnsgd1na2vs0mg"},{"bike_id":"693dda60-4779-48b9-b750-16467e1d0b53","system_id":"levelo_inurba_marseille","lat":43.31232,"lon":5.36862,"is_reserved":false,"is_disabled":false,"rental_uris":{"android":"levelo://app?vid=693dda60-4779-48b9-b750-16467e1d0b53","ios":"levelo://app?vid=693dda60-4779-48b9-b750-16467e1d0b53"},"vehicle_type_id":"4","last_reported":1743091960,"current_range_meters":6400,"station_id":"ce4bgl92rcd13ifvqbq0","pricing_plan_id":"cebpf4jnsgd1na2vs0mg"},{"bike_id":"06e2fe78-0751-4b8f-8caf-b728e1c4d445","system_id":"levelo_inurba_marseille","lat":43.30258,"lon":5.4007,"is_reserved":false,"is_disabled":false,"rental_uris":{"android":"levelo://app?vid=06e2fe78-0751-4b8f-8caf-b728e1c4d445","ios":"levelo://app?vid=06e2fe78-0751-4b8f-8caf-b728e1c4d445"},"vehicle_type_id":"4","last_reported":1743091960,"current_range_meters":6400,"station_id":"ce4bgvh2rcd13ifvqcs0","pricing_plan_id":"cebpf4jnsgd1na2vs0mg"},{"bike_id":"e97eb76c-4715-4bee-acc6-e592f10d04b6","system_id":"levelo_inurba_marseille","lat":43.27989,"lon":5.40017,"is_reserved":false,"is_disabled":false,"rental_uris":{"android":"levelo://app?vid=e97eb76c-4715-4bee-acc6-e592f10d04b6","ios":"levelo://app?vid=e97eb76c-4715-4bee-acc6-e592f10d04b6"},"vehicle_type_id":"4","last_reported":1743091960,"current_range_meters":6400,"station_id":"ce4bho92rcd13ifvqh4g","pricing_plan_id":"cebpf4jnsgd1na2vs0mg"},{"bike_id":"f17bb7bb-4549-45a6-a8c5-a1760814a158","system_id":"levelo_inurba_marseille","lat":43.27818,"lon":5.4072,"is_reserved":false,"is_disabled":false,"rental_uris":{"android":"levelo://app?vid=f17bb7bb-4549-45a6-a8c5-a1760814a158","ios":"levelo://app?vid=f17bb7bb-4549-45a6-a8c5-a1760814a158"},"vehicle_type_id":"4","last_reported":1743091960,"current_range_meters":6800,"station_id":"ce4bhnh2rcd13ifvqgtg","pricing_plan_id":"cebpf4jnsgd1na2vs0mg"},{"bike_id":"8f4c6599-c57c-47f3-b859-da4512b39b4a","system_id":"levelo_inurba_marseille","lat":43.30549,"lon":5.36544,"is_reserved":false,"is_disabled":false,"rental_uris":{"android":"levelo://app?vid=8f4c6599-c57c-47f3-b859-da4512b39b4a","ios":"levelo://app?vid=8f4c6599-c57c-47f3-b859-da4512b39b4a"},"vehicle_type_id":"4","last_reported":1743091960,"current_range_meters":6800,"station_id":"ce4bgs12rcd13ifvqcag","pricing_plan_id":"cebpf4jnsgd1na2vs0mg"},{"bike_id":"850d80ed-1bf3-4ec2-88f3-bc2d8adecf59","system_id":"levelo_inurba_marseille","lat":43.31246,"lon":5.36868,"is_reserved":false,"is_disabled":false,"rental_uris":{"android":"levelo://app?vid=850d80ed-1bf3-4ec2-88f3-bc2d8adecf59","ios":"levelo://app?vid=850d80ed-1bf3-4ec2-88f3-bc2d8adecf59"},"vehicle_type_id":"4","last_reported":1743091960,"current_range_meters":6800,"station_id":"ce4bgl92rcd13ifvqbq0","pricing_plan_id":"cebpf4jnsgd1na2vs0mg"},{"bike_id":"684b4a45-4aa0-4188-97c3-6f9bbbd98c9a","system_id":"levelo_inurba_marseille","lat":43.28461,"lon":5.35887,"is_reserved":false,"is_disabled":false,"rental_uris":{"android":"levelo://app?vid=684b4a45-4aa0-4188-97c3-6f9bbbd98c9a","ios":"levelo://app?vid=684b4a45-4aa0-4188-97c3-6f9bbbd98c9a"},"vehicle_type_id":"4","last_reported":1743091960,"current_range_meters":6800,"station_id":"ce4bhah2rcd13ifvqei0","pricing_plan_id":"cebpf4jnsgd1na2vs0mg"},{"bike_id":"ee988453-d16c-47fa-adff-d95106af9b0a","system_id":"levelo_inurba_marseille","lat":43.23193,"lon":5.35557,"is_reserved":false,"is_disabled":false,"rental_uris":{"android":"levelo://app?vid=ee988453-d16c-47fa-adff-d95106af9b0a","ios":"levelo://app?vid=ee988453-d16c-47fa-adff-d95106af9b0a"},"vehicle_type_id":"4","last_reported":1743091960,"current_range_meters":7200,"station_id":"ce4bhu92rcd13ifvqi70","pricing_plan_id":"cebpf4jnsgd1na2vs0mg"},{"bike_id":"ec3c7164-bab6-41f1-afdd-0977262171e1","system_id":"levelo_inurba_marseille","lat":43.26493,"lon":5.39558,"is_reserved":false,"is_disabled":false,"rental_uris":{"android":"levelo://app?vid=ec3c7164-bab6-41f1-afdd-0977262171e1","ios":"levelo://app?vid=ec3c7164-bab6-41f1-afdd-0977262171e1"},"vehicle_type_id":"4","last_reported":1743091960,"current_range_meters":7200,"station_id":"ce4bhi12rcd13ifvqfq0","pricing_plan_id":"cebpf4jnsgd1na2vs0mg"},{"bike_id":"d887c189-d7ca-4dbc-b29c-1534df4eff43","system_id":"levelo_inurba_marseille","lat":43.30437,"lon":5.38892,"is_reserved":false,"is_disabled":false,"rental_uris":{"android":"levelo://app?vid=d887c189-d7ca-4dbc-b29c-1534df4eff43","ios":"levelo://app?vid=d887c189-d7ca-4dbc-b29c-1534df4eff43"},"vehicle_type_id":"4","last_reported":1743091960,"current_range_meters":7200,"station_id":"ce4bgk12rcd13ifvqbi0","pricing_plan_id":"cebpf4jnsgd1na2vs0mg"},{"bike_id":"84a7a785-5392-42bc-8088-fb903bcc7f5c","system_id":"levelo_inurba_marseille","lat":43.23062,"lon":5.35492,"is_reserved":false,"is_disabled":false,"rental_uris":{"android":"levelo://app?vid=84a7a785-5392-42bc-8088-fb903bcc7f5c","ios":"levelo://app?vid=84a7a785-5392-42bc-8088-fb903bcc7f5c"},"vehicle_type_id":"4","last_reported":1743091960,"current_range_meters":7200,"station_id":"cpo3342slgdg3j2ifvpg","pricing_plan_id":"cebpf4jnsgd1na2vs0mg"},{"bike_id":"b7ad21fc-60f3-48fb-ac11-3b0b8ddf9c86","system_id":"levelo_inurba_marseille","lat":43.27915,"lon":5.39577,"is_reserved":false,"is_disabled":false,"rental_uris":{"android":"levelo://app?vid=b7ad21fc-60f3-48fb-ac11-3b0b8ddf9c86","ios":"levelo://app?vid=b7ad21fc-60f3-48fb-ac11-3b0b8ddf9c86"},"vehicle_type_id":"4","last_reported":1743091960,"current_range_meters":7200,"station_id":"ce4bhf92rcd13ifvqf40","pricing_plan_id":"cebpf4jnsgd1na2vs0mg"},{"bike_id":"586f0775-f3c8-4d7f-b5fd-76805e6871fd","system_id":"levelo_inurba_marseille","lat":43.28424,"lon":5.34992,"is_reserved":false,"is_disabled":false,"rental_uris":{"android":"levelo://app?vid=586f0775-f3c8-4d7f-b5fd-76805e6871fd","ios":"levelo://app?vid=586f0775-f3c8-4d7f-b5fd-76805e6871fd"},"vehicle_type_id":"4","last_reported":1743091960,"current_range_meters":7200,"station_id":"ce4bhbh2rcd13ifvqepg","pricing_plan_id":"cebpf4jnsgd1na2vs0mg"},{"bike_id":"85d0fa0c-b5b9-41cd-ba43-951901672dab","system_id":"levelo_inurba_marseille","lat":43.25582,"lon":5.38993,"is_reserved":false,"is_disabled":false,"rental_uris":{"android":"levelo://app?vid=85d0fa0c-b5b9-41cd-ba43-951901672dab","ios":"levelo://app?vid=85d0fa0c-b5b9-41cd-ba43-951901672dab"},"vehicle_type_id":"4","last_reported":1743091960,"current_range_meters":7200,"station_id":"","pricing_plan_id":"cebpf4jnsgd1na2vs0mg"},{"bike_id":"dc8ccdc9-a018-4504-b0a9-676297905591","system_id":"levelo_inurba_marseille","lat":43.29309,"lon":5.36982,"is_reserved":false,"is_disabled":false,"rental_uris":{"android":"levelo://app?vid=dc8ccdc9-a018-4504-b0a9-676297905591","ios":"levelo://app?vid=dc8ccdc9-a018-4504-b0a9-676297905591"},"vehicle_type_id":"4","last_reported":1743091960,"current_range_meters":7200,"station_id":"","pricing_plan_id":"cebpf4jnsgd1na2vs0mg"},{"bike_id":"9b0db4f1-c6a1-4ca7-86c5-ec1daffe0ea2","system_id":"levelo_inurba_marseille","lat":43.25075,"lon":5.39506,"is_reserved":false,"is_disabled":false,"rental_uris":{"android":"levelo://app?vid=9b0db4f1-c6a1-4ca7-86c5-ec1daffe0ea2","ios":"levelo://app?vid=9b0db4f1-c6a1-4ca7-86c5-ec1daffe0ea2"},"vehicle_type_id":"4","last_reported":1743091960,"current_range_meters":7200,"station_id":"ce4bhm12rcd13ifvqgkg","pricing_plan_id":"cebpf4jnsgd1na2vs0mg"},{"bike_id":"294b4f0f-3d7c-455b-9378-95148bacc76b","system_id":"levelo_inurba_marseille","lat":43.28267,"lon":5.35062,"is_reserved":false,"is_disabled":false,"rental_uris":{"android":"levelo://app?vid=294b4f0f-3d7c-455b-9378-95148bacc76b","ios":"levelo://app?vid=294b4f0f-3d7c-455b-9378-95148bacc76b"},"vehicle_type_id":"4","last_reported":1743091960,"current_range_meters":8000,"station_id":"ce4bhbp2rcd13ifvqerg","pricing_plan_id":"cebpf4jnsgd1na2vs0mg"},{"bike_id":"84c4866b-91ae-4c5a-8c39-6b8ee43843ad","system_id":"levelo_inurba_marseille","lat":43.29191,"lon":5.39313,"is_reserved":false,"is_disabled":false,"rental_uris":{"android":"levelo://app?vid=84c4866b-91ae-4c5a-8c39-6b8ee43843ad","ios":"levelo://app?vid=84c4866b-91ae-4c5a-8c39-6b8ee43843ad"},"vehicle_type_id":"4","last_reported":1743091960,"current_range_meters":8000,"station_id":"ce4bh192rcd13ifvqdd0","pricing_plan_id":"cebpf4jnsgd1na2vs0mg"},{"bike_id":"faf9c11b-bbb3-4748-ae14-def7239e485d","system_id":"levelo_inurba_marseille","lat":43.27059,"lon":5.40261,"is_reserved":false,"is_disabled":false,"rental_uris":{"android":"levelo://app?vid=faf9c11b-bbb3-4748-ae14-def7239e485d","ios":"levelo://app?vid=faf9c11b-bbb3-4748-ae14-def7239e485d"},"vehicle_type_id":"4","last_reported":1743091960,"current_range_meters":8000,"station_id":"ce4bhk92rcd13ifvqgc0","pricing_plan_id":"cebpf4jnsgd1na2vs0mg"},{"bike_id":"2591bfdd-195a-43fc-b49b-cead5d9ba9e8","system_id":"levelo_inurba_marseille","lat":43.250083,"lon":5.389102,"is_reserved":false,"is_disabled":false,"rental_uris":{"android":"levelo://app?vid=2591bfdd-195a-43fc-b49b-cead5d9ba9e8","ios":"levelo://app?vid=2591bfdd-195a-43fc-b49b-cead5d9ba9e8"},"vehicle_type_id":"4","last_reported":1743091960,"current_range_meters":8000,"station_id":"ce4bhgp2rcd13ifvqfd0","pricing_plan_id":"cebpf4jnsgd1na2vs0mg"},{"bike_id":"420caf47-dad2-451c-8438-68ae568eee92","system_id":"levelo_inurba_marseille","lat":43.3132,"lon":5.36704,"is_reserved":false,"is_disabled":false,"rental_uris":{"android":"levelo://app?vid=420caf47-dad2-451c-8438-68ae568eee92","ios":"levelo://app?vid=420caf47-dad2-451c-8438-68ae568eee92"},"vehicle_type_id":"4","last_reported":1743091960,"current_range_meters":8000,"station_id":"ce4bgr92rcd13ifvqc6g","pricing_plan_id":"cebpf4jnsgd1na2vs0mg"},{"bike_id":"3a5e18ad-6a23-4442-9c34-19c7bd17a17e","system_id":"levelo_inurba_marseille","lat":43.22925,"lon":5.35368,"is_reserved":false,"is_disabled":false,"rental_uris":{"android":"levelo://app?vid=3a5e18ad-6a23-4442-9c34-19c7bd17a17e","ios":"levelo://app?vid=3a5e18ad-6a23-4442-9c34-19c7bd17a17e"},"vehicle_type_id":"4","last_reported":1743091960,"current_range_meters":8000,"station_id":"cpo3532slgdg3j2ikp40","pricing_plan_id":"cebpf4jnsgd1na2vs0mg"},{"bike_id":"c0c6b9f1-b023-4fa1-9c9d-eb220ab0ca0f","system_id":"levelo_inurba_marseille","lat":43.25087,"lon":5.3952,"is_reserved":false,"is_disabled":false,"rental_uris":{"android":"levelo://app?vid=c0c6b9f1-b023-4fa1-9c9d-eb220ab0ca0f","ios":"levelo://app?vid=c0c6b9f1-b023-4fa1-9c9d-eb220ab0ca0f"},"vehicle_type_id":"4","last_reported":1743091960,"current_range_meters":8000,"station_id":"ce4bhm12rcd13ifvqgkg","pricing_plan_id":"cebpf4jnsgd1na2vs0mg"},{"bike_id":"db4c7be8-900f-47ad-b8be-ffe777efc217","system_id":"levelo_inurba_marseille","lat":43.239694,"lon":5.366243,"is_reserved":false,"is_disabled":false,"rental_uris":{"android":"levelo://app?vid=db4c7be8-900f-47ad-b8be-ffe777efc217","ios":"levelo://app?vid=db4c7be8-900f-47ad-b8be-ffe777efc217"},"vehicle_type_id":"4","last_reported":1743091960,"current_range_meters":7200,"station_id":"ce4bh312rcd13ifvqdk0","pricing_plan_id":"cebpf4jnsgd1na2vs0mg"},{"bike_id":"54cfd3f4-3a63-4e76-a676-cf05502379e8","system_id":"levelo_inurba_marseille","lat":43.27383,"lon":5.36257,"is_reserved":false,"is_disabled":false,"rental_uris":{"android":"levelo://app?vid=54cfd3f4-3a63-4e76-a676-cf05502379e8","ios":"levelo://app?vid=54cfd3f4-3a63-4e76-a676-cf05502379e8"},"vehicle_type_id":"4","last_reported":1743091960,"current_range_meters":8400,"station_id":"ce4bhbh2rcd13ifvqeo0","pricing_plan_id":"cebpf4jnsgd1na2vs0mg"},{"bike_id":"f279166c-062f-47e3-84ac-b32ab3476518","system_id":"levelo_inurba_marseille","lat":43.30216,"lon":5.39455,"is_reserved":false,"is_disabled":false,"rental_uris":{"android":"levelo://app?vid=f279166c-062f-47e3-84ac-b32ab3476518","ios":"levelo://app?vid=f279166c-062f-47e3-84ac-b32ab3476518"},"vehicle_type_id":"4","last_reported":1743091960,"current_range_meters":8400,"station_id":"ce4bh0p2rcd13ifvqd70","pricing_plan_id":"cebpf4jnsgd1na2vs0mg"},{"bike_id":"40046afd-c6aa-43ea-88bd-183a4d2ec61c","system_id":"levelo_inurba_marseille","lat":43.31605,"lon":5.41666,"is_reserved":false,"is_disabled":false,"rental_uris":{"android":"levelo://app?vid=40046afd-c6aa-43ea-88bd-183a4d2ec61c","ios":"levelo://app?vid=40046afd-c6aa-43ea-88bd-183a4d2ec61c"},"vehicle_type_id":"4","last_reported":1743091960,"current_range_meters":8400,"station_id":"","pricing_plan_id":"cebpf4jnsgd1na2vs0mg"},{"bike_id":"90e9d858-4a6d-4a0e-a971-d9efa9357120","system_id":"levelo_inurba_marseille","lat":43.30135,"lon":5.39874,"is_reserved":false,"is_disabled":false,"rental_uris":{"android":"levelo://app?vid=90e9d858-4a6d-4a0e-a971-d9efa9357120","ios":"levelo://app?vid=90e9d858-4a6d-4a0e-a971-d9efa9357120"},"vehicle_type_id":"4","last_reported":1743091960,"current_range_meters":8000,"station_id":"ce4bh0h2rcd13ifvqd40","pricing_plan_id":"cebpf4jnsgd1na2vs0mg"},{"bike_id":"72407b9c-71b7-4feb-83e9-97e5f2a36163","system_id":"levelo_inurba_marseille","lat":43.24167,"lon":5.36394,"is_reserved":false,"is_disabled":false,"rental_uris":{"android":"levelo://app?vid=72407b9c-71b7-4feb-83e9-97e5f2a36163","ios":"levelo://app?vid=72407b9c-71b7-4feb-83e9-97e5f2a36163"},"vehicle_type_id":"4","last_reported":1743091960,"current_range_meters":8400,"station_id":"cpo36qri1sfpv3e86is0","pricing_plan_id":"cebpf4jnsgd1na2vs0mg"},{"bike_id":"9a2ee782-5844-4c10-a5c4-21a9697bb812","system_id":"levelo_inurba_marseille","lat":43.27586,"lon":5.38427,"is_reserved":false,"is_disabled":false,"rental_uris":{"android":"levelo://app?vid=9a2ee782-5844-4c10-a5c4-21a9697bb812","ios":"levelo://app?vid=9a2ee782-5844-4c10-a5c4-21a9697bb812"},"vehicle_type_id":"4","last_reported":1743091960,"current_range_meters":8400,"station_id":"ce4bhh92rcd13ifvqfi0","pricing_plan_id":"cebpf4jnsgd1na2vs0mg"},{"bike_id":"a9381ee8-a281-4821-ae9c-6ebdbfa5e98e","system_id":"levelo_inurba_marseille","lat":43.28614,"lon":5.35103,"is_reserved":false,"is_disabled":false,"rental_uris":{"android":"levelo://app?vid=a9381ee8-a281-4821-ae9c-6ebdbfa5e98e","ios":"levelo://app?vid=a9381ee8-a281-4821-ae9c-6ebdbfa5e98e"},"vehicle_type_id":"4","last_reported":1743091960,"current_range_meters":8400,"station_id":"ce4bhch2rcd13ifvqeug","pricing_plan_id":"cebpf4jnsgd1na2vs0mg"},{"bike_id":"efba8028-51e0-4bbd-bd03-26c62f74f4e8","system_id":"levelo_inurba_marseille","lat":43.30425,"lon":5.39743,"is_reserved":false,"is_disabled":false,"rental_uris":{"android":"levelo://app?vid=efba8028-51e0-4bbd-bd03-26c62f74f4e8","ios":"levelo://app?vid=efba8028-51e0-4bbd-bd03-26c62f74f4e8"},"vehicle_type_id":"4","last_reported":1743091960,"current_range_meters":8000,"station_id":"ce4bh092rcd13ifvqd20","pricing_plan_id":"cebpf4jnsgd1na2vs0mg"},{"bike_id":"0c035c8e-4e94-4105-9364-6cd74fe51ad1","system_id":"levelo_inurba_marseille","lat":43.30294,"lon":5.37723,"is_reserved":false,"is_disabled":false,"rental_uris":{"android":"levelo://app?vid=0c035c8e-4e94-4105-9364-6cd74fe51ad1","ios":"levelo://app?vid=0c035c8e-4e94-4105-9364-6cd74fe51ad1"},"vehicle_type_id":"4","last_reported":1743091960,"current_range_meters":8400,"station_id":"ce4bguh2rcd13ifvqcj0","pricing_plan_id":"cebpf4jnsgd1na2vs0mg"},{"bike_id":"53104d84-f272-4d64-b5a3-da94aa38f8f7","system_id":"levelo_inurba_marseille","lat":43.30205,"lon":5.39458,"is_reserved":false,"is_disabled":false,"rental_uris":{"android":"levelo://app?vid=53104d84-f272-4d64-b5a3-da94aa38f8f7","ios":"levelo://app?vid=53104d84-f272-4d64-b5a3-da94aa38f8f7"},"vehicle_type_id":"4","last_reported":1743091960,"current_range_meters":8400,"station_id":"ce4bh0p2rcd13ifvqd70","pricing_plan_id":"cebpf4jnsgd1na2vs0mg"},{"bike_id":"c25fa395-72af-4d5c-9873-175586443b06","system_id":"levelo_inurba_marseille","lat":43.2706,"lon":5.4026,"is_reserved":false,"is_disabled":false,"rental_uris":{"android":"levelo://app?vid=c25fa395-72af-4d5c-9873-175586443b06","ios":"levelo://app?vid=c25fa395-72af-4d5c-9873-175586443b06"},"vehicle_type_id":"4","last_reported":1743091960,"current_range_meters":8400,"station_id":"ce4bhk92rcd13ifvqgc0","pricing_plan_id":"cebpf4jnsgd1na2vs0mg"},{"bike_id":"4ea2dc4a-53b8-4d21-b056-faf850ab7b24","system_id":"levelo_inurba_marseille","lat":43.29552,"lon":5.4228,"is_reserved":false,"is_disabled":false,"rental_uris":{"android":"levelo://app?vid=4ea2dc4a-53b8-4d21-b056-faf850ab7b24","ios":"levelo://app?vid=4ea2dc4a-53b8-4d21-b056-faf850ab7b24"},"vehicle_type_id":"4","last_reported":1743091960,"current_range_meters":8800,"station_id":"ce4bhph2rcd13ifvqhdg","pricing_plan_id":"cebpf4jnsgd1na2vs0mg"},{"bike_id":"3994737b-f8d6-4448-96ae-7dbd2ad5046e","system_id":"levelo_inurba_marseille","lat":43.28949,"lon":5.36388,"is_reserved":false,"is_disabled":false,"rental_uris":{"android":"levelo://app?vid=3994737b-f8d6-4448-96ae-7dbd2ad5046e","ios":"levelo://app?vid=3994737b-f8d6-4448-96ae-7dbd2ad5046e"},"vehicle_type_id":"4","last_reported":1743091960,"current_range_meters":8800,"station_id":"ce4bhc92rcd13ifvqetg","pricing_plan_id":"cebpf4jnsgd1na2vs0mg"},{"bike_id":"db7517ea-6bf9-4543-8348-e6fd273ae6ae","system_id":"levelo_inurba_marseille","lat":43.29419,"lon":5.38619,"is_reserved":false,"is_disabled":false,"rental_uris":{"android":"levelo://app?vid=db7517ea-6bf9-4543-8348-e6fd273ae6ae","ios":"levelo://app?vid=db7517ea-6bf9-4543-8348-e6fd273ae6ae"},"vehicle_type_id":"4","last_reported":1743091960,"current_range_meters":8800,"station_id":"ce4bh2h2rcd13ifvqdh0","pricing_plan_id":"cebpf4jnsgd1na2vs0mg"},{"bike_id":"cad6781f-eede-4f7c-8c67-0feeba102f90","system_id":"levelo_inurba_marseille","lat":43.28932,"lon":5.36641,"is_reserved":false,"is_disabled":false,"rental_uris":{"android":"levelo://app?vid=cad6781f-eede-4f7c-8c67-0feeba102f90","ios":"levelo://app?vid=cad6781f-eede-4f7c-8c67-0feeba102f90"},"vehicle_type_id":"4","last_reported":1743091960,"current_range_meters":8800,"station_id":"ce4bhap2rcd13ifvqek0","pricing_plan_id":"cebpf4jnsgd1na2vs0mg"},{"bike_id":"fe2da3fb-2c2b-4e57-9bfb-48897992d60f","system_id":"levelo_inurba_marseille","lat":43.29225,"lon":5.36057,"is_reserved":false,"is_disabled":false,"rental_uris":{"android":"levelo://app?vid=fe2da3fb-2c2b-4e57-9bfb-48897992d60f","ios":"levelo://app?vid=fe2da3fb-2c2b-4e57-9bfb-48897992d60f"},"vehicle_type_id":"4","last_reported":1743091960,"current_range_meters":8800,"station_id":"ce4bhbh2rcd13ifvqeqg","pricing_plan_id":"cebpf4jnsgd1na2vs0mg"},{"bike_id":"5fb24102-21dc-4199-84d8-884a3dfb8191","system_id":"levelo_inurba_marseille","lat":43.29584,"lon":5.37505,"is_reserved":false,"is_disabled":false,"rental_uris":{"android":"levelo://app?vid=5fb24102-21dc-4199-84d8-884a3dfb8191","ios":"levelo://app?vid=5fb24102-21dc-4199-84d8-884a3dfb8191"},"vehicle_type_id":"4","last_reported":1743091960,"current_range_meters":8800,"station_id":"ce4bgh92rcd13ifvqb50","pricing_plan_id":"cebpf4jnsgd1na2vs0mg"},{"bike_id":"6610cf72-bbd7-48c5-a636-a0843aee1f3c","system_id":"levelo_inurba_marseille","lat":43.3021,"lon":5.39471,"is_reserved":false,"is_disabled":false,"rental_uris":{"android":"levelo://app?vid=6610cf72-bbd7-48c5-a636-a0843aee1f3c","ios":"levelo://app?vid=6610cf72-bbd7-48c5-a636-a0843aee1f3c"},"vehicle_type_id":"4","last_reported":1743091960,"current_range_meters":8800,"station_id":"ce4bh0p2rcd13ifvqd70","pricing_plan_id":"cebpf4jnsgd1na2vs0mg"},{"bike_id":"07394fd4-caf4-4410-bcc8-e5af4fe830dc","system_id":"levelo_inurba_marseille","lat":43.28461,"lon":5.3589,"is_reserved":false,"is_disabled":false,"rental_uris":{"android":"levelo://app?vid=07394fd4-caf4-4410-bcc8-e5af4fe830dc","ios":"levelo://app?vid=07394fd4-caf4-4410-bcc8-e5af4fe830dc"},"vehicle_type_id":"4","last_reported":1743091960,"current_range_meters":8800,"station_id":"ce4bhah2rcd13ifvqei0","pricing_plan_id":"cebpf4jnsgd1na2vs0mg"},{"bike_id":"ce924168-392a-4acc-ac4f-65637a2d95ce","system_id":"levelo_inurba_marseille","lat":43.27628,"lon":5.3611,"is_reserved":false,"is_disabled":false,"rental_uris":{"android":"levelo://app?vid=ce924168-392a-4acc-ac4f-65637a2d95ce","ios":"levelo://app?vid=ce924168-392a-4acc-ac4f-65637a2d95ce"},"vehicle_type_id":"4","last_reported":1743091960,"current_range_meters":8800,"station_id":"ce4bgj92rcd13ifvqbe0","pricing_plan_id":"cebpf4jnsgd1na2vs0mg"},{"bike_id":"46b45cc7-16c8-4d86-af8d-51a855667127","system_id":"levelo_inurba_marseille","lat":43.29926,"lon":5.38099,"is_reserved":false,"is_disabled":false,"rental_uris":{"android":"levelo://app?vid=46b45cc7-16c8-4d86-af8d-51a855667127","ios":"levelo://app?vid=46b45cc7-16c8-4d86-af8d-51a855667127"},"vehicle_type_id":"4","last_reported":1743091960,"current_range_meters":9200,"station_id":"ce4bgj12rcd13ifvqbc0","pricing_plan_id":"cebpf4jnsgd1na2vs0mg"},{"bike_id":"b15048bc-8fd0-465d-8de1-57a593185e23","system_id":"levelo_inurba_marseille","lat":43.30931,"lon":5.40147,"is_reserved":false,"is_disabled":false,"rental_uris":{"android":"levelo://app?vid=b15048bc-8fd0-465d-8de1-57a593185e23","ios":"levelo://app?vid=b15048bc-8fd0-465d-8de1-57a593185e23"},"vehicle_type_id":"4","last_reported":1743091960,"current_range_meters":9200,"station_id":"ce4bgvp2rcd13ifvqct0","pricing_plan_id":"cebpf4jnsgd1na2vs0mg"},{"bike_id":"83c296a3-74a2-4498-8955-12ede1464fc5","system_id":"levelo_inurba_marseille","lat":43.2736,"lon":5.3624,"is_reserved":false,"is_disabled":false,"rental_uris":{"android":"levelo://app?vid=83c296a3-74a2-4498-8955-12ede1464fc5","ios":"levelo://app?vid=83c296a3-74a2-4498-8955-12ede1464fc5"},"vehicle_type_id":"4","last_reported":1743091960,"current_range_meters":9200,"station_id":"ce4bhbh2rcd13ifvqeo0","pricing_plan_id":"cebpf4jnsgd1na2vs0mg"},{"bike_id":"5747aeb5-466e-4530-ba5d-24ca17bf0ed5","system_id":"levelo_inurba_marseille","lat":43.28276,"lon":5.35074,"is_reserved":false,"is_disabled":false,"rental_uris":{"android":"levelo://app?vid=5747aeb5-466e-4530-ba5d-24ca17bf0ed5","ios":"levelo://app?vid=5747aeb5-466e-4530-ba5d-24ca17bf0ed5"},"vehicle_type_id":"4","last_reported":1743091960,"current_range_meters":9200,"station_id":"ce4bhbp2rcd13ifvqerg","pricing_plan_id":"cebpf4jnsgd1na2vs0mg"},{"bike_id":"1b43fc25-3ea0-48b3-af2c-a67610b49dc2","system_id":"levelo_inurba_marseille","lat":43.31365,"lon":5.36724,"is_reserved":false,"is_disabled":false,"rental_uris":{"android":"levelo://app?vid=1b43fc25-3ea0-48b3-af2c-a67610b49dc2","ios":"levelo://app?vid=1b43fc25-3ea0-48b3-af2c-a67610b49dc2"},"vehicle_type_id":"4","last_reported":1743091960,"current_range_meters":9200,"station_id":"ce4bgr92rcd13ifvqc6g","pricing_plan_id":"cebpf4jnsgd1na2vs0mg"},{"bike_id":"43ba8a24-ac21-4472-890e-f91ac8620f10","system_id":"levelo_inurba_marseille","lat":43.31167,"lon":5.38718,"is_reserved":false,"is_disabled":false,"rental_uris":{"android":"levelo://app?vid=43ba8a24-ac21-4472-890e-f91ac8620f10","ios":"levelo://app?vid=43ba8a24-ac21-4472-890e-f91ac8620f10"},"vehicle_type_id":"4","last_reported":1743091960,"current_range_meters":8800,"station_id":"ce4bgv12rcd13ifvqcp0","pricing_plan_id":"cebpf4jnsgd1na2vs0mg"},{"bike_id":"c18155db-65c7-4d5a-8c5b-923eb75c675d","system_id":"levelo_inurba_marseille","lat":43.32111,"lon":5.36775,"is_reserved":false,"is_disabled":false,"rental_uris":{"android":"levelo://app?vid=c18155db-65c7-4d5a-8c5b-923eb75c675d","ios":"levelo://app?vid=c18155db-65c7-4d5a-8c5b-923eb75c675d"},"vehicle_type_id":"4","last_reported":1743091960,"current_range_meters":9200,"station_id":"ce4bhrh2rcd13ifvqhug","pricing_plan_id":"cebpf4jnsgd1na2vs0mg"},{"bike_id":"c26d43eb-4dd0-497f-835c-2c1b4cfb1b71","system_id":"levelo_inurba_marseille","lat":43.28955,"lon":5.36401,"is_reserved":false,"is_disabled":false,"rental_uris":{"android":"levelo://app?vid=c26d43eb-4dd0-497f-835c-2c1b4cfb1b71","ios":"levelo://app?vid=c26d43eb-4dd0-497f-835c-2c1b4cfb1b71"},"vehicle_type_id":"4","last_reported":1743091960,"current_range_meters":9200,"station_id":"ce4bhc92rcd13ifvqetg","pricing_plan_id":"cebpf4jnsgd1na2vs0mg"},{"bike_id":"a0aa2b66-8d81-4f41-ae27-5d11fde4f918","system_id":"levelo_inurba_marseille","lat":43.28425,"lon":5.34988,"is_reserved":false,"is_disabled":false,"rental_uris":{"android":"levelo://app?vid=a0aa2b66-8d81-4f41-ae27-5d11fde4f918","ios":"levelo://app?vid=a0aa2b66-8d81-4f41-ae27-5d11fde4f918"},"vehicle_type_id":"4","last_reported":1743091960,"current_range_meters":9200,"station_id":"ce4bhbh2rcd13ifvqepg","pricing_plan_id":"cebpf4jnsgd1na2vs0mg"},{"bike_id":"7a243ddc-5526-4d4d-b7ca-9672baa3a32c","system_id":"levelo_inurba_marseille","lat":43.25123,"lon":5.40311,"is_reserved":false,"is_disabled":false,"rental_uris":{"android":"levelo://app?vid=7a243ddc-5526-4d4d-b7ca-9672baa3a32c","ios":"levelo://app?vid=7a243ddc-5526-4d4d-b7ca-9672baa3a32c"},"vehicle_type_id":"4","last_reported":1743091960,"current_range_meters":9200,"station_id":"ce4bhlh2rcd13ifvqgig","pricing_plan_id":"cebpf4jnsgd1na2vs0mg"},{"bike_id":"96504045-100a-468c-8897-360fb4c19832","system_id":"levelo_inurba_marseille","lat":43.278162,"lon":5.407156,"is_reserved":false,"is_disabled":false,"rental_uris":{"android":"levelo://app?vid=96504045-100a-468c-8897-360fb4c19832","ios":"levelo://app?vid=96504045-100a-468c-8897-360fb4c19832"},"vehicle_type_id":"4","last_reported":1743091960,"current_range_meters":9600,"station_id":"ce4bhnh2rcd13ifvqgtg","pricing_plan_id":"cebpf4jnsgd1na2vs0mg"},{"bike_id":"2e5c1b32-1734-471f-871a-b95312a09981","system_id":"levelo_inurba_marseille","lat":43.3068,"lon":5.40086,"is_reserved":false,"is_disabled":false,"rental_uris":{"android":"levelo://app?vid=2e5c1b32-1734-471f-871a-b95312a09981","ios":"levelo://app?vid=2e5c1b32-1734-471f-871a-b95312a09981"},"vehicle_type_id":"4","last_reported":1743091960,"current_range_meters":9600,"station_id":"ce4bh112rcd13ifvqda0","pricing_plan_id":"cebpf4jnsgd1na2vs0mg"},{"bike_id":"841ae10a-e680-4550-ba3d-b0ff53b5151f","system_id":"levelo_inurba_marseille","lat":43.3091,"lon":5.3685,"is_reserved":false,"is_disabled":false,"rental_uris":{"android":"levelo://app?vid=841ae10a-e680-4550-ba3d-b0ff53b5151f","ios":"levelo://app?vid=841ae10a-e680-4550-ba3d-b0ff53b5151f"},"vehicle_type_id":"4","last_reported":1743091960,"current_range_meters":9600,"station_id":"ce4bgn92rcd13ifvqbvg","pricing_plan_id":"cebpf4jnsgd1na2vs0mg"},{"bike_id":"b8c89436-605d-40e9-8347-95390b7f9322","system_id":"levelo_inurba_marseille","lat":43.25696,"lon":5.41122,"is_reserved":false,"is_disabled":false,"rental_uris":{"android":"levelo://app?vid=b8c89436-605d-40e9-8347-95390b7f9322","ios":"levelo://app?vid=b8c89436-605d-40e9-8347-95390b7f9322"},"vehicle_type_id":"4","last_reported":1743091960,"current_range_meters":9600,"station_id":"ce4bhkp2rcd13ifvqgd0","pricing_plan_id":"cebpf4jnsgd1na2vs0mg"},{"bike_id":"361d3365-66cb-488a-ae3e-4ac9d67186e2","system_id":"levelo_inurba_marseille","lat":43.32364,"lon":5.3676,"is_reserved":false,"is_disabled":false,"rental_uris":{"android":"levelo://app?vid=361d3365-66cb-488a-ae3e-4ac9d67186e2","ios":"levelo://app?vid=361d3365-66cb-488a-ae3e-4ac9d67186e2"},"vehicle_type_id":"4","last_reported":1743091960,"current_range_meters":9600,"station_id":"ce4bhsh2rcd13ifvqi2g","pricing_plan_id":"cebpf4jnsgd1na2vs0mg"},{"bike_id":"d78bef9c-ed08-4dd3-be8c-89d87f9036be","system_id":"levelo_inurba_marseille","lat":43.28422,"lon":5.34996,"is_reserved":false,"is_disabled":false,"rental_uris":{"android":"levelo://app?vid=d78bef9c-ed08-4dd3-be8c-89d87f9036be","ios":"levelo://app?vid=d78bef9c-ed08-4dd3-be8c-89d87f9036be"},"vehicle_type_id":"4","last_reported":1743091960,"current_range_meters":9600,"station_id":"ce4bhbh2rcd13ifvqepg","pricing_plan_id":"cebpf4jnsgd1na2vs0mg"},{"bike_id":"d2554b2d-e241-444c-a752-9df959f80b1a","system_id":"levelo_inurba_marseille","lat":43.31119,"lon":5.37756,"is_reserved":false,"is_disabled":false,"rental_uris":{"android":"levelo://app?vid=d2554b2d-e241-444c-a752-9df959f80b1a","ios":"levelo://app?vid=d2554b2d-e241-444c-a752-9df959f80b1a"},"vehicle_type_id":"4","last_reported":1743091960,"current_range_meters":9600,"station_id":"ce4bgt92rcd13ifvqcg0","pricing_plan_id":"cebpf4jnsgd1na2vs0mg"},{"bike_id":"3a9bdcca-abab-46db-a40a-336182c98f57","system_id":"levelo_inurba_marseille","lat":43.27812,"lon":5.40727,"is_reserved":false,"is_disabled":false,"rental_uris":{"android":"levelo://app?vid=3a9bdcca-abab-46db-a40a-336182c98f57","ios":"levelo://app?vid=3a9bdcca-abab-46db-a40a-336182c98f57"},"vehicle_type_id":"4","last_reported":1743091960,"current_range_meters":10000,"station_id":"ce4bhnh2rcd13ifvqgtg","pricing_plan_id":"cebpf4jnsgd1na2vs0mg"},{"bike_id":"108ed62f-bb10-4b57-b35c-37757cf2ecf9","system_id":"levelo_inurba_marseille","lat":43.241849,"lon":5.397307,"is_reserved":false,"is_disabled":false,"rental_uris":{"android":"levelo://app?vid=108ed62f-bb10-4b57-b35c-37757cf2ecf9","ios":"levelo://app?vid=108ed62f-bb10-4b57-b35c-37757cf2ecf9"},"vehicle_type_id":"4","last_reported":1743091960,"current_range_meters":10000,"station_id":"ce4bhn12rcd13ifvqgpg","pricing_plan_id":"cebpf4jnsgd1na2vs0mg"},{"bike_id":"e5047771-2082-4dba-9477-d8725027152d","system_id":"levelo_inurba_marseille","lat":43.25455,"lon":5.41878,"is_reserved":false,"is_disabled":false,"rental_uris":{"android":"levelo://app?vid=e5047771-2082-4dba-9477-d8725027152d","ios":"levelo://app?vid=e5047771-2082-4dba-9477-d8725027152d"},"vehicle_type_id":"4","last_reported":1743091960,"current_range_meters":10000,"station_id":"","pricing_plan_id":"cebpf4jnsgd1na2vs0mg"},{"bike_id":"2079e143-15fb-4fca-b428-1dcdbd2da2aa","system_id":"levelo_inurba_marseille","lat":43.27842,"lon":5.40714,"is_reserved":false,"is_disabled":false,"rental_uris":{"android":"levelo://app?vid=2079e143-15fb-4fca-b428-1dcdbd2da2aa","ios":"levelo://app?vid=2079e143-15fb-4fca-b428-1dcdbd2da2aa"},"vehicle_type_id":"4","last_reported":1743091960,"current_range_meters":10000,"station_id":"ce4bhnh2rcd13ifvqgtg","pricing_plan_id":"cebpf4jnsgd1na2vs0mg"},{"bike_id":"30cd612a-8cb0-4fab-9e3a-cd08e9fc22b5","system_id":"levelo_inurba_marseille","lat":43.29533,"lon":5.39411,"is_reserved":false,"is_disabled":true,"rental_uris":{"android":"levelo://app?vid=30cd612a-8cb0-4fab-9e3a-cd08e9fc22b5","ios":"levelo://app?vid=30cd612a-8cb0-4fab-9e3a-cd08e9fc22b5"},"vehicle_type_id":"4","last_reported":1743091960,"current_range_meters":10000,"station_id":"ce4bh292rcd13ifvqdf0","pricing_plan_id":"cebpf4jnsgd1na2vs0mg"},{"bike_id":"51075471-184d-470e-9250-da15469f9bec","system_id":"levelo_inurba_marseille","lat":43.28419,"lon":5.34987,"is_reserved":false,"is_disabled":false,"rental_uris":{"android":"levelo://app?vid=51075471-184d-470e-9250-da15469f9bec","ios":"levelo://app?vid=51075471-184d-470e-9250-da15469f9bec"},"vehicle_type_id":"4","last_reported":1743091960,"current_range_meters":10000,"station_id":"ce4bhbh2rcd13ifvqepg","pricing_plan_id":"cebpf4jnsgd1na2vs0mg"},{"bike_id":"0ac88cdf-dd3a-494f-aaa5-2b24d1ce393f","system_id":"levelo_inurba_marseille","lat":43.23193,"lon":5.35556,"is_reserved":false,"is_disabled":false,"rental_uris":{"android":"levelo://app?vid=0ac88cdf-dd3a-494f-aaa5-2b24d1ce393f","ios":"levelo://app?vid=0ac88cdf-dd3a-494f-aaa5-2b24d1ce393f"},"vehicle_type_id":"4","last_reported":1743091960,"current_range_meters":10000,"station_id":"ce4bhu92rcd13ifvqi70","pricing_plan_id":"cebpf4jnsgd1na2vs0mg"},{"bike_id":"f9fdca2f-1e6c-4305-bf26-51251213e95f","system_id":"levelo_inurba_marseille","lat":43.30585,"lon":5.39356,"is_reserved":false,"is_disabled":false,"rental_uris":{"android":"levelo://app?vid=f9fdca2f-1e6c-4305-bf26-51251213e95f","ios":"levelo://app?vid=f9fdca2f-1e6c-4305-bf26-51251213e95f"},"vehicle_type_id":"4","last_reported":1743091960,"current_range_meters":10000,"station_id":"ce4bh0p2rcd13ifvqd80","pricing_plan_id":"cebpf4jnsgd1na2vs0mg"},{"bike_id":"fc314820-3e16-42be-8c6b-91e7087dd533","system_id":"levelo_inurba_marseille","lat":43.28612,"lon":5.3512,"is_reserved":false,"is_disabled":false,"rental_uris":{"android":"levelo://app?vid=fc314820-3e16-42be-8c6b-91e7087dd533","ios":"levelo://app?vid=fc314820-3e16-42be-8c6b-91e7087dd533"},"vehicle_type_id":"4","last_reported":1743091960,"current_range_meters":10000,"station_id":"ce4bhch2rcd13ifvqeug","pricing_plan_id":"cebpf4jnsgd1na2vs0mg"},{"bike_id":"e2d85809-0c95-461d-bf43-b58e61b7d9ff","system_id":"levelo_inurba_marseille","lat":43.305524,"lon":5.365343,"is_reserved":false,"is_disabled":false,"rental_uris":{"android":"levelo://app?vid=e2d85809-0c95-461d-bf43-b58e61b7d9ff","ios":"levelo://app?vid=e2d85809-0c95-461d-bf43-b58e61b7d9ff"},"vehicle_type_id":"4","last_reported":1743091960,"current_range_meters":10800,"station_id":"ce4bgs12rcd13ifvqcag","pricing_plan_id":"cebpf4jnsgd1na2vs0mg"},{"bike_id":"043c0aee-0726-4500-8f3f-c3d0289131f1","system_id":"levelo_inurba_marseille","lat":43.29514,"lon":5.39396,"is_reserved":false,"is_disabled":false,"rental_uris":{"android":"levelo://app?vid=043c0aee-0726-4500-8f3f-c3d0289131f1","ios":"levelo://app?vid=043c0aee-0726-4500-8f3f-c3d0289131f1"},"vehicle_type_id":"4","last_reported":1743091960,"current_range_meters":10800,"station_id":"ce4bh292rcd13ifvqdf0","pricing_plan_id":"cebpf4jnsgd1na2vs0mg"},{"bike_id":"cd0b482a-a2da-41be-bb7d-818a9b5a09d7","system_id":"levelo_inurba_marseille","lat":43.26058,"lon":5.39399,"is_reserved":false,"is_disabled":false,"rental_uris":{"android":"levelo://app?vid=cd0b482a-a2da-41be-bb7d-818a9b5a09d7","ios":"levelo://app?vid=cd0b482a-a2da-41be-bb7d-818a9b5a09d7"},"vehicle_type_id":"4","last_reported":1743091960,"current_range_meters":10800,"station_id":"ce4bhh92rcd13ifvqfj0","pricing_plan_id":"cebpf4jnsgd1na2vs0mg"},{"bike_id":"29346ce5-e3f8-414f-ac70-a849b98ac7bb","system_id":"levelo_inurba_marseille","lat":43.27381,"lon":5.36235,"is_reserved":false,"is_disabled":false,"rental_uris":{"android":"levelo://app?vid=29346ce5-e3f8-414f-ac70-a849b98ac7bb","ios":"levelo://app?vid=29346ce5-e3f8-414f-ac70-a849b98ac7bb"},"vehicle_type_id":"4","last_reported":1743091960,"current_range_meters":10800,"station_id":"ce4bhbh2rcd13ifvqeo0","pricing_plan_id":"cebpf4jnsgd1na2vs0mg"},{"bike_id":"fd6a563f-0e1a-4054-b32b-f13d630a9ca3","system_id":"levelo_inurba_marseille","lat":43.2455,"lon":5.39535,"is_reserved":false,"is_disabled":false,"rental_uris":{"android":"levelo://app?vid=fd6a563f-0e1a-4054-b32b-f13d630a9ca3","ios":"levelo://app?vid=fd6a563f-0e1a-4054-b32b-f13d630a9ca3"},"vehicle_type_id":"4","last_reported":1743091960,"current_range_meters":10800,"station_id":"ce4bhlp2rcd13ifvqgjg","pricing_plan_id":"cebpf4jnsgd1na2vs0mg"},{"bike_id":"b7df044c-a420-415e-b7b7-345aa8eb07fc","system_id":"levelo_inurba_marseille","lat":43.3184,"lon":5.38744,"is_reserved":false,"is_disabled":false,"rental_uris":{"android":"levelo://app?vid=b7df044c-a420-415e-b7b7-345aa8eb07fc","ios":"levelo://app?vid=b7df044c-a420-415e-b7b7-345aa8eb07fc"},"vehicle_type_id":"4","last_reported":1743091960,"current_range_meters":10800,"station_id":"","pricing_plan_id":"cebpf4jnsgd1na2vs0mg"},{"bike_id":"ad490540-9617-4879-94f4-dd4a10fd0eb3","system_id":"levelo_inurba_marseille","lat":43.24656,"lon":5.38895,"is_reserved":false,"is_disabled":false,"rental_uris":{"android":"levelo://app?vid=ad490540-9617-4879-94f4-dd4a10fd0eb3","ios":"levelo://app?vid=ad490540-9617-4879-94f4-dd4a10fd0eb3"},"vehicle_type_id":"4","last_reported":1743091960,"current_range_meters":10800,"station_id":"ce4bhg12rcd13ifvqf60","pricing_plan_id":"cebpf4jnsgd1na2vs0mg"},{"bike_id":"64f0ea86-1180-4755-95e1-3cbc9c8d4cf5","system_id":"levelo_inurba_marseille","lat":43.330079,"lon":5.4386,"is_reserved":false,"is_disabled":true,"rental_uris":{"android":"levelo://app?vid=64f0ea86-1180-4755-95e1-3cbc9c8d4cf5","ios":"levelo://app?vid=64f0ea86-1180-4755-95e1-3cbc9c8d4cf5"},"vehicle_type_id":"4","last_reported":1743091960,"current_range_meters":10800,"station_id":"","pricing_plan_id":"cebpf4jnsgd1na2vs0mg"},{"bike_id":"2e95a620-73b3-45ca-b4c7-84e270c45e41","system_id":"levelo_inurba_marseille","lat":43.28614,"lon":5.35101,"is_reserved":false,"is_disabled":false,"rental_uris":{"android":"levelo://app?vid=2e95a620-73b3-45ca-b4c7-84e270c45e41","ios":"levelo://app?vid=2e95a620-73b3-45ca-b4c7-84e270c45e41"},"vehicle_type_id":"4","last_reported":1743091960,"current_range_meters":10800,"station_id":"ce4bhch2rcd13ifvqeug","pricing_plan_id":"cebpf4jnsgd1na2vs0mg"},{"bike_id":"71f6bc82-e3ae-49a9-98ff-7771fad65ffb","system_id":"levelo_inurba_marseille","lat":43.2919,"lon":5.39311,"is_reserved":false,"is_disabled":false,"rental_uris":{"android":"levelo://app?vid=71f6bc82-e3ae-49a9-98ff-7771fad65ffb","ios":"levelo://app?vid=71f6bc82-e3ae-49a9-98ff-7771fad65ffb"},"vehicle_type_id":"4","last_reported":1743091960,"current_range_meters":10800,"station_id":"ce4bh192rcd13ifvqdd0","pricing_plan_id":"cebpf4jnsgd1na2vs0mg"},{"bike_id":"4148286b-bba9-4adb-8839-83b192769343","system_id":"levelo_inurba_marseille","lat":43.28417,"lon":5.34975,"is_reserved":false,"is_disabled":false,"rental_uris":{"android":"levelo://app?vid=4148286b-bba9-4adb-8839-83b192769343","ios":"levelo://app?vid=4148286b-bba9-4adb-8839-83b192769343"},"vehicle_type_id":"4","last_reported":1743091960,"current_range_meters":10800,"station_id":"ce4bhbh2rcd13ifvqepg","pricing_plan_id":"cebpf4jnsgd1na2vs0mg"},{"bike_id":"4abd9af2-5f98-4b47-b1ae-766df2d1c200","system_id":"levelo_inurba_marseille","lat":43.28619,"lon":5.35113,"is_reserved":false,"is_disabled":false,"rental_uris":{"android":"levelo://app?vid=4abd9af2-5f98-4b47-b1ae-766df2d1c200","ios":"levelo://app?vid=4abd9af2-5f98-4b47-b1ae-766df2d1c200"},"vehicle_type_id":"4","last_reported":1743091960,"current_range_meters":10800,"station_id":"ce4bhch2rcd13ifvqeug","pricing_plan_id":"cebpf4jnsgd1na2vs0mg"},{"bike_id":"fc8e8371-f4e9-4721-bc19-563801e389dc","system_id":"levelo_inurba_marseille","lat":43.337444,"lon":5.374475,"is_reserved":false,"is_disabled":false,"rental_uris":{"android":"levelo://app?vid=fc8e8371-f4e9-4721-bc19-563801e389dc","ios":"levelo://app?vid=fc8e8371-f4e9-4721-bc19-563801e389dc"},"vehicle_type_id":"4","last_reported":1743091960,"current_range_meters":10800,"station_id":"","pricing_plan_id":"cebpf4jnsgd1na2vs0mg"},{"bike_id":"12de2a5d-af1a-406f-ae29-1792c23b418c","system_id":"levelo_inurba_marseille","lat":43.28415,"lon":5.34999,"is_reserved":false,"is_disabled":false,"rental_uris":{"android":"levelo://app?vid=12de2a5d-af1a-406f-ae29-1792c23b418c","ios":"levelo://app?vid=12de2a5d-af1a-406f-ae29-1792c23b418c"},"vehicle_type_id":"4","last_reported":1743091960,"current_range_meters":11200,"station_id":"ce4bhbh2rcd13ifvqepg","pricing_plan_id":"cebpf4jnsgd1na2vs0mg"},{"bike_id":"96040058-cb3b-4262-bed9-5b514ef1a611","system_id":"levelo_inurba_marseille","lat":43.30123,"lon":5.39864,"is_reserved":false,"is_disabled":false,"rental_uris":{"android":"levelo://app?vid=96040058-cb3b-4262-bed9-5b514ef1a611","ios":"levelo://app?vid=96040058-cb3b-4262-bed9-5b514ef1a611"},"vehicle_type_id":"4","last_reported":1743091960,"current_range_meters":11200,"station_id":"ce4bh0h2rcd13ifvqd40","pricing_plan_id":"cebpf4jnsgd1na2vs0mg"},{"bike_id":"00f8a823-b5b1-4799-904b-6136ec63ab41","system_id":"levelo_inurba_marseille","lat":43.28613,"lon":5.35104,"is_reserved":false,"is_disabled":false,"rental_uris":{"android":"levelo://app?vid=00f8a823-b5b1-4799-904b-6136ec63ab41","ios":"levelo://app?vid=00f8a823-b5b1-4799-904b-6136ec63ab41"},"vehicle_type_id":"4","last_reported":1743091960,"current_range_meters":11200,"station_id":"ce4bhch2rcd13ifvqeug","pricing_plan_id":"cebpf4jnsgd1na2vs0mg"},{"bike_id":"25c93242-72e6-4525-aea7-7d96e2cd1825","system_id":"levelo_inurba_marseille","lat":43.33079,"lon":5.4083,"is_reserved":false,"is_disabled":false,"rental_uris":{"android":"levelo://app?vid=25c93242-72e6-4525-aea7-7d96e2cd1825","ios":"levelo://app?vid=25c93242-72e6-4525-aea7-7d96e2cd1825"},"vehicle_type_id":"4","last_reported":1743091960,"current_range_meters":11200,"station_id":"","pricing_plan_id":"cebpf4jnsgd1na2vs0mg"},{"bike_id":"9a15a95f-cf9b-4362-bb25-0b5170108c0a","system_id":"levelo_inurba_marseille","lat":43.30543,"lon":5.36532,"is_reserved":false,"is_disabled":false,"rental_uris":{"android":"levelo://app?vid=9a15a95f-cf9b-4362-bb25-0b5170108c0a","ios":"levelo://app?vid=9a15a95f-cf9b-4362-bb25-0b5170108c0a"},"vehicle_type_id":"4","last_reported":1743091960,"current_range_meters":11200,"station_id":"ce4bgs12rcd13ifvqcag","pricing_plan_id":"cebpf4jnsgd1na2vs0mg"},{"bike_id":"bf20a29a-b83c-4ae2-95de-93f80ce9107d","system_id":"levelo_inurba_marseille","lat":43.2558,"lon":5.38228,"is_reserved":false,"is_disabled":false,"rental_uris":{"android":"levelo://app?vid=bf20a29a-b83c-4ae2-95de-93f80ce9107d","ios":"levelo://app?vid=bf20a29a-b83c-4ae2-95de-93f80ce9107d"},"vehicle_type_id":"4","last_reported":1743091960,"current_range_meters":10800,"station_id":"ce4bhih2rcd13ifvqfs0","pricing_plan_id":"cebpf4jnsgd1na2vs0mg"},{"bike_id":"7e6f06b6-f5e7-4130-a206-95bf62f0c146","system_id":"levelo_inurba_marseille","lat":43.31227,"lon":5.36851,"is_reserved":false,"is_disabled":false,"rental_uris":{"android":"levelo://app?vid=7e6f06b6-f5e7-4130-a206-95bf62f0c146","ios":"levelo://app?vid=7e6f06b6-f5e7-4130-a206-95bf62f0c146"},"vehicle_type_id":"4","last_reported":1743091960,"current_range_meters":11200,"station_id":"ce4bgl92rcd13ifvqbq0","pricing_plan_id":"cebpf4jnsgd1na2vs0mg"},{"bike_id":"19221227-42ec-4f4b-8f04-42a0818e22f5","system_id":"levelo_inurba_marseille","lat":43.32099,"lon":5.36777,"is_reserved":false,"is_disabled":false,"rental_uris":{"android":"levelo://app?vid=19221227-42ec-4f4b-8f04-42a0818e22f5","ios":"levelo://app?vid=19221227-42ec-4f4b-8f04-42a0818e22f5"},"vehicle_type_id":"4","last_reported":1743091960,"current_range_meters":11200,"station_id":"ce4bhrh2rcd13ifvqhug","pricing_plan_id":"cebpf4jnsgd1na2vs0mg"},{"bike_id":"3d925b18-32bd-4c1e-890d-2ee787fb4dc4","system_id":"levelo_inurba_marseille","lat":43.2455,"lon":5.39531,"is_reserved":false,"is_disabled":false,"rental_uris":{"android":"levelo://app?vid=3d925b18-32bd-4c1e-890d-2ee787fb4dc4","ios":"levelo://app?vid=3d925b18-32bd-4c1e-890d-2ee787fb4dc4"},"vehicle_type_id":"4","last_reported":1743091960,"current_range_meters":11200,"station_id":"ce4bhlp2rcd13ifvqgjg","pricing_plan_id":"cebpf4jnsgd1na2vs0mg"},{"bike_id":"96da9c39-d9d0-49e8-a460-ffcb75c8b723","system_id":"levelo_inurba_marseille","lat":43.30126,"lon":5.3985,"is_reserved":false,"is_disabled":false,"rental_uris":{"android":"levelo://app?vid=96da9c39-d9d0-49e8-a460-ffcb75c8b723","ios":"levelo://app?vid=96da9c39-d9d0-49e8-a460-ffcb75c8b723"},"vehicle_type_id":"4","last_reported":1743091960,"current_range_meters":11600,"station_id":"ce4bh0h2rcd13ifvqd40","pricing_plan_id":"cebpf4jnsgd1na2vs0mg"},{"bike_id":"6a445437-040d-40e9-8502-6b7f2071b06a","system_id":"levelo_inurba_marseille","lat":43.31366,"lon":5.39611,"is_reserved":false,"is_disabled":false,"rental_uris":{"android":"levelo://app?vid=6a445437-040d-40e9-8502-6b7f2071b06a","ios":"levelo://app?vid=6a445437-040d-40e9-8502-6b7f2071b06a"},"vehicle_type_id":"4","last_reported":1743091960,"current_range_meters":11600,"station_id":"ce4bgvp2rcd13ifvqcu0","pricing_plan_id":"cebpf4jnsgd1na2vs0mg"},{"bike_id":"929dc956-2b4d-4a62-a433-5892161c84a1","system_id":"levelo_inurba_marseille","lat":43.325,"lon":5.36545,"is_reserved":false,"is_disabled":false,"rental_uris":{"android":"levelo://app?vid=929dc956-2b4d-4a62-a433-5892161c84a1","ios":"levelo://app?vid=929dc956-2b4d-4a62-a433-5892161c84a1"},"vehicle_type_id":"4","last_reported":1743091960,"current_range_meters":11600,"station_id":"ce4bhs12rcd13ifvqhvg","pricing_plan_id":"cebpf4jnsgd1na2vs0mg"},{"bike_id":"1dfd77f5-269e-4955-87ea-0fe34058894c","system_id":"levelo_inurba_marseille","lat":43.2549,"lon":5.37651,"is_reserved":false,"is_disabled":false,"rental_uris":{"android":"levelo://app?vid=1dfd77f5-269e-4955-87ea-0fe34058894c","ios":"levelo://app?vid=1dfd77f5-269e-4955-87ea-0fe34058894c"},"vehicle_type_id":"4","last_reported":1743091960,"current_range_meters":11600,"station_id":"ce4bhh12rcd13ifvqff0","pricing_plan_id":"cebpf4jnsgd1na2vs0mg"},{"bike_id":"a2e64856-e9e9-4bc3-a1c3-3afc915e3dca","system_id":"levelo_inurba_marseille","lat":43.29094,"lon":5.38135,"is_reserved":false,"is_disabled":false,"rental_uris":{"android":"levelo://app?vid=a2e64856-e9e9-4bc3-a1c3-3afc915e3dca","ios":"levelo://app?vid=a2e64856-e9e9-4bc3-a1c3-3afc915e3dca"},"vehicle_type_id":"4","last_reported":1743091960,"current_range_meters":11600,"station_id":"ce4bh512rcd13ifvqe2g","pricing_plan_id":"cebpf4jnsgd1na2vs0mg"},{"bike_id":"30672948-4108-467c-bd3c-20fbab765f75","system_id":"levelo_inurba_marseille","lat":43.28465,"lon":5.35892,"is_reserved":false,"is_disabled":false,"rental_uris":{"android":"levelo://app?vid=30672948-4108-467c-bd3c-20fbab765f75","ios":"levelo://app?vid=30672948-4108-467c-bd3c-20fbab765f75"},"vehicle_type_id":"4","last_reported":1743091960,"current_range_meters":11600,"station_id":"ce4bhah2rcd13ifvqei0","pricing_plan_id":"cebpf4jnsgd1na2vs0mg"},{"bike_id":"59b78039-07c8-4481-876d-404938d15499","system_id":"levelo_inurba_marseille","lat":43.30528,"lon":5.36541,"is_reserved":false,"is_disabled":false,"rental_uris":{"android":"levelo://app?vid=59b78039-07c8-4481-876d-404938d15499","ios":"levelo://app?vid=59b78039-07c8-4481-876d-404938d15499"},"vehicle_type_id":"4","last_reported":1743091960,"current_range_meters":11600,"station_id":"ce4bgs12rcd13ifvqcag","pricing_plan_id":"cebpf4jnsgd1na2vs0mg"},{"bike_id":"1f6803fb-aa31-4520-a09e-c87be8f27f06","system_id":"levelo_inurba_marseille","lat":43.279089,"lon":5.395721,"is_reserved":false,"is_disabled":false,"rental_uris":{"android":"levelo://app?vid=1f6803fb-aa31-4520-a09e-c87be8f27f06","ios":"levelo://app?vid=1f6803fb-aa31-4520-a09e-c87be8f27f06"},"vehicle_type_id":"4","last_reported":1743091960,"current_range_meters":11600,"station_id":"","pricing_plan_id":"cebpf4jnsgd1na2vs0mg"},{"bike_id":"7b0e1df7-872b-4821-95e0-ee9aeea019c3","system_id":"levelo_inurba_marseille","lat":43.301941,"lon":5.36605,"is_reserved":false,"is_disabled":false,"rental_uris":{"android":"levelo://app?vid=7b0e1df7-872b-4821-95e0-ee9aeea019c3","ios":"levelo://app?vid=7b0e1df7-872b-4821-95e0-ee9aeea019c3"},"vehicle_type_id":"4","last_reported":1743091960,"current_range_meters":11600,"station_id":"ce4bgrh2rcd13ifvqc8g","pricing_plan_id":"cebpf4jnsgd1na2vs0mg"},{"bike_id":"f00e0bf1-e77c-4752-8f1b-63a2e565cf51","system_id":"levelo_inurba_marseille","lat":43.27942,"lon":5.3871,"is_reserved":false,"is_disabled":true,"rental_uris":{"android":"levelo://app?vid=f00e0bf1-e77c-4752-8f1b-63a2e565cf51","ios":"levelo://app?vid=f00e0bf1-e77c-4752-8f1b-63a2e565cf51"},"vehicle_type_id":"4","last_reported":1743091960,"current_range_meters":12000,"station_id":"ce4bhg12rcd13ifvqf80","pricing_plan_id":"cebpf4jnsgd1na2vs0mg"},{"bike_id":"0126266b-13a4-4b31-bcd1-86e8c1b3e826","system_id":"levelo_inurba_marseille","lat":43.31718,"lon":5.42394,"is_reserved":false,"is_disabled":false,"rental_uris":{"android":"levelo://app?vid=0126266b-13a4-4b31-bcd1-86e8c1b3e826","ios":"levelo://app?vid=0126266b-13a4-4b31-bcd1-86e8c1b3e826"},"vehicle_type_id":"4","last_reported":1743091960,"current_range_meters":11600,"station_id":"ce4bhp92rcd13ifvqhbg","pricing_plan_id":"cebpf4jnsgd1na2vs0mg"},{"bike_id":"641bf556-956c-4d81-b0ab-a5e755a7ddf7","system_id":"levelo_inurba_marseille","lat":43.266551,"lon":5.389659,"is_reserved":false,"is_disabled":false,"rental_uris":{"android":"levelo://app?vid=641bf556-956c-4d81-b0ab-a5e755a7ddf7","ios":"levelo://app?vid=641bf556-956c-4d81-b0ab-a5e755a7ddf7"},"vehicle_type_id":"4","last_reported":1743091960,"current_range_meters":12000,"station_id":"ce4bhh92rcd13ifvqfh0","pricing_plan_id":"cebpf4jnsgd1na2vs0mg"},{"bike_id":"9581ecb6-05d3-4632-a311-4e5d01e8cb8e","system_id":"levelo_inurba_marseille","lat":43.30545,"lon":5.36537,"is_reserved":false,"is_disabled":false,"rental_uris":{"android":"levelo://app?vid=9581ecb6-05d3-4632-a311-4e5d01e8cb8e","ios":"levelo://app?vid=9581ecb6-05d3-4632-a311-4e5d01e8cb8e"},"vehicle_type_id":"4","last_reported":1743091960,"current_range_meters":12000,"station_id":"ce4bgs12rcd13ifvqcag","pricing_plan_id":"cebpf4jnsgd1na2vs0mg"},{"bike_id":"3a920bc8-2501-4726-85c2-1189beb53292","system_id":"levelo_inurba_marseille","lat":43.25123,"lon":5.40338,"is_reserved":false,"is_disabled":false,"rental_uris":{"android":"levelo://app?vid=3a920bc8-2501-4726-85c2-1189beb53292","ios":"levelo://app?vid=3a920bc8-2501-4726-85c2-1189beb53292"},"vehicle_type_id":"4","last_reported":1743091960,"current_range_meters":12000,"station_id":"ce4bhlh2rcd13ifvqgig","pricing_plan_id":"cebpf4jnsgd1na2vs0mg"},{"bike_id":"8be767cc-2e78-4d1b-8510-260b5080d1ea","system_id":"levelo_inurba_marseille","lat":43.24078,"lon":5.37751,"is_reserved":false,"is_disabled":false,"rental_uris":{"android":"levelo://app?vid=8be767cc-2e78-4d1b-8510-260b5080d1ea","ios":"levelo://app?vid=8be767cc-2e78-4d1b-8510-260b5080d1ea"},"vehicle_type_id":"4","last_reported":1743091960,"current_range_meters":11600,"station_id":"ce4bhnp2rcd13ifvqgvg","pricing_plan_id":"cebpf4jnsgd1na2vs0mg"},{"bike_id":"8bd09c01-b502-40f2-b040-4542472dec65","system_id":"levelo_inurba_marseille","lat":43.33031,"lon":5.39043,"is_reserved":false,"is_disabled":false,"rental_uris":{"android":"levelo://app?vid=8bd09c01-b502-40f2-b040-4542472dec65","ios":"levelo://app?vid=8bd09c01-b502-40f2-b040-4542472dec65"},"vehicle_type_id":"4","last_reported":1743091960,"current_range_meters":12000,"station_id":"ce4bhr92rcd13ifvqhrg","pricing_plan_id":"cebpf4jnsgd1na2vs0mg"},{"bike_id":"f99ff896-4d17-4cf9-ad23-0b8bee1fd95a","system_id":"levelo_inurba_marseille","lat":43.23185,"lon":5.39978,"is_reserved":false,"is_disabled":false,"rental_uris":{"android":"levelo://app?vid=f99ff896-4d17-4cf9-ad23-0b8bee1fd95a","ios":"levelo://app?vid=f99ff896-4d17-4cf9-ad23-0b8bee1fd95a"},"vehicle_type_id":"4","last_reported":1743091960,"current_range_meters":12000,"station_id":"ce4bhn12rcd13ifvqgqg","pricing_plan_id":"cebpf4jnsgd1na2vs0mg"},{"bike_id":"4605e24d-65b2-4424-9d4d-b88f889f4b8e","system_id":"levelo_inurba_marseille","lat":43.28128,"lon":5.39861,"is_reserved":false,"is_disabled":false,"rental_uris":{"android":"levelo://app?vid=4605e24d-65b2-4424-9d4d-b88f889f4b8e","ios":"levelo://app?vid=4605e24d-65b2-4424-9d4d-b88f889f4b8e"},"vehicle_type_id":"4","last_reported":1743091960,"current_range_meters":12000,"station_id":"","pricing_plan_id":"cebpf4jnsgd1na2vs0mg"},{"bike_id":"e515cd90-6513-4544-b644-c0fdeff83656","system_id":"levelo_inurba_marseille","lat":43.27828,"lon":5.40726,"is_reserved":false,"is_disabled":false,"rental_uris":{"android":"levelo://app?vid=e515cd90-6513-4544-b644-c0fdeff83656","ios":"levelo://app?vid=e515cd90-6513-4544-b644-c0fdeff83656"},"vehicle_type_id":"4","last_reported":1743091960,"current_range_meters":12400,"station_id":"ce4bhnh2rcd13ifvqgtg","pricing_plan_id":"cebpf4jnsgd1na2vs0mg"},{"bike_id":"6bb7a53f-f012-4855-bb26-37beff24b62c","system_id":"levelo_inurba_marseille","lat":43.23057,"lon":5.35488,"is_reserved":false,"is_disabled":false,"rental_uris":{"android":"levelo://app?vid=6bb7a53f-f012-4855-bb26-37beff24b62c","ios":"levelo://app?vid=6bb7a53f-f012-4855-bb26-37beff24b62c"},"vehicle_type_id":"4","last_reported":1743091960,"current_range_meters":12400,"station_id":"cpo3342slgdg3j2ifvpg","pricing_plan_id":"cebpf4jnsgd1na2vs0mg"},{"bike_id":"d5c25c28-9c11-4d16-a38a-609c5c4fdfcd","system_id":"levelo_inurba_marseille","lat":43.279689,"lon":5.40579,"is_reserved":false,"is_disabled":false,"rental_uris":{"android":"levelo://app?vid=d5c25c28-9c11-4d16-a38a-609c5c4fdfcd","ios":"levelo://app?vid=d5c25c28-9c11-4d16-a38a-609c5c4fdfcd"},"vehicle_type_id":"4","last_reported":1743091960,"current_range_meters":12400,"station_id":"ce4bh292rcd13ifvqdg0","pricing_plan_id":"cebpf4jnsgd1na2vs0mg"},{"bike_id":"be99d8e7-016d-47cd-9509-8c950ff623a8","system_id":"levelo_inurba_marseille","lat":43.29699,"lon":5.36624,"is_reserved":false,"is_disabled":false,"rental_uris":{"android":"levelo://app?vid=be99d8e7-016d-47cd-9509-8c950ff623a8","ios":"levelo://app?vid=be99d8e7-016d-47cd-9509-8c950ff623a8"},"vehicle_type_id":"4","last_reported":1743091960,"current_range_meters":12400,"station_id":"ce4bgn12rcd13ifvqbt0","pricing_plan_id":"cebpf4jnsgd1na2vs0mg"},{"bike_id":"ea2d3653-c7b2-4651-ac26-180a8737b2b8","system_id":"levelo_inurba_marseille","lat":43.27814,"lon":5.40709,"is_reserved":false,"is_disabled":false,"rental_uris":{"android":"levelo://app?vid=ea2d3653-c7b2-4651-ac26-180a8737b2b8","ios":"levelo://app?vid=ea2d3653-c7b2-4651-ac26-180a8737b2b8"},"vehicle_type_id":"4","last_reported":1743091960,"current_range_meters":12800,"station_id":"ce4bhnh2rcd13ifvqgtg","pricing_plan_id":"cebpf4jnsgd1na2vs0mg"},{"bike_id":"aef508a9-abfb-4348-92a4-49850feea651","system_id":"levelo_inurba_marseille","lat":43.27379,"lon":5.36245,"is_reserved":false,"is_disabled":false,"rental_uris":{"android":"levelo://app?vid=aef508a9-abfb-4348-92a4-49850feea651","ios":"levelo://app?vid=aef508a9-abfb-4348-92a4-49850feea651"},"vehicle_type_id":"4","last_reported":1743091960,"current_range_meters":12800,"station_id":"ce4bhbh2rcd13ifvqeo0","pricing_plan_id":"cebpf4jnsgd1na2vs0mg"},{"bike_id":"fe732956-557a-48a7-90f8-6ea522c4bef7","system_id":"levelo_inurba_marseille","lat":43.26713,"lon":5.38266,"is_reserved":false,"is_disabled":false,"rental_uris":{"android":"levelo://app?vid=fe732956-557a-48a7-90f8-6ea522c4bef7","ios":"levelo://app?vid=fe732956-557a-48a7-90f8-6ea522c4bef7"},"vehicle_type_id":"4","last_reported":1743091960,"current_range_meters":12800,"station_id":"ce4bhg92rcd13ifvqf90","pricing_plan_id":"cebpf4jnsgd1na2vs0mg"},{"bike_id":"58c70de0-c19c-4d8d-ba2c-8ac87fc43622","system_id":"levelo_inurba_marseille","lat":43.28667,"lon":5.363507,"is_reserved":false,"is_disabled":false,"rental_uris":{"android":"levelo://app?vid=58c70de0-c19c-4d8d-ba2c-8ac87fc43622","ios":"levelo://app?vid=58c70de0-c19c-4d8d-ba2c-8ac87fc43622"},"vehicle_type_id":"4","last_reported":1743091960,"current_range_meters":12800,"station_id":"ce4bhah2rcd13ifvqej0","pricing_plan_id":"cebpf4jnsgd1na2vs0mg"},{"bike_id":"995e52a5-c9ba-4b7c-b9cd-d39d2a7a98b2","system_id":"levelo_inurba_marseille","lat":43.29862,"lon":5.36286,"is_reserved":false,"is_disabled":false,"rental_uris":{"android":"levelo://app?vid=995e52a5-c9ba-4b7c-b9cd-d39d2a7a98b2","ios":"levelo://app?vid=995e52a5-c9ba-4b7c-b9cd-d39d2a7a98b2"},"vehicle_type_id":"4","last_reported":1743091960,"current_range_meters":12800,"station_id":"ce4bgpp2rcd13ifvqc3g","pricing_plan_id":"cebpf4jnsgd1na2vs0mg"},{"bike_id":"74a67ae4-b152-4661-b161-92f44c9d6419","system_id":"levelo_inurba_marseille","lat":43.30888,"lon":5.39657,"is_reserved":false,"is_disabled":false,"rental_uris":{"android":"levelo://app?vid=74a67ae4-b152-4661-b161-92f44c9d6419","ios":"levelo://app?vid=74a67ae4-b152-4661-b161-92f44c9d6419"},"vehicle_type_id":"4","last_reported":1743091960,"current_range_meters":12800,"station_id":"ce4bh012rcd13ifvqcv0","pricing_plan_id":"cebpf4jnsgd1na2vs0mg"},{"bike_id":"7cec65a3-d2ee-4f99-8402-10014466c042","system_id":"levelo_inurba_marseille","lat":43.27809,"lon":5.40725,"is_reserved":false,"is_disabled":false,"rental_uris":{"android":"levelo://app?vid=7cec65a3-d2ee-4f99-8402-10014466c042","ios":"levelo://app?vid=7cec65a3-d2ee-4f99-8402-10014466c042"},"vehicle_type_id":"4","last_reported":1743091960,"current_range_meters":12800,"station_id":"ce4bhnh2rcd13ifvqgtg","pricing_plan_id":"cebpf4jnsgd1na2vs0mg"},{"bike_id":"b90ea539-cd4c-4e2f-8708-ffa01e215a77","system_id":"levelo_inurba_marseille","lat":43.31371,"lon":5.36705,"is_reserved":false,"is_disabled":false,"rental_uris":{"android":"levelo://app?vid=b90ea539-cd4c-4e2f-8708-ffa01e215a77","ios":"levelo://app?vid=b90ea539-cd4c-4e2f-8708-ffa01e215a77"},"vehicle_type_id":"4","last_reported":1743091960,"current_range_meters":12800,"station_id":"ce4bgr92rcd13ifvqc6g","pricing_plan_id":"cebpf4jnsgd1na2vs0mg"},{"bike_id":"b9ff05f5-4d31-407c-a44f-e765a4785dc7","system_id":"levelo_inurba_marseille","lat":43.23193,"lon":5.3555,"is_reserved":false,"is_disabled":false,"rental_uris":{"android":"levelo://app?vid=b9ff05f5-4d31-407c-a44f-e765a4785dc7","ios":"levelo://app?vid=b9ff05f5-4d31-407c-a44f-e765a4785dc7"},"vehicle_type_id":"4","last_reported":1743091960,"current_range_meters":12800,"station_id":"ce4bhu92rcd13ifvqi70","pricing_plan_id":"cebpf4jnsgd1na2vs0mg"},{"bike_id":"bb485e7b-97d1-4820-a559-8f6224d3b006","system_id":"levelo_inurba_marseille","lat":43.29568,"lon":5.37523,"is_reserved":false,"is_disabled":false,"rental_uris":{"android":"levelo://app?vid=bb485e7b-97d1-4820-a559-8f6224d3b006","ios":"levelo://app?vid=bb485e7b-97d1-4820-a559-8f6224d3b006"},"vehicle_type_id":"4","last_reported":1743091960,"current_range_meters":13600,"station_id":"ce4bgh92rcd13ifvqb50","pricing_plan_id":"cebpf4jnsgd1na2vs0mg"},{"bike_id":"d2f2337f-564c-4579-a6f1-53efadcfc384","system_id":"levelo_inurba_marseille","lat":43.29196,"lon":5.39326,"is_reserved":false,"is_disabled":false,"rental_uris":{"android":"levelo://app?vid=d2f2337f-564c-4579-a6f1-53efadcfc384","ios":"levelo://app?vid=d2f2337f-564c-4579-a6f1-53efadcfc384"},"vehicle_type_id":"4","last_reported":1743091960,"current_range_meters":13600,"station_id":"ce4bh192rcd13ifvqdd0","pricing_plan_id":"cebpf4jnsgd1na2vs0mg"},{"bike_id":"1ee536c4-72a4-4e11-aa12-5d7a80bf141f","system_id":"levelo_inurba_marseille","lat":43.27066,"lon":5.4027,"is_reserved":false,"is_disabled":false,"rental_uris":{"android":"levelo://app?vid=1ee536c4-72a4-4e11-aa12-5d7a80bf141f","ios":"levelo://app?vid=1ee536c4-72a4-4e11-aa12-5d7a80bf141f"},"vehicle_type_id":"4","last_reported":1743091960,"current_range_meters":13600,"station_id":"ce4bhk92rcd13ifvqgc0","pricing_plan_id":"cebpf4jnsgd1na2vs0mg"},{"bike_id":"20e8d097-97a1-4436-82fc-5e0183e76b69","system_id":"levelo_inurba_marseille","lat":43.240698,"lon":5.377654,"is_reserved":false,"is_disabled":false,"rental_uris":{"android":"levelo://app?vid=20e8d097-97a1-4436-82fc-5e0183e76b69","ios":"levelo://app?vid=20e8d097-97a1-4436-82fc-5e0183e76b69"},"vehicle_type_id":"4","last_reported":1743091960,"current_range_meters":13600,"station_id":"ce4bhnp2rcd13ifvqgvg","pricing_plan_id":"cebpf4jnsgd1na2vs0mg"},{"bike_id":"2e919ca5-ce98-4c47-a9d7-66e6ab7584e4","system_id":"levelo_inurba_marseille","lat":43.32116,"lon":5.36768,"is_reserved":false,"is_disabled":false,"rental_uris":{"android":"levelo://app?vid=2e919ca5-ce98-4c47-a9d7-66e6ab7584e4","ios":"levelo://app?vid=2e919ca5-ce98-4c47-a9d7-66e6ab7584e4"},"vehicle_type_id":"4","last_reported":1743091960,"current_range_meters":13600,"station_id":"ce4bhrh2rcd13ifvqhug","pricing_plan_id":"cebpf4jnsgd1na2vs0mg"},{"bike_id":"561e290b-4db1-442c-80bd-c38abf13836d","system_id":"levelo_inurba_marseille","lat":43.2707,"lon":5.42294,"is_reserved":false,"is_disabled":false,"rental_uris":{"android":"levelo://app?vid=561e290b-4db1-442c-80bd-c38abf13836d","ios":"levelo://app?vid=561e290b-4db1-442c-80bd-c38abf13836d"},"vehicle_type_id":"4","last_reported":1743091960,"current_range_meters":13600,"station_id":"ce4bhk92rcd13ifvqgb0","pricing_plan_id":"cebpf4jnsgd1na2vs0mg"},{"bike_id":"3eb0a0c5-93b2-49c7-a979-411df22a6fa3","system_id":"levelo_inurba_marseille","lat":43.26199,"lon":5.37462,"is_reserved":false,"is_disabled":false,"rental_uris":{"android":"levelo://app?vid=3eb0a0c5-93b2-49c7-a979-411df22a6fa3","ios":"levelo://app?vid=3eb0a0c5-93b2-49c7-a979-411df22a6fa3"},"vehicle_type_id":"4","last_reported":1743091960,"current_range_meters":13600,"station_id":"ce4bhgp2rcd13ifvqfc0","pricing_plan_id":"cebpf4jnsgd1na2vs0mg"},{"bike_id":"1c14bf9c-ada4-4a36-8853-740a1a2c000a","system_id":"levelo_inurba_marseille","lat":43.23193,"lon":5.35549,"is_reserved":false,"is_disabled":false,"rental_uris":{"android":"levelo://app?vid=1c14bf9c-ada4-4a36-8853-740a1a2c000a","ios":"levelo://app?vid=1c14bf9c-ada4-4a36-8853-740a1a2c000a"},"vehicle_type_id":"4","last_reported":1743091960,"current_range_meters":13600,"station_id":"ce4bhu92rcd13ifvqi70","pricing_plan_id":"cebpf4jnsgd1na2vs0mg"},{"bike_id":"6c9c0099-7cde-49cc-acce-52e30a6af12b","system_id":"levelo_inurba_marseille","lat":43.30435,"lon":5.38894,"is_reserved":false,"is_disabled":false,"rental_uris":{"android":"levelo://app?vid=6c9c0099-7cde-49cc-acce-52e30a6af12b","ios":"levelo://app?vid=6c9c0099-7cde-49cc-acce-52e30a6af12b"},"vehicle_type_id":"4","last_reported":1743091960,"current_range_meters":12400,"station_id":"ce4bgk12rcd13ifvqbi0","pricing_plan_id":"cebpf4jnsgd1na2vs0mg"},{"bike_id":"bcad7256-b161-494e-8fb7-d2bb9a4624b6","system_id":"levelo_inurba_marseille","lat":43.30122,"lon":5.39864,"is_reserved":false,"is_disabled":false,"rental_uris":{"android":"levelo://app?vid=bcad7256-b161-494e-8fb7-d2bb9a4624b6","ios":"levelo://app?vid=bcad7256-b161-494e-8fb7-d2bb9a4624b6"},"vehicle_type_id":"4","last_reported":1743091960,"current_range_meters":14000,"station_id":"ce4bh0h2rcd13ifvqd40","pricing_plan_id":"cebpf4jnsgd1na2vs0mg"},{"bike_id":"6fc046ac-ac2b-4ab9-b99e-6c79f37aa8a4","system_id":"levelo_inurba_marseille","lat":43.30446,"lon":5.38879,"is_reserved":false,"is_disabled":false,"rental_uris":{"android":"levelo://app?vid=6fc046ac-ac2b-4ab9-b99e-6c79f37aa8a4","ios":"levelo://app?vid=6fc046ac-ac2b-4ab9-b99e-6c79f37aa8a4"},"vehicle_type_id":"4","last_reported":1743091960,"current_range_meters":14000,"station_id":"ce4bgk12rcd13ifvqbi0","pricing_plan_id":"cebpf4jnsgd1na2vs0mg"},{"bike_id":"e10e5734-a21c-4e82-8abf-64dad731dcef","system_id":"levelo_inurba_marseille","lat":43.2801,"lon":5.40007,"is_reserved":false,"is_disabled":false,"rental_uris":{"android":"levelo://app?vid=e10e5734-a21c-4e82-8abf-64dad731dcef","ios":"levelo://app?vid=e10e5734-a21c-4e82-8abf-64dad731dcef"},"vehicle_type_id":"4","last_reported":1743091960,"current_range_meters":14000,"station_id":"ce4bho92rcd13ifvqh4g","pricing_plan_id":"cebpf4jnsgd1na2vs0mg"},{"bike_id":"bb6d3e35-eb6d-49e4-9094-4a82b36c2c46","system_id":"levelo_inurba_marseille","lat":43.32368,"lon":5.36764,"is_reserved":false,"is_disabled":false,"rental_uris":{"android":"levelo://app?vid=bb6d3e35-eb6d-49e4-9094-4a82b36c2c46","ios":"levelo://app?vid=bb6d3e35-eb6d-49e4-9094-4a82b36c2c46"},"vehicle_type_id":"4","last_reported":1743091960,"current_range_meters":14400,"station_id":"ce4bhsh2rcd13ifvqi2g","pricing_plan_id":"cebpf4jnsgd1na2vs0mg"},{"bike_id":"eed39aee-f626-4e05-90db-449e2e57b985","system_id":"levelo_inurba_marseille","lat":43.32055,"lon":5.41528,"is_reserved":false,"is_disabled":false,"rental_uris":{"android":"levelo://app?vid=eed39aee-f626-4e05-90db-449e2e57b985","ios":"levelo://app?vid=eed39aee-f626-4e05-90db-449e2e57b985"},"vehicle_type_id":"4","last_reported":1743091960,"current_range_meters":14000,"station_id":"ce4bhq92rcd13ifvqhkg","pricing_plan_id":"cebpf4jnsgd1na2vs0mg"},{"bike_id":"c470b29c-e720-4f20-a854-31c4d9e59547","system_id":"levelo_inurba_marseille","lat":43.299622,"lon":5.384962,"is_reserved":false,"is_disabled":false,"rental_uris":{"android":"levelo://app?vid=c470b29c-e720-4f20-a854-31c4d9e59547","ios":"levelo://app?vid=c470b29c-e720-4f20-a854-31c4d9e59547"},"vehicle_type_id":"4","last_reported":1743091960,"current_range_meters":14400,"station_id":"ce4bgj92rcd13ifvqbd0","pricing_plan_id":"cebpf4jnsgd1na2vs0mg"},{"bike_id":"f09e4036-04f7-4c15-a824-a1d61fb1f9b7","system_id":"levelo_inurba_marseille","lat":43.30886,"lon":5.39649,"is_reserved":false,"is_disabled":false,"rental_uris":{"android":"levelo://app?vid=f09e4036-04f7-4c15-a824-a1d61fb1f9b7","ios":"levelo://app?vid=f09e4036-04f7-4c15-a824-a1d61fb1f9b7"},"vehicle_type_id":"4","last_reported":1743091960,"current_range_meters":14400,"station_id":"ce4bh012rcd13ifvqcv0","pricing_plan_id":"cebpf4jnsgd1na2vs0mg"},{"bike_id":"5dd0627a-5f4a-4db5-a8ba-ceede2f23d8c","system_id":"levelo_inurba_marseille","lat":43.25078,"lon":5.39525,"is_reserved":false,"is_disabled":false,"rental_uris":{"android":"levelo://app?vid=5dd0627a-5f4a-4db5-a8ba-ceede2f23d8c","ios":"levelo://app?vid=5dd0627a-5f4a-4db5-a8ba-ceede2f23d8c"},"vehicle_type_id":"4","last_reported":1743091960,"current_range_meters":14800,"station_id":"ce4bhm12rcd13ifvqgkg","pricing_plan_id":"cebpf4jnsgd1na2vs0mg"},{"bike_id":"7c6955fb-0d56-48ea-81c9-d1325b30b658","system_id":"levelo_inurba_marseille","lat":43.303402,"lon":5.392473,"is_reserved":false,"is_disabled":false,"rental_uris":{"android":"levelo://app?vid=7c6955fb-0d56-48ea-81c9-d1325b30b658","ios":"levelo://app?vid=7c6955fb-0d56-48ea-81c9-d1325b30b658"},"vehicle_type_id":"4","last_reported":1743091960,"current_range_meters":14800,"station_id":"","pricing_plan_id":"cebpf4jnsgd1na2vs0mg"},{"bike_id":"b01e55c6-6cfd-442a-9579-c299bf3811d5","system_id":"levelo_inurba_marseille","lat":43.30301,"lon":5.37702,"is_reserved":false,"is_disabled":false,"rental_uris":{"android":"levelo://app?vid=b01e55c6-6cfd-442a-9579-c299bf3811d5","ios":"levelo://app?vid=b01e55c6-6cfd-442a-9579-c299bf3811d5"},"vehicle_type_id":"4","last_reported":1743091960,"current_range_meters":14800,"station_id":"ce4bguh2rcd13ifvqcj0","pricing_plan_id":"cebpf4jnsgd1na2vs0mg"},{"bike_id":"8ca2d50a-611c-4757-8ef4-efeb66023954","system_id":"levelo_inurba_marseille","lat":43.27385,"lon":5.36243,"is_reserved":false,"is_disabled":false,"rental_uris":{"android":"levelo://app?vid=8ca2d50a-611c-4757-8ef4-efeb66023954","ios":"levelo://app?vid=8ca2d50a-611c-4757-8ef4-efeb66023954"},"vehicle_type_id":"4","last_reported":1743091960,"current_range_meters":14800,"station_id":"ce4bhbh2rcd13ifvqeo0","pricing_plan_id":"cebpf4jnsgd1na2vs0mg"},{"bike_id":"f0c5a055-68a8-4b6b-8380-fd663bc197d8","system_id":"levelo_inurba_marseille","lat":43.272845,"lon":5.390982,"is_reserved":false,"is_disabled":false,"rental_uris":{"android":"levelo://app?vid=f0c5a055-68a8-4b6b-8380-fd663bc197d8","ios":"levelo://app?vid=f0c5a055-68a8-4b6b-8380-fd663bc197d8"},"vehicle_type_id":"4","last_reported":1743091960,"current_range_meters":14800,"station_id":"ce4bhjp2rcd13ifvqga0","pricing_plan_id":"cebpf4jnsgd1na2vs0mg"},{"bike_id":"fac4123a-e1c6-474d-8350-f6d799c90cbd","system_id":"levelo_inurba_marseille","lat":43.27381,"lon":5.36256,"is_reserved":false,"is_disabled":false,"rental_uris":{"android":"levelo://app?vid=fac4123a-e1c6-474d-8350-f6d799c90cbd","ios":"levelo://app?vid=fac4123a-e1c6-474d-8350-f6d799c90cbd"},"vehicle_type_id":"4","last_reported":1743091960,"current_range_meters":14800,"station_id":"ce4bhbh2rcd13ifvqeo0","pricing_plan_id":"cebpf4jnsgd1na2vs0mg"},{"bike_id":"0ededb85-3f71-45bc-8f71-51ff4984cf0c","system_id":"levelo_inurba_marseille","lat":43.2737,"lon":5.36252,"is_reserved":false,"is_disabled":false,"rental_uris":{"android":"levelo://app?vid=0ededb85-3f71-45bc-8f71-51ff4984cf0c","ios":"levelo://app?vid=0ededb85-3f71-45bc-8f71-51ff4984cf0c"},"vehicle_type_id":"4","last_reported":1743091960,"current_range_meters":14800,"station_id":"ce4bhbh2rcd13ifvqeo0","pricing_plan_id":"cebpf4jnsgd1na2vs0mg"},{"bike_id":"c5b747b8-0a33-4be6-a6c0-180ceea5e00d","system_id":"levelo_inurba_marseille","lat":43.28102,"lon":5.39666,"is_reserved":false,"is_disabled":true,"rental_uris":{"android":"levelo://app?vid=c5b747b8-0a33-4be6-a6c0-180ceea5e00d","ios":"levelo://app?vid=c5b747b8-0a33-4be6-a6c0-180ceea5e00d"},"vehicle_type_id":"4","last_reported":1743091960,"current_range_meters":14800,"station_id":"ce4bho12rcd13ifvqh2g","pricing_plan_id":"cebpf4jnsgd1na2vs0mg"},{"bike_id":"4af98263-7e03-496f-8436-54c237fff73a","system_id":"levelo_inurba_marseille","lat":43.27376,"lon":5.36252,"is_reserved":false,"is_disabled":false,"rental_uris":{"android":"levelo://app?vid=4af98263-7e03-496f-8436-54c237fff73a","ios":"levelo://app?vid=4af98263-7e03-496f-8436-54c237fff73a"},"vehicle_type_id":"4","last_reported":1743091960,"current_range_meters":15200,"station_id":"ce4bhbh2rcd13ifvqeo0","pricing_plan_id":"cebpf4jnsgd1na2vs0mg"},{"bike_id":"f17904f3-52f1-4efd-925a-4872ad5ebb3a","system_id":"levelo_inurba_marseille","lat":43.30133,"lon":5.387796,"is_reserved":false,"is_disabled":false,"rental_uris":{"android":"levelo://app?vid=f17904f3-52f1-4efd-925a-4872ad5ebb3a","ios":"levelo://app?vid=f17904f3-52f1-4efd-925a-4872ad5ebb3a"},"vehicle_type_id":"4","last_reported":1743091960,"current_range_meters":15200,"station_id":"ce4bghh2rcd13ifvqb60","pricing_plan_id":"cebpf4jnsgd1na2vs0mg"},{"bike_id":"3f07f503-c683-43e2-889a-d6577be42c42","system_id":"levelo_inurba_marseille","lat":43.30538,"lon":5.36533,"is_reserved":false,"is_disabled":false,"rental_uris":{"android":"levelo://app?vid=3f07f503-c683-43e2-889a-d6577be42c42","ios":"levelo://app?vid=3f07f503-c683-43e2-889a-d6577be42c42"},"vehicle_type_id":"4","last_reported":1743091960,"current_range_meters":15200,"station_id":"ce4bgs12rcd13ifvqcag","pricing_plan_id":"cebpf4jnsgd1na2vs0mg"},{"bike_id":"23b529f4-8a99-4f05-bb1a-2804bb57e7a8","system_id":"levelo_inurba_marseille","lat":43.29795,"lon":5.404041,"is_reserved":false,"is_disabled":false,"rental_uris":{"android":"levelo://app?vid=23b529f4-8a99-4f05-bb1a-2804bb57e7a8","ios":"levelo://app?vid=23b529f4-8a99-4f05-bb1a-2804bb57e7a8"},"vehicle_type_id":"4","last_reported":1743091960,"current_range_meters":15200,"station_id":"ce4bgvp2rcd13ifvqcu0","pricing_plan_id":"cebpf4jnsgd1na2vs0mg"},{"bike_id":"35c84fa7-51e5-4e93-ad41-a2924e2a6739","system_id":"levelo_inurba_marseille","lat":43.3203,"lon":5.41549,"is_reserved":false,"is_disabled":false,"rental_uris":{"android":"levelo://app?vid=35c84fa7-51e5-4e93-ad41-a2924e2a6739","ios":"levelo://app?vid=35c84fa7-51e5-4e93-ad41-a2924e2a6739"},"vehicle_type_id":"4","last_reported":1743091960,"current_range_meters":15200,"station_id":"ce4bhq92rcd13ifvqhkg","pricing_plan_id":"cebpf4jnsgd1na2vs0mg"},{"bike_id":"4f5c9e42-f46d-4dc7-af50-b517fdb8aab4","system_id":"levelo_inurba_marseille","lat":43.29306,"lon":5.401361,"is_reserved":false,"is_disabled":false,"rental_uris":{"android":"levelo://app?vid=4f5c9e42-f46d-4dc7-af50-b517fdb8aab4","ios":"levelo://app?vid=4f5c9e42-f46d-4dc7-af50-b517fdb8aab4"},"vehicle_type_id":"4","last_reported":1743091960,"current_range_meters":15200,"station_id":"ce4bh112rcd13ifvqda0","pricing_plan_id":"cebpf4jnsgd1na2vs0mg"},{"bike_id":"213522d2-34be-42dc-a861-71dacdd3d79c","system_id":"levelo_inurba_marseille","lat":43.25106,"lon":5.40336,"is_reserved":false,"is_disabled":false,"rental_uris":{"android":"levelo://app?vid=213522d2-34be-42dc-a861-71dacdd3d79c","ios":"levelo://app?vid=213522d2-34be-42dc-a861-71dacdd3d79c"},"vehicle_type_id":"4","last_reported":1743091960,"current_range_meters":16000,"station_id":"ce4bhlh2rcd13ifvqgig","pricing_plan_id":"cebpf4jnsgd1na2vs0mg"},{"bike_id":"154e5d9f-6391-4fa4-854b-8a91ecf1b75e","system_id":"levelo_inurba_marseille","lat":43.28912,"lon":5.38388,"is_reserved":false,"is_disabled":false,"rental_uris":{"android":"levelo://app?vid=154e5d9f-6391-4fa4-854b-8a91ecf1b75e","ios":"levelo://app?vid=154e5d9f-6391-4fa4-854b-8a91ecf1b75e"},"vehicle_type_id":"4","last_reported":1743091960,"current_range_meters":15200,"station_id":"ce4bh612rcd13ifvqe6g","pricing_plan_id":"cebpf4jnsgd1na2vs0mg"},{"bike_id":"93558136-1cbe-4911-8d3a-a815af7610dd","system_id":"levelo_inurba_marseille","lat":43.296131,"lon":5.381344,"is_reserved":false,"is_disabled":false,"rental_uris":{"android":"levelo://app?vid=93558136-1cbe-4911-8d3a-a815af7610dd","ios":"levelo://app?vid=93558136-1cbe-4911-8d3a-a815af7610dd"},"vehicle_type_id":"4","last_reported":1743091960,"current_range_meters":15200,"station_id":"ce4bho12rcd13ifvqh1g","pricing_plan_id":"cebpf4jnsgd1na2vs0mg"},{"bike_id":"f3b5f909-a026-4db1-89ee-c055afc2d5ec","system_id":"levelo_inurba_marseille","lat":43.26208,"lon":5.37444,"is_reserved":false,"is_disabled":false,"rental_uris":{"android":"levelo://app?vid=f3b5f909-a026-4db1-89ee-c055afc2d5ec","ios":"levelo://app?vid=f3b5f909-a026-4db1-89ee-c055afc2d5ec"},"vehicle_type_id":"4","last_reported":1743091960,"current_range_meters":16000,"station_id":"ce4bhgp2rcd13ifvqfc0","pricing_plan_id":"cebpf4jnsgd1na2vs0mg"},{"bike_id":"13f1e54f-0513-4ec2-8243-a0c4c148cbf1","system_id":"levelo_inurba_marseille","lat":43.27963,"lon":5.41044,"is_reserved":false,"is_disabled":false,"rental_uris":{"android":"levelo://app?vid=13f1e54f-0513-4ec2-8243-a0c4c148cbf1","ios":"levelo://app?vid=13f1e54f-0513-4ec2-8243-a0c4c148cbf1"},"vehicle_type_id":"4","last_reported":1743091960,"current_range_meters":16400,"station_id":"ce4bhnp2rcd13ifvqh0g","pricing_plan_id":"cebpf4jnsgd1na2vs0mg"},{"bike_id":"ea13cf6b-b7ed-425f-8796-3b201591ad0f","system_id":"levelo_inurba_marseille","lat":43.28861,"lon":5.35847,"is_reserved":false,"is_disabled":false,"rental_uris":{"android":"levelo://app?vid=ea13cf6b-b7ed-425f-8796-3b201591ad0f","ios":"levelo://app?vid=ea13cf6b-b7ed-425f-8796-3b201591ad0f"},"vehicle_type_id":"4","last_reported":1743091960,"current_range_meters":16400,"station_id":"ce4bhb12rcd13ifvqem0","pricing_plan_id":"cebpf4jnsgd1na2vs0mg"},{"bike_id":"c527ac51-4362-4d1f-b9e1-306c1ebece74","system_id":"levelo_inurba_marseille","lat":43.29906,"lon":5.43676,"is_reserved":false,"is_disabled":false,"rental_uris":{"android":"levelo://app?vid=c527ac51-4362-4d1f-b9e1-306c1ebece74","ios":"levelo://app?vid=c527ac51-4362-4d1f-b9e1-306c1ebece74"},"vehicle_type_id":"4","last_reported":1743091960,"current_range_meters":16400,"station_id":"ce4bhpp2rcd13ifvqhfg","pricing_plan_id":"cebpf4jnsgd1na2vs0mg"},{"bike_id":"c11a4eb9-648f-4fa7-aefc-e342d02ebe0d","system_id":"levelo_inurba_marseille","lat":43.28723,"lon":5.36087,"is_reserved":false,"is_disabled":false,"rental_uris":{"android":"levelo://app?vid=c11a4eb9-648f-4fa7-aefc-e342d02ebe0d","ios":"levelo://app?vid=c11a4eb9-648f-4fa7-aefc-e342d02ebe0d"},"vehicle_type_id":"4","last_reported":1743091960,"current_range_meters":16400,"station_id":"cki0cbj6b192h4jlfktg","pricing_plan_id":"cebpf4jnsgd1na2vs0mg"},{"bike_id":"50fa9f2b-2cf3-4dd3-b55c-4b0cf5b01af4","system_id":"levelo_inurba_marseille","lat":43.30547,"lon":5.36526,"is_reserved":false,"is_disabled":false,"rental_uris":{"android":"levelo://app?vid=50fa9f2b-2cf3-4dd3-b55c-4b0cf5b01af4","ios":"levelo://app?vid=50fa9f2b-2cf3-4dd3-b55c-4b0cf5b01af4"},"vehicle_type_id":"4","last_reported":1743091960,"current_range_meters":16400,"station_id":"ce4bgs12rcd13ifvqcag","pricing_plan_id":"cebpf4jnsgd1na2vs0mg"},{"bike_id":"938b6d80-c940-4a47-9dbc-f24cc0f9aea7","system_id":"levelo_inurba_marseille","lat":43.23966,"lon":5.36639,"is_reserved":false,"is_disabled":false,"rental_uris":{"android":"levelo://app?vid=938b6d80-c940-4a47-9dbc-f24cc0f9aea7","ios":"levelo://app?vid=938b6d80-c940-4a47-9dbc-f24cc0f9aea7"},"vehicle_type_id":"4","last_reported":1743091960,"current_range_meters":16400,"station_id":"ce4bhi12rcd13ifvqfp0","pricing_plan_id":"cebpf4jnsgd1na2vs0mg"},{"bike_id":"6082a6d8-29f3-4441-bd82-d0f95ead75d7","system_id":"levelo_inurba_marseille","lat":43.231893,"lon":5.355618,"is_reserved":false,"is_disabled":false,"rental_uris":{"android":"levelo://app?vid=6082a6d8-29f3-4441-bd82-d0f95ead75d7","ios":"levelo://app?vid=6082a6d8-29f3-4441-bd82-d0f95ead75d7"},