{"last_updated":1743769138,"ttl":60,"version":"2.2","data":{"bikes":[{"bike_id":"e30f883a-36f1-4989-af86-a5070ac4a3de","system_id":"levelo_inurba_marseille","lat":43.33601,"lon":5.41031,"is_reserved":false,"is_disabled":false,"rental_uris":{"android":"levelo://app?vid=e30f883a-36f1-4989-af86-a5070ac4a3de","ios":"levelo://app?vid=e30f883a-36f1-4989-af86-a5070ac4a3de"},"vehicle_type_id":"4","last_reported":1743769138,"current_range_meters":2800,"station_id":"ce4bhqh2rcd13ifvqhmg","pricing_plan_id":"cebpf4jnsgd1na2vs0mg"},{"bike_id":"c0470d46-339d-42ae-a460-ec5c31024689","system_id":"levelo_inurba_marseille","lat":43.295308,"lon":5.38551,"is_reserved":false,"is_disabled":false,"rental_uris":{"android":"levelo://app?vid=c0470d46-339d-42ae-a460-ec5c31024689","ios":"levelo://app?vid=c0470d46-339d-42ae-a460-ec5c31024689"},"vehicle_type_id":"4","last_reported":1743769138,"current_range_meters":3200,"station_id":"ce4bgih2rcd13ifvqba0","pricing_plan_id":"cebpf4jnsgd1na2vs0mg"},{"bike_id":"9bd4e2df-9946-4657-8eb6-e41afe78d793","system_id":"levelo_inurba_marseille","lat":43.2955,"lon":5.42291,"is_reserved":false,"is_disabled":false,"rental_uris":{"android":"levelo://app?vid=9bd4e2df-9946-4657-8eb6-e41afe78d793","ios":"levelo://app?vid=9bd4e2df-9946-4657-8eb6-e41afe78d793"},"vehicle_type_id":"4","last_reported":1743769138,"current_range_meters":3200,"station_id":"ce4bhph2rcd13ifvqhdg","pricing_plan_id":"cebpf4jnsgd1na2vs0mg"},{"bike_id":"32a978e0-d0c2-43d4-9b03-19a5c41c27de","system_id":"levelo_inurba_marseille","lat":43.31075,"lon":5.38343,"is_reserved":false,"is_disabled":true,"rental_uris":{"android":"levelo://app?vid=32a978e0-d0c2-43d4-9b03-19a5c41c27de","ios":"levelo://app?vid=32a978e0-d0c2-43d4-9b03-19a5c41c27de"},"vehicle_type_id":"4","last_reported":1743769138,"current_range_meters":3200,"station_id":"ce4bgv92rcd13ifvqcr0","pricing_plan_id":"cebpf4jnsgd1na2vs0mg"},{"bike_id":"063bd687-214f-4b5e-b2eb-6005d6f1c8ca","system_id":"levelo_inurba_marseille","lat":43.29047,"lon":5.369676,"is_reserved":false,"is_disabled":false,"rental_uris":{"android":"levelo://app?vid=063bd687-214f-4b5e-b2eb-6005d6f1c8ca","ios":"levelo://app?vid=063bd687-214f-4b5e-b2eb-6005d6f1c8ca"},"vehicle_type_id":"4","last_reported":1743769138,"current_range_meters":3600,"station_id":"","pricing_plan_id":"cebpf4jnsgd1na2vs0mg"},{"bike_id":"2f03e9b3-a711-4eef-b810-6d5e62c6b0ad","system_id":"levelo_inurba_marseille","lat":43.34137,"lon":5.40904,"is_reserved":false,"is_disabled":false,"rental_uris":{"android":"levelo://app?vid=2f03e9b3-a711-4eef-b810-6d5e62c6b0ad","ios":"levelo://app?vid=2f03e9b3-a711-4eef-b810-6d5e62c6b0ad"},"vehicle_type_id":"4","last_reported":1743769138,"current_range_meters":8000,"station_id":"ce4bhqh2rcd13ifvqhlg","pricing_plan_id":"cebpf4jnsgd1na2vs0mg"},{"bike_id":"60bba322-fc10-4e97-9c08-48a643252cca","system_id":"levelo_inurba_marseille","lat":43.23194,"lon":5.35553,"is_reserved":false,"is_disabled":false,"rental_uris":{"android":"levelo://app?vid=60bba322-fc10-4e97-9c08-48a643252cca","ios":"levelo://app?vid=60bba322-fc10-4e97-9c08-48a643252cca"},"vehicle_type_id":"4","last_reported":1743769138,"current_range_meters":3600,"station_id":"ce4bhu92rcd13ifvqi70","pricing_plan_id":"cebpf4jnsgd1na2vs0mg"},{"bike_id":"72a05d97-e785-4a82-8704-67b9b5a95179","system_id":"levelo_inurba_marseille","lat":43.23191,"lon":5.35568,"is_reserved":false,"is_disabled":false,"rental_uris":{"android":"levelo://app?vid=72a05d97-e785-4a82-8704-67b9b5a95179","ios":"levelo://app?vid=72a05d97-e785-4a82-8704-67b9b5a95179"},"vehicle_type_id":"4","last_reported":1743769138,"current_range_meters":3600,"station_id":"ce4bhu92rcd13ifvqi70","pricing_plan_id":"cebpf4jnsgd1na2vs0mg"},{"bike_id":"b8ce194c-c3ab-4df6-876d-7671350eb367","system_id":"levelo_inurba_marseille","lat":43.241828,"lon":5.397291,"is_reserved":false,"is_disabled":false,"rental_uris":{"android":"levelo://app?vid=b8ce194c-c3ab-4df6-876d-7671350eb367","ios":"levelo://app?vid=b8ce194c-c3ab-4df6-876d-7671350eb367"},"vehicle_type_id":"4","last_reported":1743769138,"current_range_meters":4400,"station_id":"ce4bhn12rcd13ifvqgqg","pricing_plan_id":"cebpf4jnsgd1na2vs0mg"},{"bike_id":"69716c09-2c65-48ea-ba8b-205781826768","system_id":"levelo_inurba_marseille","lat":43.30212,"lon":5.39465,"is_reserved":false,"is_disabled":false,"rental_uris":{"android":"levelo://app?vid=69716c09-2c65-48ea-ba8b-205781826768","ios":"levelo://app?vid=69716c09-2c65-48ea-ba8b-205781826768"},"vehicle_type_id":"4","last_reported":1743769138,"current_range_meters":4000,"station_id":"ce4bh0p2rcd13ifvqd70","pricing_plan_id":"cebpf4jnsgd1na2vs0mg"},{"bike_id":"f8f8ace1-a048-44b2-9437-2568049b9689","system_id":"levelo_inurba_marseille","lat":43.28367,"lon":5.38637,"is_reserved":false,"is_disabled":false,"rental_uris":{"android":"levelo://app?vid=f8f8ace1-a048-44b2-9437-2568049b9689","ios":"levelo://app?vid=f8f8ace1-a048-44b2-9437-2568049b9689"},"vehicle_type_id":"4","last_reported":1743769138,"current_range_meters":4000,"station_id":"ce4bh492rcd13ifvqdvg","pricing_plan_id":"cebpf4jnsgd1na2vs0mg"},{"bike_id":"c060267e-8471-4497-865f-6760088869e9","system_id":"levelo_inurba_marseille","lat":43.27313,"lon":5.39113,"is_reserved":false,"is_disabled":false,"rental_uris":{"android":"levelo://app?vid=c060267e-8471-4497-865f-6760088869e9","ios":"levelo://app?vid=c060267e-8471-4497-865f-6760088869e9"},"vehicle_type_id":"4","last_reported":1743769138,"current_range_meters":4000,"station_id":"ce4bhgp2rcd13ifvqfe0","pricing_plan_id":"cebpf4jnsgd1na2vs0mg"},{"bike_id":"4b9f5a12-8bea-4047-9e7e-1a96208578a0","system_id":"levelo_inurba_marseille","lat":43.28472,"lon":5.35892,"is_reserved":false,"is_disabled":false,"rental_uris":{"android":"levelo://app?vid=4b9f5a12-8bea-4047-9e7e-1a96208578a0","ios":"levelo://app?vid=4b9f5a12-8bea-4047-9e7e-1a96208578a0"},"vehicle_type_id":"4","last_reported":1743769138,"current_range_meters":4400,"station_id":"ce4bhah2rcd13ifvqei0","pricing_plan_id":"cebpf4jnsgd1na2vs0mg"},{"bike_id":"5b20be44-46f9-42ca-8ca6-d51860ac75b6","system_id":"levelo_inurba_marseille","lat":43.31724,"lon":5.42399,"is_reserved":false,"is_disabled":false,"rental_uris":{"android":"levelo://app?vid=5b20be44-46f9-42ca-8ca6-d51860ac75b6","ios":"levelo://app?vid=5b20be44-46f9-42ca-8ca6-d51860ac75b6"},"vehicle_type_id":"4","last_reported":1743769138,"current_range_meters":4000,"station_id":"ce4bhp92rcd13ifvqhbg","pricing_plan_id":"cebpf4jnsgd1na2vs0mg"},{"bike_id":"38199222-1212-44dc-a532-5329dd567672","system_id":"levelo_inurba_marseille","lat":43.324829,"lon":5.365636,"is_reserved":false,"is_disabled":false,"rental_uris":{"android":"levelo://app?vid=38199222-1212-44dc-a532-5329dd567672","ios":"levelo://app?vid=38199222-1212-44dc-a532-5329dd567672"},"vehicle_type_id":"4","last_reported":1743769138,"current_range_meters":4400,"station_id":"ce4bhs12rcd13ifvqhvg","pricing_plan_id":"cebpf4jnsgd1na2vs0mg"},{"bike_id":"0b884543-7e77-45fa-ad0a-dbb3c5b48761","system_id":"levelo_inurba_marseille","lat":43.28666,"lon":5.36353,"is_reserved":false,"is_disabled":false,"rental_uris":{"android":"levelo://app?vid=0b884543-7e77-45fa-ad0a-dbb3c5b48761","ios":"levelo://app?vid=0b884543-7e77-45fa-ad0a-dbb3c5b48761"},"vehicle_type_id":"4","last_reported":1743769138,"current_range_meters":4400,"station_id":"ce4bhah2rcd13ifvqej0","pricing_plan_id":"cebpf4jnsgd1na2vs0mg"},{"bike_id":"c8ffe9dd-8ee4-4135-bb87-7494b2ea5a6f","system_id":"levelo_inurba_marseille","lat":43.26495,"lon":5.39539,"is_reserved":false,"is_disabled":false,"rental_uris":{"android":"levelo://app?vid=c8ffe9dd-8ee4-4135-bb87-7494b2ea5a6f","ios":"levelo://app?vid=c8ffe9dd-8ee4-4135-bb87-7494b2ea5a6f"},"vehicle_type_id":"4","last_reported":1743769138,"current_range_meters":4400,"station_id":"ce4bhi12rcd13ifvqfq0","pricing_plan_id":"cebpf4jnsgd1na2vs0mg"},{"bike_id":"8b2c71b1-2078-46f9-8d43-560c0e8cd325","system_id":"levelo_inurba_marseille","lat":43.27492,"lon":5.42448,"is_reserved":false,"is_disabled":false,"rental_uris":{"android":"levelo://app?vid=8b2c71b1-2078-46f9-8d43-560c0e8cd325","ios":"levelo://app?vid=8b2c71b1-2078-46f9-8d43-560c0e8cd325"},"vehicle_type_id":"4","last_reported":1743769138,"current_range_meters":4800,"station_id":"ce4bhn92rcd13ifvqgrg","pricing_plan_id":"cebpf4jnsgd1na2vs0mg"},{"bike_id":"4b0f8f2d-fc96-44c1-8871-b194cf92711d","system_id":"levelo_inurba_marseille","lat":43.29638,"lon":5.40711,"is_reserved":false,"is_disabled":false,"rental_uris":{"android":"levelo://app?vid=4b0f8f2d-fc96-44c1-8871-b194cf92711d","ios":"levelo://app?vid=4b0f8f2d-fc96-44c1-8871-b194cf92711d"},"vehicle_type_id":"4","last_reported":1743769138,"current_range_meters":4800,"station_id":"","pricing_plan_id":"cebpf4jnsgd1na2vs0mg"},{"bike_id":"a056a0a4-d9ff-46e5-b74f-309ec8d7e454","system_id":"levelo_inurba_marseille","lat":43.278133,"lon":5.407165,"is_reserved":false,"is_disabled":true,"rental_uris":{"android":"levelo://app?vid=a056a0a4-d9ff-46e5-b74f-309ec8d7e454","ios":"levelo://app?vid=a056a0a4-d9ff-46e5-b74f-309ec8d7e454"},"vehicle_type_id":"4","last_reported":1743769138,"current_range_meters":4400,"station_id":"ce4bhnh2rcd13ifvqgtg","pricing_plan_id":"cebpf4jnsgd1na2vs0mg"},{"bike_id":"49319233-5e96-4995-9684-70302018affe","system_id":"levelo_inurba_marseille","lat":43.26557,"lon":5.3728,"is_reserved":false,"is_disabled":false,"rental_uris":{"android":"levelo://app?vid=49319233-5e96-4995-9684-70302018affe","ios":"levelo://app?vid=49319233-5e96-4995-9684-70302018affe"},"vehicle_type_id":"4","last_reported":1743769138,"current_range_meters":4800,"station_id":"ce4bhg12rcd13ifvqf70","pricing_plan_id":"cebpf4jnsgd1na2vs0mg"},{"bike_id":"cfac7f2f-9679-4b60-a420-122c25601ef1","system_id":"levelo_inurba_marseille","lat":43.25581,"lon":5.38228,"is_reserved":false,"is_disabled":false,"rental_uris":{"android":"levelo://app?vid=cfac7f2f-9679-4b60-a420-122c25601ef1","ios":"levelo://app?vid=cfac7f2f-9679-4b60-a420-122c25601ef1"},"vehicle_type_id":"4","last_reported":1743769138,"current_range_meters":4800,"station_id":"ce4bhih2rcd13ifvqfs0","pricing_plan_id":"cebpf4jnsgd1na2vs0mg"},{"bike_id":"522ceee8-a483-4e09-963e-91ef07309d83","system_id":"levelo_inurba_marseille","lat":43.31343,"lon":5.36727,"is_reserved":false,"is_disabled":false,"rental_uris":{"android":"levelo://app?vid=522ceee8-a483-4e09-963e-91ef07309d83","ios":"levelo://app?vid=522ceee8-a483-4e09-963e-91ef07309d83"},"vehicle_type_id":"4","last_reported":1743769138,"current_range_meters":4400,"station_id":"ce4bgr92rcd13ifvqc6g","pricing_plan_id":"cebpf4jnsgd1na2vs0mg"},{"bike_id":"8d198c6f-711f-4d62-a7af-64dfd73be512","system_id":"levelo_inurba_marseille","lat":43.29516,"lon":5.37506,"is_reserved":false,"is_disabled":false,"rental_uris":{"android":"levelo://app?vid=8d198c6f-711f-4d62-a7af-64dfd73be512","ios":"levelo://app?vid=8d198c6f-711f-4d62-a7af-64dfd73be512"},"vehicle_type_id":"4","last_reported":1743769138,"current_range_meters":4800,"station_id":"ce4bgkp2rcd13ifvqbmg","pricing_plan_id":"cebpf4jnsgd1na2vs0mg"},{"bike_id":"df6f7a56-191a-4114-93a0-0211bfd3c671","system_id":"levelo_inurba_marseille","lat":43.30127,"lon":5.39864,"is_reserved":false,"is_disabled":false,"rental_uris":{"android":"levelo://app?vid=df6f7a56-191a-4114-93a0-0211bfd3c671","ios":"levelo://app?vid=df6f7a56-191a-4114-93a0-0211bfd3c671"},"vehicle_type_id":"4","last_reported":1743769138,"current_range_meters":5600,"station_id":"ce4bh0h2rcd13ifvqd40","pricing_plan_id":"cebpf4jnsgd1na2vs0mg"},{"bike_id":"5dccdf1d-c5d9-4a00-80b1-20de93705e03","system_id":"levelo_inurba_marseille","lat":43.25496,"lon":5.3765,"is_reserved":false,"is_disabled":false,"rental_uris":{"android":"levelo://app?vid=5dccdf1d-c5d9-4a00-80b1-20de93705e03","ios":"levelo://app?vid=5dccdf1d-c5d9-4a00-80b1-20de93705e03"},"vehicle_type_id":"4","last_reported":1743769138,"current_range_meters":4800,"station_id":"ce4bhh12rcd13ifvqff0","pricing_plan_id":"cebpf4jnsgd1na2vs0mg"},{"bike_id":"91d3f0e6-4d2c-4169-affd-77fc43ee71b6","system_id":"levelo_inurba_marseille","lat":43.28457,"lon":5.37543,"is_reserved":false,"is_disabled":false,"rental_uris":{"android":"levelo://app?vid=91d3f0e6-4d2c-4169-affd-77fc43ee71b6","ios":"levelo://app?vid=91d3f0e6-4d2c-4169-affd-77fc43ee71b6"},"vehicle_type_id":"4","last_reported":1743769138,"current_range_meters":5600,"station_id":"ce4bh412rcd13ifvqds0","pricing_plan_id":"cebpf4jnsgd1na2vs0mg"},{"bike_id":"cd83c8ac-ed09-4369-9279-b6f36f2bbd3c","system_id":"levelo_inurba_marseille","lat":43.30822,"lon":5.38232,"is_reserved":false,"is_disabled":false,"rental_uris":{"android":"levelo://app?vid=cd83c8ac-ed09-4369-9279-b6f36f2bbd3c","ios":"levelo://app?vid=cd83c8ac-ed09-4369-9279-b6f36f2bbd3c"},"vehicle_type_id":"4","last_reported":1743769138,"current_range_meters":5600,"station_id":"","pricing_plan_id":"cebpf4jnsgd1na2vs0mg"},{"bike_id":"2f5ebb33-56ac-48ac-8004-513ec8b3c9df","system_id":"levelo_inurba_marseille","lat":43.25898,"lon":5.40906,"is_reserved":false,"is_disabled":false,"rental_uris":{"android":"levelo://app?vid=2f5ebb33-56ac-48ac-8004-513ec8b3c9df","ios":"levelo://app?vid=2f5ebb33-56ac-48ac-8004-513ec8b3c9df"},"vehicle_type_id":"4","last_reported":1743769138,"current_range_meters":5600,"station_id":"ce4bhm92rcd13ifvqglg","pricing_plan_id":"cebpf4jnsgd1na2vs0mg"},{"bike_id":"8a22021e-c96d-46bf-a04c-d047359163ad","system_id":"levelo_inurba_marseille","lat":43.28402,"lon":5.37521,"is_reserved":false,"is_disabled":false,"rental_uris":{"android":"levelo://app?vid=8a22021e-c96d-46bf-a04c-d047359163ad","ios":"levelo://app?vid=8a22021e-c96d-46bf-a04c-d047359163ad"},"vehicle_type_id":"4","last_reported":1743769138,"current_range_meters":5600,"station_id":"ce4bh412rcd13ifvqds0","pricing_plan_id":"cebpf4jnsgd1na2vs0mg"},{"bike_id":"08eb4f28-7216-4e32-b0df-427923200c4e","system_id":"levelo_inurba_marseille","lat":43.24819,"lon":5.37446,"is_reserved":false,"is_disabled":false,"rental_uris":{"android":"levelo://app?vid=08eb4f28-7216-4e32-b0df-427923200c4e","ios":"levelo://app?vid=08eb4f28-7216-4e32-b0df-427923200c4e"},"vehicle_type_id":"4","last_reported":1743769138,"current_range_meters":5600,"station_id":"ce4bhgh2rcd13ifvqfb0","pricing_plan_id":"cebpf4jnsgd1na2vs0mg"},{"bike_id":"4f38af3b-4c47-48d5-adf4-781343848b4a","system_id":"levelo_inurba_marseille","lat":43.30567,"lon":5.3653,"is_reserved":false,"is_disabled":false,"rental_uris":{"android":"levelo://app?vid=4f38af3b-4c47-48d5-adf4-781343848b4a","ios":"levelo://app?vid=4f38af3b-4c47-48d5-adf4-781343848b4a"},"vehicle_type_id":"4","last_reported":1743769138,"current_range_meters":6000,"station_id":"ce4bgs12rcd13ifvqcag","pricing_plan_id":"cebpf4jnsgd1na2vs0mg"},{"bike_id":"788181dd-702f-41e8-ad91-4e239577bd78","system_id":"levelo_inurba_marseille","lat":43.268045,"lon":5.394487,"is_reserved":false,"is_disabled":false,"rental_uris":{"android":"levelo://app?vid=788181dd-702f-41e8-ad91-4e239577bd78","ios":"levelo://app?vid=788181dd-702f-41e8-ad91-4e239577bd78"},"vehicle_type_id":"4","last_reported":1743769138,"current_range_meters":6000,"station_id":"ce4bhh12rcd13ifvqfg0","pricing_plan_id":"cebpf4jnsgd1na2vs0mg"},{"bike_id":"1d580cd2-17d6-4d13-96c9-29daab058466","system_id":"levelo_inurba_marseille","lat":43.30926,"lon":5.40148,"is_reserved":false,"is_disabled":false,"rental_uris":{"android":"levelo://app?vid=1d580cd2-17d6-4d13-96c9-29daab058466","ios":"levelo://app?vid=1d580cd2-17d6-4d13-96c9-29daab058466"},"vehicle_type_id":"4","last_reported":1743769138,"current_range_meters":6000,"station_id":"ce4bgvp2rcd13ifvqct0","pricing_plan_id":"cebpf4jnsgd1na2vs0mg"},{"bike_id":"a0e25edc-266f-42a6-bba3-dae100287583","system_id":"levelo_inurba_marseille","lat":43.30539,"lon":5.36703,"is_reserved":false,"is_disabled":false,"rental_uris":{"android":"levelo://app?vid=a0e25edc-266f-42a6-bba3-dae100287583","ios":"levelo://app?vid=a0e25edc-266f-42a6-bba3-dae100287583"},"vehicle_type_id":"4","last_reported":1743769138,"current_range_meters":6000,"station_id":"ce4bgrp2rcd13ifvqc9g","pricing_plan_id":"cebpf4jnsgd1na2vs0mg"},{"bike_id":"5c11d07c-5eea-4766-9d71-e6a36cf6f070","system_id":"levelo_inurba_marseille","lat":43.27495,"lon":5.42451,"is_reserved":false,"is_disabled":false,"rental_uris":{"android":"levelo://app?vid=5c11d07c-5eea-4766-9d71-e6a36cf6f070","ios":"levelo://app?vid=5c11d07c-5eea-4766-9d71-e6a36cf6f070"},"vehicle_type_id":"4","last_reported":1743769138,"current_range_meters":6400,"station_id":"ce4bhn92rcd13ifvqgrg","pricing_plan_id":"cebpf4jnsgd1na2vs0mg"},{"bike_id":"9ebe1566-912b-4450-abeb-dcb72efab02b","system_id":"levelo_inurba_marseille","lat":43.28397,"lon":5.37518,"is_reserved":false,"is_disabled":false,"rental_uris":{"android":"levelo://app?vid=9ebe1566-912b-4450-abeb-dcb72efab02b","ios":"levelo://app?vid=9ebe1566-912b-4450-abeb-dcb72efab02b"},"vehicle_type_id":"4","last_reported":1743769138,"current_range_meters":6400,"station_id":"ce4bh412rcd13ifvqds0","pricing_plan_id":"cebpf4jnsgd1na2vs0mg"},{"bike_id":"51b37761-f4db-4850-a6e4-1f3b516e8001","system_id":"levelo_inurba_marseille","lat":43.23153,"lon":5.4371,"is_reserved":false,"is_disabled":false,"rental_uris":{"android":"levelo://app?vid=51b37761-f4db-4850-a6e4-1f3b516e8001","ios":"levelo://app?vid=51b37761-f4db-4850-a6e4-1f3b516e8001"},"vehicle_type_id":"4","last_reported":1743769138,"current_range_meters":6400,"station_id":"ce4bhmp2rcd13ifvqgog","pricing_plan_id":"cebpf4jnsgd1na2vs0mg"},{"bike_id":"71e55f99-90e5-4133-8167-5af8b2b35d7e","system_id":"levelo_inurba_marseille","lat":43.23073,"lon":5.35483,"is_reserved":false,"is_disabled":false,"rental_uris":{"android":"levelo://app?vid=71e55f99-90e5-4133-8167-5af8b2b35d7e","ios":"levelo://app?vid=71e55f99-90e5-4133-8167-5af8b2b35d7e"},"vehicle_type_id":"4","last_reported":1743769138,"current_range_meters":6400,"station_id":"cpo3342slgdg3j2ifvpg","pricing_plan_id":"cebpf4jnsgd1na2vs0mg"},{"bike_id":"f678e1b9-34df-4ef4-b53f-514c899c869f","system_id":"levelo_inurba_marseille","lat":43.23193,"lon":5.35557,"is_reserved":false,"is_disabled":false,"rental_uris":{"android":"levelo://app?vid=f678e1b9-34df-4ef4-b53f-514c899c869f","ios":"levelo://app?vid=f678e1b9-34df-4ef4-b53f-514c899c869f"},"vehicle_type_id":"4","last_reported":1743769138,"current_range_meters":6400,"station_id":"ce4bhu92rcd13ifvqi70","pricing_plan_id":"cebpf4jnsgd1na2vs0mg"},{"bike_id":"f64ff846-40ce-4551-b35e-74c1edc8d9b7","system_id":"levelo_inurba_marseille","lat":43.26943,"lon":5.3867,"is_reserved":false,"is_disabled":false,"rental_uris":{"android":"levelo://app?vid=f64ff846-40ce-4551-b35e-74c1edc8d9b7","ios":"levelo://app?vid=f64ff846-40ce-4551-b35e-74c1edc8d9b7"},"vehicle_type_id":"4","last_reported":1743769138,"current_range_meters":6400,"station_id":"ce4bhh92rcd13ifvqfh0","pricing_plan_id":"cebpf4jnsgd1na2vs0mg"},{"bike_id":"fd79db7f-be0e-478f-b638-826514d749f9","system_id":"levelo_inurba_marseille","lat":43.29569,"lon":5.39991,"is_reserved":false,"is_disabled":false,"rental_uris":{"android":"levelo://app?vid=fd79db7f-be0e-478f-b638-826514d749f9","ios":"levelo://app?vid=fd79db7f-be0e-478f-b638-826514d749f9"},"vehicle_type_id":"4","last_reported":1743769138,"current_range_meters":6800,"station_id":"ce4bh312rcd13ifvqdj0","pricing_plan_id":"cebpf4jnsgd1na2vs0mg"},{"bike_id":"6c90095a-ea79-437b-84bd-d289fecb6911","system_id":"levelo_inurba_marseille","lat":43.26558,"lon":5.37295,"is_reserved":false,"is_disabled":false,"rental_uris":{"android":"levelo://app?vid=6c90095a-ea79-437b-84bd-d289fecb6911","ios":"levelo://app?vid=6c90095a-ea79-437b-84bd-d289fecb6911"},"vehicle_type_id":"4","last_reported":1743769138,"current_range_meters":6800,"station_id":"ce4bhg12rcd13ifvqf70","pricing_plan_id":"cebpf4jnsgd1na2vs0mg"},{"bike_id":"849a7352-1618-46f5-9efe-088a34322a63","system_id":"levelo_inurba_marseille","lat":43.302277,"lon":5.400755,"is_reserved":false,"is_disabled":false,"rental_uris":{"android":"levelo://app?vid=849a7352-1618-46f5-9efe-088a34322a63","ios":"levelo://app?vid=849a7352-1618-46f5-9efe-088a34322a63"},"vehicle_type_id":"4","last_reported":1743769138,"current_range_meters":6800,"station_id":"ce4bgt12rcd13ifvqcd0","pricing_plan_id":"cebpf4jnsgd1na2vs0mg"},{"bike_id":"c13336a2-47ce-488c-b5b6-77c01a3ac1d1","system_id":"levelo_inurba_marseille","lat":43.319051,"lon":5.407399,"is_reserved":false,"is_disabled":true,"rental_uris":{"android":"levelo://app?vid=c13336a2-47ce-488c-b5b6-77c01a3ac1d1","ios":"levelo://app?vid=c13336a2-47ce-488c-b5b6-77c01a3ac1d1"},"vehicle_type_id":"4","last_reported":1743769138,"current_range_meters":6800,"station_id":"ce4bhq12rcd13ifvqhig","pricing_plan_id":"cebpf4jnsgd1na2vs0mg"},{"bike_id":"08412614-9a7f-42c5-91c9-6bf43ea0736a","system_id":"levelo_inurba_marseille","lat":43.23151,"lon":5.43709,"is_reserved":false,"is_disabled":false,"rental_uris":{"android":"levelo://app?vid=08412614-9a7f-42c5-91c9-6bf43ea0736a","ios":"levelo://app?vid=08412614-9a7f-42c5-91c9-6bf43ea0736a"},"vehicle_type_id":"4","last_reported":1743769138,"current_range_meters":6800,"station_id":"ce4bhmp2rcd13ifvqgog","pricing_plan_id":"cebpf4jnsgd1na2vs0mg"},{"bike_id":"8d7eab5b-bc43-48f5-9c97-0948b42ca6cf","system_id":"levelo_inurba_marseille","lat":43.22932,"lon":5.354,"is_reserved":false,"is_disabled":false,"rental_uris":{"android":"levelo://app?vid=8d7eab5b-bc43-48f5-9c97-0948b42ca6cf","ios":"levelo://app?vid=8d7eab5b-bc43-48f5-9c97-0948b42ca6cf"},"vehicle_type_id":"4","last_reported":1743769138,"current_range_meters":6800,"station_id":"cpo3532slgdg3j2ikp40","pricing_plan_id":"cebpf4jnsgd1na2vs0mg"},{"bike_id":"3ab4d282-44f1-4635-be82-7659a5a757ef","system_id":"levelo_inurba_marseille","lat":43.24169,"lon":5.36398,"is_reserved":false,"is_disabled":false,"rental_uris":{"android":"levelo://app?vid=3ab4d282-44f1-4635-be82-7659a5a757ef","ios":"levelo://app?vid=3ab4d282-44f1-4635-be82-7659a5a757ef"},"vehicle_type_id":"4","last_reported":1743769138,"current_range_meters":6800,"station_id":"cpo36qri1sfpv3e86is0","pricing_plan_id":"cebpf4jnsgd1na2vs0mg"},{"bike_id":"73d854ad-9eb6-4d68-8878-e9b2295ae65a","system_id":"levelo_inurba_marseille","lat":43.23065,"lon":5.35496,"is_reserved":false,"is_disabled":false,"rental_uris":{"android":"levelo://app?vid=73d854ad-9eb6-4d68-8878-e9b2295ae65a","ios":"levelo://app?vid=73d854ad-9eb6-4d68-8878-e9b2295ae65a"},"vehicle_type_id":"4","last_reported":1743769138,"current_range_meters":7200,"station_id":"cpo3342slgdg3j2ifvpg","pricing_plan_id":"cebpf4jnsgd1na2vs0mg"},{"bike_id":"9b0d6412-5793-43c9-83e8-2932555d825f","system_id":"levelo_inurba_marseille","lat":43.26588,"lon":5.39049,"is_reserved":false,"is_disabled":false,"rental_uris":{"android":"levelo://app?vid=9b0d6412-5793-43c9-83e8-2932555d825f","ios":"levelo://app?vid=9b0d6412-5793-43c9-83e8-2932555d825f"},"vehicle_type_id":"4","last_reported":1743769138,"current_range_meters":7200,"station_id":"ce4bhe12rcd13ifvqf30","pricing_plan_id":"cebpf4jnsgd1na2vs0mg"},{"bike_id":"65abaf88-92b8-4cd2-893a-be5a1df95a40","system_id":"levelo_inurba_marseille","lat":43.28486,"lon":5.38568,"is_reserved":false,"is_disabled":false,"rental_uris":{"android":"levelo://app?vid=65abaf88-92b8-4cd2-893a-be5a1df95a40","ios":"levelo://app?vid=65abaf88-92b8-4cd2-893a-be5a1df95a40"},"vehicle_type_id":"4","last_reported":1743769138,"current_range_meters":7200,"station_id":"ce4bh8p2rcd13ifvqeb0","pricing_plan_id":"cebpf4jnsgd1na2vs0mg"},{"bike_id":"1d10a460-b0cf-4ec1-81db-de150a7d6325","system_id":"levelo_inurba_marseille","lat":43.29297,"lon":5.37179,"is_reserved":false,"is_disabled":false,"rental_uris":{"android":"levelo://app?vid=1d10a460-b0cf-4ec1-81db-de150a7d6325","ios":"levelo://app?vid=1d10a460-b0cf-4ec1-81db-de150a7d6325"},"vehicle_type_id":"4","last_reported":1743769138,"current_range_meters":8000,"station_id":"ce4bgh92rcd13ifvqb40","pricing_plan_id":"cebpf4jnsgd1na2vs0mg"},{"bike_id":"d76832c4-3604-4de9-b7a5-182f7c6e995c","system_id":"levelo_inurba_marseille","lat":43.313555,"lon":5.385015,"is_reserved":false,"is_disabled":true,"rental_uris":{"android":"levelo://app?vid=d76832c4-3604-4de9-b7a5-182f7c6e995c","ios":"levelo://app?vid=d76832c4-3604-4de9-b7a5-182f7c6e995c"},"vehicle_type_id":"4","last_reported":1743769138,"current_range_meters":8000,"station_id":"ce4bgt92rcd13ifvqcf0","pricing_plan_id":"cebpf4jnsgd1na2vs0mg"},{"bike_id":"e3a29d38-a611-4b12-87ef-2fb8a21c41d5","system_id":"levelo_inurba_marseille","lat":43.22931,"lon":5.35376,"is_reserved":false,"is_disabled":false,"rental_uris":{"android":"levelo://app?vid=e3a29d38-a611-4b12-87ef-2fb8a21c41d5","ios":"levelo://app?vid=e3a29d38-a611-4b12-87ef-2fb8a21c41d5"},"vehicle_type_id":"4","last_reported":1743769138,"current_range_meters":8000,"station_id":"cpo3532slgdg3j2ikp40","pricing_plan_id":"cebpf4jnsgd1na2vs0mg"},{"bike_id":"efddeda7-6eb2-4c14-868d-fa0ce0b35ef3","system_id":"levelo_inurba_marseille","lat":43.31294,"lon":5.38286,"is_reserved":false,"is_disabled":false,"rental_uris":{"android":"levelo://app?vid=efddeda7-6eb2-4c14-868d-fa0ce0b35ef3","ios":"levelo://app?vid=efddeda7-6eb2-4c14-868d-fa0ce0b35ef3"},"vehicle_type_id":"4","last_reported":1743769138,"current_range_meters":8000,"station_id":"","pricing_plan_id":"cebpf4jnsgd1na2vs0mg"},{"bike_id":"6db46d08-efce-41fa-ab29-5d64dc1ca0f7","system_id":"levelo_inurba_marseille","lat":43.33603,"lon":5.40986,"is_reserved":false,"is_disabled":false,"rental_uris":{"android":"levelo://app?vid=6db46d08-efce-41fa-ab29-5d64dc1ca0f7","ios":"levelo://app?vid=6db46d08-efce-41fa-ab29-5d64dc1ca0f7"},"vehicle_type_id":"4","last_reported":1743769138,"current_range_meters":8000,"station_id":"ce4bhqh2rcd13ifvqhmg","pricing_plan_id":"cebpf4jnsgd1na2vs0mg"},{"bike_id":"2ff3068f-074f-4569-bb32-aaa56c528ef2","system_id":"levelo_inurba_marseille","lat":43.27918,"lon":5.39591,"is_reserved":false,"is_disabled":false,"rental_uris":{"android":"levelo://app?vid=2ff3068f-074f-4569-bb32-aaa56c528ef2","ios":"levelo://app?vid=2ff3068f-074f-4569-bb32-aaa56c528ef2"},"vehicle_type_id":"4","last_reported":1743769138,"current_range_meters":8000,"station_id":"ce4bhf92rcd13ifvqf40","pricing_plan_id":"cebpf4jnsgd1na2vs0mg"},{"bike_id":"b3eac9c5-b95b-4848-a104-d84634d1a70c","system_id":"levelo_inurba_marseille","lat":43.31013,"lon":5.38003,"is_reserved":false,"is_disabled":false,"rental_uris":{"android":"levelo://app?vid=b3eac9c5-b95b-4848-a104-d84634d1a70c","ios":"levelo://app?vid=b3eac9c5-b95b-4848-a104-d84634d1a70c"},"vehicle_type_id":"4","last_reported":1743769138,"current_range_meters":8000,"station_id":"","pricing_plan_id":"cebpf4jnsgd1na2vs0mg"},{"bike_id":"19224d95-e048-4cbb-8884-43e0e6b3db9b","system_id":"levelo_inurba_marseille","lat":43.29877,"lon":5.39737,"is_reserved":false,"is_disabled":true,"rental_uris":{"android":"levelo://app?vid=19224d95-e048-4cbb-8884-43e0e6b3db9b","ios":"levelo://app?vid=19224d95-e048-4cbb-8884-43e0e6b3db9b"},"vehicle_type_id":"4","last_reported":1743769138,"current_range_meters":8000,"station_id":"ce4bh0h2rcd13ifvqd50","pricing_plan_id":"cebpf4jnsgd1na2vs0mg"},{"bike_id":"4a0cb5ec-891f-471c-8860-9d6c3a83a3a9","system_id":"levelo_inurba_marseille","lat":43.30381,"lon":5.42485,"is_reserved":false,"is_disabled":false,"rental_uris":{"android":"levelo://app?vid=4a0cb5ec-891f-471c-8860-9d6c3a83a3a9","ios":"levelo://app?vid=4a0cb5ec-891f-471c-8860-9d6c3a83a3a9"},"vehicle_type_id":"4","last_reported":1743769138,"current_range_meters":8000,"station_id":"ce4bhoh2rcd13ifvqh6g","pricing_plan_id":"cebpf4jnsgd1na2vs0mg"},{"bike_id":"6e7e8bd0-971a-4bf5-a521-0d1053f36753","system_id":"levelo_inurba_marseille","lat":43.31077,"lon":5.42428,"is_reserved":false,"is_disabled":true,"rental_uris":{"android":"levelo://app?vid=6e7e8bd0-971a-4bf5-a521-0d1053f36753","ios":"levelo://app?vid=6e7e8bd0-971a-4bf5-a521-0d1053f36753"},"vehicle_type_id":"4","last_reported":1743769138,"current_range_meters":8000,"station_id":"ce4bhp92rcd13ifvqhag","pricing_plan_id":"cebpf4jnsgd1na2vs0mg"},{"bike_id":"26f0a341-383d-4577-b325-3f462b8cfd6e","system_id":"levelo_inurba_marseille","lat":43.30541,"lon":5.36504,"is_reserved":false,"is_disabled":false,"rental_uris":{"android":"levelo://app?vid=26f0a341-383d-4577-b325-3f462b8cfd6e","ios":"levelo://app?vid=26f0a341-383d-4577-b325-3f462b8cfd6e"},"vehicle_type_id":"4","last_reported":1743769138,"current_range_meters":8000,"station_id":"","pricing_plan_id":"cebpf4jnsgd1na2vs0mg"},{"bike_id":"6c29e832-dee1-46ee-b8ca-d73337754631","system_id":"levelo_inurba_marseille","lat":43.30468,"lon":5.37916,"is_reserved":false,"is_disabled":false,"rental_uris":{"android":"levelo://app?vid=6c29e832-dee1-46ee-b8ca-d73337754631","ios":"levelo://app?vid=6c29e832-dee1-46ee-b8ca-d73337754631"},"vehicle_type_id":"4","last_reported":1743769138,"current_range_meters":8400,"station_id":"ce4bgup2rcd13ifvqcn0","pricing_plan_id":"cebpf4jnsgd1na2vs0mg"},{"bike_id":"3cf22d29-90b6-4c79-a643-886bc3743ca7","system_id":"levelo_inurba_marseille","lat":43.33452,"lon":5.4006,"is_reserved":false,"is_disabled":false,"rental_uris":{"android":"levelo://app?vid=3cf22d29-90b6-4c79-a643-886bc3743ca7","ios":"levelo://app?vid=3cf22d29-90b6-4c79-a643-886bc3743ca7"},"vehicle_type_id":"4","last_reported":1743769138,"current_range_meters":8400,"station_id":"","pricing_plan_id":"cebpf4jnsgd1na2vs0mg"},{"bike_id":"0b508004-db37-41e4-aeca-4baa5225e42f","system_id":"levelo_inurba_marseille","lat":43.26196,"lon":5.37931,"is_reserved":false,"is_disabled":false,"rental_uris":{"android":"levelo://app?vid=0b508004-db37-41e4-aeca-4baa5225e42f","ios":"levelo://app?vid=0b508004-db37-41e4-aeca-4baa5225e42f"},"vehicle_type_id":"4","last_reported":1743769138,"current_range_meters":8000,"station_id":"ce4bhjp2rcd13ifvqg90","pricing_plan_id":"cebpf4jnsgd1na2vs0mg"},{"bike_id":"1049ba71-fb41-4dc5-8c5a-67fbc6fe8421","system_id":"levelo_inurba_marseille","lat":43.25489,"lon":5.37647,"is_reserved":false,"is_disabled":true,"rental_uris":{"android":"levelo://app?vid=1049ba71-fb41-4dc5-8c5a-67fbc6fe8421","ios":"levelo://app?vid=1049ba71-fb41-4dc5-8c5a-67fbc6fe8421"},"vehicle_type_id":"4","last_reported":1743769138,"current_range_meters":8400,"station_id":"ce4bhh12rcd13ifvqff0","pricing_plan_id":"cebpf4jnsgd1na2vs0mg"},{"bike_id":"e1fe1405-80da-4a10-a001-7c25f7f77f25","system_id":"levelo_inurba_marseille","lat":43.27975,"lon":5.38739,"is_reserved":false,"is_disabled":false,"rental_uris":{"android":"levelo://app?vid=e1fe1405-80da-4a10-a001-7c25f7f77f25","ios":"levelo://app?vid=e1fe1405-80da-4a10-a001-7c25f7f77f25"},"vehicle_type_id":"4","last_reported":1743769138,"current_range_meters":8400,"station_id":"ce4bhg12rcd13ifvqf80","pricing_plan_id":"cebpf4jnsgd1na2vs0mg"},{"bike_id":"d658d92c-091d-49d9-82c2-f766c7ab2694","system_id":"levelo_inurba_marseille","lat":43.28259,"lon":5.35061,"is_reserved":false,"is_disabled":false,"rental_uris":{"android":"levelo://app?vid=d658d92c-091d-49d9-82c2-f766c7ab2694","ios":"levelo://app?vid=d658d92c-091d-49d9-82c2-f766c7ab2694"},"vehicle_type_id":"4","last_reported":1743769138,"current_range_meters":8400,"station_id":"ce4bhbp2rcd13ifvqerg","pricing_plan_id":"cebpf4jnsgd1na2vs0mg"},{"bike_id":"d4bfd2dd-cfc6-4a7b-884c-6f35c0134896","system_id":"levelo_inurba_marseille","lat":43.292974,"lon":5.369405,"is_reserved":false,"is_disabled":false,"rental_uris":{"android":"levelo://app?vid=d4bfd2dd-cfc6-4a7b-884c-6f35c0134896","ios":"levelo://app?vid=d4bfd2dd-cfc6-4a7b-884c-6f35c0134896"},"vehicle_type_id":"4","last_reported":1743769138,"current_range_meters":8400,"station_id":"ce4bhb92rcd13ifvqen0","pricing_plan_id":"cebpf4jnsgd1na2vs0mg"},{"bike_id":"ae745f24-3e4c-4f8e-9f5a-6321f254e24d","system_id":"levelo_inurba_marseille","lat":43.24182,"lon":5.39732,"is_reserved":false,"is_disabled":false,"rental_uris":{"android":"levelo://app?vid=ae745f24-3e4c-4f8e-9f5a-6321f254e24d","ios":"levelo://app?vid=ae745f24-3e4c-4f8e-9f5a-6321f254e24d"},"vehicle_type_id":"4","last_reported":1743769138,"current_range_meters":8400,"station_id":"ce4bhn12rcd13ifvqgpg","pricing_plan_id":"cebpf4jnsgd1na2vs0mg"},{"bike_id":"a22a3f17-ae37-4230-8e73-1e9301b19278","system_id":"levelo_inurba_marseille","lat":43.2559,"lon":5.38232,"is_reserved":false,"is_disabled":false,"rental_uris":{"android":"levelo://app?vid=a22a3f17-ae37-4230-8e73-1e9301b19278","ios":"levelo://app?vid=a22a3f17-ae37-4230-8e73-1e9301b19278"},"vehicle_type_id":"4","last_reported":1743769138,"current_range_meters":8800,"station_id":"ce4bhih2rcd13ifvqfs0","pricing_plan_id":"cebpf4jnsgd1na2vs0mg"},{"bike_id":"77e1cca1-9afa-4062-8d36-bac30c3b0ae7","system_id":"levelo_inurba_marseille","lat":43.3237,"lon":5.36748,"is_reserved":false,"is_disabled":false,"rental_uris":{"android":"levelo://app?vid=77e1cca1-9afa-4062-8d36-bac30c3b0ae7","ios":"levelo://app?vid=77e1cca1-9afa-4062-8d36-bac30c3b0ae7"},"vehicle_type_id":"4","last_reported":1743769138,"current_range_meters":8800,"station_id":"ce4bhsh2rcd13ifvqi2g","pricing_plan_id":"cebpf4jnsgd1na2vs0mg"},{"bike_id":"63139285-137c-4e8d-8e95-6c2a275f8333","system_id":"levelo_inurba_marseille","lat":43.32117,"lon":5.36776,"is_reserved":false,"is_disabled":false,"rental_uris":{"android":"levelo://app?vid=63139285-137c-4e8d-8e95-6c2a275f8333","ios":"levelo://app?vid=63139285-137c-4e8d-8e95-6c2a275f8333"},"vehicle_type_id":"4","last_reported":1743769138,"current_range_meters":8800,"station_id":"ce4bhrh2rcd13ifvqhug","pricing_plan_id":"cebpf4jnsgd1na2vs0mg"},{"bike_id":"5f46717b-05d1-4f34-a220-8087932d755b","system_id":"levelo_inurba_marseille","lat":43.30112,"lon":5.36969,"is_reserved":false,"is_disabled":false,"rental_uris":{"android":"levelo://app?vid=5f46717b-05d1-4f34-a220-8087932d755b","ios":"levelo://app?vid=5f46717b-05d1-4f34-a220-8087932d755b"},"vehicle_type_id":"4","last_reported":1743769138,"current_range_meters":8800,"station_id":"","pricing_plan_id":"cebpf4jnsgd1na2vs0mg"},{"bike_id":"36a01722-c774-44b0-a0fc-22f9e40188b8","system_id":"levelo_inurba_marseille","lat":43.29257,"lon":5.40911,"is_reserved":false,"is_disabled":false,"rental_uris":{"android":"levelo://app?vid=36a01722-c774-44b0-a0fc-22f9e40188b8","ios":"levelo://app?vid=36a01722-c774-44b0-a0fc-22f9e40188b8"},"vehicle_type_id":"4","last_reported":1743769138,"current_range_meters":8800,"station_id":"ce4bh192rcd13ifvqdc0","pricing_plan_id":"cebpf4jnsgd1na2vs0mg"},{"bike_id":"e7f9b5c3-1a25-4b50-b32b-37d14b6f751e","system_id":"levelo_inurba_marseille","lat":43.2416,"lon":5.36395,"is_reserved":false,"is_disabled":false,"rental_uris":{"android":"levelo://app?vid=e7f9b5c3-1a25-4b50-b32b-37d14b6f751e","ios":"levelo://app?vid=e7f9b5c3-1a25-4b50-b32b-37d14b6f751e"},"vehicle_type_id":"4","last_reported":1743769138,"current_range_meters":9200,"station_id":"cpo36qri1sfpv3e86is0","pricing_plan_id":"cebpf4jnsgd1na2vs0mg"},{"bike_id":"6a941a76-3873-4abe-8f20-7b9924059316","system_id":"levelo_inurba_marseille","lat":43.29306,"lon":5.37472,"is_reserved":false,"is_disabled":false,"rental_uris":{"android":"levelo://app?vid=6a941a76-3873-4abe-8f20-7b9924059316","ios":"levelo://app?vid=6a941a76-3873-4abe-8f20-7b9924059316"},"vehicle_type_id":"4","last_reported":1743769138,"current_range_meters":9200,"station_id":"ce4bgi12rcd13ifvqb70","pricing_plan_id":"cebpf4jnsgd1na2vs0mg"},{"bike_id":"9ec32db0-0025-47bd-a98b-66668bb01a45","system_id":"levelo_inurba_marseille","lat":43.297426,"lon":5.404415,"is_reserved":false,"is_disabled":false,"rental_uris":{"android":"levelo://app?vid=9ec32db0-0025-47bd-a98b-66668bb01a45","ios":"levelo://app?vid=9ec32db0-0025-47bd-a98b-66668bb01a45"},"vehicle_type_id":"4","last_reported":1743769138,"current_range_meters":9200,"station_id":"ce4bh0h2rcd13ifvqd60","pricing_plan_id":"cebpf4jnsgd1na2vs0mg"},{"bike_id":"69c0db05-6ded-4dc6-9720-2452c83c1020","system_id":"levelo_inurba_marseille","lat":43.22949,"lon":5.35392,"is_reserved":false,"is_disabled":false,"rental_uris":{"android":"levelo://app?vid=69c0db05-6ded-4dc6-9720-2452c83c1020","ios":"levelo://app?vid=69c0db05-6ded-4dc6-9720-2452c83c1020"},"vehicle_type_id":"4","last_reported":1743769138,"current_range_meters":9200,"station_id":"cpo3532slgdg3j2ikp40","pricing_plan_id":"cebpf4jnsgd1na2vs0mg"},{"bike_id":"75570b46-0579-4c3e-a41c-150875a1d1e5","system_id":"levelo_inurba_marseille","lat":43.28366,"lon":5.38636,"is_reserved":false,"is_disabled":false,"rental_uris":{"android":"levelo://app?vid=75570b46-0579-4c3e-a41c-150875a1d1e5","ios":"levelo://app?vid=75570b46-0579-4c3e-a41c-150875a1d1e5"},"vehicle_type_id":"4","last_reported":1743769138,"current_range_meters":9200,"station_id":"ce4bh492rcd13ifvqdvg","pricing_plan_id":"cebpf4jnsgd1na2vs0mg"},{"bike_id":"9e0719ea-e71a-484b-80cc-b8c5e3df74ff","system_id":"levelo_inurba_marseille","lat":43.26933,"lon":5.38927,"is_reserved":false,"is_disabled":false,"rental_uris":{"android":"levelo://app?vid=9e0719ea-e71a-484b-80cc-b8c5e3df74ff","ios":"levelo://app?vid=9e0719ea-e71a-484b-80cc-b8c5e3df74ff"},"vehicle_type_id":"4","last_reported":1743769138,"current_range_meters":9200,"station_id":"ce4bhhh2rcd13ifvqfl0","pricing_plan_id":"cebpf4jnsgd1na2vs0mg"},{"bike_id":"5c611aa4-ce8b-45e6-90b4-76ba4765914b","system_id":"levelo_inurba_marseille","lat":43.3303,"lon":5.39039,"is_reserved":false,"is_disabled":false,"rental_uris":{"android":"levelo://app?vid=5c611aa4-ce8b-45e6-90b4-76ba4765914b","ios":"levelo://app?vid=5c611aa4-ce8b-45e6-90b4-76ba4765914b"},"vehicle_type_id":"4","last_reported":1743769138,"current_range_meters":9200,"station_id":"ce4bhr92rcd13ifvqhrg","pricing_plan_id":"cebpf4jnsgd1na2vs0mg"},{"bike_id":"5be85ff0-81db-4bd4-9981-8132c40e859a","system_id":"levelo_inurba_marseille","lat":43.30462,"lon":5.37907,"is_reserved":false,"is_disabled":false,"rental_uris":{"android":"levelo://app?vid=5be85ff0-81db-4bd4-9981-8132c40e859a","ios":"levelo://app?vid=5be85ff0-81db-4bd4-9981-8132c40e859a"},"vehicle_type_id":"4","last_reported":1743769138,"current_range_meters":9200,"station_id":"ce4bgup2rcd13ifvqcn0","pricing_plan_id":"cebpf4jnsgd1na2vs0mg"},{"bike_id":"ab7b44af-23e1-4c7e-9733-1ae6e5b52612","system_id":"levelo_inurba_marseille","lat":43.26566,"lon":5.37299,"is_reserved":false,"is_disabled":false,"rental_uris":{"android":"levelo://app?vid=ab7b44af-23e1-4c7e-9733-1ae6e5b52612","ios":"levelo://app?vid=ab7b44af-23e1-4c7e-9733-1ae6e5b52612"},"vehicle_type_id":"4","last_reported":1743769138,"current_range_meters":9600,"station_id":"ce4bhg12rcd13ifvqf70","pricing_plan_id":"cebpf4jnsgd1na2vs0mg"},{"bike_id":"36d996d1-147d-4367-84e7-9ff54765b37a","system_id":"levelo_inurba_marseille","lat":43.23198,"lon":5.35557,"is_reserved":false,"is_disabled":false,"rental_uris":{"android":"levelo://app?vid=36d996d1-147d-4367-84e7-9ff54765b37a","ios":"levelo://app?vid=36d996d1-147d-4367-84e7-9ff54765b37a"},"vehicle_type_id":"4","last_reported":1743769138,"current_range_meters":9600,"station_id":"ce4bhu92rcd13ifvqi70","pricing_plan_id":"cebpf4jnsgd1na2vs0mg"},{"bike_id":"cb9f1a9b-0799-45f2-892e-352341287ad9","system_id":"levelo_inurba_marseille","lat":43.31272,"lon":5.40172,"is_reserved":false,"is_disabled":false,"rental_uris":{"android":"levelo://app?vid=cb9f1a9b-0799-45f2-892e-352341287ad9","ios":"levelo://app?vid=cb9f1a9b-0799-45f2-892e-352341287ad9"},"vehicle_type_id":"4","last_reported":1743769138,"current_range_meters":9200,"station_id":"ce4bh092rcd13ifvqd30","pricing_plan_id":"cebpf4jnsgd1na2vs0mg"},{"bike_id":"66320bc1-008b-48fe-b35a-1ba41c7b488a","system_id":"levelo_inurba_marseille","lat":43.30553,"lon":5.36538,"is_reserved":false,"is_disabled":false,"rental_uris":{"android":"levelo://app?vid=66320bc1-008b-48fe-b35a-1ba41c7b488a","ios":"levelo://app?vid=66320bc1-008b-48fe-b35a-1ba41c7b488a"},"vehicle_type_id":"4","last_reported":1743769138,"current_range_meters":9600,"station_id":"ce4bgs12rcd13ifvqcag","pricing_plan_id":"cebpf4jnsgd1na2vs0mg"},{"bike_id":"472b661f-a9f8-4a4d-b452-206a4a85c424","system_id":"levelo_inurba_marseille","lat":43.28151,"lon":5.42639,"is_reserved":false,"is_disabled":false,"rental_uris":{"android":"levelo://app?vid=472b661f-a9f8-4a4d-b452-206a4a85c424","ios":"levelo://app?vid=472b661f-a9f8-4a4d-b452-206a4a85c424"},"vehicle_type_id":"4","last_reported":1743769138,"current_range_meters":9600,"station_id":"ce4bhnh2rcd13ifvqgug","pricing_plan_id":"cebpf4jnsgd1na2vs0mg"},{"bike_id":"c41de6d4-88e1-4085-8302-8ccded5dd6a5","system_id":"levelo_inurba_marseille","lat":43.28733,"lon":5.37939,"is_reserved":false,"is_disabled":false,"rental_uris":{"android":"levelo://app?vid=c41de6d4-88e1-4085-8302-8ccded5dd6a5","ios":"levelo://app?vid=c41de6d4-88e1-4085-8302-8ccded5dd6a5"},"vehicle_type_id":"4","last_reported":1743769138,"current_range_meters":9600,"station_id":"ce4bh9p2rcd13ifvqec0","pricing_plan_id":"cebpf4jnsgd1na2vs0mg"},{"bike_id":"64cd3283-8a55-4240-818a-8735273cc3b9","system_id":"levelo_inurba_marseille","lat":43.266889,"lon":5.382698,"is_reserved":false,"is_disabled":false,"rental_uris":{"android":"levelo://app?vid=64cd3283-8a55-4240-818a-8735273cc3b9","ios":"levelo://app?vid=64cd3283-8a55-4240-818a-8735273cc3b9"},"vehicle_type_id":"4","last_reported":1743769138,"current_range_meters":10000,"station_id":"ce4bhg92rcd13ifvqf90","pricing_plan_id":"cebpf4jnsgd1na2vs0mg"},{"bike_id":"99da7029-d510-4ac8-b5d9-67f7d248f346","system_id":"levelo_inurba_marseille","lat":43.26575,"lon":5.39026,"is_reserved":false,"is_disabled":false,"rental_uris":{"android":"levelo://app?vid=99da7029-d510-4ac8-b5d9-67f7d248f346","ios":"levelo://app?vid=99da7029-d510-4ac8-b5d9-67f7d248f346"},"vehicle_type_id":"4","last_reported":1743769138,"current_range_meters":10000,"station_id":"ce4bhe12rcd13ifvqf30","pricing_plan_id":"cebpf4jnsgd1na2vs0mg"},{"bike_id":"aa55e310-da13-4eff-856b-8b75ec07b854","system_id":"levelo_inurba_marseille","lat":43.25934,"lon":5.40896,"is_reserved":false,"is_disabled":false,"rental_uris":{"android":"levelo://app?vid=aa55e310-da13-4eff-856b-8b75ec07b854","ios":"levelo://app?vid=aa55e310-da13-4eff-856b-8b75ec07b854"},"vehicle_type_id":"4","last_reported":1743769138,"current_range_meters":10000,"station_id":"ce4bhm92rcd13ifvqglg","pricing_plan_id":"cebpf4jnsgd1na2vs0mg"},{"bike_id":"c3f54fa3-2388-4e79-a778-53ddfb146792","system_id":"levelo_inurba_marseille","lat":43.26599,"lon":5.39009,"is_reserved":false,"is_disabled":false,"rental_uris":{"android":"levelo://app?vid=c3f54fa3-2388-4e79-a778-53ddfb146792","ios":"levelo://app?vid=c3f54fa3-2388-4e79-a778-53ddfb146792"},"vehicle_type_id":"4","last_reported":1743769138,"current_range_meters":10000,"station_id":"ce4bhe12rcd13ifvqf30","pricing_plan_id":"cebpf4jnsgd1na2vs0mg"},{"bike_id":"758c2355-846a-4f3d-bcd8-eac4b3145cd6","system_id":"levelo_inurba_marseille","lat":43.23195,"lon":5.35554,"is_reserved":false,"is_disabled":false,"rental_uris":{"android":"levelo://app?vid=758c2355-846a-4f3d-bcd8-eac4b3145cd6","ios":"levelo://app?vid=758c2355-846a-4f3d-bcd8-eac4b3145cd6"},"vehicle_type_id":"4","last_reported":1743769138,"current_range_meters":10000,"station_id":"ce4bhu92rcd13ifvqi70","pricing_plan_id":"cebpf4jnsgd1na2vs0mg"},{"bike_id":"1ba2f0b8-8998-4188-850d-4ff95d9aa47c","system_id":"levelo_inurba_marseille","lat":43.2997,"lon":5.37178,"is_reserved":false,"is_disabled":false,"rental_uris":{"android":"levelo://app?vid=1ba2f0b8-8998-4188-850d-4ff95d9aa47c","ios":"levelo://app?vid=1ba2f0b8-8998-4188-850d-4ff95d9aa47c"},"vehicle_type_id":"4","last_reported":1743769138,"current_range_meters":10000,"station_id":"ce4bgr92rcd13ifvqc7g","pricing_plan_id":"cebpf4jnsgd1na2vs0mg"},{"bike_id":"4bfcfef7-f4a0-4f2f-a34d-e83e7e93e9bf","system_id":"levelo_inurba_marseille","lat":43.23158,"lon":5.43708,"is_reserved":false,"is_disabled":false,"rental_uris":{"android":"levelo://app?vid=4bfcfef7-f4a0-4f2f-a34d-e83e7e93e9bf","ios":"levelo://app?vid=4bfcfef7-f4a0-4f2f-a34d-e83e7e93e9bf"},"vehicle_type_id":"4","last_reported":1743769138,"current_range_meters":10000,"station_id":"ce4bhmp2rcd13ifvqgog","pricing_plan_id":"cebpf4jnsgd1na2vs0mg"},{"bike_id":"ed034283-1492-4da7-9409-35bdead80f30","system_id":"levelo_inurba_marseille","lat":43.30163,"lon":5.3878,"is_reserved":false,"is_disabled":true,"rental_uris":{"android":"levelo://app?vid=ed034283-1492-4da7-9409-35bdead80f30","ios":"levelo://app?vid=ed034283-1492-4da7-9409-35bdead80f30"},"vehicle_type_id":"4","last_reported":1743769138,"current_range_meters":10000,"station_id":"ce4bghh2rcd13ifvqb60","pricing_plan_id":"cebpf4jnsgd1na2vs0mg"},{"bike_id":"0a4031fa-aa62-4fcd-aefe-1bc575b59504","system_id":"levelo_inurba_marseille","lat":43.24668,"lon":5.3815,"is_reserved":false,"is_disabled":false,"rental_uris":{"android":"levelo://app?vid=0a4031fa-aa62-4fcd-aefe-1bc575b59504","ios":"levelo://app?vid=0a4031fa-aa62-4fcd-aefe-1bc575b59504"},"vehicle_type_id":"4","last_reported":1743769138,"current_range_meters":10000,"station_id":"ce4bhih2rcd13ifvqfr0","pricing_plan_id":"cebpf4jnsgd1na2vs0mg"},{"bike_id":"a6b98a9e-55e3-4fc5-8ad6-c886bad1d838","system_id":"levelo_inurba_marseille","lat":43.299215,"lon":5.374092,"is_reserved":false,"is_disabled":false,"rental_uris":{"android":"levelo://app?vid=a6b98a9e-55e3-4fc5-8ad6-c886bad1d838","ios":"levelo://app?vid=a6b98a9e-55e3-4fc5-8ad6-c886bad1d838"},"vehicle_type_id":"4","last_reported":1743769138,"current_range_meters":9600,"station_id":"ce4bgjh2rcd13ifvqbg0","pricing_plan_id":"cebpf4jnsgd1na2vs0mg"},{"bike_id":"9b6d78b1-a7db-4201-8a02-c7ba0a8f2ac7","system_id":"levelo_inurba_marseille","lat":43.27497,"lon":5.42453,"is_reserved":false,"is_disabled":false,"rental_uris":{"android":"levelo://app?vid=9b6d78b1-a7db-4201-8a02-c7ba0a8f2ac7","ios":"levelo://app?vid=9b6d78b1-a7db-4201-8a02-c7ba0a8f2ac7"},"vehicle_type_id":"4","last_reported":1743769138,"current_range_meters":10000,"station_id":"ce4bhn92rcd13ifvqgrg","pricing_plan_id":"cebpf4jnsgd1na2vs0mg"},{"bike_id":"f1e5f20d-e5bb-4349-9a72-f7ab8a004414","system_id":"levelo_inurba_marseille","lat":43.303186,"lon":5.40448,"is_reserved":false,"is_disabled":true,"rental_uris":{"android":"levelo://app?vid=f1e5f20d-e5bb-4349-9a72-f7ab8a004414","ios":"levelo://app?vid=f1e5f20d-e5bb-4349-9a72-f7ab8a004414"},"vehicle_type_id":"4","last_reported":1743769138,"current_range_meters":10000,"station_id":"ce4bh012rcd13ifvqd10","pricing_plan_id":"cebpf4jnsgd1na2vs0mg"},{"bike_id":"6e8f2197-8e6e-4d82-96db-f9a68d65edcb","system_id":"levelo_inurba_marseille","lat":43.30093,"lon":5.39069,"is_reserved":false,"is_disabled":false,"rental_uris":{"android":"levelo://app?vid=6e8f2197-8e6e-4d82-96db-f9a68d65edcb","ios":"levelo://app?vid=6e8f2197-8e6e-4d82-96db-f9a68d65edcb"},"vehicle_type_id":"4","last_reported":1743769138,"current_range_meters":10000,"station_id":"ce4bh192rcd13ifvqdb0","pricing_plan_id":"cebpf4jnsgd1na2vs0mg"},{"bike_id":"74a13a18-430a-4f50-ba26-e7dfbad23482","system_id":"levelo_inurba_marseille","lat":43.23073,"lon":5.35495,"is_reserved":false,"is_disabled":false,"rental_uris":{"android":"levelo://app?vid=74a13a18-430a-4f50-ba26-e7dfbad23482","ios":"levelo://app?vid=74a13a18-430a-4f50-ba26-e7dfbad23482"},"vehicle_type_id":"4","last_reported":1743769138,"current_range_meters":10000,"station_id":"cpo3342slgdg3j2ifvpg","pricing_plan_id":"cebpf4jnsgd1na2vs0mg"},{"bike_id":"386f038a-a86c-4c6a-bf90-638d2a627842","system_id":"levelo_inurba_marseille","lat":43.324913,"lon":5.365502,"is_reserved":false,"is_disabled":false,"rental_uris":{"android":"levelo://app?vid=386f038a-a86c-4c6a-bf90-638d2a627842","ios":"levelo://app?vid=386f038a-a86c-4c6a-bf90-638d2a627842"},"vehicle_type_id":"4","last_reported":1743769138,"current_range_meters":10800,"station_id":"ce4bhs12rcd13ifvqhvg","pricing_plan_id":"cebpf4jnsgd1na2vs0mg"},{"bike_id":"3a0b0f90-790c-4160-b50c-b4d5547d0490","system_id":"levelo_inurba_marseille","lat":43.30371,"lon":5.42492,"is_reserved":false,"is_disabled":false,"rental_uris":{"android":"levelo://app?vid=3a0b0f90-790c-4160-b50c-b4d5547d0490","ios":"levelo://app?vid=3a0b0f90-790c-4160-b50c-b4d5547d0490"},"vehicle_type_id":"4","last_reported":1743769138,"current_range_meters":10800,"station_id":"ce4bhoh2rcd13ifvqh6g","pricing_plan_id":"cebpf4jnsgd1na2vs0mg"},{"bike_id":"fb348b09-6abb-47a4-a266-91f2eeaee291","system_id":"levelo_inurba_marseille","lat":43.32104,"lon":5.36795,"is_reserved":false,"is_disabled":false,"rental_uris":{"android":"levelo://app?vid=fb348b09-6abb-47a4-a266-91f2eeaee291","ios":"levelo://app?vid=fb348b09-6abb-47a4-a266-91f2eeaee291"},"vehicle_type_id":"4","last_reported":1743769138,"current_range_meters":10800,"station_id":"ce4bhrh2rcd13ifvqhug","pricing_plan_id":"cebpf4jnsgd1na2vs0mg"},{"bike_id":"3a21c159-fd14-44b9-9428-ab6a0bd1c270","system_id":"levelo_inurba_marseille","lat":43.30303,"lon":5.39216,"is_reserved":false,"is_disabled":false,"rental_uris":{"android":"levelo://app?vid=3a21c159-fd14-44b9-9428-ab6a0bd1c270","ios":"levelo://app?vid=3a21c159-fd14-44b9-9428-ab6a0bd1c270"},"vehicle_type_id":"4","last_reported":1743769138,"current_range_meters":10800,"station_id":"ce4bgkh2rcd13ifvqbk0","pricing_plan_id":"cebpf4jnsgd1na2vs0mg"},{"bike_id":"55ebdf25-0357-4ec1-a3b5-737d5b6b88c2","system_id":"levelo_inurba_marseille","lat":43.30549,"lon":5.36541,"is_reserved":false,"is_disabled":false,"rental_uris":{"android":"levelo://app?vid=55ebdf25-0357-4ec1-a3b5-737d5b6b88c2","ios":"levelo://app?vid=55ebdf25-0357-4ec1-a3b5-737d5b6b88c2"},"vehicle_type_id":"4","last_reported":1743769138,"current_range_meters":10800,"station_id":"ce4bgs12rcd13ifvqcag","pricing_plan_id":"cebpf4jnsgd1na2vs0mg"},{"bike_id":"def343ed-ac6d-4ac8-b81b-f20f93822823","system_id":"levelo_inurba_marseille","lat":43.28933,"lon":5.39622,"is_reserved":false,"is_disabled":false,"rental_uris":{"android":"levelo://app?vid=def343ed-ac6d-4ac8-b81b-f20f93822823","ios":"levelo://app?vid=def343ed-ac6d-4ac8-b81b-f20f93822823"},"vehicle_type_id":"4","last_reported":1743769138,"current_range_meters":10800,"station_id":"ce4bh3h2rcd13ifvqdn0","pricing_plan_id":"cebpf4jnsgd1na2vs0mg"},{"bike_id":"3c07febe-2cd6-466b-a913-a4adb1821ad4","system_id":"levelo_inurba_marseille","lat":43.29265,"lon":5.38428,"is_reserved":false,"is_disabled":false,"rental_uris":{"android":"levelo://app?vid=3c07febe-2cd6-466b-a913-a4adb1821ad4","ios":"levelo://app?vid=3c07febe-2cd6-466b-a913-a4adb1821ad4"},"vehicle_type_id":"4","last_reported":1743769138,"current_range_meters":10800,"station_id":"ce4bh692rcd13ifvqea0","pricing_plan_id":"cebpf4jnsgd1na2vs0mg"},{"bike_id":"086bedf3-2a85-4667-a6ec-cff21df350c4","system_id":"levelo_inurba_marseille","lat":43.23064,"lon":5.35489,"is_reserved":false,"is_disabled":false,"rental_uris":{"android":"levelo://app?vid=086bedf3-2a85-4667-a6ec-cff21df350c4","ios":"levelo://app?vid=086bedf3-2a85-4667-a6ec-cff21df350c4"},"vehicle_type_id":"4","last_reported":1743769138,"current_range_meters":10800,"station_id":"cpo3342slgdg3j2ifvpg","pricing_plan_id":"cebpf4jnsgd1na2vs0mg"},{"bike_id":"1d7abf9c-7c41-4a45-b7c4-a1777c806afe","system_id":"levelo_inurba_marseille","lat":43.27188,"lon":5.40989,"is_reserved":false,"is_disabled":false,"rental_uris":{"android":"levelo://app?vid=1d7abf9c-7c41-4a45-b7c4-a1777c806afe","ios":"levelo://app?vid=1d7abf9c-7c41-4a45-b7c4-a1777c806afe"},"vehicle_type_id":"4","last_reported":1743769138,"current_range_meters":11200,"station_id":"ce4bhl12rcd13ifvqgf0","pricing_plan_id":"cebpf4jnsgd1na2vs0mg"},{"bike_id":"b6bbcb60-877e-4115-93fd-5185989d78dd","system_id":"levelo_inurba_marseille","lat":43.24384,"lon":5.37058,"is_reserved":false,"is_disabled":false,"rental_uris":{"android":"levelo://app?vid=b6bbcb60-877e-4115-93fd-5185989d78dd","ios":"levelo://app?vid=b6bbcb60-877e-4115-93fd-5185989d78dd"},"vehicle_type_id":"4","last_reported":1743769138,"current_range_meters":11200,"station_id":"ce4bhhh2rcd13ifvqfk0","pricing_plan_id":"cebpf4jnsgd1na2vs0mg"},{"bike_id":"bfb11b41-82f2-4c9c-851a-97bba3e1d8be","system_id":"levelo_inurba_marseille","lat":43.2892,"lon":5.38819,"is_reserved":false,"is_disabled":true,"rental_uris":{"android":"levelo://app?vid=bfb11b41-82f2-4c9c-851a-97bba3e1d8be","ios":"levelo://app?vid=bfb11b41-82f2-4c9c-851a-97bba3e1d8be"},"vehicle_type_id":"4","last_reported":1743769138,"current_range_meters":11200,"station_id":"","pricing_plan_id":"cebpf4jnsgd1na2vs0mg"},{"bike_id":"d03e965e-1dfb-4891-92fc-37be59828007","system_id":"levelo_inurba_marseille","lat":43.28431,"lon":5.34981,"is_reserved":false,"is_disabled":false,"rental_uris":{"android":"levelo://app?vid=d03e965e-1dfb-4891-92fc-37be59828007","ios":"levelo://app?vid=d03e965e-1dfb-4891-92fc-37be59828007"},"vehicle_type_id":"4","last_reported":1743769138,"current_range_meters":11200,"station_id":"ce4bhbh2rcd13ifvqepg","pricing_plan_id":"cebpf4jnsgd1na2vs0mg"},{"bike_id":"cbed18ed-1a60-4977-b9a6-ce77daa21293","system_id":"levelo_inurba_marseille","lat":43.2926,"lon":5.37608,"is_reserved":false,"is_disabled":false,"rental_uris":{"android":"levelo://app?vid=cbed18ed-1a60-4977-b9a6-ce77daa21293","ios":"levelo://app?vid=cbed18ed-1a60-4977-b9a6-ce77daa21293"},"vehicle_type_id":"4","last_reported":1743769138,"current_range_meters":11200,"station_id":"ce4bgi12rcd13ifvqb80","pricing_plan_id":"cebpf4jnsgd1na2vs0mg"},{"bike_id":"b3c12a95-18e5-48a9-b831-d1090850ee75","system_id":"levelo_inurba_marseille","lat":43.297948,"lon":5.380922,"is_reserved":false,"is_disabled":false,"rental_uris":{"android":"levelo://app?vid=b3c12a95-18e5-48a9-b831-d1090850ee75","ios":"levelo://app?vid=b3c12a95-18e5-48a9-b831-d1090850ee75"},"vehicle_type_id":"4","last_reported":1743769138,"current_range_meters":11600,"station_id":"ce4bhmp2rcd13ifvqgog","pricing_plan_id":"cebpf4jnsgd1na2vs0mg"},{"bike_id":"1b07f5d0-df62-4495-a42c-4a12cca8ef22","system_id":"levelo_inurba_marseille","lat":43.302314,"lon":5.400421,"is_reserved":false,"is_disabled":true,"rental_uris":{"android":"levelo://app?vid=1b07f5d0-df62-4495-a42c-4a12cca8ef22","ios":"levelo://app?vid=1b07f5d0-df62-4495-a42c-4a12cca8ef22"},"vehicle_type_id":"4","last_reported":1743769138,"current_range_meters":11600,"station_id":"ce4bgvh2rcd13ifvqcs0","pricing_plan_id":"cebpf4jnsgd1na2vs0mg"},{"bike_id":"2f2bc97e-f311-403d-812b-62454f860a22","system_id":"levelo_inurba_marseille","lat":43.24074,"lon":5.37759,"is_reserved":false,"is_disabled":false,"rental_uris":{"android":"levelo://app?vid=2f2bc97e-f311-403d-812b-62454f860a22","ios":"levelo://app?vid=2f2bc97e-f311-403d-812b-62454f860a22"},"vehicle_type_id":"4","last_reported":1743769138,"current_range_meters":11600,"station_id":"ce4bhnp2rcd13ifvqgvg","pricing_plan_id":"cebpf4jnsgd1na2vs0mg"},{"bike_id":"b7304c20-2911-4f42-aeca-cfdb9060ab29","system_id":"levelo_inurba_marseille","lat":43.2657,"lon":5.37283,"is_reserved":false,"is_disabled":false,"rental_uris":{"android":"levelo://app?vid=b7304c20-2911-4f42-aeca-cfdb9060ab29","ios":"levelo://app?vid=b7304c20-2911-4f42-aeca-cfdb9060ab29"},"vehicle_type_id":"4","last_reported":1743769138,"current_range_meters":11600,"station_id":"ce4bhg12rcd13ifvqf70","pricing_plan_id":"cebpf4jnsgd1na2vs0mg"},{"bike_id":"7142cac9-8e01-4c96-90d0-42e28c5a3cd9","system_id":"levelo_inurba_marseille","lat":43.25582,"lon":5.38229,"is_reserved":false,"is_disabled":false,"rental_uris":{"android":"levelo://app?vid=7142cac9-8e01-4c96-90d0-42e28c5a3cd9","ios":"levelo://app?vid=7142cac9-8e01-4c96-90d0-42e28c5a3cd9"},"vehicle_type_id":"4","last_reported":1743769138,"current_range_meters":11600,"station_id":"ce4bhih2rcd13ifvqfs0","pricing_plan_id":"cebpf4jnsgd1na2vs0mg"},{"bike_id":"261e10b0-63e9-4433-9ea8-fa566bcc9924","system_id":"levelo_inurba_marseille","lat":43.29279,"lon":5.40114,"is_reserved":false,"is_disabled":false,"rental_uris":{"android":"levelo://app?vid=261e10b0-63e9-4433-9ea8-fa566bcc9924","ios":"levelo://app?vid=261e10b0-63e9-4433-9ea8-fa566bcc9924"},"vehicle_type_id":"4","last_reported":1743769138,"current_range_meters":11200,"station_id":"ce4bh312rcd13ifvqdk0","pricing_plan_id":"cebpf4jnsgd1na2vs0mg"},{"bike_id":"c1330435-40b2-43ee-85a0-9fc2642caa1c","system_id":"levelo_inurba_marseille","lat":43.23142,"lon":5.43705,"is_reserved":false,"is_disabled":false,"rental_uris":{"android":"levelo://app?vid=c1330435-40b2-43ee-85a0-9fc2642caa1c","ios":"levelo://app?vid=c1330435-40b2-43ee-85a0-9fc2642caa1c"},"vehicle_type_id":"4","last_reported":1743769138,"current_range_meters":11600,"station_id":"ce4bhmp2rcd13ifvqgog","pricing_plan_id":"cebpf4jnsgd1na2vs0mg"},{"bike_id":"85743f22-71a2-4d23-b812-acdc88a31deb","system_id":"levelo_inurba_marseille","lat":43.29629,"lon":5.40603,"is_reserved":false,"is_disabled":false,"rental_uris":{"android":"levelo://app?vid=85743f22-71a2-4d23-b812-acdc88a31deb","ios":"levelo://app?vid=85743f22-71a2-4d23-b812-acdc88a31deb"},"vehicle_type_id":"4","last_reported":1743769138,"current_range_meters":12000,"station_id":"ce4bh0h2rcd13ifvqd60","pricing_plan_id":"cebpf4jnsgd1na2vs0mg"},{"bike_id":"46e40aa5-72ae-444f-9358-a676d369a477","system_id":"levelo_inurba_marseille","lat":43.33013,"lon":5.43797,"is_reserved":false,"is_disabled":false,"rental_uris":{"android":"levelo://app?vid=46e40aa5-72ae-444f-9358-a676d369a477","ios":"levelo://app?vid=46e40aa5-72ae-444f-9358-a676d369a477"},"vehicle_type_id":"4","last_reported":1743769138,"current_range_meters":12000,"station_id":"","pricing_plan_id":"cebpf4jnsgd1na2vs0mg"},{"bike_id":"b8ac2812-e330-4da1-b1ea-68810e3321c0","system_id":"levelo_inurba_marseille","lat":43.304655,"lon":5.367269,"is_reserved":false,"is_disabled":false,"rental_uris":{"android":"levelo://app?vid=b8ac2812-e330-4da1-b1ea-68810e3321c0","ios":"levelo://app?vid=b8ac2812-e330-4da1-b1ea-68810e3321c0"},"vehicle_type_id":"4","last_reported":1743769138,"current_range_meters":12000,"station_id":"ce4bgrp2rcd13ifvqc9g","pricing_plan_id":"cebpf4jnsgd1na2vs0mg"},{"bike_id":"a5d6aa76-2f75-410c-ab85-3d05a2d82b9e","system_id":"levelo_inurba_marseille","lat":43.27847,"lon":5.39205,"is_reserved":false,"is_disabled":false,"rental_uris":{"android":"levelo://app?vid=a5d6aa76-2f75-410c-ab85-3d05a2d82b9e","ios":"levelo://app?vid=a5d6aa76-2f75-410c-ab85-3d05a2d82b9e"},"vehicle_type_id":"4","last_reported":1743769138,"current_range_meters":11600,"station_id":"ce4bhjp2rcd13ifvqga0","pricing_plan_id":"cebpf4jnsgd1na2vs0mg"},{"bike_id":"7802f9b7-cc91-41c4-8d3c-017e8ca07dd5","system_id":"levelo_inurba_marseille","lat":43.31717,"lon":5.37739,"is_reserved":false,"is_disabled":false,"rental_uris":{"android":"levelo://app?vid=7802f9b7-cc91-41c4-8d3c-017e8ca07dd5","ios":"levelo://app?vid=7802f9b7-cc91-41c4-8d3c-017e8ca07dd5"},"vehicle_type_id":"4","last_reported":1743769138,"current_range_meters":12000,"station_id":"ce4bgth2rcd13ifvqch0","pricing_plan_id":"cebpf4jnsgd1na2vs0mg"},{"bike_id":"05fe68bc-c81f-48e7-8926-1228b629876c","system_id":"levelo_inurba_marseille","lat":43.2987,"lon":5.39745,"is_reserved":false,"is_disabled":false,"rental_uris":{"android":"levelo://app?vid=05fe68bc-c81f-48e7-8926-1228b629876c","ios":"levelo://app?vid=05fe68bc-c81f-48e7-8926-1228b629876c"},"vehicle_type_id":"4","last_reported":1743769138,"current_range_meters":12000,"station_id":"ce4bh0h2rcd13ifvqd50","pricing_plan_id":"cebpf4jnsgd1na2vs0mg"},{"bike_id":"bf5350db-0385-4623-8794-ed0797907d26","system_id":"levelo_inurba_marseille","lat":43.26931,"lon":5.38922,"is_reserved":false,"is_disabled":false,"rental_uris":{"android":"levelo://app?vid=bf5350db-0385-4623-8794-ed0797907d26","ios":"levelo://app?vid=bf5350db-0385-4623-8794-ed0797907d26"},"vehicle_type_id":"4","last_reported":1743769138,"current_range_meters":12000,"station_id":"ce4bhhh2rcd13ifvqfl0","pricing_plan_id":"cebpf4jnsgd1na2vs0mg"},{"bike_id":"2a877350-b835-4223-9491-4ace09844217","system_id":"levelo_inurba_marseille","lat":43.23151,"lon":5.43711,"is_reserved":false,"is_disabled":false,"rental_uris":{"android":"levelo://app?vid=2a877350-b835-4223-9491-4ace09844217","ios":"levelo://app?vid=2a877350-b835-4223-9491-4ace09844217"},"vehicle_type_id":"4","last_reported":1743769138,"current_range_meters":12000,"station_id":"ce4bhmp2rcd13ifvqgog","pricing_plan_id":"cebpf4jnsgd1na2vs0mg"},{"bike_id":"4ac44fc3-43ce-47cc-96c3-aaca8307b5e6","system_id":"levelo_inurba_marseille","lat":43.30599,"lon":5.3936,"is_reserved":false,"is_disabled":false,"rental_uris":{"android":"levelo://app?vid=4ac44fc3-43ce-47cc-96c3-aaca8307b5e6","ios":"levelo://app?vid=4ac44fc3-43ce-47cc-96c3-aaca8307b5e6"},"vehicle_type_id":"4","last_reported":1743769138,"current_range_meters":12000,"station_id":"ce4bh0p2rcd13ifvqd80","pricing_plan_id":"cebpf4jnsgd1na2vs0mg"},{"bike_id":"239bfb17-5972-4345-911a-1dc5f269e828","system_id":"levelo_inurba_marseille","lat":43.326636,"lon":5.409817,"is_reserved":false,"is_disabled":false,"rental_uris":{"android":"levelo://app?vid=239bfb17-5972-4345-911a-1dc5f269e828","ios":"levelo://app?vid=239bfb17-5972-4345-911a-1dc5f269e828"},"vehicle_type_id":"4","last_reported":1743769138,"current_range_meters":12000,"station_id":"ce4bhpp2rcd13ifvqhgg","pricing_plan_id":"cebpf4jnsgd1na2vs0mg"},{"bike_id":"c9ab5bfd-fa91-4b45-8fa2-52813c43fa45","system_id":"levelo_inurba_marseille","lat":43.230639,"lon":5.354983,"is_reserved":false,"is_disabled":false,"rental_uris":{"android":"levelo://app?vid=c9ab5bfd-fa91-4b45-8fa2-52813c43fa45","ios":"levelo://app?vid=c9ab5bfd-fa91-4b45-8fa2-52813c43fa45"},"vehicle_type_id":"4","last_reported":1743769138,"current_range_meters":12400,"station_id":"cpo3342slgdg3j2ifvpg","pricing_plan_id":"cebpf4jnsgd1na2vs0mg"},{"bike_id":"1e7c6d21-67b2-47c4-a00a-ff4ad2984084","system_id":"levelo_inurba_marseille","lat":43.29085,"lon":5.37169,"is_reserved":false,"is_disabled":false,"rental_uris":{"android":"levelo://app?vid=1e7c6d21-67b2-47c4-a00a-ff4ad2984084","ios":"levelo://app?vid=1e7c6d21-67b2-47c4-a00a-ff4ad2984084"},"vehicle_type_id":"4","last_reported":1743769138,"current_range_meters":12000,"station_id":"ce4bh5p2rcd13ifvqe4g","pricing_plan_id":"cebpf4jnsgd1na2vs0mg"},{"bike_id":"8336c2e5-6021-4a8f-8e32-78361134cd8d","system_id":"levelo_inurba_marseille","lat":43.26692,"lon":5.38267,"is_reserved":false,"is_disabled":false,"rental_uris":{"android":"levelo://app?vid=8336c2e5-6021-4a8f-8e32-78361134cd8d","ios":"levelo://app?vid=8336c2e5-6021-4a8f-8e32-78361134cd8d"},"vehicle_type_id":"4","last_reported":1743769138,"current_range_meters":12400,"station_id":"ce4bhg92rcd13ifvqf90","pricing_plan_id":"cebpf4jnsgd1na2vs0mg"},{"bike_id":"fee6c8b8-57fd-4ef1-a793-b3a9a5ae15c1","system_id":"levelo_inurba_marseille","lat":43.27623,"lon":5.36107,"is_reserved":false,"is_disabled":false,"rental_uris":{"android":"levelo://app?vid=fee6c8b8-57fd-4ef1-a793-b3a9a5ae15c1","ios":"levelo://app?vid=fee6c8b8-57fd-4ef1-a793-b3a9a5ae15c1"},"vehicle_type_id":"4","last_reported":1743769138,"current_range_meters":12000,"station_id":"ce4bgj92rcd13ifvqbe0","pricing_plan_id":"cebpf4jnsgd1na2vs0mg"},{"bike_id":"64fdbb2b-e20c-450b-87b0-deaa705d4ef0","system_id":"levelo_inurba_marseille","lat":43.31333,"lon":5.36718,"is_reserved":false,"is_disabled":false,"rental_uris":{"android":"levelo://app?vid=64fdbb2b-e20c-450b-87b0-deaa705d4ef0","ios":"levelo://app?vid=64fdbb2b-e20c-450b-87b0-deaa705d4ef0"},"vehicle_type_id":"4","last_reported":1743769138,"current_range_meters":12400,"station_id":"ce4bgr92rcd13ifvqc6g","pricing_plan_id":"cebpf4jnsgd1na2vs0mg"},{"bike_id":"a5767c78-124d-4df5-9a34-444b742cb735","system_id":"levelo_inurba_marseille","lat":43.24167,"lon":5.39693,"is_reserved":false,"is_disabled":false,"rental_uris":{"android":"levelo://app?vid=a5767c78-124d-4df5-9a34-444b742cb735","ios":"levelo://app?vid=a5767c78-124d-4df5-9a34-444b742cb735"},"vehicle_type_id":"4","last_reported":1743769138,"current_range_meters":12400,"station_id":"ce4bhn12rcd13ifvqgpg","pricing_plan_id":"cebpf4jnsgd1na2vs0mg"},{"bike_id":"f40fc4e8-cfdd-40aa-8507-3bd8857476a8","system_id":"levelo_inurba_marseille","lat":43.30225,"lon":5.40019,"is_reserved":false,"is_disabled":true,"rental_uris":{"android":"levelo://app?vid=f40fc4e8-cfdd-40aa-8507-3bd8857476a8","ios":"levelo://app?vid=f40fc4e8-cfdd-40aa-8507-3bd8857476a8"},"vehicle_type_id":"4","last_reported":1743769138,"current_range_meters":12800,"station_id":"","pricing_plan_id":"cebpf4jnsgd1na2vs0mg"},{"bike_id":"6e3e7f09-5238-43bc-9f1a-291b8565187d","system_id":"levelo_inurba_marseille","lat":43.30467,"lon":5.37905,"is_reserved":false,"is_disabled":true,"rental_uris":{"android":"levelo://app?vid=6e3e7f09-5238-43bc-9f1a-291b8565187d","ios":"levelo://app?vid=6e3e7f09-5238-43bc-9f1a-291b8565187d"},"vehicle_type_id":"4","last_reported":1743769138,"current_range_meters":12800,"station_id":"ce4bgup2rcd13ifvqcn0","pricing_plan_id":"cebpf4jnsgd1na2vs0mg"},{"bike_id":"7a0b7cfe-63cd-4fa0-8706-ebbd07aea1a5","system_id":"levelo_inurba_marseille","lat":43.30626,"lon":5.37189,"is_reserved":false,"is_disabled":false,"rental_uris":{"android":"levelo://app?vid=7a0b7cfe-63cd-4fa0-8706-ebbd07aea1a5","ios":"levelo://app?vid=7a0b7cfe-63cd-4fa0-8706-ebbd07aea1a5"},"vehicle_type_id":"4","last_reported":1743769138,"current_range_meters":12800,"station_id":"ce4bgqh2rcd13ifvqc4g","pricing_plan_id":"cebpf4jnsgd1na2vs0mg"},{"bike_id":"4ae9c529-11bf-4fe4-a149-5fe2388cb5ca","system_id":"levelo_inurba_marseille","lat":43.29036,"lon":5.37568,"is_reserved":false,"is_disabled":false,"rental_uris":{"android":"levelo://app?vid=4ae9c529-11bf-4fe4-a149-5fe2388cb5ca","ios":"levelo://app?vid=4ae9c529-11bf-4fe4-a149-5fe2388cb5ca"},"vehicle_type_id":"4","last_reported":1743769138,"current_range_meters":12800,"station_id":"ce4bh692rcd13ifvqe90","pricing_plan_id":"cebpf4jnsgd1na2vs0mg"},{"bike_id":"cbda4c93-9a2b-4896-8158-0a140326e07c","system_id":"levelo_inurba_marseille","lat":43.287,"lon":5.37392,"is_reserved":false,"is_disabled":false,"rental_uris":{"android":"levelo://app?vid=cbda4c93-9a2b-4896-8158-0a140326e07c","ios":"levelo://app?vid=cbda4c93-9a2b-4896-8158-0a140326e07c"},"vehicle_type_id":"4","last_reported":1743769138,"current_range_meters":12400,"station_id":"ce4bh3p2rcd13ifvqdq0","pricing_plan_id":"cebpf4jnsgd1na2vs0mg"},{"bike_id":"7299bf19-e70a-4b6f-9a80-d02606a41d53","system_id":"levelo_inurba_marseille","lat":43.30904,"lon":5.36838,"is_reserved":false,"is_disabled":false,"rental_uris":{"android":"levelo://app?vid=7299bf19-e70a-4b6f-9a80-d02606a41d53","ios":"levelo://app?vid=7299bf19-e70a-4b6f-9a80-d02606a41d53"},"vehicle_type_id":"4","last_reported":1743769138,"current_range_meters":12400,"station_id":"ce4bgn92rcd13ifvqbvg","pricing_plan_id":"cebpf4jnsgd1na2vs0mg"},{"bike_id":"538954b0-bc54-45c5-9cef-16a29fd18cc8","system_id":"levelo_inurba_marseille","lat":43.25916,"lon":5.40884,"is_reserved":false,"is_disabled":false,"rental_uris":{"android":"levelo://app?vid=538954b0-bc54-45c5-9cef-16a29fd18cc8","ios":"levelo://app?vid=538954b0-bc54-45c5-9cef-16a29fd18cc8"},"vehicle_type_id":"4","last_reported":1743769138,"current_range_meters":12800,"station_id":"ce4bhm92rcd13ifvqglg","pricing_plan_id":"cebpf4jnsgd1na2vs0mg"},{"bike_id":"1a804f64-f95a-400b-983a-8f77c05ea42b","system_id":"levelo_inurba_marseille","lat":43.29565,"lon":5.39979,"is_reserved":false,"is_disabled":false,"rental_uris":{"android":"levelo://app?vid=1a804f64-f95a-400b-983a-8f77c05ea42b","ios":"levelo://app?vid=1a804f64-f95a-400b-983a-8f77c05ea42b"},"vehicle_type_id":"4","last_reported":1743769138,"current_range_meters":12400,"station_id":"ce4bh312rcd13ifvqdj0","pricing_plan_id":"cebpf4jnsgd1na2vs0mg"},{"bike_id":"ed67e25a-c027-4411-8dd5-f9952c8a8c90","system_id":"levelo_inurba_marseille","lat":43.30352,"lon":5.41873,"is_reserved":false,"is_disabled":false,"rental_uris":{"android":"levelo://app?vid=ed67e25a-c027-4411-8dd5-f9952c8a8c90","ios":"levelo://app?vid=ed67e25a-c027-4411-8dd5-f9952c8a8c90"},"vehicle_type_id":"4","last_reported":1743769138,"current_range_meters":12800,"station_id":"ce4bhop2rcd13ifvqh7g","pricing_plan_id":"cebpf4jnsgd1na2vs0mg"},{"bike_id":"6eeec5b1-336e-423b-b76e-b7289d96425d","system_id":"levelo_inurba_marseille","lat":43.28423,"lon":5.34978,"is_reserved":false,"is_disabled":false,"rental_uris":{"android":"levelo://app?vid=6eeec5b1-336e-423b-b76e-b7289d96425d","ios":"levelo://app?vid=6eeec5b1-336e-423b-b76e-b7289d96425d"},"vehicle_type_id":"4","last_reported":1743769138,"current_range_meters":12800,"station_id":"ce4bhbh2rcd13ifvqepg","pricing_plan_id":"cebpf4jnsgd1na2vs0mg"},{"bike_id":"0fe56348-1ceb-4489-bb37-9e6a56b6a7dc","system_id":"levelo_inurba_marseille","lat":43.2319,"lon":5.35554,"is_reserved":false,"is_disabled":false,"rental_uris":{"android":"levelo://app?vid=0fe56348-1ceb-4489-bb37-9e6a56b6a7dc","ios":"levelo://app?vid=0fe56348-1ceb-4489-bb37-9e6a56b6a7dc"},"vehicle_type_id":"4","last_reported":1743769138,"current_range_meters":12800,"station_id":"ce4bhu92rcd13ifvqi70","pricing_plan_id":"cebpf4jnsgd1na2vs0mg"},{"bike_id":"14581319-b1b6-492b-ad60-f4bbc35fd608","system_id":"levelo_inurba_marseille","lat":43.29623,"lon":5.37172,"is_reserved":false,"is_disabled":false,"rental_uris":{"android":"levelo://app?vid=14581319-b1b6-492b-ad60-f4bbc35fd608","ios":"levelo://app?vid=14581319-b1b6-492b-ad60-f4bbc35fd608"},"vehicle_type_id":"4","last_reported":1743769138,"current_range_meters":12800,"station_id":"ce4bgnh2rcd13ifvqc0g","pricing_plan_id":"cebpf4jnsgd1na2vs0mg"},{"bike_id":"c959dc82-cdf6-487f-a7ee-0cb98b2f8bdb","system_id":"levelo_inurba_marseille","lat":43.27607,"lon":5.36122,"is_reserved":false,"is_disabled":false,"rental_uris":{"android":"levelo://app?vid=c959dc82-cdf6-487f-a7ee-0cb98b2f8bdb","ios":"levelo://app?vid=c959dc82-cdf6-487f-a7ee-0cb98b2f8bdb"},"vehicle_type_id":"4","last_reported":1743769138,"current_range_meters":13600,"station_id":"ce4bgj92rcd13ifvqbe0","pricing_plan_id":"cebpf4jnsgd1na2vs0mg"},{"bike_id":"ccbaad60-ee1e-4837-a1f8-1af8e79dfa40","system_id":"levelo_inurba_marseille","lat":43.30589,"lon":5.39342,"is_reserved":false,"is_disabled":true,"rental_uris":{"android":"levelo://app?vid=ccbaad60-ee1e-4837-a1f8-1af8e79dfa40","ios":"levelo://app?vid=ccbaad60-ee1e-4837-a1f8-1af8e79dfa40"},"vehicle_type_id":"4","last_reported":1743769138,"current_range_meters":13600,"station_id":"ce4bh0p2rcd13ifvqd80","pricing_plan_id":"cebpf4jnsgd1na2vs0mg"},{"bike_id":"b5d13ccc-05a9-46a9-a5a0-19eda4612250","system_id":"levelo_inurba_marseille","lat":43.3064,"lon":5.4009,"is_reserved":false,"is_disabled":false,"rental_uris":{"android":"levelo://app?vid=b5d13ccc-05a9-46a9-a5a0-19eda4612250","ios":"levelo://app?vid=b5d13ccc-05a9-46a9-a5a0-19eda4612250"},"vehicle_type_id":"4","last_reported":1743769138,"current_range_meters":13600,"station_id":"ce4bh112rcd13ifvqda0","pricing_plan_id":"cebpf4jnsgd1na2vs0mg"},{"bike_id":"05d00f93-8e3a-4dda-843a-8c55f4e7abcc","system_id":"levelo_inurba_marseille","lat":43.31374,"lon":5.36678,"is_reserved":false,"is_disabled":false,"rental_uris":{"android":"levelo://app?vid=05d00f93-8e3a-4dda-843a-8c55f4e7abcc","ios":"levelo://app?vid=05d00f93-8e3a-4dda-843a-8c55f4e7abcc"},"vehicle_type_id":"4","last_reported":1743769138,"current_range_meters":13600,"station_id":"ce4bgr92rcd13ifvqc6g","pricing_plan_id":"cebpf4jnsgd1na2vs0mg"},{"bike_id":"c2055a2a-1cff-4f19-a52d-9b52baeaa63f","system_id":"levelo_inurba_marseille","lat":43.32025,"lon":5.38128,"is_reserved":false,"is_disabled":true,"rental_uris":{"android":"levelo://app?vid=c2055a2a-1cff-4f19-a52d-9b52baeaa63f","ios":"levelo://app?vid=c2055a2a-1cff-4f19-a52d-9b52baeaa63f"},"vehicle_type_id":"4","last_reported":1743769138,"current_range_meters":13600,"station_id":"ce4bhr12rcd13ifvqhpg","pricing_plan_id":"cebpf4jnsgd1na2vs0mg"},{"bike_id":"3b4ad8c6-6244-4378-90d7-dac703d1508d","system_id":"levelo_inurba_marseille","lat":43.23218,"lon":5.35528,"is_reserved":false,"is_disabled":false,"rental_uris":{"android":"levelo://app?vid=3b4ad8c6-6244-4378-90d7-dac703d1508d","ios":"levelo://app?vid=3b4ad8c6-6244-4378-90d7-dac703d1508d"},"vehicle_type_id":"4","last_reported":1743769138,"current_range_meters":14000,"station_id":"ce4bhu92rcd13ifvqi70","pricing_plan_id":"cebpf4jnsgd1na2vs0mg"},{"bike_id":"a6303451-5b45-435c-bf0e-748f94cc010d","system_id":"levelo_inurba_marseille","lat":43.231991,"lon":5.355478,"is_reserved":false,"is_disabled":false,"rental_uris":{"android":"levelo://app?vid=a6303451-5b45-435c-bf0e-748f94cc010d","ios":"levelo://app?vid=a6303451-5b45-435c-bf0e-748f94cc010d"},"vehicle_type_id":"4","last_reported":1743769138,"current_range_meters":14000,"station_id":"ce4bhu92rcd13ifvqi70","pricing_plan_id":"cebpf4jnsgd1na2vs0mg"},{"bike_id":"d004acd1-8861-4952-886b-31b3d8408951","system_id":"levelo_inurba_marseille","lat":43.28858,"lon":5.35858,"is_reserved":false,"is_disabled":false,"rental_uris":{"android":"levelo://app?vid=d004acd1-8861-4952-886b-31b3d8408951","ios":"levelo://app?vid=d004acd1-8861-4952-886b-31b3d8408951"},"vehicle_type_id":"4","last_reported":1743769138,"current_range_meters":14000,"station_id":"ce4bhb12rcd13ifvqem0","pricing_plan_id":"cebpf4jnsgd1na2vs0mg"},{"bike_id":"0eb30f16-826e-404e-9494-cbd59d704ab7","system_id":"levelo_inurba_marseille","lat":43.29022,"lon":5.38631,"is_reserved":false,"is_disabled":true,"rental_uris":{"android":"levelo://app?vid=0eb30f16-826e-404e-9494-cbd59d704ab7","ios":"levelo://app?vid=0eb30f16-826e-404e-9494-cbd59d704ab7"},"vehicle_type_id":"4","last_reported":1743769138,"current_range_meters":14000,"station_id":"ce4bh4p2rcd13ifvqe0g","pricing_plan_id":"cebpf4jnsgd1na2vs0mg"},{"bike_id":"978f00e3-47d2-481d-80c8-31e1e7283ad6","system_id":"levelo_inurba_marseille","lat":43.22917,"lon":5.35393,"is_reserved":false,"is_disabled":false,"rental_uris":{"android":"levelo://app?vid=978f00e3-47d2-481d-80c8-31e1e7283ad6","ios":"levelo://app?vid=978f00e3-47d2-481d-80c8-31e1e7283ad6"},"vehicle_type_id":"4","last_reported":1743769138,"current_range_meters":14000,"station_id":"cpo3532slgdg3j2ikp40","pricing_plan_id":"cebpf4jnsgd1na2vs0mg"},{"bike_id":"5d6da34f-63f3-4920-a0d9-861809c9b552","system_id":"levelo_inurba_marseille","lat":43.29075,"lon":5.37162,"is_reserved":false,"is_disabled":false,"rental_uris":{"android":"levelo://app?vid=5d6da34f-63f3-4920-a0d9-861809c9b552","ios":"levelo://app?vid=5d6da34f-63f3-4920-a0d9-861809c9b552"},"vehicle_type_id":"4","last_reported":1743769138,"current_range_meters":14000,"station_id":"ce4bh5p2rcd13ifvqe4g","pricing_plan_id":"cebpf4jnsgd1na2vs0mg"},{"bike_id":"7f97a4d7-cb1b-4f37-a0db-74f28ae2c2c0","system_id":"levelo_inurba_marseille","lat":43.26192,"lon":5.37447,"is_reserved":false,"is_disabled":false,"rental_uris":{"android":"levelo://app?vid=7f97a4d7-cb1b-4f37-a0db-74f28ae2c2c0","ios":"levelo://app?vid=7f97a4d7-cb1b-4f37-a0db-74f28ae2c2c0"},"vehicle_type_id":"4","last_reported":1743769138,"current_range_meters":14400,"station_id":"ce4bhgp2rcd13ifvqfc0","pricing_plan_id":"cebpf4jnsgd1na2vs0mg"},{"bike_id":"6a2ca7b8-2766-422a-9883-82cbdc9cb4a2","system_id":"levelo_inurba_marseille","lat":43.29521,"lon":5.39042,"is_reserved":false,"is_disabled":false,"rental_uris":{"android":"levelo://app?vid=6a2ca7b8-2766-422a-9883-82cbdc9cb4a2","ios":"levelo://app?vid=6a2ca7b8-2766-422a-9883-82cbdc9cb4a2"},"vehicle_type_id":"4","last_reported":1743769138,"current_range_meters":14400,"station_id":"ce4bh3p2rcd13ifvqdp0","pricing_plan_id":"cebpf4jnsgd1na2vs0mg"},{"bike_id":"27ebc7eb-5de4-43f0-933c-44535f627bc9","system_id":"levelo_inurba_marseille","lat":43.25386,"lon":5.41858,"is_reserved":false,"is_disabled":false,"rental_uris":{"android":"levelo://app?vid=27ebc7eb-5de4-43f0-933c-44535f627bc9","ios":"levelo://app?vid=27ebc7eb-5de4-43f0-933c-44535f627bc9"},"vehicle_type_id":"4","last_reported":1743769138,"current_range_meters":14400,"station_id":"","pricing_plan_id":"cebpf4jnsgd1na2vs0mg"},{"bike_id":"e40c4015-2502-470e-8a7f-241c2ad87e4b","system_id":"levelo_inurba_marseille","lat":43.29269,"lon":5.37637,"is_reserved":false,"is_disabled":false,"rental_uris":{"android":"levelo://app?vid=e40c4015-2502-470e-8a7f-241c2ad87e4b","ios":"levelo://app?vid=e40c4015-2502-470e-8a7f-241c2ad87e4b"},"vehicle_type_id":"4","last_reported":1743769138,"current_range_meters":14400,"station_id":"ce4bgi12rcd13ifvqb80","pricing_plan_id":"cebpf4jnsgd1na2vs0mg"},{"bike_id":"c9ae592f-2915-433d-a366-64d8fba503cd","system_id":"levelo_inurba_marseille","lat":43.27494,"lon":5.42466,"is_reserved":false,"is_disabled":false,"rental_uris":{"android":"levelo://app?vid=c9ae592f-2915-433d-a366-64d8fba503cd","ios":"levelo://app?vid=c9ae592f-2915-433d-a366-64d8fba503cd"},"vehicle_type_id":"4","last_reported":1743769138,"current_range_meters":14400,"station_id":"ce4bhn92rcd13ifvqgrg","pricing_plan_id":"cebpf4jnsgd1na2vs0mg"},{"bike_id":"cccce150-77a7-4565-8ca1-36858ce9e6b0","system_id":"levelo_inurba_marseille","lat":43.32108,"lon":5.36781,"is_reserved":false,"is_disabled":false,"rental_uris":{"android":"levelo://app?vid=cccce150-77a7-4565-8ca1-36858ce9e6b0","ios":"levelo://app?vid=cccce150-77a7-4565-8ca1-36858ce9e6b0"},"vehicle_type_id":"4","last_reported":1743769138,"current_range_meters":14400,"station_id":"ce4bhrh2rcd13ifvqhug","pricing_plan_id":"cebpf4jnsgd1na2vs0mg"},{"bike_id":"1d5ef6d0-a413-45b3-8100-7222d11689f2","system_id":"levelo_inurba_marseille","lat":43.28914,"lon":5.38381,"is_reserved":false,"is_disabled":true,"rental_uris":{"android":"levelo://app?vid=1d5ef6d0-a413-45b3-8100-7222d11689f2","ios":"levelo://app?vid=1d5ef6d0-a413-45b3-8100-7222d11689f2"},"vehicle_type_id":"4","last_reported":1743769138,"current_range_meters":14400,"station_id":"ce4bh612rcd13ifvqe6g","pricing_plan_id":"cebpf4jnsgd1na2vs0mg"},{"bike_id":"4dc77fd8-99a2-4c15-ab5f-7c1bd0d9b655","system_id":"levelo_inurba_marseille","lat":43.239638,"lon":5.366331,"is_reserved":false,"is_disabled":false,"rental_uris":{"android":"levelo://app?vid=4dc77fd8-99a2-4c15-ab5f-7c1bd0d9b655","ios":"levelo://app?vid=4dc77fd8-99a2-4c15-ab5f-7c1bd0d9b655"},"vehicle_type_id":"4","last_reported":1743769138,"current_range_meters":14800,"station_id":"ce4bhi12rcd13ifvqfp0","pricing_plan_id":"cebpf4jnsgd1na2vs0mg"},{"bike_id":"4b94a3ee-f39c-4d24-bb84-b48a7f39d2dd","system_id":"levelo_inurba_marseille","lat":43.28945,"lon":5.39631,"is_reserved":false,"is_disabled":false,"rental_uris":{"android":"levelo://app?vid=4b94a3ee-f39c-4d24-bb84-b48a7f39d2dd","ios":"levelo://app?vid=4b94a3ee-f39c-4d24-bb84-b48a7f39d2dd"},"vehicle_type_id":"4","last_reported":1743769138,"current_range_meters":14400,"station_id":"ce4bh3h2rcd13ifvqdn0","pricing_plan_id":"cebpf4jnsgd1na2vs0mg"},{"bike_id":"48ec1fe3-fdf4-49a5-977a-526829b4e2e3","system_id":"levelo_inurba_marseille","lat":43.23064,"lon":5.3548,"is_reserved":false,"is_disabled":false,"rental_uris":{"android":"levelo://app?vid=48ec1fe3-fdf4-49a5-977a-526829b4e2e3","ios":"levelo://app?vid=48ec1fe3-fdf4-49a5-977a-526829b4e2e3"},"vehicle_type_id":"4","last_reported":1743769138,"current_range_meters":14800,"station_id":"cpo3342slgdg3j2ifvpg","pricing_plan_id":"cebpf4jnsgd1na2vs0mg"},{"bike_id":"188e01b9-65db-4a5b-b580-c3a2d1a3e000","system_id":"levelo_inurba_marseille","lat":43.28734,"lon":5.37114,"is_reserved":false,"is_disabled":false,"rental_uris":{"android":"levelo://app?vid=188e01b9-65db-4a5b-b580-c3a2d1a3e000","ios":"levelo://app?vid=188e01b9-65db-4a5b-b580-c3a2d1a3e000"},"vehicle_type_id":"4","last_reported":1743769138,"current_range_meters":14800,"station_id":"","pricing_plan_id":"cebpf4jnsgd1na2vs0mg"},{"bike_id":"8f7a9226-78b2-4dc0-bf35-06cae9e20839","system_id":"levelo_inurba_marseille","lat":43.29605,"lon":5.38101,"is_reserved":false,"is_disabled":false,"rental_uris":{"android":"levelo://app?vid=8f7a9226-78b2-4dc0-bf35-06cae9e20839","ios":"levelo://app?vid=8f7a9226-78b2-4dc0-bf35-06cae9e20839"},"vehicle_type_id":"4","last_reported":1743769138,"current_range_meters":14800,"station_id":"ce4bgl12rcd13ifvqbo0","pricing_plan_id":"cebpf4jnsgd1na2vs0mg"},{"bike_id":"8438d33e-ed0b-49df-8805-1fc5a116b182","system_id":"levelo_inurba_marseille","lat":43.30159,"lon":5.3809,"is_reserved":false,"is_disabled":false,"rental_uris":{"android":"levelo://app?vid=8438d33e-ed0b-49df-8805-1fc5a116b182","ios":"levelo://app?vid=8438d33e-ed0b-49df-8805-1fc5a116b182"},"vehicle_type_id":"4","last_reported":1743769138,"current_range_meters":14800,"station_id":"ce4bgjp2rcd13ifvqbh0","pricing_plan_id":"cebpf4jnsgd1na2vs0mg"},{"bike_id":"eb79d1f9-7c91-4ea2-b5f8-796189743e1a","system_id":"levelo_inurba_marseille","lat":43.337275,"lon":5.391784,"is_reserved":false,"is_disabled":false,"rental_uris":{"android":"levelo://app?vid=eb79d1f9-7c91-4ea2-b5f8-796189743e1a","ios":"levelo://app?vid=eb79d1f9-7c91-4ea2-b5f8-796189743e1a"},"vehicle_type_id":"4","last_reported":1743769138,"current_range_meters":15200,"station_id":"ce4bhr92rcd13ifvqhsg","pricing_plan_id":"cebpf4jnsgd1na2vs0mg"},{"bike_id":"a07480da-f5a9-4597-b3e6-cc405effeae7","system_id":"levelo_inurba_marseille","lat":43.28939,"lon":5.39642,"is_reserved":false,"is_disabled":true,"rental_uris":{"android":"levelo://app?vid=a07480da-f5a9-4597-b3e6-cc405effeae7","ios":"levelo://app?vid=a07480da-f5a9-4597-b3e6-cc405effeae7"},"vehicle_type_id":"4","last_reported":1743769138,"current_range_meters":15200,"station_id":"ce4bh3h2rcd13ifvqdn0","pricing_plan_id":"cebpf4jnsgd1na2vs0mg"},{"bike_id":"ab062ce8-39f4-48d1-b673-67b8cac62008","system_id":"levelo_inurba_marseille","lat":43.26498,"lon":5.3955,"is_reserved":false,"is_disabled":false,"rental_uris":{"android":"levelo://app?vid=ab062ce8-39f4-48d1-b673-67b8cac62008","ios":"levelo://app?vid=ab062ce8-39f4-48d1-b673-67b8cac62008"},"vehicle_type_id":"4","last_reported":1743769138,"current_range_meters":15200,"station_id":"ce4bhi12rcd13ifvqfq0","pricing_plan_id":"cebpf4jnsgd1na2vs0mg"},{"bike_id":"5a922177-a736-4ebe-b97a-573a31c51e09","system_id":"levelo_inurba_marseille","lat":43.31281,"lon":5.40172,"is_reserved":false,"is_disabled":true,"rental_uris":{"android":"levelo://app?vid=5a922177-a736-4ebe-b97a-573a31c51e09","ios":"levelo://app?vid=5a922177-a736-4ebe-b97a-573a31c51e09"},"vehicle_type_id":"4","last_reported":1743769138,"current_range_meters":15200,"station_id":"ce4bh092rcd13ifvqd30","pricing_plan_id":"cebpf4jnsgd1na2vs0mg"},{"bike_id":"d376d9ab-1f83-4263-ba9f-c3f9b3e69949","system_id":"levelo_inurba_marseille","lat":43.341398,"lon":5.40923,"is_reserved":false,"is_disabled":false,"rental_uris":{"android":"levelo://app?vid=d376d9ab-1f83-4263-ba9f-c3f9b3e69949","ios":"levelo://app?vid=d376d9ab-1f83-4263-ba9f-c3f9b3e69949"},"vehicle_type_id":"4","last_reported":1743769138,"current_range_meters":15200,"station_id":"ce4bhqh2rcd13ifvqhlg","pricing_plan_id":"cebpf4jnsgd1na2vs0mg"},{"bike_id":"6d9715e6-045f-417b-844a-144b6e5c1132","system_id":"levelo_inurba_marseille","lat":43.29209,"lon":5.35713,"is_reserved":false,"is_disabled":false,"rental_uris":{"android":"levelo://app?vid=6d9715e6-045f-417b-844a-144b6e5c1132","ios":"levelo://app?vid=6d9715e6-045f-417b-844a-144b6e5c1132"},"vehicle_type_id":"4","last_reported":1743769138,"current_range_meters":15200,"station_id":"","pricing_plan_id":"cebpf4jnsgd1na2vs0mg"},{"bike_id":"e8295bc1-c10a-4d29-b710-6a1c7fd0dc11","system_id":"levelo_inurba_marseille","lat":43.2748,"lon":5.42462,"is_reserved":false,"is_disabled":false,"rental_uris":{"android":"levelo://app?vid=e8295bc1-c10a-4d29-b710-6a1c7fd0dc11","ios":"levelo://app?vid=e8295bc1-c10a-4d29-b710-6a1c7fd0dc11"},"vehicle_type_id":"4","last_reported":1743769138,"current_range_meters":16000,"station_id":"ce4bhn92rcd13ifvqgrg","pricing_plan_id":"cebpf4jnsgd1na2vs0mg"},{"bike_id":"19b80c7f-db25-40c8-945f-67fe43b6cc5f","system_id":"levelo_inurba_marseille","lat":43.30481,"lon":5.3649,"is_reserved":false,"is_disabled":false,"rental_uris":{"android":"levelo://app?vid=19b80c7f-db25-40c8-945f-67fe43b6cc5f","ios":"levelo://app?vid=19b80c7f-db25-40c8-945f-67fe43b6cc5f"},"vehicle_type_id":"4","last_reported":1743769138,"current_range_meters":16000,"station_id":"ce4bgs12rcd13ifvqcag","pricing_plan_id":"cebpf4jnsgd1na2vs0mg"},{"bike_id":"451a6ebb-f40d-4015-a2e1-b660af5338fd","system_id":"levelo_inurba_marseille","lat":43.30164,"lon":5.38092,"is_reserved":false,"is_disabled":false,"rental_uris":{"android":"levelo://app?vid=451a6ebb-f40d-4015-a2e1-b660af5338fd","ios":"levelo://app?vid=451a6ebb-f40d-4015-a2e1-b660af5338fd"},"vehicle_type_id":"4","last_reported":1743769138,"current_range_meters":16000,"station_id":"ce4bgjp2rcd13ifvqbh0","pricing_plan_id":"cebpf4jnsgd1na2vs0mg"},{"bike_id":"bc4a9a38-5b03-43aa-84bf-ee6d4f2d3d26","system_id":"levelo_inurba_marseille","lat":43.22931,"lon":5.35377,"is_reserved":false,"is_disabled":false,"rental_uris":{"android":"levelo://app?vid=bc4a9a38-5b03-43aa-84bf-ee6d4f2d3d26","ios":"levelo://app?vid=bc4a9a38-5b03-43aa-84bf-ee6d4f2d3d26"},"vehicle_type_id":"4","last_reported":1743769138,"current_range_meters":16000,"station_id":"cpo3532slgdg3j2ikp40","pricing_plan_id":"cebpf4jnsgd1na2vs0mg"},{"bike_id":"cf406d63-9b19-44cb-8973-779d6a6c0651","system_id":"levelo_inurba_marseille","lat":43.30148,"lon":5.37414,"is_reserved":false,"is_disabled":false,"rental_uris":{"android":"levelo://app?vid=cf406d63-9b19-44cb-8973-779d6a6c0651","ios":"levelo://app?vid=cf406d63-9b19-44cb-8973-779d6a6c0651"},"vehicle_type_id":"4","last_reported":1743769138,"current_range_meters":16000,"station_id":"ce4bgs92rcd13ifvqcc0","pricing_plan_id":"cebpf4jnsgd1na2vs0mg"},{"bike_id":"a7fc3855-9e34-4559-8a9f-b4d7b25206f5","system_id":"levelo_inurba_marseille","lat":43.31247,"lon":5.3685,"is_reserved":false,"is_disabled":false,"rental_uris":{"android":"levelo://app?vid=a7fc3855-9e34-4559-8a9f-b4d7b25206f5","ios":"levelo://app?vid=a7fc3855-9e34-4559-8a9f-b4d7b25206f5"},"vehicle_type_id":"4","last_reported":1743769138,"current_range_meters":16400,"station_id":"ce4bgl92rcd13ifvqbq0","pricing_plan_id":"cebpf4jnsgd1na2vs0mg"},{"bike_id":"eaf859a6-ff3d-4281-be3e-7de787fa533a","system_id":"levelo_inurba_marseille","lat":43.30307,"lon":5.39202,"is_reserved":false,"is_disabled":true,"rental_uris":{"android":"levelo://app?vid=eaf859a6-ff3d-4281-be3e-7de787fa533a","ios":"levelo://app?vid=eaf859a6-ff3d-4281-be3e-7de787fa533a"},"vehicle_type_id":"4","last_reported":1743769138,"current_range_meters":16400,"station_id":"ce4bgkh2rcd13ifvqbk0","pricing_plan_id":"cebpf4jnsgd1na2vs0mg"},{"bike_id":"79a0c869-7adf-4684-b0ce-ba636cf778b7","system_id":"levelo_inurba_marseille","lat":43.30542,"lon":5.36552,"is_reserved":false,"is_disabled":false,"rental_uris":{"android":"levelo://app?vid=79a0c869-7adf-4684-b0ce-ba636cf778b7","ios":"levelo://app?vid=79a0c869-7adf-4684-b0ce-ba636cf778b7"},"vehicle_type_id":"4","last_reported":1743769138,"current_range_meters":16400,"station_id":"ce4bgs12rcd13ifvqcag","pricing_plan_id":"cebpf4jnsgd1na2vs0mg"},{"bike_id":"d72ae546-019d-42c4-ab8a-aa9b8ed4f063","system_id":"levelo_inurba_marseille","lat":43.30454,"lon":5.37897,"is_reserved":false,"is_disabled":false,"rental_uris":{"android":"levelo://app?vid=d72ae546-019d-42c4-ab8a-aa9b8ed4f063","ios":"levelo://app?vid=d72ae546-019d-42c4-ab8a-aa9b8ed4f063"},"vehicle_type_id":"4","last_reported":1743769138,"current_range_meters":16400,"station_id":"ce4bgup2rcd13ifvqcn0","pricing_plan_id":"cebpf4jnsgd1na2vs0mg"},{"bike_id":"49ee9a1e-490a-40c1-b4e9-6f6180de0b7a","system_id":"levelo_inurba_marseille","lat":43.27496,"lon":5.42453,"is_reserved":false,"is_disabled":false,"rental_uris":{"android":"levelo://app?vid=49ee9a1e-490a-40c1-b4e9-6f6180de0b7a","ios":"levelo://app?vid=49ee9a1e-490a-40c1-b4e9-6f6180de0b7a"},"vehicle_type_id":"4","last_reported":1743769138,"current_range_meters":16400,"station_id":"ce4bhn92rcd13ifvqgrg","pricing_plan_id":"cebpf4jnsgd1na2vs0mg"},{"bike_id":"fa3e5d89-fa1e-4836-97d3-3e5628c401c7","system_id":"levelo_inurba_marseille","lat":43.28613,"lon":5.37053,"is_reserved":false,"is_disabled":false,"rental_uris":{"android":"levelo://app?vid=fa3e5d89-fa1e-4836-97d3-3e5628c401c7","ios":"levelo://app?vid=fa3e5d89-fa1e-4836-97d3-3e5628c401c7"},"vehicle_type_id":"4","last_reported":1743769138,"current_range_meters":16400,"station_id":"ce4bht12rcd13ifvqi60","pricing_plan_id":"cebpf4jnsgd1na2vs0mg"},{"bike_id":"4bb781be-4ae7-4eec-9d1d-35ca77aff507","system_id":"levelo_inurba_marseille","lat":43.29785,"lon":5.38103,"is_reserved":false,"is_disabled":false,"rental_uris":{"android":"levelo://app?vid=4bb781be-4ae7-4eec-9d1d-35ca77aff507","ios":"levelo://app?vid=4bb781be-4ae7-4eec-9d1d-35ca77aff507"},"vehicle_type_id":"4","last_reported":1743769138,"current_range_meters":16400,"station_id":"ce4bgip2rcd13ifvqbb0","pricing_plan_id":"cebpf4jnsgd1na2vs0mg"},{"bike_id":"30b57730-cb66-4122-bd93-7dabcaba84e7","system_id":"levelo_inurba_marseille","lat":43.24912,"lon":5.40666,"is_reserved":false,"is_disabled":false,"rental_uris":{"android":"levelo://app?vid=30b57730-cb66-4122-bd93-7dabcaba84e7","ios":"levelo://app?vid=30b57730-cb66-4122-bd93-7dabcaba84e7"},"vehicle_type_id":"4","last_reported":1743769138,"current_range_meters":16400,"station_id":"","pricing_plan_id":"cebpf4jnsgd1na2vs0mg"},{"bike_id":"1c6a9a4d-5ef6-476b-b921-e44abfffd79e","system_id":"levelo_inurba_marseille","lat":43.2593,"lon":5.40908,"is_reserved":false,"is_disabled":false,"rental_uris":{"android":"levelo://app?vid=1c6a9a4d-5ef6-476b-b921-e44abfffd79e","ios":"levelo://app?vid=1c6a9a4d-5ef6-476b-b921-e44abfffd79e"},"vehicle_type_id":"4","last_reported":1743769138,"current_range_meters":16800,"station_id":"ce4bhm92rcd13ifvqglg","pricing_plan_id":"cebpf4jnsgd1na2vs0mg"},{"bike_id":"873934dc-376b-4de8-9351-e83fa6178468","system_id":"levelo_inurba_marseille","lat":43.24162,"lon":5.36384,"is_reserved":false,"is_disabled":false,"rental_uris":{"android":"levelo://app?vid=873934dc-376b-4de8-9351-e83fa6178468","ios":"levelo://app?vid=873934dc-376b-4de8-9351-e83fa6178468"},"vehicle_type_id":"4","last_reported":1743769138,"current_range_meters":16800,"station_id":"cpo36qri1sfpv3e86is0","pricing_plan_id":"cebpf4jnsgd1na2vs0mg"},{"bike_id":"875f7220-eb0a-4e21-b284-cbcd5cffd6c6","system_id":"levelo_inurba_marseille","lat":43.3211,"lon":5.36767,"is_reserved":false,"is_disabled":false,"rental_uris":{"android":"levelo://app?vid=875f7220-eb0a-4e21-b284-cbcd5cffd6c6","ios":"levelo://app?vid=875f7220-eb0a-4e21-b284-cbcd5cffd6c6"},"vehicle_type_id":"4","last_reported":1743769138,"current_range_meters":16800,"station_id":"ce4bhrh2rcd13ifvqhug","pricing_plan_id":"cebpf4jnsgd1na2vs0mg"},{"bike_id":"07691b30-a8d6-48df-83af-def33f4d68e2","system_id":"levelo_inurba_marseille","lat":43.29677,"lon":5.36159,"is_reserved":false,"is_disabled":true,"rental_uris":{"android":"levelo://app?vid=07691b30-a8d6-48df-83af-def33f4d68e2","ios":"levelo://app?vid=07691b30-a8d6-48df-83af-def33f4d68e2"},"vehicle_type_id":"4","last_reported":1743769138,"current_range_meters":16800,"station_id":"","pricing_plan_id":"cebpf4jnsgd1na2vs0mg"},{"bike_id":"3c912a4e-334b-42c1-927d-2548f22f2e84","system_id":"levelo_inurba_marseille","lat":43.24069,"lon":5.37766,"is_reserved":false,"is_disabled":false,"rental_uris":{"android":"levelo://app?vid=3c912a4e-334b-42c1-927d-2548f22f2e84","ios":"levelo://app?vid=3c912a4e-334b-42c1-927d-2548f22f2e84"},"vehicle_type_id":"4","last_reported":1743769138,"current_range_meters":16800,"station_id":"ce4bhnp2rcd13ifvqgvg","pricing_plan_id":"cebpf4jnsgd1na2vs0mg"},{"bike_id":"39738b12-c420-447b-9d52-eaa849eb5830","system_id":"levelo_inurba_marseille","lat":43.30101,"lon":5.39075,"is_reserved":false,"is_disabled":false,"rental_uris":{"android":"levelo://app?vid=39738b12-c420-447b-9d52-eaa849eb5830","ios":"levelo://app?vid=39738b12-c420-447b-9d52-eaa849eb5830"},"vehicle_type_id":"4","last_reported":1743769138,"current_range_meters":16800,"station_id":"ce4bh192rcd13ifvqdb0","pricing_plan_id":"cebpf4jnsgd1na2vs0mg"},{"bike_id":"0e971649-0408-4b65-a036-b992dd17429e","system_id":"levelo_inurba_marseille","lat":43.23202,"lon":5.35553,"is_reserved":false,"is_disabled":false,"rental_uris":{"android":"levelo://app?vid=0e971649-0408-4b65-a036-b992dd17429e","ios":"levelo://app?vid=0e971649-0408-4b65-a036-b992dd17429e"},"vehicle_type_id":"4","last_reported":1743769138,"current_range_meters":16400,"station_id":"ce4bhu92rcd13ifvqi70","pricing_plan_id":"cebpf4jnsgd1na2vs0mg"},{"bike_id":"e31b8b70-063d-4ffe-bf92-a108bca6a4ee","system_id":"levelo_inurba_marseille","lat":43.298114,"lon":5.381022,"is_reserved":false,"is_disabled":false,"rental_uris":{"android":"levelo://app?vid=e31b8b70-063d-4ffe-bf92-a108bca6a4ee","ios":"levelo://app?vid=e31b8b70-063d-4ffe-bf92-a108bca6a4ee"},"vehicle_type_id":"4","last_reported":1743769138,"current_range_meters":16800,"station_id":"ce4bh0h2rcd13ifvqd40","pricing_plan_id":"cebpf4jnsgd1na2vs0mg"},{"bike_id":"2e0c68ea-3361-418e-9d72-bccb3e4de1ab","system_id":"levelo_inurba_marseille","lat":43.30548,"lon":5.36517,"is_reserved":false,"is_disabled":false,"rental_uris":{"android":"levelo://app?vid=2e0c68ea-3361-418e-9d72-bccb3e4de1ab","ios":"levelo://app?vid=2e0c68ea-3361-418e-9d72-bccb3e4de1ab"},"vehicle_type_id":"4","last_reported":1743769138,"current_range_meters":16800,"station_id":"ce4bgs12rcd13ifvqcag","pricing_plan_id":"cebpf4jnsgd1na2vs0mg"},{"bike_id":"69d1cb94-56c0-44d7-bf03-9a1c85959e5f","system_id":"levelo_inurba_marseille","lat":43.26497,"lon":5.39547,"is_reserved":false,"is_disabled":false,"rental_uris":{"android":"levelo://app?vid=69d1cb94-56c0-44d7-bf03-9a1c85959e5f","ios":"levelo://app?vid=69d1cb94-56c0-44d7-bf03-9a1c85959e5f"},"vehicle_type_id":"4","last_reported":1743769138,"current_range_meters":16800,"station_id":"ce4bhi12rcd13ifvqfq0","pricing_plan_id":"cebpf4jnsgd1na2vs0mg"},{"bike_id":"5b8d1103-1921-4c53-912e-93d122cd3cdc","system_id":"levelo_inurba_marseille","lat":43.24393,"lon":5.37068,"is_reserved":false,"is_disabled":true,"rental_uris":{"android":"levelo://app?vid=5b8d1103-1921-4c53-912e-93d122cd3cdc","ios":"levelo://app?vid=5b8d1103-1921-4c53-912e-93d122cd3cdc"},"vehicle_type_id":"4","last_reported":1743769138,"current_range_meters":16800,"station_id":"ce4bhhh2rcd13ifvqfk0","pricing_plan_id":"cebpf4jnsgd1na2vs0mg"},{"bike_id":"1f796f8f-e19b-4ce7-a2e6-d147870da191","system_id":"levelo_inurba_marseille","lat":43.27203,"lon":5.40976,"is_reserved":false,"is_disabled":false,"rental_uris":{"android":"levelo://app?vid=1f796f8f-e19b-4ce7-a2e6-d147870da191","ios":"levelo://app?vid=1f796f8f-e19b-4ce7-a2e6-d147870da191"},"vehicle_type_id":"4","last_reported":1743769138,"current_range_meters":17200,"station_id":"ce4bhl12rcd13ifvqgf0","pricing_plan_id":"cebpf4jnsgd1na2vs0mg"},{"bike_id":"084cbb04-8ff3-49f5-9fa5-4dfe1bb456da","system_id":"levelo_inurba_marseille","lat":43.3053,"lon":5.36701,"is_reserved":false,"is_disabled":false,"rental_uris":{"android":"levelo://app?vid=084cbb04-8ff3-49f5-9fa5-4dfe1bb456da","ios":"levelo://app?vid=084cbb04-8ff3-49f5-9fa5-4dfe1bb456da"},"vehicle_type_id":"4","last_reported":1743769138,"current_range_meters":17200,"station_id":"ce4bgrp2rcd13ifvqc9g","pricing_plan_id":"cebpf4jnsgd1na2vs0mg"},{"bike_id":"d9ba9551-893e-4cab-8633-3f34cc33ee19","system_id":"levelo_inurba_marseille","lat":43.30885,"lon":5.37189,"is_reserved":false,"is_disabled":false,"rental_uris":{"android":"levelo://app?vid=d9ba9551-893e-4cab-8633-3f34cc33ee19","ios":"levelo://app?vid=d9ba9551-893e-4cab-8633-3f34cc33ee19"},"vehicle_type_id":"4","last_reported":1743769138,"current_range_meters":17200,"station_id":"ce4bguh2rcd13ifvqckg","pricing_plan_id":"cebpf4jnsgd1na2vs0mg"},{"bike_id":"a218899a-e755-4156-a17e-d3f2512a0471","system_id":"levelo_inurba_marseille","lat":43.30542,"lon":5.36537,"is_reserved":false,"is_disabled":false,"rental_uris":{"android":"levelo://app?vid=a218899a-e755-4156-a17e-d3f2512a0471","ios":"levelo://app?vid=a218899a-e755-4156-a17e-d3f2512a0471"},"vehicle_type_id":"4","last_reported":1743769138,"current_range_meters":17200,"station_id":"ce4bgs12rcd13ifvqcag","pricing_plan_id":"cebpf4jnsgd1na2vs0mg"},{"bike_id":"b01ae595-0339-40bd-ae0a-82b866214017","system_id":"levelo_inurba_marseille","lat":43.286591,"lon":5.363424,"is_reserved":false,"is_disabled":false,"rental_uris":{"android":"levelo://app?vid=b01ae595-0339-40bd-ae0a-82b866214017","ios":"levelo://app?vid=b01ae595-0339-40bd-ae0a-82b866214017"},"vehicle_type_id":"4","last_reported":1743769138,"current_range_meters":17200,"station_id":"ce4bhah2rcd13ifvqej0","pricing_plan_id":"cebpf4jnsgd1na2vs0mg"},{"bike_id":"fc065886-ad34-4176-8226-c6cb860634d2","system_id":"levelo_inurba_marseille","lat":43.27617,"lon":5.36109,"is_reserved":false,"is_disabled":false,"rental_uris":{"android":"levelo://app?vid=fc065886-ad34-4176-8226-c6cb860634d2","ios":"levelo://app?vid=fc065886-ad34-4176-8226-c6cb860634d2"},"vehicle_type_id":"4","last_reported":1743769138,"current_range_meters":16800,"station_id":"ce4bgj92rcd13ifvqbe0","pricing_plan_id":"cebpf4jnsgd1na2vs0mg"},{"bike_id":"aed30430-0dbe-46b5-98e6-f08fb653f598","system_id":"levelo_inurba_marseille","lat":43.23061,"lon":5.35483,"is_reserved":false,"is_disabled":false,"rental_uris":{"android":"levelo://app?vid=aed30430-0dbe-46b5-98e6-f08fb653f598","ios":"levelo://app?vid=aed30430-0dbe-46b5-98e6-f08fb653f598"},"vehicle_type_id":"4","last_reported":1743769138,"current_range_meters":17200,"station_id":"cpo3342slgdg3j2ifvpg","pricing_plan_id":"cebpf4jnsgd1na2vs0mg"},{"bike_id":"a99b7cca-dde9-4993-97fd-e31d23b732be","system_id":"levelo_inurba_marseille","lat":43.3014,"lon":5.37425,"is_reserved":false,"is_disabled":false,"rental_uris":{"android":"levelo://app?vid=a99b7cca-dde9-4993-97fd-e31d23b732be","ios":"levelo://app?vid=a99b7cca-dde9-4993-97fd-e31d23b732be"},"vehicle_type_id":"4","last_reported":1743769138,"current_range_meters":17200,"station_id":"ce4bgs92rcd13ifvqcc0","pricing_plan_id":"cebpf4jnsgd1na2vs0mg"},{"bike_id":"6278194a-3064-41bd-8565-b8ff44b1552d","system_id":"levelo_inurba_marseille","lat":43.29533,"lon":5.38534,"is_reserved":false,"is_disabled":false,"rental_uris":{"android":"levelo://app?vid=6278194a-3064-41bd-8565-b8ff44b1552d","ios":"levelo://app?vid=6278194a-3064-41bd-8565-b8ff44b1552d"},"vehicle_type_id":"4","last_reported":1743769138,"current_range_meters":17200,"station_id":"ce4bgih2rcd13ifvqba0","pricing_plan_id":"cebpf4jnsgd1na2vs0mg"},{"bike_id":"76aeddb4-5fe1-458e-88b8-8d8be2824231","system_id":"levelo_inurba_marseille","lat":43.25494,"lon":5.37649,"is_reserved":false,"is_disabled":false,"rental_uris":{"android":"levelo://app?vid=76aeddb4-5fe1-458e-88b8-8d8be2824231","ios":"levelo://app?vid=76aeddb4-5fe1-458e-88b8-8d8be2824231"},"vehicle_type_id":"4","last_reported":1743769138,"current_range_meters":17200,"station_id":"ce4bhh12rcd13ifvqff0","pricing_plan_id":"cebpf4jnsgd1na2vs0mg"},{"bike_id":"78346f8f-963e-4373-b063-c98ddd9b543a","system_id":"levelo_inurba_marseille","lat":43.24562,"lon":5.39522,"is_reserved":false,"is_disabled":false,"rental_uris":{"android":"levelo://app?vid=78346f8f-963e-4373-b063-c98ddd9b543a","ios":"levelo://app?vid=78346f8f-963e-4373-b063-c98ddd9b543a"},"vehicle_type_id":"4","last_reported":1743769138,"current_range_meters":17600,"station_id":"ce4bhlp2rcd13ifvqgjg","pricing_plan_id":"cebpf4jnsgd1na2vs0mg"},{"bike_id":"89709091-486f-4116-b203-524c8e73acee","system_id":"levelo_inurba_marseille","lat":43.3233,"lon":5.40629,"is_reserved":false,"is_disabled":false,"rental_uris":{"android":"levelo://app?vid=89709091-486f-4116-b203-524c8e73acee","ios":"levelo://app?vid=89709091-486f-4116-b203-524c8e73acee"},"vehicle_type_id":"4","last_reported":1743769138,"current_range_meters":17600,"station_id":"ce4bhq92rcd13ifvqhjg","pricing_plan_id":"cebpf4jnsgd1na2vs0mg"},{"bike_id":"13b2c0b4-342f-4564-8399-a17604a3a4b3","system_id":"levelo_inurba_marseille","lat":43.32487,"lon":5.36569,"is_reserved":false,"is_disabled":false,"rental_uris":{"android":"levelo://app?vid=13b2c0b4-342f-4564-8399-a17604a3a4b3","ios":"levelo://app?vid=13b2c0b4-342f-4564-8399-a17604a3a4b3"},"vehicle_type_id":"4","last_reported":1743769138,"current_range_meters":17600,"station_id":"ce4bhs12rcd13ifvqhvg","pricing_plan_id":"cebpf4jnsgd1na2vs0mg"},{"bike_id":"294fc0ad-e5b3-48e3-b5aa-84945da2e4dd","system_id":"levelo_inurba_marseille","lat":43.25579,"lon":5.38234,"is_reserved":false,"is_disabled":false,"rental_uris":{"android":"levelo://app?vid=294fc0ad-e5b3-48e3-b5aa-84945da2e4dd","ios":"levelo://app?vid=294fc0ad-e5b3-48e3-b5aa-84945da2e4dd"},"vehicle_type_id":"4","last_reported":1743769138,"current_range_meters":17600,"station_id":"ce4bhih2rcd13ifvqfs0","pricing_plan_id":"cebpf4jnsgd1na2vs0mg"},