{"last_updated":1770117918,"ttl":60,"version":"2.2","data":{"bikes":[{"bike_id":"9fc8ef71-386f-44be-82e3-1de94f4036ef","system_id":"levelo_inurba_marseille","lat":43.27211,"lon":5.39192,"is_reserved":false,"is_disabled":false,"rental_uris":{"android":"levelo://app?vid=9fc8ef71-386f-44be-82e3-1de94f4036ef","ios":"levelo://app?vid=9fc8ef71-386f-44be-82e3-1de94f4036ef"},"vehicle_type_id":"4","last_reported":1770117918,"current_range_meters":2800,"station_id":"ce4bhhp2rcd13ifvqfm0","pricing_plan_id":"cebpf4jnsgd1na2vs0mg"},{"bike_id":"7e7cded1-d7df-4b4d-9ff3-49738118bd9d","system_id":"levelo_inurba_marseille","lat":43.25338,"lon":5.42172,"is_reserved":false,"is_disabled":false,"rental_uris":{"android":"levelo://app?vid=7e7cded1-d7df-4b4d-9ff3-49738118bd9d","ios":"levelo://app?vid=7e7cded1-d7df-4b4d-9ff3-49738118bd9d"},"vehicle_type_id":"4","last_reported":1770117918,"current_range_meters":2800,"station_id":"st_d2m65c5bi1j21697t3ng","pricing_plan_id":"cebpf4jnsgd1na2vs0mg"},{"bike_id":"e22e1f26-0b48-4184-a7ce-d50ac63de7a5","system_id":"levelo_inurba_marseille","lat":43.22564,"lon":5.4163,"is_reserved":false,"is_disabled":false,"rental_uris":{"android":"levelo://app?vid=e22e1f26-0b48-4184-a7ce-d50ac63de7a5","ios":"levelo://app?vid=e22e1f26-0b48-4184-a7ce-d50ac63de7a5"},"vehicle_type_id":"4","last_reported":1770117918,"current_range_meters":2800,"station_id":"st_d2o4gvlbi1j2169b742g","pricing_plan_id":"cebpf4jnsgd1na2vs0mg"},{"bike_id":"fda17309-67c6-493d-a11a-fed18f5561b2","system_id":"levelo_inurba_marseille","lat":43.2502,"lon":5.38919,"is_reserved":false,"is_disabled":false,"rental_uris":{"android":"levelo://app?vid=fda17309-67c6-493d-a11a-fed18f5561b2","ios":"levelo://app?vid=fda17309-67c6-493d-a11a-fed18f5561b2"},"vehicle_type_id":"4","last_reported":1770117918,"current_range_meters":2800,"station_id":"ce4bhgp2rcd13ifvqfd0","pricing_plan_id":"cebpf4jnsgd1na2vs0mg"},{"bike_id":"cd0d1c57-14a9-4619-969d-4e1062c346c9","system_id":"levelo_inurba_marseille","lat":43.27449,"lon":5.39394,"is_reserved":false,"is_disabled":false,"rental_uris":{"android":"levelo://app?vid=cd0d1c57-14a9-4619-969d-4e1062c346c9","ios":"levelo://app?vid=cd0d1c57-14a9-4619-969d-4e1062c346c9"},"vehicle_type_id":"4","last_reported":1770117918,"current_range_meters":2800,"station_id":"ce4bhdp2rcd13ifvqf20","pricing_plan_id":"cebpf4jnsgd1na2vs0mg"},{"bike_id":"82b325d3-7a3c-4cda-9a2e-5a416c58a952","system_id":"levelo_inurba_marseille","lat":43.272,"lon":5.39172,"is_reserved":false,"is_disabled":false,"rental_uris":{"android":"levelo://app?vid=82b325d3-7a3c-4cda-9a2e-5a416c58a952","ios":"levelo://app?vid=82b325d3-7a3c-4cda-9a2e-5a416c58a952"},"vehicle_type_id":"4","last_reported":1770117918,"current_range_meters":2800,"station_id":"ce4bhhp2rcd13ifvqfm0","pricing_plan_id":"cebpf4jnsgd1na2vs0mg"},{"bike_id":"4ee4b6af-04d3-49a3-9302-ebfa2b94cd3e","system_id":"levelo_inurba_marseille","lat":43.29746,"lon":5.42795,"is_reserved":false,"is_disabled":false,"rental_uris":{"android":"levelo://app?vid=4ee4b6af-04d3-49a3-9302-ebfa2b94cd3e","ios":"levelo://app?vid=4ee4b6af-04d3-49a3-9302-ebfa2b94cd3e"},"vehicle_type_id":"4","last_reported":1770117918,"current_range_meters":2800,"station_id":"st_d3md5207bmas73dh9klg","pricing_plan_id":"cebpf4jnsgd1na2vs0mg"},{"bike_id":"4e84c079-e70f-4bbb-aa19-0481777478da","system_id":"levelo_inurba_marseille","lat":43.26937,"lon":5.38646,"is_reserved":false,"is_disabled":false,"rental_uris":{"android":"levelo://app?vid=4e84c079-e70f-4bbb-aa19-0481777478da","ios":"levelo://app?vid=4e84c079-e70f-4bbb-aa19-0481777478da"},"vehicle_type_id":"4","last_reported":1770117918,"current_range_meters":3200,"station_id":"ce4bhh92rcd13ifvqfh0","pricing_plan_id":"cebpf4jnsgd1na2vs0mg"},{"bike_id":"28e068bb-60a9-42b4-9f96-904466e94f56","system_id":"levelo_inurba_marseille","lat":43.27951,"lon":5.38712,"is_reserved":false,"is_disabled":false,"rental_uris":{"android":"levelo://app?vid=28e068bb-60a9-42b4-9f96-904466e94f56","ios":"levelo://app?vid=28e068bb-60a9-42b4-9f96-904466e94f56"},"vehicle_type_id":"4","last_reported":1770117918,"current_range_meters":3200,"station_id":"ce4bhg12rcd13ifvqf80","pricing_plan_id":"cebpf4jnsgd1na2vs0mg"},{"bike_id":"c20ed702-3481-4da1-8980-6cf2971f3757","system_id":"levelo_inurba_marseille","lat":43.28475,"lon":5.48412,"is_reserved":false,"is_disabled":false,"rental_uris":{"android":"levelo://app?vid=c20ed702-3481-4da1-8980-6cf2971f3757","ios":"levelo://app?vid=c20ed702-3481-4da1-8980-6cf2971f3757"},"vehicle_type_id":"4","last_reported":1770117918,"current_range_meters":3200,"station_id":"st_d3svhcjqgbts73a3dn0g","pricing_plan_id":"cebpf4jnsgd1na2vs0mg"},{"bike_id":"ed02cb4c-388a-4f26-a459-0831f95c479b","system_id":"levelo_inurba_marseille","lat":43.29904,"lon":5.4367,"is_reserved":false,"is_disabled":false,"rental_uris":{"android":"levelo://app?vid=ed02cb4c-388a-4f26-a459-0831f95c479b","ios":"levelo://app?vid=ed02cb4c-388a-4f26-a459-0831f95c479b"},"vehicle_type_id":"4","last_reported":1770117918,"current_range_meters":3200,"station_id":"ce4bhpp2rcd13ifvqhfg","pricing_plan_id":"cebpf4jnsgd1na2vs0mg"},{"bike_id":"10f34601-4a44-4897-a344-67ccd28a7e0f","system_id":"levelo_inurba_marseille","lat":43.27097,"lon":5.3833,"is_reserved":false,"is_disabled":false,"rental_uris":{"android":"levelo://app?vid=10f34601-4a44-4897-a344-67ccd28a7e0f","ios":"levelo://app?vid=10f34601-4a44-4897-a344-67ccd28a7e0f"},"vehicle_type_id":"4","last_reported":1770117918,"current_range_meters":3200,"station_id":"st_d3n2fo6cfp8s73cte1j0","pricing_plan_id":"cebpf4jnsgd1na2vs0mg"},{"bike_id":"97d7ba2a-e0c0-4688-aeb6-9dc8e7c2bb8b","system_id":"levelo_inurba_marseille","lat":43.28175,"lon":5.34974,"is_reserved":false,"is_disabled":false,"rental_uris":{"android":"levelo://app?vid=97d7ba2a-e0c0-4688-aeb6-9dc8e7c2bb8b","ios":"levelo://app?vid=97d7ba2a-e0c0-4688-aeb6-9dc8e7c2bb8b"},"vehicle_type_id":"4","last_reported":1770117918,"current_range_meters":3200,"station_id":"","pricing_plan_id":"cebpf4jnsgd1na2vs0mg"},{"bike_id":"d324c7bd-617a-46c1-b9d3-904c8bba02c0","system_id":"levelo_inurba_marseille","lat":43.312606,"lon":5.385201,"is_reserved":false,"is_disabled":false,"rental_uris":{"android":"levelo://app?vid=d324c7bd-617a-46c1-b9d3-904c8bba02c0","ios":"levelo://app?vid=d324c7bd-617a-46c1-b9d3-904c8bba02c0"},"vehicle_type_id":"4","last_reported":1770117918,"current_range_meters":3200,"station_id":"ce4bgt92rcd13ifvqcf0","pricing_plan_id":"cebpf4jnsgd1na2vs0mg"},{"bike_id":"a83f6d4e-8b41-4f5d-b726-aab40772b3dc","system_id":"levelo_inurba_marseille","lat":43.27198,"lon":5.39191,"is_reserved":false,"is_disabled":true,"rental_uris":{"android":"levelo://app?vid=a83f6d4e-8b41-4f5d-b726-aab40772b3dc","ios":"levelo://app?vid=a83f6d4e-8b41-4f5d-b726-aab40772b3dc"},"vehicle_type_id":"4","last_reported":1770117918,"current_range_meters":3600,"station_id":"ce4bhhp2rcd13ifvqfm0","pricing_plan_id":"cebpf4jnsgd1na2vs0mg"},{"bike_id":"a4d7151c-7473-4d3b-8890-ddd758ab554d","system_id":"levelo_inurba_marseille","lat":43.2495,"lon":5.40505,"is_reserved":false,"is_disabled":false,"rental_uris":{"android":"levelo://app?vid=a4d7151c-7473-4d3b-8890-ddd758ab554d","ios":"levelo://app?vid=a4d7151c-7473-4d3b-8890-ddd758ab554d"},"vehicle_type_id":"4","last_reported":1770117918,"current_range_meters":3600,"station_id":"st_d2ngiaodas8pm72gd1h0","pricing_plan_id":"cebpf4jnsgd1na2vs0mg"},{"bike_id":"ff4ad111-5193-4082-98ed-f666cc067393","system_id":"levelo_inurba_marseille","lat":43.27617,"lon":5.36127,"is_reserved":false,"is_disabled":false,"rental_uris":{"android":"levelo://app?vid=ff4ad111-5193-4082-98ed-f666cc067393","ios":"levelo://app?vid=ff4ad111-5193-4082-98ed-f666cc067393"},"vehicle_type_id":"4","last_reported":1770117918,"current_range_meters":3600,"station_id":"ce4bgj92rcd13ifvqbe0","pricing_plan_id":"cebpf4jnsgd1na2vs0mg"},{"bike_id":"132c2e4f-f164-4506-8200-75a72b5316b3","system_id":"levelo_inurba_marseille","lat":43.2257,"lon":5.41629,"is_reserved":false,"is_disabled":false,"rental_uris":{"android":"levelo://app?vid=132c2e4f-f164-4506-8200-75a72b5316b3","ios":"levelo://app?vid=132c2e4f-f164-4506-8200-75a72b5316b3"},"vehicle_type_id":"4","last_reported":1770117918,"current_range_meters":3600,"station_id":"st_d2o4gvlbi1j2169b742g","pricing_plan_id":"cebpf4jnsgd1na2vs0mg"},{"bike_id":"6dad98b0-b8d5-4c49-a9f3-424c31e731fe","system_id":"levelo_inurba_marseille","lat":43.251198,"lon":5.403179,"is_reserved":false,"is_disabled":false,"rental_uris":{"android":"levelo://app?vid=6dad98b0-b8d5-4c49-a9f3-424c31e731fe","ios":"levelo://app?vid=6dad98b0-b8d5-4c49-a9f3-424c31e731fe"},"vehicle_type_id":"4","last_reported":1770117918,"current_range_meters":3600,"station_id":"ce4bhlh2rcd13ifvqgig","pricing_plan_id":"cebpf4jnsgd1na2vs0mg"},{"bike_id":"d9a90e99-5852-4c5b-9c8e-7aa602da49ae","system_id":"levelo_inurba_marseille","lat":43.30271,"lon":5.40059,"is_reserved":false,"is_disabled":false,"rental_uris":{"android":"levelo://app?vid=d9a90e99-5852-4c5b-9c8e-7aa602da49ae","ios":"levelo://app?vid=d9a90e99-5852-4c5b-9c8e-7aa602da49ae"},"vehicle_type_id":"4","last_reported":1770117918,"current_range_meters":3600,"station_id":"ce4bgvh2rcd13ifvqcs0","pricing_plan_id":"cebpf4jnsgd1na2vs0mg"},{"bike_id":"9ada956b-611a-40b0-bdb7-5f9fbde305e4","system_id":"levelo_inurba_marseille","lat":43.325297,"lon":5.414305,"is_reserved":false,"is_disabled":false,"rental_uris":{"android":"levelo://app?vid=9ada956b-611a-40b0-bdb7-5f9fbde305e4","ios":"levelo://app?vid=9ada956b-611a-40b0-bdb7-5f9fbde305e4"},"vehicle_type_id":"4","last_reported":1770117918,"current_range_meters":3600,"station_id":"ce4bhq12rcd13ifvqhhg","pricing_plan_id":"cebpf4jnsgd1na2vs0mg"},{"bike_id":"57b7da14-15a4-4b41-8a67-bf66d723a6c6","system_id":"levelo_inurba_marseille","lat":43.31166,"lon":5.38724,"is_reserved":false,"is_disabled":false,"rental_uris":{"android":"levelo://app?vid=57b7da14-15a4-4b41-8a67-bf66d723a6c6","ios":"levelo://app?vid=57b7da14-15a4-4b41-8a67-bf66d723a6c6"},"vehicle_type_id":"4","last_reported":1770117918,"current_range_meters":3600,"station_id":"ce4bgv12rcd13ifvqcp0","pricing_plan_id":"cebpf4jnsgd1na2vs0mg"},{"bike_id":"c0e379c3-7152-4ad5-ad76-b180d45c4f21","system_id":"levelo_inurba_marseille","lat":43.30146,"lon":5.37426,"is_reserved":false,"is_disabled":false,"rental_uris":{"android":"levelo://app?vid=c0e379c3-7152-4ad5-ad76-b180d45c4f21","ios":"levelo://app?vid=c0e379c3-7152-4ad5-ad76-b180d45c4f21"},"vehicle_type_id":"4","last_reported":1770117918,"current_range_meters":3600,"station_id":"ce4bgs92rcd13ifvqcc0","pricing_plan_id":"cebpf4jnsgd1na2vs0mg"},{"bike_id":"86165cc2-d1b2-4b87-a8ec-ade7a5607733","system_id":"levelo_inurba_marseille","lat":43.30217,"lon":5.39473,"is_reserved":false,"is_disabled":false,"rental_uris":{"android":"levelo://app?vid=86165cc2-d1b2-4b87-a8ec-ade7a5607733","ios":"levelo://app?vid=86165cc2-d1b2-4b87-a8ec-ade7a5607733"},"vehicle_type_id":"4","last_reported":1770117918,"current_range_meters":3600,"station_id":"ce4bh0p2rcd13ifvqd70","pricing_plan_id":"cebpf4jnsgd1na2vs0mg"},{"bike_id":"d121da67-5635-4912-b5fe-538108509752","system_id":"levelo_inurba_marseille","lat":43.276675,"lon":5.388804,"is_reserved":false,"is_disabled":false,"rental_uris":{"android":"levelo://app?vid=d121da67-5635-4912-b5fe-538108509752","ios":"levelo://app?vid=d121da67-5635-4912-b5fe-538108509752"},"vehicle_type_id":"4","last_reported":1770117918,"current_range_meters":4000,"station_id":"ce4bhi12rcd13ifvqfo0","pricing_plan_id":"cebpf4jnsgd1na2vs0mg"},{"bike_id":"b6399f47-eedc-460e-a54f-92d9abfbb012","system_id":"levelo_inurba_marseille","lat":43.286113,"lon":5.35109,"is_reserved":false,"is_disabled":false,"rental_uris":{"android":"levelo://app?vid=b6399f47-eedc-460e-a54f-92d9abfbb012","ios":"levelo://app?vid=b6399f47-eedc-460e-a54f-92d9abfbb012"},"vehicle_type_id":"4","last_reported":1770117918,"current_range_meters":4000,"station_id":"ce4bhch2rcd13ifvqeug","pricing_plan_id":"cebpf4jnsgd1na2vs0mg"},{"bike_id":"448aac68-1f9e-4017-99cd-3bab5b285023","system_id":"levelo_inurba_marseille","lat":43.27387,"lon":5.36262,"is_reserved":false,"is_disabled":false,"rental_uris":{"android":"levelo://app?vid=448aac68-1f9e-4017-99cd-3bab5b285023","ios":"levelo://app?vid=448aac68-1f9e-4017-99cd-3bab5b285023"},"vehicle_type_id":"4","last_reported":1770117918,"current_range_meters":4000,"station_id":"ce4bhbh2rcd13ifvqeo0","pricing_plan_id":"cebpf4jnsgd1na2vs0mg"},{"bike_id":"6a131f0d-6128-445c-99a5-319bcf3a622a","system_id":"levelo_inurba_marseille","lat":43.28486,"lon":5.48409,"is_reserved":false,"is_disabled":false,"rental_uris":{"android":"levelo://app?vid=6a131f0d-6128-445c-99a5-319bcf3a622a","ios":"levelo://app?vid=6a131f0d-6128-445c-99a5-319bcf3a622a"},"vehicle_type_id":"4","last_reported":1770117918,"current_range_meters":4000,"station_id":"st_d3svhcjqgbts73a3dn0g","pricing_plan_id":"cebpf4jnsgd1na2vs0mg"},{"bike_id":"2917304c-bf46-4a0c-9e16-8711acfc5fd2","system_id":"levelo_inurba_marseille","lat":43.32488,"lon":5.383,"is_reserved":false,"is_disabled":false,"rental_uris":{"android":"levelo://app?vid=2917304c-bf46-4a0c-9e16-8711acfc5fd2","ios":"levelo://app?vid=2917304c-bf46-4a0c-9e16-8711acfc5fd2"},"vehicle_type_id":"4","last_reported":1770117918,"current_range_meters":4000,"station_id":"st_d4asgbiv49dc73anf9m0","pricing_plan_id":"cebpf4jnsgd1na2vs0mg"},{"bike_id":"9b88fd27-e984-4d47-a1cb-c509cbeae0be","system_id":"levelo_inurba_marseille","lat":43.279937,"lon":5.40024,"is_reserved":false,"is_disabled":false,"rental_uris":{"android":"levelo://app?vid=9b88fd27-e984-4d47-a1cb-c509cbeae0be","ios":"levelo://app?vid=9b88fd27-e984-4d47-a1cb-c509cbeae0be"},"vehicle_type_id":"4","last_reported":1770117918,"current_range_meters":4400,"station_id":"ce4bho92rcd13ifvqh4g","pricing_plan_id":"cebpf4jnsgd1na2vs0mg"},{"bike_id":"5685d3e3-68d2-428e-ab75-95b54dae7d3c","system_id":"levelo_inurba_marseille","lat":43.30547,"lon":5.36524,"is_reserved":false,"is_disabled":false,"rental_uris":{"android":"levelo://app?vid=5685d3e3-68d2-428e-ab75-95b54dae7d3c","ios":"levelo://app?vid=5685d3e3-68d2-428e-ab75-95b54dae7d3c"},"vehicle_type_id":"4","last_reported":1770117918,"current_range_meters":4400,"station_id":"ce4bgs12rcd13ifvqcag","pricing_plan_id":"cebpf4jnsgd1na2vs0mg"},{"bike_id":"5c745596-3f49-4381-9947-fe7e97fb9fe8","system_id":"levelo_inurba_marseille","lat":43.31068,"lon":5.3835,"is_reserved":false,"is_disabled":false,"rental_uris":{"android":"levelo://app?vid=5c745596-3f49-4381-9947-fe7e97fb9fe8","ios":"levelo://app?vid=5c745596-3f49-4381-9947-fe7e97fb9fe8"},"vehicle_type_id":"4","last_reported":1770117918,"current_range_meters":4400,"station_id":"ce4bgv92rcd13ifvqcr0","pricing_plan_id":"cebpf4jnsgd1na2vs0mg"},{"bike_id":"706a51bd-6464-4a08-a822-c3d0e43f2700","system_id":"levelo_inurba_marseille","lat":43.27352,"lon":5.39124,"is_reserved":false,"is_disabled":false,"rental_uris":{"android":"levelo://app?vid=706a51bd-6464-4a08-a822-c3d0e43f2700","ios":"levelo://app?vid=706a51bd-6464-4a08-a822-c3d0e43f2700"},"vehicle_type_id":"4","last_reported":1770117918,"current_range_meters":4400,"station_id":"ce4bhgp2rcd13ifvqfe0","pricing_plan_id":"cebpf4jnsgd1na2vs0mg"},{"bike_id":"03759cd8-0d22-4080-851e-61ec080f1b4a","system_id":"levelo_inurba_marseille","lat":43.21765,"lon":5.34615,"is_reserved":false,"is_disabled":false,"rental_uris":{"android":"levelo://app?vid=03759cd8-0d22-4080-851e-61ec080f1b4a","ios":"levelo://app?vid=03759cd8-0d22-4080-851e-61ec080f1b4a"},"vehicle_type_id":"4","last_reported":1770117918,"current_range_meters":4400,"station_id":"st_cvj6r9ubvosntc0bgbag","pricing_plan_id":"cebpf4jnsgd1na2vs0mg"},{"bike_id":"225e9d09-83ee-4f1c-a930-a97429c83cb7","system_id":"levelo_inurba_marseille","lat":43.23194,"lon":5.35554,"is_reserved":false,"is_disabled":false,"rental_uris":{"android":"levelo://app?vid=225e9d09-83ee-4f1c-a930-a97429c83cb7","ios":"levelo://app?vid=225e9d09-83ee-4f1c-a930-a97429c83cb7"},"vehicle_type_id":"4","last_reported":1770117918,"current_range_meters":4400,"station_id":"ce4bhu92rcd13ifvqi70","pricing_plan_id":"cebpf4jnsgd1na2vs0mg"},{"bike_id":"39e86a35-dd9b-4a2c-a7e0-32c366bf3e2a","system_id":"levelo_inurba_marseille","lat":43.316383,"lon":5.405843,"is_reserved":false,"is_disabled":false,"rental_uris":{"android":"levelo://app?vid=39e86a35-dd9b-4a2c-a7e0-32c366bf3e2a","ios":"levelo://app?vid=39e86a35-dd9b-4a2c-a7e0-32c366bf3e2a"},"vehicle_type_id":"4","last_reported":1770117918,"current_range_meters":4400,"station_id":"","pricing_plan_id":"cebpf4jnsgd1na2vs0mg"},{"bike_id":"91604460-68c0-4492-894c-a238619d1f72","system_id":"levelo_inurba_marseille","lat":43.23199,"lon":5.35553,"is_reserved":false,"is_disabled":false,"rental_uris":{"android":"levelo://app?vid=91604460-68c0-4492-894c-a238619d1f72","ios":"levelo://app?vid=91604460-68c0-4492-894c-a238619d1f72"},"vehicle_type_id":"4","last_reported":1770117918,"current_range_meters":4400,"station_id":"ce4bhu92rcd13ifvqi70","pricing_plan_id":"cebpf4jnsgd1na2vs0mg"},{"bike_id":"35d56dec-5dbc-4778-ba90-a317060fb012","system_id":"levelo_inurba_marseille","lat":43.29629,"lon":5.3811,"is_reserved":false,"is_disabled":true,"rental_uris":{"android":"levelo://app?vid=35d56dec-5dbc-4778-ba90-a317060fb012","ios":"levelo://app?vid=35d56dec-5dbc-4778-ba90-a317060fb012"},"vehicle_type_id":"4","last_reported":1770117918,"current_range_meters":4400,"station_id":"ce4bgl12rcd13ifvqbo0","pricing_plan_id":"cebpf4jnsgd1na2vs0mg"},{"bike_id":"2d3de668-8180-4968-b805-d728d0312338","system_id":"levelo_inurba_marseille","lat":43.30547,"lon":5.36541,"is_reserved":false,"is_disabled":false,"rental_uris":{"android":"levelo://app?vid=2d3de668-8180-4968-b805-d728d0312338","ios":"levelo://app?vid=2d3de668-8180-4968-b805-d728d0312338"},"vehicle_type_id":"4","last_reported":1770117918,"current_range_meters":4800,"station_id":"ce4bgs12rcd13ifvqcag","pricing_plan_id":"cebpf4jnsgd1na2vs0mg"},{"bike_id":"b4b49109-c680-49e7-b78f-0963342a85a5","system_id":"levelo_inurba_marseille","lat":43.30559,"lon":5.36521,"is_reserved":false,"is_disabled":false,"rental_uris":{"android":"levelo://app?vid=b4b49109-c680-49e7-b78f-0963342a85a5","ios":"levelo://app?vid=b4b49109-c680-49e7-b78f-0963342a85a5"},"vehicle_type_id":"4","last_reported":1770117918,"current_range_meters":4800,"station_id":"ce4bgs12rcd13ifvqcag","pricing_plan_id":"cebpf4jnsgd1na2vs0mg"},{"bike_id":"68b49338-d561-46cd-8639-c360ff0455a1","system_id":"levelo_inurba_marseille","lat":43.26192,"lon":5.37463,"is_reserved":false,"is_disabled":false,"rental_uris":{"android":"levelo://app?vid=68b49338-d561-46cd-8639-c360ff0455a1","ios":"levelo://app?vid=68b49338-d561-46cd-8639-c360ff0455a1"},"vehicle_type_id":"4","last_reported":1770117918,"current_range_meters":4800,"station_id":"ce4bhgp2rcd13ifvqfc0","pricing_plan_id":"cebpf4jnsgd1na2vs0mg"},{"bike_id":"5a6a366b-ecf9-43b9-968a-f2f9e3a02ec3","system_id":"levelo_inurba_marseille","lat":43.29989,"lon":5.37165,"is_reserved":false,"is_disabled":false,"rental_uris":{"android":"levelo://app?vid=5a6a366b-ecf9-43b9-968a-f2f9e3a02ec3","ios":"levelo://app?vid=5a6a366b-ecf9-43b9-968a-f2f9e3a02ec3"},"vehicle_type_id":"4","last_reported":1770117918,"current_range_meters":4800,"station_id":"ce4bgr92rcd13ifvqc7g","pricing_plan_id":"cebpf4jnsgd1na2vs0mg"},{"bike_id":"1b7275f2-66dc-49c1-a1cf-6b666c1247c0","system_id":"levelo_inurba_marseille","lat":43.31059,"lon":5.37182,"is_reserved":false,"is_disabled":false,"rental_uris":{"android":"levelo://app?vid=1b7275f2-66dc-49c1-a1cf-6b666c1247c0","ios":"levelo://app?vid=1b7275f2-66dc-49c1-a1cf-6b666c1247c0"},"vehicle_type_id":"4","last_reported":1770117918,"current_range_meters":4800,"station_id":"st_d4kl2rp97mjs73e7tdfg","pricing_plan_id":"cebpf4jnsgd1na2vs0mg"},{"bike_id":"b22fe20e-b31a-45b3-85d7-e7226f45b2bd","system_id":"levelo_inurba_marseille","lat":43.21188,"lon":5.35086,"is_reserved":false,"is_disabled":false,"rental_uris":{"android":"levelo://app?vid=b22fe20e-b31a-45b3-85d7-e7226f45b2bd","ios":"levelo://app?vid=b22fe20e-b31a-45b3-85d7-e7226f45b2bd"},"vehicle_type_id":"4","last_reported":1770117918,"current_range_meters":5600,"station_id":"st_cvj6sg6p6f1abm77japg","pricing_plan_id":"cebpf4jnsgd1na2vs0mg"},{"bike_id":"03957cd6-ee2d-47d1-948d-c3da3284d226","system_id":"levelo_inurba_marseille","lat":43.289404,"lon":5.36388,"is_reserved":false,"is_disabled":true,"rental_uris":{"android":"levelo://app?vid=03957cd6-ee2d-47d1-948d-c3da3284d226","ios":"levelo://app?vid=03957cd6-ee2d-47d1-948d-c3da3284d226"},"vehicle_type_id":"4","last_reported":1770117918,"current_range_meters":5600,"station_id":"","pricing_plan_id":"cebpf4jnsgd1na2vs0mg"},{"bike_id":"459b5f6f-5e3a-48f6-bc10-b896c29a66e6","system_id":"levelo_inurba_marseille","lat":43.33608,"lon":5.41022,"is_reserved":false,"is_disabled":false,"rental_uris":{"android":"levelo://app?vid=459b5f6f-5e3a-48f6-bc10-b896c29a66e6","ios":"levelo://app?vid=459b5f6f-5e3a-48f6-bc10-b896c29a66e6"},"vehicle_type_id":"4","last_reported":1770117918,"current_range_meters":5600,"station_id":"ce4bhqh2rcd13ifvqhmg","pricing_plan_id":"cebpf4jnsgd1na2vs0mg"},{"bike_id":"b635b1fb-759a-48a9-99c5-e81498f8c561","system_id":"levelo_inurba_marseille","lat":43.29191,"lon":5.35815,"is_reserved":false,"is_disabled":false,"rental_uris":{"android":"levelo://app?vid=b635b1fb-759a-48a9-99c5-e81498f8c561","ios":"levelo://app?vid=b635b1fb-759a-48a9-99c5-e81498f8c561"},"vehicle_type_id":"4","last_reported":1770117918,"current_range_meters":5600,"station_id":"ce4bhb12rcd13ifvqel0","pricing_plan_id":"cebpf4jnsgd1na2vs0mg"},{"bike_id":"6f84ec6c-a748-43e5-b1f5-0876f912f219","system_id":"levelo_inurba_marseille","lat":43.262984,"lon":5.388229,"is_reserved":false,"is_disabled":false,"rental_uris":{"android":"levelo://app?vid=6f84ec6c-a748-43e5-b1f5-0876f912f219","ios":"levelo://app?vid=6f84ec6c-a748-43e5-b1f5-0876f912f219"},"vehicle_type_id":"4","last_reported":1770117918,"current_range_meters":5600,"station_id":"ce4bhhh2rcd13ifvqfl0","pricing_plan_id":"cebpf4jnsgd1na2vs0mg"},{"bike_id":"0a6292f7-50dd-43c2-b393-e08dde080051","system_id":"levelo_inurba_marseille","lat":43.26591,"lon":5.38969,"is_reserved":false,"is_disabled":false,"rental_uris":{"android":"levelo://app?vid=0a6292f7-50dd-43c2-b393-e08dde080051","ios":"levelo://app?vid=0a6292f7-50dd-43c2-b393-e08dde080051"},"vehicle_type_id":"4","last_reported":1770117918,"current_range_meters":5600,"station_id":"ce4bhe12rcd13ifvqf30","pricing_plan_id":"cebpf4jnsgd1na2vs0mg"},{"bike_id":"5dae8e7a-771c-417a-921b-2f019b85b891","system_id":"levelo_inurba_marseille","lat":43.29855,"lon":5.43668,"is_reserved":false,"is_disabled":false,"rental_uris":{"android":"levelo://app?vid=5dae8e7a-771c-417a-921b-2f019b85b891","ios":"levelo://app?vid=5dae8e7a-771c-417a-921b-2f019b85b891"},"vehicle_type_id":"4","last_reported":1770117918,"current_range_meters":5600,"station_id":"ce4bhpp2rcd13ifvqhfg","pricing_plan_id":"cebpf4jnsgd1na2vs0mg"},{"bike_id":"fb6d0c92-aa07-41c5-bb64-ff22908e7b14","system_id":"levelo_inurba_marseille","lat":43.33541,"lon":5.37475,"is_reserved":false,"is_disabled":false,"rental_uris":{"android":"levelo://app?vid=fb6d0c92-aa07-41c5-bb64-ff22908e7b14","ios":"levelo://app?vid=fb6d0c92-aa07-41c5-bb64-ff22908e7b14"},"vehicle_type_id":"4","last_reported":1770117918,"current_range_meters":5600,"station_id":"st_d46tts09ee8s73dlu43g","pricing_plan_id":"cebpf4jnsgd1na2vs0mg"},{"bike_id":"652055a5-afe0-4882-b1c2-adeffbdb9a89","system_id":"levelo_inurba_marseille","lat":43.26554,"lon":5.37293,"is_reserved":false,"is_disabled":false,"rental_uris":{"android":"levelo://app?vid=652055a5-afe0-4882-b1c2-adeffbdb9a89","ios":"levelo://app?vid=652055a5-afe0-4882-b1c2-adeffbdb9a89"},"vehicle_type_id":"4","last_reported":1770117918,"current_range_meters":6000,"station_id":"ce4bhg12rcd13ifvqf70","pricing_plan_id":"cebpf4jnsgd1na2vs0mg"},{"bike_id":"76154380-766b-4767-81b3-83dc44f40b7b","system_id":"levelo_inurba_marseille","lat":43.33538,"lon":5.37475,"is_reserved":false,"is_disabled":false,"rental_uris":{"android":"levelo://app?vid=76154380-766b-4767-81b3-83dc44f40b7b","ios":"levelo://app?vid=76154380-766b-4767-81b3-83dc44f40b7b"},"vehicle_type_id":"4","last_reported":1770117918,"current_range_meters":6000,"station_id":"st_d46tts09ee8s73dlu43g","pricing_plan_id":"cebpf4jnsgd1na2vs0mg"},{"bike_id":"b6eccf6c-9086-4811-8e2c-1f09331e5e0f","system_id":"levelo_inurba_marseille","lat":43.27074,"lon":5.4229,"is_reserved":false,"is_disabled":false,"rental_uris":{"android":"levelo://app?vid=b6eccf6c-9086-4811-8e2c-1f09331e5e0f","ios":"levelo://app?vid=b6eccf6c-9086-4811-8e2c-1f09331e5e0f"},"vehicle_type_id":"4","last_reported":1770117918,"current_range_meters":6000,"station_id":"ce4bhk92rcd13ifvqgb0","pricing_plan_id":"cebpf4jnsgd1na2vs0mg"},{"bike_id":"f258df4f-bae2-4c0b-8665-7259c20863ff","system_id":"levelo_inurba_marseille","lat":43.29784,"lon":5.38099,"is_reserved":false,"is_disabled":false,"rental_uris":{"android":"levelo://app?vid=f258df4f-bae2-4c0b-8665-7259c20863ff","ios":"levelo://app?vid=f258df4f-bae2-4c0b-8665-7259c20863ff"},"vehicle_type_id":"4","last_reported":1770117918,"current_range_meters":6000,"station_id":"ce4bgip2rcd13ifvqbb0","pricing_plan_id":"cebpf4jnsgd1na2vs0mg"},{"bike_id":"33155caa-8021-4913-a666-e828c4426fe1","system_id":"levelo_inurba_marseille","lat":43.23203,"lon":5.35547,"is_reserved":false,"is_disabled":false,"rental_uris":{"android":"levelo://app?vid=33155caa-8021-4913-a666-e828c4426fe1","ios":"levelo://app?vid=33155caa-8021-4913-a666-e828c4426fe1"},"vehicle_type_id":"4","last_reported":1770117918,"current_range_meters":6000,"station_id":"ce4bhu92rcd13ifvqi70","pricing_plan_id":"cebpf4jnsgd1na2vs0mg"},{"bike_id":"c04d02e9-4522-4664-80d1-72f19e30f66b","system_id":"levelo_inurba_marseille","lat":43.25307,"lon":5.38596,"is_reserved":false,"is_disabled":false,"rental_uris":{"android":"levelo://app?vid=c04d02e9-4522-4664-80d1-72f19e30f66b","ios":"levelo://app?vid=c04d02e9-4522-4664-80d1-72f19e30f66b"},"vehicle_type_id":"4","last_reported":1770117918,"current_range_meters":6000,"station_id":"","pricing_plan_id":"cebpf4jnsgd1na2vs0mg"},{"bike_id":"28db925e-827f-4615-ad06-689ebc89cd6c","system_id":"levelo_inurba_marseille","lat":43.26553,"lon":5.37282,"is_reserved":false,"is_disabled":false,"rental_uris":{"android":"levelo://app?vid=28db925e-827f-4615-ad06-689ebc89cd6c","ios":"levelo://app?vid=28db925e-827f-4615-ad06-689ebc89cd6c"},"vehicle_type_id":"4","last_reported":1770117918,"current_range_meters":6000,"station_id":"ce4bhg12rcd13ifvqf70","pricing_plan_id":"cebpf4jnsgd1na2vs0mg"},{"bike_id":"4dd6841e-e470-4207-bb73-65a47c0e81c5","system_id":"levelo_inurba_marseille","lat":43.31151,"lon":5.38027,"is_reserved":false,"is_disabled":false,"rental_uris":{"android":"levelo://app?vid=4dd6841e-e470-4207-bb73-65a47c0e81c5","ios":"levelo://app?vid=4dd6841e-e470-4207-bb73-65a47c0e81c5"},"vehicle_type_id":"4","last_reported":1770117918,"current_range_meters":6000,"station_id":"","pricing_plan_id":"cebpf4jnsgd1na2vs0mg"},{"bike_id":"eee54609-a6c8-4bc7-a936-6a1b442519d3","system_id":"levelo_inurba_marseille","lat":43.310472,"lon":5.371714,"is_reserved":false,"is_disabled":false,"rental_uris":{"android":"levelo://app?vid=eee54609-a6c8-4bc7-a936-6a1b442519d3","ios":"levelo://app?vid=eee54609-a6c8-4bc7-a936-6a1b442519d3"},"vehicle_type_id":"4","last_reported":1770117918,"current_range_meters":6400,"station_id":"st_d4kl2rp97mjs73e7tdfg","pricing_plan_id":"cebpf4jnsgd1na2vs0mg"},{"bike_id":"02b06200-6f0c-4fbe-a288-f34e85c983a1","system_id":"levelo_inurba_marseille","lat":43.23786,"lon":5.36628,"is_reserved":false,"is_disabled":false,"rental_uris":{"android":"levelo://app?vid=02b06200-6f0c-4fbe-a288-f34e85c983a1","ios":"levelo://app?vid=02b06200-6f0c-4fbe-a288-f34e85c983a1"},"vehicle_type_id":"4","last_reported":1770117918,"current_range_meters":6400,"station_id":"st_d3nk18o9ro0c73en2l3g","pricing_plan_id":"cebpf4jnsgd1na2vs0mg"},{"bike_id":"7b45ea02-6dd9-45da-8c48-af6be5cff14f","system_id":"levelo_inurba_marseille","lat":43.290039,"lon":5.356079,"is_reserved":false,"is_disabled":false,"rental_uris":{"android":"levelo://app?vid=7b45ea02-6dd9-45da-8c48-af6be5cff14f","ios":"levelo://app?vid=7b45ea02-6dd9-45da-8c48-af6be5cff14f"},"vehicle_type_id":"4","last_reported":1770117918,"current_range_meters":6400,"station_id":"ce4bhb92rcd13ifvqen0","pricing_plan_id":"cebpf4jnsgd1na2vs0mg"},{"bike_id":"1fcb3605-dc80-4e48-a9ab-7eb5b9b9a17e","system_id":"levelo_inurba_marseille","lat":43.284198,"lon":5.349948,"is_reserved":false,"is_disabled":false,"rental_uris":{"android":"levelo://app?vid=1fcb3605-dc80-4e48-a9ab-7eb5b9b9a17e","ios":"levelo://app?vid=1fcb3605-dc80-4e48-a9ab-7eb5b9b9a17e"},"vehicle_type_id":"4","last_reported":1770117918,"current_range_meters":6400,"station_id":"ce4bhbh2rcd13ifvqepg","pricing_plan_id":"cebpf4jnsgd1na2vs0mg"},{"bike_id":"3b15ef1d-d491-4377-b134-a5b139ed4414","system_id":"levelo_inurba_marseille","lat":43.294,"lon":5.37422,"is_reserved":false,"is_disabled":false,"rental_uris":{"android":"levelo://app?vid=3b15ef1d-d491-4377-b134-a5b139ed4414","ios":"levelo://app?vid=3b15ef1d-d491-4377-b134-a5b139ed4414"},"vehicle_type_id":"4","last_reported":1770117918,"current_range_meters":6400,"station_id":"","pricing_plan_id":"cebpf4jnsgd1na2vs0mg"},{"bike_id":"9436c3fb-a74e-4fd5-8b2a-988e84b82382","system_id":"levelo_inurba_marseille","lat":43.24135,"lon":5.39731,"is_reserved":false,"is_disabled":false,"rental_uris":{"android":"levelo://app?vid=9436c3fb-a74e-4fd5-8b2a-988e84b82382","ios":"levelo://app?vid=9436c3fb-a74e-4fd5-8b2a-988e84b82382"},"vehicle_type_id":"4","last_reported":1770117918,"current_range_meters":6400,"station_id":"ce4bhn12rcd13ifvqgpg","pricing_plan_id":"cebpf4jnsgd1na2vs0mg"},{"bike_id":"0c736300-dc01-46d4-b04c-c2dc27bfc45c","system_id":"levelo_inurba_marseille","lat":43.315,"lon":5.37313,"is_reserved":false,"is_disabled":false,"rental_uris":{"android":"levelo://app?vid=0c736300-dc01-46d4-b04c-c2dc27bfc45c","ios":"levelo://app?vid=0c736300-dc01-46d4-b04c-c2dc27bfc45c"},"vehicle_type_id":"4","last_reported":1770117918,"current_range_meters":6400,"station_id":"ce4bgt12rcd13ifvqcd0","pricing_plan_id":"cebpf4jnsgd1na2vs0mg"},{"bike_id":"01901227-7a3f-439a-8193-5a71e4765ef9","system_id":"levelo_inurba_marseille","lat":43.286145,"lon":5.35105,"is_reserved":false,"is_disabled":false,"rental_uris":{"android":"levelo://app?vid=01901227-7a3f-439a-8193-5a71e4765ef9","ios":"levelo://app?vid=01901227-7a3f-439a-8193-5a71e4765ef9"},"vehicle_type_id":"4","last_reported":1770117918,"current_range_meters":6400,"station_id":"ce4bhch2rcd13ifvqeug","pricing_plan_id":"cebpf4jnsgd1na2vs0mg"},{"bike_id":"8c57b3f8-4314-4c54-b880-d076bee033fb","system_id":"levelo_inurba_marseille","lat":43.23141,"lon":5.43765,"is_reserved":false,"is_disabled":false,"rental_uris":{"android":"levelo://app?vid=8c57b3f8-4314-4c54-b880-d076bee033fb","ios":"levelo://app?vid=8c57b3f8-4314-4c54-b880-d076bee033fb"},"vehicle_type_id":"4","last_reported":1770117918,"current_range_meters":6800,"station_id":"","pricing_plan_id":"cebpf4jnsgd1na2vs0mg"},{"bike_id":"36f99ab9-be41-418f-a6d5-1dfe029da702","system_id":"levelo_inurba_marseille","lat":43.28697,"lon":5.37924,"is_reserved":false,"is_disabled":false,"rental_uris":{"android":"levelo://app?vid=36f99ab9-be41-418f-a6d5-1dfe029da702","ios":"levelo://app?vid=36f99ab9-be41-418f-a6d5-1dfe029da702"},"vehicle_type_id":"4","last_reported":1770117918,"current_range_meters":6800,"station_id":"ce4bh9p2rcd13ifvqec0","pricing_plan_id":"cebpf4jnsgd1na2vs0mg"},{"bike_id":"88fc1a1b-5aec-42b4-85d5-f5ef23f49eec","system_id":"levelo_inurba_marseille","lat":43.265727,"lon":5.390264,"is_reserved":false,"is_disabled":false,"rental_uris":{"android":"levelo://app?vid=88fc1a1b-5aec-42b4-85d5-f5ef23f49eec","ios":"levelo://app?vid=88fc1a1b-5aec-42b4-85d5-f5ef23f49eec"},"vehicle_type_id":"4","last_reported":1770117918,"current_range_meters":6800,"station_id":"ce4bhe12rcd13ifvqf30","pricing_plan_id":"cebpf4jnsgd1na2vs0mg"},{"bike_id":"cef9edb7-4d2e-4ab7-9675-6b816e961933","system_id":"levelo_inurba_marseille","lat":43.241829,"lon":5.397201,"is_reserved":false,"is_disabled":false,"rental_uris":{"android":"levelo://app?vid=cef9edb7-4d2e-4ab7-9675-6b816e961933","ios":"levelo://app?vid=cef9edb7-4d2e-4ab7-9675-6b816e961933"},"vehicle_type_id":"4","last_reported":1770117918,"current_range_meters":6800,"station_id":"ce4bhn12rcd13ifvqgpg","pricing_plan_id":"cebpf4jnsgd1na2vs0mg"},{"bike_id":"68d2a9d1-2044-4f9c-8e7b-e4d9640d90af","system_id":"levelo_inurba_marseille","lat":43.2971,"lon":5.37957,"is_reserved":false,"is_disabled":false,"rental_uris":{"android":"levelo://app?vid=68d2a9d1-2044-4f9c-8e7b-e4d9640d90af","ios":"levelo://app?vid=68d2a9d1-2044-4f9c-8e7b-e4d9640d90af"},"vehicle_type_id":"4","last_reported":1770117918,"current_range_meters":6800,"station_id":"","pricing_plan_id":"cebpf4jnsgd1na2vs0mg"},{"bike_id":"fe2e49c8-5375-4394-815b-bc5a5aa8c58a","system_id":"levelo_inurba_marseille","lat":43.27496,"lon":5.42458,"is_reserved":false,"is_disabled":false,"rental_uris":{"android":"levelo://app?vid=fe2e49c8-5375-4394-815b-bc5a5aa8c58a","ios":"levelo://app?vid=fe2e49c8-5375-4394-815b-bc5a5aa8c58a"},"vehicle_type_id":"4","last_reported":1770117918,"current_range_meters":6800,"station_id":"ce4bhn92rcd13ifvqgrg","pricing_plan_id":"cebpf4jnsgd1na2vs0mg"},{"bike_id":"fc19dd51-abab-466a-9c15-e4e13f94f916","system_id":"levelo_inurba_marseille","lat":43.2976,"lon":5.42785,"is_reserved":false,"is_disabled":false,"rental_uris":{"android":"levelo://app?vid=fc19dd51-abab-466a-9c15-e4e13f94f916","ios":"levelo://app?vid=fc19dd51-abab-466a-9c15-e4e13f94f916"},"vehicle_type_id":"4","last_reported":1770117918,"current_range_meters":6800,"station_id":"st_d3md5207bmas73dh9klg","pricing_plan_id":"cebpf4jnsgd1na2vs0mg"},{"bike_id":"6ddf7e79-fc33-436a-9f2e-0297899e5607","system_id":"levelo_inurba_marseille","lat":43.28484,"lon":5.48392,"is_reserved":false,"is_disabled":false,"rental_uris":{"android":"levelo://app?vid=6ddf7e79-fc33-436a-9f2e-0297899e5607","ios":"levelo://app?vid=6ddf7e79-fc33-436a-9f2e-0297899e5607"},"vehicle_type_id":"4","last_reported":1770117918,"current_range_meters":6800,"station_id":"st_d3svhcjqgbts73a3dn0g","pricing_plan_id":"cebpf4jnsgd1na2vs0mg"},{"bike_id":"f09aff27-aef2-4306-8f70-387ef37b8e43","system_id":"levelo_inurba_marseille","lat":43.28268,"lon":5.3506,"is_reserved":false,"is_disabled":false,"rental_uris":{"android":"levelo://app?vid=f09aff27-aef2-4306-8f70-387ef37b8e43","ios":"levelo://app?vid=f09aff27-aef2-4306-8f70-387ef37b8e43"},"vehicle_type_id":"4","last_reported":1770117918,"current_range_meters":6800,"station_id":"ce4bhbp2rcd13ifvqerg","pricing_plan_id":"cebpf4jnsgd1na2vs0mg"},{"bike_id":"3d6f90fc-8ddc-4b07-82c7-3d61fb02f9d1","system_id":"levelo_inurba_marseille","lat":43.2738,"lon":5.36263,"is_reserved":false,"is_disabled":false,"rental_uris":{"android":"levelo://app?vid=3d6f90fc-8ddc-4b07-82c7-3d61fb02f9d1","ios":"levelo://app?vid=3d6f90fc-8ddc-4b07-82c7-3d61fb02f9d1"},"vehicle_type_id":"4","last_reported":1770117918,"current_range_meters":6800,"station_id":"ce4bhbh2rcd13ifvqeo0","pricing_plan_id":"cebpf4jnsgd1na2vs0mg"},{"bike_id":"c5cba592-c8ea-4299-867c-e35aceae73bc","system_id":"levelo_inurba_marseille","lat":43.31755,"lon":5.39027,"is_reserved":false,"is_disabled":false,"rental_uris":{"android":"levelo://app?vid=c5cba592-c8ea-4299-867c-e35aceae73bc","ios":"levelo://app?vid=c5cba592-c8ea-4299-867c-e35aceae73bc"},"vehicle_type_id":"4","last_reported":1770117918,"current_range_meters":6800,"station_id":"ce4bhqp2rcd13ifvqhng","pricing_plan_id":"cebpf4jnsgd1na2vs0mg"},{"bike_id":"33b20c66-c661-4ce7-988e-997b9775178e","system_id":"levelo_inurba_marseille","lat":43.27506,"lon":5.42461,"is_reserved":false,"is_disabled":false,"rental_uris":{"android":"levelo://app?vid=33b20c66-c661-4ce7-988e-997b9775178e","ios":"levelo://app?vid=33b20c66-c661-4ce7-988e-997b9775178e"},"vehicle_type_id":"4","last_reported":1770117918,"current_range_meters":6800,"station_id":"ce4bhn92rcd13ifvqgrg","pricing_plan_id":"cebpf4jnsgd1na2vs0mg"},{"bike_id":"c23a7977-ffc6-4873-ae97-6ca27725df84","system_id":"levelo_inurba_marseille","lat":43.292807,"lon":5.368557,"is_reserved":false,"is_disabled":false,"rental_uris":{"android":"levelo://app?vid=c23a7977-ffc6-4873-ae97-6ca27725df84","ios":"levelo://app?vid=c23a7977-ffc6-4873-ae97-6ca27725df84"},"vehicle_type_id":"4","last_reported":1770117918,"current_range_meters":6800,"station_id":"ce4bhbp2rcd13ifvqesg","pricing_plan_id":"cebpf4jnsgd1na2vs0mg"},{"bike_id":"f8e7e4d9-f87a-42a2-9144-b6886b943f25","system_id":"levelo_inurba_marseille","lat":43.25,"lon":5.38937,"is_reserved":false,"is_disabled":false,"rental_uris":{"android":"levelo://app?vid=f8e7e4d9-f87a-42a2-9144-b6886b943f25","ios":"levelo://app?vid=f8e7e4d9-f87a-42a2-9144-b6886b943f25"},"vehicle_type_id":"4","last_reported":1770117918,"current_range_meters":7200,"station_id":"ce4bhgp2rcd13ifvqfd0","pricing_plan_id":"cebpf4jnsgd1na2vs0mg"},{"bike_id":"5726168e-5691-4dd3-8ef9-50c5240b4034","system_id":"levelo_inurba_marseille","lat":43.32479,"lon":5.3657,"is_reserved":false,"is_disabled":false,"rental_uris":{"android":"levelo://app?vid=5726168e-5691-4dd3-8ef9-50c5240b4034","ios":"levelo://app?vid=5726168e-5691-4dd3-8ef9-50c5240b4034"},"vehicle_type_id":"4","last_reported":1770117918,"current_range_meters":7200,"station_id":"ce4bhs12rcd13ifvqhvg","pricing_plan_id":"cebpf4jnsgd1na2vs0mg"},{"bike_id":"f4b808be-310f-4e93-8154-0db49ce85868","system_id":"levelo_inurba_marseille","lat":43.23187,"lon":5.35548,"is_reserved":false,"is_disabled":false,"rental_uris":{"android":"levelo://app?vid=f4b808be-310f-4e93-8154-0db49ce85868","ios":"levelo://app?vid=f4b808be-310f-4e93-8154-0db49ce85868"},"vehicle_type_id":"4","last_reported":1770117918,"current_range_meters":7200,"station_id":"ce4bhu92rcd13ifvqi70","pricing_plan_id":"cebpf4jnsgd1na2vs0mg"},{"bike_id":"67949cb0-ad73-42aa-8494-c2a7d6735f87","system_id":"levelo_inurba_marseille","lat":43.31187,"lon":5.36847,"is_reserved":false,"is_disabled":false,"rental_uris":{"android":"levelo://app?vid=67949cb0-ad73-42aa-8494-c2a7d6735f87","ios":"levelo://app?vid=67949cb0-ad73-42aa-8494-c2a7d6735f87"},"vehicle_type_id":"4","last_reported":1770117918,"current_range_meters":7200,"station_id":"ce4bgl92rcd13ifvqbq0","pricing_plan_id":"cebpf4jnsgd1na2vs0mg"},{"bike_id":"c42f2b39-ad01-446e-8300-846276cf6895","system_id":"levelo_inurba_marseille","lat":43.30542,"lon":5.36523,"is_reserved":false,"is_disabled":false,"rental_uris":{"android":"levelo://app?vid=c42f2b39-ad01-446e-8300-846276cf6895","ios":"levelo://app?vid=c42f2b39-ad01-446e-8300-846276cf6895"},"vehicle_type_id":"4","last_reported":1770117918,"current_range_meters":7200,"station_id":"ce4bgs12rcd13ifvqcag","pricing_plan_id":"cebpf4jnsgd1na2vs0mg"},{"bike_id":"dca930cd-8edd-4084-aa6f-af5fb496ef62","system_id":"levelo_inurba_marseille","lat":43.25337,"lon":5.42165,"is_reserved":false,"is_disabled":false,"rental_uris":{"android":"levelo://app?vid=dca930cd-8edd-4084-aa6f-af5fb496ef62","ios":"levelo://app?vid=dca930cd-8edd-4084-aa6f-af5fb496ef62"},"vehicle_type_id":"4","last_reported":1770117918,"current_range_meters":7200,"station_id":"st_d2m65c5bi1j21697t3ng","pricing_plan_id":"cebpf4jnsgd1na2vs0mg"},{"bike_id":"5557e373-1f54-468a-b6d0-b2632c07e6bf","system_id":"levelo_inurba_marseille","lat":43.30544,"lon":5.3843,"is_reserved":false,"is_disabled":false,"rental_uris":{"android":"levelo://app?vid=5557e373-1f54-468a-b6d0-b2632c07e6bf","ios":"levelo://app?vid=5557e373-1f54-468a-b6d0-b2632c07e6bf"},"vehicle_type_id":"4","last_reported":1770117918,"current_range_meters":7200,"station_id":"ce4bgg92rcd13ifvqb30","pricing_plan_id":"cebpf4jnsgd1na2vs0mg"},{"bike_id":"97da94e8-6710-449e-b681-519d523f1bd3","system_id":"levelo_inurba_marseille","lat":43.24074,"lon":5.37738,"is_reserved":false,"is_disabled":false,"rental_uris":{"android":"levelo://app?vid=97da94e8-6710-449e-b681-519d523f1bd3","ios":"levelo://app?vid=97da94e8-6710-449e-b681-519d523f1bd3"},"vehicle_type_id":"4","last_reported":1770117918,"current_range_meters":7200,"station_id":"ce4bhnp2rcd13ifvqgvg","pricing_plan_id":"cebpf4jnsgd1na2vs0mg"},{"bike_id":"f151dc98-33b5-4246-8c7d-11decedd59f3","system_id":"levelo_inurba_marseille","lat":43.30379,"lon":5.42515,"is_reserved":false,"is_disabled":false,"rental_uris":{"android":"levelo://app?vid=f151dc98-33b5-4246-8c7d-11decedd59f3","ios":"levelo://app?vid=f151dc98-33b5-4246-8c7d-11decedd59f3"},"vehicle_type_id":"4","last_reported":1770117918,"current_range_meters":7200,"station_id":"ce4bhoh2rcd13ifvqh6g","pricing_plan_id":"cebpf4jnsgd1na2vs0mg"},{"bike_id":"be616c8a-7d9f-44f2-9914-b719781dfdee","system_id":"levelo_inurba_marseille","lat":43.239679,"lon":5.366343,"is_reserved":false,"is_disabled":false,"rental_uris":{"android":"levelo://app?vid=be616c8a-7d9f-44f2-9914-b719781dfdee","ios":"levelo://app?vid=be616c8a-7d9f-44f2-9914-b719781dfdee"},"vehicle_type_id":"4","last_reported":1770117918,"current_range_meters":7200,"station_id":"ce4bhi12rcd13ifvqfp0","pricing_plan_id":"cebpf4jnsgd1na2vs0mg"},{"bike_id":"c0368eb4-2cac-495e-bbba-60f825e49fc3","system_id":"levelo_inurba_marseille","lat":43.296499,"lon":5.375091,"is_reserved":false,"is_disabled":false,"rental_uris":{"android":"levelo://app?vid=c0368eb4-2cac-495e-bbba-60f825e49fc3","ios":"levelo://app?vid=c0368eb4-2cac-495e-bbba-60f825e49fc3"},"vehicle_type_id":"4","last_reported":1770117918,"current_range_meters":7200,"station_id":"ce4bgkh2rcd13ifvqbl0","pricing_plan_id":"cebpf4jnsgd1na2vs0mg"},{"bike_id":"549d637b-91c5-48ec-83fa-865a463b6a4b","system_id":"levelo_inurba_marseille","lat":43.23195,"lon":5.35564,"is_reserved":false,"is_disabled":false,"rental_uris":{"android":"levelo://app?vid=549d637b-91c5-48ec-83fa-865a463b6a4b","ios":"levelo://app?vid=549d637b-91c5-48ec-83fa-865a463b6a4b"},"vehicle_type_id":"4","last_reported":1770117918,"current_range_meters":7200,"station_id":"ce4bhu92rcd13ifvqi70","pricing_plan_id":"cebpf4jnsgd1na2vs0mg"},{"bike_id":"e9c5afc7-c303-4df3-a0d1-811595814b02","system_id":"levelo_inurba_marseille","lat":43.240697,"lon":5.377588,"is_reserved":false,"is_disabled":false,"rental_uris":{"android":"levelo://app?vid=e9c5afc7-c303-4df3-a0d1-811595814b02","ios":"levelo://app?vid=e9c5afc7-c303-4df3-a0d1-811595814b02"},"vehicle_type_id":"4","last_reported":1770117918,"current_range_meters":7200,"station_id":"ce4bhnp2rcd13ifvqgvg","pricing_plan_id":"cebpf4jnsgd1na2vs0mg"},{"bike_id":"34e4497e-004e-4d33-b563-df43c3f1dff0","system_id":"levelo_inurba_marseille","lat":43.29166,"lon":5.38845,"is_reserved":false,"is_disabled":false,"rental_uris":{"android":"levelo://app?vid=34e4497e-004e-4d33-b563-df43c3f1dff0","ios":"levelo://app?vid=34e4497e-004e-4d33-b563-df43c3f1dff0"},"vehicle_type_id":"4","last_reported":1770117918,"current_range_meters":7200,"station_id":"ce4bh4p2rcd13ifvqe0g","pricing_plan_id":"cebpf4jnsgd1na2vs0mg"},{"bike_id":"deb9e4eb-a481-4dbd-9838-7e21c4114a77","system_id":"levelo_inurba_marseille","lat":43.246457,"lon":5.388883,"is_reserved":false,"is_disabled":false,"rental_uris":{"android":"levelo://app?vid=deb9e4eb-a481-4dbd-9838-7e21c4114a77","ios":"levelo://app?vid=deb9e4eb-a481-4dbd-9838-7e21c4114a77"},"vehicle_type_id":"4","last_reported":1770117918,"current_range_meters":7200,"station_id":"ce4bhg12rcd13ifvqf60","pricing_plan_id":"cebpf4jnsgd1na2vs0mg"},{"bike_id":"9cbcf585-a58e-4938-b69e-d4c3022c57ef","system_id":"levelo_inurba_marseille","lat":43.24076,"lon":5.37717,"is_reserved":false,"is_disabled":false,"rental_uris":{"android":"levelo://app?vid=9cbcf585-a58e-4938-b69e-d4c3022c57ef","ios":"levelo://app?vid=9cbcf585-a58e-4938-b69e-d4c3022c57ef"},"vehicle_type_id":"4","last_reported":1770117918,"current_range_meters":7200,"station_id":"ce4bhnp2rcd13ifvqgvg","pricing_plan_id":"cebpf4jnsgd1na2vs0mg"},{"bike_id":"032d1622-f10e-4e31-9323-899def03e537","system_id":"levelo_inurba_marseille","lat":43.31062,"lon":5.37189,"is_reserved":false,"is_disabled":true,"rental_uris":{"android":"levelo://app?vid=032d1622-f10e-4e31-9323-899def03e537","ios":"levelo://app?vid=032d1622-f10e-4e31-9323-899def03e537"},"vehicle_type_id":"4","last_reported":1770117918,"current_range_meters":7200,"station_id":"","pricing_plan_id":"cebpf4jnsgd1na2vs0mg"},{"bike_id":"85699543-7712-4eb1-9147-51a0b81a24dc","system_id":"levelo_inurba_marseille","lat":43.249948,"lon":5.389413,"is_reserved":false,"is_disabled":false,"rental_uris":{"android":"levelo://app?vid=85699543-7712-4eb1-9147-51a0b81a24dc","ios":"levelo://app?vid=85699543-7712-4eb1-9147-51a0b81a24dc"},"vehicle_type_id":"4","last_reported":1770117918,"current_range_meters":7200,"station_id":"ce4bhgp2rcd13ifvqfd0","pricing_plan_id":"cebpf4jnsgd1na2vs0mg"},{"bike_id":"36b819bc-afea-4caa-adde-15e0cf713e1f","system_id":"levelo_inurba_marseille","lat":43.26212,"lon":5.37939,"is_reserved":false,"is_disabled":false,"rental_uris":{"android":"levelo://app?vid=36b819bc-afea-4caa-adde-15e0cf713e1f","ios":"levelo://app?vid=36b819bc-afea-4caa-adde-15e0cf713e1f"},"vehicle_type_id":"4","last_reported":1770117918,"current_range_meters":7200,"station_id":"ce4bhjp2rcd13ifvqg90","pricing_plan_id":"cebpf4jnsgd1na2vs0mg"},{"bike_id":"151047fe-b117-41cf-9416-4f91d0d3c1a9","system_id":"levelo_inurba_marseille","lat":43.31856,"lon":5.36908,"is_reserved":false,"is_disabled":false,"rental_uris":{"android":"levelo://app?vid=151047fe-b117-41cf-9416-4f91d0d3c1a9","ios":"levelo://app?vid=151047fe-b117-41cf-9416-4f91d0d3c1a9"},"vehicle_type_id":"4","last_reported":1770117918,"current_range_meters":8000,"station_id":"","pricing_plan_id":"cebpf4jnsgd1na2vs0mg"},{"bike_id":"08d22f81-17af-4b92-a3f0-62e0480f3ecb","system_id":"levelo_inurba_marseille","lat":43.28606,"lon":5.35105,"is_reserved":false,"is_disabled":false,"rental_uris":{"android":"levelo://app?vid=08d22f81-17af-4b92-a3f0-62e0480f3ecb","ios":"levelo://app?vid=08d22f81-17af-4b92-a3f0-62e0480f3ecb"},"vehicle_type_id":"4","last_reported":1770117918,"current_range_meters":8000,"station_id":"ce4bhch2rcd13ifvqeug","pricing_plan_id":"cebpf4jnsgd1na2vs0mg"},{"bike_id":"8300bb2e-96f4-4e9e-92a9-a4d1e04694a4","system_id":"levelo_inurba_marseille","lat":43.23143,"lon":5.43719,"is_reserved":false,"is_disabled":false,"rental_uris":{"android":"levelo://app?vid=8300bb2e-96f4-4e9e-92a9-a4d1e04694a4","ios":"levelo://app?vid=8300bb2e-96f4-4e9e-92a9-a4d1e04694a4"},"vehicle_type_id":"4","last_reported":1770117918,"current_range_meters":8000,"station_id":"ce4bhmp2rcd13ifvqgog","pricing_plan_id":"cebpf4jnsgd1na2vs0mg"},{"bike_id":"fa504def-a51b-4d0f-ba89-ecf8877406bf","system_id":"levelo_inurba_marseille","lat":43.29524,"lon":5.39033,"is_reserved":false,"is_disabled":false,"rental_uris":{"android":"levelo://app?vid=fa504def-a51b-4d0f-ba89-ecf8877406bf","ios":"levelo://app?vid=fa504def-a51b-4d0f-ba89-ecf8877406bf"},"vehicle_type_id":"4","last_reported":1770117918,"current_range_meters":8000,"station_id":"ce4bh3p2rcd13ifvqdp0","pricing_plan_id":"cebpf4jnsgd1na2vs0mg"},{"bike_id":"fd4003f9-ae57-43d9-af54-09e855d38b22","system_id":"levelo_inurba_marseille","lat":43.28537,"lon":5.44092,"is_reserved":false,"is_disabled":false,"rental_uris":{"android":"levelo://app?vid=fd4003f9-ae57-43d9-af54-09e855d38b22","ios":"levelo://app?vid=fd4003f9-ae57-43d9-af54-09e855d38b22"},"vehicle_type_id":"4","last_reported":1770117918,"current_range_meters":8000,"station_id":"st_d3j3df2ikq2c7380ej80","pricing_plan_id":"cebpf4jnsgd1na2vs0mg"},{"bike_id":"006a308e-2968-4fef-b0b0-3fcff57c6fd4","system_id":"levelo_inurba_marseille","lat":43.2722,"lon":5.39185,"is_reserved":false,"is_disabled":false,"rental_uris":{"android":"levelo://app?vid=006a308e-2968-4fef-b0b0-3fcff57c6fd4","ios":"levelo://app?vid=006a308e-2968-4fef-b0b0-3fcff57c6fd4"},"vehicle_type_id":"4","last_reported":1770117918,"current_range_meters":8000,"station_id":"ce4bhhp2rcd13ifvqfm0","pricing_plan_id":"cebpf4jnsgd1na2vs0mg"},{"bike_id":"c3ba0fed-3d29-4191-b8a3-c899b1e9e5ad","system_id":"levelo_inurba_marseille","lat":43.25591,"lon":5.38253,"is_reserved":false,"is_disabled":false,"rental_uris":{"android":"levelo://app?vid=c3ba0fed-3d29-4191-b8a3-c899b1e9e5ad","ios":"levelo://app?vid=c3ba0fed-3d29-4191-b8a3-c899b1e9e5ad"},"vehicle_type_id":"4","last_reported":1770117918,"current_range_meters":8000,"station_id":"ce4bhih2rcd13ifvqfs0","pricing_plan_id":"cebpf4jnsgd1na2vs0mg"},{"bike_id":"5d2a7df9-4ddf-4885-8075-b7755ef05fb8","system_id":"levelo_inurba_marseille","lat":43.23048,"lon":5.40295,"is_reserved":false,"is_disabled":false,"rental_uris":{"android":"levelo://app?vid=5d2a7df9-4ddf-4885-8075-b7755ef05fb8","ios":"levelo://app?vid=5d2a7df9-4ddf-4885-8075-b7755ef05fb8"},"vehicle_type_id":"4","last_reported":1770117918,"current_range_meters":8000,"station_id":"","pricing_plan_id":"cebpf4jnsgd1na2vs0mg"},{"bike_id":"658d0b20-6292-4d6c-85b2-b3938e69fd12","system_id":"levelo_inurba_marseille","lat":43.28266,"lon":5.38577,"is_reserved":false,"is_disabled":false,"rental_uris":{"android":"levelo://app?vid=658d0b20-6292-4d6c-85b2-b3938e69fd12","ios":"levelo://app?vid=658d0b20-6292-4d6c-85b2-b3938e69fd12"},"vehicle_type_id":"4","last_reported":1770117918,"current_range_meters":8000,"station_id":"","pricing_plan_id":"cebpf4jnsgd1na2vs0mg"},{"bike_id":"e40af1ac-84eb-4104-884b-638a0d49d653","system_id":"levelo_inurba_marseille","lat":43.27206,"lon":5.39186,"is_reserved":false,"is_disabled":false,"rental_uris":{"android":"levelo://app?vid=e40af1ac-84eb-4104-884b-638a0d49d653","ios":"levelo://app?vid=e40af1ac-84eb-4104-884b-638a0d49d653"},"vehicle_type_id":"4","last_reported":1770117918,"current_range_meters":8000,"station_id":"ce4bhhp2rcd13ifvqfm0","pricing_plan_id":"cebpf4jnsgd1na2vs0mg"},{"bike_id":"d8928f4f-435a-4ca5-acc4-cd5bcabdf64d","system_id":"levelo_inurba_marseille","lat":43.305217,"lon":5.366385,"is_reserved":false,"is_disabled":false,"rental_uris":{"android":"levelo://app?vid=d8928f4f-435a-4ca5-acc4-cd5bcabdf64d","ios":"levelo://app?vid=d8928f4f-435a-4ca5-acc4-cd5bcabdf64d"},"vehicle_type_id":"4","last_reported":1770117918,"current_range_meters":8000,"station_id":"ce4bgs12rcd13ifvqcag","pricing_plan_id":"cebpf4jnsgd1na2vs0mg"},{"bike_id":"bcbaa8a6-886f-4091-ae26-8ec7b68ef274","system_id":"levelo_inurba_marseille","lat":43.237961,"lon":5.366357,"is_reserved":false,"is_disabled":false,"rental_uris":{"android":"levelo://app?vid=bcbaa8a6-886f-4091-ae26-8ec7b68ef274","ios":"levelo://app?vid=bcbaa8a6-886f-4091-ae26-8ec7b68ef274"},"vehicle_type_id":"4","last_reported":1770117918,"current_range_meters":8000,"station_id":"st_d3nk18o9ro0c73en2l3g","pricing_plan_id":"cebpf4jnsgd1na2vs0mg"},{"bike_id":"9c701165-18e9-44e3-b96d-dc7aa8141764","system_id":"levelo_inurba_marseille","lat":43.30883,"lon":5.39638,"is_reserved":false,"is_disabled":false,"rental_uris":{"android":"levelo://app?vid=9c701165-18e9-44e3-b96d-dc7aa8141764","ios":"levelo://app?vid=9c701165-18e9-44e3-b96d-dc7aa8141764"},"vehicle_type_id":"4","last_reported":1770117918,"current_range_meters":8000,"station_id":"ce4bh012rcd13ifvqcv0","pricing_plan_id":"cebpf4jnsgd1na2vs0mg"},{"bike_id":"98c71c48-b767-4dd1-a7a2-248046efb8eb","system_id":"levelo_inurba_marseille","lat":43.30785,"lon":5.37647,"is_reserved":false,"is_disabled":false,"rental_uris":{"android":"levelo://app?vid=98c71c48-b767-4dd1-a7a2-248046efb8eb","ios":"levelo://app?vid=98c71c48-b767-4dd1-a7a2-248046efb8eb"},"vehicle_type_id":"4","last_reported":1770117918,"current_range_meters":8000,"station_id":"ce4bgv92rcd13ifvqcq0","pricing_plan_id":"cebpf4jnsgd1na2vs0mg"},{"bike_id":"1e18de4d-43f8-4d9b-8e22-41974ddf36d0","system_id":"levelo_inurba_marseille","lat":43.3354,"lon":5.37463,"is_reserved":false,"is_disabled":false,"rental_uris":{"android":"levelo://app?vid=1e18de4d-43f8-4d9b-8e22-41974ddf36d0","ios":"levelo://app?vid=1e18de4d-43f8-4d9b-8e22-41974ddf36d0"},"vehicle_type_id":"4","last_reported":1770117918,"current_range_meters":8000,"station_id":"st_d46tts09ee8s73dlu43g","pricing_plan_id":"cebpf4jnsgd1na2vs0mg"},{"bike_id":"43e0997d-11f5-4acb-99fb-b7f34e828e5e","system_id":"levelo_inurba_marseille","lat":43.32508,"lon":5.38319,"is_reserved":false,"is_disabled":false,"rental_uris":{"android":"levelo://app?vid=43e0997d-11f5-4acb-99fb-b7f34e828e5e","ios":"levelo://app?vid=43e0997d-11f5-4acb-99fb-b7f34e828e5e"},"vehicle_type_id":"4","last_reported":1770117918,"current_range_meters":8000,"station_id":"st_d4asgbiv49dc73anf9m0","pricing_plan_id":"cebpf4jnsgd1na2vs0mg"},{"bike_id":"f4751e73-dc3e-4172-8332-b7eb4a17da25","system_id":"levelo_inurba_marseille","lat":43.26554,"lon":5.37294,"is_reserved":false,"is_disabled":false,"rental_uris":{"android":"levelo://app?vid=f4751e73-dc3e-4172-8332-b7eb4a17da25","ios":"levelo://app?vid=f4751e73-dc3e-4172-8332-b7eb4a17da25"},"vehicle_type_id":"4","last_reported":1770117918,"current_range_meters":8000,"station_id":"ce4bhg12rcd13ifvqf70","pricing_plan_id":"cebpf4jnsgd1na2vs0mg"},{"bike_id":"1ca9b86e-15f7-45c3-87f8-7bc2ee340158","system_id":"levelo_inurba_marseille","lat":43.27492,"lon":5.424533,"is_reserved":false,"is_disabled":false,"rental_uris":{"android":"levelo://app?vid=1ca9b86e-15f7-45c3-87f8-7bc2ee340158","ios":"levelo://app?vid=1ca9b86e-15f7-45c3-87f8-7bc2ee340158"},"vehicle_type_id":"4","last_reported":1770117918,"current_range_meters":8400,"station_id":"ce4bhn92rcd13ifvqgrg","pricing_plan_id":"cebpf4jnsgd1na2vs0mg"},{"bike_id":"ef4a4c70-3fa0-4447-bf59-4b1a9906e283","system_id":"levelo_inurba_marseille","lat":43.31135,"lon":5.37762,"is_reserved":false,"is_disabled":false,"rental_uris":{"android":"levelo://app?vid=ef4a4c70-3fa0-4447-bf59-4b1a9906e283","ios":"levelo://app?vid=ef4a4c70-3fa0-4447-bf59-4b1a9906e283"},"vehicle_type_id":"4","last_reported":1770117918,"current_range_meters":8400,"station_id":"ce4bgt92rcd13ifvqcg0","pricing_plan_id":"cebpf4jnsgd1na2vs0mg"},{"bike_id":"b086223c-9f6a-4f38-81d5-3b227a7c618e","system_id":"levelo_inurba_marseille","lat":43.25084,"lon":5.39525,"is_reserved":false,"is_disabled":false,"rental_uris":{"android":"levelo://app?vid=b086223c-9f6a-4f38-81d5-3b227a7c618e","ios":"levelo://app?vid=b086223c-9f6a-4f38-81d5-3b227a7c618e"},"vehicle_type_id":"4","last_reported":1770117918,"current_range_meters":8400,"station_id":"ce4bhm12rcd13ifvqgkg","pricing_plan_id":"cebpf4jnsgd1na2vs0mg"},{"bike_id":"998500e1-c806-47bf-8d4c-0f7806fe2eea","system_id":"levelo_inurba_marseille","lat":43.24077,"lon":5.37771,"is_reserved":false,"is_disabled":false,"rental_uris":{"android":"levelo://app?vid=998500e1-c806-47bf-8d4c-0f7806fe2eea","ios":"levelo://app?vid=998500e1-c806-47bf-8d4c-0f7806fe2eea"},"vehicle_type_id":"4","last_reported":1770117918,"current_range_meters":8400,"station_id":"ce4bhnp2rcd13ifvqgvg","pricing_plan_id":"cebpf4jnsgd1na2vs0mg"},{"bike_id":"7f77f6a6-911c-44cf-97f5-71224b3633e0","system_id":"levelo_inurba_marseille","lat":43.25225,"lon":5.3803,"is_reserved":false,"is_disabled":false,"rental_uris":{"android":"levelo://app?vid=7f77f6a6-911c-44cf-97f5-71224b3633e0","ios":"levelo://app?vid=7f77f6a6-911c-44cf-97f5-71224b3633e0"},"vehicle_type_id":"4","last_reported":1770117918,"current_range_meters":8400,"station_id":"","pricing_plan_id":"cebpf4jnsgd1na2vs0mg"},{"bike_id":"28e0f41c-dbe9-454a-b95f-f6be12ae265e","system_id":"levelo_inurba_marseille","lat":43.28066,"lon":5.39652,"is_reserved":false,"is_disabled":false,"rental_uris":{"android":"levelo://app?vid=28e0f41c-dbe9-454a-b95f-f6be12ae265e","ios":"levelo://app?vid=28e0f41c-dbe9-454a-b95f-f6be12ae265e"},"vehicle_type_id":"4","last_reported":1770117918,"current_range_meters":8400,"station_id":"ce4bho12rcd13ifvqh2g","pricing_plan_id":"cebpf4jnsgd1na2vs0mg"},{"bike_id":"530b3fec-7af4-45eb-bf12-cc02b58eae44","system_id":"levelo_inurba_marseille","lat":43.24677,"lon":5.38159,"is_reserved":false,"is_disabled":false,"rental_uris":{"android":"levelo://app?vid=530b3fec-7af4-45eb-bf12-cc02b58eae44","ios":"levelo://app?vid=530b3fec-7af4-45eb-bf12-cc02b58eae44"},"vehicle_type_id":"4","last_reported":1770117918,"current_range_meters":8400,"station_id":"ce4bhih2rcd13ifvqfr0","pricing_plan_id":"cebpf4jnsgd1na2vs0mg"},{"bike_id":"5a9e6c2f-f38a-4f21-80e5-b6cdedc2416f","system_id":"levelo_inurba_marseille","lat":43.31736,"lon":5.40428,"is_reserved":false,"is_disabled":false,"rental_uris":{"android":"levelo://app?vid=5a9e6c2f-f38a-4f21-80e5-b6cdedc2416f","ios":"levelo://app?vid=5a9e6c2f-f38a-4f21-80e5-b6cdedc2416f"},"vehicle_type_id":"4","last_reported":1770117918,"current_range_meters":8400,"station_id":"","pricing_plan_id":"cebpf4jnsgd1na2vs0mg"},{"bike_id":"5b3811ef-5681-4c18-aac4-a62920f9a85c","system_id":"levelo_inurba_marseille","lat":43.28474,"lon":5.51498,"is_reserved":false,"is_disabled":false,"rental_uris":{"android":"levelo://app?vid=5b3811ef-5681-4c18-aac4-a62920f9a85c","ios":"levelo://app?vid=5b3811ef-5681-4c18-aac4-a62920f9a85c"},"vehicle_type_id":"4","last_reported":1770117918,"current_range_meters":8400,"station_id":"","pricing_plan_id":"cebpf4jnsgd1na2vs0mg"},{"bike_id":"444b7964-d637-4bc2-bbcf-ca0cd5725763","system_id":"levelo_inurba_marseille","lat":43.27328,"lon":5.39065,"is_reserved":false,"is_disabled":true,"rental_uris":{"android":"levelo://app?vid=444b7964-d637-4bc2-bbcf-ca0cd5725763","ios":"levelo://app?vid=444b7964-d637-4bc2-bbcf-ca0cd5725763"},"vehicle_type_id":"4","last_reported":1770117918,"current_range_meters":8400,"station_id":"ce4bhgp2rcd13ifvqfe0","pricing_plan_id":"cebpf4jnsgd1na2vs0mg"},{"bike_id":"4c7f8a28-857e-4592-bbe1-acfc605592d3","system_id":"levelo_inurba_marseille","lat":43.29228,"lon":5.42519,"is_reserved":false,"is_disabled":false,"rental_uris":{"android":"levelo://app?vid=4c7f8a28-857e-4592-bbe1-acfc605592d3","ios":"levelo://app?vid=4c7f8a28-857e-4592-bbe1-acfc605592d3"},"vehicle_type_id":"4","last_reported":1770117918,"current_range_meters":8400,"station_id":"","pricing_plan_id":"cebpf4jnsgd1na2vs0mg"},{"bike_id":"ae621ab1-7f09-408a-8487-c410d36c4119","system_id":"levelo_inurba_marseille","lat":43.26699,"lon":5.38263,"is_reserved":false,"is_disabled":false,"rental_uris":{"android":"levelo://app?vid=ae621ab1-7f09-408a-8487-c410d36c4119","ios":"levelo://app?vid=ae621ab1-7f09-408a-8487-c410d36c4119"},"vehicle_type_id":"4","last_reported":1770117918,"current_range_meters":8400,"station_id":"ce4bhg92rcd13ifvqf90","pricing_plan_id":"cebpf4jnsgd1na2vs0mg"},{"bike_id":"1bff195f-878b-4a6e-8675-61979ef9dcf7","system_id":"levelo_inurba_marseille","lat":43.23204,"lon":5.35551,"is_reserved":false,"is_disabled":false,"rental_uris":{"android":"levelo://app?vid=1bff195f-878b-4a6e-8675-61979ef9dcf7","ios":"levelo://app?vid=1bff195f-878b-4a6e-8675-61979ef9dcf7"},"vehicle_type_id":"4","last_reported":1770117918,"current_range_meters":8400,"station_id":"ce4bhu92rcd13ifvqi70","pricing_plan_id":"cebpf4jnsgd1na2vs0mg"},{"bike_id":"6648b726-248a-4235-8962-e02d3f57c3f3","system_id":"levelo_inurba_marseille","lat":43.25015,"lon":5.38928,"is_reserved":false,"is_disabled":false,"rental_uris":{"android":"levelo://app?vid=6648b726-248a-4235-8962-e02d3f57c3f3","ios":"levelo://app?vid=6648b726-248a-4235-8962-e02d3f57c3f3"},"vehicle_type_id":"4","last_reported":1770117918,"current_range_meters":8400,"station_id":"ce4bhgp2rcd13ifvqfd0","pricing_plan_id":"cebpf4jnsgd1na2vs0mg"},{"bike_id":"dec7466c-217d-4581-a694-845235d9e9ff","system_id":"levelo_inurba_marseille","lat":43.2721,"lon":5.39187,"is_reserved":false,"is_disabled":false,"rental_uris":{"android":"levelo://app?vid=dec7466c-217d-4581-a694-845235d9e9ff","ios":"levelo://app?vid=dec7466c-217d-4581-a694-845235d9e9ff"},"vehicle_type_id":"4","last_reported":1770117918,"current_range_meters":8400,"station_id":"ce4bhhp2rcd13ifvqfm0","pricing_plan_id":"cebpf4jnsgd1na2vs0mg"},{"bike_id":"5396fda1-c3a0-4d51-8ba0-cfe497a166d7","system_id":"levelo_inurba_marseille","lat":43.26557,"lon":5.38986,"is_reserved":false,"is_disabled":false,"rental_uris":{"android":"levelo://app?vid=5396fda1-c3a0-4d51-8ba0-cfe497a166d7","ios":"levelo://app?vid=5396fda1-c3a0-4d51-8ba0-cfe497a166d7"},"vehicle_type_id":"4","last_reported":1770117918,"current_range_meters":8400,"station_id":"ce4bhe12rcd13ifvqf30","pricing_plan_id":"cebpf4jnsgd1na2vs0mg"},{"bike_id":"8bd82ffc-fd6b-446a-9eb5-e844a875f351","system_id":"levelo_inurba_marseille","lat":43.26191,"lon":5.37454,"is_reserved":false,"is_disabled":false,"rental_uris":{"android":"levelo://app?vid=8bd82ffc-fd6b-446a-9eb5-e844a875f351","ios":"levelo://app?vid=8bd82ffc-fd6b-446a-9eb5-e844a875f351"},"vehicle_type_id":"4","last_reported":1770117918,"current_range_meters":8400,"station_id":"ce4bhgp2rcd13ifvqfc0","pricing_plan_id":"cebpf4jnsgd1na2vs0mg"},{"bike_id":"06cf9f80-ebe0-40e5-bc7e-3f57fa19d75c","system_id":"levelo_inurba_marseille","lat":43.30378,"lon":5.42487,"is_reserved":false,"is_disabled":false,"rental_uris":{"android":"levelo://app?vid=06cf9f80-ebe0-40e5-bc7e-3f57fa19d75c","ios":"levelo://app?vid=06cf9f80-ebe0-40e5-bc7e-3f57fa19d75c"},"vehicle_type_id":"4","last_reported":1770117918,"current_range_meters":8800,"station_id":"ce4bhoh2rcd13ifvqh6g","pricing_plan_id":"cebpf4jnsgd1na2vs0mg"},{"bike_id":"ec68f950-0d59-42c4-b58a-c2981d59ac97","system_id":"levelo_inurba_marseille","lat":43.28925,"lon":5.36399,"is_reserved":false,"is_disabled":false,"rental_uris":{"android":"levelo://app?vid=ec68f950-0d59-42c4-b58a-c2981d59ac97","ios":"levelo://app?vid=ec68f950-0d59-42c4-b58a-c2981d59ac97"},"vehicle_type_id":"4","last_reported":1770117918,"current_range_meters":8800,"station_id":"ce4bhc92rcd13ifvqetg","pricing_plan_id":"cebpf4jnsgd1na2vs0mg"},{"bike_id":"98f546ea-25f7-4143-893e-2f0d33f37138","system_id":"levelo_inurba_marseille","lat":43.27991,"lon":5.40016,"is_reserved":false,"is_disabled":false,"rental_uris":{"android":"levelo://app?vid=98f546ea-25f7-4143-893e-2f0d33f37138","ios":"levelo://app?vid=98f546ea-25f7-4143-893e-2f0d33f37138"},"vehicle_type_id":"4","last_reported":1770117918,"current_range_meters":8800,"station_id":"ce4bho92rcd13ifvqh4g","pricing_plan_id":"cebpf4jnsgd1na2vs0mg"},{"bike_id":"e1b3cad6-dccc-4f80-892b-59b83fe43b75","system_id":"levelo_inurba_marseille","lat":43.29572,"lon":5.36721,"is_reserved":false,"is_disabled":false,"rental_uris":{"android":"levelo://app?vid=e1b3cad6-dccc-4f80-892b-59b83fe43b75","ios":"levelo://app?vid=e1b3cad6-dccc-4f80-892b-59b83fe43b75"},"vehicle_type_id":"4","last_reported":1770117918,"current_range_meters":8800,"station_id":"ce4bgph2rcd13ifvqc2g","pricing_plan_id":"cebpf4jnsgd1na2vs0mg"},{"bike_id":"ba3390f5-14ed-4160-abcf-8bea19885613","system_id":"levelo_inurba_marseille","lat":43.28494,"lon":5.48421,"is_reserved":false,"is_disabled":false,"rental_uris":{"android":"levelo://app?vid=ba3390f5-14ed-4160-abcf-8bea19885613","ios":"levelo://app?vid=ba3390f5-14ed-4160-abcf-8bea19885613"},"vehicle_type_id":"4","last_reported":1770117918,"current_range_meters":8800,"station_id":"st_d3svhcjqgbts73a3dn0g","pricing_plan_id":"cebpf4jnsgd1na2vs0mg"},{"bike_id":"ef30bb24-f45f-400c-9967-a2a3b2da1488","system_id":"levelo_inurba_marseille","lat":43.2829,"lon":5.39442,"is_reserved":false,"is_disabled":false,"rental_uris":{"android":"levelo://app?vid=ef30bb24-f45f-400c-9967-a2a3b2da1488","ios":"levelo://app?vid=ef30bb24-f45f-400c-9967-a2a3b2da1488"},"vehicle_type_id":"4","last_reported":1770117918,"current_range_meters":8800,"station_id":"","pricing_plan_id":"cebpf4jnsgd1na2vs0mg"},{"bike_id":"454ec198-d273-438b-b7dc-8d61915cb03a","system_id":"levelo_inurba_marseille","lat":43.23144,"lon":5.43719,"is_reserved":false,"is_disabled":false,"rental_uris":{"android":"levelo://app?vid=454ec198-d273-438b-b7dc-8d61915cb03a","ios":"levelo://app?vid=454ec198-d273-438b-b7dc-8d61915cb03a"},"vehicle_type_id":"4","last_reported":1770117918,"current_range_meters":8800,"station_id":"ce4bhmp2rcd13ifvqgog","pricing_plan_id":"cebpf4jnsgd1na2vs0mg"},{"bike_id":"fba83296-cf08-4ba9-8267-d1dc13133a44","system_id":"levelo_inurba_marseille","lat":43.26231,"lon":5.40463,"is_reserved":false,"is_disabled":false,"rental_uris":{"android":"levelo://app?vid=fba83296-cf08-4ba9-8267-d1dc13133a44","ios":"levelo://app?vid=fba83296-cf08-4ba9-8267-d1dc13133a44"},"vehicle_type_id":"4","last_reported":1770117918,"current_range_meters":8800,"station_id":"ce4bhmh2rcd13ifvqgmg","pricing_plan_id":"cebpf4jnsgd1na2vs0mg"},{"bike_id":"1b5a9ce0-a712-4e6e-83a1-5b3d08083ec7","system_id":"levelo_inurba_marseille","lat":43.23203,"lon":5.35544,"is_reserved":false,"is_disabled":false,"rental_uris":{"android":"levelo://app?vid=1b5a9ce0-a712-4e6e-83a1-5b3d08083ec7","ios":"levelo://app?vid=1b5a9ce0-a712-4e6e-83a1-5b3d08083ec7"},"vehicle_type_id":"4","last_reported":1770117918,"current_range_meters":8800,"station_id":"ce4bhu92rcd13ifvqi70","pricing_plan_id":"cebpf4jnsgd1na2vs0mg"},{"bike_id":"19e2feff-6c2f-469b-9a6a-9b93faca06da","system_id":"levelo_inurba_marseille","lat":43.28869,"lon":5.42517,"is_reserved":false,"is_disabled":true,"rental_uris":{"android":"levelo://app?vid=19e2feff-6c2f-469b-9a6a-9b93faca06da","ios":"levelo://app?vid=19e2feff-6c2f-469b-9a6a-9b93faca06da"},"vehicle_type_id":"4","last_reported":1770117918,"current_range_meters":8800,"station_id":"st_d3b462108ojc7389ooeg","pricing_plan_id":"cebpf4jnsgd1na2vs0mg"},{"bike_id":"ccad5bb8-727e-4e27-b0cc-7b2f496ea109","system_id":"levelo_inurba_marseille","lat":43.29585,"lon":5.42262,"is_reserved":false,"is_disabled":false,"rental_uris":{"android":"levelo://app?vid=ccad5bb8-727e-4e27-b0cc-7b2f496ea109","ios":"levelo://app?vid=ccad5bb8-727e-4e27-b0cc-7b2f496ea109"},"vehicle_type_id":"4","last_reported":1770117918,"current_range_meters":8800,"station_id":"ce4bhph2rcd13ifvqhdg","pricing_plan_id":"cebpf4jnsgd1na2vs0mg"},{"bike_id":"5aac6fd0-42e7-4460-9483-3cac48c68780","system_id":"levelo_inurba_marseille","lat":43.23153,"lon":5.43703,"is_reserved":false,"is_disabled":false,"rental_uris":{"android":"levelo://app?vid=5aac6fd0-42e7-4460-9483-3cac48c68780","ios":"levelo://app?vid=5aac6fd0-42e7-4460-9483-3cac48c68780"},"vehicle_type_id":"4","last_reported":1770117918,"current_range_meters":8800,"station_id":"ce4bhmp2rcd13ifvqgog","pricing_plan_id":"cebpf4jnsgd1na2vs0mg"},{"bike_id":"3152a477-f17d-4450-9261-17b357c04f41","system_id":"levelo_inurba_marseille","lat":43.29978,"lon":5.37419,"is_reserved":false,"is_disabled":false,"rental_uris":{"android":"levelo://app?vid=3152a477-f17d-4450-9261-17b357c04f41","ios":"levelo://app?vid=3152a477-f17d-4450-9261-17b357c04f41"},"vehicle_type_id":"4","last_reported":1770117918,"current_range_meters":8800,"station_id":"","pricing_plan_id":"cebpf4jnsgd1na2vs0mg"},{"bike_id":"43b4dd52-5f40-488a-8ef1-ee614ae1c61c","system_id":"levelo_inurba_marseille","lat":43.3361,"lon":5.41039,"is_reserved":false,"is_disabled":false,"rental_uris":{"android":"levelo://app?vid=43b4dd52-5f40-488a-8ef1-ee614ae1c61c","ios":"levelo://app?vid=43b4dd52-5f40-488a-8ef1-ee614ae1c61c"},"vehicle_type_id":"4","last_reported":1770117918,"current_range_meters":8800,"station_id":"ce4bhqh2rcd13ifvqhmg","pricing_plan_id":"cebpf4jnsgd1na2vs0mg"},{"bike_id":"34454c89-b631-4b7d-98c3-f063daabfec5","system_id":"levelo_inurba_marseille","lat":43.2971,"lon":5.42811,"is_reserved":false,"is_disabled":false,"rental_uris":{"android":"levelo://app?vid=34454c89-b631-4b7d-98c3-f063daabfec5","ios":"levelo://app?vid=34454c89-b631-4b7d-98c3-f063daabfec5"},"vehicle_type_id":"4","last_reported":1770117918,"current_range_meters":8800,"station_id":"st_d3md5207bmas73dh9klg","pricing_plan_id":"cebpf4jnsgd1na2vs0mg"},{"bike_id":"8e312380-e745-433d-90b9-ff07a309073d","system_id":"levelo_inurba_marseille","lat":43.24795,"lon":5.37461,"is_reserved":false,"is_disabled":false,"rental_uris":{"android":"levelo://app?vid=8e312380-e745-433d-90b9-ff07a309073d","ios":"levelo://app?vid=8e312380-e745-433d-90b9-ff07a309073d"},"vehicle_type_id":"4","last_reported":1770117918,"current_range_meters":9200,"station_id":"ce4bhgh2rcd13ifvqfb0","pricing_plan_id":"cebpf4jnsgd1na2vs0mg"},{"bike_id":"c056efdd-bfd4-4d90-a2c4-30f136ba140c","system_id":"levelo_inurba_marseille","lat":43.33537,"lon":5.37475,"is_reserved":false,"is_disabled":false,"rental_uris":{"android":"levelo://app?vid=c056efdd-bfd4-4d90-a2c4-30f136ba140c","ios":"levelo://app?vid=c056efdd-bfd4-4d90-a2c4-30f136ba140c"},"vehicle_type_id":"4","last_reported":1770117918,"current_range_meters":9200,"station_id":"st_d46tts09ee8s73dlu43g","pricing_plan_id":"cebpf4jnsgd1na2vs0mg"},{"bike_id":"6813da95-9100-4304-9152-ee9261f4f6d7","system_id":"levelo_inurba_marseille","lat":43.31699,"lon":5.40452,"is_reserved":false,"is_disabled":false,"rental_uris":{"android":"levelo://app?vid=6813da95-9100-4304-9152-ee9261f4f6d7","ios":"levelo://app?vid=6813da95-9100-4304-9152-ee9261f4f6d7"},"vehicle_type_id":"4","last_reported":1770117918,"current_range_meters":9200,"station_id":"ce4bh012rcd13ifvqd00","pricing_plan_id":"cebpf4jnsgd1na2vs0mg"},{"bike_id":"62e27a91-d1f4-4b1a-b2a6-3405a804b362","system_id":"levelo_inurba_marseille","lat":43.27072,"lon":5.42282,"is_reserved":false,"is_disabled":false,"rental_uris":{"android":"levelo://app?vid=62e27a91-d1f4-4b1a-b2a6-3405a804b362","ios":"levelo://app?vid=62e27a91-d1f4-4b1a-b2a6-3405a804b362"},"vehicle_type_id":"4","last_reported":1770117918,"current_range_meters":9200,"station_id":"ce4bhk92rcd13ifvqgb0","pricing_plan_id":"cebpf4jnsgd1na2vs0mg"},{"bike_id":"90cafb22-43f6-47bb-9e80-c8fa9891709f","system_id":"levelo_inurba_marseille","lat":43.26203,"lon":5.37916,"is_reserved":false,"is_disabled":false,"rental_uris":{"android":"levelo://app?vid=90cafb22-43f6-47bb-9e80-c8fa9891709f","ios":"levelo://app?vid=90cafb22-43f6-47bb-9e80-c8fa9891709f"},"vehicle_type_id":"4","last_reported":1770117918,"current_range_meters":9200,"station_id":"ce4bhjp2rcd13ifvqg90","pricing_plan_id":"cebpf4jnsgd1na2vs0mg"},{"bike_id":"aaf22886-8931-43f5-890d-fc99243945fc","system_id":"levelo_inurba_marseille","lat":43.24184,"lon":5.39707,"is_reserved":false,"is_disabled":false,"rental_uris":{"android":"levelo://app?vid=aaf22886-8931-43f5-890d-fc99243945fc","ios":"levelo://app?vid=aaf22886-8931-43f5-890d-fc99243945fc"},"vehicle_type_id":"4","last_reported":1770117918,"current_range_meters":9200,"station_id":"ce4bhn12rcd13ifvqgpg","pricing_plan_id":"cebpf4jnsgd1na2vs0mg"},{"bike_id":"e6192afe-2a62-43ea-9ff6-d08f1cf1e7d8","system_id":"levelo_inurba_marseille","lat":43.31364,"lon":5.36696,"is_reserved":false,"is_disabled":false,"rental_uris":{"android":"levelo://app?vid=e6192afe-2a62-43ea-9ff6-d08f1cf1e7d8","ios":"levelo://app?vid=e6192afe-2a62-43ea-9ff6-d08f1cf1e7d8"},"vehicle_type_id":"4","last_reported":1770117918,"current_range_meters":9200,"station_id":"ce4bgr92rcd13ifvqc6g","pricing_plan_id":"cebpf4jnsgd1na2vs0mg"},{"bike_id":"242256f5-f0bd-4204-9565-2087ceacdda5","system_id":"levelo_inurba_marseille","lat":43.22567,"lon":5.41653,"is_reserved":false,"is_disabled":false,"rental_uris":{"android":"levelo://app?vid=242256f5-f0bd-4204-9565-2087ceacdda5","ios":"levelo://app?vid=242256f5-f0bd-4204-9565-2087ceacdda5"},"vehicle_type_id":"4","last_reported":1770117918,"current_range_meters":9200,"station_id":"st_d2o4gvlbi1j2169b742g","pricing_plan_id":"cebpf4jnsgd1na2vs0mg"},{"bike_id":"5268a57b-c5c9-446a-87ff-ede823dc6bfa","system_id":"levelo_inurba_marseille","lat":43.28565,"lon":5.39492,"is_reserved":false,"is_disabled":false,"rental_uris":{"android":"levelo://app?vid=5268a57b-c5c9-446a-87ff-ede823dc6bfa","ios":"levelo://app?vid=5268a57b-c5c9-446a-87ff-ede823dc6bfa"},"vehicle_type_id":"4","last_reported":1770117918,"current_range_meters":9200,"station_id":"ce4bh292rcd13ifvqdg0","pricing_plan_id":"cebpf4jnsgd1na2vs0mg"},{"bike_id":"a96c9c68-8bd1-4752-8a5f-e966fc5309db","system_id":"levelo_inurba_marseille","lat":43.32047,"lon":5.41547,"is_reserved":false,"is_disabled":false,"rental_uris":{"android":"levelo://app?vid=a96c9c68-8bd1-4752-8a5f-e966fc5309db","ios":"levelo://app?vid=a96c9c68-8bd1-4752-8a5f-e966fc5309db"},"vehicle_type_id":"4","last_reported":1770117918,"current_range_meters":9200,"station_id":"ce4bhq92rcd13ifvqhkg","pricing_plan_id":"cebpf4jnsgd1na2vs0mg"},{"bike_id":"b886faeb-2ae5-4849-a4c7-c906741f8bf1","system_id":"levelo_inurba_marseille","lat":43.26573,"lon":5.40326,"is_reserved":false,"is_disabled":false,"rental_uris":{"android":"levelo://app?vid=b886faeb-2ae5-4849-a4c7-c906741f8bf1","ios":"levelo://app?vid=b886faeb-2ae5-4849-a4c7-c906741f8bf1"},"vehicle_type_id":"4","last_reported":1770117918,"current_range_meters":9200,"station_id":"ce4bhmp2rcd13ifvqgng","pricing_plan_id":"cebpf4jnsgd1na2vs0mg"},{"bike_id":"128c25e0-a9f7-4b25-a528-c9d67b1546c5","system_id":"levelo_inurba_marseille","lat":43.240768,"lon":5.377615,"is_reserved":false,"is_disabled":false,"rental_uris":{"android":"levelo://app?vid=128c25e0-a9f7-4b25-a528-c9d67b1546c5","ios":"levelo://app?vid=128c25e0-a9f7-4b25-a528-c9d67b1546c5"},"vehicle_type_id":"4","last_reported":1770117918,"current_range_meters":9200,"station_id":"ce4bhnp2rcd13ifvqgvg","pricing_plan_id":"cebpf4jnsgd1na2vs0mg"},{"bike_id":"21a09df5-fb2e-4fca-8bcc-bc0a172905bb","system_id":"levelo_inurba_marseille","lat":43.25353,"lon":5.42169,"is_reserved":false,"is_disabled":false,"rental_uris":{"android":"levelo://app?vid=21a09df5-fb2e-4fca-8bcc-bc0a172905bb","ios":"levelo://app?vid=21a09df5-fb2e-4fca-8bcc-bc0a172905bb"},"vehicle_type_id":"4","last_reported":1770117918,"current_range_meters":9200,"station_id":"st_d2m65c5bi1j21697t3ng","pricing_plan_id":"cebpf4jnsgd1na2vs0mg"},{"bike_id":"04ab4868-a773-4da8-b9a9-f5fedd6e47ae","system_id":"levelo_inurba_marseille","lat":43.25723,"lon":5.41113,"is_reserved":false,"is_disabled":false,"rental_uris":{"android":"levelo://app?vid=04ab4868-a773-4da8-b9a9-f5fedd6e47ae","ios":"levelo://app?vid=04ab4868-a773-4da8-b9a9-f5fedd6e47ae"},"vehicle_type_id":"4","last_reported":1770117918,"current_range_meters":9200,"station_id":"ce4bhkp2rcd13ifvqgd0","pricing_plan_id":"cebpf4jnsgd1na2vs0mg"},{"bike_id":"d92d20a9-58a0-461b-8367-78ef4392b4d0","system_id":"levelo_inurba_marseille","lat":43.270733,"lon":5.4228,"is_reserved":false,"is_disabled":false,"rental_uris":{"android":"levelo://app?vid=d92d20a9-58a0-461b-8367-78ef4392b4d0","ios":"levelo://app?vid=d92d20a9-58a0-461b-8367-78ef4392b4d0"},"vehicle_type_id":"4","last_reported":1770117918,"current_range_meters":9200,"station_id":"ce4bhk92rcd13ifvqgb0","pricing_plan_id":"cebpf4jnsgd1na2vs0mg"},{"bike_id":"1a8cbd53-f3cd-463e-8c24-fde20404b7ee","system_id":"levelo_inurba_marseille","lat":43.255687,"lon":5.382387,"is_reserved":false,"is_disabled":false,"rental_uris":{"android":"levelo://app?vid=1a8cbd53-f3cd-463e-8c24-fde20404b7ee","ios":"levelo://app?vid=1a8cbd53-f3cd-463e-8c24-fde20404b7ee"},"vehicle_type_id":"4","last_reported":1770117918,"current_range_meters":9200,"station_id":"ce4bhih2rcd13ifvqfs0","pricing_plan_id":"cebpf4jnsgd1na2vs0mg"},{"bike_id":"41efee0d-caa2-45b0-863d-489d81dde529","system_id":"levelo_inurba_marseille","lat":43.285308,"lon":5.440961,"is_reserved":false,"is_disabled":false,"rental_uris":{"android":"levelo://app?vid=41efee0d-caa2-45b0-863d-489d81dde529","ios":"levelo://app?vid=41efee0d-caa2-45b0-863d-489d81dde529"},"vehicle_type_id":"4","last_reported":1770117918,"current_range_meters":9200,"station_id":"st_d3j3df2ikq2c7380ej80","pricing_plan_id":"cebpf4jnsgd1na2vs0mg"},{"bike_id":"98fce53e-2f71-43cb-b9de-a1e78e7dc72e","system_id":"levelo_inurba_marseille","lat":43.23207,"lon":5.3997,"is_reserved":false,"is_disabled":false,"rental_uris":{"android":"levelo://app?vid=98fce53e-2f71-43cb-b9de-a1e78e7dc72e","ios":"levelo://app?vid=98fce53e-2f71-43cb-b9de-a1e78e7dc72e"},"vehicle_type_id":"4","last_reported":1770117918,"current_range_meters":9600,"station_id":"ce4bhn12rcd13ifvqgqg","pricing_plan_id":"cebpf4jnsgd1na2vs0mg"},{"bike_id":"3496e3d5-ade9-4ef3-89c7-6224a9796381","system_id":"levelo_inurba_marseille","lat":43.23206,"lon":5.35547,"is_reserved":false,"is_disabled":false,"rental_uris":{"android":"levelo://app?vid=3496e3d5-ade9-4ef3-89c7-6224a9796381","ios":"levelo://app?vid=3496e3d5-ade9-4ef3-89c7-6224a9796381"},"vehicle_type_id":"4","last_reported":1770117918,"current_range_meters":9600,"station_id":"ce4bhu92rcd13ifvqi70","pricing_plan_id":"cebpf4jnsgd1na2vs0mg"},{"bike_id":"5892fc85-7848-4ac6-9041-3115ffbc60b4","system_id":"levelo_inurba_marseille","lat":43.24665,"lon":5.38168,"is_reserved":false,"is_disabled":false,"rental_uris":{"android":"levelo://app?vid=5892fc85-7848-4ac6-9041-3115ffbc60b4","ios":"levelo://app?vid=5892fc85-7848-4ac6-9041-3115ffbc60b4"},"vehicle_type_id":"4","last_reported":1770117918,"current_range_meters":9600,"station_id":"ce4bhih2rcd13ifvqfr0","pricing_plan_id":"cebpf4jnsgd1na2vs0mg"},{"bike_id":"85abf2ca-c23c-4f48-b10d-5858680e2422","system_id":"levelo_inurba_marseille","lat":43.262077,"lon":5.379247,"is_reserved":false,"is_disabled":false,"rental_uris":{"android":"levelo://app?vid=85abf2ca-c23c-4f48-b10d-5858680e2422","ios":"levelo://app?vid=85abf2ca-c23c-4f48-b10d-5858680e2422"},"vehicle_type_id":"4","last_reported":1770117918,"current_range_meters":9600,"station_id":"ce4bhjp2rcd13ifvqg90","pricing_plan_id":"cebpf4jnsgd1na2vs0mg"},{"bike_id":"43de64b1-98dc-450d-b9fc-17cbfdfeea8f","system_id":"levelo_inurba_marseille","lat":43.29535,"lon":5.39047,"is_reserved":false,"is_disabled":false,"rental_uris":{"android":"levelo://app?vid=43de64b1-98dc-450d-b9fc-17cbfdfeea8f","ios":"levelo://app?vid=43de64b1-98dc-450d-b9fc-17cbfdfeea8f"},"vehicle_type_id":"4","last_reported":1770117918,"current_range_meters":9600,"station_id":"ce4bh3p2rcd13ifvqdp0","pricing_plan_id":"cebpf4jnsgd1na2vs0mg"},{"bike_id":"20820e08-d026-49ef-a432-d6370cd971d2","system_id":"levelo_inurba_marseille","lat":43.31232,"lon":5.36847,"is_reserved":false,"is_disabled":false,"rental_uris":{"android":"levelo://app?vid=20820e08-d026-49ef-a432-d6370cd971d2","ios":"levelo://app?vid=20820e08-d026-49ef-a432-d6370cd971d2"},"vehicle_type_id":"4","last_reported":1770117918,"current_range_meters":9600,"station_id":"ce4bgl92rcd13ifvqbq0","pricing_plan_id":"cebpf4jnsgd1na2vs0mg"},{"bike_id":"4a68a930-2802-42d2-a57e-1f536cae200c","system_id":"levelo_inurba_marseille","lat":43.29044,"lon":5.38144,"is_reserved":false,"is_disabled":false,"rental_uris":{"android":"levelo://app?vid=4a68a930-2802-42d2-a57e-1f536cae200c","ios":"levelo://app?vid=4a68a930-2802-42d2-a57e-1f536cae200c"},"vehicle_type_id":"4","last_reported":1770117918,"current_range_meters":9600,"station_id":"ce4bh4p2rcd13ifvqe1g","pricing_plan_id":"cebpf4jnsgd1na2vs0mg"},{"bike_id":"6721ecb3-16ac-4646-b8e2-a05f3febd1fa","system_id":"levelo_inurba_marseille","lat":43.29146,"lon":5.38845,"is_reserved":false,"is_disabled":false,"rental_uris":{"android":"levelo://app?vid=6721ecb3-16ac-4646-b8e2-a05f3febd1fa","ios":"levelo://app?vid=6721ecb3-16ac-4646-b8e2-a05f3febd1fa"},"vehicle_type_id":"4","last_reported":1770117918,"current_range_meters":9600,"station_id":"","pricing_plan_id":"cebpf4jnsgd1na2vs0mg"},{"bike_id":"a5eda67a-1af7-4789-9b16-aa7217c90cd3","system_id":"levelo_inurba_marseille","lat":43.23711,"lon":5.40158,"is_reserved":false,"is_disabled":false,"rental_uris":{"android":"levelo://app?vid=a5eda67a-1af7-4789-9b16-aa7217c90cd3","ios":"levelo://app?vid=a5eda67a-1af7-4789-9b16-aa7217c90cd3"},"vehicle_type_id":"4","last_reported":1770117918,"current_range_meters":9600,"station_id":"","pricing_plan_id":"cebpf4jnsgd1na2vs0mg"},{"bike_id":"d25c30ce-208a-4865-aa8f-61a37bd60365","system_id":"levelo_inurba_marseille","lat":43.295603,"lon":5.381489,"is_reserved":false,"is_disabled":false,"rental_uris":{"android":"levelo://app?vid=d25c30ce-208a-4865-aa8f-61a37bd60365","ios":"levelo://app?vid=d25c30ce-208a-4865-aa8f-61a37bd60365"},"vehicle_type_id":"4","last_reported":1770117918,"current_range_meters":9600,"station_id":"ce4bgl12rcd13ifvqbo0","pricing_plan_id":"cebpf4jnsgd1na2vs0mg"},{"bike_id":"5ffc162c-3876-4a49-af02-3661f44effbb","system_id":"levelo_inurba_marseille","lat":43.28475,"lon":5.48406,"is_reserved":false,"is_disabled":false,"rental_uris":{"android":"levelo://app?vid=5ffc162c-3876-4a49-af02-3661f44effbb","ios":"levelo://app?vid=5ffc162c-3876-4a49-af02-3661f44effbb"},"vehicle_type_id":"4","last_reported":1770117918,"current_range_meters":9600,"station_id":"st_d3svhcjqgbts73a3dn0g","pricing_plan_id":"cebpf4jnsgd1na2vs0mg"},{"bike_id":"b3a54eab-b946-460c-8d1b-dbc0ce5bc3c5","system_id":"levelo_inurba_marseille","lat":43.28167,"lon":5.42642,"is_reserved":false,"is_disabled":false,"rental_uris":{"android":"levelo://app?vid=b3a54eab-b946-460c-8d1b-dbc0ce5bc3c5","ios":"levelo://app?vid=b3a54eab-b946-460c-8d1b-dbc0ce5bc3c5"},"vehicle_type_id":"4","last_reported":1770117918,"current_range_meters":9600,"station_id":"ce4bhnh2rcd13ifvqgug","pricing_plan_id":"cebpf4jnsgd1na2vs0mg"},{"bike_id":"eb06baa3-f3b4-41de-85d8-b59f30b83f78","system_id":"levelo_inurba_marseille","lat":43.31251,"lon":5.36881,"is_reserved":false,"is_disabled":false,"rental_uris":{"android":"levelo://app?vid=eb06baa3-f3b4-41de-85d8-b59f30b83f78","ios":"levelo://app?vid=eb06baa3-f3b4-41de-85d8-b59f30b83f78"},"vehicle_type_id":"4","last_reported":1770117918,"current_range_meters":9600,"station_id":"ce4bgl92rcd13ifvqbq0","pricing_plan_id":"cebpf4jnsgd1na2vs0mg"},{"bike_id":"988afa8e-d306-4003-baf9-728102144f56","system_id":"levelo_inurba_marseille","lat":43.26756,"lon":5.38305,"is_reserved":false,"is_disabled":false,"rental_uris":{"android":"levelo://app?vid=988afa8e-d306-4003-baf9-728102144f56","ios":"levelo://app?vid=988afa8e-d306-4003-baf9-728102144f56"},"vehicle_type_id":"4","last_reported":1770117918,"current_range_meters":10000,"station_id":"","pricing_plan_id":"cebpf4jnsgd1na2vs0mg"},{"bike_id":"60f598b4-ac2d-47d2-815c-636881d4e683","system_id":"levelo_inurba_marseille","lat":43.266834,"lon":5.382759,"is_reserved":false,"is_disabled":false,"rental_uris":{"android":"levelo://app?vid=60f598b4-ac2d-47d2-815c-636881d4e683","ios":"levelo://app?vid=60f598b4-ac2d-47d2-815c-636881d4e683"},"vehicle_type_id":"4","last_reported":1770117918,"current_range_meters":10000,"station_id":"ce4bhg92rcd13ifvqf90","pricing_plan_id":"cebpf4jnsgd1na2vs0mg"},{"bike_id":"364883e5-5bab-413b-9d9d-162730d9f009","system_id":"levelo_inurba_marseille","lat":43.29753,"lon":5.42779,"is_reserved":false,"is_disabled":false,"rental_uris":{"android":"levelo://app?vid=364883e5-5bab-413b-9d9d-162730d9f009","ios":"levelo://app?vid=364883e5-5bab-413b-9d9d-162730d9f009"},"vehicle_type_id":"4","last_reported":1770117918,"current_range_meters":10000,"station_id":"st_d3md5207bmas73dh9klg","pricing_plan_id":"cebpf4jnsgd1na2vs0mg"},{"bike_id":"383f1bb7-ba8e-4125-b378-58b93af07cd6","system_id":"levelo_inurba_marseille","lat":43.28502,"lon":5.38458,"is_reserved":false,"is_disabled":false,"rental_uris":{"android":"levelo://app?vid=383f1bb7-ba8e-4125-b378-58b93af07cd6","ios":"levelo://app?vid=383f1bb7-ba8e-4125-b378-58b93af07cd6"},"vehicle_type_id":"4","last_reported":1770117918,"current_range_meters":10000,"station_id":"ce4bh512rcd13ifvqe3g","pricing_plan_id":"cebpf4jnsgd1na2vs0mg"},{"bike_id":"25ed47fc-271f-4de7-a2a6-6e589391bb92","system_id":"levelo_inurba_marseille","lat":43.28422,"lon":5.34999,"is_reserved":false,"is_disabled":false,"rental_uris":{"android":"levelo://app?vid=25ed47fc-271f-4de7-a2a6-6e589391bb92","ios":"levelo://app?vid=25ed47fc-271f-4de7-a2a6-6e589391bb92"},"vehicle_type_id":"4","last_reported":1770117918,"current_range_meters":10000,"station_id":"ce4bhbh2rcd13ifvqepg","pricing_plan_id":"cebpf4jnsgd1na2vs0mg"},{"bike_id":"9d79ec10-3ed1-4035-8609-ff591e4f54d3","system_id":"levelo_inurba_marseille","lat":43.25573,"lon":5.38238,"is_reserved":false,"is_disabled":false,"rental_uris":{"android":"levelo://app?vid=9d79ec10-3ed1-4035-8609-ff591e4f54d3","ios":"levelo://app?vid=9d79ec10-3ed1-4035-8609-ff591e4f54d3"},"vehicle_type_id":"4","last_reported":1770117918,"current_range_meters":10000,"station_id":"ce4bhih2rcd13ifvqfs0","pricing_plan_id":"cebpf4jnsgd1na2vs0mg"},{"bike_id":"8ab2bb27-0013-40b4-babc-4fec83477c0d","system_id":"levelo_inurba_marseille","lat":43.29038,"lon":5.39977,"is_reserved":false,"is_disabled":false,"rental_uris":{"android":"levelo://app?vid=8ab2bb27-0013-40b4-babc-4fec83477c0d","ios":"levelo://app?vid=8ab2bb27-0013-40b4-babc-4fec83477c0d"},"vehicle_type_id":"4","last_reported":1770117918,"current_range_meters":10000,"station_id":"ce4bh392rcd13ifvqdm0","pricing_plan_id":"cebpf4jnsgd1na2vs0mg"},{"bike_id":"9a41c992-8ec6-4c5f-9787-da9fbb815a48","system_id":"levelo_inurba_marseille","lat":43.25571,"lon":5.38241,"is_reserved":false,"is_disabled":false,"rental_uris":{"android":"levelo://app?vid=9a41c992-8ec6-4c5f-9787-da9fbb815a48","ios":"levelo://app?vid=9a41c992-8ec6-4c5f-9787-da9fbb815a48"},"vehicle_type_id":"4","last_reported":1770117918,"current_range_meters":10000,"station_id":"ce4bhih2rcd13ifvqfs0","pricing_plan_id":"cebpf4jnsgd1na2vs0mg"},{"bike_id":"3ab888ce-8d5c-4386-b0d2-2b99a4088ed0","system_id":"levelo_inurba_marseille","lat":43.32525,"lon":5.38358,"is_reserved":false,"is_disabled":false,"rental_uris":{"android":"levelo://app?vid=3ab888ce-8d5c-4386-b0d2-2b99a4088ed0","ios":"levelo://app?vid=3ab888ce-8d5c-4386-b0d2-2b99a4088ed0"},"vehicle_type_id":"4","last_reported":1770117918,"current_range_meters":10000,"station_id":"st_d4asgbiv49dc73anf9m0","pricing_plan_id":"cebpf4jnsgd1na2vs0mg"},{"bike_id":"3e96821d-f8a2-4961-8893-311448c3de36","system_id":"levelo_inurba_marseille","lat":43.240813,"lon":5.37746,"is_reserved":false,"is_disabled":false,"rental_uris":{"android":"levelo://app?vid=3e96821d-f8a2-4961-8893-311448c3de36","ios":"levelo://app?vid=3e96821d-f8a2-4961-8893-311448c3de36"},"vehicle_type_id":"4","last_reported":1770117918,"current_range_meters":10000,"station_id":"ce4bhnp2rcd13ifvqgvg","pricing_plan_id":"cebpf4jnsgd1na2vs0mg"},{"bike_id":"e6a1f035-25ff-4647-8be4-f0578341ca97","system_id":"levelo_inurba_marseille","lat":43.31118,"lon":5.37758,"is_reserved":false,"is_disabled":false,"rental_uris":{"android":"levelo://app?vid=e6a1f035-25ff-4647-8be4-f0578341ca97","ios":"levelo://app?vid=e6a1f035-25ff-4647-8be4-f0578341ca97"},"vehicle_type_id":"4","last_reported":1770117918,"current_range_meters":10000,"station_id":"ce4bgt92rcd13ifvqcg0","pricing_plan_id":"cebpf4jnsgd1na2vs0mg"},{"bike_id":"609a0062-16f5-4a1b-a345-5a974da536fd","system_id":"levelo_inurba_marseille","lat":43.30312,"lon":5.36916,"is_reserved":false,"is_disabled":false,"rental_uris":{"android":"levelo://app?vid=609a0062-16f5-4a1b-a345-5a974da536fd","ios":"levelo://app?vid=609a0062-16f5-4a1b-a345-5a974da536fd"},"vehicle_type_id":"4","last_reported":1770117918,"current_range_meters":10000,"station_id":"ce4bgqh2rcd13ifvqc5g","pricing_plan_id":"cebpf4jnsgd1na2vs0mg"},{"bike_id":"ef4aafd7-31d8-4f9b-97f1-b8af2e53c15d","system_id":"levelo_inurba_marseille","lat":43.29892,"lon":5.4367,"is_reserved":false,"is_disabled":false,"rental_uris":{"android":"levelo://app?vid=ef4aafd7-31d8-4f9b-97f1-b8af2e53c15d","ios":"levelo://app?vid=ef4aafd7-31d8-4f9b-97f1-b8af2e53c15d"},"vehicle_type_id":"4","last_reported":1770117918,"current_range_meters":10000,"station_id":"ce4bhpp2rcd13ifvqhfg","pricing_plan_id":"cebpf4jnsgd1na2vs0mg"},{"bike_id":"0079e5b1-6125-4f00-9db5-9450c128e646","system_id":"levelo_inurba_marseille","lat":43.23149,"lon":5.4371,"is_reserved":false,"is_disabled":false,"rental_uris":{"android":"levelo://app?vid=0079e5b1-6125-4f00-9db5-9450c128e646","ios":"levelo://app?vid=0079e5b1-6125-4f00-9db5-9450c128e646"},"vehicle_type_id":"4","last_reported":1770117918,"current_range_meters":10000,"station_id":"ce4bhmp2rcd13ifvqgog","pricing_plan_id":"cebpf4jnsgd1na2vs0mg"},{"bike_id":"09f49787-1891-46ef-bef4-d9baa903f9d9","system_id":"levelo_inurba_marseille","lat":43.279995,"lon":5.400186,"is_reserved":false,"is_disabled":false,"rental_uris":{"android":"levelo://app?vid=09f49787-1891-46ef-bef4-d9baa903f9d9","ios":"levelo://app?vid=09f49787-1891-46ef-bef4-d9baa903f9d9"},"vehicle_type_id":"4","last_reported":1770117918,"current_range_meters":10000,"station_id":"ce4bho92rcd13ifvqh4g","pricing_plan_id":"cebpf4jnsgd1na2vs0mg"},{"bike_id":"da4d19a5-63fa-471e-bc87-bb23db14643b","system_id":"levelo_inurba_marseille","lat":43.2955,"lon":5.42527,"is_reserved":false,"is_disabled":false,"rental_uris":{"android":"levelo://app?vid=da4d19a5-63fa-471e-bc87-bb23db14643b","ios":"levelo://app?vid=da4d19a5-63fa-471e-bc87-bb23db14643b"},"vehicle_type_id":"4","last_reported":1770117918,"current_range_meters":10000,"station_id":"","pricing_plan_id":"cebpf4jnsgd1na2vs0mg"},{"bike_id":"958be705-2a4e-4da4-b1a2-155a288d2bb2","system_id":"levelo_inurba_marseille","lat":43.232046,"lon":5.355584,"is_reserved":false,"is_disabled":false,"rental_uris":{"android":"levelo://app?vid=958be705-2a4e-4da4-b1a2-155a288d2bb2","ios":"levelo://app?vid=958be705-2a4e-4da4-b1a2-155a288d2bb2"},"vehicle_type_id":"4","last_reported":1770117918,"current_range_meters":10000,"station_id":"ce4bhu92rcd13ifvqi70","pricing_plan_id":"cebpf4jnsgd1na2vs0mg"},{"bike_id":"6e92a5b0-409f-424e-bbaa-a5015feb4edd","system_id":"levelo_inurba_marseille","lat":43.26197,"lon":5.37456,"is_reserved":false,"is_disabled":false,"rental_uris":{"android":"levelo://app?vid=6e92a5b0-409f-424e-bbaa-a5015feb4edd","ios":"levelo://app?vid=6e92a5b0-409f-424e-bbaa-a5015feb4edd"},"vehicle_type_id":"4","last_reported":1770117918,"current_range_meters":10800,"station_id":"ce4bhgp2rcd13ifvqfc0","pricing_plan_id":"cebpf4jnsgd1na2vs0mg"},{"bike_id":"74dddf17-bd54-4fe8-85b3-d68b8c5ad470","system_id":"levelo_inurba_marseille","lat":43.28269,"lon":5.35057,"is_reserved":false,"is_disabled":false,"rental_uris":{"android":"levelo://app?vid=74dddf17-bd54-4fe8-85b3-d68b8c5ad470","ios":"levelo://app?vid=74dddf17-bd54-4fe8-85b3-d68b8c5ad470"},"vehicle_type_id":"4","last_reported":1770117918,"current_range_meters":10800,"station_id":"ce4bhbp2rcd13ifvqerg","pricing_plan_id":"cebpf4jnsgd1na2vs0mg"},{"bike_id":"97439aa1-31ad-4375-8f64-db4b0521352b","system_id":"levelo_inurba_marseille","lat":43.29303,"lon":5.37182,"is_reserved":false,"is_disabled":false,"rental_uris":{"android":"levelo://app?vid=97439aa1-31ad-4375-8f64-db4b0521352b","ios":"levelo://app?vid=97439aa1-31ad-4375-8f64-db4b0521352b"},"vehicle_type_id":"4","last_reported":1770117918,"current_range_meters":10800,"station_id":"ce4bgh92rcd13ifvqb40","pricing_plan_id":"cebpf4jnsgd1na2vs0mg"},{"bike_id":"d72c8d0b-6864-4eb2-b074-4484e5b3c2c1","system_id":"levelo_inurba_marseille","lat":43.28478,"lon":5.48403,"is_reserved":false,"is_disabled":false,"rental_uris":{"android":"levelo://app?vid=d72c8d0b-6864-4eb2-b074-4484e5b3c2c1","ios":"levelo://app?vid=d72c8d0b-6864-4eb2-b074-4484e5b3c2c1"},"vehicle_type_id":"4","last_reported":1770117918,"current_range_meters":10800,"station_id":"st_d3svhcjqgbts73a3dn0g","pricing_plan_id":"cebpf4jnsgd1na2vs0mg"},{"bike_id":"7363b04a-bf07-4cb9-91ef-96eeb8fefaab","system_id":"levelo_inurba_marseille","lat":43.265588,"lon":5.372957,"is_reserved":false,"is_disabled":false,"rental_uris":{"android":"levelo://app?vid=7363b04a-bf07-4cb9-91ef-96eeb8fefaab","ios":"levelo://app?vid=7363b04a-bf07-4cb9-91ef-96eeb8fefaab"},"vehicle_type_id":"4","last_reported":1770117918,"current_range_meters":10800,"station_id":"ce4bhg12rcd13ifvqf70","pricing_plan_id":"cebpf4jnsgd1na2vs0mg"},{"bike_id":"e83e49c2-302d-4a88-b536-4a52e6acafba","system_id":"levelo_inurba_marseille","lat":43.24395,"lon":5.37075,"is_reserved":false,"is_disabled":false,"rental_uris":{"android":"levelo://app?vid=e83e49c2-302d-4a88-b536-4a52e6acafba","ios":"levelo://app?vid=e83e49c2-302d-4a88-b536-4a52e6acafba"},"vehicle_type_id":"4","last_reported":1770117918,"current_range_meters":10800,"station_id":"ce4bhhh2rcd13ifvqfk0","pricing_plan_id":"cebpf4jnsgd1na2vs0mg"},{"bike_id":"9e64e84f-d62a-47ba-bdf0-b84516abd71c","system_id":"levelo_inurba_marseille","lat":43.3095,"lon":5.3904,"is_reserved":false,"is_disabled":false,"rental_uris":{"android":"levelo://app?vid=9e64e84f-d62a-47ba-bdf0-b84516abd71c","ios":"levelo://app?vid=9e64e84f-d62a-47ba-bdf0-b84516abd71c"},"vehicle_type_id":"4","last_reported":1770117918,"current_range_meters":10800,"station_id":"ce4bgup2rcd13ifvqco0","pricing_plan_id":"cebpf4jnsgd1na2vs0mg"},{"bike_id":"a5c1703c-0b2d-4e6b-b820-25e716f1e211","system_id":"levelo_inurba_marseille","lat":43.28484,"lon":5.48408,"is_reserved":false,"is_disabled":false,"rental_uris":{"android":"levelo://app?vid=a5c1703c-0b2d-4e6b-b820-25e716f1e211","ios":"levelo://app?vid=a5c1703c-0b2d-4e6b-b820-25e716f1e211"},"vehicle_type_id":"4","last_reported":1770117918,"current_range_meters":10800,"station_id":"st_d3svhcjqgbts73a3dn0g","pricing_plan_id":"cebpf4jnsgd1na2vs0mg"},{"bike_id":"e5a5aac3-e9ff-41eb-aba9-199f8f4139e6","system_id":"levelo_inurba_marseille","lat":43.315843,"lon":5.407577,"is_reserved":false,"is_disabled":false,"rental_uris":{"android":"levelo://app?vid=e5a5aac3-e9ff-41eb-aba9-199f8f4139e6","ios":"levelo://app?vid=e5a5aac3-e9ff-41eb-aba9-199f8f4139e6"},"vehicle_type_id":"4","last_reported":1770117918,"current_range_meters":10800,"station_id":"","pricing_plan_id":"cebpf4jnsgd1na2vs0mg"},{"bike_id":"329141c9-df6e-4d15-8544-2790b7ae34b9","system_id":"levelo_inurba_marseille","lat":43.29846,"lon":5.36268,"is_reserved":false,"is_disabled":false,"rental_uris":{"android":"levelo://app?vid=329141c9-df6e-4d15-8544-2790b7ae34b9","ios":"levelo://app?vid=329141c9-df6e-4d15-8544-2790b7ae34b9"},"vehicle_type_id":"4","last_reported":1770117918,"current_range_meters":10800,"station_id":"ce4bgpp2rcd13ifvqc3g","pricing_plan_id":"cebpf4jnsgd1na2vs0mg"},{"bike_id":"6be43c1f-db2c-43c9-a648-234cc72c5193","system_id":"levelo_inurba_marseille","lat":43.31548,"lon":5.40703,"is_reserved":false,"is_disabled":false,"rental_uris":{"android":"levelo://app?vid=6be43c1f-db2c-43c9-a648-234cc72c5193","ios":"levelo://app?vid=6be43c1f-db2c-43c9-a648-234cc72c5193"},"vehicle_type_id":"4","last_reported":1770117918,"current_range_meters":10800,"station_id":"","pricing_plan_id":"cebpf4jnsgd1na2vs0mg"},{"bike_id":"b7459750-2399-4e38-af06-c335634f2d70","system_id":"levelo_inurba_marseille","lat":43.33603,"lon":5.41031,"is_reserved":false,"is_disabled":false,"rental_uris":{"android":"levelo://app?vid=b7459750-2399-4e38-af06-c335634f2d70","ios":"levelo://app?vid=b7459750-2399-4e38-af06-c335634f2d70"},"vehicle_type_id":"4","last_reported":1770117918,"current_range_meters":11200,"station_id":"ce4bhqh2rcd13ifvqhmg","pricing_plan_id":"cebpf4jnsgd1na2vs0mg"},{"bike_id":"41748fb5-e9ac-4282-8277-4105f4224a92","system_id":"levelo_inurba_marseille","lat":43.30952,"lon":5.39053,"is_reserved":false,"is_disabled":false,"rental_uris":{"android":"levelo://app?vid=41748fb5-e9ac-4282-8277-4105f4224a92","ios":"levelo://app?vid=41748fb5-e9ac-4282-8277-4105f4224a92"},"vehicle_type_id":"4","last_reported":1770117918,"current_range_meters":11200,"station_id":"ce4bgup2rcd13ifvqco0","pricing_plan_id":"cebpf4jnsgd1na2vs0mg"},{"bike_id":"c8e2032c-2531-4950-ab0e-40189d5ce84d","system_id":"levelo_inurba_marseille","lat":43.255,"lon":5.37649,"is_reserved":false,"is_disabled":false,"rental_uris":{"android":"levelo://app?vid=c8e2032c-2531-4950-ab0e-40189d5ce84d","ios":"levelo://app?vid=c8e2032c-2531-4950-ab0e-40189d5ce84d"},"vehicle_type_id":"4","last_reported":1770117918,"current_range_meters":11200,"station_id":"ce4bhh12rcd13ifvqff0","pricing_plan_id":"cebpf4jnsgd1na2vs0mg"},{"bike_id":"e35812c3-5f90-4899-bf01-1f1699699802","system_id":"levelo_inurba_marseille","lat":43.25863,"lon":5.39911,"is_reserved":false,"is_disabled":false,"rental_uris":{"android":"levelo://app?vid=e35812c3-5f90-4899-bf01-1f1699699802","ios":"levelo://app?vid=e35812c3-5f90-4899-bf01-1f1699699802"},"vehicle_type_id":"4","last_reported":1770117918,"current_range_meters":11200,"station_id":"ce4bhl92rcd13ifvqghg","pricing_plan_id":"cebpf4jnsgd1na2vs0mg"},{"bike_id":"bbf4b969-62de-4faf-9f3e-b6260f076952","system_id":"levelo_inurba_marseille","lat":43.23965,"lon":5.36636,"is_reserved":false,"is_disabled":false,"rental_uris":{"android":"levelo://app?vid=bbf4b969-62de-4faf-9f3e-b6260f076952","ios":"levelo://app?vid=bbf4b969-62de-4faf-9f3e-b6260f076952"},"vehicle_type_id":"4","last_reported":1770117918,"current_range_meters":11200,"station_id":"ce4bhi12rcd13ifvqfp0","pricing_plan_id":"cebpf4jnsgd1na2vs0mg"},{"bike_id":"6c1ec52b-6c99-4c6f-9f38-a3baa19d29a7","system_id":"levelo_inurba_marseille","lat":43.28955,"lon":5.38379,"is_reserved":false,"is_disabled":false,"rental_uris":{"android":"levelo://app?vid=6c1ec52b-6c99-4c6f-9f38-a3baa19d29a7","ios":"levelo://app?vid=6c1ec52b-6c99-4c6f-9f38-a3baa19d29a7"},"vehicle_type_id":"4","last_reported":1770117918,"current_range_meters":11200,"station_id":"ce4bh612rcd13ifvqe6g","pricing_plan_id":"cebpf4jnsgd1na2vs0mg"},{"bike_id":"7b2df10f-d97d-4068-9983-8f53d0a78517","system_id":"levelo_inurba_marseille","lat":43.28867,"lon":5.42521,"is_reserved":false,"is_disabled":false,"rental_uris":{"android":"levelo://app?vid=7b2df10f-d97d-4068-9983-8f53d0a78517","ios":"levelo://app?vid=7b2df10f-d97d-4068-9983-8f53d0a78517"},"vehicle_type_id":"4","last_reported":1770117918,"current_range_meters":11200,"station_id":"st_d3b462108ojc7389ooeg","pricing_plan_id":"cebpf4jnsgd1na2vs0mg"},{"bike_id":"c92abaad-8c46-4a7a-8f9e-07de9f97f9f8","system_id":"levelo_inurba_marseille","lat":43.29043,"lon":5.36979,"is_reserved":false,"is_disabled":false,"rental_uris":{"android":"levelo://app?vid=c92abaad-8c46-4a7a-8f9e-07de9f97f9f8","ios":"levelo://app?vid=c92abaad-8c46-4a7a-8f9e-07de9f97f9f8"},"vehicle_type_id":"4","last_reported":1770117918,"current_range_meters":11200,"station_id":"","pricing_plan_id":"cebpf4jnsgd1na2vs0mg"},{"bike_id":"2beea0c9-2b90-4340-be07-2798a42f4468","system_id":"levelo_inurba_marseille","lat":43.269107,"lon":5.385694,"is_reserved":false,"is_disabled":false,"rental_uris":{"android":"levelo://app?vid=2beea0c9-2b90-4340-be07-2798a42f4468","ios":"levelo://app?vid=2beea0c9-2b90-4340-be07-2798a42f4468"},"vehicle_type_id":"4","last_reported":1770117918,"current_range_meters":11200,"station_id":"ce4bh492rcd13ifvqdvg","pricing_plan_id":"cebpf4jnsgd1na2vs0mg"},{"bike_id":"428ee41c-4c61-4890-a35f-77605354d26b","system_id":"levelo_inurba_marseille","lat":43.28263,"lon":5.35063,"is_reserved":false,"is_disabled":false,"rental_uris":{"android":"levelo://app?vid=428ee41c-4c61-4890-a35f-77605354d26b","ios":"levelo://app?vid=428ee41c-4c61-4890-a35f-77605354d26b"},"vehicle_type_id":"4","last_reported":1770117918,"current_range_meters":11200,"station_id":"ce4bhbp2rcd13ifvqerg","pricing_plan_id":"cebpf4jnsgd1na2vs0mg"},{"bike_id":"5f1fb4a1-bb65-4bff-b48b-f60dd8d54b88","system_id":"levelo_inurba_marseille","lat":43.29369,"lon":5.37846,"is_reserved":false,"is_disabled":false,"rental_uris":{"android":"levelo://app?vid=5f1fb4a1-bb65-4bff-b48b-f60dd8d54b88","ios":"levelo://app?vid=5f1fb4a1-bb65-4bff-b48b-f60dd8d54b88"},"vehicle_type_id":"4","last_reported":1770117918,"current_range_meters":11200,"station_id":"ce4bgjh2rcd13ifvqbf0","pricing_plan_id":"cebpf4jnsgd1na2vs0mg"},{"bike_id":"c1e71f14-e91f-49b0-9bb2-6c712963da21","system_id":"levelo_inurba_marseille","lat":43.29905,"lon":5.43666,"is_reserved":false,"is_disabled":false,"rental_uris":{"android":"levelo://app?vid=c1e71f14-e91f-49b0-9bb2-6c712963da21","ios":"levelo://app?vid=c1e71f14-e91f-49b0-9bb2-6c712963da21"},"vehicle_type_id":"4","last_reported":1770117918,"current_range_meters":11200,"station_id":"ce4bhpp2rcd13ifvqhfg","pricing_plan_id":"cebpf4jnsgd1na2vs0mg"},{"bike_id":"a8839309-ab14-4796-a840-d72f207433dc","system_id":"levelo_inurba_marseille","lat":43.28468,"lon":5.38522,"is_reserved":false,"is_disabled":false,"rental_uris":{"android":"levelo://app?vid=a8839309-ab14-4796-a840-d72f207433dc","ios":"levelo://app?vid=a8839309-ab14-4796-a840-d72f207433dc"},"vehicle_type_id":"4","last_reported":1770117918,"current_range_meters":11200,"station_id":"ce4bh8p2rcd13ifvqeb0","pricing_plan_id":"cebpf4jnsgd1na2vs0mg"},{"bike_id":"626974d3-ace9-41dd-9dbe-f4621ca953aa","system_id":"levelo_inurba_marseille","lat":43.29463,"lon":5.40976,"is_reserved":false,"is_disabled":false,"rental_uris":{"android":"levelo://app?vid=626974d3-ace9-41dd-9dbe-f4621ca953aa","ios":"levelo://app?vid=626974d3-ace9-41dd-9dbe-f4621ca953aa"},