{"last_updated":1752759020,"ttl":60,"version":"2.2","data":{"bikes":[{"bike_id":"53b742a7-31ae-4272-9bba-7740339e2a2f","system_id":"levelo_inurba_marseille","lat":43.33747,"lon":5.37463,"is_reserved":false,"is_disabled":false,"rental_uris":{"android":"levelo://app?vid=53b742a7-31ae-4272-9bba-7740339e2a2f","ios":"levelo://app?vid=53b742a7-31ae-4272-9bba-7740339e2a2f"},"vehicle_type_id":"1","last_reported":1752759020,"current_range_meters":24400,"station_id":"","pricing_plan_id":"cebpf4jnsgd1na2vs0mg"},{"bike_id":"667f296b-5665-483a-b393-2e0edc86a9bc","system_id":"levelo_inurba_marseille","lat":43.230656,"lon":5.354872,"is_reserved":false,"is_disabled":false,"rental_uris":{"android":"levelo://app?vid=667f296b-5665-483a-b393-2e0edc86a9bc","ios":"levelo://app?vid=667f296b-5665-483a-b393-2e0edc86a9bc"},"vehicle_type_id":"4","last_reported":1752759020,"current_range_meters":2800,"station_id":"","pricing_plan_id":"cebpf4jnsgd1na2vs0mg"},{"bike_id":"98994f3e-850a-4473-9313-68629cc78714","system_id":"levelo_inurba_marseille","lat":43.26556,"lon":5.37284,"is_reserved":false,"is_disabled":true,"rental_uris":{"android":"levelo://app?vid=98994f3e-850a-4473-9313-68629cc78714","ios":"levelo://app?vid=98994f3e-850a-4473-9313-68629cc78714"},"vehicle_type_id":"4","last_reported":1752759020,"current_range_meters":2800,"station_id":"ce4bhg12rcd13ifvqf70","pricing_plan_id":"cebpf4jnsgd1na2vs0mg"},{"bike_id":"c9dfa1ff-302a-4293-b8c7-fd8c88deb85a","system_id":"levelo_inurba_marseille","lat":43.284119,"lon":5.34986,"is_reserved":false,"is_disabled":false,"rental_uris":{"android":"levelo://app?vid=c9dfa1ff-302a-4293-b8c7-fd8c88deb85a","ios":"levelo://app?vid=c9dfa1ff-302a-4293-b8c7-fd8c88deb85a"},"vehicle_type_id":"4","last_reported":1752759020,"current_range_meters":2800,"station_id":"ce4bhbh2rcd13ifvqepg","pricing_plan_id":"cebpf4jnsgd1na2vs0mg"},{"bike_id":"e470ab59-5da2-4a1f-9664-87ad807b10a3","system_id":"levelo_inurba_marseille","lat":43.24805,"lon":5.37453,"is_reserved":false,"is_disabled":false,"rental_uris":{"android":"levelo://app?vid=e470ab59-5da2-4a1f-9664-87ad807b10a3","ios":"levelo://app?vid=e470ab59-5da2-4a1f-9664-87ad807b10a3"},"vehicle_type_id":"4","last_reported":1752759020,"current_range_meters":3200,"station_id":"ce4bhgh2rcd13ifvqfb0","pricing_plan_id":"cebpf4jnsgd1na2vs0mg"},{"bike_id":"e73db4ab-cb65-49e2-aeab-e8d76799777d","system_id":"levelo_inurba_marseille","lat":43.23145,"lon":5.43755,"is_reserved":false,"is_disabled":false,"rental_uris":{"android":"levelo://app?vid=e73db4ab-cb65-49e2-aeab-e8d76799777d","ios":"levelo://app?vid=e73db4ab-cb65-49e2-aeab-e8d76799777d"},"vehicle_type_id":"4","last_reported":1752759020,"current_range_meters":4400,"station_id":"","pricing_plan_id":"cebpf4jnsgd1na2vs0mg"},{"bike_id":"6e293e80-fcca-401a-9b0b-451b06bb8603","system_id":"levelo_inurba_marseille","lat":43.30094,"lon":5.39091,"is_reserved":false,"is_disabled":false,"rental_uris":{"android":"levelo://app?vid=6e293e80-fcca-401a-9b0b-451b06bb8603","ios":"levelo://app?vid=6e293e80-fcca-401a-9b0b-451b06bb8603"},"vehicle_type_id":"4","last_reported":1752759020,"current_range_meters":4400,"station_id":"ce4bh192rcd13ifvqdb0","pricing_plan_id":"cebpf4jnsgd1na2vs0mg"},{"bike_id":"080b0f22-14dd-4044-a18f-ee7f74366cea","system_id":"levelo_inurba_marseille","lat":43.3199,"lon":5.38145,"is_reserved":false,"is_disabled":true,"rental_uris":{"android":"levelo://app?vid=080b0f22-14dd-4044-a18f-ee7f74366cea","ios":"levelo://app?vid=080b0f22-14dd-4044-a18f-ee7f74366cea"},"vehicle_type_id":"4","last_reported":1752759020,"current_range_meters":4400,"station_id":"ce4bhr12rcd13ifvqhpg","pricing_plan_id":"cebpf4jnsgd1na2vs0mg"},{"bike_id":"7aec9a15-2c3d-481b-829a-350c20b8655c","system_id":"levelo_inurba_marseille","lat":43.29433,"lon":5.39768,"is_reserved":false,"is_disabled":false,"rental_uris":{"android":"levelo://app?vid=7aec9a15-2c3d-481b-829a-350c20b8655c","ios":"levelo://app?vid=7aec9a15-2c3d-481b-829a-350c20b8655c"},"vehicle_type_id":"4","last_reported":1752759020,"current_range_meters":4800,"station_id":"ce4bh3h2rcd13ifvqdo0","pricing_plan_id":"cebpf4jnsgd1na2vs0mg"},{"bike_id":"0fac68ae-5495-4569-84b3-e7e1ed18e77a","system_id":"levelo_inurba_marseille","lat":43.31164,"lon":5.38722,"is_reserved":false,"is_disabled":false,"rental_uris":{"android":"levelo://app?vid=0fac68ae-5495-4569-84b3-e7e1ed18e77a","ios":"levelo://app?vid=0fac68ae-5495-4569-84b3-e7e1ed18e77a"},"vehicle_type_id":"4","last_reported":1752759020,"current_range_meters":4400,"station_id":"ce4bgv12rcd13ifvqcp0","pricing_plan_id":"cebpf4jnsgd1na2vs0mg"},{"bike_id":"d98ef30e-38a0-41ef-a00a-304afa979a1e","system_id":"levelo_inurba_marseille","lat":43.29906,"lon":5.43665,"is_reserved":false,"is_disabled":false,"rental_uris":{"android":"levelo://app?vid=d98ef30e-38a0-41ef-a00a-304afa979a1e","ios":"levelo://app?vid=d98ef30e-38a0-41ef-a00a-304afa979a1e"},"vehicle_type_id":"4","last_reported":1752759020,"current_range_meters":5600,"station_id":"ce4bhpp2rcd13ifvqhfg","pricing_plan_id":"cebpf4jnsgd1na2vs0mg"},{"bike_id":"66f1b567-c1c3-47c4-a178-874529ccca68","system_id":"levelo_inurba_marseille","lat":43.28269,"lon":5.35072,"is_reserved":false,"is_disabled":false,"rental_uris":{"android":"levelo://app?vid=66f1b567-c1c3-47c4-a178-874529ccca68","ios":"levelo://app?vid=66f1b567-c1c3-47c4-a178-874529ccca68"},"vehicle_type_id":"4","last_reported":1752759020,"current_range_meters":5600,"station_id":"ce4bhbp2rcd13ifvqerg","pricing_plan_id":"cebpf4jnsgd1na2vs0mg"},{"bike_id":"e1dc3147-a5b5-4576-92f8-f6998d07d879","system_id":"levelo_inurba_marseille","lat":43.25488,"lon":5.37652,"is_reserved":false,"is_disabled":false,"rental_uris":{"android":"levelo://app?vid=e1dc3147-a5b5-4576-92f8-f6998d07d879","ios":"levelo://app?vid=e1dc3147-a5b5-4576-92f8-f6998d07d879"},"vehicle_type_id":"4","last_reported":1752759020,"current_range_meters":6000,"station_id":"ce4bhh12rcd13ifvqff0","pricing_plan_id":"cebpf4jnsgd1na2vs0mg"},{"bike_id":"56717acc-bfcb-4cf1-9da3-c88582611d55","system_id":"levelo_inurba_marseille","lat":43.29035,"lon":5.37565,"is_reserved":false,"is_disabled":false,"rental_uris":{"android":"levelo://app?vid=56717acc-bfcb-4cf1-9da3-c88582611d55","ios":"levelo://app?vid=56717acc-bfcb-4cf1-9da3-c88582611d55"},"vehicle_type_id":"4","last_reported":1752759020,"current_range_meters":6400,"station_id":"ce4bh692rcd13ifvqe90","pricing_plan_id":"cebpf4jnsgd1na2vs0mg"},{"bike_id":"7e640f8b-8716-4855-9c3d-a686f801c841","system_id":"levelo_inurba_marseille","lat":43.29707,"lon":5.3769,"is_reserved":false,"is_disabled":false,"rental_uris":{"android":"levelo://app?vid=7e640f8b-8716-4855-9c3d-a686f801c841","ios":"levelo://app?vid=7e640f8b-8716-4855-9c3d-a686f801c841"},"vehicle_type_id":"4","last_reported":1752759020,"current_range_meters":6400,"station_id":"ce4bgkh2rcd13ifvqbl0","pricing_plan_id":"cebpf4jnsgd1na2vs0mg"},{"bike_id":"f668d1a2-154f-4b3a-9672-303a2c6d23bf","system_id":"levelo_inurba_marseille","lat":43.31067,"lon":5.38351,"is_reserved":false,"is_disabled":true,"rental_uris":{"android":"levelo://app?vid=f668d1a2-154f-4b3a-9672-303a2c6d23bf","ios":"levelo://app?vid=f668d1a2-154f-4b3a-9672-303a2c6d23bf"},"vehicle_type_id":"4","last_reported":1752759020,"current_range_meters":7200,"station_id":"ce4bgv92rcd13ifvqcr0","pricing_plan_id":"cebpf4jnsgd1na2vs0mg"},{"bike_id":"e0658d79-7dfa-4166-adcc-550083b1066a","system_id":"levelo_inurba_marseille","lat":43.24163,"lon":5.36388,"is_reserved":false,"is_disabled":false,"rental_uris":{"android":"levelo://app?vid=e0658d79-7dfa-4166-adcc-550083b1066a","ios":"levelo://app?vid=e0658d79-7dfa-4166-adcc-550083b1066a"},"vehicle_type_id":"4","last_reported":1752759020,"current_range_meters":7200,"station_id":"cpo36qri1sfpv3e86is0","pricing_plan_id":"cebpf4jnsgd1na2vs0mg"},{"bike_id":"a7c449cd-01c2-410a-b9c5-5b66aaa3d121","system_id":"levelo_inurba_marseille","lat":43.29296,"lon":5.37457,"is_reserved":false,"is_disabled":false,"rental_uris":{"android":"levelo://app?vid=a7c449cd-01c2-410a-b9c5-5b66aaa3d121","ios":"levelo://app?vid=a7c449cd-01c2-410a-b9c5-5b66aaa3d121"},"vehicle_type_id":"4","last_reported":1752759020,"current_range_meters":7200,"station_id":"ce4bgi12rcd13ifvqb70","pricing_plan_id":"cebpf4jnsgd1na2vs0mg"},{"bike_id":"e6decac7-8084-4c10-8266-d20895c614d0","system_id":"levelo_inurba_marseille","lat":43.31085,"lon":5.42427,"is_reserved":false,"is_disabled":false,"rental_uris":{"android":"levelo://app?vid=e6decac7-8084-4c10-8266-d20895c614d0","ios":"levelo://app?vid=e6decac7-8084-4c10-8266-d20895c614d0"},"vehicle_type_id":"4","last_reported":1752759020,"current_range_meters":7200,"station_id":"ce4bhp92rcd13ifvqhag","pricing_plan_id":"cebpf4jnsgd1na2vs0mg"},{"bike_id":"c4e3adcf-b133-4a48-ad8a-5f7284a8ca7c","system_id":"levelo_inurba_marseille","lat":43.23147,"lon":5.43713,"is_reserved":false,"is_disabled":false,"rental_uris":{"android":"levelo://app?vid=c4e3adcf-b133-4a48-ad8a-5f7284a8ca7c","ios":"levelo://app?vid=c4e3adcf-b133-4a48-ad8a-5f7284a8ca7c"},"vehicle_type_id":"4","last_reported":1752759020,"current_range_meters":7200,"station_id":"ce4bhmp2rcd13ifvqgog","pricing_plan_id":"cebpf4jnsgd1na2vs0mg"},{"bike_id":"f74814ba-cf24-403f-8b90-2a003c5401e3","system_id":"levelo_inurba_marseille","lat":43.27376,"lon":5.36257,"is_reserved":false,"is_disabled":false,"rental_uris":{"android":"levelo://app?vid=f74814ba-cf24-403f-8b90-2a003c5401e3","ios":"levelo://app?vid=f74814ba-cf24-403f-8b90-2a003c5401e3"},"vehicle_type_id":"4","last_reported":1752759020,"current_range_meters":8000,"station_id":"ce4bhbh2rcd13ifvqeo0","pricing_plan_id":"cebpf4jnsgd1na2vs0mg"},{"bike_id":"9e56c119-b243-4113-b710-6cfcbd16002a","system_id":"levelo_inurba_marseille","lat":43.32332,"lon":5.40622,"is_reserved":false,"is_disabled":false,"rental_uris":{"android":"levelo://app?vid=9e56c119-b243-4113-b710-6cfcbd16002a","ios":"levelo://app?vid=9e56c119-b243-4113-b710-6cfcbd16002a"},"vehicle_type_id":"4","last_reported":1752759020,"current_range_meters":8000,"station_id":"ce4bhq92rcd13ifvqhjg","pricing_plan_id":"cebpf4jnsgd1na2vs0mg"},{"bike_id":"82361dee-a9b8-4b2d-ac79-a168ddf80f4e","system_id":"levelo_inurba_marseille","lat":43.29024,"lon":5.38651,"is_reserved":false,"is_disabled":false,"rental_uris":{"android":"levelo://app?vid=82361dee-a9b8-4b2d-ac79-a168ddf80f4e","ios":"levelo://app?vid=82361dee-a9b8-4b2d-ac79-a168ddf80f4e"},"vehicle_type_id":"4","last_reported":1752759020,"current_range_meters":8000,"station_id":"ce4bh4p2rcd13ifvqe0g","pricing_plan_id":"cebpf4jnsgd1na2vs0mg"},{"bike_id":"5c037a77-75ea-470f-a73f-adba10db87f7","system_id":"levelo_inurba_marseille","lat":43.26183,"lon":5.37453,"is_reserved":false,"is_disabled":false,"rental_uris":{"android":"levelo://app?vid=5c037a77-75ea-470f-a73f-adba10db87f7","ios":"levelo://app?vid=5c037a77-75ea-470f-a73f-adba10db87f7"},"vehicle_type_id":"4","last_reported":1752759020,"current_range_meters":8000,"station_id":"ce4bhgp2rcd13ifvqfc0","pricing_plan_id":"cebpf4jnsgd1na2vs0mg"},{"bike_id":"b26d307c-9171-4b3b-a115-102cc22a2ba9","system_id":"levelo_inurba_marseille","lat":43.30922,"lon":5.40141,"is_reserved":false,"is_disabled":false,"rental_uris":{"android":"levelo://app?vid=b26d307c-9171-4b3b-a115-102cc22a2ba9","ios":"levelo://app?vid=b26d307c-9171-4b3b-a115-102cc22a2ba9"},"vehicle_type_id":"4","last_reported":1752759020,"current_range_meters":8400,"station_id":"ce4bgvp2rcd13ifvqct0","pricing_plan_id":"cebpf4jnsgd1na2vs0mg"},{"bike_id":"4c5ac849-29a6-42b3-8638-845e2ec30fc1","system_id":"levelo_inurba_marseille","lat":43.24382,"lon":5.37067,"is_reserved":false,"is_disabled":false,"rental_uris":{"android":"levelo://app?vid=4c5ac849-29a6-42b3-8638-845e2ec30fc1","ios":"levelo://app?vid=4c5ac849-29a6-42b3-8638-845e2ec30fc1"},"vehicle_type_id":"4","last_reported":1752759020,"current_range_meters":8800,"station_id":"ce4bhhh2rcd13ifvqfk0","pricing_plan_id":"cebpf4jnsgd1na2vs0mg"},{"bike_id":"675a4573-a1f2-4f9d-b1bd-48fb0f00616c","system_id":"levelo_inurba_marseille","lat":43.28627,"lon":5.35088,"is_reserved":false,"is_disabled":false,"rental_uris":{"android":"levelo://app?vid=675a4573-a1f2-4f9d-b1bd-48fb0f00616c","ios":"levelo://app?vid=675a4573-a1f2-4f9d-b1bd-48fb0f00616c"},"vehicle_type_id":"4","last_reported":1752759020,"current_range_meters":8800,"station_id":"ce4bhch2rcd13ifvqeug","pricing_plan_id":"cebpf4jnsgd1na2vs0mg"},{"bike_id":"1d985ad1-9648-4b7b-8f50-4ccf0858d561","system_id":"levelo_inurba_marseille","lat":43.30351,"lon":5.41876,"is_reserved":false,"is_disabled":false,"rental_uris":{"android":"levelo://app?vid=1d985ad1-9648-4b7b-8f50-4ccf0858d561","ios":"levelo://app?vid=1d985ad1-9648-4b7b-8f50-4ccf0858d561"},"vehicle_type_id":"4","last_reported":1752759020,"current_range_meters":9200,"station_id":"ce4bhop2rcd13ifvqh7g","pricing_plan_id":"cebpf4jnsgd1na2vs0mg"},{"bike_id":"72cfe2d1-4ca6-4bca-877c-fe87989b712f","system_id":"levelo_inurba_marseille","lat":43.2997,"lon":5.38489,"is_reserved":false,"is_disabled":false,"rental_uris":{"android":"levelo://app?vid=72cfe2d1-4ca6-4bca-877c-fe87989b712f","ios":"levelo://app?vid=72cfe2d1-4ca6-4bca-877c-fe87989b712f"},"vehicle_type_id":"4","last_reported":1752759020,"current_range_meters":9200,"station_id":"ce4bgj92rcd13ifvqbd0","pricing_plan_id":"cebpf4jnsgd1na2vs0mg"},{"bike_id":"903d9bc8-2cf7-45f3-8641-7f41ca11b200","system_id":"levelo_inurba_marseille","lat":43.23058,"lon":5.35489,"is_reserved":false,"is_disabled":false,"rental_uris":{"android":"levelo://app?vid=903d9bc8-2cf7-45f3-8641-7f41ca11b200","ios":"levelo://app?vid=903d9bc8-2cf7-45f3-8641-7f41ca11b200"},"vehicle_type_id":"4","last_reported":1752759020,"current_range_meters":9200,"station_id":"cpo3342slgdg3j2ifvpg","pricing_plan_id":"cebpf4jnsgd1na2vs0mg"},{"bike_id":"aa486e73-1d27-41ec-b417-f88dfd6c1e5e","system_id":"levelo_inurba_marseille","lat":43.2904,"lon":5.38642,"is_reserved":false,"is_disabled":true,"rental_uris":{"android":"levelo://app?vid=aa486e73-1d27-41ec-b417-f88dfd6c1e5e","ios":"levelo://app?vid=aa486e73-1d27-41ec-b417-f88dfd6c1e5e"},"vehicle_type_id":"4","last_reported":1752759020,"current_range_meters":9600,"station_id":"ce4bh4p2rcd13ifvqe0g","pricing_plan_id":"cebpf4jnsgd1na2vs0mg"},{"bike_id":"0cff7487-d4dd-4840-b22b-ef3cf5f3d268","system_id":"levelo_inurba_marseille","lat":43.28402,"lon":5.35015,"is_reserved":false,"is_disabled":false,"rental_uris":{"android":"levelo://app?vid=0cff7487-d4dd-4840-b22b-ef3cf5f3d268","ios":"levelo://app?vid=0cff7487-d4dd-4840-b22b-ef3cf5f3d268"},"vehicle_type_id":"4","last_reported":1752759020,"current_range_meters":9600,"station_id":"ce4bhbh2rcd13ifvqepg","pricing_plan_id":"cebpf4jnsgd1na2vs0mg"},{"bike_id":"a4fd652b-34f8-4c68-a6e6-032a5cc5e418","system_id":"levelo_inurba_marseille","lat":43.31243,"lon":5.36774,"is_reserved":false,"is_disabled":true,"rental_uris":{"android":"levelo://app?vid=a4fd652b-34f8-4c68-a6e6-032a5cc5e418","ios":"levelo://app?vid=a4fd652b-34f8-4c68-a6e6-032a5cc5e418"},"vehicle_type_id":"4","last_reported":1752759020,"current_range_meters":9600,"station_id":"ce4bgl92rcd13ifvqbq0","pricing_plan_id":"cebpf4jnsgd1na2vs0mg"},{"bike_id":"2e49994b-b105-486b-9a30-d3891ec04ddc","system_id":"levelo_inurba_marseille","lat":43.23195,"lon":5.35549,"is_reserved":false,"is_disabled":false,"rental_uris":{"android":"levelo://app?vid=2e49994b-b105-486b-9a30-d3891ec04ddc","ios":"levelo://app?vid=2e49994b-b105-486b-9a30-d3891ec04ddc"},"vehicle_type_id":"4","last_reported":1752759020,"current_range_meters":9600,"station_id":"ce4bhu92rcd13ifvqi70","pricing_plan_id":"cebpf4jnsgd1na2vs0mg"},{"bike_id":"61a9e916-b95f-4f2c-8dca-c5b11be80287","system_id":"levelo_inurba_marseille","lat":43.29222,"lon":5.36044,"is_reserved":false,"is_disabled":false,"rental_uris":{"android":"levelo://app?vid=61a9e916-b95f-4f2c-8dca-c5b11be80287","ios":"levelo://app?vid=61a9e916-b95f-4f2c-8dca-c5b11be80287"},"vehicle_type_id":"4","last_reported":1752759020,"current_range_meters":9600,"station_id":"ce4bhbh2rcd13ifvqeqg","pricing_plan_id":"cebpf4jnsgd1na2vs0mg"},{"bike_id":"db8096e2-5dd6-4134-a08c-713ec936d3ff","system_id":"levelo_inurba_marseille","lat":43.28712,"lon":5.37383,"is_reserved":false,"is_disabled":false,"rental_uris":{"android":"levelo://app?vid=db8096e2-5dd6-4134-a08c-713ec936d3ff","ios":"levelo://app?vid=db8096e2-5dd6-4134-a08c-713ec936d3ff"},"vehicle_type_id":"4","last_reported":1752759020,"current_range_meters":9600,"station_id":"ce4bh3p2rcd13ifvqdq0","pricing_plan_id":"cebpf4jnsgd1na2vs0mg"},{"bike_id":"c5e6105e-4989-411b-a6ec-5e426b7b22f8","system_id":"levelo_inurba_marseille","lat":43.29272,"lon":5.36841,"is_reserved":false,"is_disabled":false,"rental_uris":{"android":"levelo://app?vid=c5e6105e-4989-411b-a6ec-5e426b7b22f8","ios":"levelo://app?vid=c5e6105e-4989-411b-a6ec-5e426b7b22f8"},"vehicle_type_id":"4","last_reported":1752759020,"current_range_meters":10000,"station_id":"ce4bhbp2rcd13ifvqesg","pricing_plan_id":"cebpf4jnsgd1na2vs0mg"},{"bike_id":"9bb504f0-dded-49fb-ab48-bbe180f0d0ef","system_id":"levelo_inurba_marseille","lat":43.3013,"lon":5.38781,"is_reserved":false,"is_disabled":false,"rental_uris":{"android":"levelo://app?vid=9bb504f0-dded-49fb-ab48-bbe180f0d0ef","ios":"levelo://app?vid=9bb504f0-dded-49fb-ab48-bbe180f0d0ef"},"vehicle_type_id":"4","last_reported":1752759020,"current_range_meters":10000,"station_id":"ce4bghh2rcd13ifvqb60","pricing_plan_id":"cebpf4jnsgd1na2vs0mg"},{"bike_id":"66937f9e-bb35-4c7d-b1b4-652e961bc84a","system_id":"levelo_inurba_marseille","lat":43.26232,"lon":5.40436,"is_reserved":false,"is_disabled":false,"rental_uris":{"android":"levelo://app?vid=66937f9e-bb35-4c7d-b1b4-652e961bc84a","ios":"levelo://app?vid=66937f9e-bb35-4c7d-b1b4-652e961bc84a"},"vehicle_type_id":"4","last_reported":1752759020,"current_range_meters":10000,"station_id":"ce4bhmh2rcd13ifvqgmg","pricing_plan_id":"cebpf4jnsgd1na2vs0mg"},{"bike_id":"63b68163-23ff-4509-a7ff-da745c70a782","system_id":"levelo_inurba_marseille","lat":43.295232,"lon":5.394075,"is_reserved":false,"is_disabled":false,"rental_uris":{"android":"levelo://app?vid=63b68163-23ff-4509-a7ff-da745c70a782","ios":"levelo://app?vid=63b68163-23ff-4509-a7ff-da745c70a782"},"vehicle_type_id":"4","last_reported":1752759020,"current_range_meters":10000,"station_id":"","pricing_plan_id":"cebpf4jnsgd1na2vs0mg"},{"bike_id":"324c4ef1-e66f-4597-9e7b-bb337e77e9e9","system_id":"levelo_inurba_marseille","lat":43.26781,"lon":5.39412,"is_reserved":false,"is_disabled":false,"rental_uris":{"android":"levelo://app?vid=324c4ef1-e66f-4597-9e7b-bb337e77e9e9","ios":"levelo://app?vid=324c4ef1-e66f-4597-9e7b-bb337e77e9e9"},"vehicle_type_id":"4","last_reported":1752759020,"current_range_meters":10000,"station_id":"ce4bhh12rcd13ifvqfg0","pricing_plan_id":"cebpf4jnsgd1na2vs0mg"},{"bike_id":"1be28061-1b85-4eb2-8cf5-d832f5e8190e","system_id":"levelo_inurba_marseille","lat":43.30279,"lon":5.37699,"is_reserved":false,"is_disabled":false,"rental_uris":{"android":"levelo://app?vid=1be28061-1b85-4eb2-8cf5-d832f5e8190e","ios":"levelo://app?vid=1be28061-1b85-4eb2-8cf5-d832f5e8190e"},"vehicle_type_id":"4","last_reported":1752759020,"current_range_meters":10800,"station_id":"ce4bguh2rcd13ifvqcj0","pricing_plan_id":"cebpf4jnsgd1na2vs0mg"},{"bike_id":"5d2b154f-fe1f-4b9b-b2e1-e19a4cde7566","system_id":"levelo_inurba_marseille","lat":43.24167,"lon":5.36393,"is_reserved":false,"is_disabled":false,"rental_uris":{"android":"levelo://app?vid=5d2b154f-fe1f-4b9b-b2e1-e19a4cde7566","ios":"levelo://app?vid=5d2b154f-fe1f-4b9b-b2e1-e19a4cde7566"},"vehicle_type_id":"4","last_reported":1752759020,"current_range_meters":10800,"station_id":"cpo36qri1sfpv3e86is0","pricing_plan_id":"cebpf4jnsgd1na2vs0mg"},{"bike_id":"9ff813f5-7ffe-477a-a652-434a34f03c1a","system_id":"levelo_inurba_marseille","lat":43.29274,"lon":5.38417,"is_reserved":false,"is_disabled":true,"rental_uris":{"android":"levelo://app?vid=9ff813f5-7ffe-477a-a652-434a34f03c1a","ios":"levelo://app?vid=9ff813f5-7ffe-477a-a652-434a34f03c1a"},"vehicle_type_id":"4","last_reported":1752759020,"current_range_meters":10800,"station_id":"ce4bh692rcd13ifvqea0","pricing_plan_id":"cebpf4jnsgd1na2vs0mg"},{"bike_id":"3e950c59-a890-42d3-9386-ccd9c6db37ab","system_id":"levelo_inurba_marseille","lat":43.29904,"lon":5.3814,"is_reserved":false,"is_disabled":false,"rental_uris":{"android":"levelo://app?vid=3e950c59-a890-42d3-9386-ccd9c6db37ab","ios":"levelo://app?vid=3e950c59-a890-42d3-9386-ccd9c6db37ab"},"vehicle_type_id":"4","last_reported":1752759020,"current_range_meters":10800,"station_id":"ce4bgj12rcd13ifvqbc0","pricing_plan_id":"cebpf4jnsgd1na2vs0mg"},{"bike_id":"57239988-9161-49ce-a0a2-4581baf1b159","system_id":"levelo_inurba_marseille","lat":43.33793,"lon":5.37405,"is_reserved":false,"is_disabled":false,"rental_uris":{"android":"levelo://app?vid=57239988-9161-49ce-a0a2-4581baf1b159","ios":"levelo://app?vid=57239988-9161-49ce-a0a2-4581baf1b159"},"vehicle_type_id":"4","last_reported":1752759020,"current_range_meters":10800,"station_id":"","pricing_plan_id":"cebpf4jnsgd1na2vs0mg"},{"bike_id":"254bce5b-6dd6-4b55-85ae-868f7fe6e12a","system_id":"levelo_inurba_marseille","lat":43.2582,"lon":5.39427,"is_reserved":false,"is_disabled":false,"rental_uris":{"android":"levelo://app?vid=254bce5b-6dd6-4b55-85ae-868f7fe6e12a","ios":"levelo://app?vid=254bce5b-6dd6-4b55-85ae-868f7fe6e12a"},"vehicle_type_id":"4","last_reported":1752759020,"current_range_meters":10800,"station_id":"ce4bhip2rcd13ifvqft0","pricing_plan_id":"cebpf4jnsgd1na2vs0mg"},{"bike_id":"7fc6ebd8-c0b1-4e77-8345-e5ffce2a02ab","system_id":"levelo_inurba_marseille","lat":43.24167,"lon":5.36395,"is_reserved":false,"is_disabled":false,"rental_uris":{"android":"levelo://app?vid=7fc6ebd8-c0b1-4e77-8345-e5ffce2a02ab","ios":"levelo://app?vid=7fc6ebd8-c0b1-4e77-8345-e5ffce2a02ab"},"vehicle_type_id":"4","last_reported":1752759020,"current_range_meters":10800,"station_id":"cpo36qri1sfpv3e86is0","pricing_plan_id":"cebpf4jnsgd1na2vs0mg"},{"bike_id":"0a81d3d5-1a88-4207-bfeb-dce61510f31f","system_id":"levelo_inurba_marseille","lat":43.29509,"lon":5.39374,"is_reserved":false,"is_disabled":true,"rental_uris":{"android":"levelo://app?vid=0a81d3d5-1a88-4207-bfeb-dce61510f31f","ios":"levelo://app?vid=0a81d3d5-1a88-4207-bfeb-dce61510f31f"},"vehicle_type_id":"4","last_reported":1752759020,"current_range_meters":11200,"station_id":"ce4bh292rcd13ifvqdf0","pricing_plan_id":"cebpf4jnsgd1na2vs0mg"},{"bike_id":"6c5a2ee0-eb20-4020-b509-31581e6961c5","system_id":"levelo_inurba_marseille","lat":43.308143,"lon":5.396059,"is_reserved":false,"is_disabled":false,"rental_uris":{"android":"levelo://app?vid=6c5a2ee0-eb20-4020-b509-31581e6961c5","ios":"levelo://app?vid=6c5a2ee0-eb20-4020-b509-31581e6961c5"},"vehicle_type_id":"4","last_reported":1752759020,"current_range_meters":11600,"station_id":"ce4bh012rcd13ifvqcv0","pricing_plan_id":"cebpf4jnsgd1na2vs0mg"},{"bike_id":"6a69d0cc-faf8-4dc3-8ded-5ef811a5de8d","system_id":"levelo_inurba_marseille","lat":43.30722,"lon":5.42447,"is_reserved":false,"is_disabled":false,"rental_uris":{"android":"levelo://app?vid=6a69d0cc-faf8-4dc3-8ded-5ef811a5de8d","ios":"levelo://app?vid=6a69d0cc-faf8-4dc3-8ded-5ef811a5de8d"},"vehicle_type_id":"4","last_reported":1752759020,"current_range_meters":11600,"station_id":"st_cvj6ca6bvosntc0bfgr0","pricing_plan_id":"cebpf4jnsgd1na2vs0mg"},{"bike_id":"734423fd-3999-4f31-85ef-66c24e824834","system_id":"levelo_inurba_marseille","lat":43.29003,"lon":5.35616,"is_reserved":false,"is_disabled":false,"rental_uris":{"android":"levelo://app?vid=734423fd-3999-4f31-85ef-66c24e824834","ios":"levelo://app?vid=734423fd-3999-4f31-85ef-66c24e824834"},"vehicle_type_id":"4","last_reported":1752759020,"current_range_meters":12000,"station_id":"ce4bhb92rcd13ifvqen0","pricing_plan_id":"cebpf4jnsgd1na2vs0mg"},{"bike_id":"c886c7e9-ec4f-46da-b68a-28a4775938a1","system_id":"levelo_inurba_marseille","lat":43.2863,"lon":5.35092,"is_reserved":false,"is_disabled":false,"rental_uris":{"android":"levelo://app?vid=c886c7e9-ec4f-46da-b68a-28a4775938a1","ios":"levelo://app?vid=c886c7e9-ec4f-46da-b68a-28a4775938a1"},"vehicle_type_id":"4","last_reported":1752759020,"current_range_meters":12000,"station_id":"ce4bhch2rcd13ifvqeug","pricing_plan_id":"cebpf4jnsgd1na2vs0mg"},{"bike_id":"d55d4cb5-1558-4ea0-aa08-b3c24522217e","system_id":"levelo_inurba_marseille","lat":43.243881,"lon":5.370601,"is_reserved":false,"is_disabled":false,"rental_uris":{"android":"levelo://app?vid=d55d4cb5-1558-4ea0-aa08-b3c24522217e","ios":"levelo://app?vid=d55d4cb5-1558-4ea0-aa08-b3c24522217e"},"vehicle_type_id":"4","last_reported":1752759020,"current_range_meters":12000,"station_id":"ce4bhhh2rcd13ifvqfk0","pricing_plan_id":"cebpf4jnsgd1na2vs0mg"},{"bike_id":"25cb31b6-5bbe-46f0-990e-9574befa2c8b","system_id":"levelo_inurba_marseille","lat":43.26208,"lon":5.37441,"is_reserved":false,"is_disabled":false,"rental_uris":{"android":"levelo://app?vid=25cb31b6-5bbe-46f0-990e-9574befa2c8b","ios":"levelo://app?vid=25cb31b6-5bbe-46f0-990e-9574befa2c8b"},"vehicle_type_id":"4","last_reported":1752759020,"current_range_meters":12000,"station_id":"ce4bhgp2rcd13ifvqfc0","pricing_plan_id":"cebpf4jnsgd1na2vs0mg"},{"bike_id":"555bc53e-5286-4fb6-9154-af42b3fd9792","system_id":"levelo_inurba_marseille","lat":43.30071,"lon":5.37281,"is_reserved":false,"is_disabled":false,"rental_uris":{"android":"levelo://app?vid=555bc53e-5286-4fb6-9154-af42b3fd9792","ios":"levelo://app?vid=555bc53e-5286-4fb6-9154-af42b3fd9792"},"vehicle_type_id":"4","last_reported":1752759020,"current_range_meters":12000,"station_id":"","pricing_plan_id":"cebpf4jnsgd1na2vs0mg"},{"bike_id":"37e8189d-3a2e-4706-90e4-fe0a1abcb858","system_id":"levelo_inurba_marseille","lat":43.288955,"lon":5.37867,"is_reserved":false,"is_disabled":false,"rental_uris":{"android":"levelo://app?vid=37e8189d-3a2e-4706-90e4-fe0a1abcb858","ios":"levelo://app?vid=37e8189d-3a2e-4706-90e4-fe0a1abcb858"},"vehicle_type_id":"4","last_reported":1752759020,"current_range_meters":12000,"station_id":"","pricing_plan_id":"cebpf4jnsgd1na2vs0mg"},{"bike_id":"5d5c9d93-0445-414b-9a9c-f9e0b76faa10","system_id":"levelo_inurba_marseille","lat":43.28665,"lon":5.38657,"is_reserved":false,"is_disabled":false,"rental_uris":{"android":"levelo://app?vid=5d5c9d93-0445-414b-9a9c-f9e0b76faa10","ios":"levelo://app?vid=5d5c9d93-0445-414b-9a9c-f9e0b76faa10"},"vehicle_type_id":"4","last_reported":1752759020,"current_range_meters":12000,"station_id":"ce4bh492rcd13ifvqdug","pricing_plan_id":"cebpf4jnsgd1na2vs0mg"},{"bike_id":"98daf460-c45d-4be9-b03d-fde500644729","system_id":"levelo_inurba_marseille","lat":43.296223,"lon":5.377025,"is_reserved":false,"is_disabled":false,"rental_uris":{"android":"levelo://app?vid=98daf460-c45d-4be9-b03d-fde500644729","ios":"levelo://app?vid=98daf460-c45d-4be9-b03d-fde500644729"},"vehicle_type_id":"4","last_reported":1752759020,"current_range_meters":12400,"station_id":"","pricing_plan_id":"cebpf4jnsgd1na2vs0mg"},{"bike_id":"890172f6-453b-4901-8b32-8e56512b45a4","system_id":"levelo_inurba_marseille","lat":43.2315,"lon":5.43701,"is_reserved":false,"is_disabled":false,"rental_uris":{"android":"levelo://app?vid=890172f6-453b-4901-8b32-8e56512b45a4","ios":"levelo://app?vid=890172f6-453b-4901-8b32-8e56512b45a4"},"vehicle_type_id":"4","last_reported":1752759020,"current_range_meters":12000,"station_id":"ce4bhmp2rcd13ifvqgog","pricing_plan_id":"cebpf4jnsgd1na2vs0mg"},{"bike_id":"3444bdc6-514a-4ba6-9650-f9073305e33d","system_id":"levelo_inurba_marseille","lat":43.29682,"lon":5.3698,"is_reserved":false,"is_disabled":false,"rental_uris":{"android":"levelo://app?vid=3444bdc6-514a-4ba6-9650-f9073305e33d","ios":"levelo://app?vid=3444bdc6-514a-4ba6-9650-f9073305e33d"},"vehicle_type_id":"4","last_reported":1752759020,"current_range_meters":12800,"station_id":"","pricing_plan_id":"cebpf4jnsgd1na2vs0mg"},{"bike_id":"4758a0f8-890e-479d-bed0-af1dc0d564d9","system_id":"levelo_inurba_marseille","lat":43.26188,"lon":5.37444,"is_reserved":false,"is_disabled":false,"rental_uris":{"android":"levelo://app?vid=4758a0f8-890e-479d-bed0-af1dc0d564d9","ios":"levelo://app?vid=4758a0f8-890e-479d-bed0-af1dc0d564d9"},"vehicle_type_id":"4","last_reported":1752759020,"current_range_meters":12800,"station_id":"ce4bhgp2rcd13ifvqfc0","pricing_plan_id":"cebpf4jnsgd1na2vs0mg"},{"bike_id":"1a1de22c-864f-4087-990e-227151d55abc","system_id":"levelo_inurba_marseille","lat":43.2121,"lon":5.35081,"is_reserved":false,"is_disabled":false,"rental_uris":{"android":"levelo://app?vid=1a1de22c-864f-4087-990e-227151d55abc","ios":"levelo://app?vid=1a1de22c-864f-4087-990e-227151d55abc"},"vehicle_type_id":"4","last_reported":1752759020,"current_range_meters":13600,"station_id":"st_cvj6sg6p6f1abm77japg","pricing_plan_id":"cebpf4jnsgd1na2vs0mg"},{"bike_id":"f6e67167-3686-4cae-82da-4610049996dc","system_id":"levelo_inurba_marseille","lat":43.26942,"lon":5.38547,"is_reserved":false,"is_disabled":false,"rental_uris":{"android":"levelo://app?vid=f6e67167-3686-4cae-82da-4610049996dc","ios":"levelo://app?vid=f6e67167-3686-4cae-82da-4610049996dc"},"vehicle_type_id":"4","last_reported":1752759020,"current_range_meters":13600,"station_id":"","pricing_plan_id":"cebpf4jnsgd1na2vs0mg"},{"bike_id":"0c984df6-df14-4937-b1b1-66c4f82ab288","system_id":"levelo_inurba_marseille","lat":43.30546,"lon":5.36563,"is_reserved":false,"is_disabled":false,"rental_uris":{"android":"levelo://app?vid=0c984df6-df14-4937-b1b1-66c4f82ab288","ios":"levelo://app?vid=0c984df6-df14-4937-b1b1-66c4f82ab288"},"vehicle_type_id":"4","last_reported":1752759020,"current_range_meters":13600,"station_id":"ce4bgs12rcd13ifvqcag","pricing_plan_id":"cebpf4jnsgd1na2vs0mg"},{"bike_id":"7e6b3a59-4c2a-4a70-b96f-0e8d0616f2c8","system_id":"levelo_inurba_marseille","lat":43.29301,"lon":5.3719,"is_reserved":false,"is_disabled":false,"rental_uris":{"android":"levelo://app?vid=7e6b3a59-4c2a-4a70-b96f-0e8d0616f2c8","ios":"levelo://app?vid=7e6b3a59-4c2a-4a70-b96f-0e8d0616f2c8"},"vehicle_type_id":"4","last_reported":1752759020,"current_range_meters":13600,"station_id":"ce4bgh92rcd13ifvqb40","pricing_plan_id":"cebpf4jnsgd1na2vs0mg"},{"bike_id":"a6ad2597-d35f-40c2-9606-f75afa3aba4c","system_id":"levelo_inurba_marseille","lat":43.28265,"lon":5.35078,"is_reserved":false,"is_disabled":false,"rental_uris":{"android":"levelo://app?vid=a6ad2597-d35f-40c2-9606-f75afa3aba4c","ios":"levelo://app?vid=a6ad2597-d35f-40c2-9606-f75afa3aba4c"},"vehicle_type_id":"4","last_reported":1752759020,"current_range_meters":13600,"station_id":"ce4bhbp2rcd13ifvqerg","pricing_plan_id":"cebpf4jnsgd1na2vs0mg"},{"bike_id":"d99ff2fe-54a6-4e1d-bef4-d02c8c2f8b9e","system_id":"levelo_inurba_marseille","lat":43.27552,"lon":5.38434,"is_reserved":false,"is_disabled":false,"rental_uris":{"android":"levelo://app?vid=d99ff2fe-54a6-4e1d-bef4-d02c8c2f8b9e","ios":"levelo://app?vid=d99ff2fe-54a6-4e1d-bef4-d02c8c2f8b9e"},"vehicle_type_id":"4","last_reported":1752759020,"current_range_meters":13600,"station_id":"ce4bhh92rcd13ifvqfi0","pricing_plan_id":"cebpf4jnsgd1na2vs0mg"},{"bike_id":"28d27c17-e6ca-4cec-aec9-f1f6696b8a12","system_id":"levelo_inurba_marseille","lat":43.29902,"lon":5.43659,"is_reserved":false,"is_disabled":true,"rental_uris":{"android":"levelo://app?vid=28d27c17-e6ca-4cec-aec9-f1f6696b8a12","ios":"levelo://app?vid=28d27c17-e6ca-4cec-aec9-f1f6696b8a12"},"vehicle_type_id":"4","last_reported":1752759020,"current_range_meters":13600,"station_id":"ce4bhpp2rcd13ifvqhfg","pricing_plan_id":"cebpf4jnsgd1na2vs0mg"},{"bike_id":"6ed371ac-d55c-4fd3-a505-514e058ac9c1","system_id":"levelo_inurba_marseille","lat":43.280283,"lon":5.369392,"is_reserved":false,"is_disabled":false,"rental_uris":{"android":"levelo://app?vid=6ed371ac-d55c-4fd3-a505-514e058ac9c1","ios":"levelo://app?vid=6ed371ac-d55c-4fd3-a505-514e058ac9c1"},"vehicle_type_id":"4","last_reported":1752759020,"current_range_meters":13600,"station_id":"ce4bha12rcd13ifvqef0","pricing_plan_id":"cebpf4jnsgd1na2vs0mg"},{"bike_id":"6a2a2eff-b41a-4bf9-8442-102de566cf7e","system_id":"levelo_inurba_marseille","lat":43.23964,"lon":5.36634,"is_reserved":false,"is_disabled":false,"rental_uris":{"android":"levelo://app?vid=6a2a2eff-b41a-4bf9-8442-102de566cf7e","ios":"levelo://app?vid=6a2a2eff-b41a-4bf9-8442-102de566cf7e"},"vehicle_type_id":"4","last_reported":1752759020,"current_range_meters":14000,"station_id":"ce4bhi12rcd13ifvqfp0","pricing_plan_id":"cebpf4jnsgd1na2vs0mg"},{"bike_id":"063b7548-1358-4c02-af8e-f37daeffb9f7","system_id":"levelo_inurba_marseille","lat":43.312186,"lon":5.368522,"is_reserved":false,"is_disabled":false,"rental_uris":{"android":"levelo://app?vid=063b7548-1358-4c02-af8e-f37daeffb9f7","ios":"levelo://app?vid=063b7548-1358-4c02-af8e-f37daeffb9f7"},"vehicle_type_id":"4","last_reported":1752759020,"current_range_meters":14000,"station_id":"ce4bgl92rcd13ifvqbq0","pricing_plan_id":"cebpf4jnsgd1na2vs0mg"},{"bike_id":"a55720de-8fd3-43bf-8cd7-cc917c818f5c","system_id":"levelo_inurba_marseille","lat":43.29309,"lon":5.37184,"is_reserved":false,"is_disabled":false,"rental_uris":{"android":"levelo://app?vid=a55720de-8fd3-43bf-8cd7-cc917c818f5c","ios":"levelo://app?vid=a55720de-8fd3-43bf-8cd7-cc917c818f5c"},"vehicle_type_id":"4","last_reported":1752759020,"current_range_meters":10800,"station_id":"ce4bgh92rcd13ifvqb40","pricing_plan_id":"cebpf4jnsgd1na2vs0mg"},{"bike_id":"e8db7860-c461-4659-866b-a14a730ae823","system_id":"levelo_inurba_marseille","lat":43.31485,"lon":5.37321,"is_reserved":false,"is_disabled":false,"rental_uris":{"android":"levelo://app?vid=e8db7860-c461-4659-866b-a14a730ae823","ios":"levelo://app?vid=e8db7860-c461-4659-866b-a14a730ae823"},"vehicle_type_id":"4","last_reported":1752759020,"current_range_meters":14000,"station_id":"ce4bgt12rcd13ifvqcd0","pricing_plan_id":"cebpf4jnsgd1na2vs0mg"},{"bike_id":"07f5ae19-0925-43ef-aab4-48ec58bc62b9","system_id":"levelo_inurba_marseille","lat":43.3145,"lon":5.37448,"is_reserved":false,"is_disabled":false,"rental_uris":{"android":"levelo://app?vid=07f5ae19-0925-43ef-aab4-48ec58bc62b9","ios":"levelo://app?vid=07f5ae19-0925-43ef-aab4-48ec58bc62b9"},"vehicle_type_id":"4","last_reported":1752759020,"current_range_meters":14000,"station_id":"","pricing_plan_id":"cebpf4jnsgd1na2vs0mg"},{"bike_id":"b6e40dbb-482e-43e6-bc56-ee373b6225ae","system_id":"levelo_inurba_marseille","lat":43.314962,"lon":5.373136,"is_reserved":false,"is_disabled":false,"rental_uris":{"android":"levelo://app?vid=b6e40dbb-482e-43e6-bc56-ee373b6225ae","ios":"levelo://app?vid=b6e40dbb-482e-43e6-bc56-ee373b6225ae"},"vehicle_type_id":"4","last_reported":1752759020,"current_range_meters":14400,"station_id":"ce4bgt12rcd13ifvqcd0","pricing_plan_id":"cebpf4jnsgd1na2vs0mg"},{"bike_id":"879c6f3b-44db-445e-be8a-b534d3638e3a","system_id":"levelo_inurba_marseille","lat":43.26553,"lon":5.39051,"is_reserved":false,"is_disabled":false,"rental_uris":{"android":"levelo://app?vid=879c6f3b-44db-445e-be8a-b534d3638e3a","ios":"levelo://app?vid=879c6f3b-44db-445e-be8a-b534d3638e3a"},"vehicle_type_id":"4","last_reported":1752759020,"current_range_meters":14400,"station_id":"ce4bhe12rcd13ifvqf30","pricing_plan_id":"cebpf4jnsgd1na2vs0mg"},{"bike_id":"9e5ccea3-b4c5-4352-b137-65fb27193028","system_id":"levelo_inurba_marseille","lat":43.22506,"lon":5.34777,"is_reserved":false,"is_disabled":false,"rental_uris":{"android":"levelo://app?vid=9e5ccea3-b4c5-4352-b137-65fb27193028","ios":"levelo://app?vid=9e5ccea3-b4c5-4352-b137-65fb27193028"},"vehicle_type_id":"4","last_reported":1752759020,"current_range_meters":14400,"station_id":"st_cvj5dfep6f1abm77gieg","pricing_plan_id":"cebpf4jnsgd1na2vs0mg"},{"bike_id":"64ee0cd4-f188-4c3a-bc9a-8e4b3ad7878c","system_id":"levelo_inurba_marseille","lat":43.29783,"lon":5.37099,"is_reserved":false,"is_disabled":false,"rental_uris":{"android":"levelo://app?vid=64ee0cd4-f188-4c3a-bc9a-8e4b3ad7878c","ios":"levelo://app?vid=64ee0cd4-f188-4c3a-bc9a-8e4b3ad7878c"},"vehicle_type_id":"4","last_reported":1752759020,"current_range_meters":14800,"station_id":"ce4bgop2rcd13ifvqc1g","pricing_plan_id":"cebpf4jnsgd1na2vs0mg"},{"bike_id":"46f7a96c-ee13-4f0d-b4c2-99bd3d09b680","system_id":"levelo_inurba_marseille","lat":43.2827,"lon":5.35079,"is_reserved":false,"is_disabled":false,"rental_uris":{"android":"levelo://app?vid=46f7a96c-ee13-4f0d-b4c2-99bd3d09b680","ios":"levelo://app?vid=46f7a96c-ee13-4f0d-b4c2-99bd3d09b680"},"vehicle_type_id":"4","last_reported":1752759020,"current_range_meters":14800,"station_id":"ce4bhbp2rcd13ifvqerg","pricing_plan_id":"cebpf4jnsgd1na2vs0mg"},{"bike_id":"e1ac109b-035f-464d-b8ce-f4229cc31768","system_id":"levelo_inurba_marseille","lat":43.29006,"lon":5.35601,"is_reserved":false,"is_disabled":false,"rental_uris":{"android":"levelo://app?vid=e1ac109b-035f-464d-b8ce-f4229cc31768","ios":"levelo://app?vid=e1ac109b-035f-464d-b8ce-f4229cc31768"},"vehicle_type_id":"4","last_reported":1752759020,"current_range_meters":14800,"station_id":"","pricing_plan_id":"cebpf4jnsgd1na2vs0mg"},{"bike_id":"88aa19e5-c286-4b3d-8f8f-19f73ff0bce3","system_id":"levelo_inurba_marseille","lat":43.28401,"lon":5.37515,"is_reserved":false,"is_disabled":false,"rental_uris":{"android":"levelo://app?vid=88aa19e5-c286-4b3d-8f8f-19f73ff0bce3","ios":"levelo://app?vid=88aa19e5-c286-4b3d-8f8f-19f73ff0bce3"},"vehicle_type_id":"4","last_reported":1752759020,"current_range_meters":14800,"station_id":"ce4bh412rcd13ifvqds0","pricing_plan_id":"cebpf4jnsgd1na2vs0mg"},{"bike_id":"fd621e80-2907-4595-aae2-21e67d07dff9","system_id":"levelo_inurba_marseille","lat":43.30132,"lon":5.38777,"is_reserved":false,"is_disabled":false,"rental_uris":{"android":"levelo://app?vid=fd621e80-2907-4595-aae2-21e67d07dff9","ios":"levelo://app?vid=fd621e80-2907-4595-aae2-21e67d07dff9"},"vehicle_type_id":"4","last_reported":1752759020,"current_range_meters":14800,"station_id":"ce4bghh2rcd13ifvqb60","pricing_plan_id":"cebpf4jnsgd1na2vs0mg"},{"bike_id":"fd07f785-948d-48e7-9c57-46cccfaa2b14","system_id":"levelo_inurba_marseille","lat":43.28417,"lon":5.34997,"is_reserved":false,"is_disabled":false,"rental_uris":{"android":"levelo://app?vid=fd07f785-948d-48e7-9c57-46cccfaa2b14","ios":"levelo://app?vid=fd07f785-948d-48e7-9c57-46cccfaa2b14"},"vehicle_type_id":"4","last_reported":1752759020,"current_range_meters":14800,"station_id":"ce4bhbh2rcd13ifvqepg","pricing_plan_id":"cebpf4jnsgd1na2vs0mg"},{"bike_id":"15ff8c7b-fb51-4c67-aedc-cd646d01cb7e","system_id":"levelo_inurba_marseille","lat":43.30094,"lon":5.39074,"is_reserved":false,"is_disabled":false,"rental_uris":{"android":"levelo://app?vid=15ff8c7b-fb51-4c67-aedc-cd646d01cb7e","ios":"levelo://app?vid=15ff8c7b-fb51-4c67-aedc-cd646d01cb7e"},"vehicle_type_id":"4","last_reported":1752759020,"current_range_meters":14800,"station_id":"ce4bh192rcd13ifvqdb0","pricing_plan_id":"cebpf4jnsgd1na2vs0mg"},{"bike_id":"dab62de4-01c0-4f53-bfde-184f78541cf5","system_id":"levelo_inurba_marseille","lat":43.29841,"lon":5.36282,"is_reserved":false,"is_disabled":false,"rental_uris":{"android":"levelo://app?vid=dab62de4-01c0-4f53-bfde-184f78541cf5","ios":"levelo://app?vid=dab62de4-01c0-4f53-bfde-184f78541cf5"},"vehicle_type_id":"4","last_reported":1752759020,"current_range_meters":14800,"station_id":"ce4bgpp2rcd13ifvqc3g","pricing_plan_id":"cebpf4jnsgd1na2vs0mg"},{"bike_id":"2c6e34ec-e4ad-4b55-908f-732bdcecdb2f","system_id":"levelo_inurba_marseille","lat":43.211925,"lon":5.350682,"is_reserved":false,"is_disabled":false,"rental_uris":{"android":"levelo://app?vid=2c6e34ec-e4ad-4b55-908f-732bdcecdb2f","ios":"levelo://app?vid=2c6e34ec-e4ad-4b55-908f-732bdcecdb2f"},"vehicle_type_id":"4","last_reported":1752759020,"current_range_meters":15200,"station_id":"st_cvj6sg6p6f1abm77japg","pricing_plan_id":"cebpf4jnsgd1na2vs0mg"},{"bike_id":"6d70d6d4-7776-4d1e-a307-46e9e54de733","system_id":"levelo_inurba_marseille","lat":43.2956,"lon":5.39969,"is_reserved":false,"is_disabled":true,"rental_uris":{"android":"levelo://app?vid=6d70d6d4-7776-4d1e-a307-46e9e54de733","ios":"levelo://app?vid=6d70d6d4-7776-4d1e-a307-46e9e54de733"},"vehicle_type_id":"4","last_reported":1752759020,"current_range_meters":15200,"station_id":"ce4bh312rcd13ifvqdj0","pricing_plan_id":"cebpf4jnsgd1na2vs0mg"},{"bike_id":"a5643e54-11f5-4c57-bccd-ec8b62645551","system_id":"levelo_inurba_marseille","lat":43.301861,"lon":5.36633,"is_reserved":false,"is_disabled":false,"rental_uris":{"android":"levelo://app?vid=a5643e54-11f5-4c57-bccd-ec8b62645551","ios":"levelo://app?vid=a5643e54-11f5-4c57-bccd-ec8b62645551"},"vehicle_type_id":"4","last_reported":1752759020,"current_range_meters":15200,"station_id":"ce4bgrh2rcd13ifvqc8g","pricing_plan_id":"cebpf4jnsgd1na2vs0mg"},{"bike_id":"fb690aa3-0920-4bb8-8e26-a4db79680ddd","system_id":"levelo_inurba_marseille","lat":43.294305,"lon":5.401301,"is_reserved":false,"is_disabled":false,"rental_uris":{"android":"levelo://app?vid=fb690aa3-0920-4bb8-8e26-a4db79680ddd","ios":"levelo://app?vid=fb690aa3-0920-4bb8-8e26-a4db79680ddd"},"vehicle_type_id":"4","last_reported":1752759020,"current_range_meters":15200,"station_id":"ce4bgg92rcd13ifvqb30","pricing_plan_id":"cebpf4jnsgd1na2vs0mg"},{"bike_id":"fe356445-e6a2-4744-9615-d6646d2a334e","system_id":"levelo_inurba_marseille","lat":43.24386,"lon":5.37063,"is_reserved":false,"is_disabled":false,"rental_uris":{"android":"levelo://app?vid=fe356445-e6a2-4744-9615-d6646d2a334e","ios":"levelo://app?vid=fe356445-e6a2-4744-9615-d6646d2a334e"},"vehicle_type_id":"4","last_reported":1752759020,"current_range_meters":15200,"station_id":"ce4bhhh2rcd13ifvqfk0","pricing_plan_id":"cebpf4jnsgd1na2vs0mg"},{"bike_id":"be8db29c-af24-41b6-8134-2579df328339","system_id":"levelo_inurba_marseille","lat":43.30317,"lon":5.36908,"is_reserved":false,"is_disabled":false,"rental_uris":{"android":"levelo://app?vid=be8db29c-af24-41b6-8134-2579df328339","ios":"levelo://app?vid=be8db29c-af24-41b6-8134-2579df328339"},"vehicle_type_id":"4","last_reported":1752759020,"current_range_meters":15200,"station_id":"ce4bgqh2rcd13ifvqc5g","pricing_plan_id":"cebpf4jnsgd1na2vs0mg"},{"bike_id":"2ac93549-5c94-4228-8eea-782a21384d10","system_id":"levelo_inurba_marseille","lat":43.29634,"lon":5.37793,"is_reserved":false,"is_disabled":false,"rental_uris":{"android":"levelo://app?vid=2ac93549-5c94-4228-8eea-782a21384d10","ios":"levelo://app?vid=2ac93549-5c94-4228-8eea-782a21384d10"},"vehicle_type_id":"4","last_reported":1752759020,"current_range_meters":15200,"station_id":"","pricing_plan_id":"cebpf4jnsgd1na2vs0mg"},{"bike_id":"582d5e63-4946-44ff-8da5-cdf3e52be7b6","system_id":"levelo_inurba_marseille","lat":43.27042,"lon":5.40259,"is_reserved":false,"is_disabled":false,"rental_uris":{"android":"levelo://app?vid=582d5e63-4946-44ff-8da5-cdf3e52be7b6","ios":"levelo://app?vid=582d5e63-4946-44ff-8da5-cdf3e52be7b6"},"vehicle_type_id":"4","last_reported":1752759020,"current_range_meters":15200,"station_id":"ce4bhk92rcd13ifvqgc0","pricing_plan_id":"cebpf4jnsgd1na2vs0mg"},{"bike_id":"be2d9d11-e19c-4a33-99cd-7a0f048a2777","system_id":"levelo_inurba_marseille","lat":43.26557,"lon":5.3729,"is_reserved":false,"is_disabled":false,"rental_uris":{"android":"levelo://app?vid=be2d9d11-e19c-4a33-99cd-7a0f048a2777","ios":"levelo://app?vid=be2d9d11-e19c-4a33-99cd-7a0f048a2777"},"vehicle_type_id":"4","last_reported":1752759020,"current_range_meters":16000,"station_id":"ce4bhg12rcd13ifvqf70","pricing_plan_id":"cebpf4jnsgd1na2vs0mg"},{"bike_id":"3584157a-4b83-4917-bd23-5533a53e0a6e","system_id":"levelo_inurba_marseille","lat":43.26779,"lon":5.39415,"is_reserved":false,"is_disabled":false,"rental_uris":{"android":"levelo://app?vid=3584157a-4b83-4917-bd23-5533a53e0a6e","ios":"levelo://app?vid=3584157a-4b83-4917-bd23-5533a53e0a6e"},"vehicle_type_id":"4","last_reported":1752759020,"current_range_meters":16000,"station_id":"ce4bhh12rcd13ifvqfg0","pricing_plan_id":"cebpf4jnsgd1na2vs0mg"},{"bike_id":"2b6b79fe-0c19-498d-82d8-a02e97367b6a","system_id":"levelo_inurba_marseille","lat":43.30873,"lon":5.37195,"is_reserved":false,"is_disabled":false,"rental_uris":{"android":"levelo://app?vid=2b6b79fe-0c19-498d-82d8-a02e97367b6a","ios":"levelo://app?vid=2b6b79fe-0c19-498d-82d8-a02e97367b6a"},"vehicle_type_id":"4","last_reported":1752759020,"current_range_meters":15200,"station_id":"ce4bguh2rcd13ifvqckg","pricing_plan_id":"cebpf4jnsgd1na2vs0mg"},{"bike_id":"a092d05c-8017-44f5-ba8a-35792463d6a3","system_id":"levelo_inurba_marseille","lat":43.225164,"lon":5.347876,"is_reserved":false,"is_disabled":false,"rental_uris":{"android":"levelo://app?vid=a092d05c-8017-44f5-ba8a-35792463d6a3","ios":"levelo://app?vid=a092d05c-8017-44f5-ba8a-35792463d6a3"},"vehicle_type_id":"4","last_reported":1752759020,"current_range_meters":16000,"station_id":"st_cvj5dfep6f1abm77gieg","pricing_plan_id":"cebpf4jnsgd1na2vs0mg"},{"bike_id":"0fef2ad4-7dcb-4bb3-a773-628c85dbe482","system_id":"levelo_inurba_marseille","lat":43.264929,"lon":5.395411,"is_reserved":false,"is_disabled":false,"rental_uris":{"android":"levelo://app?vid=0fef2ad4-7dcb-4bb3-a773-628c85dbe482","ios":"levelo://app?vid=0fef2ad4-7dcb-4bb3-a773-628c85dbe482"},"vehicle_type_id":"4","last_reported":1752759020,"current_range_meters":16000,"station_id":"ce4bhi12rcd13ifvqfq0","pricing_plan_id":"cebpf4jnsgd1na2vs0mg"},{"bike_id":"eab9537b-893b-47b5-b14d-13822947026a","system_id":"levelo_inurba_marseille","lat":43.25927,"lon":5.40907,"is_reserved":false,"is_disabled":false,"rental_uris":{"android":"levelo://app?vid=eab9537b-893b-47b5-b14d-13822947026a","ios":"levelo://app?vid=eab9537b-893b-47b5-b14d-13822947026a"},"vehicle_type_id":"4","last_reported":1752759020,"current_range_meters":16000,"station_id":"ce4bhm92rcd13ifvqglg","pricing_plan_id":"cebpf4jnsgd1na2vs0mg"},{"bike_id":"da891840-0cec-4ccc-961c-48903736c6fa","system_id":"levelo_inurba_marseille","lat":43.31139,"lon":5.37692,"is_reserved":false,"is_disabled":false,"rental_uris":{"android":"levelo://app?vid=da891840-0cec-4ccc-961c-48903736c6fa","ios":"levelo://app?vid=da891840-0cec-4ccc-961c-48903736c6fa"},"vehicle_type_id":"4","last_reported":1752759020,"current_range_meters":16000,"station_id":"","pricing_plan_id":"cebpf4jnsgd1na2vs0mg"},{"bike_id":"a6925f3c-d3d1-4189-a180-b325ef653dcf","system_id":"levelo_inurba_marseille","lat":43.28609,"lon":5.35118,"is_reserved":false,"is_disabled":false,"rental_uris":{"android":"levelo://app?vid=a6925f3c-d3d1-4189-a180-b325ef653dcf","ios":"levelo://app?vid=a6925f3c-d3d1-4189-a180-b325ef653dcf"},"vehicle_type_id":"4","last_reported":1752759020,"current_range_meters":16000,"station_id":"ce4bhch2rcd13ifvqeug","pricing_plan_id":"cebpf4jnsgd1na2vs0mg"},{"bike_id":"fd75f631-a93f-469d-bea7-4e480ab41eae","system_id":"levelo_inurba_marseille","lat":43.28274,"lon":5.3508,"is_reserved":false,"is_disabled":false,"rental_uris":{"android":"levelo://app?vid=fd75f631-a93f-469d-bea7-4e480ab41eae","ios":"levelo://app?vid=fd75f631-a93f-469d-bea7-4e480ab41eae"},"vehicle_type_id":"4","last_reported":1752759020,"current_range_meters":16000,"station_id":"ce4bhbp2rcd13ifvqerg","pricing_plan_id":"cebpf4jnsgd1na2vs0mg"},{"bike_id":"e555b545-304c-4dce-8496-1643c0f2600e","system_id":"levelo_inurba_marseille","lat":43.337444,"lon":5.374475,"is_reserved":false,"is_disabled":false,"rental_uris":{"android":"levelo://app?vid=e555b545-304c-4dce-8496-1643c0f2600e","ios":"levelo://app?vid=e555b545-304c-4dce-8496-1643c0f2600e"},"vehicle_type_id":"4","last_reported":1752759020,"current_range_meters":16000,"station_id":"","pricing_plan_id":"cebpf4jnsgd1na2vs0mg"},{"bike_id":"1cbb36cf-5291-4fc5-9449-4e65432b7868","system_id":"levelo_inurba_marseille","lat":43.30781,"lon":5.37642,"is_reserved":false,"is_disabled":false,"rental_uris":{"android":"levelo://app?vid=1cbb36cf-5291-4fc5-9449-4e65432b7868","ios":"levelo://app?vid=1cbb36cf-5291-4fc5-9449-4e65432b7868"},"vehicle_type_id":"4","last_reported":1752759020,"current_range_meters":16000,"station_id":"ce4bgv92rcd13ifvqcq0","pricing_plan_id":"cebpf4jnsgd1na2vs0mg"},{"bike_id":"81f88721-00d0-431c-83bf-446e11578408","system_id":"levelo_inurba_marseille","lat":43.225045,"lon":5.347796,"is_reserved":false,"is_disabled":false,"rental_uris":{"android":"levelo://app?vid=81f88721-00d0-431c-83bf-446e11578408","ios":"levelo://app?vid=81f88721-00d0-431c-83bf-446e11578408"},"vehicle_type_id":"4","last_reported":1752759020,"current_range_meters":16000,"station_id":"st_cvj5dfep6f1abm77gieg","pricing_plan_id":"cebpf4jnsgd1na2vs0mg"},{"bike_id":"aebeee84-419c-4ac0-8ad4-257b0df9d04f","system_id":"levelo_inurba_marseille","lat":43.33593,"lon":5.41021,"is_reserved":false,"is_disabled":false,"rental_uris":{"android":"levelo://app?vid=aebeee84-419c-4ac0-8ad4-257b0df9d04f","ios":"levelo://app?vid=aebeee84-419c-4ac0-8ad4-257b0df9d04f"},"vehicle_type_id":"4","last_reported":1752759020,"current_range_meters":16400,"station_id":"ce4bhqh2rcd13ifvqhmg","pricing_plan_id":"cebpf4jnsgd1na2vs0mg"},{"bike_id":"c3a061f7-b76c-4dd1-a988-11757c15f2b6","system_id":"levelo_inurba_marseille","lat":43.26554,"lon":5.37282,"is_reserved":false,"is_disabled":false,"rental_uris":{"android":"levelo://app?vid=c3a061f7-b76c-4dd1-a988-11757c15f2b6","ios":"levelo://app?vid=c3a061f7-b76c-4dd1-a988-11757c15f2b6"},"vehicle_type_id":"4","last_reported":1752759020,"current_range_meters":16400,"station_id":"ce4bhg12rcd13ifvqf70","pricing_plan_id":"cebpf4jnsgd1na2vs0mg"},{"bike_id":"2272a1cb-30d4-47dd-bed5-39b01483f853","system_id":"levelo_inurba_marseille","lat":43.229318,"lon":5.353811,"is_reserved":false,"is_disabled":false,"rental_uris":{"android":"levelo://app?vid=2272a1cb-30d4-47dd-bed5-39b01483f853","ios":"levelo://app?vid=2272a1cb-30d4-47dd-bed5-39b01483f853"},"vehicle_type_id":"4","last_reported":1752759020,"current_range_meters":16400,"station_id":"cpo3532slgdg3j2ikp40","pricing_plan_id":"cebpf4jnsgd1na2vs0mg"},{"bike_id":"4ce23f9a-ac9e-46f9-8867-f89caa95c0e6","system_id":"levelo_inurba_marseille","lat":43.31329,"lon":5.39693,"is_reserved":false,"is_disabled":false,"rental_uris":{"android":"levelo://app?vid=4ce23f9a-ac9e-46f9-8867-f89caa95c0e6","ios":"levelo://app?vid=4ce23f9a-ac9e-46f9-8867-f89caa95c0e6"},"vehicle_type_id":"4","last_reported":1752759020,"current_range_meters":16400,"station_id":"ce4bgvp2rcd13ifvqcu0","pricing_plan_id":"cebpf4jnsgd1na2vs0mg"},{"bike_id":"531dca68-8617-41b0-a6cd-abffc94e1d45","system_id":"levelo_inurba_marseille","lat":43.31198,"lon":5.37362,"is_reserved":false,"is_disabled":false,"rental_uris":{"android":"levelo://app?vid=531dca68-8617-41b0-a6cd-abffc94e1d45","ios":"levelo://app?vid=531dca68-8617-41b0-a6cd-abffc94e1d45"},"vehicle_type_id":"4","last_reported":1752759020,"current_range_meters":16400,"station_id":"","pricing_plan_id":"cebpf4jnsgd1na2vs0mg"},{"bike_id":"17d5835f-94fc-4b49-af95-c93c2311a156","system_id":"levelo_inurba_marseille","lat":43.24394,"lon":5.37055,"is_reserved":false,"is_disabled":false,"rental_uris":{"android":"levelo://app?vid=17d5835f-94fc-4b49-af95-c93c2311a156","ios":"levelo://app?vid=17d5835f-94fc-4b49-af95-c93c2311a156"},"vehicle_type_id":"4","last_reported":1752759020,"current_range_meters":16800,"station_id":"ce4bhhh2rcd13ifvqfk0","pricing_plan_id":"cebpf4jnsgd1na2vs0mg"},{"bike_id":"3d81bf7d-01ed-4b33-9451-cbb539dac082","system_id":"levelo_inurba_marseille","lat":43.31481,"lon":5.37271,"is_reserved":false,"is_disabled":false,"rental_uris":{"android":"levelo://app?vid=3d81bf7d-01ed-4b33-9451-cbb539dac082","ios":"levelo://app?vid=3d81bf7d-01ed-4b33-9451-cbb539dac082"},"vehicle_type_id":"4","last_reported":1752759020,"current_range_meters":16800,"station_id":"ce4bgt12rcd13ifvqcd0","pricing_plan_id":"cebpf4jnsgd1na2vs0mg"},{"bike_id":"ee77f27c-f1c1-46ed-bbc3-8ed0a48c0994","system_id":"levelo_inurba_marseille","lat":43.30524,"lon":5.36548,"is_reserved":false,"is_disabled":false,"rental_uris":{"android":"levelo://app?vid=ee77f27c-f1c1-46ed-bbc3-8ed0a48c0994","ios":"levelo://app?vid=ee77f27c-f1c1-46ed-bbc3-8ed0a48c0994"},"vehicle_type_id":"4","last_reported":1752759020,"current_range_meters":16800,"station_id":"ce4bgs12rcd13ifvqcag","pricing_plan_id":"cebpf4jnsgd1na2vs0mg"},{"bike_id":"71fc5efd-e1df-4c2d-9720-d564d80ae7d6","system_id":"levelo_inurba_marseille","lat":43.28364,"lon":5.38638,"is_reserved":false,"is_disabled":false,"rental_uris":{"android":"levelo://app?vid=71fc5efd-e1df-4c2d-9720-d564d80ae7d6","ios":"levelo://app?vid=71fc5efd-e1df-4c2d-9720-d564d80ae7d6"},"vehicle_type_id":"4","last_reported":1752759020,"current_range_meters":16800,"station_id":"ce4bh492rcd13ifvqdvg","pricing_plan_id":"cebpf4jnsgd1na2vs0mg"},{"bike_id":"6422a826-10e7-4631-aac3-6ed4c4e18405","system_id":"levelo_inurba_marseille","lat":43.30428,"lon":5.38885,"is_reserved":false,"is_disabled":false,"rental_uris":{"android":"levelo://app?vid=6422a826-10e7-4631-aac3-6ed4c4e18405","ios":"levelo://app?vid=6422a826-10e7-4631-aac3-6ed4c4e18405"},"vehicle_type_id":"4","last_reported":1752759020,"current_range_meters":16800,"station_id":"ce4bgk12rcd13ifvqbi0","pricing_plan_id":"cebpf4jnsgd1na2vs0mg"},{"bike_id":"45603edf-8911-4b33-ac71-015f1e76b606","system_id":"levelo_inurba_marseille","lat":43.32863,"lon":5.37499,"is_reserved":false,"is_disabled":false,"rental_uris":{"android":"levelo://app?vid=45603edf-8911-4b33-ac71-015f1e76b606","ios":"levelo://app?vid=45603edf-8911-4b33-ac71-015f1e76b606"},"vehicle_type_id":"4","last_reported":1752759020,"current_range_meters":16800,"station_id":"","pricing_plan_id":"cebpf4jnsgd1na2vs0mg"},{"bike_id":"beaf768d-8a14-4503-a527-4a484efc759b","system_id":"levelo_inurba_marseille","lat":43.21753,"lon":5.34599,"is_reserved":false,"is_disabled":false,"rental_uris":{"android":"levelo://app?vid=beaf768d-8a14-4503-a527-4a484efc759b","ios":"levelo://app?vid=beaf768d-8a14-4503-a527-4a484efc759b"},"vehicle_type_id":"4","last_reported":1752759020,"current_range_meters":17200,"station_id":"st_cvj6r9ubvosntc0bgbag","pricing_plan_id":"cebpf4jnsgd1na2vs0mg"},{"bike_id":"43c41d74-e827-4455-bdbc-da0b9f2a4518","system_id":"levelo_inurba_marseille","lat":43.21749,"lon":5.34596,"is_reserved":false,"is_disabled":false,"rental_uris":{"android":"levelo://app?vid=43c41d74-e827-4455-bdbc-da0b9f2a4518","ios":"levelo://app?vid=43c41d74-e827-4455-bdbc-da0b9f2a4518"},"vehicle_type_id":"4","last_reported":1752759020,"current_range_meters":17200,"station_id":"st_cvj6r9ubvosntc0bgbag","pricing_plan_id":"cebpf4jnsgd1na2vs0mg"},{"bike_id":"a07d2709-212a-469a-9e86-fe6624f858b0","system_id":"levelo_inurba_marseille","lat":43.21759,"lon":5.34614,"is_reserved":false,"is_disabled":false,"rental_uris":{"android":"levelo://app?vid=a07d2709-212a-469a-9e86-fe6624f858b0","ios":"levelo://app?vid=a07d2709-212a-469a-9e86-fe6624f858b0"},"vehicle_type_id":"4","last_reported":1752759020,"current_range_meters":17200,"station_id":"st_cvj6r9ubvosntc0bgbag","pricing_plan_id":"cebpf4jnsgd1na2vs0mg"},{"bike_id":"e54582ed-ba92-4640-a97f-9e97144ce87f","system_id":"levelo_inurba_marseille","lat":43.32267,"lon":5.40654,"is_reserved":false,"is_disabled":false,"rental_uris":{"android":"levelo://app?vid=e54582ed-ba92-4640-a97f-9e97144ce87f","ios":"levelo://app?vid=e54582ed-ba92-4640-a97f-9e97144ce87f"},"vehicle_type_id":"4","last_reported":1752759020,"current_range_meters":17200,"station_id":"","pricing_plan_id":"cebpf4jnsgd1na2vs0mg"},{"bike_id":"78274e74-ab73-4fa7-b1a3-d1a684863996","system_id":"levelo_inurba_marseille","lat":43.225041,"lon":5.347796,"is_reserved":false,"is_disabled":false,"rental_uris":{"android":"levelo://app?vid=78274e74-ab73-4fa7-b1a3-d1a684863996","ios":"levelo://app?vid=78274e74-ab73-4fa7-b1a3-d1a684863996"},"vehicle_type_id":"4","last_reported":1752759020,"current_range_meters":17200,"station_id":"st_cvj5dfep6f1abm77gieg","pricing_plan_id":"cebpf4jnsgd1na2vs0mg"},{"bike_id":"74189f97-0c0f-4cd0-9a60-8e5cd29d7c75","system_id":"levelo_inurba_marseille","lat":43.2904,"lon":5.38113,"is_reserved":false,"is_disabled":false,"rental_uris":{"android":"levelo://app?vid=74189f97-0c0f-4cd0-9a60-8e5cd29d7c75","ios":"levelo://app?vid=74189f97-0c0f-4cd0-9a60-8e5cd29d7c75"},"vehicle_type_id":"4","last_reported":1752759020,"current_range_meters":17200,"station_id":"","pricing_plan_id":"cebpf4jnsgd1na2vs0mg"},{"bike_id":"6be86623-c65c-4a0d-b3a4-c58891bfa931","system_id":"levelo_inurba_marseille","lat":43.22503,"lon":5.34769,"is_reserved":false,"is_disabled":false,"rental_uris":{"android":"levelo://app?vid=6be86623-c65c-4a0d-b3a4-c58891bfa931","ios":"levelo://app?vid=6be86623-c65c-4a0d-b3a4-c58891bfa931"},"vehicle_type_id":"4","last_reported":1752759020,"current_range_meters":17600,"station_id":"st_cvj5dfep6f1abm77gieg","pricing_plan_id":"cebpf4jnsgd1na2vs0mg"},{"bike_id":"73beccd1-f184-4326-8064-c91f6505c977","system_id":"levelo_inurba_marseille","lat":43.336,"lon":5.4106,"is_reserved":false,"is_disabled":false,"rental_uris":{"android":"levelo://app?vid=73beccd1-f184-4326-8064-c91f6505c977","ios":"levelo://app?vid=73beccd1-f184-4326-8064-c91f6505c977"},"vehicle_type_id":"4","last_reported":1752759020,"current_range_meters":17600,"station_id":"ce4bhqh2rcd13ifvqhmg","pricing_plan_id":"cebpf4jnsgd1na2vs0mg"},{"bike_id":"660d6db3-3d46-4bf1-a04a-db097cd3027d","system_id":"levelo_inurba_marseille","lat":43.28265,"lon":5.35074,"is_reserved":false,"is_disabled":false,"rental_uris":{"android":"levelo://app?vid=660d6db3-3d46-4bf1-a04a-db097cd3027d","ios":"levelo://app?vid=660d6db3-3d46-4bf1-a04a-db097cd3027d"},"vehicle_type_id":"4","last_reported":1752759020,"current_range_meters":17600,"station_id":"ce4bhbp2rcd13ifvqerg","pricing_plan_id":"cebpf4jnsgd1na2vs0mg"},{"bike_id":"72712d78-f8ef-49ca-840d-42880d468206","system_id":"levelo_inurba_marseille","lat":43.30305,"lon":5.36902,"is_reserved":false,"is_disabled":false,"rental_uris":{"android":"levelo://app?vid=72712d78-f8ef-49ca-840d-42880d468206","ios":"levelo://app?vid=72712d78-f8ef-49ca-840d-42880d468206"},"vehicle_type_id":"4","last_reported":1752759020,"current_range_meters":17600,"station_id":"ce4bgqh2rcd13ifvqc5g","pricing_plan_id":"cebpf4jnsgd1na2vs0mg"},{"bike_id":"2f49c0bd-1fa3-4487-8922-9564c7b35ecb","system_id":"levelo_inurba_marseille","lat":43.27497,"lon":5.4245,"is_reserved":false,"is_disabled":false,"rental_uris":{"android":"levelo://app?vid=2f49c0bd-1fa3-4487-8922-9564c7b35ecb","ios":"levelo://app?vid=2f49c0bd-1fa3-4487-8922-9564c7b35ecb"},"vehicle_type_id":"4","last_reported":1752759020,"current_range_meters":17600,"station_id":"ce4bhn92rcd13ifvqgrg","pricing_plan_id":"cebpf4jnsgd1na2vs0mg"},{"bike_id":"159ca100-ed7a-4b2d-96d8-e87fcefe83b4","system_id":"levelo_inurba_marseille","lat":43.307823,"lon":5.376413,"is_reserved":false,"is_disabled":false,"rental_uris":{"android":"levelo://app?vid=159ca100-ed7a-4b2d-96d8-e87fcefe83b4","ios":"levelo://app?vid=159ca100-ed7a-4b2d-96d8-e87fcefe83b4"},"vehicle_type_id":"4","last_reported":1752759020,"current_range_meters":17600,"station_id":"ce4bgv92rcd13ifvqcq0","pricing_plan_id":"cebpf4jnsgd1na2vs0mg"},{"bike_id":"f04e7b22-2e5b-4c80-ba0d-4d4980d9c823","system_id":"levelo_inurba_marseille","lat":43.30153,"lon":5.38093,"is_reserved":false,"is_disabled":false,"rental_uris":{"android":"levelo://app?vid=f04e7b22-2e5b-4c80-ba0d-4d4980d9c823","ios":"levelo://app?vid=f04e7b22-2e5b-4c80-ba0d-4d4980d9c823"},"vehicle_type_id":"4","last_reported":1752759020,"current_range_meters":17600,"station_id":"ce4bgjp2rcd13ifvqbh0","pricing_plan_id":"cebpf4jnsgd1na2vs0mg"},{"bike_id":"d8b55396-0a3b-4c30-95c1-a87c7c7246d7","system_id":"levelo_inurba_marseille","lat":43.31491,"lon":5.37303,"is_reserved":false,"is_disabled":false,"rental_uris":{"android":"levelo://app?vid=d8b55396-0a3b-4c30-95c1-a87c7c7246d7","ios":"levelo://app?vid=d8b55396-0a3b-4c30-95c1-a87c7c7246d7"},"vehicle_type_id":"4","last_reported":1752759020,"current_range_meters":17600,"station_id":"ce4bgt12rcd13ifvqcd0","pricing_plan_id":"cebpf4jnsgd1na2vs0mg"},{"bike_id":"c2dba01e-7253-4f47-be7e-556b63c0e205","system_id":"levelo_inurba_marseille","lat":43.302828,"lon":5.377183,"is_reserved":false,"is_disabled":false,"rental_uris":{"android":"levelo://app?vid=c2dba01e-7253-4f47-be7e-556b63c0e205","ios":"levelo://app?vid=c2dba01e-7253-4f47-be7e-556b63c0e205"},"vehicle_type_id":"4","last_reported":1752759020,"current_range_meters":17600,"station_id":"ce4bguh2rcd13ifvqcj0","pricing_plan_id":"cebpf4jnsgd1na2vs0mg"},{"bike_id":"c6db0f6a-96fe-4e1d-8ded-c2ef38c9bab4","system_id":"levelo_inurba_marseille","lat":43.304183,"lon":5.412838,"is_reserved":false,"is_disabled":true,"rental_uris":{"android":"levelo://app?vid=c6db0f6a-96fe-4e1d-8ded-c2ef38c9bab4","ios":"levelo://app?vid=c6db0f6a-96fe-4e1d-8ded-c2ef38c9bab4"},"vehicle_type_id":"4","last_reported":1752759020,"current_range_meters":18000,"station_id":"ce4bhop2rcd13ifvqh8g","pricing_plan_id":"cebpf4jnsgd1na2vs0mg"},{"bike_id":"96020fbb-4cc5-4602-b481-0bf3235e5f8e","system_id":"levelo_inurba_marseille","lat":43.30944,"lon":5.39041,"is_reserved":false,"is_disabled":false,"rental_uris":{"android":"levelo://app?vid=96020fbb-4cc5-4602-b481-0bf3235e5f8e","ios":"levelo://app?vid=96020fbb-4cc5-4602-b481-0bf3235e5f8e"},"vehicle_type_id":"4","last_reported":1752759020,"current_range_meters":18000,"station_id":"ce4bgup2rcd13ifvqco0","pricing_plan_id":"cebpf4jnsgd1na2vs0mg"},{"bike_id":"ff025aeb-288a-41f4-af92-26dbddf28a07","system_id":"levelo_inurba_marseille","lat":43.28255,"lon":5.35074,"is_reserved":false,"is_disabled":false,"rental_uris":{"android":"levelo://app?vid=ff025aeb-288a-41f4-af92-26dbddf28a07","ios":"levelo://app?vid=ff025aeb-288a-41f4-af92-26dbddf28a07"},"vehicle_type_id":"4","last_reported":1752759020,"current_range_meters":18000,"station_id":"ce4bhbp2rcd13ifvqerg","pricing_plan_id":"cebpf4jnsgd1na2vs0mg"},{"bike_id":"556f13aa-9c26-4ebd-9272-8127b4841ef9","system_id":"levelo_inurba_marseille","lat":43.30293,"lon":5.39211,"is_reserved":false,"is_disabled":false,"rental_uris":{"android":"levelo://app?vid=556f13aa-9c26-4ebd-9272-8127b4841ef9","ios":"levelo://app?vid=556f13aa-9c26-4ebd-9272-8127b4841ef9"},"vehicle_type_id":"4","last_reported":1752759020,"current_range_meters":18000,"station_id":"ce4bgkh2rcd13ifvqbk0","pricing_plan_id":"cebpf4jnsgd1na2vs0mg"},{"bike_id":"ba841532-4a0b-4b85-af08-c9ce0c16b4e3","system_id":"levelo_inurba_marseille","lat":43.32653,"lon":5.41002,"is_reserved":false,"is_disabled":false,"rental_uris":{"android":"levelo://app?vid=ba841532-4a0b-4b85-af08-c9ce0c16b4e3","ios":"levelo://app?vid=ba841532-4a0b-4b85-af08-c9ce0c16b4e3"},"vehicle_type_id":"4","last_reported":1752759020,"current_range_meters":18000,"station_id":"ce4bhpp2rcd13ifvqhgg","pricing_plan_id":"cebpf4jnsgd1na2vs0mg"},{"bike_id":"084eace8-045f-4012-9455-c501cad7ce10","system_id":"levelo_inurba_marseille","lat":43.22511,"lon":5.34773,"is_reserved":false,"is_disabled":false,"rental_uris":{"android":"levelo://app?vid=084eace8-045f-4012-9455-c501cad7ce10","ios":"levelo://app?vid=084eace8-045f-4012-9455-c501cad7ce10"},"vehicle_type_id":"4","last_reported":1752759020,"current_range_meters":18000,"station_id":"st_cvj5dfep6f1abm77gieg","pricing_plan_id":"cebpf4jnsgd1na2vs0mg"},{"bike_id":"ed822664-f978-4865-b4d3-8b7323601ddf","system_id":"levelo_inurba_marseille","lat":43.2981,"lon":5.39359,"is_reserved":false,"is_disabled":true,"rental_uris":{"android":"levelo://app?vid=ed822664-f978-4865-b4d3-8b7323601ddf","ios":"levelo://app?vid=ed822664-f978-4865-b4d3-8b7323601ddf"},"vehicle_type_id":"4","last_reported":1752759020,"current_range_meters":18000,"station_id":"chh1huq6cuj3fo74tm60","pricing_plan_id":"cebpf4jnsgd1na2vs0mg"},{"bike_id":"ea75efb2-ac36-4344-b925-58a5bd2f6327","system_id":"levelo_inurba_marseille","lat":43.271854,"lon":5.362776,"is_reserved":false,"is_disabled":false,"rental_uris":{"android":"levelo://app?vid=ea75efb2-ac36-4344-b925-58a5bd2f6327","ios":"levelo://app?vid=ea75efb2-ac36-4344-b925-58a5bd2f6327"},"vehicle_type_id":"4","last_reported":1752759020,"current_range_meters":18000,"station_id":"","pricing_plan_id":"cebpf4jnsgd1na2vs0mg"},{"bike_id":"4c0580d4-f2e2-4c67-8250-a65c39c0f7d6","system_id":"levelo_inurba_marseille","lat":43.22514,"lon":5.3477,"is_reserved":false,"is_disabled":false,"rental_uris":{"android":"levelo://app?vid=4c0580d4-f2e2-4c67-8250-a65c39c0f7d6","ios":"levelo://app?vid=4c0580d4-f2e2-4c67-8250-a65c39c0f7d6"},"vehicle_type_id":"4","last_reported":1752759020,"current_range_meters":18000,"station_id":"st_cvj5dfep6f1abm77gieg","pricing_plan_id":"cebpf4jnsgd1na2vs0mg"},{"bike_id":"5b4e5f0f-cac3-450a-9463-e6a77e2c277e","system_id":"levelo_inurba_marseille","lat":43.246423,"lon":5.388921,"is_reserved":false,"is_disabled":true,"rental_uris":{"android":"levelo://app?vid=5b4e5f0f-cac3-450a-9463-e6a77e2c277e","ios":"levelo://app?vid=5b4e5f0f-cac3-450a-9463-e6a77e2c277e"},"vehicle_type_id":"4","last_reported":1752759020,"current_range_meters":18000,"station_id":"ce4bhg12rcd13ifvqf60","pricing_plan_id":"cebpf4jnsgd1na2vs0mg"},{"bike_id":"90ff6360-61cf-4a1f-ada0-5ba4cd4b6ba6","system_id":"levelo_inurba_marseille","lat":43.30272,"lon":5.37717,"is_reserved":false,"is_disabled":false,"rental_uris":{"android":"levelo://app?vid=90ff6360-61cf-4a1f-ada0-5ba4cd4b6ba6","ios":"levelo://app?vid=90ff6360-61cf-4a1f-ada0-5ba4cd4b6ba6"},"vehicle_type_id":"4","last_reported":1752759020,"current_range_meters":18000,"station_id":"ce4bguh2rcd13ifvqcj0","pricing_plan_id":"cebpf4jnsgd1na2vs0mg"},{"bike_id":"1c9572c4-519a-468b-ab30-5039f41681fb","system_id":"levelo_inurba_marseille","lat":43.29932,"lon":5.36534,"is_reserved":false,"is_disabled":false,"rental_uris":{"android":"levelo://app?vid=1c9572c4-519a-468b-ab30-5039f41681fb","ios":"levelo://app?vid=1c9572c4-519a-468b-ab30-5039f41681fb"},"vehicle_type_id":"4","last_reported":1752759020,"current_range_meters":18000,"station_id":"ce4bgm92rcd13ifvqbr0","pricing_plan_id":"cebpf4jnsgd1na2vs0mg"},{"bike_id":"f99ff1e4-4111-475a-aa3e-cb902d081040","system_id":"levelo_inurba_marseille","lat":43.23198,"lon":5.35549,"is_reserved":false,"is_disabled":false,"rental_uris":{"android":"levelo://app?vid=f99ff1e4-4111-475a-aa3e-cb902d081040","ios":"levelo://app?vid=f99ff1e4-4111-475a-aa3e-cb902d081040"},"vehicle_type_id":"4","last_reported":1752759020,"current_range_meters":18800,"station_id":"ce4bhu92rcd13ifvqi70","pricing_plan_id":"cebpf4jnsgd1na2vs0mg"},{"bike_id":"72790707-035c-4bca-b9bf-a8b4e9ad2919","system_id":"levelo_inurba_marseille","lat":43.2315,"lon":5.43718,"is_reserved":false,"is_disabled":false,"rental_uris":{"android":"levelo://app?vid=72790707-035c-4bca-b9bf-a8b4e9ad2919","ios":"levelo://app?vid=72790707-035c-4bca-b9bf-a8b4e9ad2919"},"vehicle_type_id":"4","last_reported":1752759020,"current_range_meters":18800,"station_id":"ce4bhmp2rcd13ifvqgog","pricing_plan_id":"cebpf4jnsgd1na2vs0mg"},{"bike_id":"9025a093-0c69-4bea-aa61-fc1e4cbb98c1","system_id":"levelo_inurba_marseille","lat":43.29522,"lon":5.37506,"is_reserved":false,"is_disabled":false,"rental_uris":{"android":"levelo://app?vid=9025a093-0c69-4bea-aa61-fc1e4cbb98c1","ios":"levelo://app?vid=9025a093-0c69-4bea-aa61-fc1e4cbb98c1"},"vehicle_type_id":"4","last_reported":1752759020,"current_range_meters":18800,"station_id":"ce4bgkp2rcd13ifvqbmg","pricing_plan_id":"cebpf4jnsgd1na2vs0mg"},{"bike_id":"9e46aa88-7b19-47c3-b789-71b8902b53cb","system_id":"levelo_inurba_marseille","lat":43.28155,"lon":5.42653,"is_reserved":false,"is_disabled":false,"rental_uris":{"android":"levelo://app?vid=9e46aa88-7b19-47c3-b789-71b8902b53cb","ios":"levelo://app?vid=9e46aa88-7b19-47c3-b789-71b8902b53cb"},"vehicle_type_id":"4","last_reported":1752759020,"current_range_meters":18800,"station_id":"ce4bhnh2rcd13ifvqgug","pricing_plan_id":"cebpf4jnsgd1na2vs0mg"},{"bike_id":"66867a12-d88b-4820-bc2a-9a8726321e3c","system_id":"levelo_inurba_marseille","lat":43.295549,"lon":5.423009,"is_reserved":false,"is_disabled":false,"rental_uris":{"android":"levelo://app?vid=66867a12-d88b-4820-bc2a-9a8726321e3c","ios":"levelo://app?vid=66867a12-d88b-4820-bc2a-9a8726321e3c"},"vehicle_type_id":"4","last_reported":1752759020,"current_range_meters":18800,"station_id":"ce4bhph2rcd13ifvqhdg","pricing_plan_id":"cebpf4jnsgd1na2vs0mg"},{"bike_id":"409515f8-3415-426d-b0c7-61f840c7c187","system_id":"levelo_inurba_marseille","lat":43.22506,"lon":5.34774,"is_reserved":false,"is_disabled":false,"rental_uris":{"android":"levelo://app?vid=409515f8-3415-426d-b0c7-61f840c7c187","ios":"levelo://app?vid=409515f8-3415-426d-b0c7-61f840c7c187"},"vehicle_type_id":"4","last_reported":1752759020,"current_range_meters":18800,"station_id":"st_cvj5dfep6f1abm77gieg","pricing_plan_id":"cebpf4jnsgd1na2vs0mg"},{"bike_id":"58038b18-82eb-44e0-b1ea-fdf2a2d28b74","system_id":"levelo_inurba_marseille","lat":43.30133,"lon":5.37421,"is_reserved":false,"is_disabled":false,"rental_uris":{"android":"levelo://app?vid=58038b18-82eb-44e0-b1ea-fdf2a2d28b74","ios":"levelo://app?vid=58038b18-82eb-44e0-b1ea-fdf2a2d28b74"},"vehicle_type_id":"4","last_reported":1752759020,"current_range_meters":18000,"station_id":"ce4bgs92rcd13ifvqcc0","pricing_plan_id":"cebpf4jnsgd1na2vs0mg"},{"bike_id":"53073354-7fda-41fa-b606-a04ad7bf043c","system_id":"levelo_inurba_marseille","lat":43.30154,"lon":5.38085,"is_reserved":false,"is_disabled":false,"rental_uris":{"android":"levelo://app?vid=53073354-7fda-41fa-b606-a04ad7bf043c","ios":"levelo://app?vid=53073354-7fda-41fa-b606-a04ad7bf043c"},"vehicle_type_id":"4","last_reported":1752759020,"current_range_meters":19200,"station_id":"ce4bgjp2rcd13ifvqbh0","pricing_plan_id":"cebpf4jnsgd1na2vs0mg"},{"bike_id":"627d2d3b-237c-42fb-9bf6-0cf421eebeef","system_id":"levelo_inurba_marseille","lat":43.21726,"lon":5.34609,"is_reserved":false,"is_disabled":false,"rental_uris":{"android":"levelo://app?vid=627d2d3b-237c-42fb-9bf6-0cf421eebeef","ios":"levelo://app?vid=627d2d3b-237c-42fb-9bf6-0cf421eebeef"},"vehicle_type_id":"4","last_reported":1752759020,"current_range_meters":19200,"station_id":"st_cvj6r9ubvosntc0bgbag","pricing_plan_id":"cebpf4jnsgd1na2vs0mg"},{"bike_id":"2b4f500e-621a-49e9-98e0-204a2d3ef15f","system_id":"levelo_inurba_marseille","lat":43.25496,"lon":5.37646,"is_reserved":false,"is_disabled":false,"rental_uris":{"android":"levelo://app?vid=2b4f500e-621a-49e9-98e0-204a2d3ef15f","ios":"levelo://app?vid=2b4f500e-621a-49e9-98e0-204a2d3ef15f"},"vehicle_type_id":"4","last_reported":1752759020,"current_range_meters":19200,"station_id":"ce4bhh12rcd13ifvqff0","pricing_plan_id":"cebpf4jnsgd1na2vs0mg"},{"bike_id":"1c95ec2f-b4a2-48ad-9bf3-8d3e5c5614fb","system_id":"levelo_inurba_marseille","lat":43.24168,"lon":5.39713,"is_reserved":false,"is_disabled":false,"rental_uris":{"android":"levelo://app?vid=1c95ec2f-b4a2-48ad-9bf3-8d3e5c5614fb","ios":"levelo://app?vid=1c95ec2f-b4a2-48ad-9bf3-8d3e5c5614fb"},"vehicle_type_id":"4","last_reported":1752759020,"current_range_meters":19200,"station_id":"ce4bhn12rcd13ifvqgpg","pricing_plan_id":"cebpf4jnsgd1na2vs0mg"},{"bike_id":"54593674-f6b8-462a-9554-19cb8205d729","system_id":"levelo_inurba_marseille","lat":43.28929,"lon":5.36407,"is_reserved":false,"is_disabled":false,"rental_uris":{"android":"levelo://app?vid=54593674-f6b8-462a-9554-19cb8205d729","ios":"levelo://app?vid=54593674-f6b8-462a-9554-19cb8205d729"},"vehicle_type_id":"4","last_reported":1752759020,"current_range_meters":19200,"station_id":"ce4bhc92rcd13ifvqetg","pricing_plan_id":"cebpf4jnsgd1na2vs0mg"},{"bike_id":"01c4cad4-ab83-4c6c-bb99-def54328b75f","system_id":"levelo_inurba_marseille","lat":43.286133,"lon":5.351047,"is_reserved":false,"is_disabled":false,"rental_uris":{"android":"levelo://app?vid=01c4cad4-ab83-4c6c-bb99-def54328b75f","ios":"levelo://app?vid=01c4cad4-ab83-4c6c-bb99-def54328b75f"},"vehicle_type_id":"4","last_reported":1752759020,"current_range_meters":19200,"station_id":"ce4bhch2rcd13ifvqeug","pricing_plan_id":"cebpf4jnsgd1na2vs0mg"},{"bike_id":"300445c8-b5b7-48c0-bb61-4da5ff3fc0f9","system_id":"levelo_inurba_marseille","lat":43.3078,"lon":5.3765,"is_reserved":false,"is_disabled":false,"rental_uris":{"android":"levelo://app?vid=300445c8-b5b7-48c0-bb61-4da5ff3fc0f9","ios":"levelo://app?vid=300445c8-b5b7-48c0-bb61-4da5ff3fc0f9"},"vehicle_type_id":"4","last_reported":1752759020,"current_range_meters":19200,"station_id":"ce4bgv92rcd13ifvqcq0","pricing_plan_id":"cebpf4jnsgd1na2vs0mg"},{"bike_id":"e63db760-60f2-4063-aa2b-9e0100a40135","system_id":"levelo_inurba_marseille","lat":43.30728,"lon":5.42421,"is_reserved":false,"is_disabled":false,"rental_uris":{"android":"levelo://app?vid=e63db760-60f2-4063-aa2b-9e0100a40135","ios":"levelo://app?vid=e63db760-60f2-4063-aa2b-9e0100a40135"},"vehicle_type_id":"4","last_reported":1752759020,"current_range_meters":19200,"station_id":"st_cvj6ca6bvosntc0bfgr0","pricing_plan_id":"cebpf4jnsgd1na2vs0mg"},{"bike_id":"ce40837d-3edf-4cc2-a747-2f8d4ee2c7fb","system_id":"levelo_inurba_marseille","lat":43.22502,"lon":5.34769,"is_reserved":false,"is_disabled":false,"rental_uris":{"android":"levelo://app?vid=ce40837d-3edf-4cc2-a747-2f8d4ee2c7fb","ios":"levelo://app?vid=ce40837d-3edf-4cc2-a747-2f8d4ee2c7fb"},"vehicle_type_id":"4","last_reported":1752759020,"current_range_meters":19200,"station_id":"st_cvj5dfep6f1abm77gieg","pricing_plan_id":"cebpf4jnsgd1na2vs0mg"},{"bike_id":"1fa6e47a-247c-43f3-a2d5-2457ee6c5d39","system_id":"levelo_inurba_marseille","lat":43.21193,"lon":5.35067,"is_reserved":false,"is_disabled":false,"rental_uris":{"android":"levelo://app?vid=1fa6e47a-247c-43f3-a2d5-2457ee6c5d39","ios":"levelo://app?vid=1fa6e47a-247c-43f3-a2d5-2457ee6c5d39"},"vehicle_type_id":"4","last_reported":1752759020,"current_range_meters":19200,"station_id":"st_cvj6sg6p6f1abm77japg","pricing_plan_id":"cebpf4jnsgd1na2vs0mg"},{"bike_id":"ce7bd25b-5213-4881-a28b-f582e6a1d712","system_id":"levelo_inurba_marseille","lat":43.31349,"lon":5.36683,"is_reserved":false,"is_disabled":true,"rental_uris":{"android":"levelo://app?vid=ce7bd25b-5213-4881-a28b-f582e6a1d712","ios":"levelo://app?vid=ce7bd25b-5213-4881-a28b-f582e6a1d712"},"vehicle_type_id":"4","last_reported":1752759020,"current_range_meters":19200,"station_id":"ce4bgr92rcd13ifvqc6g","pricing_plan_id":"cebpf4jnsgd1na2vs0mg"},{"bike_id":"d8eb8f2f-df0a-4c63-af99-112cd7385b86","system_id":"levelo_inurba_marseille","lat":43.28614,"lon":5.3511,"is_reserved":false,"is_disabled":false,"rental_uris":{"android":"levelo://app?vid=d8eb8f2f-df0a-4c63-af99-112cd7385b86","ios":"levelo://app?vid=d8eb8f2f-df0a-4c63-af99-112cd7385b86"},"vehicle_type_id":"4","last_reported":1752759020,"current_range_meters":19200,"station_id":"ce4bhch2rcd13ifvqeug","pricing_plan_id":"cebpf4jnsgd1na2vs0mg"},{"bike_id":"c83e5866-3057-41c7-b1dc-bfd42f8bcd2a","system_id":"levelo_inurba_marseille","lat":43.23138,"lon":5.43717,"is_reserved":false,"is_disabled":false,"rental_uris":{"android":"levelo://app?vid=c83e5866-3057-41c7-b1dc-bfd42f8bcd2a","ios":"levelo://app?vid=c83e5866-3057-41c7-b1dc-bfd42f8bcd2a"},"vehicle_type_id":"4","last_reported":1752759020,"current_range_meters":19600,"station_id":"ce4bhmp2rcd13ifvqgog","pricing_plan_id":"cebpf4jnsgd1na2vs0mg"},{"bike_id":"8acd406c-b756-42e4-b1c7-ba0c4becf5fd","system_id":"levelo_inurba_marseille","lat":43.29004,"lon":5.35605,"is_reserved":false,"is_disabled":false,"rental_uris":{"android":"levelo://app?vid=8acd406c-b756-42e4-b1c7-ba0c4becf5fd","ios":"levelo://app?vid=8acd406c-b756-42e4-b1c7-ba0c4becf5fd"},"vehicle_type_id":"4","last_reported":1752759020,"current_range_meters":19600,"station_id":"ce4bhb92rcd13ifvqen0","pricing_plan_id":"cebpf4jnsgd1na2vs0mg"},{"bike_id":"44b2f65b-6a83-48ed-961f-10474fc261eb","system_id":"levelo_inurba_marseille","lat":43.27812,"lon":5.40713,"is_reserved":false,"is_disabled":false,"rental_uris":{"android":"levelo://app?vid=44b2f65b-6a83-48ed-961f-10474fc261eb","ios":"levelo://app?vid=44b2f65b-6a83-48ed-961f-10474fc261eb"},"vehicle_type_id":"4","last_reported":1752759020,"current_range_meters":19600,"station_id":"ce4bhnh2rcd13ifvqgtg","pricing_plan_id":"cebpf4jnsgd1na2vs0mg"},{"bike_id":"af445d04-545e-4008-bf6d-71b2068dfacf","system_id":"levelo_inurba_marseille","lat":43.29896,"lon":5.43654,"is_reserved":false,"is_disabled":false,"rental_uris":{"android":"levelo://app?vid=af445d04-545e-4008-bf6d-71b2068dfacf","ios":"levelo://app?vid=af445d04-545e-4008-bf6d-71b2068dfacf"},"vehicle_type_id":"4","last_reported":1752759020,"current_range_meters":19600,"station_id":"ce4bhpp2rcd13ifvqhfg","pricing_plan_id":"cebpf4jnsgd1na2vs0mg"},{"bike_id":"ac0ed4be-466c-4caa-b855-3c6bbe5a11b5","system_id":"levelo_inurba_marseille","lat":43.26761,"lon":5.37179,"is_reserved":false,"is_disabled":false,"rental_uris":{"android":"levelo://app?vid=ac0ed4be-466c-4caa-b855-3c6bbe5a11b5","ios":"levelo://app?vid=ac0ed4be-466c-4caa-b855-3c6bbe5a11b5"},"vehicle_type_id":"4","last_reported":1752759020,"current_range_meters":19600,"station_id":"","pricing_plan_id":"cebpf4jnsgd1na2vs0mg"},{"bike_id":"9e599d24-8bd8-4636-ad57-522e6529d764","system_id":"levelo_inurba_marseille","lat":43.2843,"lon":5.34995,"is_reserved":false,"is_disabled":false,"rental_uris":{"android":"levelo://app?vid=9e599d24-8bd8-4636-ad57-522e6529d764","ios":"levelo://app?vid=9e599d24-8bd8-4636-ad57-522e6529d764"},"vehicle_type_id":"4","last_reported":1752759020,"current_range_meters":19600,"station_id":"ce4bhbh2rcd13ifvqepg","pricing_plan_id":"cebpf4jnsgd1na2vs0mg"},{"bike_id":"86d398e7-3ab0-449d-bca0-747a9f49b8f5","system_id":"levelo_inurba_marseille","lat":43.27491,"lon":5.42458,"is_reserved":false,"is_disabled":false,"rental_uris":{"android":"levelo://app?vid=86d398e7-3ab0-449d-bca0-747a9f49b8f5","ios":"levelo://app?vid=86d398e7-3ab0-449d-bca0-747a9f49b8f5"},"vehicle_type_id":"4","last_reported":1752759020,"current_range_meters":19600,"station_id":"ce4bhn92rcd13ifvqgrg","pricing_plan_id":"cebpf4jnsgd1na2vs0mg"},{"bike_id":"6a737cae-81af-4cea-a9c2-583961550529","system_id":"levelo_inurba_marseille","lat":43.23209,"lon":5.35464,"is_reserved":false,"is_disabled":false,"rental_uris":{"android":"levelo://app?vid=6a737cae-81af-4cea-a9c2-583961550529","ios":"levelo://app?vid=6a737cae-81af-4cea-a9c2-583961550529"},"vehicle_type_id":"4","last_reported":1752759020,"current_range_meters":19600,"station_id":"","pricing_plan_id":"cebpf4jnsgd1na2vs0mg"},{"bike_id":"c0ce5d32-0e42-4aa0-b843-93da62aa9c40","system_id":"levelo_inurba_marseille","lat":43.31488,"lon":5.37303,"is_reserved":false,"is_disabled":false,"rental_uris":{"android":"levelo://app?vid=c0ce5d32-0e42-4aa0-b843-93da62aa9c40","ios":"levelo://app?vid=c0ce5d32-0e42-4aa0-b843-93da62aa9c40"},"vehicle_type_id":"4","last_reported":1752759020,"current_range_meters":19600,"station_id":"ce4bgt12rcd13ifvqcd0","pricing_plan_id":"cebpf4jnsgd1na2vs0mg"},{"bike_id":"cd8b308d-fa87-428a-a1a6-ab2dc77b97ed","system_id":"levelo_inurba_marseille","lat":43.28153,"lon":5.42632,"is_reserved":false,"is_disabled":false,"rental_uris":{"android":"levelo://app?vid=cd8b308d-fa87-428a-a1a6-ab2dc77b97ed","ios":"levelo://app?vid=cd8b308d-fa87-428a-a1a6-ab2dc77b97ed"},"vehicle_type_id":"4","last_reported":1752759020,"current_range_meters":19600,"station_id":"ce4bhnh2rcd13ifvqgug","pricing_plan_id":"cebpf4jnsgd1na2vs0mg"},{"bike_id":"cfb52d04-9134-4c86-8269-771716b20f27","system_id":"levelo_inurba_marseille","lat":43.21193,"lon":5.3507,"is_reserved":false,"is_disabled":false,"rental_uris":{"android":"levelo://app?vid=cfb52d04-9134-4c86-8269-771716b20f27","ios":"levelo://app?vid=cfb52d04-9134-4c86-8269-771716b20f27"},"vehicle_type_id":"4","last_reported":1752759020,"current_range_meters":19600,"station_id":"st_cvj6sg6p6f1abm77japg","pricing_plan_id":"cebpf4jnsgd1na2vs0mg"},{"bike_id":"57673fd9-e9a8-4292-9f48-49558084ac5a","system_id":"levelo_inurba_marseille","lat":43.30559,"lon":5.3651,"is_reserved":false,"is_disabled":false,"rental_uris":{"android":"levelo://app?vid=57673fd9-e9a8-4292-9f48-49558084ac5a","ios":"levelo://app?vid=57673fd9-e9a8-4292-9f48-49558084ac5a"},"vehicle_type_id":"4","last_reported":1752759020,"current_range_meters":19600,"station_id":"ce4bgs12rcd13ifvqcag","pricing_plan_id":"cebpf4jnsgd1na2vs0mg"},{"bike_id":"eb5e954c-b3bf-48c3-aa20-b166f84e680c","system_id":"levelo_inurba_marseille","lat":43.284,"lon":5.35022,"is_reserved":false,"is_disabled":false,"rental_uris":{"android":"levelo://app?vid=eb5e954c-b3bf-48c3-aa20-b166f84e680c","ios":"levelo://app?vid=eb5e954c-b3bf-48c3-aa20-b166f84e680c"},"vehicle_type_id":"4","last_reported":1752759020,"current_range_meters":20000,"station_id":"ce4bhbh2rcd13ifvqepg","pricing_plan_id":"cebpf4jnsgd1na2vs0mg"},{"bike_id":"11f8bac9-cf42-45fc-afe4-bc93c656499e","system_id":"levelo_inurba_marseille","lat":43.26535,"lon":5.37314,"is_reserved":false,"is_disabled":false,"rental_uris":{"android":"levelo://app?vid=11f8bac9-cf42-45fc-afe4-bc93c656499e","ios":"levelo://app?vid=11f8bac9-cf42-45fc-afe4-bc93c656499e"},"vehicle_type_id":"4","last_reported":1752759020,"current_range_meters":20000,"station_id":"ce4bhg12rcd13ifvqf70","pricing_plan_id":"cebpf4jnsgd1na2vs0mg"},{"bike_id":"8990e74a-abec-4671-a246-2f74a088b8bf","system_id":"levelo_inurba_marseille","lat":43.3233,"lon":5.40618,"is_reserved":false,"is_disabled":false,"rental_uris":{"android":"levelo://app?vid=8990e74a-abec-4671-a246-2f74a088b8bf","ios":"levelo://app?vid=8990e74a-abec-4671-a246-2f74a088b8bf"},"vehicle_type_id":"4","last_reported":1752759020,"current_range_meters":20000,"station_id":"ce4bhq92rcd13ifvqhjg","pricing_plan_id":"cebpf4jnsgd1na2vs0mg"},{"bike_id":"2e30a14e-d39c-4d88-aef5-5855f78121be","system_id":"levelo_inurba_marseille","lat":43.2903,"lon":5.37562,"is_reserved":false,"is_disabled":false,"rental_uris":{"android":"levelo://app?vid=2e30a14e-d39c-4d88-aef5-5855f78121be","ios":"levelo://app?vid=2e30a14e-d39c-4d88-aef5-5855f78121be"},"vehicle_type_id":"4","last_reported":1752759020,"current_range_meters":20000,"station_id":"ce4bh692rcd13ifvqe90","pricing_plan_id":"cebpf4jnsgd1na2vs0mg"},{"bike_id":"0c1a38a7-2b7b-4630-aee2-91a30df1e89d","system_id":"levelo_inurba_marseille","lat":43.28719,"lon":5.36078,"is_reserved":false,"is_disabled":false,"rental_uris":{"android":"levelo://app?vid=0c1a38a7-2b7b-4630-aee2-91a30df1e89d","ios":"levelo://app?vid=0c1a38a7-2b7b-4630-aee2-91a30df1e89d"},"vehicle_type_id":"4","last_reported":1752759020,"current_range_meters":20000,"station_id":"cki0cbj6b192h4jlfktg","pricing_plan_id":"cebpf4jnsgd1na2vs0mg"},{"bike_id":"b1b8371d-5a49-4aa4-aba6-25634d8cbe2e","system_id":"levelo_inurba_marseille","lat":43.29937,"lon":5.36553,"is_reserved":false,"is_disabled":false,"rental_uris":{"android":"levelo://app?vid=b1b8371d-5a49-4aa4-aba6-25634d8cbe2e","ios":"levelo://app?vid=b1b8371d-5a49-4aa4-aba6-25634d8cbe2e"},"vehicle_type_id":"4","last_reported":1752759020,"current_range_meters":20000,"station_id":"ce4bgm92rcd13ifvqbr0","pricing_plan_id":"cebpf4jnsgd1na2vs0mg"},{"bike_id":"c120b10e-3c54-499a-96f4-fb08d196aabd","system_id":"levelo_inurba_marseille","lat":43.260266,"lon":5.375489,"is_reserved":false,"is_disabled":false,"rental_uris":{"android":"levelo://app?vid=c120b10e-3c54-499a-96f4-fb08d196aabd","ios":"levelo://app?vid=c120b10e-3c54-499a-96f4-fb08d196aabd"},"vehicle_type_id":"4","last_reported":1752759020,"current_range_meters":20000,"station_id":"ce4bh112rcd13ifvqda0","pricing_plan_id":"cebpf4jnsgd1na2vs0mg"},{"bike_id":"8ce9b80c-19c6-4985-81c6-50f285c26740","system_id":"levelo_inurba_marseille","lat":43.23954,"lon":5.36628,"is_reserved":false,"is_disabled":false,"rental_uris":{"android":"levelo://app?vid=8ce9b80c-19c6-4985-81c6-50f285c26740","ios":"levelo://app?vid=8ce9b80c-19c6-4985-81c6-50f285c26740"},"vehicle_type_id":"4","last_reported":1752759020,"current_range_meters":20000,"station_id":"ce4bhi12rcd13ifvqfp0","pricing_plan_id":"cebpf4jnsgd1na2vs0mg"},{"bike_id":"653fe53c-93ed-4e47-a254-06e1d3b181a8","system_id":"levelo_inurba_marseille","lat":43.29846,"lon":5.36269,"is_reserved":false,"is_disabled":false,"rental_uris":{"android":"levelo://app?vid=653fe53c-93ed-4e47-a254-06e1d3b181a8","ios":"levelo://app?vid=653fe53c-93ed-4e47-a254-06e1d3b181a8"},"vehicle_type_id":"4","last_reported":1752759020,"current_range_meters":20000,"station_id":"ce4bgpp2rcd13ifvqc3g","pricing_plan_id":"cebpf4jnsgd1na2vs0mg"},{"bike_id":"db42604b-c15c-49d3-b62c-7cc2ce8e29c6","system_id":"levelo_inurba_marseille","lat":43.21202,"lon":5.35067,"is_reserved":false,"is_disabled":false,"rental_uris":{"android":"levelo://app?vid=db42604b-c15c-49d3-b62c-7cc2ce8e29c6","ios":"levelo://app?vid=db42604b-c15c-49d3-b62c-7cc2ce8e29c6"},"vehicle_type_id":"4","last_reported":1752759020,"current_range_meters":20000,"station_id":"st_cvj6sg6p6f1abm77japg","pricing_plan_id":"cebpf4jnsgd1na2vs0mg"},{"bike_id":"18ba3c34-8486-44b1-87f2-e8820aa4c430","system_id":"levelo_inurba_marseille","lat":43.28261,"lon":5.35075,"is_reserved":false,"is_disabled":false,"rental_uris":{"android":"levelo://app?vid=18ba3c34-8486-44b1-87f2-e8820aa4c430","ios":"levelo://app?vid=18ba3c34-8486-44b1-87f2-e8820aa4c430"},"vehicle_type_id":"4","last_reported":1752759020,"current_range_meters":20000,"station_id":"ce4bhbp2rcd13ifvqerg","pricing_plan_id":"cebpf4jnsgd1na2vs0mg"},{"bike_id":"5ab8c587-00b4-4e3d-8ab0-9a17fc8acd32","system_id":"levelo_inurba_marseille","lat":43.28673,"lon":5.386753,"is_reserved":false,"is_disabled":false,"rental_uris":{"android":"levelo://app?vid=5ab8c587-00b4-4e3d-8ab0-9a17fc8acd32","ios":"levelo://app?vid=5ab8c587-00b4-4e3d-8ab0-9a17fc8acd32"},"vehicle_type_id":"4","last_reported":1752759020,"current_range_meters":20000,"station_id":"ce4bh492rcd13ifvqdug","pricing_plan_id":"cebpf4jnsgd1na2vs0mg"},{"bike_id":"db7bad39-17ec-4f0b-95ae-0ccbb39420e1","system_id":"levelo_inurba_marseille","lat":43.22514,"lon":5.34766,"is_reserved":false,"is_disabled":false,"rental_uris":{"android":"levelo://app?vid=db7bad39-17ec-4f0b-95ae-0ccbb39420e1","ios":"levelo://app?vid=db7bad39-17ec-4f0b-95ae-0ccbb39420e1"},"vehicle_type_id":"4","last_reported":1752759020,"current_range_meters":20000,"station_id":"st_cvj5dfep6f1abm77gieg","pricing_plan_id":"cebpf4jnsgd1na2vs0mg"},{"bike_id":"d6d17411-0526-45dc-841f-3cde305afeae","system_id":"levelo_inurba_marseille","lat":43.21719,"lon":5.34709,"is_reserved":false,"is_disabled":false,"rental_uris":{"android":"levelo://app?vid=d6d17411-0526-45dc-841f-3cde305afeae","ios":"levelo://app?vid=d6d17411-0526-45dc-841f-3cde305afeae"},"vehicle_type_id":"4","last_reported":1752759020,"current_range_meters":20000,"station_id":"","pricing_plan_id":"cebpf4jnsgd1na2vs0mg"},{"bike_id":"a67156ae-789e-45f5-ab3f-ed7d95b24540","system_id":"levelo_inurba_marseille","lat":43.21187,"lon":5.35061,"is_reserved":false,"is_disabled":false,"rental_uris":{"android":"levelo://app?vid=a67156ae-789e-45f5-ab3f-ed7d95b24540","ios":"levelo://app?vid=a67156ae-789e-45f5-ab3f-ed7d95b24540"},"vehicle_type_id":"4","last_reported":1752759020,"current_range_meters":20000,"station_id":"st_cvj6sg6p6f1abm77japg","pricing_plan_id":"cebpf4jnsgd1na2vs0mg"},{"bike_id":"276ebb68-d36c-48f9-9374-6ea862bc827a","system_id":"levelo_inurba_marseille","lat":43.30416,"lon":5.41268,"is_reserved":false,"is_disabled":false,"rental_uris":{"android":"levelo://app?vid=276ebb68-d36c-48f9-9374-6ea862bc827a","ios":"levelo://app?vid=276ebb68-d36c-48f9-9374-6ea862bc827a"},"vehicle_type_id":"4","last_reported":1752759020,"current_range_meters":19600,"station_id":"ce4bhop2rcd13ifvqh8g","pricing_plan_id":"cebpf4jnsgd1na2vs0mg"},{"bike_id":"03c4e37a-9d44-4a60-b09e-c2fe99e2bf34","system_id":"levelo_inurba_marseille","lat":43.22907,"lon":5.3539,"is_reserved":false,"is_disabled":false,"rental_uris":{"android":"levelo://app?vid=03c4e37a-9d44-4a60-b09e-c2fe99e2bf34","ios":"levelo://app?vid=03c4e37a-9d44-4a60-b09e-c2fe99e2bf34"},"vehicle_type_id":"4","last_reported":1752759020,"current_range_meters":20000,"station_id":"cpo3532slgdg3j2ikp40","pricing_plan_id":"cebpf4jnsgd1na2vs0mg"},{"bike_id":"5ac93e7c-286a-4c1e-b6c0-4e9963e5a9f8","system_id":"levelo_inurba_marseille","lat":43.21186,"lon":5.35066,"is_reserved":false,"is_disabled":false,"rental_uris":{"android":"levelo://app?vid=5ac93e7c-286a-4c1e-b6c0-4e9963e5a9f8","ios":"levelo://app?vid=5ac93e7c-286a-4c1e-b6c0-4e9963e5a9f8"},"vehicle_type_id":"4","last_reported":1752759020,"current_range_meters":20000,"station_id":"st_cvj6sg6p6f1abm77japg","pricing_plan_id":"cebpf4jnsgd1na2vs0mg"},{"bike_id":"9e7bd4c8-c6d4-4892-8738-e35c92d3a2d5","system_id":"levelo_inurba_marseille","lat":43.28616,"lon":5.35109,"is_reserved":false,"is_disabled":false,"rental_uris":{"android":"levelo://app?vid=9e7bd4c8-c6d4-4892-8738-e35c92d3a2d5","ios":"levelo://app?vid=9e7bd4c8-c6d4-4892-8738-e35c92d3a2d5"},"vehicle_type_id":"4","last_reported":1752759020,"current_range_meters":20400,"station_id":"ce4bhch2rcd13ifvqeug","pricing_plan_id":"cebpf4jnsgd1na2vs0mg"},{"bike_id":"ce6853d0-9f61-4ef9-b63a-adb7e615d38f","system_id":"levelo_inurba_marseille","lat":43.28618,"lon":5.35103,"is_reserved":false,"is_disabled":false,"rental_uris":{"android":"levelo://app?vid=ce6853d0-9f61-4ef9-b63a-adb7e615d38f","ios":"levelo://app?vid=ce6853d0-9f61-4ef9-b63a-adb7e615d38f"},"vehicle_type_id":"4","last_reported":1752759020,"current_range_meters":20400,"station_id":"ce4bhch2rcd13ifvqeug","pricing_plan_id":"cebpf4jnsgd1na2vs0mg"},{"bike_id":"39156484-d3df-4ce6-9da5-beeab1f9c214","system_id":"levelo_inurba_marseille","lat":43.21749,"lon":5.34605,"is_reserved":false,"is_disabled":false,"rental_uris":{"android":"levelo://app?vid=39156484-d3df-4ce6-9da5-beeab1f9c214","ios":"levelo://app?vid=39156484-d3df-4ce6-9da5-beeab1f9c214"},"vehicle_type_id":"4","last_reported":1752759020,"current_range_meters":20400,"station_id":"st_cvj6r9ubvosntc0bgbag","pricing_plan_id":"cebpf4jnsgd1na2vs0mg"},{"bike_id":"98cfdfb3-cf57-4012-95fe-fd04ad855a81","system_id":"levelo_inurba_marseille","lat":43.239646,"lon":5.36625,"is_reserved":false,"is_disabled":false,"rental_uris":{"android":"levelo://app?vid=98cfdfb3-cf57-4012-95fe-fd04ad855a81","ios":"levelo://app?vid=98cfdfb3-cf57-4012-95fe-fd04ad855a81"},"vehicle_type_id":"4","last_reported":1752759020,"current_range_meters":20400,"station_id":"ce4bhi12rcd13ifvqfp0","pricing_plan_id":"cebpf4jnsgd1na2vs0mg"},{"bike_id":"2d95b47d-d06f-40a4-bb6e-c13e954e3c8f","system_id":"levelo_inurba_marseille","lat":43.277257,"lon":5.414144,"is_reserved":false,"is_disabled":false,"rental_uris":{"android":"levelo://app?vid=2d95b47d-d06f-40a4-bb6e-c13e954e3c8f","ios":"levelo://app?vid=2d95b47d-d06f-40a4-bb6e-c13e954e3c8f"},"vehicle_type_id":"4","last_reported":1752759020,"current_range_meters":20400,"station_id":"","pricing_plan_id":"cebpf4jnsgd1na2vs0mg"},{"bike_id":"d9b892e1-bbac-47c6-b4ce-24fc61d33d92","system_id":"levelo_inurba_marseille","lat":43.29271,"lon":5.36846,"is_reserved":false,"is_disabled":false,"rental_uris":{"android":"levelo://app?vid=d9b892e1-bbac-47c6-b4ce-24fc61d33d92","ios":"levelo://app?vid=d9b892e1-bbac-47c6-b4ce-24fc61d33d92"},"vehicle_type_id":"4","last_reported":1752759020,"current_range_meters":20400,"station_id":"ce4bhbp2rcd13ifvqesg","pricing_plan_id":"cebpf4jnsgd1na2vs0mg"},{"bike_id":"4aa575b6-a204-4fdb-acf3-66934cd34b50","system_id":"levelo_inurba_marseille","lat":43.32485,"lon":5.365667,"is_reserved":false,"is_disabled":false,"rental_uris":{"android":"levelo://app?vid=4aa575b6-a204-4fdb-acf3-66934cd34b50","ios":"levelo://app?vid=4aa575b6-a204-4fdb-acf3-66934cd34b50"},"vehicle_type_id":"4","last_reported":1752759020,"current_range_meters":20400,"station_id":"ce4bhs12rcd13ifvqhvg","pricing_plan_id":"cebpf4jnsgd1na2vs0mg"},{"bike_id":"51581677-e606-4c53-b10b-43d58b2dd5c2","system_id":"levelo_inurba_marseille","lat":43.30886,"lon":5.396499,"is_reserved":false,"is_disabled":false,"rental_uris":{"android":"levelo://app?vid=51581677-e606-4c53-b10b-43d58b2dd5c2","ios":"levelo://app?vid=51581677-e606-4c53-b10b-43d58b2dd5c2"},"vehicle_type_id":"4","last_reported":1752759020,"current_range_meters":20400,"station_id":"ce4bh012rcd13ifvqcv0","pricing_plan_id":"cebpf4jnsgd1na2vs0mg"},{"bike_id":"a675df32-16e1-46de-af30-d0726fd89292","system_id":"levelo_inurba_marseille","lat":43.24379,"lon":5.37067,"is_reserved":false,"is_disabled":false,"rental_uris":{"android":"levelo://app?vid=a675df32-16e1-46de-af30-d0726fd89292","ios":"levelo://app?vid=a675df32-16e1-46de-af30-d0726fd89292"},"vehicle_type_id":"4","last_reported":1752759020,"current_range_meters":20400,"station_id":"ce4bhhh2rcd13ifvqfk0","pricing_plan_id":"cebpf4jnsgd1na2vs0mg"},{"bike_id":"edd0079d-996b-4ae3-9a31-d781f3a059ec","system_id":"levelo_inurba_marseille","lat":43.33786,"lon":5.37426,"is_reserved":false,"is_disabled":false,"rental_uris":{"android":"levelo://app?vid=edd0079d-996b-4ae3-9a31-d781f3a059ec","ios":"levelo://app?vid=edd0079d-996b-4ae3-9a31-d781f3a059ec"},"vehicle_type_id":"4","last_reported":1752759020,"current_range_meters":20400,"station_id":"","pricing_plan_id":"cebpf4jnsgd1na2vs0mg"},{"bike_id":"d191c7f3-2e74-4030-a032-8d36459907d3","system_id":"levelo_inurba_marseille","lat":43.321093,"lon":5.367842,"is_reserved":false,"is_disabled":false,"rental_uris":{"android":"levelo://app?vid=d191c7f3-2e74-4030-a032-8d36459907d3","ios":"levelo://app?vid=d191c7f3-2e74-4030-a032-8d36459907d3"},"vehicle_type_id":"4","last_reported":1752759020,"current_range_meters":20400,"station_id":"ce4bhrh2rcd13ifvqhug","pricing_plan_id":"cebpf4jnsgd1na2vs0mg"},{"bike_id":"ffa2ee83-2cef-4aab-92df-68c776cd54ff","system_id":"levelo_inurba_marseille","lat":43.23966,"lon":5.36632,"is_reserved":false,"is_disabled":false,"rental_uris":{"android":"levelo://app?vid=ffa2ee83-2cef-4aab-92df-68c776cd54ff","ios":"levelo://app?vid=ffa2ee83-2cef-4aab-92df-68c776cd54ff"},"vehicle_type_id":"4","last_reported":1752759020,"current_range_meters":20400,"station_id":"ce4bhi12rcd13ifvqfp0","pricing_plan_id":"cebpf4jnsgd1na2vs0mg"},{"bike_id":"5569f73c-1792-4c62-a260-1de2fd648e8b","system_id":"levelo_inurba_marseille","lat":43.23154,"lon":5.40009,"is_reserved":false,"is_disabled":false,"rental_uris":{"android":"levelo://app?vid=5569f73c-1792-4c62-a260-1de2fd648e8b","ios":"levelo://app?vid=5569f73c-1792-4c62-a260-1de2fd648e8b"},"vehicle_type_id":"4","last_reported":1752759020,"current_range_meters":20800,"station_id":"ce4bhn12rcd13ifvqgqg","pricing_plan_id":"cebpf4jnsgd1na2vs0mg"},{"bike_id":"f7dbe6ba-4da4-4adf-9271-c22ee51ac1fa","system_id":"levelo_inurba_marseille","lat":43.29191,"lon":5.35787,"is_reserved":false,"is_disabled":false,"rental_uris":{"android":"levelo://app?vid=f7dbe6ba-4da4-4adf-9271-c22ee51ac1fa","ios":"levelo://app?vid=f7dbe6ba-4da4-4adf-9271-c22ee51ac1fa"},"vehicle_type_id":"4","last_reported":1752759020,"current_range_meters":20800,"station_id":"ce4bhb12rcd13ifvqel0","pricing_plan_id":"cebpf4jnsgd1na2vs0mg"},{"bike_id":"b6e71a0c-f7ac-4ac7-90d6-c43224c75653","system_id":"levelo_inurba_marseille","lat":43.28932,"lon":5.36638,"is_reserved":false,"is_disabled":false,"rental_uris":{"android":"levelo://app?vid=b6e71a0c-f7ac-4ac7-90d6-c43224c75653","ios":"levelo://app?vid=b6e71a0c-f7ac-4ac7-90d6-c43224c75653"},"vehicle_type_id":"4","last_reported":1752759020,"current_range_meters":20800,"station_id":"ce4bhap2rcd13ifvqek0","pricing_plan_id":"cebpf4jnsgd1na2vs0mg"},{"bike_id":"ea56ba37-2478-4a77-82da-e60bd49eba6a","system_id":"levelo_inurba_marseille","lat":43.27953,"lon":5.38785,"is_reserved":false,"is_disabled":false,"rental_uris":{"android":"levelo://app?vid=ea56ba37-2478-4a77-82da-e60bd49eba6a","ios":"levelo://app?vid=ea56ba37-2478-4a77-82da-e60bd49eba6a"},"vehicle_type_id":"4","last_reported":1752759020,"current_range_meters":20800,"station_id":"ce4bhg12rcd13ifvqf80","pricing_plan_id":"cebpf4jnsgd1na2vs0mg"},{"bike_id":"7d11b2f6-67d9-4d1a-8f35-4103f3161280","system_id":"levelo_inurba_marseille","lat":43.21214,"lon":5.35083,"is_reserved":false,"is_disabled":false,"rental_uris":{"android":"levelo://app?vid=7d11b2f6-67d9-4d1a-8f35-4103f3161280","ios":"levelo://app?vid=7d11b2f6-67d9-4d1a-8f35-4103f3161280"},"vehicle_type_id":"4","last_reported":1752759020,"current_range_meters":20800,"station_id":"st_cvj6sg6p6f1abm77japg","pricing_plan_id":"cebpf4jnsgd1na2vs0mg"},{"bike_id":"9e365865-b118-4295-83f9-77049644431e","system_id":"levelo_inurba_marseille","lat":43.3134,"lon":5.36819,"is_reserved":false,"is_disabled":false,"rental_uris":{"android":"levelo://app?vid=9e365865-b118-4295-83f9-77049644431e","ios":"levelo://app?vid=9e365865-b118-4295-83f9-77049644431e"},"vehicle_type_id":"4","last_reported":1752759020,"current_range_meters":20800,"station_id":"ce4bgr92rcd13ifvqc6g","pricing_plan_id":"cebpf4jnsgd1na2vs0mg"},{"bike_id":"1d9bf584-41ef-4bf3-aa4f-c2cce8d3727b","system_id":"levelo_inurba_marseille","lat":43.22521,"lon":5.3478,"is_reserved":false,"is_disabled":true,"rental_uris":{"android":"levelo://app?vid=1d9bf584-41ef-4bf3-aa4f-c2cce8d3727b","ios":"levelo://app?vid=1d9bf584-41ef-4bf3-aa4f-c2cce8d3727b"},"vehicle_type_id":"4","last_reported":1752759020,"current_range_meters":20800,"station_id":"st_cvj5dfep6f1abm77gieg","pricing_plan_id":"cebpf4jnsgd1na2vs0mg"},{"bike_id":"58cb234b-86ec-4b63-99db-717c732d6291","system_id":"levelo_inurba_marseille","lat":43.31219,"lon":5.3686,"is_reserved":false,"is_disabled":false,"rental_uris":{"android":"levelo://app?vid=58cb234b-86ec-4b63-99db-717c732d6291","ios":"levelo://app?vid=58cb234b-86ec-4b63-99db-717c732d6291"},"vehicle_type_id":"4","last_reported":1752759020,"current_range_meters":20800,"station_id":"ce4bgl92rcd13ifvqbq0","pricing_plan_id":"cebpf4jnsgd1na2vs0mg"},{"bike_id":"4abe2ad3-e42d-451a-ab06-1018a03f7dbc","system_id":"levelo_inurba_marseille","lat":43.23961,"lon":5.36631,"is_reserved":false,"is_disabled":false,"rental_uris":{"android":"levelo://app?vid=4abe2ad3-e42d-451a-ab06-1018a03f7dbc","ios":"levelo://app?vid=4abe2ad3-e42d-451a-ab06-1018a03f7dbc"},"vehicle_type_id":"4","last_reported":1752759020,"current_range_meters":20800,"station_id":"ce4bhi12rcd13ifvqfp0","pricing_plan_id":"cebpf4jnsgd1na2vs0mg"},{"bike_id":"5f609dac-09f6-4f7d-905f-6338275679f0","system_id":"levelo_inurba_marseille","lat":43.30377,"lon":5.42496,"is_reserved":false,"is_disabled":false,"rental_uris":{"android":"levelo://app?vid=5f609dac-09f6-4f7d-905f-6338275679f0","ios":"levelo://app?vid=5f609dac-09f6-4f7d-905f-6338275679f0"},"vehicle_type_id":"4","last_reported":1752759020,"current_range_meters":20800,"station_id":"ce4bhoh2rcd13ifvqh6g","pricing_plan_id":"cebpf4jnsgd1na2vs0mg"},{"bike_id":"5abe4ef9-d5c8-4f22-a2d9-af4e629aca1d","system_id":"levelo_inurba_marseille","lat":43.27666,"lon":5.38887,"is_reserved":false,"is_disabled":false,"rental_uris":{"android":"levelo://app?vid=5abe4ef9-d5c8-4f22-a2d9-af4e629aca1d","ios":"levelo://app?vid=5abe4ef9-d5c8-4f22-a2d9-af4e629aca1d"},"vehicle_type_id":"4","last_reported":1752759020,"current_range_meters":20800,"station_id":"ce4bhi12rcd13ifvqfo0","pricing_plan_id":"cebpf4jnsgd1na2vs0mg"},{"bike_id":"acc34e86-0382-4d1d-a4a5-80350ebc955c","system_id":"levelo_inurba_marseille","lat":43.28032,"lon":5.36937,"is_reserved":false,"is_disabled":false,"rental_uris":{"android":"levelo://app?vid=acc34e86-0382-4d1d-a4a5-80350ebc955c","ios":"levelo://app?vid=acc34e86-0382-4d1d-a4a5-80350ebc955c"},"vehicle_type_id":"4","last_reported":1752759020,"current_range_meters":20800,"station_id":"ce4bha12rcd13ifvqef0","pricing_plan_id":"cebpf4jnsgd1na2vs0mg"},{"bike_id":"b9354840-2204-42f6-a2ce-76c0ad8aa4f1","system_id":"levelo_inurba_marseille","lat":43.28264,"lon":5.35074,"is_reserved":false,"is_disabled":false,"rental_uris":{"android":"levelo://app?vid=b9354840-2204-42f6-a2ce-76c0ad8aa4f1","ios":"levelo://app?vid=b9354840-2204-42f6-a2ce-76c0ad8aa4f1"},"vehicle_type_id":"4","last_reported":1752759020,"current_range_meters":20800,"station_id":"ce4bhbp2rcd13ifvqerg","pricing_plan_id":"cebpf4jnsgd1na2vs0mg"},{"bike_id":"b66e91e8-86dd-424a-991b-6e33e9172642","system_id":"levelo_inurba_marseille","lat":43.2842,"lon":5.34992,"is_reserved":false,"is_disabled":false,"rental_uris":{"android":"levelo://app?vid=b66e91e8-86dd-424a-991b-6e33e9172642","ios":"levelo://app?vid=b66e91e8-86dd-424a-991b-6e33e9172642"},"vehicle_type_id":"4","last_reported":1752759020,"current_range_meters":20800,"station_id":"ce4bhbh2rcd13ifvqepg","pricing_plan_id":"cebpf4jnsgd1na2vs0mg"},{"bike_id":"4d535772-8564-494a-b3b3-0ca301a61dac","system_id":"levelo_inurba_marseille","lat":43.28271,"lon":5.3507,"is_reserved":false,"is_disabled":false,"rental_uris":{"android":"levelo://app?vid=4d535772-8564-494a-b3b3-0ca301a61dac","ios":"levelo://app?vid=4d535772-8564-494a-b3b3-0ca301a61dac"},