{"last_updated":1784447850,"ttl":60,"version":"2.2","data":{"bikes":[{"bike_id":"ba0c28b1-8732-48e2-8079-f25b2b3fbc3c","system_id":"levelo_inurba_marseille","lat":43.337444,"lon":5.374475,"is_reserved":false,"is_disabled":false,"rental_uris":{"android":"levelo://app?vid=ba0c28b1-8732-48e2-8079-f25b2b3fbc3c","ios":"levelo://app?vid=ba0c28b1-8732-48e2-8079-f25b2b3fbc3c"},"vehicle_type_id":"4","last_reported":1784447851,"current_range_meters":0,"station_id":"","pricing_plan_id":"cebpf4jnsgd1na2vs0mg"},{"bike_id":"b24e008d-76fe-4304-bdb8-1a62b93995b0","system_id":"levelo_inurba_marseille","lat":43.22531,"lon":5.34836,"is_reserved":false,"is_disabled":false,"rental_uris":{"android":"levelo://app?vid=b24e008d-76fe-4304-bdb8-1a62b93995b0","ios":"levelo://app?vid=b24e008d-76fe-4304-bdb8-1a62b93995b0"},"vehicle_type_id":"4","last_reported":1784447851,"current_range_meters":39200,"station_id":"st_cvj5dfep6f1abm77gieg","pricing_plan_id":"cebpf4jnsgd1na2vs0mg"},{"bike_id":"a966e85f-68d2-4c23-8395-3915ebf05c3e","system_id":"levelo_inurba_marseille","lat":43.33568,"lon":5.37363,"is_reserved":false,"is_disabled":false,"rental_uris":{"android":"levelo://app?vid=a966e85f-68d2-4c23-8395-3915ebf05c3e","ios":"levelo://app?vid=a966e85f-68d2-4c23-8395-3915ebf05c3e"},"vehicle_type_id":"4","last_reported":1784447851,"current_range_meters":13600,"station_id":"st_d46tts09ee8s73dlu43g","pricing_plan_id":"cebpf4jnsgd1na2vs0mg"},{"bike_id":"63dc20ac-90f4-4eae-ac6c-d24ae13a7929","system_id":"levelo_inurba_marseille","lat":43.2534,"lon":5.42141,"is_reserved":false,"is_disabled":false,"rental_uris":{"android":"levelo://app?vid=63dc20ac-90f4-4eae-ac6c-d24ae13a7929","ios":"levelo://app?vid=63dc20ac-90f4-4eae-ac6c-d24ae13a7929"},"vehicle_type_id":"4","last_reported":1784447851,"current_range_meters":30000,"station_id":"st_d2m65c5bi1j21697t3ng","pricing_plan_id":"cebpf4jnsgd1na2vs0mg"},{"bike_id":"abae7034-1461-48ea-bf87-b1ee7b72e10f","system_id":"levelo_inurba_marseille","lat":43.29024,"lon":5.38142,"is_reserved":false,"is_disabled":false,"rental_uris":{"android":"levelo://app?vid=abae7034-1461-48ea-bf87-b1ee7b72e10f","ios":"levelo://app?vid=abae7034-1461-48ea-bf87-b1ee7b72e10f"},"vehicle_type_id":"4","last_reported":1784447851,"current_range_meters":18800,"station_id":"ce4bh4p2rcd13ifvqe1g","pricing_plan_id":"cebpf4jnsgd1na2vs0mg"},{"bike_id":"98aa85a7-1052-4ead-abe7-0af5a91fddb4","system_id":"levelo_inurba_marseille","lat":43.30827,"lon":5.38177,"is_reserved":false,"is_disabled":false,"rental_uris":{"android":"levelo://app?vid=98aa85a7-1052-4ead-abe7-0af5a91fddb4","ios":"levelo://app?vid=98aa85a7-1052-4ead-abe7-0af5a91fddb4"},"vehicle_type_id":"4","last_reported":1784447851,"current_range_meters":39200,"station_id":"ce4bgt12rcd13ifvqce0","pricing_plan_id":"cebpf4jnsgd1na2vs0mg"},{"bike_id":"d6c2708e-8c67-4efd-9efe-178d630e0182","system_id":"levelo_inurba_marseille","lat":43.30425,"lon":5.3976,"is_reserved":false,"is_disabled":false,"rental_uris":{"android":"levelo://app?vid=d6c2708e-8c67-4efd-9efe-178d630e0182","ios":"levelo://app?vid=d6c2708e-8c67-4efd-9efe-178d630e0182"},"vehicle_type_id":"4","last_reported":1784447851,"current_range_meters":38400,"station_id":"ce4bh092rcd13ifvqd20","pricing_plan_id":"cebpf4jnsgd1na2vs0mg"},{"bike_id":"94dd8253-3b80-4cb0-9de6-cca9b73befbc","system_id":"levelo_inurba_marseille","lat":43.28357,"lon":5.3812,"is_reserved":false,"is_disabled":false,"rental_uris":{"android":"levelo://app?vid=94dd8253-3b80-4cb0-9de6-cca9b73befbc","ios":"levelo://app?vid=94dd8253-3b80-4cb0-9de6-cca9b73befbc"},"vehicle_type_id":"4","last_reported":1784447851,"current_range_meters":16000,"station_id":"ce4bh412rcd13ifvqdr0","pricing_plan_id":"cebpf4jnsgd1na2vs0mg"},{"bike_id":"207280f1-9a38-44af-b6b7-c558de9346cb","system_id":"levelo_inurba_marseille","lat":43.31125,"lon":5.37785,"is_reserved":false,"is_disabled":false,"rental_uris":{"android":"levelo://app?vid=207280f1-9a38-44af-b6b7-c558de9346cb","ios":"levelo://app?vid=207280f1-9a38-44af-b6b7-c558de9346cb"},"vehicle_type_id":"4","last_reported":1784447851,"current_range_meters":39200,"station_id":"ce4bgt92rcd13ifvqcg0","pricing_plan_id":"cebpf4jnsgd1na2vs0mg"},{"bike_id":"edc293ec-aaef-4cc0-903d-983aa4cb3d2f","system_id":"levelo_inurba_marseille","lat":43.3092,"lon":5.36711,"is_reserved":false,"is_disabled":false,"rental_uris":{"android":"levelo://app?vid=edc293ec-aaef-4cc0-903d-983aa4cb3d2f","ios":"levelo://app?vid=edc293ec-aaef-4cc0-903d-983aa4cb3d2f"},"vehicle_type_id":"4","last_reported":1784447851,"current_range_meters":3200,"station_id":"","pricing_plan_id":"cebpf4jnsgd1na2vs0mg"},{"bike_id":"f88b334c-27a5-4495-93d8-9a1c5e18cfaa","system_id":"levelo_inurba_marseille","lat":43.25511,"lon":5.37656,"is_reserved":false,"is_disabled":false,"rental_uris":{"android":"levelo://app?vid=f88b334c-27a5-4495-93d8-9a1c5e18cfaa","ios":"levelo://app?vid=f88b334c-27a5-4495-93d8-9a1c5e18cfaa"},"vehicle_type_id":"4","last_reported":1784447851,"current_range_meters":34000,"station_id":"ce4bhh12rcd13ifvqff0","pricing_plan_id":"cebpf4jnsgd1na2vs0mg"},{"bike_id":"9da5cadf-cdd1-429b-9b5e-9173177dfcc4","system_id":"levelo_inurba_marseille","lat":43.24398,"lon":5.37068,"is_reserved":false,"is_disabled":false,"rental_uris":{"android":"levelo://app?vid=9da5cadf-cdd1-429b-9b5e-9173177dfcc4","ios":"levelo://app?vid=9da5cadf-cdd1-429b-9b5e-9173177dfcc4"},"vehicle_type_id":"4","last_reported":1784447851,"current_range_meters":8800,"station_id":"ce4bhhh2rcd13ifvqfk0","pricing_plan_id":"cebpf4jnsgd1na2vs0mg"},{"bike_id":"802932c3-137c-415e-a990-a11b7eeacb0d","system_id":"levelo_inurba_marseille","lat":43.29589,"lon":5.37728,"is_reserved":false,"is_disabled":false,"rental_uris":{"android":"levelo://app?vid=802932c3-137c-415e-a990-a11b7eeacb0d","ios":"levelo://app?vid=802932c3-137c-415e-a990-a11b7eeacb0d"},"vehicle_type_id":"4","last_reported":1784447851,"current_range_meters":39200,"station_id":"ce4bgi92rcd13ifvqb90","pricing_plan_id":"cebpf4jnsgd1na2vs0mg"},{"bike_id":"e71494cd-d4a8-436a-a5c6-260a2924500e","system_id":"levelo_inurba_marseille","lat":43.26226,"lon":5.38763,"is_reserved":false,"is_disabled":true,"rental_uris":{"android":"levelo://app?vid=e71494cd-d4a8-436a-a5c6-260a2924500e","ios":"levelo://app?vid=e71494cd-d4a8-436a-a5c6-260a2924500e"},"vehicle_type_id":"4","last_reported":1784447851,"current_range_meters":25600,"station_id":"st_d8gjfg747rts73coq3b0","pricing_plan_id":"cebpf4jnsgd1na2vs0mg"},{"bike_id":"4dd83e35-73dd-44b8-9d3c-9c21e3418d4e","system_id":"levelo_inurba_marseille","lat":43.2749,"lon":5.42532,"is_reserved":false,"is_disabled":false,"rental_uris":{"android":"levelo://app?vid=4dd83e35-73dd-44b8-9d3c-9c21e3418d4e","ios":"levelo://app?vid=4dd83e35-73dd-44b8-9d3c-9c21e3418d4e"},"vehicle_type_id":"4","last_reported":1784447851,"current_range_meters":11200,"station_id":"st_d8t4bh7nbrqs73arha60","pricing_plan_id":"cebpf4jnsgd1na2vs0mg"},{"bike_id":"661a48b2-2a3b-4341-ba7f-18771415c6d8","system_id":"levelo_inurba_marseille","lat":43.27064,"lon":5.38306,"is_reserved":false,"is_disabled":false,"rental_uris":{"android":"levelo://app?vid=661a48b2-2a3b-4341-ba7f-18771415c6d8","ios":"levelo://app?vid=661a48b2-2a3b-4341-ba7f-18771415c6d8"},"vehicle_type_id":"4","last_reported":1784447851,"current_range_meters":39200,"station_id":"st_d3n2fo6cfp8s73cte1j0","pricing_plan_id":"cebpf4jnsgd1na2vs0mg"},{"bike_id":"8d4adae1-b8e3-4d1b-abe5-18ec28cc6af9","system_id":"levelo_inurba_marseille","lat":43.28563,"lon":5.39494,"is_reserved":false,"is_disabled":true,"rental_uris":{"android":"levelo://app?vid=8d4adae1-b8e3-4d1b-abe5-18ec28cc6af9","ios":"levelo://app?vid=8d4adae1-b8e3-4d1b-abe5-18ec28cc6af9"},"vehicle_type_id":"4","last_reported":1784447851,"current_range_meters":28400,"station_id":"ce4bh292rcd13ifvqdg0","pricing_plan_id":"cebpf4jnsgd1na2vs0mg"},{"bike_id":"bedff844-9130-492b-a7c3-37d670bbb559","system_id":"levelo_inurba_marseille","lat":43.32356,"lon":5.36732,"is_reserved":false,"is_disabled":true,"rental_uris":{"android":"levelo://app?vid=bedff844-9130-492b-a7c3-37d670bbb559","ios":"levelo://app?vid=bedff844-9130-492b-a7c3-37d670bbb559"},"vehicle_type_id":"4","last_reported":1784447851,"current_range_meters":39200,"station_id":"ce4bhsh2rcd13ifvqi2g","pricing_plan_id":"cebpf4jnsgd1na2vs0mg"},{"bike_id":"a9029f76-a947-4038-94fd-3bc9333c145a","system_id":"levelo_inurba_marseille","lat":43.2928,"lon":5.40125,"is_reserved":false,"is_disabled":false,"rental_uris":{"android":"levelo://app?vid=a9029f76-a947-4038-94fd-3bc9333c145a","ios":"levelo://app?vid=a9029f76-a947-4038-94fd-3bc9333c145a"},"vehicle_type_id":"4","last_reported":1784447851,"current_range_meters":26800,"station_id":"ce4bh312rcd13ifvqdk0","pricing_plan_id":"cebpf4jnsgd1na2vs0mg"},{"bike_id":"3f90babe-1f4e-4451-ae93-3bb30a379e7f","system_id":"levelo_inurba_marseille","lat":43.30232,"lon":5.40061,"is_reserved":false,"is_disabled":false,"rental_uris":{"android":"levelo://app?vid=3f90babe-1f4e-4451-ae93-3bb30a379e7f","ios":"levelo://app?vid=3f90babe-1f4e-4451-ae93-3bb30a379e7f"},"vehicle_type_id":"4","last_reported":1784447851,"current_range_meters":10000,"station_id":"","pricing_plan_id":"cebpf4jnsgd1na2vs0mg"},{"bike_id":"4a2b6d62-8189-440a-9a99-ef8458bda7c9","system_id":"levelo_inurba_marseille","lat":43.30411,"lon":5.41287,"is_reserved":false,"is_disabled":false,"rental_uris":{"android":"levelo://app?vid=4a2b6d62-8189-440a-9a99-ef8458bda7c9","ios":"levelo://app?vid=4a2b6d62-8189-440a-9a99-ef8458bda7c9"},"vehicle_type_id":"4","last_reported":1784447851,"current_range_meters":38400,"station_id":"ce4bhop2rcd13ifvqh8g","pricing_plan_id":"cebpf4jnsgd1na2vs0mg"},{"bike_id":"b3eaf168-2195-4bbf-aaf0-806862e18d0e","system_id":"levelo_inurba_marseille","lat":43.27372,"lon":5.36248,"is_reserved":false,"is_disabled":false,"rental_uris":{"android":"levelo://app?vid=b3eaf168-2195-4bbf-aaf0-806862e18d0e","ios":"levelo://app?vid=b3eaf168-2195-4bbf-aaf0-806862e18d0e"},"vehicle_type_id":"4","last_reported":1784447851,"current_range_meters":31200,"station_id":"ce4bhbh2rcd13ifvqeo0","pricing_plan_id":"cebpf4jnsgd1na2vs0mg"},{"bike_id":"9ea2ac17-9e21-43f6-af57-d2ae5b157070","system_id":"levelo_inurba_marseille","lat":43.31493,"lon":5.37307,"is_reserved":false,"is_disabled":false,"rental_uris":{"android":"levelo://app?vid=9ea2ac17-9e21-43f6-af57-d2ae5b157070","ios":"levelo://app?vid=9ea2ac17-9e21-43f6-af57-d2ae5b157070"},"vehicle_type_id":"4","last_reported":1784447851,"current_range_meters":19200,"station_id":"ce4bgt12rcd13ifvqcd0","pricing_plan_id":"cebpf4jnsgd1na2vs0mg"},{"bike_id":"0ecdb674-3c3c-46be-9a7b-0387e7579f88","system_id":"levelo_inurba_marseille","lat":43.24476,"lon":5.42531,"is_reserved":false,"is_disabled":false,"rental_uris":{"android":"levelo://app?vid=0ecdb674-3c3c-46be-9a7b-0387e7579f88","ios":"levelo://app?vid=0ecdb674-3c3c-46be-9a7b-0387e7579f88"},"vehicle_type_id":"4","last_reported":1784447851,"current_range_meters":29600,"station_id":"st_d4a3vfp97mjs738cd8kg","pricing_plan_id":"cebpf4jnsgd1na2vs0mg"},{"bike_id":"545d958b-693c-4d14-aa29-c06a7b94d5cd","system_id":"levelo_inurba_marseille","lat":43.30661,"lon":5.40074,"is_reserved":false,"is_disabled":false,"rental_uris":{"android":"levelo://app?vid=545d958b-693c-4d14-aa29-c06a7b94d5cd","ios":"levelo://app?vid=545d958b-693c-4d14-aa29-c06a7b94d5cd"},"vehicle_type_id":"4","last_reported":1784447851,"current_range_meters":3600,"station_id":"ce4bh112rcd13ifvqda0","pricing_plan_id":"cebpf4jnsgd1na2vs0mg"},{"bike_id":"129ac767-2638-4c48-b9ca-8da71d89525b","system_id":"levelo_inurba_marseille","lat":43.23889,"lon":5.37464,"is_reserved":false,"is_disabled":false,"rental_uris":{"android":"levelo://app?vid=129ac767-2638-4c48-b9ca-8da71d89525b","ios":"levelo://app?vid=129ac767-2638-4c48-b9ca-8da71d89525b"},"vehicle_type_id":"4","last_reported":1784447851,"current_range_meters":28400,"station_id":"st_d6sm7csbq4hs73f8fpjg","pricing_plan_id":"cebpf4jnsgd1na2vs0mg"},{"bike_id":"7ba6887d-b423-4472-957a-7da860d5a0bc","system_id":"levelo_inurba_marseille","lat":43.26211,"lon":5.37435,"is_reserved":false,"is_disabled":false,"rental_uris":{"android":"levelo://app?vid=7ba6887d-b423-4472-957a-7da860d5a0bc","ios":"levelo://app?vid=7ba6887d-b423-4472-957a-7da860d5a0bc"},"vehicle_type_id":"4","last_reported":1784447851,"current_range_meters":14400,"station_id":"ce4bhgp2rcd13ifvqfc0","pricing_plan_id":"cebpf4jnsgd1na2vs0mg"},{"bike_id":"32c95016-82d3-4943-8193-1a98c4bf18c7","system_id":"levelo_inurba_marseille","lat":43.28091,"lon":5.35676,"is_reserved":false,"is_disabled":false,"rental_uris":{"android":"levelo://app?vid=32c95016-82d3-4943-8193-1a98c4bf18c7","ios":"levelo://app?vid=32c95016-82d3-4943-8193-1a98c4bf18c7"},"vehicle_type_id":"4","last_reported":1784447851,"current_range_meters":5600,"station_id":"","pricing_plan_id":"cebpf4jnsgd1na2vs0mg"},{"bike_id":"8a764731-788d-4960-9607-991b594f9119","system_id":"levelo_inurba_marseille","lat":43.27837,"lon":5.392,"is_reserved":false,"is_disabled":false,"rental_uris":{"android":"levelo://app?vid=8a764731-788d-4960-9607-991b594f9119","ios":"levelo://app?vid=8a764731-788d-4960-9607-991b594f9119"},"vehicle_type_id":"4","last_reported":1784447851,"current_range_meters":13600,"station_id":"ce4bhjp2rcd13ifvqga0","pricing_plan_id":"cebpf4jnsgd1na2vs0mg"},{"bike_id":"79ec9d31-38d3-409d-ae6e-2cd47cdb08ab","system_id":"levelo_inurba_marseille","lat":43.28479,"lon":5.35903,"is_reserved":false,"is_disabled":false,"rental_uris":{"android":"levelo://app?vid=79ec9d31-38d3-409d-ae6e-2cd47cdb08ab","ios":"levelo://app?vid=79ec9d31-38d3-409d-ae6e-2cd47cdb08ab"},"vehicle_type_id":"4","last_reported":1784447851,"current_range_meters":3200,"station_id":"ce4bhah2rcd13ifvqei0","pricing_plan_id":"cebpf4jnsgd1na2vs0mg"},{"bike_id":"0af6ac0c-b22a-47ba-a846-c09a2a866928","system_id":"levelo_inurba_marseille","lat":43.23182,"lon":5.39982,"is_reserved":false,"is_disabled":false,"rental_uris":{"android":"levelo://app?vid=0af6ac0c-b22a-47ba-a846-c09a2a866928","ios":"levelo://app?vid=0af6ac0c-b22a-47ba-a846-c09a2a866928"},"vehicle_type_id":"4","last_reported":1784447851,"current_range_meters":39200,"station_id":"ce4bhn12rcd13ifvqgqg","pricing_plan_id":"cebpf4jnsgd1na2vs0mg"},{"bike_id":"ef6880d0-6944-4f6a-8f40-6662368b8f75","system_id":"levelo_inurba_marseille","lat":43.31699,"lon":5.43716,"is_reserved":false,"is_disabled":false,"rental_uris":{"android":"levelo://app?vid=ef6880d0-6944-4f6a-8f40-6662368b8f75","ios":"levelo://app?vid=ef6880d0-6944-4f6a-8f40-6662368b8f75"},"vehicle_type_id":"4","last_reported":1784447851,"current_range_meters":39200,"station_id":"ce4bhp92rcd13ifvqhcg","pricing_plan_id":"cebpf4jnsgd1na2vs0mg"},{"bike_id":"7bab4676-25db-456e-87b4-397a590a40da","system_id":"levelo_inurba_marseille","lat":43.27563,"lon":5.38416,"is_reserved":false,"is_disabled":false,"rental_uris":{"android":"levelo://app?vid=7bab4676-25db-456e-87b4-397a590a40da","ios":"levelo://app?vid=7bab4676-25db-456e-87b4-397a590a40da"},"vehicle_type_id":"4","last_reported":1784447851,"current_range_meters":39200,"station_id":"ce4bhh92rcd13ifvqfi0","pricing_plan_id":"cebpf4jnsgd1na2vs0mg"},{"bike_id":"ac73781c-7964-453a-82c7-5e417be13435","system_id":"levelo_inurba_marseille","lat":43.28612,"lon":5.3707,"is_reserved":false,"is_disabled":false,"rental_uris":{"android":"levelo://app?vid=ac73781c-7964-453a-82c7-5e417be13435","ios":"levelo://app?vid=ac73781c-7964-453a-82c7-5e417be13435"},"vehicle_type_id":"4","last_reported":1784447851,"current_range_meters":30400,"station_id":"ce4bht12rcd13ifvqi60","pricing_plan_id":"cebpf4jnsgd1na2vs0mg"},{"bike_id":"0440c3d3-fb6e-42d5-a033-2a474086ecc6","system_id":"levelo_inurba_marseille","lat":43.23193,"lon":5.39979,"is_reserved":false,"is_disabled":false,"rental_uris":{"android":"levelo://app?vid=0440c3d3-fb6e-42d5-a033-2a474086ecc6","ios":"levelo://app?vid=0440c3d3-fb6e-42d5-a033-2a474086ecc6"},"vehicle_type_id":"4","last_reported":1784447851,"current_range_meters":39200,"station_id":"ce4bhn12rcd13ifvqgqg","pricing_plan_id":"cebpf4jnsgd1na2vs0mg"},{"bike_id":"69aa3890-8355-4668-9d7c-2b996f0dde78","system_id":"levelo_inurba_marseille","lat":43.2976,"lon":5.42771,"is_reserved":false,"is_disabled":false,"rental_uris":{"android":"levelo://app?vid=69aa3890-8355-4668-9d7c-2b996f0dde78","ios":"levelo://app?vid=69aa3890-8355-4668-9d7c-2b996f0dde78"},"vehicle_type_id":"4","last_reported":1784447851,"current_range_meters":40000,"station_id":"st_d3md5207bmas73dh9klg","pricing_plan_id":"cebpf4jnsgd1na2vs0mg"},{"bike_id":"d183c213-4177-4bf2-b9e0-24872be8a9c8","system_id":"levelo_inurba_marseille","lat":43.28478,"lon":5.48384,"is_reserved":false,"is_disabled":false,"rental_uris":{"android":"levelo://app?vid=d183c213-4177-4bf2-b9e0-24872be8a9c8","ios":"levelo://app?vid=d183c213-4177-4bf2-b9e0-24872be8a9c8"},"vehicle_type_id":"4","last_reported":1784447851,"current_range_meters":14800,"station_id":"st_d3svhcjqgbts73a3dn0g","pricing_plan_id":"cebpf4jnsgd1na2vs0mg"},{"bike_id":"3d7f032f-703c-49de-bd95-4bb00f4e5160","system_id":"levelo_inurba_marseille","lat":43.25717,"lon":5.41123,"is_reserved":false,"is_disabled":false,"rental_uris":{"android":"levelo://app?vid=3d7f032f-703c-49de-bd95-4bb00f4e5160","ios":"levelo://app?vid=3d7f032f-703c-49de-bd95-4bb00f4e5160"},"vehicle_type_id":"4","last_reported":1784447851,"current_range_meters":39200,"station_id":"ce4bhkp2rcd13ifvqgd0","pricing_plan_id":"cebpf4jnsgd1na2vs0mg"},{"bike_id":"754be320-592c-4596-b29f-34a43e2fbed1","system_id":"levelo_inurba_marseille","lat":43.29627,"lon":5.40597,"is_reserved":false,"is_disabled":false,"rental_uris":{"android":"levelo://app?vid=754be320-592c-4596-b29f-34a43e2fbed1","ios":"levelo://app?vid=754be320-592c-4596-b29f-34a43e2fbed1"},"vehicle_type_id":"4","last_reported":1784447851,"current_range_meters":39200,"station_id":"ce4bh0h2rcd13ifvqd60","pricing_plan_id":"cebpf4jnsgd1na2vs0mg"},{"bike_id":"de007cee-b02a-488c-aba4-bbeef406c383","system_id":"levelo_inurba_marseille","lat":43.25514,"lon":5.40088,"is_reserved":false,"is_disabled":false,"rental_uris":{"android":"levelo://app?vid=de007cee-b02a-488c-aba4-bbeef406c383","ios":"levelo://app?vid=de007cee-b02a-488c-aba4-bbeef406c383"},"vehicle_type_id":"4","last_reported":1784447851,"current_range_meters":4000,"station_id":"","pricing_plan_id":"cebpf4jnsgd1na2vs0mg"},{"bike_id":"75971bad-4bf4-4679-b727-692349e19b7c","system_id":"levelo_inurba_marseille","lat":43.25719,"lon":5.4112,"is_reserved":false,"is_disabled":false,"rental_uris":{"android":"levelo://app?vid=75971bad-4bf4-4679-b727-692349e19b7c","ios":"levelo://app?vid=75971bad-4bf4-4679-b727-692349e19b7c"},"vehicle_type_id":"4","last_reported":1784447851,"current_range_meters":28000,"station_id":"ce4bhkp2rcd13ifvqgd0","pricing_plan_id":"cebpf4jnsgd1na2vs0mg"},{"bike_id":"17e4be99-494c-4c9f-8720-fc080f3b6be4","system_id":"levelo_inurba_marseille","lat":43.29855,"lon":5.37588,"is_reserved":false,"is_disabled":false,"rental_uris":{"android":"levelo://app?vid=17e4be99-494c-4c9f-8720-fc080f3b6be4","ios":"levelo://app?vid=17e4be99-494c-4c9f-8720-fc080f3b6be4"},"vehicle_type_id":"4","last_reported":1784447851,"current_range_meters":4800,"station_id":"","pricing_plan_id":"cebpf4jnsgd1na2vs0mg"},{"bike_id":"2e6aa208-4eec-4912-995e-b4c6a8ae564b","system_id":"levelo_inurba_marseille","lat":43.299,"lon":5.3813,"is_reserved":false,"is_disabled":false,"rental_uris":{"android":"levelo://app?vid=2e6aa208-4eec-4912-995e-b4c6a8ae564b","ios":"levelo://app?vid=2e6aa208-4eec-4912-995e-b4c6a8ae564b"},"vehicle_type_id":"4","last_reported":1784447851,"current_range_meters":36800,"station_id":"ce4bgj12rcd13ifvqbc0","pricing_plan_id":"cebpf4jnsgd1na2vs0mg"},{"bike_id":"a0c61022-e68b-461b-be6a-597feeeea89f","system_id":"levelo_inurba_marseille","lat":43.28337,"lon":5.38095,"is_reserved":false,"is_disabled":false,"rental_uris":{"android":"levelo://app?vid=a0c61022-e68b-461b-be6a-597feeeea89f","ios":"levelo://app?vid=a0c61022-e68b-461b-be6a-597feeeea89f"},"vehicle_type_id":"4","last_reported":1784447851,"current_range_meters":35200,"station_id":"ce4bh412rcd13ifvqdr0","pricing_plan_id":"cebpf4jnsgd1na2vs0mg"},{"bike_id":"2b11ca05-7a73-4966-89f6-dcae876a0356","system_id":"levelo_inurba_marseille","lat":43.28275,"lon":5.35062,"is_reserved":false,"is_disabled":false,"rental_uris":{"android":"levelo://app?vid=2b11ca05-7a73-4966-89f6-dcae876a0356","ios":"levelo://app?vid=2b11ca05-7a73-4966-89f6-dcae876a0356"},"vehicle_type_id":"4","last_reported":1784447851,"current_range_meters":30000,"station_id":"ce4bhbp2rcd13ifvqerg","pricing_plan_id":"cebpf4jnsgd1na2vs0mg"},{"bike_id":"8f53fbb0-6a5e-4d52-a5b3-7052acdbbe1b","system_id":"levelo_inurba_marseille","lat":43.31993,"lon":5.38158,"is_reserved":false,"is_disabled":false,"rental_uris":{"android":"levelo://app?vid=8f53fbb0-6a5e-4d52-a5b3-7052acdbbe1b","ios":"levelo://app?vid=8f53fbb0-6a5e-4d52-a5b3-7052acdbbe1b"},"vehicle_type_id":"4","last_reported":1784447851,"current_range_meters":15200,"station_id":"ce4bhr12rcd13ifvqhpg","pricing_plan_id":"cebpf4jnsgd1na2vs0mg"},{"bike_id":"f9a315c7-dbc3-4bfc-a06d-7e16a492d55c","system_id":"levelo_inurba_marseille","lat":43.30377,"lon":5.42481,"is_reserved":false,"is_disabled":false,"rental_uris":{"android":"levelo://app?vid=f9a315c7-dbc3-4bfc-a06d-7e16a492d55c","ios":"levelo://app?vid=f9a315c7-dbc3-4bfc-a06d-7e16a492d55c"},"vehicle_type_id":"4","last_reported":1784447851,"current_range_meters":20000,"station_id":"ce4bhoh2rcd13ifvqh6g","pricing_plan_id":"cebpf4jnsgd1na2vs0mg"},{"bike_id":"92f9377a-62ba-495b-8de9-1750140cdb94","system_id":"levelo_inurba_marseille","lat":43.29632,"lon":5.37177,"is_reserved":false,"is_disabled":true,"rental_uris":{"android":"levelo://app?vid=92f9377a-62ba-495b-8de9-1750140cdb94","ios":"levelo://app?vid=92f9377a-62ba-495b-8de9-1750140cdb94"},"vehicle_type_id":"4","last_reported":1784447851,"current_range_meters":15200,"station_id":"","pricing_plan_id":"cebpf4jnsgd1na2vs0mg"},{"bike_id":"ac34d0f1-dd69-48bc-a853-81b6ddeab400","system_id":"levelo_inurba_marseille","lat":43.27187,"lon":5.40989,"is_reserved":false,"is_disabled":false,"rental_uris":{"android":"levelo://app?vid=ac34d0f1-dd69-48bc-a853-81b6ddeab400","ios":"levelo://app?vid=ac34d0f1-dd69-48bc-a853-81b6ddeab400"},"vehicle_type_id":"4","last_reported":1784447851,"current_range_meters":29600,"station_id":"ce4bhl12rcd13ifvqgf0","pricing_plan_id":"cebpf4jnsgd1na2vs0mg"},{"bike_id":"1b3113c2-f295-410e-9a50-955f7373f828","system_id":"levelo_inurba_marseille","lat":43.29626,"lon":5.37182,"is_reserved":false,"is_disabled":false,"rental_uris":{"android":"levelo://app?vid=1b3113c2-f295-410e-9a50-955f7373f828","ios":"levelo://app?vid=1b3113c2-f295-410e-9a50-955f7373f828"},"vehicle_type_id":"4","last_reported":1784447851,"current_range_meters":8800,"station_id":"","pricing_plan_id":"cebpf4jnsgd1na2vs0mg"},{"bike_id":"dff9ca1b-b33d-47bd-b871-24d66011706e","system_id":"levelo_inurba_marseille","lat":43.28487,"lon":5.38418,"is_reserved":false,"is_disabled":false,"rental_uris":{"android":"levelo://app?vid=dff9ca1b-b33d-47bd-b871-24d66011706e","ios":"levelo://app?vid=dff9ca1b-b33d-47bd-b871-24d66011706e"},"vehicle_type_id":"4","last_reported":1784447851,"current_range_meters":26800,"station_id":"ce4bh512rcd13ifvqe3g","pricing_plan_id":"cebpf4jnsgd1na2vs0mg"},{"bike_id":"c2e7fe27-d2b0-440e-b62d-ead50feed951","system_id":"levelo_inurba_marseille","lat":43.29489,"lon":5.43311,"is_reserved":false,"is_disabled":false,"rental_uris":{"android":"levelo://app?vid=c2e7fe27-d2b0-440e-b62d-ead50feed951","ios":"levelo://app?vid=c2e7fe27-d2b0-440e-b62d-ead50feed951"},"vehicle_type_id":"4","last_reported":1784447851,"current_range_meters":4400,"station_id":"st_d3j5ugp08ojc73fj9d10","pricing_plan_id":"cebpf4jnsgd1na2vs0mg"},{"bike_id":"68487660-d0f8-4357-a041-ea23c3836a53","system_id":"levelo_inurba_marseille","lat":43.262,"lon":5.37459,"is_reserved":false,"is_disabled":true,"rental_uris":{"android":"levelo://app?vid=68487660-d0f8-4357-a041-ea23c3836a53","ios":"levelo://app?vid=68487660-d0f8-4357-a041-ea23c3836a53"},"vehicle_type_id":"4","last_reported":1784447851,"current_range_meters":38400,"station_id":"ce4bhgp2rcd13ifvqfc0","pricing_plan_id":"cebpf4jnsgd1na2vs0mg"},{"bike_id":"2cfcec7a-99e6-4c2c-8d5c-3002941aaf10","system_id":"levelo_inurba_marseille","lat":43.30321,"lon":5.40439,"is_reserved":false,"is_disabled":false,"rental_uris":{"android":"levelo://app?vid=2cfcec7a-99e6-4c2c-8d5c-3002941aaf10","ios":"levelo://app?vid=2cfcec7a-99e6-4c2c-8d5c-3002941aaf10"},"vehicle_type_id":"4","last_reported":1784447851,"current_range_meters":39200,"station_id":"ce4bh012rcd13ifvqd10","pricing_plan_id":"cebpf4jnsgd1na2vs0mg"},{"bike_id":"2623e023-e953-40ac-8068-15d2169ca99d","system_id":"levelo_inurba_marseille","lat":43.28697,"lon":5.46684,"is_reserved":false,"is_disabled":false,"rental_uris":{"android":"levelo://app?vid=2623e023-e953-40ac-8068-15d2169ca99d","ios":"levelo://app?vid=2623e023-e953-40ac-8068-15d2169ca99d"},"vehicle_type_id":"4","last_reported":1784447851,"current_range_meters":38000,"station_id":"st_d6tc3vkotcvc738tfjhg","pricing_plan_id":"cebpf4jnsgd1na2vs0mg"},{"bike_id":"747c23c0-1025-4254-99c7-b3bf9bd26802","system_id":"levelo_inurba_marseille","lat":43.29634,"lon":5.40609,"is_reserved":false,"is_disabled":false,"rental_uris":{"android":"levelo://app?vid=747c23c0-1025-4254-99c7-b3bf9bd26802","ios":"levelo://app?vid=747c23c0-1025-4254-99c7-b3bf9bd26802"},"vehicle_type_id":"4","last_reported":1784447851,"current_range_meters":17200,"station_id":"ce4bh0h2rcd13ifvqd60","pricing_plan_id":"cebpf4jnsgd1na2vs0mg"},{"bike_id":"d726f7a5-e159-4854-8f04-91f7e45c5426","system_id":"levelo_inurba_marseille","lat":43.29536,"lon":5.37506,"is_reserved":false,"is_disabled":false,"rental_uris":{"android":"levelo://app?vid=d726f7a5-e159-4854-8f04-91f7e45c5426","ios":"levelo://app?vid=d726f7a5-e159-4854-8f04-91f7e45c5426"},"vehicle_type_id":"4","last_reported":1784447851,"current_range_meters":32400,"station_id":"ce4bgkp2rcd13ifvqbmg","pricing_plan_id":"cebpf4jnsgd1na2vs0mg"},{"bike_id":"6e431a37-3a7e-4d8f-8b7a-07abe00c75d2","system_id":"levelo_inurba_marseille","lat":43.30812,"lon":5.38145,"is_reserved":false,"is_disabled":false,"rental_uris":{"android":"levelo://app?vid=6e431a37-3a7e-4d8f-8b7a-07abe00c75d2","ios":"levelo://app?vid=6e431a37-3a7e-4d8f-8b7a-07abe00c75d2"},"vehicle_type_id":"4","last_reported":1784447851,"current_range_meters":29600,"station_id":"ce4bgt12rcd13ifvqce0","pricing_plan_id":"cebpf4jnsgd1na2vs0mg"},{"bike_id":"cd5baefc-c546-46cd-a83d-378c14c5704e","system_id":"levelo_inurba_marseille","lat":43.30659,"lon":5.40086,"is_reserved":false,"is_disabled":false,"rental_uris":{"android":"levelo://app?vid=cd5baefc-c546-46cd-a83d-378c14c5704e","ios":"levelo://app?vid=cd5baefc-c546-46cd-a83d-378c14c5704e"},"vehicle_type_id":"4","last_reported":1784447851,"current_range_meters":7200,"station_id":"ce4bh112rcd13ifvqda0","pricing_plan_id":"cebpf4jnsgd1na2vs0mg"},{"bike_id":"e563d1dc-025a-4c08-98ed-6590ea6e7f8c","system_id":"levelo_inurba_marseille","lat":43.2417,"lon":5.36392,"is_reserved":false,"is_disabled":false,"rental_uris":{"android":"levelo://app?vid=e563d1dc-025a-4c08-98ed-6590ea6e7f8c","ios":"levelo://app?vid=e563d1dc-025a-4c08-98ed-6590ea6e7f8c"},"vehicle_type_id":"4","last_reported":1784447851,"current_range_meters":39200,"station_id":"cpo36qri1sfpv3e86is0","pricing_plan_id":"cebpf4jnsgd1na2vs0mg"},{"bike_id":"f8955ac0-4fb0-43de-bef9-e6c33ea71dd3","system_id":"levelo_inurba_marseille","lat":43.28619,"lon":5.35102,"is_reserved":false,"is_disabled":true,"rental_uris":{"android":"levelo://app?vid=f8955ac0-4fb0-43de-bef9-e6c33ea71dd3","ios":"levelo://app?vid=f8955ac0-4fb0-43de-bef9-e6c33ea71dd3"},"vehicle_type_id":"4","last_reported":1784447851,"current_range_meters":28400,"station_id":"ce4bhch2rcd13ifvqeug","pricing_plan_id":"cebpf4jnsgd1na2vs0mg"},{"bike_id":"1aba4b2e-71a6-4e82-8e9d-0b35db6f35c2","system_id":"levelo_inurba_marseille","lat":43.24167,"lon":5.36395,"is_reserved":false,"is_disabled":false,"rental_uris":{"android":"levelo://app?vid=1aba4b2e-71a6-4e82-8e9d-0b35db6f35c2","ios":"levelo://app?vid=1aba4b2e-71a6-4e82-8e9d-0b35db6f35c2"},"vehicle_type_id":"4","last_reported":1784447851,"current_range_meters":39200,"station_id":"cpo36qri1sfpv3e86is0","pricing_plan_id":"cebpf4jnsgd1na2vs0mg"},{"bike_id":"863d0357-9100-4091-8be6-61d932e4e898","system_id":"levelo_inurba_marseille","lat":43.33756,"lon":5.37458,"is_reserved":false,"is_disabled":false,"rental_uris":{"android":"levelo://app?vid=863d0357-9100-4091-8be6-61d932e4e898","ios":"levelo://app?vid=863d0357-9100-4091-8be6-61d932e4e898"},"vehicle_type_id":"4","last_reported":1784447851,"current_range_meters":36800,"station_id":"","pricing_plan_id":"cebpf4jnsgd1na2vs0mg"},{"bike_id":"0d249168-c1b9-4fc1-a9ca-ee81dcabf286","system_id":"levelo_inurba_marseille","lat":43.30848,"lon":5.40424,"is_reserved":false,"is_disabled":false,"rental_uris":{"android":"levelo://app?vid=0d249168-c1b9-4fc1-a9ca-ee81dcabf286","ios":"levelo://app?vid=0d249168-c1b9-4fc1-a9ca-ee81dcabf286"},"vehicle_type_id":"4","last_reported":1784447851,"current_range_meters":10000,"station_id":"","pricing_plan_id":"cebpf4jnsgd1na2vs0mg"},{"bike_id":"fed9e1fc-e449-4c3b-9a76-14ab11424fad","system_id":"levelo_inurba_marseille","lat":43.30166,"lon":5.37432,"is_reserved":false,"is_disabled":false,"rental_uris":{"android":"levelo://app?vid=fed9e1fc-e449-4c3b-9a76-14ab11424fad","ios":"levelo://app?vid=fed9e1fc-e449-4c3b-9a76-14ab11424fad"},"vehicle_type_id":"4","last_reported":1784447851,"current_range_meters":36800,"station_id":"ce4bgs92rcd13ifvqcc0","pricing_plan_id":"cebpf4jnsgd1na2vs0mg"},{"bike_id":"523fc0c6-ee18-4813-a04d-cb35aa8acdd8","system_id":"levelo_inurba_marseille","lat":43.2514,"lon":5.40328,"is_reserved":false,"is_disabled":false,"rental_uris":{"android":"levelo://app?vid=523fc0c6-ee18-4813-a04d-cb35aa8acdd8","ios":"levelo://app?vid=523fc0c6-ee18-4813-a04d-cb35aa8acdd8"},"vehicle_type_id":"4","last_reported":1784447851,"current_range_meters":39200,"station_id":"ce4bhlh2rcd13ifvqgig","pricing_plan_id":"cebpf4jnsgd1na2vs0mg"},{"bike_id":"e81d39c5-de88-4670-b269-6cb2da305080","system_id":"levelo_inurba_marseille","lat":43.28149,"lon":5.42628,"is_reserved":false,"is_disabled":false,"rental_uris":{"android":"levelo://app?vid=e81d39c5-de88-4670-b269-6cb2da305080","ios":"levelo://app?vid=e81d39c5-de88-4670-b269-6cb2da305080"},"vehicle_type_id":"4","last_reported":1784447851,"current_range_meters":39200,"station_id":"ce4bhnh2rcd13ifvqgug","pricing_plan_id":"cebpf4jnsgd1na2vs0mg"},{"bike_id":"ba07a798-4c67-4313-b402-e91154e3ab4a","system_id":"levelo_inurba_marseille","lat":43.274774,"lon":5.361734,"is_reserved":false,"is_disabled":false,"rental_uris":{"android":"levelo://app?vid=ba07a798-4c67-4313-b402-e91154e3ab4a","ios":"levelo://app?vid=ba07a798-4c67-4313-b402-e91154e3ab4a"},"vehicle_type_id":"4","last_reported":1784447851,"current_range_meters":20800,"station_id":"ce4bhgh2rcd13ifvqfb0","pricing_plan_id":"cebpf4jnsgd1na2vs0mg"},{"bike_id":"8ba7f2d6-52d3-4c56-b19a-19a142e62779","system_id":"levelo_inurba_marseille","lat":43.24082,"lon":5.3776,"is_reserved":false,"is_disabled":false,"rental_uris":{"android":"levelo://app?vid=8ba7f2d6-52d3-4c56-b19a-19a142e62779","ios":"levelo://app?vid=8ba7f2d6-52d3-4c56-b19a-19a142e62779"},"vehicle_type_id":"4","last_reported":1784447851,"current_range_meters":10000,"station_id":"ce4bhnp2rcd13ifvqgvg","pricing_plan_id":"cebpf4jnsgd1na2vs0mg"},{"bike_id":"ffdafddb-edce-478b-b283-0a15f46a5cac","system_id":"levelo_inurba_marseille","lat":43.25877,"lon":5.39901,"is_reserved":false,"is_disabled":false,"rental_uris":{"android":"levelo://app?vid=ffdafddb-edce-478b-b283-0a15f46a5cac","ios":"levelo://app?vid=ffdafddb-edce-478b-b283-0a15f46a5cac"},"vehicle_type_id":"4","last_reported":1784447851,"current_range_meters":37600,"station_id":"ce4bhl92rcd13ifvqghg","pricing_plan_id":"cebpf4jnsgd1na2vs0mg"},{"bike_id":"6a73d93c-6339-46f5-8ebc-d03b3464630c","system_id":"levelo_inurba_marseille","lat":43.26355,"lon":5.4108,"is_reserved":false,"is_disabled":false,"rental_uris":{"android":"levelo://app?vid=6a73d93c-6339-46f5-8ebc-d03b3464630c","ios":"levelo://app?vid=6a73d93c-6339-46f5-8ebc-d03b3464630c"},"vehicle_type_id":"4","last_reported":1784447851,"current_range_meters":32800,"station_id":"st_d4e5ca6na9uc73bfl5fg","pricing_plan_id":"cebpf4jnsgd1na2vs0mg"},{"bike_id":"c3699d7f-7304-4eec-8a74-2a709837374f","system_id":"levelo_inurba_marseille","lat":43.2836,"lon":5.38631,"is_reserved":false,"is_disabled":true,"rental_uris":{"android":"levelo://app?vid=c3699d7f-7304-4eec-8a74-2a709837374f","ios":"levelo://app?vid=c3699d7f-7304-4eec-8a74-2a709837374f"},"vehicle_type_id":"4","last_reported":1784447851,"current_range_meters":16400,"station_id":"ce4bh492rcd13ifvqdvg","pricing_plan_id":"cebpf4jnsgd1na2vs0mg"},{"bike_id":"44d448a8-6b36-4f32-9b36-fe4d075b4208","system_id":"levelo_inurba_marseille","lat":43.27997,"lon":5.40032,"is_reserved":false,"is_disabled":false,"rental_uris":{"android":"levelo://app?vid=44d448a8-6b36-4f32-9b36-fe4d075b4208","ios":"levelo://app?vid=44d448a8-6b36-4f32-9b36-fe4d075b4208"},"vehicle_type_id":"4","last_reported":1784447851,"current_range_meters":35200,"station_id":"ce4bho92rcd13ifvqh4g","pricing_plan_id":"cebpf4jnsgd1na2vs0mg"},{"bike_id":"e172a8f9-b715-4e53-bc4f-64f9c8571096","system_id":"levelo_inurba_marseille","lat":43.28104,"lon":5.37843,"is_reserved":false,"is_disabled":false,"rental_uris":{"android":"levelo://app?vid=e172a8f9-b715-4e53-bc4f-64f9c8571096","ios":"levelo://app?vid=e172a8f9-b715-4e53-bc4f-64f9c8571096"},"vehicle_type_id":"4","last_reported":1784447851,"current_range_meters":39200,"station_id":"ce4bha12rcd13ifvqee0","pricing_plan_id":"cebpf4jnsgd1na2vs0mg"},{"bike_id":"aa5ea050-d567-47f1-b89f-be224912b1e3","system_id":"levelo_inurba_marseille","lat":43.29045,"lon":5.40016,"is_reserved":false,"is_disabled":false,"rental_uris":{"android":"levelo://app?vid=aa5ea050-d567-47f1-b89f-be224912b1e3","ios":"levelo://app?vid=aa5ea050-d567-47f1-b89f-be224912b1e3"},"vehicle_type_id":"4","last_reported":1784447851,"current_range_meters":28000,"station_id":"ce4bh392rcd13ifvqdm0","pricing_plan_id":"cebpf4jnsgd1na2vs0mg"},{"bike_id":"b3f4d216-193b-485e-82c4-c347b75636d7","system_id":"levelo_inurba_marseille","lat":43.28464,"lon":5.38417,"is_reserved":false,"is_disabled":false,"rental_uris":{"android":"levelo://app?vid=b3f4d216-193b-485e-82c4-c347b75636d7","ios":"levelo://app?vid=b3f4d216-193b-485e-82c4-c347b75636d7"},"vehicle_type_id":"4","last_reported":1784447851,"current_range_meters":27600,"station_id":"ce4bh512rcd13ifvqe3g","pricing_plan_id":"cebpf4jnsgd1na2vs0mg"},{"bike_id":"4120c7d7-1403-4d50-96ed-9b7731a97efc","system_id":"levelo_inurba_marseille","lat":43.32109,"lon":5.36791,"is_reserved":false,"is_disabled":false,"rental_uris":{"android":"levelo://app?vid=4120c7d7-1403-4d50-96ed-9b7731a97efc","ios":"levelo://app?vid=4120c7d7-1403-4d50-96ed-9b7731a97efc"},"vehicle_type_id":"4","last_reported":1784447851,"current_range_meters":24800,"station_id":"ce4bhrh2rcd13ifvqhug","pricing_plan_id":"cebpf4jnsgd1na2vs0mg"},{"bike_id":"7e625d74-5ffd-40c1-ba6f-9e1d005df5a4","system_id":"levelo_inurba_marseille","lat":43.27944,"lon":5.38694,"is_reserved":false,"is_disabled":false,"rental_uris":{"android":"levelo://app?vid=7e625d74-5ffd-40c1-ba6f-9e1d005df5a4","ios":"levelo://app?vid=7e625d74-5ffd-40c1-ba6f-9e1d005df5a4"},"vehicle_type_id":"4","last_reported":1784447851,"current_range_meters":36000,"station_id":"ce4bhg12rcd13ifvqf80","pricing_plan_id":"cebpf4jnsgd1na2vs0mg"},{"bike_id":"83e7f3f1-cbcd-45e3-8648-88ba9c70d070","system_id":"levelo_inurba_marseille","lat":43.26208,"lon":5.37931,"is_reserved":false,"is_disabled":true,"rental_uris":{"android":"levelo://app?vid=83e7f3f1-cbcd-45e3-8648-88ba9c70d070","ios":"levelo://app?vid=83e7f3f1-cbcd-45e3-8648-88ba9c70d070"},"vehicle_type_id":"4","last_reported":1784447851,"current_range_meters":0,"station_id":"ce4bhjp2rcd13ifvqg90","pricing_plan_id":"cebpf4jnsgd1na2vs0mg"},{"bike_id":"b32936e5-7bdd-4eaf-adbe-3bd4bbf7a5ff","system_id":"levelo_inurba_marseille","lat":43.287,"lon":5.373832,"is_reserved":false,"is_disabled":true,"rental_uris":{"android":"levelo://app?vid=b32936e5-7bdd-4eaf-adbe-3bd4bbf7a5ff","ios":"levelo://app?vid=b32936e5-7bdd-4eaf-adbe-3bd4bbf7a5ff"},"vehicle_type_id":"4","last_reported":1784447851,"current_range_meters":31200,"station_id":"ce4bh3p2rcd13ifvqdq0","pricing_plan_id":"cebpf4jnsgd1na2vs0mg"},{"bike_id":"7e62a1e7-e43e-4c6d-97fe-eb42228edf6d","system_id":"levelo_inurba_marseille","lat":43.26547,"lon":5.39409,"is_reserved":false,"is_disabled":false,"rental_uris":{"android":"levelo://app?vid=7e62a1e7-e43e-4c6d-97fe-eb42228edf6d","ios":"levelo://app?vid=7e62a1e7-e43e-4c6d-97fe-eb42228edf6d"},"vehicle_type_id":"4","last_reported":1784447851,"current_range_meters":8400,"station_id":"","pricing_plan_id":"cebpf4jnsgd1na2vs0mg"},{"bike_id":"32f1426e-4a2e-46e1-8b91-800ee9257883","system_id":"levelo_inurba_marseille","lat":43.26375,"lon":5.41074,"is_reserved":false,"is_disabled":false,"rental_uris":{"android":"levelo://app?vid=32f1426e-4a2e-46e1-8b91-800ee9257883","ios":"levelo://app?vid=32f1426e-4a2e-46e1-8b91-800ee9257883"},"vehicle_type_id":"4","last_reported":1784447851,"current_range_meters":33600,"station_id":"st_d4e5ca6na9uc73bfl5fg","pricing_plan_id":"cebpf4jnsgd1na2vs0mg"},{"bike_id":"13378cbe-c462-40a0-81a8-eb00234edeb4","system_id":"levelo_inurba_marseille","lat":43.29203,"lon":5.39331,"is_reserved":false,"is_disabled":false,"rental_uris":{"android":"levelo://app?vid=13378cbe-c462-40a0-81a8-eb00234edeb4","ios":"levelo://app?vid=13378cbe-c462-40a0-81a8-eb00234edeb4"},"vehicle_type_id":"4","last_reported":1784447851,"current_range_meters":26000,"station_id":"ce4bh192rcd13ifvqdd0","pricing_plan_id":"cebpf4jnsgd1na2vs0mg"},{"bike_id":"7bacaa53-ea48-4c21-98e9-800e4cae89fb","system_id":"levelo_inurba_marseille","lat":43.28513,"lon":5.4411,"is_reserved":false,"is_disabled":false,"rental_uris":{"android":"levelo://app?vid=7bacaa53-ea48-4c21-98e9-800e4cae89fb","ios":"levelo://app?vid=7bacaa53-ea48-4c21-98e9-800e4cae89fb"},"vehicle_type_id":"4","last_reported":1784447851,"current_range_meters":5600,"station_id":"st_d3j3df2ikq2c7380ej80","pricing_plan_id":"cebpf4jnsgd1na2vs0mg"},{"bike_id":"43f4ab6e-c9bc-429f-ad19-4ed93e76682b","system_id":"levelo_inurba_marseille","lat":43.26561,"lon":5.40323,"is_reserved":false,"is_disabled":false,"rental_uris":{"android":"levelo://app?vid=43f4ab6e-c9bc-429f-ad19-4ed93e76682b","ios":"levelo://app?vid=43f4ab6e-c9bc-429f-ad19-4ed93e76682b"},"vehicle_type_id":"4","last_reported":1784447851,"current_range_meters":30400,"station_id":"ce4bhmp2rcd13ifvqgng","pricing_plan_id":"cebpf4jnsgd1na2vs0mg"},{"bike_id":"81587832-75ed-49cd-91c3-f57f9b8cec45","system_id":"levelo_inurba_marseille","lat":43.29027,"lon":5.35884,"is_reserved":false,"is_disabled":true,"rental_uris":{"android":"levelo://app?vid=81587832-75ed-49cd-91c3-f57f9b8cec45","ios":"levelo://app?vid=81587832-75ed-49cd-91c3-f57f9b8cec45"},"vehicle_type_id":"4","last_reported":1784447851,"current_range_meters":4000,"station_id":"ce4bha92rcd13ifvqeg0","pricing_plan_id":"cebpf4jnsgd1na2vs0mg"},{"bike_id":"20e706c3-b21a-406d-aee5-c8471e002c6d","system_id":"levelo_inurba_marseille","lat":43.30881,"lon":5.37193,"is_reserved":false,"is_disabled":false,"rental_uris":{"android":"levelo://app?vid=20e706c3-b21a-406d-aee5-c8471e002c6d","ios":"levelo://app?vid=20e706c3-b21a-406d-aee5-c8471e002c6d"},"vehicle_type_id":"4","last_reported":1784447851,"current_range_meters":30000,"station_id":"ce4bguh2rcd13ifvqckg","pricing_plan_id":"cebpf4jnsgd1na2vs0mg"},{"bike_id":"5d3c674b-efff-45e9-9001-4b78a8e6b29f","system_id":"levelo_inurba_marseille","lat":43.30431,"lon":5.39751,"is_reserved":false,"is_disabled":false,"rental_uris":{"android":"levelo://app?vid=5d3c674b-efff-45e9-9001-4b78a8e6b29f","ios":"levelo://app?vid=5d3c674b-efff-45e9-9001-4b78a8e6b29f"},"vehicle_type_id":"4","last_reported":1784447851,"current_range_meters":32000,"station_id":"ce4bh092rcd13ifvqd20","pricing_plan_id":"cebpf4jnsgd1na2vs0mg"},{"bike_id":"f3934305-9637-4bc9-84df-610e5ca478ee","system_id":"levelo_inurba_marseille","lat":43.28735,"lon":5.38413,"is_reserved":false,"is_disabled":false,"rental_uris":{"android":"levelo://app?vid=f3934305-9637-4bc9-84df-610e5ca478ee","ios":"levelo://app?vid=f3934305-9637-4bc9-84df-610e5ca478ee"},"vehicle_type_id":"4","last_reported":1784447851,"current_range_meters":25200,"station_id":"","pricing_plan_id":"cebpf4jnsgd1na2vs0mg"},{"bike_id":"ef85100c-c168-423a-855b-1fd0fc13c88a","system_id":"levelo_inurba_marseille","lat":43.23719,"lon":5.37783,"is_reserved":false,"is_disabled":false,"rental_uris":{"android":"levelo://app?vid=ef85100c-c168-423a-855b-1fd0fc13c88a","ios":"levelo://app?vid=ef85100c-c168-423a-855b-1fd0fc13c88a"},"vehicle_type_id":"4","last_reported":1784447851,"current_range_meters":28800,"station_id":"","pricing_plan_id":"cebpf4jnsgd1na2vs0mg"},{"bike_id":"6af27c76-a6f2-4a9a-83dc-55b75d41070c","system_id":"levelo_inurba_marseille","lat":43.27164,"lon":5.41016,"is_reserved":false,"is_disabled":false,"rental_uris":{"android":"levelo://app?vid=6af27c76-a6f2-4a9a-83dc-55b75d41070c","ios":"levelo://app?vid=6af27c76-a6f2-4a9a-83dc-55b75d41070c"},"vehicle_type_id":"4","last_reported":1784447851,"current_range_meters":11600,"station_id":"ce4bhl12rcd13ifvqgf0","pricing_plan_id":"cebpf4jnsgd1na2vs0mg"},{"bike_id":"8af0df7e-cc30-46ec-af42-8ca23109e3a3","system_id":"levelo_inurba_marseille","lat":43.29489,"lon":5.43301,"is_reserved":false,"is_disabled":false,"rental_uris":{"android":"levelo://app?vid=8af0df7e-cc30-46ec-af42-8ca23109e3a3","ios":"levelo://app?vid=8af0df7e-cc30-46ec-af42-8ca23109e3a3"},"vehicle_type_id":"4","last_reported":1784447851,"current_range_meters":28000,"station_id":"st_d3j5ugp08ojc73fj9d10","pricing_plan_id":"cebpf4jnsgd1na2vs0mg"},{"bike_id":"4e0bb35d-9d08-43ae-ba03-03a104f5e067","system_id":"levelo_inurba_marseille","lat":43.27926,"lon":5.39587,"is_reserved":false,"is_disabled":false,"rental_uris":{"android":"levelo://app?vid=4e0bb35d-9d08-43ae-ba03-03a104f5e067","ios":"levelo://app?vid=4e0bb35d-9d08-43ae-ba03-03a104f5e067"},"vehicle_type_id":"4","last_reported":1784447851,"current_range_meters":14000,"station_id":"ce4bhf92rcd13ifvqf40","pricing_plan_id":"cebpf4jnsgd1na2vs0mg"},{"bike_id":"ed42fe4d-094d-4106-8da1-1dc7c1f659a9","system_id":"levelo_inurba_marseille","lat":43.30349,"lon":5.41863,"is_reserved":false,"is_disabled":false,"rental_uris":{"android":"levelo://app?vid=ed42fe4d-094d-4106-8da1-1dc7c1f659a9","ios":"levelo://app?vid=ed42fe4d-094d-4106-8da1-1dc7c1f659a9"},"vehicle_type_id":"4","last_reported":1784447851,"current_range_meters":38000,"station_id":"ce4bhop2rcd13ifvqh7g","pricing_plan_id":"cebpf4jnsgd1na2vs0mg"},{"bike_id":"ff6b6a4f-add8-48fe-86a3-19c606cb1257","system_id":"levelo_inurba_marseille","lat":43.27923,"lon":5.39584,"is_reserved":false,"is_disabled":false,"rental_uris":{"android":"levelo://app?vid=ff6b6a4f-add8-48fe-86a3-19c606cb1257","ios":"levelo://app?vid=ff6b6a4f-add8-48fe-86a3-19c606cb1257"},"vehicle_type_id":"4","last_reported":1784447851,"current_range_meters":23200,"station_id":"ce4bhf92rcd13ifvqf40","pricing_plan_id":"cebpf4jnsgd1na2vs0mg"},{"bike_id":"5f0e6351-dc30-4088-8091-00d728ed0317","system_id":"levelo_inurba_marseille","lat":43.27968,"lon":5.3869,"is_reserved":false,"is_disabled":false,"rental_uris":{"android":"levelo://app?vid=5f0e6351-dc30-4088-8091-00d728ed0317","ios":"levelo://app?vid=5f0e6351-dc30-4088-8091-00d728ed0317"},"vehicle_type_id":"4","last_reported":1784447851,"current_range_meters":34800,"station_id":"ce4bhg12rcd13ifvqf80","pricing_plan_id":"cebpf4jnsgd1na2vs0mg"},{"bike_id":"7ff8118f-6c81-4cdf-8a1d-4753d954065d","system_id":"levelo_inurba_marseille","lat":43.29603,"lon":5.37948,"is_reserved":false,"is_disabled":false,"rental_uris":{"android":"levelo://app?vid=7ff8118f-6c81-4cdf-8a1d-4753d954065d","ios":"levelo://app?vid=7ff8118f-6c81-4cdf-8a1d-4753d954065d"},"vehicle_type_id":"4","last_reported":1784447851,"current_range_meters":3600,"station_id":"","pricing_plan_id":"cebpf4jnsgd1na2vs0mg"},{"bike_id":"cac0bd82-8b3a-4e1d-9381-7ff40af149d2","system_id":"levelo_inurba_marseille","lat":43.24664,"lon":5.38169,"is_reserved":false,"is_disabled":false,"rental_uris":{"android":"levelo://app?vid=cac0bd82-8b3a-4e1d-9381-7ff40af149d2","ios":"levelo://app?vid=cac0bd82-8b3a-4e1d-9381-7ff40af149d2"},"vehicle_type_id":"4","last_reported":1784447851,"current_range_meters":39200,"station_id":"ce4bhih2rcd13ifvqfr0","pricing_plan_id":"cebpf4jnsgd1na2vs0mg"},{"bike_id":"6c5ca82f-21d4-416b-b74c-d50174bb39fd","system_id":"levelo_inurba_marseille","lat":43.279498,"lon":5.387502,"is_reserved":false,"is_disabled":false,"rental_uris":{"android":"levelo://app?vid=6c5ca82f-21d4-416b-b74c-d50174bb39fd","ios":"levelo://app?vid=6c5ca82f-21d4-416b-b74c-d50174bb39fd"},"vehicle_type_id":"4","last_reported":1784447851,"current_range_meters":22400,"station_id":"ce4bhg12rcd13ifvqf80","pricing_plan_id":"cebpf4jnsgd1na2vs0mg"},{"bike_id":"e8ba2d3c-91b5-4800-8226-4a1ddb117a7b","system_id":"levelo_inurba_marseille","lat":43.26507,"lon":5.39568,"is_reserved":false,"is_disabled":false,"rental_uris":{"android":"levelo://app?vid=e8ba2d3c-91b5-4800-8226-4a1ddb117a7b","ios":"levelo://app?vid=e8ba2d3c-91b5-4800-8226-4a1ddb117a7b"},"vehicle_type_id":"4","last_reported":1784447851,"current_range_meters":39200,"station_id":"ce4bhi12rcd13ifvqfq0","pricing_plan_id":"cebpf4jnsgd1na2vs0mg"},{"bike_id":"848a1aff-274a-4b44-93f8-df5211554a34","system_id":"levelo_inurba_marseille","lat":43.28699,"lon":5.37389,"is_reserved":false,"is_disabled":true,"rental_uris":{"android":"levelo://app?vid=848a1aff-274a-4b44-93f8-df5211554a34","ios":"levelo://app?vid=848a1aff-274a-4b44-93f8-df5211554a34"},"vehicle_type_id":"4","last_reported":1784447851,"current_range_meters":20000,"station_id":"ce4bh3p2rcd13ifvqdq0","pricing_plan_id":"cebpf4jnsgd1na2vs0mg"},{"bike_id":"f34fd467-8084-4fad-b05a-2971b02d1cef","system_id":"levelo_inurba_marseille","lat":43.25075,"lon":5.39511,"is_reserved":false,"is_disabled":false,"rental_uris":{"android":"levelo://app?vid=f34fd467-8084-4fad-b05a-2971b02d1cef","ios":"levelo://app?vid=f34fd467-8084-4fad-b05a-2971b02d1cef"},"vehicle_type_id":"4","last_reported":1784447851,"current_range_meters":39200,"station_id":"ce4bhm12rcd13ifvqgkg","pricing_plan_id":"cebpf4jnsgd1na2vs0mg"},{"bike_id":"1cb6f9ea-9159-4948-a7b5-812cac4d6644","system_id":"levelo_inurba_marseille","lat":43.28425,"lon":5.39172,"is_reserved":false,"is_disabled":false,"rental_uris":{"android":"levelo://app?vid=1cb6f9ea-9159-4948-a7b5-812cac4d6644","ios":"levelo://app?vid=1cb6f9ea-9159-4948-a7b5-812cac4d6644"},"vehicle_type_id":"4","last_reported":1784447851,"current_range_meters":39200,"station_id":"ce4bhoh2rcd13ifvqh5g","pricing_plan_id":"cebpf4jnsgd1na2vs0mg"},{"bike_id":"a218e8a7-a1b7-4426-b091-1ee5fc5ff41e","system_id":"levelo_inurba_marseille","lat":43.29734,"lon":5.37665,"is_reserved":false,"is_disabled":false,"rental_uris":{"android":"levelo://app?vid=a218e8a7-a1b7-4426-b091-1ee5fc5ff41e","ios":"levelo://app?vid=a218e8a7-a1b7-4426-b091-1ee5fc5ff41e"},"vehicle_type_id":"4","last_reported":1784447851,"current_range_meters":39200,"station_id":"ce4bgkh2rcd13ifvqbl0","pricing_plan_id":"cebpf4jnsgd1na2vs0mg"},{"bike_id":"c71cc65d-33de-4389-87f1-90b48f14a5db","system_id":"levelo_inurba_marseille","lat":43.31483,"lon":5.37301,"is_reserved":false,"is_disabled":false,"rental_uris":{"android":"levelo://app?vid=c71cc65d-33de-4389-87f1-90b48f14a5db","ios":"levelo://app?vid=c71cc65d-33de-4389-87f1-90b48f14a5db"},"vehicle_type_id":"4","last_reported":1784447851,"current_range_meters":39200,"station_id":"ce4bgt12rcd13ifvqcd0","pricing_plan_id":"cebpf4jnsgd1na2vs0mg"},{"bike_id":"66dda2b8-2f84-455b-9636-758cc2ad95ba","system_id":"levelo_inurba_marseille","lat":43.2902,"lon":5.35619,"is_reserved":false,"is_disabled":false,"rental_uris":{"android":"levelo://app?vid=66dda2b8-2f84-455b-9636-758cc2ad95ba","ios":"levelo://app?vid=66dda2b8-2f84-455b-9636-758cc2ad95ba"},"vehicle_type_id":"4","last_reported":1784447851,"current_range_meters":30400,"station_id":"ce4bhb92rcd13ifvqen0","pricing_plan_id":"cebpf4jnsgd1na2vs0mg"},{"bike_id":"a7c42e62-f2d7-4f0f-96f4-b9d2418cea29","system_id":"levelo_inurba_marseille","lat":43.29637,"lon":5.40594,"is_reserved":false,"is_disabled":true,"rental_uris":{"android":"levelo://app?vid=a7c42e62-f2d7-4f0f-96f4-b9d2418cea29","ios":"levelo://app?vid=a7c42e62-f2d7-4f0f-96f4-b9d2418cea29"},"vehicle_type_id":"4","last_reported":1784447851,"current_range_meters":17200,"station_id":"ce4bh0h2rcd13ifvqd60","pricing_plan_id":"cebpf4jnsgd1na2vs0mg"},{"bike_id":"6b28d726-da17-43d5-bcda-effbbb66d552","system_id":"levelo_inurba_marseille","lat":43.26243,"lon":5.41655,"is_reserved":false,"is_disabled":false,"rental_uris":{"android":"levelo://app?vid=6b28d726-da17-43d5-bcda-effbbb66d552","ios":"levelo://app?vid=6b28d726-da17-43d5-bcda-effbbb66d552"},"vehicle_type_id":"4","last_reported":1784447851,"current_range_meters":28800,"station_id":"","pricing_plan_id":"cebpf4jnsgd1na2vs0mg"},{"bike_id":"63703119-f6d1-4dc5-ae9b-88fa313d481f","system_id":"levelo_inurba_marseille","lat":43.29301,"lon":5.37168,"is_reserved":false,"is_disabled":false,"rental_uris":{"android":"levelo://app?vid=63703119-f6d1-4dc5-ae9b-88fa313d481f","ios":"levelo://app?vid=63703119-f6d1-4dc5-ae9b-88fa313d481f"},"vehicle_type_id":"4","last_reported":1784447851,"current_range_meters":28800,"station_id":"ce4bgh92rcd13ifvqb40","pricing_plan_id":"cebpf4jnsgd1na2vs0mg"},{"bike_id":"bafe10e8-c43e-4f95-9e2d-98ca9f0df4d9","system_id":"levelo_inurba_marseille","lat":43.29575,"lon":5.37503,"is_reserved":false,"is_disabled":false,"rental_uris":{"android":"levelo://app?vid=bafe10e8-c43e-4f95-9e2d-98ca9f0df4d9","ios":"levelo://app?vid=bafe10e8-c43e-4f95-9e2d-98ca9f0df4d9"},"vehicle_type_id":"4","last_reported":1784447851,"current_range_meters":19600,"station_id":"ce4bgh92rcd13ifvqb50","pricing_plan_id":"cebpf4jnsgd1na2vs0mg"},{"bike_id":"80aab92c-8bc2-4649-ab28-9669d10e174a","system_id":"levelo_inurba_marseille","lat":43.30445,"lon":5.38882,"is_reserved":false,"is_disabled":false,"rental_uris":{"android":"levelo://app?vid=80aab92c-8bc2-4649-ab28-9669d10e174a","ios":"levelo://app?vid=80aab92c-8bc2-4649-ab28-9669d10e174a"},"vehicle_type_id":"4","last_reported":1784447851,"current_range_meters":36400,"station_id":"ce4bgk12rcd13ifvqbi0","pricing_plan_id":"cebpf4jnsgd1na2vs0mg"},{"bike_id":"2c3034d9-cfe0-4bed-ba66-d570d2e65392","system_id":"levelo_inurba_marseille","lat":43.29973,"lon":5.38515,"is_reserved":false,"is_disabled":true,"rental_uris":{"android":"levelo://app?vid=2c3034d9-cfe0-4bed-ba66-d570d2e65392","ios":"levelo://app?vid=2c3034d9-cfe0-4bed-ba66-d570d2e65392"},"vehicle_type_id":"4","last_reported":1784447851,"current_range_meters":20000,"station_id":"ce4bgj92rcd13ifvqbd0","pricing_plan_id":"cebpf4jnsgd1na2vs0mg"},{"bike_id":"15df54a3-1cd4-471c-bbb3-56bd6446d1c5","system_id":"levelo_inurba_marseille","lat":43.28707,"lon":5.37382,"is_reserved":false,"is_disabled":true,"rental_uris":{"android":"levelo://app?vid=15df54a3-1cd4-471c-bbb3-56bd6446d1c5","ios":"levelo://app?vid=15df54a3-1cd4-471c-bbb3-56bd6446d1c5"},"vehicle_type_id":"4","last_reported":1784447851,"current_range_meters":25200,"station_id":"ce4bh3p2rcd13ifvqdq0","pricing_plan_id":"cebpf4jnsgd1na2vs0mg"},{"bike_id":"0f6ff1da-c9e3-42e7-a8d3-8280d1c0addc","system_id":"levelo_inurba_marseille","lat":43.33718,"lon":5.37415,"is_reserved":false,"is_disabled":false,"rental_uris":{"android":"levelo://app?vid=0f6ff1da-c9e3-42e7-a8d3-8280d1c0addc","ios":"levelo://app?vid=0f6ff1da-c9e3-42e7-a8d3-8280d1c0addc"},"vehicle_type_id":"4","last_reported":1784447851,"current_range_meters":29600,"station_id":"","pricing_plan_id":"cebpf4jnsgd1na2vs0mg"},{"bike_id":"1e628dec-3141-48e0-b510-1c285ab03f4c","system_id":"levelo_inurba_marseille","lat":43.2637,"lon":5.41052,"is_reserved":false,"is_disabled":false,"rental_uris":{"android":"levelo://app?vid=1e628dec-3141-48e0-b510-1c285ab03f4c","ios":"levelo://app?vid=1e628dec-3141-48e0-b510-1c285ab03f4c"},"vehicle_type_id":"4","last_reported":1784447851,"current_range_meters":36800,"station_id":"st_d4e5ca6na9uc73bfl5fg","pricing_plan_id":"cebpf4jnsgd1na2vs0mg"},{"bike_id":"8337f5b4-2806-4bc0-9f71-af183adb5db8","system_id":"levelo_inurba_marseille","lat":43.23822,"lon":5.43512,"is_reserved":false,"is_disabled":false,"rental_uris":{"android":"levelo://app?vid=8337f5b4-2806-4bc0-9f71-af183adb5db8","ios":"levelo://app?vid=8337f5b4-2806-4bc0-9f71-af183adb5db8"},"vehicle_type_id":"4","last_reported":1784447851,"current_range_meters":4800,"station_id":"","pricing_plan_id":"cebpf4jnsgd1na2vs0mg"},{"bike_id":"0d69c6ad-1581-485b-8bcd-d541c4976ef8","system_id":"levelo_inurba_marseille","lat":43.31911,"lon":5.36825,"is_reserved":false,"is_disabled":false,"rental_uris":{"android":"levelo://app?vid=0d69c6ad-1581-485b-8bcd-d541c4976ef8","ios":"levelo://app?vid=0d69c6ad-1581-485b-8bcd-d541c4976ef8"},"vehicle_type_id":"4","last_reported":1784447851,"current_range_meters":9600,"station_id":"st_d6o2h0d0559c73evc1b0","pricing_plan_id":"cebpf4jnsgd1na2vs0mg"},{"bike_id":"26c0bff5-2143-4dde-8318-459beafaf7e8","system_id":"levelo_inurba_marseille","lat":43.28702,"lon":5.37386,"is_reserved":false,"is_disabled":false,"rental_uris":{"android":"levelo://app?vid=26c0bff5-2143-4dde-8318-459beafaf7e8","ios":"levelo://app?vid=26c0bff5-2143-4dde-8318-459beafaf7e8"},"vehicle_type_id":"4","last_reported":1784447851,"current_range_meters":38000,"station_id":"ce4bh3p2rcd13ifvqdq0","pricing_plan_id":"cebpf4jnsgd1na2vs0mg"},{"bike_id":"171832be-aac7-4034-a60b-7d26771d6212","system_id":"levelo_inurba_marseille","lat":43.28115,"lon":5.3786,"is_reserved":false,"is_disabled":false,"rental_uris":{"android":"levelo://app?vid=171832be-aac7-4034-a60b-7d26771d6212","ios":"levelo://app?vid=171832be-aac7-4034-a60b-7d26771d6212"},"vehicle_type_id":"4","last_reported":1784447851,"current_range_meters":28400,"station_id":"ce4bha12rcd13ifvqee0","pricing_plan_id":"cebpf4jnsgd1na2vs0mg"},{"bike_id":"ad193227-d210-4e9a-af26-3f25b41f58db","system_id":"levelo_inurba_marseille","lat":43.23892,"lon":5.37463,"is_reserved":false,"is_disabled":false,"rental_uris":{"android":"levelo://app?vid=ad193227-d210-4e9a-af26-3f25b41f58db","ios":"levelo://app?vid=ad193227-d210-4e9a-af26-3f25b41f58db"},"vehicle_type_id":"4","last_reported":1784447851,"current_range_meters":38400,"station_id":"st_d6sm7csbq4hs73f8fpjg","pricing_plan_id":"cebpf4jnsgd1na2vs0mg"},{"bike_id":"ee06a958-7f2b-4eb7-a6b1-2d3112db17a0","system_id":"levelo_inurba_marseille","lat":43.3114,"lon":5.37802,"is_reserved":false,"is_disabled":false,"rental_uris":{"android":"levelo://app?vid=ee06a958-7f2b-4eb7-a6b1-2d3112db17a0","ios":"levelo://app?vid=ee06a958-7f2b-4eb7-a6b1-2d3112db17a0"},"vehicle_type_id":"4","last_reported":1784447851,"current_range_meters":38400,"station_id":"ce4bgt92rcd13ifvqcg0","pricing_plan_id":"cebpf4jnsgd1na2vs0mg"},{"bike_id":"83e4f97a-7b91-4da2-a755-cba89d46d02f","system_id":"levelo_inurba_marseille","lat":43.2883,"lon":5.35264,"is_reserved":false,"is_disabled":false,"rental_uris":{"android":"levelo://app?vid=83e4f97a-7b91-4da2-a755-cba89d46d02f","ios":"levelo://app?vid=83e4f97a-7b91-4da2-a755-cba89d46d02f"},"vehicle_type_id":"4","last_reported":1784447851,"current_range_meters":37600,"station_id":"","pricing_plan_id":"cebpf4jnsgd1na2vs0mg"},{"bike_id":"e0f3f7aa-20c3-40d4-9976-28ed50fa3c71","system_id":"levelo_inurba_marseille","lat":43.23146,"lon":5.43724,"is_reserved":false,"is_disabled":false,"rental_uris":{"android":"levelo://app?vid=e0f3f7aa-20c3-40d4-9976-28ed50fa3c71","ios":"levelo://app?vid=e0f3f7aa-20c3-40d4-9976-28ed50fa3c71"},"vehicle_type_id":"4","last_reported":1784447851,"current_range_meters":39200,"station_id":"ce4bhmp2rcd13ifvqgog","pricing_plan_id":"cebpf4jnsgd1na2vs0mg"},{"bike_id":"fbc2ea7e-7aa8-46c6-911e-98977f78f06c","system_id":"levelo_inurba_marseille","lat":43.26688,"lon":5.38277,"is_reserved":false,"is_disabled":false,"rental_uris":{"android":"levelo://app?vid=fbc2ea7e-7aa8-46c6-911e-98977f78f06c","ios":"levelo://app?vid=fbc2ea7e-7aa8-46c6-911e-98977f78f06c"},"vehicle_type_id":"4","last_reported":1784447851,"current_range_meters":39200,"station_id":"ce4bhg92rcd13ifvqf90","pricing_plan_id":"cebpf4jnsgd1na2vs0mg"},{"bike_id":"942148f9-90f2-4171-8f05-98ba0ca85bcb","system_id":"levelo_inurba_marseille","lat":43.28479,"lon":5.48397,"is_reserved":false,"is_disabled":false,"rental_uris":{"android":"levelo://app?vid=942148f9-90f2-4171-8f05-98ba0ca85bcb","ios":"levelo://app?vid=942148f9-90f2-4171-8f05-98ba0ca85bcb"},"vehicle_type_id":"4","last_reported":1784447851,"current_range_meters":38000,"station_id":"st_d3svhcjqgbts73a3dn0g","pricing_plan_id":"cebpf4jnsgd1na2vs0mg"},{"bike_id":"97d120bb-ef10-49a9-98fd-ea2eae127c57","system_id":"levelo_inurba_marseille","lat":43.2318,"lon":5.39977,"is_reserved":false,"is_disabled":false,"rental_uris":{"android":"levelo://app?vid=97d120bb-ef10-49a9-98fd-ea2eae127c57","ios":"levelo://app?vid=97d120bb-ef10-49a9-98fd-ea2eae127c57"},"vehicle_type_id":"4","last_reported":1784447851,"current_range_meters":39200,"station_id":"ce4bhn12rcd13ifvqgqg","pricing_plan_id":"cebpf4jnsgd1na2vs0mg"},{"bike_id":"0fed3863-ace2-403d-a5b0-f2e844886f8f","system_id":"levelo_inurba_marseille","lat":43.26848,"lon":5.39365,"is_reserved":false,"is_disabled":false,"rental_uris":{"android":"levelo://app?vid=0fed3863-ace2-403d-a5b0-f2e844886f8f","ios":"levelo://app?vid=0fed3863-ace2-403d-a5b0-f2e844886f8f"},"vehicle_type_id":"4","last_reported":1784447851,"current_range_meters":20800,"station_id":"","pricing_plan_id":"cebpf4jnsgd1na2vs0mg"},{"bike_id":"fa288643-b967-4c77-8362-0941ea5afa2f","system_id":"levelo_inurba_marseille","lat":43.23194,"lon":5.35557,"is_reserved":false,"is_disabled":false,"rental_uris":{"android":"levelo://app?vid=fa288643-b967-4c77-8362-0941ea5afa2f","ios":"levelo://app?vid=fa288643-b967-4c77-8362-0941ea5afa2f"},"vehicle_type_id":"4","last_reported":1784447851,"current_range_meters":4800,"station_id":"ce4bhu92rcd13ifvqi70","pricing_plan_id":"cebpf4jnsgd1na2vs0mg"},{"bike_id":"2a93def1-9840-4751-b465-b53bb0ce6123","system_id":"levelo_inurba_marseille","lat":43.22571,"lon":5.41633,"is_reserved":false,"is_disabled":false,"rental_uris":{"android":"levelo://app?vid=2a93def1-9840-4751-b465-b53bb0ce6123","ios":"levelo://app?vid=2a93def1-9840-4751-b465-b53bb0ce6123"},"vehicle_type_id":"4","last_reported":1784447851,"current_range_meters":8000,"station_id":"st_d2o4gvlbi1j2169b742g","pricing_plan_id":"cebpf4jnsgd1na2vs0mg"},{"bike_id":"465bbc97-2b89-4a87-bea4-4eb31b5f0469","system_id":"levelo_inurba_marseille","lat":43.27584,"lon":5.38425,"is_reserved":false,"is_disabled":false,"rental_uris":{"android":"levelo://app?vid=465bbc97-2b89-4a87-bea4-4eb31b5f0469","ios":"levelo://app?vid=465bbc97-2b89-4a87-bea4-4eb31b5f0469"},"vehicle_type_id":"4","last_reported":1784447851,"current_range_meters":40000,"station_id":"ce4bhh92rcd13ifvqfi0","pricing_plan_id":"cebpf4jnsgd1na2vs0mg"},{"bike_id":"d2b08bfe-8d05-4397-91e9-fe938a2b845f","system_id":"levelo_inurba_marseille","lat":43.27499,"lon":5.42442,"is_reserved":false,"is_disabled":false,"rental_uris":{"android":"levelo://app?vid=d2b08bfe-8d05-4397-91e9-fe938a2b845f","ios":"levelo://app?vid=d2b08bfe-8d05-4397-91e9-fe938a2b845f"},"vehicle_type_id":"4","last_reported":1784447851,"current_range_meters":29600,"station_id":"ce4bhn92rcd13ifvqgrg","pricing_plan_id":"cebpf4jnsgd1na2vs0mg"},{"bike_id":"a0cbe02e-d469-4188-8908-55dffbd7e277","system_id":"levelo_inurba_marseille","lat":43.291957,"lon":5.358112,"is_reserved":false,"is_disabled":false,"rental_uris":{"android":"levelo://app?vid=a0cbe02e-d469-4188-8908-55dffbd7e277","ios":"levelo://app?vid=a0cbe02e-d469-4188-8908-55dffbd7e277"},"vehicle_type_id":"4","last_reported":1784447851,"current_range_meters":36400,"station_id":"ce4bhb12rcd13ifvqel0","pricing_plan_id":"cebpf4jnsgd1na2vs0mg"},{"bike_id":"85c6f96b-abeb-41c4-b8e0-2980ab917c26","system_id":"levelo_inurba_marseille","lat":43.24473,"lon":5.42542,"is_reserved":false,"is_disabled":false,"rental_uris":{"android":"levelo://app?vid=85c6f96b-abeb-41c4-b8e0-2980ab917c26","ios":"levelo://app?vid=85c6f96b-abeb-41c4-b8e0-2980ab917c26"},"vehicle_type_id":"4","last_reported":1784447851,"current_range_meters":26800,"station_id":"st_d4a3vfp97mjs738cd8kg","pricing_plan_id":"cebpf4jnsgd1na2vs0mg"},{"bike_id":"e97d923d-d560-461e-94e7-6b746b3d8d92","system_id":"levelo_inurba_marseille","lat":43.32105,"lon":5.36768,"is_reserved":false,"is_disabled":false,"rental_uris":{"android":"levelo://app?vid=e97d923d-d560-461e-94e7-6b746b3d8d92","ios":"levelo://app?vid=e97d923d-d560-461e-94e7-6b746b3d8d92"},"vehicle_type_id":"4","last_reported":1784447851,"current_range_meters":23200,"station_id":"ce4bhrh2rcd13ifvqhug","pricing_plan_id":"cebpf4jnsgd1na2vs0mg"},{"bike_id":"f147535e-34ce-4ad2-8330-db1c1333a506","system_id":"levelo_inurba_marseille","lat":43.28418,"lon":5.34977,"is_reserved":false,"is_disabled":false,"rental_uris":{"android":"levelo://app?vid=f147535e-34ce-4ad2-8330-db1c1333a506","ios":"levelo://app?vid=f147535e-34ce-4ad2-8330-db1c1333a506"},"vehicle_type_id":"4","last_reported":1784447851,"current_range_meters":24000,"station_id":"ce4bhbh2rcd13ifvqepg","pricing_plan_id":"cebpf4jnsgd1na2vs0mg"},{"bike_id":"b7aa1f7e-f948-4c85-8ebb-7af17d93841d","system_id":"levelo_inurba_marseille","lat":43.25228,"lon":5.40085,"is_reserved":false,"is_disabled":false,"rental_uris":{"android":"levelo://app?vid=b7aa1f7e-f948-4c85-8ebb-7af17d93841d","ios":"levelo://app?vid=b7aa1f7e-f948-4c85-8ebb-7af17d93841d"},"vehicle_type_id":"4","last_reported":1784447851,"current_range_meters":38400,"station_id":"","pricing_plan_id":"cebpf4jnsgd1na2vs0mg"},{"bike_id":"98a6db0e-1e47-4727-9411-f56253e83501","system_id":"levelo_inurba_marseille","lat":43.29529,"lon":5.37501,"is_reserved":false,"is_disabled":false,"rental_uris":{"android":"levelo://app?vid=98a6db0e-1e47-4727-9411-f56253e83501","ios":"levelo://app?vid=98a6db0e-1e47-4727-9411-f56253e83501"},"vehicle_type_id":"4","last_reported":1784447851,"current_range_meters":29600,"station_id":"ce4bgkp2rcd13ifvqbmg","pricing_plan_id":"cebpf4jnsgd1na2vs0mg"},{"bike_id":"a73f2824-04af-4eb1-8696-07548fb915c6","system_id":"levelo_inurba_marseille","lat":43.27063,"lon":5.42279,"is_reserved":false,"is_disabled":false,"rental_uris":{"android":"levelo://app?vid=a73f2824-04af-4eb1-8696-07548fb915c6","ios":"levelo://app?vid=a73f2824-04af-4eb1-8696-07548fb915c6"},"vehicle_type_id":"4","last_reported":1784447851,"current_range_meters":34000,"station_id":"ce4bhk92rcd13ifvqgb0","pricing_plan_id":"cebpf4jnsgd1na2vs0mg"},{"bike_id":"8c7a7ca4-36e0-4d44-b112-9ceb8ce91bf0","system_id":"levelo_inurba_marseille","lat":43.293,"lon":5.37149,"is_reserved":false,"is_disabled":false,"rental_uris":{"android":"levelo://app?vid=8c7a7ca4-36e0-4d44-b112-9ceb8ce91bf0","ios":"levelo://app?vid=8c7a7ca4-36e0-4d44-b112-9ceb8ce91bf0"},"vehicle_type_id":"4","last_reported":1784447851,"current_range_meters":29600,"station_id":"ce4bgh92rcd13ifvqb40","pricing_plan_id":"cebpf4jnsgd1na2vs0mg"},{"bike_id":"e845caaf-6f62-4afe-898b-175d7eec4dd5","system_id":"levelo_inurba_marseille","lat":43.29046,"lon":5.35894,"is_reserved":false,"is_disabled":true,"rental_uris":{"android":"levelo://app?vid=e845caaf-6f62-4afe-898b-175d7eec4dd5","ios":"levelo://app?vid=e845caaf-6f62-4afe-898b-175d7eec4dd5"},"vehicle_type_id":"4","last_reported":1784447851,"current_range_meters":8800,"station_id":"ce4bha92rcd13ifvqeg0","pricing_plan_id":"cebpf4jnsgd1na2vs0mg"},{"bike_id":"160b0153-3c70-4a0e-b0da-4ad40e9a3569","system_id":"levelo_inurba_marseille","lat":43.23382,"lon":5.41237,"is_reserved":false,"is_disabled":false,"rental_uris":{"android":"levelo://app?vid=160b0153-3c70-4a0e-b0da-4ad40e9a3569","ios":"levelo://app?vid=160b0153-3c70-4a0e-b0da-4ad40e9a3569"},"vehicle_type_id":"4","last_reported":1784447851,"current_range_meters":36800,"station_id":"st_d75pvndhf9lc73cqq3eg","pricing_plan_id":"cebpf4jnsgd1na2vs0mg"},{"bike_id":"8d57b597-9904-4729-a612-56e7842a4711","system_id":"levelo_inurba_marseille","lat":43.25497,"lon":5.37648,"is_reserved":false,"is_disabled":false,"rental_uris":{"android":"levelo://app?vid=8d57b597-9904-4729-a612-56e7842a4711","ios":"levelo://app?vid=8d57b597-9904-4729-a612-56e7842a4711"},"vehicle_type_id":"4","last_reported":1784447851,"current_range_meters":33600,"station_id":"ce4bhh12rcd13ifvqff0","pricing_plan_id":"cebpf4jnsgd1na2vs0mg"},{"bike_id":"b64426df-a3f7-424e-923a-a5218fc5bce4","system_id":"levelo_inurba_marseille","lat":43.27672,"lon":5.38921,"is_reserved":false,"is_disabled":false,"rental_uris":{"android":"levelo://app?vid=b64426df-a3f7-424e-923a-a5218fc5bce4","ios":"levelo://app?vid=b64426df-a3f7-424e-923a-a5218fc5bce4"},"vehicle_type_id":"4","last_reported":1784447851,"current_range_meters":28400,"station_id":"ce4bhi12rcd13ifvqfo0","pricing_plan_id":"cebpf4jnsgd1na2vs0mg"},{"bike_id":"1e724757-9713-48d4-b510-0aa64a9d2927","system_id":"levelo_inurba_marseille","lat":43.2958,"lon":5.3753,"is_reserved":false,"is_disabled":false,"rental_uris":{"android":"levelo://app?vid=1e724757-9713-48d4-b510-0aa64a9d2927","ios":"levelo://app?vid=1e724757-9713-48d4-b510-0aa64a9d2927"},"vehicle_type_id":"4","last_reported":1784447851,"current_range_meters":34800,"station_id":"ce4bgh92rcd13ifvqb50","pricing_plan_id":"cebpf4jnsgd1na2vs0mg"},{"bike_id":"3d4aa178-44db-467e-a1bd-4fcdf991f22c","system_id":"levelo_inurba_marseille","lat":43.31711,"lon":5.4371,"is_reserved":false,"is_disabled":false,"rental_uris":{"android":"levelo://app?vid=3d4aa178-44db-467e-a1bd-4fcdf991f22c","ios":"levelo://app?vid=3d4aa178-44db-467e-a1bd-4fcdf991f22c"},"vehicle_type_id":"4","last_reported":1784447851,"current_range_meters":38800,"station_id":"ce4bhp92rcd13ifvqhcg","pricing_plan_id":"cebpf4jnsgd1na2vs0mg"},{"bike_id":"78b472ae-7ca1-438d-a65f-f93d06645001","system_id":"levelo_inurba_marseille","lat":43.29242,"lon":5.36087,"is_reserved":false,"is_disabled":true,"rental_uris":{"android":"levelo://app?vid=78b472ae-7ca1-438d-a65f-f93d06645001","ios":"levelo://app?vid=78b472ae-7ca1-438d-a65f-f93d06645001"},"vehicle_type_id":"4","last_reported":1784447851,"current_range_meters":38400,"station_id":"","pricing_plan_id":"cebpf4jnsgd1na2vs0mg"},{"bike_id":"189a6511-59ec-478e-a171-7b02b36b2b85","system_id":"levelo_inurba_marseille","lat":43.30486,"lon":5.37258,"is_reserved":false,"is_disabled":false,"rental_uris":{"android":"levelo://app?vid=189a6511-59ec-478e-a171-7b02b36b2b85","ios":"levelo://app?vid=189a6511-59ec-478e-a171-7b02b36b2b85"},"vehicle_type_id":"4","last_reported":1784447851,"current_range_meters":16000,"station_id":"","pricing_plan_id":"cebpf4jnsgd1na2vs0mg"},{"bike_id":"bf010752-4ee2-4816-b256-1fb00bbe1bcc","system_id":"levelo_inurba_marseille","lat":43.28613,"lon":5.35083,"is_reserved":false,"is_disabled":true,"rental_uris":{"android":"levelo://app?vid=bf010752-4ee2-4816-b256-1fb00bbe1bcc","ios":"levelo://app?vid=bf010752-4ee2-4816-b256-1fb00bbe1bcc"},"vehicle_type_id":"4","last_reported":1784447851,"current_range_meters":14000,"station_id":"ce4bhch2rcd13ifvqeug","pricing_plan_id":"cebpf4jnsgd1na2vs0mg"},{"bike_id":"f31e71a2-8328-4ff9-9288-61f910dee152","system_id":"levelo_inurba_marseille","lat":43.26488,"lon":5.3954,"is_reserved":false,"is_disabled":false,"rental_uris":{"android":"levelo://app?vid=f31e71a2-8328-4ff9-9288-61f910dee152","ios":"levelo://app?vid=f31e71a2-8328-4ff9-9288-61f910dee152"},"vehicle_type_id":"4","last_reported":1784447851,"current_range_meters":3200,"station_id":"ce4bhi12rcd13ifvqfq0","pricing_plan_id":"cebpf4jnsgd1na2vs0mg"},{"bike_id":"348caf77-82d6-4562-a72e-c7becae0b0ae","system_id":"levelo_inurba_marseille","lat":43.230549,"lon":5.354901,"is_reserved":false,"is_disabled":false,"rental_uris":{"android":"levelo://app?vid=348caf77-82d6-4562-a72e-c7becae0b0ae","ios":"levelo://app?vid=348caf77-82d6-4562-a72e-c7becae0b0ae"},"vehicle_type_id":"4","last_reported":1784447851,"current_range_meters":37600,"station_id":"cpo3342slgdg3j2ifvpg","pricing_plan_id":"cebpf4jnsgd1na2vs0mg"},{"bike_id":"88b3333d-68df-42df-8ef7-a9a4f08abce5","system_id":"levelo_inurba_marseille","lat":43.22937,"lon":5.41499,"is_reserved":false,"is_disabled":false,"rental_uris":{"android":"levelo://app?vid=88b3333d-68df-42df-8ef7-a9a4f08abce5","ios":"levelo://app?vid=88b3333d-68df-42df-8ef7-a9a4f08abce5"},"vehicle_type_id":"4","last_reported":1784447851,"current_range_meters":19200,"station_id":"","pricing_plan_id":"cebpf4jnsgd1na2vs0mg"},{"bike_id":"cbf57bb6-373a-442c-9860-92cf9215a1bb","system_id":"levelo_inurba_marseille","lat":43.30574,"lon":5.3657,"is_reserved":false,"is_disabled":true,"rental_uris":{"android":"levelo://app?vid=cbf57bb6-373a-442c-9860-92cf9215a1bb","ios":"levelo://app?vid=cbf57bb6-373a-442c-9860-92cf9215a1bb"},"vehicle_type_id":"4","last_reported":1784447851,"current_range_meters":22000,"station_id":"ce4bgs12rcd13ifvqcag","pricing_plan_id":"cebpf4jnsgd1na2vs0mg"},{"bike_id":"50cc7a1f-02fb-419d-8d81-6e9140eed09a","system_id":"levelo_inurba_marseille","lat":43.26209,"lon":5.37439,"is_reserved":false,"is_disabled":false,"rental_uris":{"android":"levelo://app?vid=50cc7a1f-02fb-419d-8d81-6e9140eed09a","ios":"levelo://app?vid=50cc7a1f-02fb-419d-8d81-6e9140eed09a"},"vehicle_type_id":"4","last_reported":1784447851,"current_range_meters":37600,"station_id":"ce4bhgp2rcd13ifvqfc0","pricing_plan_id":"cebpf4jnsgd1na2vs0mg"},{"bike_id":"6dc303ad-c645-41ff-bd15-9564ddff83e6","system_id":"levelo_inurba_marseille","lat":43.26699,"lon":5.38273,"is_reserved":false,"is_disabled":false,"rental_uris":{"android":"levelo://app?vid=6dc303ad-c645-41ff-bd15-9564ddff83e6","ios":"levelo://app?vid=6dc303ad-c645-41ff-bd15-9564ddff83e6"},"vehicle_type_id":"4","last_reported":1784447851,"current_range_meters":22400,"station_id":"ce4bhg92rcd13ifvqf90","pricing_plan_id":"cebpf4jnsgd1na2vs0mg"},{"bike_id":"1807b9fe-a25c-4b4c-8b28-aadd1f589434","system_id":"levelo_inurba_marseille","lat":43.3013,"lon":5.38768,"is_reserved":false,"is_disabled":false,"rental_uris":{"android":"levelo://app?vid=1807b9fe-a25c-4b4c-8b28-aadd1f589434","ios":"levelo://app?vid=1807b9fe-a25c-4b4c-8b28-aadd1f589434"},"vehicle_type_id":"4","last_reported":1784447851,"current_range_meters":25200,"station_id":"ce4bghh2rcd13ifvqb60","pricing_plan_id":"cebpf4jnsgd1na2vs0mg"},{"bike_id":"83abe946-ea68-4397-bee3-4e1cc45eebb9","system_id":"levelo_inurba_marseille","lat":43.30874,"lon":5.39628,"is_reserved":false,"is_disabled":false,"rental_uris":{"android":"levelo://app?vid=83abe946-ea68-4397-bee3-4e1cc45eebb9","ios":"levelo://app?vid=83abe946-ea68-4397-bee3-4e1cc45eebb9"},"vehicle_type_id":"4","last_reported":1784447851,"current_range_meters":39200,"station_id":"ce4bh012rcd13ifvqcv0","pricing_plan_id":"cebpf4jnsgd1na2vs0mg"},{"bike_id":"b9bf91b1-f6c3-4792-a380-5b253e1ff4ad","system_id":"levelo_inurba_marseille","lat":43.23197,"lon":5.35554,"is_reserved":false,"is_disabled":false,"rental_uris":{"android":"levelo://app?vid=b9bf91b1-f6c3-4792-a380-5b253e1ff4ad","ios":"levelo://app?vid=b9bf91b1-f6c3-4792-a380-5b253e1ff4ad"},"vehicle_type_id":"4","last_reported":1784447851,"current_range_meters":29600,"station_id":"ce4bhu92rcd13ifvqi70","pricing_plan_id":"cebpf4jnsgd1na2vs0mg"},{"bike_id":"d0689963-1360-4eec-9974-1c99b2ed8187","system_id":"levelo_inurba_marseille","lat":43.30599,"lon":5.37205,"is_reserved":false,"is_disabled":true,"rental_uris":{"android":"levelo://app?vid=d0689963-1360-4eec-9974-1c99b2ed8187","ios":"levelo://app?vid=d0689963-1360-4eec-9974-1c99b2ed8187"},"vehicle_type_id":"4","last_reported":1784447851,"current_range_meters":32800,"station_id":"ce4bgqh2rcd13ifvqc4g","pricing_plan_id":"cebpf4jnsgd1na2vs0mg"},{"bike_id":"1a793fe2-88e7-412f-8b7f-db9a8c076d39","system_id":"levelo_inurba_marseille","lat":43.30765,"lon":5.3765,"is_reserved":false,"is_disabled":false,"rental_uris":{"android":"levelo://app?vid=1a793fe2-88e7-412f-8b7f-db9a8c076d39","ios":"levelo://app?vid=1a793fe2-88e7-412f-8b7f-db9a8c076d39"},"vehicle_type_id":"4","last_reported":1784447851,"current_range_meters":17600,"station_id":"ce4bgv92rcd13ifvqcq0","pricing_plan_id":"cebpf4jnsgd1na2vs0mg"},{"bike_id":"4f54c651-15d1-492f-8d09-70f1f809ad4f","system_id":"levelo_inurba_marseille","lat":43.27496,"lon":5.4252,"is_reserved":false,"is_disabled":false,"rental_uris":{"android":"levelo://app?vid=4f54c651-15d1-492f-8d09-70f1f809ad4f","ios":"levelo://app?vid=4f54c651-15d1-492f-8d09-70f1f809ad4f"},"vehicle_type_id":"4","last_reported":1784447851,"current_range_meters":17200,"station_id":"st_d8t4bh7nbrqs73arha60","pricing_plan_id":"cebpf4jnsgd1na2vs0mg"},{"bike_id":"7065528a-f292-4b1d-9927-6e05933d2cf0","system_id":"levelo_inurba_marseille","lat":43.22564,"lon":5.41623,"is_reserved":false,"is_disabled":false,"rental_uris":{"android":"levelo://app?vid=7065528a-f292-4b1d-9927-6e05933d2cf0","ios":"levelo://app?vid=7065528a-f292-4b1d-9927-6e05933d2cf0"},"vehicle_type_id":"4","last_reported":1784447851,"current_range_meters":24800,"station_id":"st_d2o4gvlbi1j2169b742g","pricing_plan_id":"cebpf4jnsgd1na2vs0mg"},{"bike_id":"1ef64655-8371-4fb9-a75f-499d2aa9fe59","system_id":"levelo_inurba_marseille","lat":43.28024,"lon":5.3694,"is_reserved":false,"is_disabled":false,"rental_uris":{"android":"levelo://app?vid=1ef64655-8371-4fb9-a75f-499d2aa9fe59","ios":"levelo://app?vid=1ef64655-8371-4fb9-a75f-499d2aa9fe59"},"vehicle_type_id":"4","last_reported":1784447851,"current_range_meters":24800,"station_id":"ce4bha12rcd13ifvqef0","pricing_plan_id":"cebpf4jnsgd1na2vs0mg"},{"bike_id":"c135ac9c-58c5-49a4-bc7a-ae6a1062556f","system_id":"levelo_inurba_marseille","lat":43.30714,"lon":5.38425,"is_reserved":false,"is_disabled":false,"rental_uris":{"android":"levelo://app?vid=c135ac9c-58c5-49a4-bc7a-ae6a1062556f","ios":"levelo://app?vid=c135ac9c-58c5-49a4-bc7a-ae6a1062556f"},"vehicle_type_id":"4","last_reported":1784447851,"current_range_meters":8800,"station_id":"","pricing_plan_id":"cebpf4jnsgd1na2vs0mg"},{"bike_id":"825d2cd6-b249-46f4-a055-929e88c76d25","system_id":"levelo_inurba_marseille","lat":43.28472,"lon":5.38409,"is_reserved":false,"is_disabled":false,"rental_uris":{"android":"levelo://app?vid=825d2cd6-b249-46f4-a055-929e88c76d25","ios":"levelo://app?vid=825d2cd6-b249-46f4-a055-929e88c76d25"},"vehicle_type_id":"4","last_reported":1784447851,"current_range_meters":38800,"station_id":"ce4bh512rcd13ifvqe3g","pricing_plan_id":"cebpf4jnsgd1na2vs0mg"},{"bike_id":"96f905b3-3338-42ef-93f2-1e49976b6f3c","system_id":"levelo_inurba_marseille","lat":43.30513,"lon":5.36691,"is_reserved":false,"is_disabled":false,"rental_uris":{"android":"levelo://app?vid=96f905b3-3338-42ef-93f2-1e49976b6f3c","ios":"levelo://app?vid=96f905b3-3338-42ef-93f2-1e49976b6f3c"},"vehicle_type_id":"4","last_reported":1784447851,"current_range_meters":38000,"station_id":"ce4bgrp2rcd13ifvqc9g","pricing_plan_id":"cebpf4jnsgd1na2vs0mg"},{"bike_id":"e35b3037-ccf2-48a7-b6f2-14a77143bba4","system_id":"levelo_inurba_marseille","lat":43.32356,"lon":5.36727,"is_reserved":false,"is_disabled":false,"rental_uris":{"android":"levelo://app?vid=e35b3037-ccf2-48a7-b6f2-14a77143bba4","ios":"levelo://app?vid=e35b3037-ccf2-48a7-b6f2-14a77143bba4"},"vehicle_type_id":"4","last_reported":1784447851,"current_range_meters":28000,"station_id":"ce4bhsh2rcd13ifvqi2g","pricing_plan_id":"cebpf4jnsgd1na2vs0mg"},{"bike_id":"e56f1791-3d75-4f59-a13e-ce6c6737a2d6","system_id":"levelo_inurba_marseille","lat":43.30225,"lon":5.40029,"is_reserved":false,"is_disabled":false,"rental_uris":{"android":"levelo://app?vid=e56f1791-3d75-4f59-a13e-ce6c6737a2d6","ios":"levelo://app?vid=e56f1791-3d75-4f59-a13e-ce6c6737a2d6"},"vehicle_type_id":"4","last_reported":1784447851,"current_range_meters":40000,"station_id":"ce4bgvh2rcd13ifvqcs0","pricing_plan_id":"cebpf4jnsgd1na2vs0mg"},{"bike_id":"f46ca526-f9cd-4571-808f-516a0c71ffbb","system_id":"levelo_inurba_marseille","lat":43.32487,"lon":5.3828,"is_reserved":false,"is_disabled":false,"rental_uris":{"android":"levelo://app?vid=f46ca526-f9cd-4571-808f-516a0c71ffbb","ios":"levelo://app?vid=f46ca526-f9cd-4571-808f-516a0c71ffbb"},"vehicle_type_id":"4","last_reported":1784447851,"current_range_meters":23200,"station_id":"st_d4asgbiv49dc73anf9m0","pricing_plan_id":"cebpf4jnsgd1na2vs0mg"},{"bike_id":"5bb40222-6876-4373-afb0-3fdea4be3c40","system_id":"levelo_inurba_marseille","lat":43.30829,"lon":5.3752,"is_reserved":false,"is_disabled":false,"rental_uris":{"android":"levelo://app?vid=5bb40222-6876-4373-afb0-3fdea4be3c40","ios":"levelo://app?vid=5bb40222-6876-4373-afb0-3fdea4be3c40"},"vehicle_type_id":"4","last_reported":1784447851,"current_range_meters":2800,"station_id":"","pricing_plan_id":"cebpf4jnsgd1na2vs0mg"},{"bike_id":"01de4d52-eee6-4b65-a489-93686c2f30d5","system_id":"levelo_inurba_marseille","lat":43.30413,"lon":5.41268,"is_reserved":false,"is_disabled":false,"rental_uris":{"android":"levelo://app?vid=01de4d52-eee6-4b65-a489-93686c2f30d5","ios":"levelo://app?vid=01de4d52-eee6-4b65-a489-93686c2f30d5"},"vehicle_type_id":"4","last_reported":1784447851,"current_range_meters":17600,"station_id":"ce4bhop2rcd13ifvqh8g","pricing_plan_id":"cebpf4jnsgd1na2vs0mg"},{"bike_id":"fab1cb21-5a3c-43ff-bd07-28ea20b0c976","system_id":"levelo_inurba_marseille","lat":43.28266,"lon":5.35071,"is_reserved":false,"is_disabled":false,"rental_uris":{"android":"levelo://app?vid=fab1cb21-5a3c-43ff-bd07-28ea20b0c976","ios":"levelo://app?vid=fab1cb21-5a3c-43ff-bd07-28ea20b0c976"},"vehicle_type_id":"4","last_reported":1784447851,"current_range_meters":4000,"station_id":"ce4bhbp2rcd13ifvqerg","pricing_plan_id":"cebpf4jnsgd1na2vs0mg"},{"bike_id":"d3763a0c-6ecc-4e5b-830e-5883d835d782","system_id":"levelo_inurba_marseille","lat":43.31712,"lon":5.43711,"is_reserved":false,"is_disabled":false,"rental_uris":{"android":"levelo://app?vid=d3763a0c-6ecc-4e5b-830e-5883d835d782","ios":"levelo://app?vid=d3763a0c-6ecc-4e5b-830e-5883d835d782"},"vehicle_type_id":"4","last_reported":1784447851,"current_range_meters":16800,"station_id":"ce4bhp92rcd13ifvqhcg","pricing_plan_id":"cebpf4jnsgd1na2vs0mg"},{"bike_id":"72e18e09-40d8-4c56-acd7-29b3c5272569","system_id":"levelo_inurba_marseille","lat":43.26077,"lon":5.39401,"is_reserved":false,"is_disabled":false,"rental_uris":{"android":"levelo://app?vid=72e18e09-40d8-4c56-acd7-29b3c5272569","ios":"levelo://app?vid=72e18e09-40d8-4c56-acd7-29b3c5272569"},"vehicle_type_id":"4","last_reported":1784447851,"current_range_meters":29600,"station_id":"ce4bhh92rcd13ifvqfj0","pricing_plan_id":"cebpf4jnsgd1na2vs0mg"},{"bike_id":"e0b59b94-4abf-4e2b-8eca-155fc1c0b722","system_id":"levelo_inurba_marseille","lat":43.23062,"lon":5.35486,"is_reserved":false,"is_disabled":false,"rental_uris":{"android":"levelo://app?vid=e0b59b94-4abf-4e2b-8eca-155fc1c0b722","ios":"levelo://app?vid=e0b59b94-4abf-4e2b-8eca-155fc1c0b722"},"vehicle_type_id":"4","last_reported":1784447851,"current_range_meters":30400,"station_id":"cpo3342slgdg3j2ifvpg","pricing_plan_id":"cebpf4jnsgd1na2vs0mg"},{"bike_id":"a8678b85-a65d-4ed9-8616-62e9983fb940","system_id":"levelo_inurba_marseille","lat":43.287047,"lon":5.373798,"is_reserved":false,"is_disabled":true,"rental_uris":{"android":"levelo://app?vid=a8678b85-a65d-4ed9-8616-62e9983fb940","ios":"levelo://app?vid=a8678b85-a65d-4ed9-8616-62e9983fb940"},"vehicle_type_id":"4","last_reported":1784447851,"current_range_meters":1600,"station_id":"","pricing_plan_id":"cebpf4jnsgd1na2vs0mg"},{"bike_id":"eeb3b3a3-9ea7-44e8-a972-9517af5fdeba","system_id":"levelo_inurba_marseille","lat":43.3017,"lon":5.38092,"is_reserved":false,"is_disabled":false,"rental_uris":{"android":"levelo://app?vid=eeb3b3a3-9ea7-44e8-a972-9517af5fdeba","ios":"levelo://app?vid=eeb3b3a3-9ea7-44e8-a972-9517af5fdeba"},"vehicle_type_id":"4","last_reported":1784447851,"current_range_meters":33200,"station_id":"ce4bgjp2rcd13ifvqbh0","pricing_plan_id":"cebpf4jnsgd1na2vs0mg"},{"bike_id":"513b0e08-3d16-4ac6-920e-9cbb669be684","system_id":"levelo_inurba_marseille","lat":43.21752,"lon":5.34594,"is_reserved":false,"is_disabled":false,"rental_uris":{"android":"levelo://app?vid=513b0e08-3d16-4ac6-920e-9cbb669be684","ios":"levelo://app?vid=513b0e08-3d16-4ac6-920e-9cbb669be684"},"vehicle_type_id":"4","last_reported":1784447851,"current_range_meters":26800,"station_id":"st_cvj6r9ubvosntc0bgbag","pricing_plan_id":"cebpf4jnsgd1na2vs0mg"},{"bike_id":"08032647-4e4b-4d46-b2bb-1df2e3cbec8b","system_id":"levelo_inurba_marseille","lat":43.28365,"lon":5.43304,"is_reserved":false,"is_disabled":true,"rental_uris":{"android":"levelo://app?vid=08032647-4e4b-4d46-b2bb-1df2e3cbec8b","ios":"levelo://app?vid=08032647-4e4b-4d46-b2bb-1df2e3cbec8b"},"vehicle_type_id":"4","last_reported":1784447851,"current_range_meters":0,"station_id":"","pricing_plan_id":"cebpf4jnsgd1na2vs0mg"},{"bike_id":"f3baf319-b9c2-4530-b3f8-1ce2c1fad255","system_id":"levelo_inurba_marseille","lat":43.25188,"lon":5.37317,"is_reserved":false,"is_disabled":true,"rental_uris":{"android":"levelo://app?vid=f3baf319-b9c2-4530-b3f8-1ce2c1fad255","ios":"levelo://app?vid=f3baf319-b9c2-4530-b3f8-1ce2c1fad255"},"vehicle_type_id":"4","last_reported":1784447851,"current_range_meters":24000,"station_id":"","pricing_plan_id":"cebpf4jnsgd1na2vs0mg"},{"bike_id":"d1df984c-d5be-446a-9b2d-9195d32d3653","system_id":"levelo_inurba_marseille","lat":43.29293,"lon":5.40198,"is_reserved":false,"is_disabled":false,"rental_uris":{"android":"levelo://app?vid=d1df984c-d5be-446a-9b2d-9195d32d3653","ios":"levelo://app?vid=d1df984c-d5be-446a-9b2d-9195d32d3653"},"vehicle_type_id":"4","last_reported":1784447851,"current_range_meters":8400,"station_id":"","pricing_plan_id":"cebpf4jnsgd1na2vs0mg"},{"bike_id":"8b6331b3-2914-4282-8a4c-45cca24291f2","system_id":"levelo_inurba_marseille","lat":43.30926,"lon":5.40143,"is_reserved":false,"is_disabled":false,"rental_uris":{"android":"levelo://app?vid=8b6331b3-2914-4282-8a4c-45cca24291f2","ios":"levelo://app?vid=8b6331b3-2914-4282-8a4c-45cca24291f2"},"vehicle_type_id":"4","last_reported":1784447851,"current_range_meters":22400,"station_id":"","pricing_plan_id":"cebpf4jnsgd1na2vs0mg"},{"bike_id":"a287babe-2875-4e47-a1fc-a71e0666296b","system_id":"levelo_inurba_marseille","lat":43.260263,"lon":5.375491,"is_reserved":false,"is_disabled":true,"rental_uris":{"android":"levelo://app?vid=a287babe-2875-4e47-a1fc-a71e0666296b","ios":"levelo://app?vid=a287babe-2875-4e47-a1fc-a71e0666296b"},"vehicle_type_id":"4","last_reported":1784447851,"current_range_meters":22000,"station_id":"ce4bh392rcd13ifvqdm0","pricing_plan_id":"cebpf4jnsgd1na2vs0mg"},{"bike_id":"96f0ca61-b1bd-4f3a-bcc1-74fe2aa38a41","system_id":"levelo_inurba_marseille","lat":43.26233,"lon":5.40453,"is_reserved":false,"is_disabled":false,"rental_uris":{"android":"levelo://app?vid=96f0ca61-b1bd-4f3a-bcc1-74fe2aa38a41","ios":"levelo://app?vid=96f0ca61-b1bd-4f3a-bcc1-74fe2aa38a41"},"vehicle_type_id":"4","last_reported":1784447851,"current_range_meters":31200,"station_id":"ce4bhmh2rcd13ifvqgmg","pricing_plan_id":"cebpf4jnsgd1na2vs0mg"},{"bike_id":"0d3e100f-48fe-47e1-bef7-0a1dcfcc4955","system_id":"levelo_inurba_marseille","lat":43.33726,"lon":5.39207,"is_reserved":false,"is_disabled":false,"rental_uris":{"android":"levelo://app?vid=0d3e100f-48fe-47e1-bef7-0a1dcfcc4955","ios":"levelo://app?vid=0d3e100f-48fe-47e1-bef7-0a1dcfcc4955"},"vehicle_type_id":"4","last_reported":1784447851,"current_range_meters":39200,"station_id":"ce4bhr92rcd13ifvqhsg","pricing_plan_id":"cebpf4jnsgd1na2vs0mg"},{"bike_id":"3513a41b-e203-4104-9656-3070d238f21e","system_id":"levelo_inurba_marseille","lat":43.32645,"lon":5.40986,"is_reserved":false,"is_disabled":false,"rental_uris":{"android":"levelo://app?vid=3513a41b-e203-4104-9656-3070d238f21e","ios":"levelo://app?vid=3513a41b-e203-4104-9656-3070d238f21e"},"vehicle_type_id":"4","last_reported":1784447851,"current_range_meters":39200,"station_id":"ce4bhpp2rcd13ifvqhgg","pricing_plan_id":"cebpf4jnsgd1na2vs0mg"},{"bike_id":"ed167d53-c155-484c-8de3-7860ba68af81","system_id":"levelo_inurba_marseille","lat":43.30945,"lon":5.40158,"is_reserved":false,"is_disabled":false,"rental_uris":{"android":"levelo://app?vid=ed167d53-c155-484c-8de3-7860ba68af81","ios":"levelo://app?vid=ed167d53-c155-484c-8de3-7860ba68af81"},"vehicle_type_id":"4","last_reported":1784447851,"current_range_meters":16400,"station_id":"ce4bgvp2rcd13ifvqct0","pricing_plan_id":"cebpf4jnsgd1na2vs0mg"},{"bike_id":"bda065ee-aa31-4ab6-baf5-9dba24094348","system_id":"levelo_inurba_marseille","lat":43.27969,"lon":5.40015,"is_reserved":false,"is_disabled":false,"rental_uris":{"android":"levelo://app?vid=bda065ee-aa31-4ab6-baf5-9dba24094348","ios":"levelo://app?vid=bda065ee-aa31-4ab6-baf5-9dba24094348"},"vehicle_type_id":"4","last_reported":1784447851,"current_range_meters":9200,"station_id":"ce4bho92rcd13ifvqh4g","pricing_plan_id":"cebpf4jnsgd1na2vs0mg"},{"bike_id":"59b297a3-55d0-49d1-9602-cd941ad75cb6","system_id":"levelo_inurba_marseille","lat":43.2318,"lon":5.39969,"is_reserved":false,"is_disabled":false,"rental_uris":{"android":"levelo://app?vid=59b297a3-55d0-49d1-9602-cd941ad75cb6","ios":"levelo://app?vid=59b297a3-55d0-49d1-9602-cd941ad75cb6"},"vehicle_type_id":"4","last_reported":1784447851,"current_range_meters":14000,"station_id":"ce4bhn12rcd13ifvqgqg","pricing_plan_id":"cebpf4jnsgd1na2vs0mg"},{"bike_id":"2af28104-73c7-405b-acf1-640322fd0a86","system_id":"levelo_inurba_marseille","lat":43.31045,"lon":5.39386,"is_reserved":false,"is_disabled":false,"rental_uris":{"android":"levelo://app?vid=2af28104-73c7-405b-acf1-640322fd0a86","ios":"levelo://app?vid=2af28104-73c7-405b-acf1-640322fd0a86"},"vehicle_type_id":"4","last_reported":1784447851,"current_range_meters":16000,"station_id":"","pricing_plan_id":"cebpf4jnsgd1na2vs0mg"},{"bike_id":"ad09aed7-c030-417f-a6a4-0c7aef278c1f","system_id":"levelo_inurba_marseille","lat":43.2679,"lon":5.39416,"is_reserved":false,"is_disabled":false,"rental_uris":{"android":"levelo://app?vid=ad09aed7-c030-417f-a6a4-0c7aef278c1f","ios":"levelo://app?vid=ad09aed7-c030-417f-a6a4-0c7aef278c1f"},"vehicle_type_id":"4","last_reported":1784447851,"current_range_meters":16400,"station_id":"ce4bhh12rcd13ifvqfg0","pricing_plan_id":"cebpf4jnsgd1na2vs0mg"},{"bike_id":"af9cb856-2a1a-4801-80cc-f305db9e72a7","system_id":"levelo_inurba_marseille","lat":43.25922,"lon":5.40909,"is_reserved":false,"is_disabled":false,"rental_uris":{"android":"levelo://app?vid=af9cb856-2a1a-4801-80cc-f305db9e72a7","ios":"levelo://app?vid=af9cb856-2a1a-4801-80cc-f305db9e72a7"},"vehicle_type_id":"4","last_reported":1784447851,"current_range_meters":38000,"station_id":"ce4bhm92rcd13ifvqglg","pricing_plan_id":"cebpf4jnsgd1na2vs0mg"},{"bike_id":"909f14f2-bc5d-4cda-8078-8bb897384319","system_id":"levelo_inurba_marseille","lat":43.28335,"lon":5.38069,"is_reserved":false,"is_disabled":false,"rental_uris":{"android":"levelo://app?vid=909f14f2-bc5d-4cda-8078-8bb897384319","ios":"levelo://app?vid=909f14f2-bc5d-4cda-8078-8bb897384319"},"vehicle_type_id":"4","last_reported":1784447851,"current_range_meters":27200,"station_id":"ce4bh412rcd13ifvqdr0","pricing_plan_id":"cebpf4jnsgd1na2vs0mg"},{"bike_id":"7f0c4152-4623-4a9f-821b-128ee692073e","system_id":"levelo_inurba_marseille","lat":43.28715,"lon":5.37943,"is_reserved":false,"is_disabled":false,"rental_uris":{"android":"levelo://app?vid=7f0c4152-4623-4a9f-821b-128ee692073e","ios":"levelo://app?vid=7f0c4152-4623-4a9f-821b-128ee692073e"},"vehicle_type_id":"4","last_reported":1784447851,"current_range_meters":32000,"station_id":"ce4bh9p2rcd13ifvqec0","pricing_plan_id":"cebpf4jnsgd1na2vs0mg"},{"bike_id":"bf92e73f-5ebb-482e-9b16-38b660c0b75a","system_id":"levelo_inurba_marseille","lat":43.21744,"lon":5.34602,"is_reserved":false,"is_disabled":true,"rental_uris":{"android":"levelo://app?vid=bf92e73f-5ebb-482e-9b16-38b660c0b75a","ios":"levelo://app?vid=bf92e73f-5ebb-482e-9b16-38b660c0b75a"},"vehicle_type_id":"4","last_reported":1784447851,"current_range_meters":4800,"station_id":"st_cvj6r9ubvosntc0bgbag","pricing_plan_id":"cebpf4jnsgd1na2vs0mg"},{"bike_id":"98bce0f5-25e4-4db3-b698-d3dcf6d7b213","system_id":"levelo_inurba_marseille","lat":43.24784,"lon":5.37439,"is_reserved":false,"is_disabled":false,"rental_uris":{"android":"levelo://app?vid=98bce0f5-25e4-4db3-b698-d3dcf6d7b213","ios":"levelo://app?vid=98bce0f5-25e4-4db3-b698-d3dcf6d7b213"},"vehicle_type_id":"4","last_reported":1784447851,"current_range_meters":22800,"station_id":"ce4bhgh2rcd13ifvqfb0","pricing_plan_id":"cebpf4jnsgd1na2vs0mg"},{"bike_id":"0ccdd5d1-13a3-4cc4-beee-acb9a334278d","system_id":"levelo_inurba_marseille","lat":43.23202,"lon":5.35544,"is_reserved":false,"is_disabled":false,"rental_uris":{"android":"levelo://app?vid=0ccdd5d1-13a3-4cc4-beee-acb9a334278d","ios":"levelo://app?vid=0ccdd5d1-13a3-4cc4-beee-acb9a334278d"},"vehicle_type_id":"4","last_reported":1784447851,"current_range_meters":4000,"station_id":"ce4bhu92rcd13ifvqi70","pricing_plan_id":"cebpf4jnsgd1na2vs0mg"},{"bike_id":"4e64a337-fa86-41a6-9546-34677037de80","system_id":"levelo_inurba_marseille","lat":43.31272,"lon":5.36827,"is_reserved":false,"is_disabled":false,"rental_uris":{"android":"levelo://app?vid=4e64a337-fa86-41a6-9546-34677037de80","ios":"levelo://app?vid=4e64a337-fa86-41a6-9546-34677037de80"},"vehicle_type_id":"4","last_reported":1784447851,"current_range_meters":38000,"station_id":"ce4bgl92rcd13ifvqbq0","pricing_plan_id":"cebpf4jnsgd1na2vs0mg"},{"bike_id":"65af711a-d8c8-4fc4-8cbc-dcd0786d28fa","system_id":"levelo_inurba_marseille","lat":43.28842,"lon":5.35843,"is_reserved":false,"is_disabled":true,"rental_uris":{"android":"levelo://app?vid=65af711a-d8c8-4fc4-8cbc-dcd0786d28fa","ios":"levelo://app?vid=65af711a-d8c8-4fc4-8cbc-dcd0786d28fa"},"vehicle_type_id":"4","last_reported":1784447851,"current_range_meters":21600,"station_id":"ce4bhb12rcd13ifvqem0","pricing_plan_id":"cebpf4jnsgd1na2vs0mg"},{"bike_id":"3ce46721-3bce-4a5c-a8cf-0762eca1ee9b","system_id":"levelo_inurba_marseille","lat":43.32485,"lon":5.36562,"is_reserved":false,"is_disabled":false,"rental_uris":{"android":"levelo://app?vid=3ce46721-3bce-4a5c-a8cf-0762eca1ee9b","ios":"levelo://app?vid=3ce46721-3bce-4a5c-a8cf-0762eca1ee9b"},"vehicle_type_id":"4","last_reported":1784447851,"current_range_meters":39200,"station_id":"ce4bhs12rcd13ifvqhvg","pricing_plan_id":"cebpf4jnsgd1na2vs0mg"},{"bike_id":"f0da9134-f11f-4f60-a3b4-bd91a12f57b2","system_id":"levelo_inurba_marseille","lat":43.29968,"lon":5.38768,"is_reserved":false,"is_disabled":false,"rental_uris":{"android":"levelo://app?vid=f0da9134-f11f-4f60-a3b4-bd91a12f57b2","ios":"levelo://app?vid=f0da9134-f11f-4f60-a3b4-bd91a12f57b2"},"vehicle_type_id":"4","last_reported":1784447851,"current_range_meters":17200,"station_id":"","pricing_plan_id":"cebpf4jnsgd1na2vs0mg"},{"bike_id":"bf94bbb1-0344-4a40-9e3a-5c4e2673d65c","system_id":"levelo_inurba_marseille","lat":43.29929,"lon":5.36537,"is_reserved":false,"is_disabled":false,"rental_uris":{"android":"levelo://app?vid=bf94bbb1-0344-4a40-9e3a-5c4e2673d65c","ios":"levelo://app?vid=bf94bbb1-0344-4a40-9e3a-5c4e2673d65c"},"vehicle_type_id":"4","last_reported":1784447851,"current_range_meters":32800,"station_id":"ce4bgm92rcd13ifvqbr0","pricing_plan_id":"cebpf4jnsgd1na2vs0mg"},{"bike_id":"e33e7e56-b1af-4e57-9514-4de84c42a5c6","system_id":"levelo_inurba_marseille","lat":43.23962,"lon":5.36625,"is_reserved":false,"is_disabled":true,"rental_uris":{"android":"levelo://app?vid=e33e7e56-b1af-4e57-9514-4de84c42a5c6","ios":"levelo://app?vid=e33e7e56-b1af-4e57-9514-4de84c42a5c6"},"vehicle_type_id":"4","last_reported":1784447851,"current_range_meters":22800,"station_id":"ce4bhi12rcd13ifvqfp0","pricing_plan_id":"cebpf4jnsgd1na2vs0mg"},{"bike_id":"4ebd433b-1705-421b-baca-fb84f4aded9a","system_id":"levelo_inurba_marseille","lat":43.30131,"lon":5.3988,"is_reserved":false,"is_disabled":false,"rental_uris":{"android":"levelo://app?vid=4ebd433b-1705-421b-baca-fb84f4aded9a","ios":"levelo://app?vid=4ebd433b-1705-421b-baca-fb84f4aded9a"},"vehicle_type_id":"4","last_reported":1784447851,"current_range_meters":38000,"station_id":"ce4bh0h2rcd13ifvqd40","pricing_plan_id":"cebpf4jnsgd1na2vs0mg"},{"bike_id":"75ae76fc-4dd7-4feb-9ce7-6f0960be90fd","system_id":"levelo_inurba_marseille","lat":43.28275,"lon":5.35072,"is_reserved":false,"is_disabled":false,"rental_uris":{"android":"levelo://app?vid=75ae76fc-4dd7-4feb-9ce7-6f0960be90fd","ios":"levelo://app?vid=75ae76fc-4dd7-4feb-9ce7-6f0960be90fd"},"vehicle_type_id":"4","last_reported":1784447851,"current_range_meters":35600,"station_id":"ce4bhbp2rcd13ifvqerg","pricing_plan_id":"cebpf4jnsgd1na2vs0mg"},{"bike_id":"7604574c-06cb-407e-9e16-b7858411e1bc","system_id":"levelo_inurba_marseille","lat":43.278146,"lon":5.407269,"is_reserved":false,"is_disabled":true,"rental_uris":{"android":"levelo://app?vid=7604574c-06cb-407e-9e16-b7858411e1bc","ios":"levelo://app?vid=7604574c-06cb-407e-9e16-b7858411e1bc"},"vehicle_type_id":"4","last_reported":1784447851,"current_range_meters":16400,"station_id":"ce4bhnh2rcd13ifvqgtg","pricing_plan_id":"cebpf4jnsgd1na2vs0mg"},{"bike_id":"600d3649-4b6d-473c-a715-d27921e00684","system_id":"levelo_inurba_marseille","lat":43.23198,"lon":5.35551,"is_reserved":false,"is_disabled":false,"rental_uris":{"android":"levelo://app?vid=600d3649-4b6d-473c-a715-d27921e00684","ios":"levelo://app?vid=600d3649-4b6d-473c-a715-d27921e00684"},"vehicle_type_id":"4","last_reported":1784447851,"current_range_meters":19200,"station_id":"ce4bhu92rcd13ifvqi70","pricing_plan_id":"cebpf4jnsgd1na2vs0mg"},{"bike_id":"4f5d180b-7df1-4bec-b4f8-45c82ca3cddb","system_id":"levelo_inurba_marseille","lat":43.28485,"lon":5.48385,"is_reserved":false,"is_disabled":false,"rental_uris":{"android":"levelo://app?vid=4f5d180b-7df1-4bec-b4f8-45c82ca3cddb","ios":"levelo://app?vid=4f5d180b-7df1-4bec-b4f8-45c82ca3cddb"},"vehicle_type_id":"4","last_reported":1784447851,"current_range_meters":28000,"station_id":"st_d3svhcjqgbts73a3dn0g","pricing_plan_id":"cebpf4jnsgd1na2vs0mg"},{"bike_id":"8601b829-59f8-4eab-bab2-2f8e891d8617","system_id":"levelo_inurba_marseille","lat":43.254993,"lon":5.376487,"is_reserved":false,"is_disabled":false,"rental_uris":{"android":"levelo://app?vid=8601b829-59f8-4eab-bab2-2f8e891d8617","ios":"levelo://app?vid=8601b829-59f8-4eab-bab2-2f8e891d8617"},"vehicle_type_id":"4","last_reported":1784447851,"current_range_meters":22000,"station_id":"ce4bhh12rcd13ifvqff0","pricing_plan_id":"cebpf4jnsgd1na2vs0mg"},{"bike_id":"d5b6a22c-d793-4c80-9006-ba2e06455639","system_id":"levelo_inurba_marseille","lat":43.290356,"lon":5.399741,"is_reserved":false,"is_disabled":false,"rental_uris":{"android":"levelo://app?vid=d5b6a22c-d793-4c80-9006-ba2e06455639","ios":"levelo://app?vid=d5b6a22c-d793-4c80-9006-ba2e06455639"},"vehicle_type_id":"4","last_reported":1784447851,"current_range_meters":34000,"station_id":"ce4bh392rcd13ifvqdm0","pricing_plan_id":"cebpf4jnsgd1na2vs0mg"},{"bike_id":"61eae8cb-ae43-4f8d-8019-9d934f2788a8","system_id":"levelo_inurba_marseille","lat":43.28692,"lon":5.3739,"is_reserved":false,"is_disabled":true,"rental_uris":{"android":"levelo://app?vid=61eae8cb-ae43-4f8d-8019-9d934f2788a8","ios":"levelo://app?vid=61eae8cb-ae43-4f8d-8019-9d934f2788a8"},"vehicle_type_id":"4","last_reported":1784447851,"current_range_meters":36800,"station_id":"ce4bh3p2rcd13ifvqdq0","pricing_plan_id":"cebpf4jnsgd1na2vs0mg"},{"bike_id":"81959744-4786-4515-8028-caa8a3c86e5c","system_id":"levelo_inurba_marseille","lat":43.23897,"lon":5.37457,"is_reserved":false,"is_disabled":false,"rental_uris":{"android":"levelo://app?vid=81959744-4786-4515-8028-caa8a3c86e5c","ios":"levelo://app?vid=81959744-4786-4515-8028-caa8a3c86e5c"},"vehicle_type_id":"4","last_reported":1784447851,"current_range_meters":39200,"station_id":"st_d6sm7csbq4hs73f8fpjg","pricing_plan_id":"cebpf4jnsgd1na2vs0mg"},{"bike_id":"5c86d26e-fc15-401d-adac-561cb979e7f8","system_id":"levelo_inurba_marseille","lat":43.23164,"lon":5.39996,"is_reserved":false,"is_disabled":false,"rental_uris":{"android":"levelo://app?vid=5c86d26e-fc15-401d-adac-561cb979e7f8","ios":"levelo://app?vid=5c86d26e-fc15-401d-adac-561cb979e7f8"},"vehicle_type_id":"4","last_reported":1784447851,"current_range_meters":15200,"station_id":"ce4bhn12rcd13ifvqgqg","pricing_plan_id":"cebpf4jnsgd1na2vs0mg"},{"bike_id":"26a91fcb-e18f-4c83-9039-eb8c6882e94b","system_id":"levelo_inurba_marseille","lat":43.27168,"lon":5.3628,"is_reserved":false,"is_disabled":true,"rental_uris":{"android":"levelo://app?vid=26a91fcb-e18f-4c83-9039-eb8c6882e94b","ios":"levelo://app?vid=26a91fcb-e18f-4c83-9039-eb8c6882e94b"},"vehicle_type_id":"4","last_reported":1784447851,"current_range_meters":0,"station_id":"","pricing_plan_id":"cebpf4jnsgd1na2vs0mg"},{"bike_id":"93903621-92f5-4382-8dac-b5557ae232b0","system_id":"levelo_inurba_marseille","lat":43.30214,"lon":5.36818,"is_reserved":false,"is_disabled":false,"rental_uris":{"android":"levelo://app?vid=93903621-92f5-4382-8dac-b5557ae232b0","ios":"levelo://app?vid=93903621-92f5-4382-8dac-b5557ae232b0"},"vehicle_type_id":"4","last_reported":1784447851,"current_range_meters":29600,"station_id":"","pricing_plan_id":"cebpf4jnsgd1na2vs0mg"},{"bike_id":"35f83072-8c45-49c0-9505-bd9ee9c1967c","system_id":"levelo_inurba_marseille","lat":43.30134,"lon":5.39869,"is_reserved":false,"is_disabled":false,"rental_uris":{"android":"levelo://app?vid=35f83072-8c45-49c0-9505-bd9ee9c1967c","ios":"levelo://app?vid=35f83072-8c45-49c0-9505-bd9ee9c1967c"},"vehicle_type_id":"4","last_reported":1784447851,"current_range_meters":39200,"station_id":"ce4bh0h2rcd13ifvqd40","pricing_plan_id":"cebpf4jnsgd1na2vs0mg"},{"bike_id":"9e7b599e-2368-470a-996a-9e46d15e7da0","system_id":"levelo_inurba_marseille","lat":43.25722,"lon":5.41107,"is_reserved":false,"is_disabled":false,"rental_uris":{"android":"levelo://app?vid=9e7b599e-2368-470a-996a-9e46d15e7da0","ios":"levelo://app?vid=9e7b599e-2368-470a-996a-9e46d15e7da0"},"vehicle_type_id":"4","last_reported":1784447851,"current_range_meters":38000,"station_id":"ce4bhkp2rcd13ifvqgd0","pricing_plan_id":"cebpf4jnsgd1na2vs0mg"},{"bike_id":"ae4b57fa-d019-4333-b533-6efe2c7a22cf","system_id":"levelo_inurba_marseille","lat":43.30349,"lon":5.41883,"is_reserved":false,"is_disabled":false,"rental_uris":{"android":"levelo://app?vid=ae4b57fa-d019-4333-b533-6efe2c7a22cf","ios":"levelo://app?vid=ae4b57fa-d019-4333-b533-6efe2c7a22cf"},"vehicle_type_id":"4","last_reported":1784447851,"current_range_meters":39200,"station_id":"ce4bhop2rcd13ifvqh7g","pricing_plan_id":"cebpf4jnsgd1na2vs0mg"},{"bike_id":"05a8c0cd-fa2c-4897-87bc-65b5868575e8","system_id":"levelo_inurba_marseille","lat":43.23727,"lon":5.38586,"is_reserved":false,"is_disabled":false,"rental_uris":{"android":"levelo://app?vid=05a8c0cd-fa2c-4897-87bc-65b5868575e8","ios":"levelo://app?vid=05a8c0cd-fa2c-4897-87bc-65b5868575e8"},"vehicle_type_id":"4","last_reported":1784447851,"current_range_meters":33600,"station_id":"","pricing_plan_id":"cebpf4jnsgd1na2vs0mg"},{"bike_id":"5450c789-a3b5-4b2b-b675-738dbe9d501d","system_id":"levelo_inurba_marseille","lat":43.26222,"lon":5.37461,"is_reserved":false,"is_disabled":false,"rental_uris":{"android":"levelo://app?vid=5450c789-a3b5-4b2b-b675-738dbe9d501d","ios":"levelo://app?vid=5450c789-a3b5-4b2b-b675-738dbe9d501d"},"vehicle_type_id":"4","last_reported":1784447851,"current_range_meters":39200,"station_id":"ce4bhgp2rcd13ifvqfc0","pricing_plan_id":"cebpf4jnsgd1na2vs0mg"},{"bike_id":"7ae0bf89-94c1-4ac8-bdab-62772f51f504","system_id":"levelo_inurba_marseille","lat":43.30788,"lon":5.37644,"is_reserved":false,"is_disabled":false,"rental_uris":{"android":"levelo://app?vid=7ae0bf89-94c1-4ac8-bdab-62772f51f504","ios":"levelo://app?vid=7ae0bf89-94c1-4ac8-bdab-62772f51f504"},"vehicle_type_id":"4","last_reported":1784447851,"current_range_meters":38800,"station_id":"ce4bgv92rcd13ifvqcq0","pricing_plan_id":"cebpf4jnsgd1na2vs0mg"},