{"last_updated":1745316636,"ttl":60,"version":"2.2","data":{"bikes":[{"bike_id":"eea97258-4a8a-478d-970d-ed5e4bd3c92c","system_id":"levelo_inurba_marseille","lat":43.32066,"lon":5.40984,"is_reserved":false,"is_disabled":false,"rental_uris":{"android":"levelo://app?vid=eea97258-4a8a-478d-970d-ed5e4bd3c92c","ios":"levelo://app?vid=eea97258-4a8a-478d-970d-ed5e4bd3c92c"},"vehicle_type_id":"4","last_reported":1745316636,"current_range_meters":2800,"station_id":"","pricing_plan_id":"cebpf4jnsgd1na2vs0mg"},{"bike_id":"2b82b0af-48dd-49f1-8953-b568e4166a23","system_id":"levelo_inurba_marseille","lat":43.26876,"lon":5.38584,"is_reserved":false,"is_disabled":true,"rental_uris":{"android":"levelo://app?vid=2b82b0af-48dd-49f1-8953-b568e4166a23","ios":"levelo://app?vid=2b82b0af-48dd-49f1-8953-b568e4166a23"},"vehicle_type_id":"4","last_reported":1745316636,"current_range_meters":2800,"station_id":"","pricing_plan_id":"cebpf4jnsgd1na2vs0mg"},{"bike_id":"7a06cc32-887b-446c-89b6-1ab81ecc95a8","system_id":"levelo_inurba_marseille","lat":43.31761,"lon":5.39018,"is_reserved":false,"is_disabled":false,"rental_uris":{"android":"levelo://app?vid=7a06cc32-887b-446c-89b6-1ab81ecc95a8","ios":"levelo://app?vid=7a06cc32-887b-446c-89b6-1ab81ecc95a8"},"vehicle_type_id":"4","last_reported":1745316636,"current_range_meters":2800,"station_id":"ce4bhqp2rcd13ifvqhng","pricing_plan_id":"cebpf4jnsgd1na2vs0mg"},{"bike_id":"064c53f1-c63b-4663-aa9e-24d327e3348d","system_id":"levelo_inurba_marseille","lat":43.292154,"lon":5.359723,"is_reserved":false,"is_disabled":false,"rental_uris":{"android":"levelo://app?vid=064c53f1-c63b-4663-aa9e-24d327e3348d","ios":"levelo://app?vid=064c53f1-c63b-4663-aa9e-24d327e3348d"},"vehicle_type_id":"4","last_reported":1745316636,"current_range_meters":2800,"station_id":"ce4bhb12rcd13ifvqel0","pricing_plan_id":"cebpf4jnsgd1na2vs0mg"},{"bike_id":"61db4c2d-781a-4793-977c-ce447d5c78db","system_id":"levelo_inurba_marseille","lat":43.30145,"lon":5.38068,"is_reserved":false,"is_disabled":false,"rental_uris":{"android":"levelo://app?vid=61db4c2d-781a-4793-977c-ce447d5c78db","ios":"levelo://app?vid=61db4c2d-781a-4793-977c-ce447d5c78db"},"vehicle_type_id":"4","last_reported":1745316636,"current_range_meters":3200,"station_id":"ce4bgjp2rcd13ifvqbh0","pricing_plan_id":"cebpf4jnsgd1na2vs0mg"},{"bike_id":"afcf9a1e-0a1b-425e-8676-509c93040b99","system_id":"levelo_inurba_marseille","lat":43.27493,"lon":5.42468,"is_reserved":false,"is_disabled":true,"rental_uris":{"android":"levelo://app?vid=afcf9a1e-0a1b-425e-8676-509c93040b99","ios":"levelo://app?vid=afcf9a1e-0a1b-425e-8676-509c93040b99"},"vehicle_type_id":"4","last_reported":1745316636,"current_range_meters":3600,"station_id":"ce4bhn92rcd13ifvqgrg","pricing_plan_id":"cebpf4jnsgd1na2vs0mg"},{"bike_id":"abf7db10-872f-4680-b251-1e0b85f5da23","system_id":"levelo_inurba_marseille","lat":43.31242,"lon":5.36879,"is_reserved":false,"is_disabled":false,"rental_uris":{"android":"levelo://app?vid=abf7db10-872f-4680-b251-1e0b85f5da23","ios":"levelo://app?vid=abf7db10-872f-4680-b251-1e0b85f5da23"},"vehicle_type_id":"4","last_reported":1745316636,"current_range_meters":3600,"station_id":"ce4bgl92rcd13ifvqbq0","pricing_plan_id":"cebpf4jnsgd1na2vs0mg"},{"bike_id":"f0a6360d-a956-4e28-864b-6b67eb61e52d","system_id":"levelo_inurba_marseille","lat":43.30543,"lon":5.36553,"is_reserved":false,"is_disabled":false,"rental_uris":{"android":"levelo://app?vid=f0a6360d-a956-4e28-864b-6b67eb61e52d","ios":"levelo://app?vid=f0a6360d-a956-4e28-864b-6b67eb61e52d"},"vehicle_type_id":"4","last_reported":1745316636,"current_range_meters":4000,"station_id":"ce4bgs12rcd13ifvqcag","pricing_plan_id":"cebpf4jnsgd1na2vs0mg"},{"bike_id":"e178b78a-a55f-48b3-b9df-c5e95cde5142","system_id":"levelo_inurba_marseille","lat":43.28613,"lon":5.35105,"is_reserved":false,"is_disabled":false,"rental_uris":{"android":"levelo://app?vid=e178b78a-a55f-48b3-b9df-c5e95cde5142","ios":"levelo://app?vid=e178b78a-a55f-48b3-b9df-c5e95cde5142"},"vehicle_type_id":"4","last_reported":1745316636,"current_range_meters":4400,"station_id":"ce4bhch2rcd13ifvqeug","pricing_plan_id":"cebpf4jnsgd1na2vs0mg"},{"bike_id":"c323d574-0ab5-4582-a054-717ede87c6f2","system_id":"levelo_inurba_marseille","lat":43.3054,"lon":5.36695,"is_reserved":false,"is_disabled":false,"rental_uris":{"android":"levelo://app?vid=c323d574-0ab5-4582-a054-717ede87c6f2","ios":"levelo://app?vid=c323d574-0ab5-4582-a054-717ede87c6f2"},"vehicle_type_id":"4","last_reported":1745316636,"current_range_meters":4400,"station_id":"ce4bgrp2rcd13ifvqc9g","pricing_plan_id":"cebpf4jnsgd1na2vs0mg"},{"bike_id":"93f0d5d7-6acd-44ae-a730-660ef5aa2311","system_id":"levelo_inurba_marseille","lat":43.309296,"lon":5.401392,"is_reserved":false,"is_disabled":false,"rental_uris":{"android":"levelo://app?vid=93f0d5d7-6acd-44ae-a730-660ef5aa2311","ios":"levelo://app?vid=93f0d5d7-6acd-44ae-a730-660ef5aa2311"},"vehicle_type_id":"4","last_reported":1745316636,"current_range_meters":4800,"station_id":"ce4bh3p2rcd13ifvqdp0","pricing_plan_id":"cebpf4jnsgd1na2vs0mg"},{"bike_id":"101688dc-a2f6-4b5b-9b9b-7a0e251d2d2b","system_id":"levelo_inurba_marseille","lat":43.24803,"lon":5.37459,"is_reserved":false,"is_disabled":false,"rental_uris":{"android":"levelo://app?vid=101688dc-a2f6-4b5b-9b9b-7a0e251d2d2b","ios":"levelo://app?vid=101688dc-a2f6-4b5b-9b9b-7a0e251d2d2b"},"vehicle_type_id":"4","last_reported":1745316636,"current_range_meters":4800,"station_id":"ce4bhgh2rcd13ifvqfb0","pricing_plan_id":"cebpf4jnsgd1na2vs0mg"},{"bike_id":"185b165b-64bc-4c1c-ab4c-7a441cd6a5ad","system_id":"levelo_inurba_marseille","lat":43.27077,"lon":5.42271,"is_reserved":false,"is_disabled":false,"rental_uris":{"android":"levelo://app?vid=185b165b-64bc-4c1c-ab4c-7a441cd6a5ad","ios":"levelo://app?vid=185b165b-64bc-4c1c-ab4c-7a441cd6a5ad"},"vehicle_type_id":"4","last_reported":1745316636,"current_range_meters":4800,"station_id":"ce4bhk92rcd13ifvqgb0","pricing_plan_id":"cebpf4jnsgd1na2vs0mg"},{"bike_id":"b052ef0c-d0c2-401c-ba89-42f7f5e25ea3","system_id":"levelo_inurba_marseille","lat":43.3138,"lon":5.36726,"is_reserved":false,"is_disabled":false,"rental_uris":{"android":"levelo://app?vid=b052ef0c-d0c2-401c-ba89-42f7f5e25ea3","ios":"levelo://app?vid=b052ef0c-d0c2-401c-ba89-42f7f5e25ea3"},"vehicle_type_id":"4","last_reported":1745316636,"current_range_meters":4800,"station_id":"ce4bgr92rcd13ifvqc6g","pricing_plan_id":"cebpf4jnsgd1na2vs0mg"},{"bike_id":"b1de4bb0-8e46-4ac7-81ae-394af56414c0","system_id":"levelo_inurba_marseille","lat":43.30493,"lon":5.382687,"is_reserved":false,"is_disabled":false,"rental_uris":{"android":"levelo://app?vid=b1de4bb0-8e46-4ac7-81ae-394af56414c0","ios":"levelo://app?vid=b1de4bb0-8e46-4ac7-81ae-394af56414c0"},"vehicle_type_id":"4","last_reported":1745316636,"current_range_meters":4800,"station_id":"ce4bgup2rcd13ifvqcn0","pricing_plan_id":"cebpf4jnsgd1na2vs0mg"},{"bike_id":"dd27922d-4b8c-4657-beeb-eefa896c6684","system_id":"levelo_inurba_marseille","lat":43.30949,"lon":5.39051,"is_reserved":false,"is_disabled":false,"rental_uris":{"android":"levelo://app?vid=dd27922d-4b8c-4657-beeb-eefa896c6684","ios":"levelo://app?vid=dd27922d-4b8c-4657-beeb-eefa896c6684"},"vehicle_type_id":"4","last_reported":1745316636,"current_range_meters":5600,"station_id":"ce4bgup2rcd13ifvqco0","pricing_plan_id":"cebpf4jnsgd1na2vs0mg"},{"bike_id":"08adba7b-eac3-4cfc-9923-2ccf0cc4ffef","system_id":"levelo_inurba_marseille","lat":43.24612,"lon":5.41249,"is_reserved":false,"is_disabled":false,"rental_uris":{"android":"levelo://app?vid=08adba7b-eac3-4cfc-9923-2ccf0cc4ffef","ios":"levelo://app?vid=08adba7b-eac3-4cfc-9923-2ccf0cc4ffef"},"vehicle_type_id":"4","last_reported":1745316636,"current_range_meters":6000,"station_id":"","pricing_plan_id":"cebpf4jnsgd1na2vs0mg"},{"bike_id":"9c318c01-3bc2-472d-b94d-6b4485e89fb1","system_id":"levelo_inurba_marseille","lat":43.292234,"lon":5.360534,"is_reserved":false,"is_disabled":false,"rental_uris":{"android":"levelo://app?vid=9c318c01-3bc2-472d-b94d-6b4485e89fb1","ios":"levelo://app?vid=9c318c01-3bc2-472d-b94d-6b4485e89fb1"},"vehicle_type_id":"4","last_reported":1745316636,"current_range_meters":5600,"station_id":"ce4bhbh2rcd13ifvqeqg","pricing_plan_id":"cebpf4jnsgd1na2vs0mg"},{"bike_id":"0ce8802f-a844-4e7b-84fe-de48196c37fc","system_id":"levelo_inurba_marseille","lat":43.23199,"lon":5.35552,"is_reserved":false,"is_disabled":false,"rental_uris":{"android":"levelo://app?vid=0ce8802f-a844-4e7b-84fe-de48196c37fc","ios":"levelo://app?vid=0ce8802f-a844-4e7b-84fe-de48196c37fc"},"vehicle_type_id":"4","last_reported":1745316636,"current_range_meters":5600,"station_id":"ce4bhu92rcd13ifvqi70","pricing_plan_id":"cebpf4jnsgd1na2vs0mg"},{"bike_id":"14814e23-e7ca-4cbd-ab62-fe28199760a7","system_id":"levelo_inurba_marseille","lat":43.31246,"lon":5.36856,"is_reserved":false,"is_disabled":false,"rental_uris":{"android":"levelo://app?vid=14814e23-e7ca-4cbd-ab62-fe28199760a7","ios":"levelo://app?vid=14814e23-e7ca-4cbd-ab62-fe28199760a7"},"vehicle_type_id":"4","last_reported":1745316636,"current_range_meters":6000,"station_id":"ce4bgl92rcd13ifvqbq0","pricing_plan_id":"cebpf4jnsgd1na2vs0mg"},{"bike_id":"aa398821-5d58-4a9e-9084-fe73383c714a","system_id":"levelo_inurba_marseille","lat":43.24075,"lon":5.37759,"is_reserved":false,"is_disabled":false,"rental_uris":{"android":"levelo://app?vid=aa398821-5d58-4a9e-9084-fe73383c714a","ios":"levelo://app?vid=aa398821-5d58-4a9e-9084-fe73383c714a"},"vehicle_type_id":"4","last_reported":1745316636,"current_range_meters":6400,"station_id":"ce4bhnp2rcd13ifvqgvg","pricing_plan_id":"cebpf4jnsgd1na2vs0mg"},{"bike_id":"a4899e59-b7f4-42f0-bc22-5ded4737828c","system_id":"levelo_inurba_marseille","lat":43.27996,"lon":5.41664,"is_reserved":false,"is_disabled":false,"rental_uris":{"android":"levelo://app?vid=a4899e59-b7f4-42f0-bc22-5ded4737828c","ios":"levelo://app?vid=a4899e59-b7f4-42f0-bc22-5ded4737828c"},"vehicle_type_id":"4","last_reported":1745316636,"current_range_meters":6400,"station_id":"ce4bho12rcd13ifvqh1g","pricing_plan_id":"cebpf4jnsgd1na2vs0mg"},{"bike_id":"39b82c37-d0b5-415a-8771-61fa203e2d86","system_id":"levelo_inurba_marseille","lat":43.28042,"lon":5.36943,"is_reserved":false,"is_disabled":false,"rental_uris":{"android":"levelo://app?vid=39b82c37-d0b5-415a-8771-61fa203e2d86","ios":"levelo://app?vid=39b82c37-d0b5-415a-8771-61fa203e2d86"},"vehicle_type_id":"4","last_reported":1745316636,"current_range_meters":7200,"station_id":"ce4bha12rcd13ifvqef0","pricing_plan_id":"cebpf4jnsgd1na2vs0mg"},{"bike_id":"255eaf96-5067-4c5c-a992-5999c2c43f09","system_id":"levelo_inurba_marseille","lat":43.32057,"lon":5.41563,"is_reserved":false,"is_disabled":false,"rental_uris":{"android":"levelo://app?vid=255eaf96-5067-4c5c-a992-5999c2c43f09","ios":"levelo://app?vid=255eaf96-5067-4c5c-a992-5999c2c43f09"},"vehicle_type_id":"4","last_reported":1745316636,"current_range_meters":7200,"station_id":"ce4bhq92rcd13ifvqhkg","pricing_plan_id":"cebpf4jnsgd1na2vs0mg"},{"bike_id":"2f270179-9634-4f4d-a1fa-a04d741e1174","system_id":"levelo_inurba_marseille","lat":43.28562,"lon":5.39497,"is_reserved":false,"is_disabled":false,"rental_uris":{"android":"levelo://app?vid=2f270179-9634-4f4d-a1fa-a04d741e1174","ios":"levelo://app?vid=2f270179-9634-4f4d-a1fa-a04d741e1174"},"vehicle_type_id":"4","last_reported":1745316636,"current_range_meters":6800,"station_id":"ce4bh292rcd13ifvqdg0","pricing_plan_id":"cebpf4jnsgd1na2vs0mg"},{"bike_id":"339e8e4c-0ee0-49ca-969b-7e564e570b76","system_id":"levelo_inurba_marseille","lat":43.29588,"lon":5.38122,"is_reserved":false,"is_disabled":false,"rental_uris":{"android":"levelo://app?vid=339e8e4c-0ee0-49ca-969b-7e564e570b76","ios":"levelo://app?vid=339e8e4c-0ee0-49ca-969b-7e564e570b76"},"vehicle_type_id":"4","last_reported":1745316636,"current_range_meters":6800,"station_id":"ce4bgl12rcd13ifvqbo0","pricing_plan_id":"cebpf4jnsgd1na2vs0mg"},{"bike_id":"61b9ba3e-6825-4907-97e2-a4d652040159","system_id":"levelo_inurba_marseille","lat":43.31711,"lon":5.4371,"is_reserved":false,"is_disabled":false,"rental_uris":{"android":"levelo://app?vid=61b9ba3e-6825-4907-97e2-a4d652040159","ios":"levelo://app?vid=61b9ba3e-6825-4907-97e2-a4d652040159"},"vehicle_type_id":"4","last_reported":1745316636,"current_range_meters":6800,"station_id":"ce4bhp92rcd13ifvqhcg","pricing_plan_id":"cebpf4jnsgd1na2vs0mg"},{"bike_id":"80349d4c-4a0e-48a3-a927-7fee52468c5c","system_id":"levelo_inurba_marseille","lat":43.32356,"lon":5.36747,"is_reserved":false,"is_disabled":false,"rental_uris":{"android":"levelo://app?vid=80349d4c-4a0e-48a3-a927-7fee52468c5c","ios":"levelo://app?vid=80349d4c-4a0e-48a3-a927-7fee52468c5c"},"vehicle_type_id":"4","last_reported":1745316636,"current_range_meters":8000,"station_id":"ce4bhsh2rcd13ifvqi2g","pricing_plan_id":"cebpf4jnsgd1na2vs0mg"},{"bike_id":"b70cd9c8-8bca-4011-acde-b9a4bef3b230","system_id":"levelo_inurba_marseille","lat":43.29793,"lon":5.37115,"is_reserved":false,"is_disabled":false,"rental_uris":{"android":"levelo://app?vid=b70cd9c8-8bca-4011-acde-b9a4bef3b230","ios":"levelo://app?vid=b70cd9c8-8bca-4011-acde-b9a4bef3b230"},"vehicle_type_id":"4","last_reported":1745316636,"current_range_meters":8000,"station_id":"ce4bgop2rcd13ifvqc1g","pricing_plan_id":"cebpf4jnsgd1na2vs0mg"},{"bike_id":"ea2cb81e-76fa-46a7-9509-cd9afea9de6c","system_id":"levelo_inurba_marseille","lat":43.23182,"lon":5.39983,"is_reserved":false,"is_disabled":false,"rental_uris":{"android":"levelo://app?vid=ea2cb81e-76fa-46a7-9509-cd9afea9de6c","ios":"levelo://app?vid=ea2cb81e-76fa-46a7-9509-cd9afea9de6c"},"vehicle_type_id":"4","last_reported":1745316636,"current_range_meters":8000,"station_id":"ce4bhn12rcd13ifvqgqg","pricing_plan_id":"cebpf4jnsgd1na2vs0mg"},{"bike_id":"e1743966-9138-4d25-b902-9596b7b8672a","system_id":"levelo_inurba_marseille","lat":43.30098,"lon":5.39086,"is_reserved":false,"is_disabled":true,"rental_uris":{"android":"levelo://app?vid=e1743966-9138-4d25-b902-9596b7b8672a","ios":"levelo://app?vid=e1743966-9138-4d25-b902-9596b7b8672a"},"vehicle_type_id":"4","last_reported":1745316636,"current_range_meters":8000,"station_id":"ce4bh192rcd13ifvqdb0","pricing_plan_id":"cebpf4jnsgd1na2vs0mg"},{"bike_id":"0d9629ad-207c-4e58-9c3a-d541c3efbd6d","system_id":"levelo_inurba_marseille","lat":43.305957,"lon":5.393608,"is_reserved":false,"is_disabled":false,"rental_uris":{"android":"levelo://app?vid=0d9629ad-207c-4e58-9c3a-d541c3efbd6d","ios":"levelo://app?vid=0d9629ad-207c-4e58-9c3a-d541c3efbd6d"},"vehicle_type_id":"4","last_reported":1745316636,"current_range_meters":8000,"station_id":"ce4bhpp2rcd13ifvqhfg","pricing_plan_id":"cebpf4jnsgd1na2vs0mg"},{"bike_id":"e4c6b87b-eb88-4940-a92a-12c20f4641be","system_id":"levelo_inurba_marseille","lat":43.30311,"lon":5.36899,"is_reserved":false,"is_disabled":false,"rental_uris":{"android":"levelo://app?vid=e4c6b87b-eb88-4940-a92a-12c20f4641be","ios":"levelo://app?vid=e4c6b87b-eb88-4940-a92a-12c20f4641be"},"vehicle_type_id":"4","last_reported":1745316636,"current_range_meters":8000,"station_id":"ce4bgqh2rcd13ifvqc5g","pricing_plan_id":"cebpf4jnsgd1na2vs0mg"},{"bike_id":"d808afe0-6ecf-43d5-9663-6074ebf59170","system_id":"levelo_inurba_marseille","lat":43.27205,"lon":5.39169,"is_reserved":false,"is_disabled":false,"rental_uris":{"android":"levelo://app?vid=d808afe0-6ecf-43d5-9663-6074ebf59170","ios":"levelo://app?vid=d808afe0-6ecf-43d5-9663-6074ebf59170"},"vehicle_type_id":"4","last_reported":1745316636,"current_range_meters":8000,"station_id":"ce4bhhp2rcd13ifvqfm0","pricing_plan_id":"cebpf4jnsgd1na2vs0mg"},{"bike_id":"22ad8cd8-448d-4f6e-b2fe-740f8d592dd7","system_id":"levelo_inurba_marseille","lat":43.33783,"lon":5.37437,"is_reserved":false,"is_disabled":false,"rental_uris":{"android":"levelo://app?vid=22ad8cd8-448d-4f6e-b2fe-740f8d592dd7","ios":"levelo://app?vid=22ad8cd8-448d-4f6e-b2fe-740f8d592dd7"},"vehicle_type_id":"4","last_reported":1745316636,"current_range_meters":8400,"station_id":"","pricing_plan_id":"cebpf4jnsgd1na2vs0mg"},{"bike_id":"f84aeb92-bc88-468c-8e91-798d331a8e11","system_id":"levelo_inurba_marseille","lat":43.32479,"lon":5.36552,"is_reserved":false,"is_disabled":false,"rental_uris":{"android":"levelo://app?vid=f84aeb92-bc88-468c-8e91-798d331a8e11","ios":"levelo://app?vid=f84aeb92-bc88-468c-8e91-798d331a8e11"},"vehicle_type_id":"4","last_reported":1745316636,"current_range_meters":8400,"station_id":"ce4bhs12rcd13ifvqhvg","pricing_plan_id":"cebpf4jnsgd1na2vs0mg"},{"bike_id":"474076f8-f573-40f0-a62f-ea1274f7dc66","system_id":"levelo_inurba_marseille","lat":43.23195,"lon":5.35546,"is_reserved":false,"is_disabled":false,"rental_uris":{"android":"levelo://app?vid=474076f8-f573-40f0-a62f-ea1274f7dc66","ios":"levelo://app?vid=474076f8-f573-40f0-a62f-ea1274f7dc66"},"vehicle_type_id":"4","last_reported":1745316636,"current_range_meters":8400,"station_id":"ce4bhu92rcd13ifvqi70","pricing_plan_id":"cebpf4jnsgd1na2vs0mg"},{"bike_id":"4daf293c-27fa-4fd3-9732-b781377f0dd2","system_id":"levelo_inurba_marseille","lat":43.31539,"lon":5.38028,"is_reserved":false,"is_disabled":true,"rental_uris":{"android":"levelo://app?vid=4daf293c-27fa-4fd3-9732-b781377f0dd2","ios":"levelo://app?vid=4daf293c-27fa-4fd3-9732-b781377f0dd2"},"vehicle_type_id":"4","last_reported":1745316636,"current_range_meters":8400,"station_id":"ce4bhsp2rcd13ifvqi50","pricing_plan_id":"cebpf4jnsgd1na2vs0mg"},{"bike_id":"b679baca-1a27-45f5-8121-7e4ef814de23","system_id":"levelo_inurba_marseille","lat":43.29256,"lon":5.3844,"is_reserved":false,"is_disabled":false,"rental_uris":{"android":"levelo://app?vid=b679baca-1a27-45f5-8121-7e4ef814de23","ios":"levelo://app?vid=b679baca-1a27-45f5-8121-7e4ef814de23"},"vehicle_type_id":"4","last_reported":1745316636,"current_range_meters":8400,"station_id":"ce4bh692rcd13ifvqea0","pricing_plan_id":"cebpf4jnsgd1na2vs0mg"},{"bike_id":"244b935e-066c-44b1-a7ef-a86d596a004b","system_id":"levelo_inurba_marseille","lat":43.3363,"lon":5.4104,"is_reserved":false,"is_disabled":false,"rental_uris":{"android":"levelo://app?vid=244b935e-066c-44b1-a7ef-a86d596a004b","ios":"levelo://app?vid=244b935e-066c-44b1-a7ef-a86d596a004b"},"vehicle_type_id":"4","last_reported":1745316636,"current_range_meters":8400,"station_id":"ce4bhqh2rcd13ifvqhmg","pricing_plan_id":"cebpf4jnsgd1na2vs0mg"},{"bike_id":"1c755526-7610-4241-9257-348acde561d3","system_id":"levelo_inurba_marseille","lat":43.24859,"lon":5.38205,"is_reserved":false,"is_disabled":false,"rental_uris":{"android":"levelo://app?vid=1c755526-7610-4241-9257-348acde561d3","ios":"levelo://app?vid=1c755526-7610-4241-9257-348acde561d3"},"vehicle_type_id":"4","last_reported":1745316636,"current_range_meters":8800,"station_id":"","pricing_plan_id":"cebpf4jnsgd1na2vs0mg"},{"bike_id":"6efbea2d-5eb1-4a4a-8c84-47a375f78190","system_id":"levelo_inurba_marseille","lat":43.29873,"lon":5.38917,"is_reserved":false,"is_disabled":true,"rental_uris":{"android":"levelo://app?vid=6efbea2d-5eb1-4a4a-8c84-47a375f78190","ios":"levelo://app?vid=6efbea2d-5eb1-4a4a-8c84-47a375f78190"},"vehicle_type_id":"4","last_reported":1745316636,"current_range_meters":8800,"station_id":"ce4bh392rcd13ifvqdl0","pricing_plan_id":"cebpf4jnsgd1na2vs0mg"},{"bike_id":"c48400a6-1446-495a-8b96-ab305ce2422b","system_id":"levelo_inurba_marseille","lat":43.31488,"lon":5.373,"is_reserved":false,"is_disabled":false,"rental_uris":{"android":"levelo://app?vid=c48400a6-1446-495a-8b96-ab305ce2422b","ios":"levelo://app?vid=c48400a6-1446-495a-8b96-ab305ce2422b"},"vehicle_type_id":"4","last_reported":1745316636,"current_range_meters":8800,"station_id":"ce4bgt12rcd13ifvqcd0","pricing_plan_id":"cebpf4jnsgd1na2vs0mg"},{"bike_id":"028ddb9f-8a34-4b2d-8731-085a9dff5867","system_id":"levelo_inurba_marseille","lat":43.27811,"lon":5.40709,"is_reserved":false,"is_disabled":false,"rental_uris":{"android":"levelo://app?vid=028ddb9f-8a34-4b2d-8731-085a9dff5867","ios":"levelo://app?vid=028ddb9f-8a34-4b2d-8731-085a9dff5867"},"vehicle_type_id":"4","last_reported":1745316636,"current_range_meters":8800,"station_id":"ce4bhnh2rcd13ifvqgtg","pricing_plan_id":"cebpf4jnsgd1na2vs0mg"},{"bike_id":"ed03eaaf-5a02-4fb8-9e2e-00e12163f0cd","system_id":"levelo_inurba_marseille","lat":43.29265,"lon":5.38436,"is_reserved":false,"is_disabled":false,"rental_uris":{"android":"levelo://app?vid=ed03eaaf-5a02-4fb8-9e2e-00e12163f0cd","ios":"levelo://app?vid=ed03eaaf-5a02-4fb8-9e2e-00e12163f0cd"},"vehicle_type_id":"4","last_reported":1745316636,"current_range_meters":9200,"station_id":"ce4bh692rcd13ifvqea0","pricing_plan_id":"cebpf4jnsgd1na2vs0mg"},{"bike_id":"31b5e25a-52e0-4bbb-8eb4-6fcf4d3d7066","system_id":"levelo_inurba_marseille","lat":43.30733,"lon":5.42435,"is_reserved":false,"is_disabled":false,"rental_uris":{"android":"levelo://app?vid=31b5e25a-52e0-4bbb-8eb4-6fcf4d3d7066","ios":"levelo://app?vid=31b5e25a-52e0-4bbb-8eb4-6fcf4d3d7066"},"vehicle_type_id":"4","last_reported":1745316636,"current_range_meters":9200,"station_id":"st_cvj6ca6bvosntc0bfgr0","pricing_plan_id":"cebpf4jnsgd1na2vs0mg"},{"bike_id":"a209ca8d-986f-46aa-a525-503b53c21f78","system_id":"levelo_inurba_marseille","lat":43.29172,"lon":5.37165,"is_reserved":false,"is_disabled":false,"rental_uris":{"android":"levelo://app?vid=a209ca8d-986f-46aa-a525-503b53c21f78","ios":"levelo://app?vid=a209ca8d-986f-46aa-a525-503b53c21f78"},"vehicle_type_id":"4","last_reported":1745316636,"current_range_meters":8800,"station_id":"ce4bha92rcd13ifvqeh0","pricing_plan_id":"cebpf4jnsgd1na2vs0mg"},{"bike_id":"b55dde21-2479-441c-8f69-9ece14786f92","system_id":"levelo_inurba_marseille","lat":43.27671,"lon":5.38885,"is_reserved":false,"is_disabled":false,"rental_uris":{"android":"levelo://app?vid=b55dde21-2479-441c-8f69-9ece14786f92","ios":"levelo://app?vid=b55dde21-2479-441c-8f69-9ece14786f92"},"vehicle_type_id":"4","last_reported":1745316636,"current_range_meters":9200,"station_id":"ce4bhi12rcd13ifvqfo0","pricing_plan_id":"cebpf4jnsgd1na2vs0mg"},{"bike_id":"7f80a2d9-4ebb-4ee1-9089-da17b50be851","system_id":"levelo_inurba_marseille","lat":43.29532,"lon":5.37505,"is_reserved":false,"is_disabled":false,"rental_uris":{"android":"levelo://app?vid=7f80a2d9-4ebb-4ee1-9089-da17b50be851","ios":"levelo://app?vid=7f80a2d9-4ebb-4ee1-9089-da17b50be851"},"vehicle_type_id":"4","last_reported":1745316636,"current_range_meters":9200,"station_id":"ce4bgkp2rcd13ifvqbmg","pricing_plan_id":"cebpf4jnsgd1na2vs0mg"},{"bike_id":"2dc4e79a-33a8-48b0-bf03-f6328f1dc1f6","system_id":"levelo_inurba_marseille","lat":43.32371,"lon":5.38877,"is_reserved":false,"is_disabled":true,"rental_uris":{"android":"levelo://app?vid=2dc4e79a-33a8-48b0-bf03-f6328f1dc1f6","ios":"levelo://app?vid=2dc4e79a-33a8-48b0-bf03-f6328f1dc1f6"},"vehicle_type_id":"4","last_reported":1745316636,"current_range_meters":10800,"station_id":"ce4bhqp2rcd13ifvqhog","pricing_plan_id":"cebpf4jnsgd1na2vs0mg"},{"bike_id":"d245cf97-d2b5-44e9-978e-8dcfd3a493e8","system_id":"levelo_inurba_marseille","lat":43.33079,"lon":5.39025,"is_reserved":false,"is_disabled":false,"rental_uris":{"android":"levelo://app?vid=d245cf97-d2b5-44e9-978e-8dcfd3a493e8","ios":"levelo://app?vid=d245cf97-d2b5-44e9-978e-8dcfd3a493e8"},"vehicle_type_id":"4","last_reported":1745316636,"current_range_meters":10000,"station_id":"","pricing_plan_id":"cebpf4jnsgd1na2vs0mg"},{"bike_id":"66b521fb-d57d-4e8e-b47b-c7248ee9d532","system_id":"levelo_inurba_marseille","lat":43.29192,"lon":5.39316,"is_reserved":false,"is_disabled":false,"rental_uris":{"android":"levelo://app?vid=66b521fb-d57d-4e8e-b47b-c7248ee9d532","ios":"levelo://app?vid=66b521fb-d57d-4e8e-b47b-c7248ee9d532"},"vehicle_type_id":"4","last_reported":1745316636,"current_range_meters":10000,"station_id":"ce4bh192rcd13ifvqdd0","pricing_plan_id":"cebpf4jnsgd1na2vs0mg"},{"bike_id":"ef08c711-86e8-497e-bfa3-bf69c7589dac","system_id":"levelo_inurba_marseille","lat":43.23155,"lon":5.43717,"is_reserved":false,"is_disabled":false,"rental_uris":{"android":"levelo://app?vid=ef08c711-86e8-497e-bfa3-bf69c7589dac","ios":"levelo://app?vid=ef08c711-86e8-497e-bfa3-bf69c7589dac"},"vehicle_type_id":"4","last_reported":1745316636,"current_range_meters":10000,"station_id":"ce4bhmp2rcd13ifvqgog","pricing_plan_id":"cebpf4jnsgd1na2vs0mg"},{"bike_id":"1aabe5c9-09ca-44d1-bb3a-8c93e9abfee7","system_id":"levelo_inurba_marseille","lat":43.32362,"lon":5.36777,"is_reserved":false,"is_disabled":false,"rental_uris":{"android":"levelo://app?vid=1aabe5c9-09ca-44d1-bb3a-8c93e9abfee7","ios":"levelo://app?vid=1aabe5c9-09ca-44d1-bb3a-8c93e9abfee7"},"vehicle_type_id":"4","last_reported":1745316636,"current_range_meters":10800,"station_id":"ce4bhsh2rcd13ifvqi2g","pricing_plan_id":"cebpf4jnsgd1na2vs0mg"},{"bike_id":"d7a59dbc-3276-4c4b-ba4e-7c1cefcd576d","system_id":"levelo_inurba_marseille","lat":43.29267,"lon":5.38438,"is_reserved":false,"is_disabled":false,"rental_uris":{"android":"levelo://app?vid=d7a59dbc-3276-4c4b-ba4e-7c1cefcd576d","ios":"levelo://app?vid=d7a59dbc-3276-4c4b-ba4e-7c1cefcd576d"},"vehicle_type_id":"4","last_reported":1745316636,"current_range_meters":10800,"station_id":"ce4bh692rcd13ifvqea0","pricing_plan_id":"cebpf4jnsgd1na2vs0mg"},{"bike_id":"c542201a-7b6a-426f-a19c-60c9894534b2","system_id":"levelo_inurba_marseille","lat":43.30291,"lon":5.37699,"is_reserved":false,"is_disabled":false,"rental_uris":{"android":"levelo://app?vid=c542201a-7b6a-426f-a19c-60c9894534b2","ios":"levelo://app?vid=c542201a-7b6a-426f-a19c-60c9894534b2"},"vehicle_type_id":"4","last_reported":1745316636,"current_range_meters":10800,"station_id":"ce4bguh2rcd13ifvqcj0","pricing_plan_id":"cebpf4jnsgd1na2vs0mg"},{"bike_id":"9f585fe3-b70d-4559-ba1a-68ecd9aaad4e","system_id":"levelo_inurba_marseille","lat":43.26028,"lon":5.37548,"is_reserved":false,"is_disabled":false,"rental_uris":{"android":"levelo://app?vid=9f585fe3-b70d-4559-ba1a-68ecd9aaad4e","ios":"levelo://app?vid=9f585fe3-b70d-4559-ba1a-68ecd9aaad4e"},"vehicle_type_id":"4","last_reported":1745316636,"current_range_meters":10800,"station_id":"ce4bhgh2rcd13ifvqfa0","pricing_plan_id":"cebpf4jnsgd1na2vs0mg"},{"bike_id":"bb57a12c-052f-4c1e-a895-646cb049cb0a","system_id":"levelo_inurba_marseille","lat":43.30154,"lon":5.38086,"is_reserved":false,"is_disabled":false,"rental_uris":{"android":"levelo://app?vid=bb57a12c-052f-4c1e-a895-646cb049cb0a","ios":"levelo://app?vid=bb57a12c-052f-4c1e-a895-646cb049cb0a"},"vehicle_type_id":"4","last_reported":1745316636,"current_range_meters":10800,"station_id":"ce4bgjp2rcd13ifvqbh0","pricing_plan_id":"cebpf4jnsgd1na2vs0mg"},{"bike_id":"04b6c48d-8234-4ed6-9f6d-b970a118785f","system_id":"levelo_inurba_marseille","lat":43.279883,"lon":5.38741,"is_reserved":false,"is_disabled":false,"rental_uris":{"android":"levelo://app?vid=04b6c48d-8234-4ed6-9f6d-b970a118785f","ios":"levelo://app?vid=04b6c48d-8234-4ed6-9f6d-b970a118785f"},"vehicle_type_id":"4","last_reported":1745316636,"current_range_meters":10800,"station_id":"ce4bgqh2rcd13ifvqc4g","pricing_plan_id":"cebpf4jnsgd1na2vs0mg"},{"bike_id":"b373a9fc-b19f-49e6-9414-e3e614041e34","system_id":"levelo_inurba_marseille","lat":43.27078,"lon":5.42268,"is_reserved":false,"is_disabled":true,"rental_uris":{"android":"levelo://app?vid=b373a9fc-b19f-49e6-9414-e3e614041e34","ios":"levelo://app?vid=b373a9fc-b19f-49e6-9414-e3e614041e34"},"vehicle_type_id":"4","last_reported":1745316636,"current_range_meters":11200,"station_id":"ce4bhk92rcd13ifvqgb0","pricing_plan_id":"cebpf4jnsgd1na2vs0mg"},{"bike_id":"f6f2c33e-fc8b-491c-80dd-0a434c323909","system_id":"levelo_inurba_marseille","lat":43.28474,"lon":5.38402,"is_reserved":false,"is_disabled":false,"rental_uris":{"android":"levelo://app?vid=f6f2c33e-fc8b-491c-80dd-0a434c323909","ios":"levelo://app?vid=f6f2c33e-fc8b-491c-80dd-0a434c323909"},"vehicle_type_id":"4","last_reported":1745316636,"current_range_meters":10800,"station_id":"ce4bh512rcd13ifvqe3g","pricing_plan_id":"cebpf4jnsgd1na2vs0mg"},{"bike_id":"66d7bbf0-034c-4f77-b770-9b99db44a450","system_id":"levelo_inurba_marseille","lat":43.30797,"lon":5.38159,"is_reserved":false,"is_disabled":false,"rental_uris":{"android":"levelo://app?vid=66d7bbf0-034c-4f77-b770-9b99db44a450","ios":"levelo://app?vid=66d7bbf0-034c-4f77-b770-9b99db44a450"},"vehicle_type_id":"4","last_reported":1745316636,"current_range_meters":11600,"station_id":"ce4bgt12rcd13ifvqce0","pricing_plan_id":"cebpf4jnsgd1na2vs0mg"},{"bike_id":"ab42dd67-f4f1-40b1-b1e5-204097b732be","system_id":"levelo_inurba_marseille","lat":43.31162,"lon":5.38714,"is_reserved":false,"is_disabled":false,"rental_uris":{"android":"levelo://app?vid=ab42dd67-f4f1-40b1-b1e5-204097b732be","ios":"levelo://app?vid=ab42dd67-f4f1-40b1-b1e5-204097b732be"},"vehicle_type_id":"4","last_reported":1745316636,"current_range_meters":12000,"station_id":"ce4bgv12rcd13ifvqcp0","pricing_plan_id":"cebpf4jnsgd1na2vs0mg"},{"bike_id":"8f5260d3-d144-46b4-9a0d-6f26e16ce215","system_id":"levelo_inurba_marseille","lat":43.29893,"lon":5.43652,"is_reserved":false,"is_disabled":false,"rental_uris":{"android":"levelo://app?vid=8f5260d3-d144-46b4-9a0d-6f26e16ce215","ios":"levelo://app?vid=8f5260d3-d144-46b4-9a0d-6f26e16ce215"},"vehicle_type_id":"4","last_reported":1745316636,"current_range_meters":12000,"station_id":"ce4bhpp2rcd13ifvqhfg","pricing_plan_id":"cebpf4jnsgd1na2vs0mg"},{"bike_id":"9d760c68-97e8-41c4-87cf-d203007912d3","system_id":"levelo_inurba_marseille","lat":43.21198,"lon":5.35066,"is_reserved":false,"is_disabled":false,"rental_uris":{"android":"levelo://app?vid=9d760c68-97e8-41c4-87cf-d203007912d3","ios":"levelo://app?vid=9d760c68-97e8-41c4-87cf-d203007912d3"},"vehicle_type_id":"4","last_reported":1745316636,"current_range_meters":12400,"station_id":"st_cvj6sg6p6f1abm77japg","pricing_plan_id":"cebpf4jnsgd1na2vs0mg"},{"bike_id":"84d53afc-570e-4710-be21-8912352f92df","system_id":"levelo_inurba_marseille","lat":43.30955,"lon":5.36775,"is_reserved":false,"is_disabled":false,"rental_uris":{"android":"levelo://app?vid=84d53afc-570e-4710-be21-8912352f92df","ios":"levelo://app?vid=84d53afc-570e-4710-be21-8912352f92df"},"vehicle_type_id":"4","last_reported":1745316636,"current_range_meters":12400,"station_id":"","pricing_plan_id":"cebpf4jnsgd1na2vs0mg"},{"bike_id":"355aff8c-c63e-4e62-b762-e0bbccfdc381","system_id":"levelo_inurba_marseille","lat":43.30597,"lon":5.37231,"is_reserved":false,"is_disabled":false,"rental_uris":{"android":"levelo://app?vid=355aff8c-c63e-4e62-b762-e0bbccfdc381","ios":"levelo://app?vid=355aff8c-c63e-4e62-b762-e0bbccfdc381"},"vehicle_type_id":"4","last_reported":1745316636,"current_range_meters":12400,"station_id":"ce4bgqh2rcd13ifvqc4g","pricing_plan_id":"cebpf4jnsgd1na2vs0mg"},{"bike_id":"1b1e3a41-7e15-4148-af39-ed81dca61100","system_id":"levelo_inurba_marseille","lat":43.27666,"lon":5.38892,"is_reserved":false,"is_disabled":false,"rental_uris":{"android":"levelo://app?vid=1b1e3a41-7e15-4148-af39-ed81dca61100","ios":"levelo://app?vid=1b1e3a41-7e15-4148-af39-ed81dca61100"},"vehicle_type_id":"4","last_reported":1745316636,"current_range_meters":12800,"station_id":"ce4bhi12rcd13ifvqfo0","pricing_plan_id":"cebpf4jnsgd1na2vs0mg"},{"bike_id":"12505a0a-b14f-4f59-9be1-55ce43130db1","system_id":"levelo_inurba_marseille","lat":43.296,"lon":5.38099,"is_reserved":false,"is_disabled":true,"rental_uris":{"android":"levelo://app?vid=12505a0a-b14f-4f59-9be1-55ce43130db1","ios":"levelo://app?vid=12505a0a-b14f-4f59-9be1-55ce43130db1"},"vehicle_type_id":"4","last_reported":1745316636,"current_range_meters":12800,"station_id":"ce4bgl12rcd13ifvqbo0","pricing_plan_id":"cebpf4jnsgd1na2vs0mg"},{"bike_id":"47768a28-4fff-4fc1-b4c4-b5ec8d452deb","system_id":"levelo_inurba_marseille","lat":43.29604,"lon":5.38081,"is_reserved":false,"is_disabled":true,"rental_uris":{"android":"levelo://app?vid=47768a28-4fff-4fc1-b4c4-b5ec8d452deb","ios":"levelo://app?vid=47768a28-4fff-4fc1-b4c4-b5ec8d452deb"},"vehicle_type_id":"4","last_reported":1745316636,"current_range_meters":12800,"station_id":"ce4bgl12rcd13ifvqbo0","pricing_plan_id":"cebpf4jnsgd1na2vs0mg"},{"bike_id":"d7ec321a-0114-4fe4-8fe1-df3a4e0bc6fb","system_id":"levelo_inurba_marseille","lat":43.30327,"lon":5.40426,"is_reserved":false,"is_disabled":false,"rental_uris":{"android":"levelo://app?vid=d7ec321a-0114-4fe4-8fe1-df3a4e0bc6fb","ios":"levelo://app?vid=d7ec321a-0114-4fe4-8fe1-df3a4e0bc6fb"},"vehicle_type_id":"4","last_reported":1745316636,"current_range_meters":12400,"station_id":"ce4bh012rcd13ifvqd10","pricing_plan_id":"cebpf4jnsgd1na2vs0mg"},{"bike_id":"abf6ba76-189c-4b58-a0a5-4ba1019ff5f8","system_id":"levelo_inurba_marseille","lat":43.284138,"lon":5.374923,"is_reserved":false,"is_disabled":false,"rental_uris":{"android":"levelo://app?vid=abf6ba76-189c-4b58-a0a5-4ba1019ff5f8","ios":"levelo://app?vid=abf6ba76-189c-4b58-a0a5-4ba1019ff5f8"},"vehicle_type_id":"4","last_reported":1745316636,"current_range_meters":13600,"station_id":"ce4bh412rcd13ifvqds0","pricing_plan_id":"cebpf4jnsgd1na2vs0mg"},{"bike_id":"b932ebbc-de5a-4676-a54b-a147dad71904","system_id":"levelo_inurba_marseille","lat":43.2707,"lon":5.42274,"is_reserved":false,"is_disabled":false,"rental_uris":{"android":"levelo://app?vid=b932ebbc-de5a-4676-a54b-a147dad71904","ios":"levelo://app?vid=b932ebbc-de5a-4676-a54b-a147dad71904"},"vehicle_type_id":"4","last_reported":1745316636,"current_range_meters":13600,"station_id":"ce4bhk92rcd13ifvqgb0","pricing_plan_id":"cebpf4jnsgd1na2vs0mg"},{"bike_id":"f25d8672-7640-4033-8cc4-f80944c4dd44","system_id":"levelo_inurba_marseille","lat":43.27224,"lon":5.40114,"is_reserved":false,"is_disabled":false,"rental_uris":{"android":"levelo://app?vid=f25d8672-7640-4033-8cc4-f80944c4dd44","ios":"levelo://app?vid=f25d8672-7640-4033-8cc4-f80944c4dd44"},"vehicle_type_id":"4","last_reported":1745316636,"current_range_meters":14000,"station_id":"","pricing_plan_id":"cebpf4jnsgd1na2vs0mg"},{"bike_id":"a756bae3-49c1-4d6c-89e8-fcb7b0e7d2e2","system_id":"levelo_inurba_marseille","lat":43.29044,"lon":5.35907,"is_reserved":false,"is_disabled":true,"rental_uris":{"android":"levelo://app?vid=a756bae3-49c1-4d6c-89e8-fcb7b0e7d2e2","ios":"levelo://app?vid=a756bae3-49c1-4d6c-89e8-fcb7b0e7d2e2"},"vehicle_type_id":"4","last_reported":1745316636,"current_range_meters":14000,"station_id":"ce4bha92rcd13ifvqeg0","pricing_plan_id":"cebpf4jnsgd1na2vs0mg"},{"bike_id":"41cd4d50-3bdd-4fa7-b5d1-d715f5a540e6","system_id":"levelo_inurba_marseille","lat":43.323603,"lon":5.367768,"is_reserved":false,"is_disabled":false,"rental_uris":{"android":"levelo://app?vid=41cd4d50-3bdd-4fa7-b5d1-d715f5a540e6","ios":"levelo://app?vid=41cd4d50-3bdd-4fa7-b5d1-d715f5a540e6"},"vehicle_type_id":"4","last_reported":1745316636,"current_range_meters":14000,"station_id":"ce4bhsh2rcd13ifvqi2g","pricing_plan_id":"cebpf4jnsgd1na2vs0mg"},{"bike_id":"8a4d7d49-48b0-4249-b360-81a357a9a5a8","system_id":"levelo_inurba_marseille","lat":43.27074,"lon":5.42284,"is_reserved":false,"is_disabled":false,"rental_uris":{"android":"levelo://app?vid=8a4d7d49-48b0-4249-b360-81a357a9a5a8","ios":"levelo://app?vid=8a4d7d49-48b0-4249-b360-81a357a9a5a8"},"vehicle_type_id":"4","last_reported":1745316636,"current_range_meters":14400,"station_id":"ce4bhk92rcd13ifvqgb0","pricing_plan_id":"cebpf4jnsgd1na2vs0mg"},{"bike_id":"013b0bba-3a8e-4176-aec5-9b030be1a006","system_id":"levelo_inurba_marseille","lat":43.31731,"lon":5.37776,"is_reserved":false,"is_disabled":false,"rental_uris":{"android":"levelo://app?vid=013b0bba-3a8e-4176-aec5-9b030be1a006","ios":"levelo://app?vid=013b0bba-3a8e-4176-aec5-9b030be1a006"},"vehicle_type_id":"4","last_reported":1745316636,"current_range_meters":14800,"station_id":"ce4bgth2rcd13ifvqch0","pricing_plan_id":"cebpf4jnsgd1na2vs0mg"},{"bike_id":"e622eb04-684a-46b1-a92d-f661ecd3824d","system_id":"levelo_inurba_marseille","lat":43.298,"lon":5.40396,"is_reserved":false,"is_disabled":false,"rental_uris":{"android":"levelo://app?vid=e622eb04-684a-46b1-a92d-f661ecd3824d","ios":"levelo://app?vid=e622eb04-684a-46b1-a92d-f661ecd3824d"},"vehicle_type_id":"4","last_reported":1745316636,"current_range_meters":16000,"station_id":"ce4bh112rcd13ifvqd90","pricing_plan_id":"cebpf4jnsgd1na2vs0mg"},{"bike_id":"d5fa6a7e-ae6f-48cd-8dc8-6ec1473fc099","system_id":"levelo_inurba_marseille","lat":43.313457,"lon":5.367087,"is_reserved":false,"is_disabled":true,"rental_uris":{"android":"levelo://app?vid=d5fa6a7e-ae6f-48cd-8dc8-6ec1473fc099","ios":"levelo://app?vid=d5fa6a7e-ae6f-48cd-8dc8-6ec1473fc099"},"vehicle_type_id":"4","last_reported":1745316636,"current_range_meters":16000,"station_id":"","pricing_plan_id":"cebpf4jnsgd1na2vs0mg"},{"bike_id":"8a2ea4fb-4d3c-40c9-9f2e-80283ed928c7","system_id":"levelo_inurba_marseille","lat":43.27675,"lon":5.38909,"is_reserved":false,"is_disabled":false,"rental_uris":{"android":"levelo://app?vid=8a2ea4fb-4d3c-40c9-9f2e-80283ed928c7","ios":"levelo://app?vid=8a2ea4fb-4d3c-40c9-9f2e-80283ed928c7"},"vehicle_type_id":"4","last_reported":1745316636,"current_range_meters":16400,"station_id":"ce4bhi12rcd13ifvqfo0","pricing_plan_id":"cebpf4jnsgd1na2vs0mg"},{"bike_id":"7d488a36-5b8c-4f9f-bf2f-1d1e82967074","system_id":"levelo_inurba_marseille","lat":43.27065,"lon":5.40251,"is_reserved":false,"is_disabled":false,"rental_uris":{"android":"levelo://app?vid=7d488a36-5b8c-4f9f-bf2f-1d1e82967074","ios":"levelo://app?vid=7d488a36-5b8c-4f9f-bf2f-1d1e82967074"},"vehicle_type_id":"4","last_reported":1745316636,"current_range_meters":16400,"station_id":"ce4bhk92rcd13ifvqgc0","pricing_plan_id":"cebpf4jnsgd1na2vs0mg"},{"bike_id":"5497a27a-96cc-475f-a3a3-e9185f3b1b94","system_id":"levelo_inurba_marseille","lat":43.313538,"lon":5.384847,"is_reserved":false,"is_disabled":false,"rental_uris":{"android":"levelo://app?vid=5497a27a-96cc-475f-a3a3-e9185f3b1b94","ios":"levelo://app?vid=5497a27a-96cc-475f-a3a3-e9185f3b1b94"},"vehicle_type_id":"4","last_reported":1745316636,"current_range_meters":16400,"station_id":"ce4bgt92rcd13ifvqcf0","pricing_plan_id":"cebpf4jnsgd1na2vs0mg"},{"bike_id":"2b4c99a8-9f0e-4e8d-bf39-2ace93ff3d9d","system_id":"levelo_inurba_marseille","lat":43.22933,"lon":5.35375,"is_reserved":false,"is_disabled":false,"rental_uris":{"android":"levelo://app?vid=2b4c99a8-9f0e-4e8d-bf39-2ace93ff3d9d","ios":"levelo://app?vid=2b4c99a8-9f0e-4e8d-bf39-2ace93ff3d9d"},"vehicle_type_id":"4","last_reported":1745316636,"current_range_meters":16400,"station_id":"cpo3532slgdg3j2ikp40","pricing_plan_id":"cebpf4jnsgd1na2vs0mg"},{"bike_id":"eddf388e-8873-45ba-ad33-881fd27c608c","system_id":"levelo_inurba_marseille","lat":43.29298,"lon":5.37439,"is_reserved":false,"is_disabled":true,"rental_uris":{"android":"levelo://app?vid=eddf388e-8873-45ba-ad33-881fd27c608c","ios":"levelo://app?vid=eddf388e-8873-45ba-ad33-881fd27c608c"},"vehicle_type_id":"4","last_reported":1745316636,"current_range_meters":16800,"station_id":"ce4bgi12rcd13ifvqb70","pricing_plan_id":"cebpf4jnsgd1na2vs0mg"},{"bike_id":"ee70cc86-98e0-481c-ac2d-b40276d4aa24","system_id":"levelo_inurba_marseille","lat":43.30476,"lon":5.37879,"is_reserved":false,"is_disabled":false,"rental_uris":{"android":"levelo://app?vid=ee70cc86-98e0-481c-ac2d-b40276d4aa24","ios":"levelo://app?vid=ee70cc86-98e0-481c-ac2d-b40276d4aa24"},"vehicle_type_id":"4","last_reported":1745316636,"current_range_meters":17200,"station_id":"ce4bgup2rcd13ifvqcn0","pricing_plan_id":"cebpf4jnsgd1na2vs0mg"},{"bike_id":"fa97ea08-143d-4d75-a9ca-1ab5c399f989","system_id":"levelo_inurba_marseille","lat":43.28617,"lon":5.37048,"is_reserved":false,"is_disabled":false,"rental_uris":{"android":"levelo://app?vid=fa97ea08-143d-4d75-a9ca-1ab5c399f989","ios":"levelo://app?vid=fa97ea08-143d-4d75-a9ca-1ab5c399f989"},"vehicle_type_id":"4","last_reported":1745316636,"current_range_meters":17200,"station_id":"ce4bht12rcd13ifvqi60","pricing_plan_id":"cebpf4jnsgd1na2vs0mg"},{"bike_id":"bcbf295f-e810-492e-b860-585eb03b6e63","system_id":"levelo_inurba_marseille","lat":43.30108,"lon":5.39087,"is_reserved":false,"is_disabled":true,"rental_uris":{"android":"levelo://app?vid=bcbf295f-e810-492e-b860-585eb03b6e63","ios":"levelo://app?vid=bcbf295f-e810-492e-b860-585eb03b6e63"},"vehicle_type_id":"4","last_reported":1745316636,"current_range_meters":17200,"station_id":"ce4bh192rcd13ifvqdb0","pricing_plan_id":"cebpf4jnsgd1na2vs0mg"},{"bike_id":"3ca8e96f-58b1-4242-a9e1-72c4627cc3ef","system_id":"levelo_inurba_marseille","lat":43.279375,"lon":5.41042,"is_reserved":false,"is_disabled":false,"rental_uris":{"android":"levelo://app?vid=3ca8e96f-58b1-4242-a9e1-72c4627cc3ef","ios":"levelo://app?vid=3ca8e96f-58b1-4242-a9e1-72c4627cc3ef"},"vehicle_type_id":"4","last_reported":1745316636,"current_range_meters":17200,"station_id":"ce4bhnp2rcd13ifvqh0g","pricing_plan_id":"cebpf4jnsgd1na2vs0mg"},{"bike_id":"584387b4-187d-4f80-b338-fcdc107989ef","system_id":"levelo_inurba_marseille","lat":43.247374,"lon":5.411639,"is_reserved":false,"is_disabled":false,"rental_uris":{"android":"levelo://app?vid=584387b4-187d-4f80-b338-fcdc107989ef","ios":"levelo://app?vid=584387b4-187d-4f80-b338-fcdc107989ef"},"vehicle_type_id":"4","last_reported":1745316636,"current_range_meters":17200,"station_id":"","pricing_plan_id":"cebpf4jnsgd1na2vs0mg"},{"bike_id":"1d917504-d08a-4f98-98c4-f2a7e4b4c735","system_id":"levelo_inurba_marseille","lat":43.30917,"lon":5.36842,"is_reserved":false,"is_disabled":false,"rental_uris":{"android":"levelo://app?vid=1d917504-d08a-4f98-98c4-f2a7e4b4c735","ios":"levelo://app?vid=1d917504-d08a-4f98-98c4-f2a7e4b4c735"},"vehicle_type_id":"4","last_reported":1745316636,"current_range_meters":17600,"station_id":"ce4bgn92rcd13ifvqbvg","pricing_plan_id":"cebpf4jnsgd1na2vs0mg"},{"bike_id":"6fdfd6d1-a96c-4b8f-b8d7-2e2af8c87b3c","system_id":"levelo_inurba_marseille","lat":43.33611,"lon":5.410248,"is_reserved":false,"is_disabled":false,"rental_uris":{"android":"levelo://app?vid=6fdfd6d1-a96c-4b8f-b8d7-2e2af8c87b3c","ios":"levelo://app?vid=6fdfd6d1-a96c-4b8f-b8d7-2e2af8c87b3c"},"vehicle_type_id":"4","last_reported":1745316636,"current_range_meters":17600,"station_id":"ce4bhqh2rcd13ifvqhmg","pricing_plan_id":"cebpf4jnsgd1na2vs0mg"},{"bike_id":"041ab0a7-2bad-4a78-9068-32c809cda207","system_id":"levelo_inurba_marseille","lat":43.31881,"lon":5.40734,"is_reserved":false,"is_disabled":false,"rental_uris":{"android":"levelo://app?vid=041ab0a7-2bad-4a78-9068-32c809cda207","ios":"levelo://app?vid=041ab0a7-2bad-4a78-9068-32c809cda207"},"vehicle_type_id":"4","last_reported":1745316636,"current_range_meters":17200,"station_id":"ce4bhq12rcd13ifvqhig","pricing_plan_id":"cebpf4jnsgd1na2vs0mg"},{"bike_id":"c50536ed-9107-4e58-b68b-8b0e95b84cca","system_id":"levelo_inurba_marseille","lat":43.33004,"lon":5.39051,"is_reserved":false,"is_disabled":false,"rental_uris":{"android":"levelo://app?vid=c50536ed-9107-4e58-b68b-8b0e95b84cca","ios":"levelo://app?vid=c50536ed-9107-4e58-b68b-8b0e95b84cca"},"vehicle_type_id":"4","last_reported":1745316636,"current_range_meters":17600,"station_id":"ce4bhr92rcd13ifvqhrg","pricing_plan_id":"cebpf4jnsgd1na2vs0mg"},{"bike_id":"7b2dc864-a4e9-468c-9cee-f3075a20977d","system_id":"levelo_inurba_marseille","lat":43.31449,"lon":5.3738,"is_reserved":false,"is_disabled":false,"rental_uris":{"android":"levelo://app?vid=7b2dc864-a4e9-468c-9cee-f3075a20977d","ios":"levelo://app?vid=7b2dc864-a4e9-468c-9cee-f3075a20977d"},"vehicle_type_id":"4","last_reported":1745316636,"current_range_meters":17600,"station_id":"","pricing_plan_id":"cebpf4jnsgd1na2vs0mg"},{"bike_id":"a47bf24e-dcf3-4d1c-8915-db36a977245f","system_id":"levelo_inurba_marseille","lat":43.28458,"lon":5.35894,"is_reserved":false,"is_disabled":false,"rental_uris":{"android":"levelo://app?vid=a47bf24e-dcf3-4d1c-8915-db36a977245f","ios":"levelo://app?vid=a47bf24e-dcf3-4d1c-8915-db36a977245f"},"vehicle_type_id":"4","last_reported":1745316636,"current_range_meters":17200,"station_id":"ce4bhah2rcd13ifvqei0","pricing_plan_id":"cebpf4jnsgd1na2vs0mg"},{"bike_id":"abd226a8-d003-4133-b9d2-b7c952b7ead1","system_id":"levelo_inurba_marseille","lat":43.23057,"lon":5.35497,"is_reserved":false,"is_disabled":false,"rental_uris":{"android":"levelo://app?vid=abd226a8-d003-4133-b9d2-b7c952b7ead1","ios":"levelo://app?vid=abd226a8-d003-4133-b9d2-b7c952b7ead1"},"vehicle_type_id":"4","last_reported":1745316636,"current_range_meters":17600,"station_id":"cpo3342slgdg3j2ifvpg","pricing_plan_id":"cebpf4jnsgd1na2vs0mg"},{"bike_id":"98176d01-c4bf-4fdf-83d6-6aa3ea2e2a6a","system_id":"levelo_inurba_marseille","lat":43.314538,"lon":5.370493,"is_reserved":false,"is_disabled":false,"rental_uris":{"android":"levelo://app?vid=98176d01-c4bf-4fdf-83d6-6aa3ea2e2a6a","ios":"levelo://app?vid=98176d01-c4bf-4fdf-83d6-6aa3ea2e2a6a"},"vehicle_type_id":"4","last_reported":1745316636,"current_range_meters":18000,"station_id":"","pricing_plan_id":"cebpf4jnsgd1na2vs0mg"},{"bike_id":"36fbd1d2-7925-4ee7-b00e-09bf8aac6cf3","system_id":"levelo_inurba_marseille","lat":43.232521,"lon":5.39948,"is_reserved":false,"is_disabled":false,"rental_uris":{"android":"levelo://app?vid=36fbd1d2-7925-4ee7-b00e-09bf8aac6cf3","ios":"levelo://app?vid=36fbd1d2-7925-4ee7-b00e-09bf8aac6cf3"},"vehicle_type_id":"4","last_reported":1745316636,"current_range_meters":17600,"station_id":"ce4bhn12rcd13ifvqgqg","pricing_plan_id":"cebpf4jnsgd1na2vs0mg"},{"bike_id":"d974400f-ebe7-401e-8521-1085388dcb5a","system_id":"levelo_inurba_marseille","lat":43.31377,"lon":5.36723,"is_reserved":false,"is_disabled":false,"rental_uris":{"android":"levelo://app?vid=d974400f-ebe7-401e-8521-1085388dcb5a","ios":"levelo://app?vid=d974400f-ebe7-401e-8521-1085388dcb5a"},"vehicle_type_id":"4","last_reported":1745316636,"current_range_meters":18000,"station_id":"ce4bgr92rcd13ifvqc6g","pricing_plan_id":"cebpf4jnsgd1na2vs0mg"},{"bike_id":"03c6685f-88b9-4f25-9729-8abe6c5e7d46","system_id":"levelo_inurba_marseille","lat":43.30305,"lon":5.39214,"is_reserved":false,"is_disabled":false,"rental_uris":{"android":"levelo://app?vid=03c6685f-88b9-4f25-9729-8abe6c5e7d46","ios":"levelo://app?vid=03c6685f-88b9-4f25-9729-8abe6c5e7d46"},"vehicle_type_id":"4","last_reported":1745316636,"current_range_meters":18000,"station_id":"ce4bgkh2rcd13ifvqbk0","pricing_plan_id":"cebpf4jnsgd1na2vs0mg"},{"bike_id":"1b903b38-38de-4714-9a2c-59836acfa168","system_id":"levelo_inurba_marseille","lat":43.31719,"lon":5.4371,"is_reserved":false,"is_disabled":true,"rental_uris":{"android":"levelo://app?vid=1b903b38-38de-4714-9a2c-59836acfa168","ios":"levelo://app?vid=1b903b38-38de-4714-9a2c-59836acfa168"},"vehicle_type_id":"4","last_reported":1745316636,"current_range_meters":18000,"station_id":"ce4bhp92rcd13ifvqhcg","pricing_plan_id":"cebpf4jnsgd1na2vs0mg"},{"bike_id":"e35c5785-1951-4916-a3e3-c6c2d741b904","system_id":"levelo_inurba_marseille","lat":43.23155,"lon":5.43702,"is_reserved":false,"is_disabled":false,"rental_uris":{"android":"levelo://app?vid=e35c5785-1951-4916-a3e3-c6c2d741b904","ios":"levelo://app?vid=e35c5785-1951-4916-a3e3-c6c2d741b904"},"vehicle_type_id":"4","last_reported":1745316636,"current_range_meters":18800,"station_id":"ce4bhmp2rcd13ifvqgog","pricing_plan_id":"cebpf4jnsgd1na2vs0mg"},{"bike_id":"e63ed39f-0791-410f-bf14-f75041050e89","system_id":"levelo_inurba_marseille","lat":43.29896,"lon":5.39733,"is_reserved":false,"is_disabled":false,"rental_uris":{"android":"levelo://app?vid=e63ed39f-0791-410f-bf14-f75041050e89","ios":"levelo://app?vid=e63ed39f-0791-410f-bf14-f75041050e89"},"vehicle_type_id":"4","last_reported":1745316636,"current_range_meters":18800,"station_id":"ce4bh0h2rcd13ifvqd50","pricing_plan_id":"cebpf4jnsgd1na2vs0mg"},{"bike_id":"cb15f50a-d5cb-4017-b40b-b28b66eacf43","system_id":"levelo_inurba_marseille","lat":43.31282,"lon":5.36841,"is_reserved":false,"is_disabled":false,"rental_uris":{"android":"levelo://app?vid=cb15f50a-d5cb-4017-b40b-b28b66eacf43","ios":"levelo://app?vid=cb15f50a-d5cb-4017-b40b-b28b66eacf43"},"vehicle_type_id":"4","last_reported":1745316636,"current_range_meters":18800,"station_id":"","pricing_plan_id":"cebpf4jnsgd1na2vs0mg"},{"bike_id":"464bc301-986b-4dc8-9207-012912eeb44a","system_id":"levelo_inurba_marseille","lat":43.2705,"lon":5.4027,"is_reserved":false,"is_disabled":false,"rental_uris":{"android":"levelo://app?vid=464bc301-986b-4dc8-9207-012912eeb44a","ios":"levelo://app?vid=464bc301-986b-4dc8-9207-012912eeb44a"},"vehicle_type_id":"4","last_reported":1745316636,"current_range_meters":18800,"station_id":"ce4bhk92rcd13ifvqgc0","pricing_plan_id":"cebpf4jnsgd1na2vs0mg"},{"bike_id":"6192b56b-088a-4f51-b870-afa91ba9134b","system_id":"levelo_inurba_marseille","lat":43.28274,"lon":5.35072,"is_reserved":false,"is_disabled":false,"rental_uris":{"android":"levelo://app?vid=6192b56b-088a-4f51-b870-afa91ba9134b","ios":"levelo://app?vid=6192b56b-088a-4f51-b870-afa91ba9134b"},"vehicle_type_id":"4","last_reported":1745316636,"current_range_meters":18800,"station_id":"ce4bhbp2rcd13ifvqerg","pricing_plan_id":"cebpf4jnsgd1na2vs0mg"},{"bike_id":"7ac3390b-9d9d-4b5c-8f7d-9620f131f3de","system_id":"levelo_inurba_marseille","lat":43.30529,"lon":5.36716,"is_reserved":false,"is_disabled":false,"rental_uris":{"android":"levelo://app?vid=7ac3390b-9d9d-4b5c-8f7d-9620f131f3de","ios":"levelo://app?vid=7ac3390b-9d9d-4b5c-8f7d-9620f131f3de"},"vehicle_type_id":"4","last_reported":1745316636,"current_range_meters":18800,"station_id":"ce4bgrp2rcd13ifvqc9g","pricing_plan_id":"cebpf4jnsgd1na2vs0mg"},{"bike_id":"d26aecca-5b94-4bac-9927-82be229216f1","system_id":"levelo_inurba_marseille","lat":43.32097,"lon":5.36772,"is_reserved":false,"is_disabled":false,"rental_uris":{"android":"levelo://app?vid=d26aecca-5b94-4bac-9927-82be229216f1","ios":"levelo://app?vid=d26aecca-5b94-4bac-9927-82be229216f1"},"vehicle_type_id":"4","last_reported":1745316636,"current_range_meters":19200,"station_id":"ce4bhrh2rcd13ifvqhug","pricing_plan_id":"cebpf4jnsgd1na2vs0mg"},{"bike_id":"3b823fab-22a8-4c02-9ac2-9d77227daa1a","system_id":"levelo_inurba_marseille","lat":43.25951,"lon":5.40886,"is_reserved":false,"is_disabled":false,"rental_uris":{"android":"levelo://app?vid=3b823fab-22a8-4c02-9ac2-9d77227daa1a","ios":"levelo://app?vid=3b823fab-22a8-4c02-9ac2-9d77227daa1a"},"vehicle_type_id":"4","last_reported":1745316636,"current_range_meters":19200,"station_id":"ce4bhm92rcd13ifvqglg","pricing_plan_id":"cebpf4jnsgd1na2vs0mg"},{"bike_id":"1936b8b4-5a66-4f1b-8f89-49aa88a91b4a","system_id":"levelo_inurba_marseille","lat":43.269313,"lon":5.389213,"is_reserved":false,"is_disabled":false,"rental_uris":{"android":"levelo://app?vid=1936b8b4-5a66-4f1b-8f89-49aa88a91b4a","ios":"levelo://app?vid=1936b8b4-5a66-4f1b-8f89-49aa88a91b4a"},"vehicle_type_id":"4","last_reported":1745316636,"current_range_meters":19200,"station_id":"ce4bhhh2rcd13ifvqfl0","pricing_plan_id":"cebpf4jnsgd1na2vs0mg"},{"bike_id":"d0261c97-68be-4dd5-adb9-01e2bd2edfbb","system_id":"levelo_inurba_marseille","lat":43.30847,"lon":5.37322,"is_reserved":false,"is_disabled":false,"rental_uris":{"android":"levelo://app?vid=d0261c97-68be-4dd5-adb9-01e2bd2edfbb","ios":"levelo://app?vid=d0261c97-68be-4dd5-adb9-01e2bd2edfbb"},"vehicle_type_id":"4","last_reported":1745316636,"current_range_meters":19600,"station_id":"","pricing_plan_id":"cebpf4jnsgd1na2vs0mg"},{"bike_id":"427f805e-cfba-4025-b510-ca1d8419f957","system_id":"levelo_inurba_marseille","lat":43.31496,"lon":5.37297,"is_reserved":false,"is_disabled":false,"rental_uris":{"android":"levelo://app?vid=427f805e-cfba-4025-b510-ca1d8419f957","ios":"levelo://app?vid=427f805e-cfba-4025-b510-ca1d8419f957"},"vehicle_type_id":"4","last_reported":1745316636,"current_range_meters":19600,"station_id":"ce4bgt12rcd13ifvqcd0","pricing_plan_id":"cebpf4jnsgd1na2vs0mg"},{"bike_id":"5292f775-aa53-42a8-a3e0-c63e6f16af9d","system_id":"levelo_inurba_marseille","lat":43.31475,"lon":5.37295,"is_reserved":false,"is_disabled":false,"rental_uris":{"android":"levelo://app?vid=5292f775-aa53-42a8-a3e0-c63e6f16af9d","ios":"levelo://app?vid=5292f775-aa53-42a8-a3e0-c63e6f16af9d"},"vehicle_type_id":"4","last_reported":1745316636,"current_range_meters":19600,"station_id":"ce4bgt12rcd13ifvqcd0","pricing_plan_id":"cebpf4jnsgd1na2vs0mg"},{"bike_id":"7f420013-0055-40e6-87de-97d531f236c6","system_id":"levelo_inurba_marseille","lat":43.30944,"lon":5.36804,"is_reserved":false,"is_disabled":false,"rental_uris":{"android":"levelo://app?vid=7f420013-0055-40e6-87de-97d531f236c6","ios":"levelo://app?vid=7f420013-0055-40e6-87de-97d531f236c6"},"vehicle_type_id":"4","last_reported":1745316636,"current_range_meters":20000,"station_id":"","pricing_plan_id":"cebpf4jnsgd1na2vs0mg"},{"bike_id":"7bbe73ef-b8f2-4f17-8823-474551e52fd3","system_id":"levelo_inurba_marseille","lat":43.24075,"lon":5.37758,"is_reserved":false,"is_disabled":false,"rental_uris":{"android":"levelo://app?vid=7bbe73ef-b8f2-4f17-8823-474551e52fd3","ios":"levelo://app?vid=7bbe73ef-b8f2-4f17-8823-474551e52fd3"},"vehicle_type_id":"4","last_reported":1745316636,"current_range_meters":20000,"station_id":"ce4bhnp2rcd13ifvqgvg","pricing_plan_id":"cebpf4jnsgd1na2vs0mg"},{"bike_id":"214395fd-857a-4a0e-809e-ea5d97671a18","system_id":"levelo_inurba_marseille","lat":43.211853,"lon":5.350779,"is_reserved":false,"is_disabled":true,"rental_uris":{"android":"levelo://app?vid=214395fd-857a-4a0e-809e-ea5d97671a18","ios":"levelo://app?vid=214395fd-857a-4a0e-809e-ea5d97671a18"},"vehicle_type_id":"4","last_reported":1745316636,"current_range_meters":20000,"station_id":"cpo3342slgdg3j2ifvpg","pricing_plan_id":"cebpf4jnsgd1na2vs0mg"},{"bike_id":"75071e4c-9a7d-462c-af30-3bdb8c7e84b6","system_id":"levelo_inurba_marseille","lat":43.25874,"lon":5.39901,"is_reserved":false,"is_disabled":false,"rental_uris":{"android":"levelo://app?vid=75071e4c-9a7d-462c-af30-3bdb8c7e84b6","ios":"levelo://app?vid=75071e4c-9a7d-462c-af30-3bdb8c7e84b6"},"vehicle_type_id":"4","last_reported":1745316636,"current_range_meters":19600,"station_id":"ce4bhl92rcd13ifvqghg","pricing_plan_id":"cebpf4jnsgd1na2vs0mg"},{"bike_id":"150faf51-da5c-4049-9b55-21140e988b3b","system_id":"levelo_inurba_marseille","lat":43.28701,"lon":5.4,"is_reserved":false,"is_disabled":false,"rental_uris":{"android":"levelo://app?vid=150faf51-da5c-4049-9b55-21140e988b3b","ios":"levelo://app?vid=150faf51-da5c-4049-9b55-21140e988b3b"},"vehicle_type_id":"4","last_reported":1745316636,"current_range_meters":19600,"station_id":"ce4bho92rcd13ifvqh3g","pricing_plan_id":"cebpf4jnsgd1na2vs0mg"},{"bike_id":"a91731e6-3a3b-433b-a932-7b097e04d4ef","system_id":"levelo_inurba_marseille","lat":43.30646,"lon":5.40096,"is_reserved":false,"is_disabled":false,"rental_uris":{"android":"levelo://app?vid=a91731e6-3a3b-433b-a932-7b097e04d4ef","ios":"levelo://app?vid=a91731e6-3a3b-433b-a932-7b097e04d4ef"},"vehicle_type_id":"4","last_reported":1745316636,"current_range_meters":19600,"station_id":"ce4bh112rcd13ifvqda0","pricing_plan_id":"cebpf4jnsgd1na2vs0mg"},{"bike_id":"6382d094-23f2-4d1e-9fc5-0b03894a7c4d","system_id":"levelo_inurba_marseille","lat":43.30437,"lon":5.39733,"is_reserved":false,"is_disabled":true,"rental_uris":{"android":"levelo://app?vid=6382d094-23f2-4d1e-9fc5-0b03894a7c4d","ios":"levelo://app?vid=6382d094-23f2-4d1e-9fc5-0b03894a7c4d"},"vehicle_type_id":"4","last_reported":1745316636,"current_range_meters":20000,"station_id":"ce4bh092rcd13ifvqd20","pricing_plan_id":"cebpf4jnsgd1na2vs0mg"},{"bike_id":"20ede925-27e6-407f-8bf5-4c244f8341b4","system_id":"levelo_inurba_marseille","lat":43.2417,"lon":5.36394,"is_reserved":false,"is_disabled":false,"rental_uris":{"android":"levelo://app?vid=20ede925-27e6-407f-8bf5-4c244f8341b4","ios":"levelo://app?vid=20ede925-27e6-407f-8bf5-4c244f8341b4"},"vehicle_type_id":"4","last_reported":1745316636,"current_range_meters":20400,"station_id":"cpo36qri1sfpv3e86is0","pricing_plan_id":"cebpf4jnsgd1na2vs0mg"},{"bike_id":"a1835b16-9e05-4b53-baf5-10eeb04320bb","system_id":"levelo_inurba_marseille","lat":43.28712,"lon":5.37376,"is_reserved":false,"is_disabled":true,"rental_uris":{"android":"levelo://app?vid=a1835b16-9e05-4b53-baf5-10eeb04320bb","ios":"levelo://app?vid=a1835b16-9e05-4b53-baf5-10eeb04320bb"},"vehicle_type_id":"4","last_reported":1745316636,"current_range_meters":20400,"station_id":"ce4bh3p2rcd13ifvqdq0","pricing_plan_id":"cebpf4jnsgd1na2vs0mg"},{"bike_id":"5d6ce0cf-9f03-41a4-849f-504bf29dfe65","system_id":"levelo_inurba_marseille","lat":43.21748,"lon":5.34607,"is_reserved":false,"is_disabled":false,"rental_uris":{"android":"levelo://app?vid=5d6ce0cf-9f03-41a4-849f-504bf29dfe65","ios":"levelo://app?vid=5d6ce0cf-9f03-41a4-849f-504bf29dfe65"},"vehicle_type_id":"4","last_reported":1745316636,"current_range_meters":20400,"station_id":"st_cvj6r9ubvosntc0bgbag","pricing_plan_id":"cebpf4jnsgd1na2vs0mg"},{"bike_id":"5710ae20-d914-4c2e-880b-c042da09cd54","system_id":"levelo_inurba_marseille","lat":43.31339,"lon":5.36729,"is_reserved":false,"is_disabled":false,"rental_uris":{"android":"levelo://app?vid=5710ae20-d914-4c2e-880b-c042da09cd54","ios":"levelo://app?vid=5710ae20-d914-4c2e-880b-c042da09cd54"},"vehicle_type_id":"4","last_reported":1745316636,"current_range_meters":20400,"station_id":"ce4bgr92rcd13ifvqc6g","pricing_plan_id":"cebpf4jnsgd1na2vs0mg"},{"bike_id":"2b59a03b-8bdf-4a5c-a1d2-9dea24219ead","system_id":"levelo_inurba_marseille","lat":43.25925,"lon":5.40914,"is_reserved":false,"is_disabled":false,"rental_uris":{"android":"levelo://app?vid=2b59a03b-8bdf-4a5c-a1d2-9dea24219ead","ios":"levelo://app?vid=2b59a03b-8bdf-4a5c-a1d2-9dea24219ead"},"vehicle_type_id":"4","last_reported":1745316636,"current_range_meters":20400,"station_id":"ce4bhm92rcd13ifvqglg","pricing_plan_id":"cebpf4jnsgd1na2vs0mg"},{"bike_id":"e129da4f-8842-41d0-8095-8502a09b04a4","system_id":"levelo_inurba_marseille","lat":43.27375,"lon":5.3625,"is_reserved":false,"is_disabled":false,"rental_uris":{"android":"levelo://app?vid=e129da4f-8842-41d0-8095-8502a09b04a4","ios":"levelo://app?vid=e129da4f-8842-41d0-8095-8502a09b04a4"},"vehicle_type_id":"4","last_reported":1745316636,"current_range_meters":20400,"station_id":"ce4bhbh2rcd13ifvqeo0","pricing_plan_id":"cebpf4jnsgd1na2vs0mg"},{"bike_id":"cbaad35e-584c-4fb7-bc5e-0da69a346889","system_id":"levelo_inurba_marseille","lat":43.28467,"lon":5.3843,"is_reserved":false,"is_disabled":false,"rental_uris":{"android":"levelo://app?vid=cbaad35e-584c-4fb7-bc5e-0da69a346889","ios":"levelo://app?vid=cbaad35e-584c-4fb7-bc5e-0da69a346889"},"vehicle_type_id":"4","last_reported":1745316636,"current_range_meters":20000,"station_id":"ce4bh512rcd13ifvqe3g","pricing_plan_id":"cebpf4jnsgd1na2vs0mg"},{"bike_id":"957260aa-34d3-4c69-a324-49a5f57ab629","system_id":"levelo_inurba_marseille","lat":43.31988,"lon":5.38125,"is_reserved":false,"is_disabled":false,"rental_uris":{"android":"levelo://app?vid=957260aa-34d3-4c69-a324-49a5f57ab629","ios":"levelo://app?vid=957260aa-34d3-4c69-a324-49a5f57ab629"},"vehicle_type_id":"4","last_reported":1745316636,"current_range_meters":20800,"station_id":"ce4bhr12rcd13ifvqhpg","pricing_plan_id":"cebpf4jnsgd1na2vs0mg"},{"bike_id":"e7a535f8-ed78-40de-8cdc-f8a1d2d90b31","system_id":"levelo_inurba_marseille","lat":43.24805,"lon":5.37482,"is_reserved":false,"is_disabled":true,"rental_uris":{"android":"levelo://app?vid=e7a535f8-ed78-40de-8cdc-f8a1d2d90b31","ios":"levelo://app?vid=e7a535f8-ed78-40de-8cdc-f8a1d2d90b31"},"vehicle_type_id":"4","last_reported":1745316636,"current_range_meters":20800,"station_id":"ce4bhgh2rcd13ifvqfb0","pricing_plan_id":"cebpf4jnsgd1na2vs0mg"},{"bike_id":"34852179-f4c2-4e75-9479-989895fa6c8a","system_id":"levelo_inurba_marseille","lat":43.25004,"lon":5.38921,"is_reserved":false,"is_disabled":false,"rental_uris":{"android":"levelo://app?vid=34852179-f4c2-4e75-9479-989895fa6c8a","ios":"levelo://app?vid=34852179-f4c2-4e75-9479-989895fa6c8a"},"vehicle_type_id":"4","last_reported":1745316636,"current_range_meters":20800,"station_id":"ce4bhgp2rcd13ifvqfd0","pricing_plan_id":"cebpf4jnsgd1na2vs0mg"},{"bike_id":"76d44630-c94e-4b0e-955c-280dd7115c17","system_id":"levelo_inurba_marseille","lat":43.29876,"lon":5.39725,"is_reserved":false,"is_disabled":false,"rental_uris":{"android":"levelo://app?vid=76d44630-c94e-4b0e-955c-280dd7115c17","ios":"levelo://app?vid=76d44630-c94e-4b0e-955c-280dd7115c17"},"vehicle_type_id":"4","last_reported":1745316636,"current_range_meters":20800,"station_id":"ce4bh0h2rcd13ifvqd50","pricing_plan_id":"cebpf4jnsgd1na2vs0mg"},{"bike_id":"b5d609bf-0c9b-49e3-9426-ce02cb8383b8","system_id":"levelo_inurba_marseille","lat":43.34152,"lon":5.40911,"is_reserved":false,"is_disabled":true,"rental_uris":{"android":"levelo://app?vid=b5d609bf-0c9b-49e3-9426-ce02cb8383b8","ios":"levelo://app?vid=b5d609bf-0c9b-49e3-9426-ce02cb8383b8"},"vehicle_type_id":"4","last_reported":1745316636,"current_range_meters":21600,"station_id":"ce4bhqh2rcd13ifvqhlg","pricing_plan_id":"cebpf4jnsgd1na2vs0mg"},{"bike_id":"635a6da7-33d3-4f56-a018-2b6db6c46b19","system_id":"levelo_inurba_marseille","lat":43.27665,"lon":5.38874,"is_reserved":false,"is_disabled":false,"rental_uris":{"android":"levelo://app?vid=635a6da7-33d3-4f56-a018-2b6db6c46b19","ios":"levelo://app?vid=635a6da7-33d3-4f56-a018-2b6db6c46b19"},"vehicle_type_id":"4","last_reported":1745316636,"current_range_meters":20800,"station_id":"ce4bhi12rcd13ifvqfo0","pricing_plan_id":"cebpf4jnsgd1na2vs0mg"},{"bike_id":"46374c49-3adc-4c5a-8966-e00f056c0d57","system_id":"levelo_inurba_marseille","lat":43.27846,"lon":5.35442,"is_reserved":false,"is_disabled":false,"rental_uris":{"android":"levelo://app?vid=46374c49-3adc-4c5a-8966-e00f056c0d57","ios":"levelo://app?vid=46374c49-3adc-4c5a-8966-e00f056c0d57"},"vehicle_type_id":"4","last_reported":1745316636,"current_range_meters":21600,"station_id":"","pricing_plan_id":"cebpf4jnsgd1na2vs0mg"},{"bike_id":"79236e21-b6a5-46b7-be01-604ebe9ae096","system_id":"levelo_inurba_marseille","lat":43.29014,"lon":5.38128,"is_reserved":false,"is_disabled":false,"rental_uris":{"android":"levelo://app?vid=79236e21-b6a5-46b7-be01-604ebe9ae096","ios":"levelo://app?vid=79236e21-b6a5-46b7-be01-604ebe9ae096"},"vehicle_type_id":"4","last_reported":1745316636,"current_range_meters":20800,"station_id":"ce4bh4p2rcd13ifvqe1g","pricing_plan_id":"cebpf4jnsgd1na2vs0mg"},{"bike_id":"33aa41d6-43f2-4502-a16f-f8a83a6fe47b","system_id":"levelo_inurba_marseille","lat":43.3032,"lon":5.40441,"is_reserved":false,"is_disabled":false,"rental_uris":{"android":"levelo://app?vid=33aa41d6-43f2-4502-a16f-f8a83a6fe47b","ios":"levelo://app?vid=33aa41d6-43f2-4502-a16f-f8a83a6fe47b"},"vehicle_type_id":"4","last_reported":1745316636,"current_range_meters":21600,"station_id":"ce4bh012rcd13ifvqd10","pricing_plan_id":"cebpf4jnsgd1na2vs0mg"},{"bike_id":"7f6c5fc8-196b-4afd-9f5d-5398837a0dcc","system_id":"levelo_inurba_marseille","lat":43.274926,"lon":5.424508,"is_reserved":false,"is_disabled":false,"rental_uris":{"android":"levelo://app?vid=7f6c5fc8-196b-4afd-9f5d-5398837a0dcc","ios":"levelo://app?vid=7f6c5fc8-196b-4afd-9f5d-5398837a0dcc"},"vehicle_type_id":"4","last_reported":1745316636,"current_range_meters":22000,"station_id":"ce4bhn92rcd13ifvqgrg","pricing_plan_id":"cebpf4jnsgd1na2vs0mg"},{"bike_id":"72230011-10be-4bc5-b812-e255d2e856f3","system_id":"levelo_inurba_marseille","lat":43.27369,"lon":5.36255,"is_reserved":false,"is_disabled":false,"rental_uris":{"android":"levelo://app?vid=72230011-10be-4bc5-b812-e255d2e856f3","ios":"levelo://app?vid=72230011-10be-4bc5-b812-e255d2e856f3"},"vehicle_type_id":"4","last_reported":1745316636,"current_range_meters":22000,"station_id":"","pricing_plan_id":"cebpf4jnsgd1na2vs0mg"},{"bike_id":"e45ea91c-d9b2-4dae-81c6-b19ec4fb0fdf","system_id":"levelo_inurba_marseille","lat":43.308273,"lon":5.372294,"is_reserved":false,"is_disabled":false,"rental_uris":{"android":"levelo://app?vid=e45ea91c-d9b2-4dae-81c6-b19ec4fb0fdf","ios":"levelo://app?vid=e45ea91c-d9b2-4dae-81c6-b19ec4fb0fdf"},"vehicle_type_id":"4","last_reported":1745316636,"current_range_meters":21600,"station_id":"ce4bguh2rcd13ifvqckg","pricing_plan_id":"cebpf4jnsgd1na2vs0mg"},{"bike_id":"29863108-2cd4-490b-978f-8ba6ccb30d28","system_id":"levelo_inurba_marseille","lat":43.28729,"lon":5.37953,"is_reserved":false,"is_disabled":false,"rental_uris":{"android":"levelo://app?vid=29863108-2cd4-490b-978f-8ba6ccb30d28","ios":"levelo://app?vid=29863108-2cd4-490b-978f-8ba6ccb30d28"},"vehicle_type_id":"4","last_reported":1745316636,"current_range_meters":21600,"station_id":"ce4bh9p2rcd13ifvqec0","pricing_plan_id":"cebpf4jnsgd1na2vs0mg"},{"bike_id":"2fdec07d-a50d-44f0-b80e-4c88a9a4aa2f","system_id":"levelo_inurba_marseille","lat":43.26952,"lon":5.38625,"is_reserved":false,"is_disabled":false,"rental_uris":{"android":"levelo://app?vid=2fdec07d-a50d-44f0-b80e-4c88a9a4aa2f","ios":"levelo://app?vid=2fdec07d-a50d-44f0-b80e-4c88a9a4aa2f"},"vehicle_type_id":"4","last_reported":1745316636,"current_range_meters":22000,"station_id":"ce4bhh92rcd13ifvqfh0","pricing_plan_id":"cebpf4jnsgd1na2vs0mg"},{"bike_id":"06e0bcc9-ed28-4c26-a6e9-2713c37e868b","system_id":"levelo_inurba_marseille","lat":43.25942,"lon":5.40898,"is_reserved":false,"is_disabled":false,"rental_uris":{"android":"levelo://app?vid=06e0bcc9-ed28-4c26-a6e9-2713c37e868b","ios":"levelo://app?vid=06e0bcc9-ed28-4c26-a6e9-2713c37e868b"},"vehicle_type_id":"4","last_reported":1745316636,"current_range_meters":22000,"station_id":"ce4bhm92rcd13ifvqglg","pricing_plan_id":"cebpf4jnsgd1na2vs0mg"},{"bike_id":"a3ad8fc9-dca8-4144-a295-1037cb921e5e","system_id":"levelo_inurba_marseille","lat":43.27496,"lon":5.42451,"is_reserved":false,"is_disabled":true,"rental_uris":{"android":"levelo://app?vid=a3ad8fc9-dca8-4144-a295-1037cb921e5e","ios":"levelo://app?vid=a3ad8fc9-dca8-4144-a295-1037cb921e5e"},"vehicle_type_id":"4","last_reported":1745316636,"current_range_meters":22400,"station_id":"ce4bhn92rcd13ifvqgrg","pricing_plan_id":"cebpf4jnsgd1na2vs0mg"},{"bike_id":"550efd78-d467-45c6-96e6-6f1ba84d9fc6","system_id":"levelo_inurba_marseille","lat":43.29264,"lon":5.37619,"is_reserved":false,"is_disabled":false,"rental_uris":{"android":"levelo://app?vid=550efd78-d467-45c6-96e6-6f1ba84d9fc6","ios":"levelo://app?vid=550efd78-d467-45c6-96e6-6f1ba84d9fc6"},"vehicle_type_id":"4","last_reported":1745316636,"current_range_meters":22400,"station_id":"ce4bgi12rcd13ifvqb80","pricing_plan_id":"cebpf4jnsgd1na2vs0mg"},{"bike_id":"b3e2ef16-2f16-47a1-9c60-2b646e3dbe32","system_id":"levelo_inurba_marseille","lat":43.3053,"lon":5.36546,"is_reserved":false,"is_disabled":false,"rental_uris":{"android":"levelo://app?vid=b3e2ef16-2f16-47a1-9c60-2b646e3dbe32","ios":"levelo://app?vid=b3e2ef16-2f16-47a1-9c60-2b646e3dbe32"},"vehicle_type_id":"4","last_reported":1745316636,"current_range_meters":22400,"station_id":"ce4bgs12rcd13ifvqcag","pricing_plan_id":"cebpf4jnsgd1na2vs0mg"},{"bike_id":"36c078e8-06ee-4b6f-a720-e2b8d5b2efaf","system_id":"levelo_inurba_marseille","lat":43.29272,"lon":5.36847,"is_reserved":false,"is_disabled":false,"rental_uris":{"android":"levelo://app?vid=36c078e8-06ee-4b6f-a720-e2b8d5b2efaf","ios":"levelo://app?vid=36c078e8-06ee-4b6f-a720-e2b8d5b2efaf"},"vehicle_type_id":"4","last_reported":1745316636,"current_range_meters":22400,"station_id":"ce4bhbp2rcd13ifvqesg","pricing_plan_id":"cebpf4jnsgd1na2vs0mg"},{"bike_id":"83b1b1be-8e25-40e4-8e9d-47c33b49e999","system_id":"levelo_inurba_marseille","lat":43.29196,"lon":5.3581,"is_reserved":false,"is_disabled":false,"rental_uris":{"android":"levelo://app?vid=83b1b1be-8e25-40e4-8e9d-47c33b49e999","ios":"levelo://app?vid=83b1b1be-8e25-40e4-8e9d-47c33b49e999"},"vehicle_type_id":"4","last_reported":1745316636,"current_range_meters":22000,"station_id":"ce4bhb12rcd13ifvqel0","pricing_plan_id":"cebpf4jnsgd1na2vs0mg"},{"bike_id":"07900244-0954-4d36-baf9-f5621fca3eb4","system_id":"levelo_inurba_marseille","lat":43.29878,"lon":5.39727,"is_reserved":false,"is_disabled":false,"rental_uris":{"android":"levelo://app?vid=07900244-0954-4d36-baf9-f5621fca3eb4","ios":"levelo://app?vid=07900244-0954-4d36-baf9-f5621fca3eb4"},"vehicle_type_id":"4","last_reported":1745316636,"current_range_meters":22000,"station_id":"ce4bh0h2rcd13ifvqd50","pricing_plan_id":"cebpf4jnsgd1na2vs0mg"},{"bike_id":"b0f7c99e-9fc5-4cd3-a40b-9030936d2935","system_id":"levelo_inurba_marseille","lat":43.31215,"lon":5.36859,"is_reserved":false,"is_disabled":false,"rental_uris":{"android":"levelo://app?vid=b0f7c99e-9fc5-4cd3-a40b-9030936d2935","ios":"levelo://app?vid=b0f7c99e-9fc5-4cd3-a40b-9030936d2935"},"vehicle_type_id":"4","last_reported":1745316636,"current_range_meters":22400,"station_id":"ce4bgl92rcd13ifvqbq0","pricing_plan_id":"cebpf4jnsgd1na2vs0mg"},{"bike_id":"8e1c1026-82b2-4fe6-b136-376dfeaaf89b","system_id":"levelo_inurba_marseille","lat":43.336118,"lon":5.410373,"is_reserved":false,"is_disabled":false,"rental_uris":{"android":"levelo://app?vid=8e1c1026-82b2-4fe6-b136-376dfeaaf89b","ios":"levelo://app?vid=8e1c1026-82b2-4fe6-b136-376dfeaaf89b"},"vehicle_type_id":"4","last_reported":1745316636,"current_range_meters":22800,"station_id":"ce4bhq92rcd13ifvqhkg","pricing_plan_id":"cebpf4jnsgd1na2vs0mg"},{"bike_id":"46c7040a-90d9-471e-9741-4cd0b5916360","system_id":"levelo_inurba_marseille","lat":43.33609,"lon":5.41036,"is_reserved":false,"is_disabled":false,"rental_uris":{"android":"levelo://app?vid=46c7040a-90d9-471e-9741-4cd0b5916360","ios":"levelo://app?vid=46c7040a-90d9-471e-9741-4cd0b5916360"},"vehicle_type_id":"4","last_reported":1745316636,"current_range_meters":22800,"station_id":"ce4bhqh2rcd13ifvqhmg","pricing_plan_id":"cebpf4jnsgd1na2vs0mg"},{"bike_id":"9c9a27f9-ba0d-457b-af29-d1f45e574b98","system_id":"levelo_inurba_marseille","lat":43.285919,"lon":5.351137,"is_reserved":false,"is_disabled":false,"rental_uris":{"android":"levelo://app?vid=9c9a27f9-ba0d-457b-af29-d1f45e574b98","ios":"levelo://app?vid=9c9a27f9-ba0d-457b-af29-d1f45e574b98"},"vehicle_type_id":"4","last_reported":1745316636,"current_range_meters":22800,"station_id":"ce4bgip2rcd13ifvqbb0","pricing_plan_id":"cebpf4jnsgd1na2vs0mg"},{"bike_id":"5b0a0388-44ed-40c5-a959-24b1bc66cd47","system_id":"levelo_inurba_marseille","lat":43.31365,"lon":5.38508,"is_reserved":false,"is_disabled":false,"rental_uris":{"android":"levelo://app?vid=5b0a0388-44ed-40c5-a959-24b1bc66cd47","ios":"levelo://app?vid=5b0a0388-44ed-40c5-a959-24b1bc66cd47"},"vehicle_type_id":"4","last_reported":1745316636,"current_range_meters":22800,"station_id":"ce4bgt92rcd13ifvqcf0","pricing_plan_id":"cebpf4jnsgd1na2vs0mg"},{"bike_id":"fdaa5725-ca39-49a7-a9cd-96b6eb72b7e3","system_id":"levelo_inurba_marseille","lat":43.32466,"lon":5.36556,"is_reserved":false,"is_disabled":false,"rental_uris":{"android":"levelo://app?vid=fdaa5725-ca39-49a7-a9cd-96b6eb72b7e3","ios":"levelo://app?vid=fdaa5725-ca39-49a7-a9cd-96b6eb72b7e3"},"vehicle_type_id":"4","last_reported":1745316636,"current_range_meters":22800,"station_id":"ce4bhs12rcd13ifvqhvg","pricing_plan_id":"cebpf4jnsgd1na2vs0mg"},{"bike_id":"e18a8e38-9dcf-4daa-a882-243c8508df5e","system_id":"levelo_inurba_marseille","lat":43.29262,"lon":5.38434,"is_reserved":false,"is_disabled":false,"rental_uris":{"android":"levelo://app?vid=e18a8e38-9dcf-4daa-a882-243c8508df5e","ios":"levelo://app?vid=e18a8e38-9dcf-4daa-a882-243c8508df5e"},"vehicle_type_id":"4","last_reported":1745316636,"current_range_meters":22800,"station_id":"ce4bh692rcd13ifvqea0","pricing_plan_id":"cebpf4jnsgd1na2vs0mg"},{"bike_id":"05e0b9f0-c654-4a11-94b7-a3c914bb2e2b","system_id":"levelo_inurba_marseille","lat":43.27079,"lon":5.42272,"is_reserved":false,"is_disabled":false,"rental_uris":{"android":"levelo://app?vid=05e0b9f0-c654-4a11-94b7-a3c914bb2e2b","ios":"levelo://app?vid=05e0b9f0-c654-4a11-94b7-a3c914bb2e2b"},"vehicle_type_id":"4","last_reported":1745316636,"current_range_meters":22800,"station_id":"ce4bhk92rcd13ifvqgb0","pricing_plan_id":"cebpf4jnsgd1na2vs0mg"},{"bike_id":"55bd23fd-42f0-438d-9801-b97645bb2329","system_id":"levelo_inurba_marseille","lat":43.30297,"lon":5.39207,"is_reserved":false,"is_disabled":false,"rental_uris":{"android":"levelo://app?vid=55bd23fd-42f0-438d-9801-b97645bb2329","ios":"levelo://app?vid=55bd23fd-42f0-438d-9801-b97645bb2329"},"vehicle_type_id":"4","last_reported":1745316636,"current_range_meters":22800,"station_id":"ce4bgkh2rcd13ifvqbk0","pricing_plan_id":"cebpf4jnsgd1na2vs0mg"},{"bike_id":"74f8a141-9d34-4dce-9416-bcc73538203a","system_id":"levelo_inurba_marseille","lat":43.32491,"lon":5.36561,"is_reserved":false,"is_disabled":false,"rental_uris":{"android":"levelo://app?vid=74f8a141-9d34-4dce-9416-bcc73538203a","ios":"levelo://app?vid=74f8a141-9d34-4dce-9416-bcc73538203a"},"vehicle_type_id":"4","last_reported":1745316636,"current_range_meters":22800,"station_id":"ce4bhs12rcd13ifvqhvg","pricing_plan_id":"cebpf4jnsgd1na2vs0mg"},{"bike_id":"d9e8470e-704c-4409-8d36-906c0fdf8572","system_id":"levelo_inurba_marseille","lat":43.28427,"lon":5.36767,"is_reserved":false,"is_disabled":false,"rental_uris":{"android":"levelo://app?vid=d9e8470e-704c-4409-8d36-906c0fdf8572","ios":"levelo://app?vid=d9e8470e-704c-4409-8d36-906c0fdf8572"},"vehicle_type_id":"4","last_reported":1745316636,"current_range_meters":22000,"station_id":"","pricing_plan_id":"cebpf4jnsgd1na2vs0mg"},{"bike_id":"373f779b-b25b-4bc2-89f1-2df3b2507373","system_id":"levelo_inurba_marseille","lat":43.240247,"lon":5.377665,"is_reserved":false,"is_disabled":false,"rental_uris":{"android":"levelo://app?vid=373f779b-b25b-4bc2-89f1-2df3b2507373","ios":"levelo://app?vid=373f779b-b25b-4bc2-89f1-2df3b2507373"},"vehicle_type_id":"4","last_reported":1745316636,"current_range_meters":23200,"station_id":"ce4bhnp2rcd13ifvqgvg","pricing_plan_id":"cebpf4jnsgd1na2vs0mg"},{"bike_id":"68c779f1-cdd0-4bb7-a2d1-87026f6b870b","system_id":"levelo_inurba_marseille","lat":43.24085,"lon":5.37755,"is_reserved":false,"is_disabled":false,"rental_uris":{"android":"levelo://app?vid=68c779f1-cdd0-4bb7-a2d1-87026f6b870b","ios":"levelo://app?vid=68c779f1-cdd0-4bb7-a2d1-87026f6b870b"},"vehicle_type_id":"4","last_reported":1745316636,"current_range_meters":23200,"station_id":"ce4bhnp2rcd13ifvqgvg","pricing_plan_id":"cebpf4jnsgd1na2vs0mg"},{"bike_id":"9181a354-49fa-45e3-b5c1-b7dca6746d38","system_id":"levelo_inurba_marseille","lat":43.25925,"lon":5.40896,"is_reserved":false,"is_disabled":false,"rental_uris":{"android":"levelo://app?vid=9181a354-49fa-45e3-b5c1-b7dca6746d38","ios":"levelo://app?vid=9181a354-49fa-45e3-b5c1-b7dca6746d38"},"vehicle_type_id":"4","last_reported":1745316636,"current_range_meters":23200,"station_id":"ce4bhm92rcd13ifvqglg","pricing_plan_id":"cebpf4jnsgd1na2vs0mg"},{"bike_id":"192d51cc-116a-4926-aa4a-e1515bcb8248","system_id":"levelo_inurba_marseille","lat":43.2998,"lon":5.38484,"is_reserved":false,"is_disabled":true,"rental_uris":{"android":"levelo://app?vid=192d51cc-116a-4926-aa4a-e1515bcb8248","ios":"levelo://app?vid=192d51cc-116a-4926-aa4a-e1515bcb8248"},"vehicle_type_id":"4","last_reported":1745316636,"current_range_meters":23200,"station_id":"ce4bgj92rcd13ifvqbd0","pricing_plan_id":"cebpf4jnsgd1na2vs0mg"},{"bike_id":"d7ce9eda-b8c1-4cfc-a14a-ea4b6b2fc45b","system_id":"levelo_inurba_marseille","lat":43.30535,"lon":5.36541,"is_reserved":false,"is_disabled":false,"rental_uris":{"android":"levelo://app?vid=d7ce9eda-b8c1-4cfc-a14a-ea4b6b2fc45b","ios":"levelo://app?vid=d7ce9eda-b8c1-4cfc-a14a-ea4b6b2fc45b"},"vehicle_type_id":"4","last_reported":1745316636,"current_range_meters":23200,"station_id":"ce4bgs12rcd13ifvqcag","pricing_plan_id":"cebpf4jnsgd1na2vs0mg"},{"bike_id":"5630f52d-0448-4fa0-94dd-5eaa69c05d03","system_id":"levelo_inurba_marseille","lat":43.27071,"lon":5.42282,"is_reserved":false,"is_disabled":false,"rental_uris":{"android":"levelo://app?vid=5630f52d-0448-4fa0-94dd-5eaa69c05d03","ios":"levelo://app?vid=5630f52d-0448-4fa0-94dd-5eaa69c05d03"},"vehicle_type_id":"4","last_reported":1745316636,"current_range_meters":24000,"station_id":"ce4bhk92rcd13ifvqgb0","pricing_plan_id":"cebpf4jnsgd1na2vs0mg"},{"bike_id":"7d54835e-f684-485e-b014-dc7c87673c33","system_id":"levelo_inurba_marseille","lat":43.28266,"lon":5.35063,"is_reserved":false,"is_disabled":false,"rental_uris":{"android":"levelo://app?vid=7d54835e-f684-485e-b014-dc7c87673c33","ios":"levelo://app?vid=7d54835e-f684-485e-b014-dc7c87673c33"},"vehicle_type_id":"4","last_reported":1745316636,"current_range_meters":23200,"station_id":"ce4bhbp2rcd13ifvqerg","pricing_plan_id":"cebpf4jnsgd1na2vs0mg"},{"bike_id":"14cdbefa-fec8-416f-b1ad-f563f6d91e28","system_id":"levelo_inurba_marseille","lat":43.29517,"lon":5.37523,"is_reserved":false,"is_disabled":false,"rental_uris":{"android":"levelo://app?vid=14cdbefa-fec8-416f-b1ad-f563f6d91e28","ios":"levelo://app?vid=14cdbefa-fec8-416f-b1ad-f563f6d91e28"},"vehicle_type_id":"4","last_reported":1745316636,"current_range_meters":24000,"station_id":"ce4bgkp2rcd13ifvqbmg","pricing_plan_id":"cebpf4jnsgd1na2vs0mg"},{"bike_id":"432bc703-72a4-426f-9c7b-2bda4446dcfa","system_id":"levelo_inurba_marseille","lat":43.32653,"lon":5.41005,"is_reserved":false,"is_disabled":false,"rental_uris":{"android":"levelo://app?vid=432bc703-72a4-426f-9c7b-2bda4446dcfa","ios":"levelo://app?vid=432bc703-72a4-426f-9c7b-2bda4446dcfa"},"vehicle_type_id":"4","last_reported":1745316636,"current_range_meters":24000,"station_id":"ce4bhpp2rcd13ifvqhgg","pricing_plan_id":"cebpf4jnsgd1na2vs0mg"},{"bike_id":"925e9e4e-06bb-4303-8c95-dea24f2a664a","system_id":"levelo_inurba_marseille","lat":43.29623,"lon":5.37159,"is_reserved":false,"is_disabled":false,"rental_uris":{"android":"levelo://app?vid=925e9e4e-06bb-4303-8c95-dea24f2a664a","ios":"levelo://app?vid=925e9e4e-06bb-4303-8c95-dea24f2a664a"},"vehicle_type_id":"4","last_reported":1745316636,"current_range_meters":24000,"station_id":"ce4bgnh2rcd13ifvqc0g","pricing_plan_id":"cebpf4jnsgd1na2vs0mg"},{"bike_id":"ac1db382-ef8a-4e6d-872b-99760272d17d","system_id":"levelo_inurba_marseille","lat":43.28105,"lon":5.37831,"is_reserved":false,"is_disabled":true,"rental_uris":{"android":"levelo://app?vid=ac1db382-ef8a-4e6d-872b-99760272d17d","ios":"levelo://app?vid=ac1db382-ef8a-4e6d-872b-99760272d17d"},"vehicle_type_id":"4","last_reported":1745316636,"current_range_meters":24000,"station_id":"ce4bha12rcd13ifvqee0","pricing_plan_id":"cebpf4jnsgd1na2vs0mg"},{"bike_id":"f3b9004a-8fb6-4b39-ad45-36490e758a65","system_id":"levelo_inurba_marseille","lat":43.27422,"lon":5.39418,"is_reserved":false,"is_disabled":false,"rental_uris":{"android":"levelo://app?vid=f3b9004a-8fb6-4b39-ad45-36490e758a65","ios":"levelo://app?vid=f3b9004a-8fb6-4b39-ad45-36490e758a65"},"vehicle_type_id":"4","last_reported":1745316636,"current_range_meters":24000,"station_id":"ce4bhdp2rcd13ifvqf20","pricing_plan_id":"cebpf4jnsgd1na2vs0mg"},{"bike_id":"98375302-ff2a-4f6a-a60b-bd933ace23a9","system_id":"levelo_inurba_marseille","lat":43.30139,"lon":5.37427,"is_reserved":false,"is_disabled":false,"rental_uris":{"android":"levelo://app?vid=98375302-ff2a-4f6a-a60b-bd933ace23a9","ios":"levelo://app?vid=98375302-ff2a-4f6a-a60b-bd933ace23a9"},"vehicle_type_id":"4","last_reported":1745316636,"current_range_meters":24400,"station_id":"ce4bgs92rcd13ifvqcc0","pricing_plan_id":"cebpf4jnsgd1na2vs0mg"},{"bike_id":"bc270640-2a96-4c56-a07b-9499f1bfe591","system_id":"levelo_inurba_marseille","lat":43.230634,"lon":5.354942,"is_reserved":false,"is_disabled":false,"rental_uris":{"android":"levelo://app?vid=bc270640-2a96-4c56-a07b-9499f1bfe591","ios":"levelo://app?vid=bc270640-2a96-4c56-a07b-9499f1bfe591"},"vehicle_type_id":"4","last_reported":1745316636,"current_range_meters":24400,"station_id":"cpo3342slgdg3j2ifvpg","pricing_plan_id":"cebpf4jnsgd1na2vs0mg"},{"bike_id":"bbe8f54e-39c4-4977-afe3-96314a5d1b18","system_id":"levelo_inurba_marseille","lat":43.309014,"lon":5.371754,"is_reserved":false,"is_disabled":false,"rental_uris":{"android":"levelo://app?vid=bbe8f54e-39c4-4977-afe3-96314a5d1b18","ios":"levelo://app?vid=bbe8f54e-39c4-4977-afe3-96314a5d1b18"},"vehicle_type_id":"4","last_reported":1745316636,"current_range_meters":24400,"station_id":"ce4bguh2rcd13ifvqckg","pricing_plan_id":"cebpf4jnsgd1na2vs0mg"},{"bike_id":"b2328ecb-0cbd-4b4d-90e9-9edaa1dfc87d","system_id":"levelo_inurba_marseille","lat":43.29255,"lon":5.37632,"is_reserved":false,"is_disabled":false,"rental_uris":{"android":"levelo://app?vid=b2328ecb-0cbd-4b4d-90e9-9edaa1dfc87d","ios":"levelo://app?vid=b2328ecb-0cbd-4b4d-90e9-9edaa1dfc87d"},"vehicle_type_id":"4","last_reported":1745316636,"current_range_meters":24400,"station_id":"ce4bgi12rcd13ifvqb80","pricing_plan_id":"cebpf4jnsgd1na2vs0mg"},{"bike_id":"106bd907-72ad-48fa-9210-d314dbdf3a65","system_id":"levelo_inurba_marseille","lat":43.31404,"lon":5.36664,"is_reserved":false,"is_disabled":false,"rental_uris":{"android":"levelo://app?vid=106bd907-72ad-48fa-9210-d314dbdf3a65","ios":"levelo://app?vid=106bd907-72ad-48fa-9210-d314dbdf3a65"},"vehicle_type_id":"4","last_reported":1745316636,"current_range_meters":24400,"station_id":"ce4bgr92rcd13ifvqc6g","pricing_plan_id":"cebpf4jnsgd1na2vs0mg"},{"bike_id":"fdc79fbf-e0d3-4d96-a17f-27081b550fd1","system_id":"levelo_inurba_marseille","lat":43.27075,"lon":5.42266,"is_reserved":false,"is_disabled":false,"rental_uris":{"android":"levelo://app?vid=fdc79fbf-e0d3-4d96-a17f-27081b550fd1","ios":"levelo://app?vid=fdc79fbf-e0d3-4d96-a17f-27081b550fd1"},"vehicle_type_id":"4","last_reported":1745316636,"current_range_meters":24400,"station_id":"ce4bhk92rcd13ifvqgb0","pricing_plan_id":"cebpf4jnsgd1na2vs0mg"},{"bike_id":"39738be9-6f5f-450a-8f39-92c55e8adcfc","system_id":"levelo_inurba_marseille","lat":43.3097,"lon":5.38981,"is_reserved":false,"is_disabled":false,"rental_uris":{"android":"levelo://app?vid=39738be9-6f5f-450a-8f39-92c55e8adcfc","ios":"levelo://app?vid=39738be9-6f5f-450a-8f39-92c55e8adcfc"},"vehicle_type_id":"4","last_reported":1745316636,"current_range_meters":24400,"station_id":"ce4bgup2rcd13ifvqco0","pricing_plan_id":"cebpf4jnsgd1na2vs0mg"},{"bike_id":"2f8e3607-4113-484d-a492-d4b0cfa60e37","system_id":"levelo_inurba_marseille","lat":43.33758,"lon":5.37425,"is_reserved":false,"is_disabled":false,"rental_uris":{"android":"levelo://app?vid=2f8e3607-4113-484d-a492-d4b0cfa60e37","ios":"levelo://app?vid=2f8e3607-4113-484d-a492-d4b0cfa60e37"},"vehicle_type_id":"4","last_reported":1745316636,"current_range_meters":24800,"station_id":"","pricing_plan_id":"cebpf4jnsgd1na2vs0mg"},{"bike_id":"1cd25bd8-a14d-41f0-94eb-6493c28c43ae","system_id":"levelo_inurba_marseille","lat":43.30303,"lon":5.39208,"is_reserved":false,"is_disabled":false,"rental_uris":{"android":"levelo://app?vid=1cd25bd8-a14d-41f0-94eb-6493c28c43ae","ios":"levelo://app?vid=1cd25bd8-a14d-41f0-94eb-6493c28c43ae"},"vehicle_type_id":"4","last_reported":1745316636,"current_range_meters":24800,"station_id":"ce4bgkh2rcd13ifvqbk0","pricing_plan_id":"cebpf4jnsgd1na2vs0mg"},{"bike_id":"397c1afb-c727-4564-b177-f2f4cbc6ff5e","system_id":"levelo_inurba_marseille","lat":43.23592,"lon":5.40341,"is_reserved":false,"is_disabled":false,"rental_uris":{"android":"levelo://app?vid=397c1afb-c727-4564-b177-f2f4cbc6ff5e","ios":"levelo://app?vid=397c1afb-c727-4564-b177-f2f4cbc6ff5e"},"vehicle_type_id":"4","last_reported":1745316636,"current_range_meters":24800,"station_id":"","pricing_plan_id":"cebpf4jnsgd1na2vs0mg"},{"bike_id":"8d0b03c6-fd7f-408f-8d76-e545a54ea412","system_id":"levelo_inurba_marseille","lat":43.2944,"lon":5.3975,"is_reserved":false,"is_disabled":false,"rental_uris":{"android":"levelo://app?vid=8d0b03c6-fd7f-408f-8d76-e545a54ea412","ios":"levelo://app?vid=8d0b03c6-fd7f-408f-8d76-e545a54ea412"},"vehicle_type_id":"4","last_reported":1745316636,"current_range_meters":24800,"station_id":"ce4bh3h2rcd13ifvqdo0","pricing_plan_id":"cebpf4jnsgd1na2vs0mg"},{"bike_id":"298e1984-65aa-4475-afa1-4143b080b58f","system_id":"levelo_inurba_marseille","lat":43.2861,"lon":5.37059,"is_reserved":false,"is_disabled":false,"rental_uris":{"android":"levelo://app?vid=298e1984-65aa-4475-afa1-4143b080b58f","ios":"levelo://app?vid=298e1984-65aa-4475-afa1-4143b080b58f"},"vehicle_type_id":"4","last_reported":1745316636,"current_range_meters":24800,"station_id":"ce4bht12rcd13ifvqi60","pricing_plan_id":"cebpf4jnsgd1na2vs0mg"},{"bike_id":"e44e8d8b-bde9-4866-a1e3-baf2cae0cf8d","system_id":"levelo_inurba_marseille","lat":43.25923,"lon":5.40922,"is_reserved":false,"is_disabled":false,"rental_uris":{"android":"levelo://app?vid=e44e8d8b-bde9-4866-a1e3-baf2cae0cf8d","ios":"levelo://app?vid=e44e8d8b-bde9-4866-a1e3-baf2cae0cf8d"},"vehicle_type_id":"4","last_reported":1745316636,"current_range_meters":24800,"station_id":"ce4bhm92rcd13ifvqglg","pricing_plan_id":"cebpf4jnsgd1na2vs0mg"},{"bike_id":"e7e6b4fa-e83c-410c-812a-23770b757455","system_id":"levelo_inurba_marseille","lat":43.30464,"lon":5.37908,"is_reserved":false,"is_disabled":false,"rental_uris":{"android":"levelo://app?vid=e7e6b4fa-e83c-410c-812a-23770b757455","ios":"levelo://app?vid=e7e6b4fa-e83c-410c-812a-23770b757455"},"vehicle_type_id":"4","last_reported":1745316636,"current_range_meters":24800,"station_id":"ce4bgup2rcd13ifvqcn0","pricing_plan_id":"cebpf4jnsgd1na2vs0mg"},{"bike_id":"77e3b39d-2c14-4249-afca-2bb8e31cb565","system_id":"levelo_inurba_marseille","lat":43.292653,"lon":5.384432,"is_reserved":false,"is_disabled":false,"rental_uris":{"android":"levelo://app?vid=77e3b39d-2c14-4249-afca-2bb8e31cb565","ios":"levelo://app?vid=77e3b39d-2c14-4249-afca-2bb8e31cb565"},"vehicle_type_id":"4","last_reported":1745316636,"current_range_meters":24800,"station_id":"ce4bh692rcd13ifvqea0","pricing_plan_id":"cebpf4jnsgd1na2vs0mg"},{"bike_id":"b3d366e3-156c-4c26-b84c-319fcb1cdc7d","system_id":"levelo_inurba_marseille","lat":43.28615,"lon":5.37018,"is_reserved":false,"is_disabled":false,"rental_uris":{"android":"levelo://app?vid=b3d366e3-156c-4c26-b84c-319fcb1cdc7d","ios":"levelo://app?vid=b3d366e3-156c-4c26-b84c-319fcb1cdc7d"},"vehicle_type_id":"4","last_reported":1745316636,"current_range_meters":24800,"station_id":"ce4bht12rcd13ifvqi60","pricing_plan_id":"cebpf4jnsgd1na2vs0mg"},{"bike_id":"1f7273cd-4489-45d1-9abc-7f412cafa5b3","system_id":"levelo_inurba_marseille","lat":43.30533,"lon":5.36548,"is_reserved":false,"is_disabled":false,"rental_uris":{"android":"levelo://app?vid=1f7273cd-4489-45d1-9abc-7f412cafa5b3","ios":"levelo://app?vid=1f7273cd-4489-45d1-9abc-7f412cafa5b3"},"vehicle_type_id":"4","last_reported":1745316636,"current_range_meters":24800,"station_id":"ce4bgs12rcd13ifvqcag","pricing_plan_id":"cebpf4jnsgd1na2vs0mg"},{"bike_id":"be2d3eda-bd6d-49f5-8a21-f60b412449da","system_id":"levelo_inurba_marseille","lat":43.26245,"lon":5.3876,"is_reserved":false,"is_disabled":false,"rental_uris":{"android":"levelo://app?vid=be2d3eda-bd6d-49f5-8a21-f60b412449da","ios":"levelo://app?vid=be2d3eda-bd6d-49f5-8a21-f60b412449da"},"vehicle_type_id":"4","last_reported":1745316636,"current_range_meters":24800,"station_id":"","pricing_plan_id":"cebpf4jnsgd1na2vs0mg"},{"bike_id":"ced85efe-6ea1-41f9-b37d-5368060afe27","system_id":"levelo_inurba_marseille","lat":43.26066,"lon":5.39397,"is_reserved":false,"is_disabled":true,"rental_uris":{"android":"levelo://app?vid=ced85efe-6ea1-41f9-b37d-5368060afe27","ios":"levelo://app?vid=ced85efe-6ea1-41f9-b37d-5368060afe27"},"vehicle_type_id":"4","last_reported":1745316636,"current_range_meters":24800,"station_id":"ce4bhh92rcd13ifvqfj0","pricing_plan_id":"cebpf4jnsgd1na2vs0mg"},{"bike_id":"c6568c29-0066-4b8f-83ff-a5c4a8650ab6","system_id":"levelo_inurba_marseille","lat":43.30888,"lon":5.37183,"is_reserved":false,"is_disabled":false,"rental_uris":{"android":"levelo://app?vid=c6568c29-0066-4b8f-83ff-a5c4a8650ab6","ios":"levelo://app?vid=c6568c29-0066-4b8f-83ff-a5c4a8650ab6"},"vehicle_type_id":"4","last_reported":1745316636,"current_range_meters":24800,"station_id":"ce4bguh2rcd13ifvqckg","pricing_plan_id":"cebpf4jnsgd1na2vs0mg"},{"bike_id":"a65423f9-6525-4475-a6e9-45b6c17ee4fc","system_id":"levelo_inurba_marseille","lat":43.23964,"lon":5.36637,"is_reserved":false,"is_disabled":false,"rental_uris":{"android":"levelo://app?vid=a65423f9-6525-4475-a6e9-45b6c17ee4fc","ios":"levelo://app?vid=a65423f9-6525-4475-a6e9-45b6c17ee4fc"},"vehicle_type_id":"4","last_reported":1745316636,"current_range_meters":24800,"station_id":"ce4bhi12rcd13ifvqfp0","pricing_plan_id":"cebpf4jnsgd1na2vs0mg"},{"bike_id":"3fc9abfd-da09-4ee5-b812-f40cf6232447","system_id":"levelo_inurba_marseille","lat":43.29704,"lon":5.36619,"is_reserved":false,"is_disabled":false,"rental_uris":{"android":"levelo://app?vid=3fc9abfd-da09-4ee5-b812-f40cf6232447","ios":"levelo://app?vid=3fc9abfd-da09-4ee5-b812-f40cf6232447"},"vehicle_type_id":"4","last_reported":1745316636,"current_range_meters":25200,"station_id":"ce4bgn12rcd13ifvqbt0","pricing_plan_id":"cebpf4jnsgd1na2vs0mg"},{"bike_id":"3d993a48-829d-4dd0-b33b-bf9abd930456","system_id":"levelo_inurba_marseille","lat":43.29027,"lon":5.38648,"is_reserved":false,"is_disabled":false,"rental_uris":{"android":"levelo://app?vid=3d993a48-829d-4dd0-b33b-bf9abd930456","ios":"levelo://app?vid=3d993a48-829d-4dd0-b33b-bf9abd930456"},"vehicle_type_id":"4","last_reported":1745316636,"current_range_meters":24800,"station_id":"ce4bh4p2rcd13ifvqe0g","pricing_plan_id":"cebpf4jnsgd1na2vs0mg"},{"bike_id":"0d23bf1e-37de-4642-ac2c-fe9bdd02e1ec","system_id":"levelo_inurba_marseille","lat":43.29849,"lon":5.36257,"is_reserved":false,"is_disabled":false,"rental_uris":{"android":"levelo://app?vid=0d23bf1e-37de-4642-ac2c-fe9bdd02e1ec","ios":"levelo://app?vid=0d23bf1e-37de-4642-ac2c-fe9bdd02e1ec"},"vehicle_type_id":"4","last_reported":1745316636,"current_range_meters":25200,"station_id":"ce4bgpp2rcd13ifvqc3g","pricing_plan_id":"cebpf4jnsgd1na2vs0mg"},{"bike_id":"dd68b948-c027-4708-be88-035b918a7167","system_id":"levelo_inurba_marseille","lat":43.29791,"lon":5.38076,"is_reserved":false,"is_disabled":false,"rental_uris":{"android":"levelo://app?vid=dd68b948-c027-4708-be88-035b918a7167","ios":"levelo://app?vid=dd68b948-c027-4708-be88-035b918a7167"},"vehicle_type_id":"4","last_reported":1745316636,"current_range_meters":24800,"station_id":"ce4bgip2rcd13ifvqbb0","pricing_plan_id":"cebpf4jnsgd1na2vs0mg"},{"bike_id":"2983763c-8e94-41b6-abcf-6587f56dd445","system_id":"levelo_inurba_marseille","lat":43.29273,"lon":5.36843,"is_reserved":false,"is_disabled":false,"rental_uris":{"android":"levelo://app?vid=2983763c-8e94-41b6-abcf-6587f56dd445","ios":"levelo://app?vid=2983763c-8e94-41b6-abcf-6587f56dd445"},"vehicle_type_id":"4","last_reported":1745316636,"current_range_meters":25200,"station_id":"ce4bhbp2rcd13ifvqesg","pricing_plan_id":"cebpf4jnsgd1na2vs0mg"},{"bike_id":"e2f1efce-eb87-47b5-8a20-953d71db5efa","system_id":"levelo_inurba_marseille","lat":43.26215,"lon":5.37438,"is_reserved":false,"is_disabled":false,"rental_uris":{"android":"levelo://app?vid=e2f1efce-eb87-47b5-8a20-953d71db5efa","ios":"levelo://app?vid=e2f1efce-eb87-47b5-8a20-953d71db5efa"},"vehicle_type_id":"4","last_reported":1745316636,"current_range_meters":25200,"station_id":"ce4bhgp2rcd13ifvqfc0","pricing_plan_id":"cebpf4jnsgd1na2vs0mg"},{"bike_id":"7fb42d07-c959-40e9-882e-e04ad8ca0175","system_id":"levelo_inurba_marseille","lat":43.30442,"lon":5.38889,"is_reserved":false,"is_disabled":true,"rental_uris":{"android":"levelo://app?vid=7fb42d07-c959-40e9-882e-e04ad8ca0175","ios":"levelo://app?vid=7fb42d07-c959-40e9-882e-e04ad8ca0175"},"vehicle_type_id":"4","last_reported":1745316636,"current_range_meters":25200,"station_id":"ce4bgk12rcd13ifvqbi0","pricing_plan_id":"cebpf4jnsgd1na2vs0mg"},{"bike_id":"0116ba25-f04b-4aa3-998e-f28c0a2a454a","system_id":"levelo_inurba_marseille","lat":43.28945,"lon":5.36404,"is_reserved":false,"is_disabled":false,"rental_uris":{"android":"levelo://app?vid=0116ba25-f04b-4aa3-998e-f28c0a2a454a","ios":"levelo://app?vid=0116ba25-f04b-4aa3-998e-f28c0a2a454a"},"vehicle_type_id":"4","last_reported":1745316636,"current_range_meters":25200,"station_id":"ce4bhc92rcd13ifvqetg","pricing_plan_id":"cebpf4jnsgd1na2vs0mg"},{"bike_id":"53912088-3cb7-4dbc-bbc9-304fb86a1c08","system_id":"levelo_inurba_marseille","lat":43.29895,"lon":5.436649,"is_reserved":false,"is_disabled":false,"rental_uris":{"android":"levelo://app?vid=53912088-3cb7-4dbc-bbc9-304fb86a1c08","ios":"levelo://app?vid=53912088-3cb7-4dbc-bbc9-304fb86a1c08"},"vehicle_type_id":"4","last_reported":1745316636,"current_range_meters":25600,"station_id":"ce4bhpp2rcd13ifvqhfg","pricing_plan_id":"cebpf4jnsgd1na2vs0mg"},{"bike_id":"74d9a4af-5502-4eec-8e93-f91f7c5d100b","system_id":"levelo_inurba_marseille","lat":43.34158,"lon":5.40903,"is_reserved":false,"is_disabled":false,"rental_uris":{"android":"levelo://app?vid=74d9a4af-5502-4eec-8e93-f91f7c5d100b","ios":"levelo://app?vid=74d9a4af-5502-4eec-8e93-f91f7c5d100b"},"vehicle_type_id":"4","last_reported":1745316636,"current_range_meters":25600,"station_id":"ce4bhqh2rcd13ifvqhlg","pricing_plan_id":"cebpf4jnsgd1na2vs0mg"},{"bike_id":"80e1de71-51c9-474e-8176-553e3f285749","system_id":"levelo_inurba_marseille","lat":43.24662,"lon":5.38156,"is_reserved":false,"is_disabled":false,"rental_uris":{"android":"levelo://app?vid=80e1de71-51c9-474e-8176-553e3f285749","ios":"levelo://app?vid=80e1de71-51c9-474e-8176-553e3f285749"},"vehicle_type_id":"4","last_reported":1745316636,"current_range_meters":25600,"station_id":"ce4bhih2rcd13ifvqfr0","pricing_plan_id":"cebpf4jnsgd1na2vs0mg"},{"bike_id":"39d04bbc-ec0e-4084-a5e5-e6372e96ef40","system_id":"levelo_inurba_marseille","lat":43.30949,"lon":5.39035,"is_reserved":false,"is_disabled":false,"rental_uris":{"android":"levelo://app?vid=39d04bbc-ec0e-4084-a5e5-e6372e96ef40","ios":"levelo://app?vid=39d04bbc-ec0e-4084-a5e5-e6372e96ef40"},"vehicle_type_id":"4","last_reported":1745316636,"current_range_meters":25200,"station_id":"ce4bgup2rcd13ifvqco0","pricing_plan_id":"cebpf4jnsgd1na2vs0mg"},{"bike_id":"f445f49d-56b9-4948-b8bf-dcdf16119862","system_id":"levelo_inurba_marseille","lat":43.27558,"lon":5.38433,"is_reserved":false,"is_disabled":false,"rental_uris":{"android":"levelo://app?vid=f445f49d-56b9-4948-b8bf-dcdf16119862","ios":"levelo://app?vid=f445f49d-56b9-4948-b8bf-dcdf16119862"},"vehicle_type_id":"4","last_reported":1745316636,"current_range_meters":25600,"station_id":"ce4bhh92rcd13ifvqfi0","pricing_plan_id":"cebpf4jnsgd1na2vs0mg"},{"bike_id":"c4664b61-0e4c-45b2-aec9-180e944bed6f","system_id":"levelo_inurba_marseille","lat":43.29844,"lon":5.36272,"is_reserved":false,"is_disabled":false,"rental_uris":{"android":"levelo://app?vid=c4664b61-0e4c-45b2-aec9-180e944bed6f","ios":"levelo://app?vid=c4664b61-0e4c-45b2-aec9-180e944bed6f"},"vehicle_type_id":"4","last_reported":1745316636,"current_range_meters":25600,"station_id":"ce4bgpp2rcd13ifvqc3g","pricing_plan_id":"cebpf4jnsgd1na2vs0mg"},{"bike_id":"68adc71e-0ef7-495e-90fc-3b95c56b2c4c","system_id":"levelo_inurba_marseille","lat":43.32538,"lon":5.41432,"is_reserved":false,"is_disabled":false,"rental_uris":{"android":"levelo://app?vid=68adc71e-0ef7-495e-90fc-3b95c56b2c4c","ios":"levelo://app?vid=68adc71e-0ef7-495e-90fc-3b95c56b2c4c"},"vehicle_type_id":"4","last_reported":1745316636,"current_range_meters":25600,"station_id":"ce4bhq12rcd13ifvqhhg","pricing_plan_id":"cebpf4jnsgd1na2vs0mg"},{"bike_id":"8b43b1fb-5cab-4db8-ae05-f66514d8855e","system_id":"levelo_inurba_marseille","lat":43.31278,"lon":5.37309,"is_reserved":false,"is_disabled":false,"rental_uris":{"android":"levelo://app?vid=8b43b1fb-5cab-4db8-ae05-f66514d8855e","ios":"levelo://app?vid=8b43b1fb-5cab-4db8-ae05-f66514d8855e"},"vehicle_type_id":"4","last_reported":1745316636,"current_range_meters":25600,"station_id":"","pricing_plan_id":"cebpf4jnsgd1na2vs0mg"},{"bike_id":"ab8406b2-4f8d-4381-8821-3db52b0a4d4d","system_id":"levelo_inurba_marseille","lat":43.27351,"lon":5.37841,"is_reserved":false,"is_disabled":false,"rental_uris":{"android":"levelo://app?vid=ab8406b2-4f8d-4381-8821-3db52b0a4d4d","ios":"levelo://app?vid=ab8406b2-4f8d-4381-8821-3db52b0a4d4d"},"vehicle_type_id":"4","last_reported":1745316636,"current_range_meters":25600,"station_id":"","pricing_plan_id":"cebpf4jnsgd1na2vs0mg"},{"bike_id":"9dc06002-91f2-4df8-a2c7-f43c8d53676d","system_id":"levelo_inurba_marseille","lat":43.33024,"lon":5.39043,"is_reserved":false,"is_disabled":false,"rental_uris":{"android":"levelo://app?vid=9dc06002-91f2-4df8-a2c7-f43c8d53676d","ios":"levelo://app?vid=9dc06002-91f2-4df8-a2c7-f43c8d53676d"},"vehicle_type_id":"4","last_reported":1745316636,"current_range_meters":25200,"station_id":"ce4bhr92rcd13ifvqhrg","pricing_plan_id":"cebpf4jnsgd1na2vs0mg"},{"bike_id":"0e7c9a6a-a393-49e1-945a-ba2c0a2ce149","system_id":"levelo_inurba_marseille","lat":43.28707,"lon":5.399831,"is_reserved":false,"is_disabled":false,"rental_uris":{"android":"levelo://app?vid=0e7c9a6a-a393-49e1-945a-ba2c0a2ce149","ios":"levelo://app?vid=0e7c9a6a-a393-49e1-945a-ba2c0a2ce149"},"vehicle_type_id":"4","last_reported":1745316636,"current_range_meters":25200,"station_id":"ce4bho92rcd13ifvqh3g","pricing_plan_id":"cebpf4jnsgd1na2vs0mg"},{"bike_id":"be741d23-2aed-4164-9276-b257f188f21c","system_id":"levelo_inurba_marseille","lat":43.24063,"lon":5.37764,"is_reserved":false,"is_disabled":false,"rental_uris":{"android":"levelo://app?vid=be741d23-2aed-4164-9276-b257f188f21c","ios":"levelo://app?vid=be741d23-2aed-4164-9276-b257f188f21c"},"vehicle_type_id":"4","last_reported":1745316636,"current_range_meters":25600,"station_id":"ce4bhnp2rcd13ifvqgvg","pricing_plan_id":"cebpf4jnsgd1na2vs0mg"},{"bike_id":"aae00b42-46bd-4edf-a0e6-70b8eeb15873","system_id":"levelo_inurba_marseille","lat":43.25828,"lon":5.39438,"is_reserved":false,"is_disabled":false,"rental_uris":{"android":"levelo://app?vid=aae00b42-46bd-4edf-a0e6-70b8eeb15873","ios":"levelo://app?vid=aae00b42-46bd-4edf-a0e6-70b8eeb15873"},"vehicle_type_id":"4","last_reported":1745316636,"current_range_meters":25200,"station_id":"ce4bhip2rcd13ifvqft0","pricing_plan_id":"cebpf4jnsgd1na2vs0mg"},{"bike_id":"c9460c95-931f-4963-8324-7df96e1a1f5d","system_id":"levelo_inurba_marseille","lat":43.21192,"lon":5.35076,"is_reserved":false,"is_disabled":true,"rental_uris":{"android":"levelo://app?vid=c9460c95-931f-4963-8324-7df96e1a1f5d","ios":"levelo://app?vid=c9460c95-931f-4963-8324-7df96e1a1f5d"},"vehicle_type_id":"4","last_reported":1745316636,"current_range_meters":25600,"station_id":"ce4bhah2rcd13ifvqej0","pricing_plan_id":"cebpf4jnsgd1na2vs0mg"},{"bike_id":"c510ac71-9c37-478f-9b6b-54e495d0844e","system_id":"levelo_inurba_marseille","lat":43.298525,"lon":5.362865,"is_reserved":false,"is_disabled":false,"rental_uris":{"android":"levelo://app?vid=c510ac71-9c37-478f-9b6b-54e495d0844e","ios":"levelo://app?vid=c510ac71-9c37-478f-9b6b-54e495d0844e"},"vehicle_type_id":"4","last_reported":1745316636,"current_range_meters":25200,"station_id":"ce4bgpp2rcd13ifvqc3g","pricing_plan_id":"cebpf4jnsgd1na2vs0mg"},{"bike_id":"f45e4ae4-93c0-401d-b39a-7e25652c282b","system_id":"levelo_inurba_marseille","lat":43.28274,"lon":5.35059,"is_reserved":false,"is_disabled":false,"rental_uris":{"android":"levelo://app?vid=f45e4ae4-93c0-401d-b39a-7e25652c282b","ios":"levelo://app?vid=f45e4ae4-93c0-401d-b39a-7e25652c282b"},"vehicle_type_id":"4","last_reported":1745316636,"current_range_meters":26000,"station_id":"ce4bhbp2rcd13ifvqerg","pricing_plan_id":"cebpf4jnsgd1na2vs0mg"},{"bike_id":"79120541-b36c-478e-8432-7ebe14eb97d9","system_id":"levelo_inurba_marseille","lat":43.27666,"lon":5.38878,"is_reserved":false,"is_disabled":false,"rental_uris":{"android":"levelo://app?vid=79120541-b36c-478e-8432-7ebe14eb97d9","ios":"levelo://app?vid=79120541-b36c-478e-8432-7ebe14eb97d9"},"vehicle_type_id":"4","last_reported":1745316636,"current_range_meters":26000,"station_id":"ce4bhi12rcd13ifvqfo0","pricing_plan_id":"cebpf4jnsgd1na2vs0mg"},{"bike_id":"be54b61d-e038-471e-9e2e-06320bf336e4","system_id":"levelo_inurba_marseille","lat":43.2957,"lon":5.39971,"is_reserved":false,"is_disabled":true,"rental_uris":{"android":"levelo://app?vid=be54b61d-e038-471e-9e2e-06320bf336e4","ios":"levelo://app?vid=be54b61d-e038-471e-9e2e-06320bf336e4"},"vehicle_type_id":"4","last_reported":1745316636,"current_range_meters":26000,"station_id":"ce4bh312rcd13ifvqdj0","pricing_plan_id":"cebpf4jnsgd1na2vs0mg"},{"bike_id":"90acdd6e-b7ac-4ca1-ba11-4312e3c843ae","system_id":"levelo_inurba_marseille","lat":43.25945,"lon":5.40907,"is_reserved":false,"is_disabled":false,"rental_uris":{"android":"levelo://app?vid=90acdd6e-b7ac-4ca1-ba11-4312e3c843ae","ios":"levelo://app?vid=90acdd6e-b7ac-4ca1-ba11-4312e3c843ae"},