{"last_updated":1743066682,"ttl":60,"version":"2.2","data":{"bikes":[{"bike_id":"1166a390-5ee0-4599-b63d-b09cb15c0001","system_id":"levelo_inurba_marseille","lat":43.24075,"lon":5.37754,"is_reserved":false,"is_disabled":false,"rental_uris":{"android":"levelo://app?vid=1166a390-5ee0-4599-b63d-b09cb15c0001","ios":"levelo://app?vid=1166a390-5ee0-4599-b63d-b09cb15c0001"},"vehicle_type_id":"4","last_reported":1743066682,"current_range_meters":2800,"station_id":"ce4bhnp2rcd13ifvqgvg","pricing_plan_id":"cebpf4jnsgd1na2vs0mg"},{"bike_id":"3cd9b5bc-fba0-4545-94d0-e86f3d302f0f","system_id":"levelo_inurba_marseille","lat":43.28156,"lon":5.42646,"is_reserved":false,"is_disabled":false,"rental_uris":{"android":"levelo://app?vid=3cd9b5bc-fba0-4545-94d0-e86f3d302f0f","ios":"levelo://app?vid=3cd9b5bc-fba0-4545-94d0-e86f3d302f0f"},"vehicle_type_id":"4","last_reported":1743066682,"current_range_meters":2800,"station_id":"ce4bhnh2rcd13ifvqgug","pricing_plan_id":"cebpf4jnsgd1na2vs0mg"},{"bike_id":"d0b63eaf-7e39-4dc0-82f3-136bb5b7e868","system_id":"levelo_inurba_marseille","lat":43.290721,"lon":5.371563,"is_reserved":false,"is_disabled":false,"rental_uris":{"android":"levelo://app?vid=d0b63eaf-7e39-4dc0-82f3-136bb5b7e868","ios":"levelo://app?vid=d0b63eaf-7e39-4dc0-82f3-136bb5b7e868"},"vehicle_type_id":"4","last_reported":1743066682,"current_range_meters":2000,"station_id":"ce4bho92rcd13ifvqh3g","pricing_plan_id":"cebpf4jnsgd1na2vs0mg"},{"bike_id":"cd20d16a-032a-4ea7-a430-255e9d8a59c5","system_id":"levelo_inurba_marseille","lat":43.31475,"lon":5.37414,"is_reserved":false,"is_disabled":false,"rental_uris":{"android":"levelo://app?vid=cd20d16a-032a-4ea7-a430-255e9d8a59c5","ios":"levelo://app?vid=cd20d16a-032a-4ea7-a430-255e9d8a59c5"},"vehicle_type_id":"4","last_reported":1743066682,"current_range_meters":2800,"station_id":"","pricing_plan_id":"cebpf4jnsgd1na2vs0mg"},{"bike_id":"1a2fd17b-23a1-4efd-a79f-f5bcd99988d3","system_id":"levelo_inurba_marseille","lat":43.31224,"lon":5.368503,"is_reserved":false,"is_disabled":false,"rental_uris":{"android":"levelo://app?vid=1a2fd17b-23a1-4efd-a79f-f5bcd99988d3","ios":"levelo://app?vid=1a2fd17b-23a1-4efd-a79f-f5bcd99988d3"},"vehicle_type_id":"4","last_reported":1743066682,"current_range_meters":2800,"station_id":"ce4bgl92rcd13ifvqbq0","pricing_plan_id":"cebpf4jnsgd1na2vs0mg"},{"bike_id":"4fa9b8f4-26cc-4ca0-bd63-5f673cb2743b","system_id":"levelo_inurba_marseille","lat":43.27324,"lon":5.39094,"is_reserved":false,"is_disabled":true,"rental_uris":{"android":"levelo://app?vid=4fa9b8f4-26cc-4ca0-bd63-5f673cb2743b","ios":"levelo://app?vid=4fa9b8f4-26cc-4ca0-bd63-5f673cb2743b"},"vehicle_type_id":"4","last_reported":1743066682,"current_range_meters":3200,"station_id":"ce4bhgp2rcd13ifvqfe0","pricing_plan_id":"cebpf4jnsgd1na2vs0mg"},{"bike_id":"f8860ff7-c2b0-45aa-987b-977f1a7e58c1","system_id":"levelo_inurba_marseille","lat":43.317119,"lon":5.436952,"is_reserved":false,"is_disabled":false,"rental_uris":{"android":"levelo://app?vid=f8860ff7-c2b0-45aa-987b-977f1a7e58c1","ios":"levelo://app?vid=f8860ff7-c2b0-45aa-987b-977f1a7e58c1"},"vehicle_type_id":"4","last_reported":1743066682,"current_range_meters":2800,"station_id":"ce4bhp92rcd13ifvqhcg","pricing_plan_id":"cebpf4jnsgd1na2vs0mg"},{"bike_id":"77823725-c761-49bc-902c-64c32b686ae7","system_id":"levelo_inurba_marseille","lat":43.2306,"lon":5.35494,"is_reserved":false,"is_disabled":false,"rental_uris":{"android":"levelo://app?vid=77823725-c761-49bc-902c-64c32b686ae7","ios":"levelo://app?vid=77823725-c761-49bc-902c-64c32b686ae7"},"vehicle_type_id":"4","last_reported":1743066682,"current_range_meters":2800,"station_id":"cpo3342slgdg3j2ifvpg","pricing_plan_id":"cebpf4jnsgd1na2vs0mg"},{"bike_id":"cd20f4b8-c8f5-4d03-98c7-a4bca31696a6","system_id":"levelo_inurba_marseille","lat":43.284872,"lon":5.385308,"is_reserved":false,"is_disabled":false,"rental_uris":{"android":"levelo://app?vid=cd20f4b8-c8f5-4d03-98c7-a4bca31696a6","ios":"levelo://app?vid=cd20f4b8-c8f5-4d03-98c7-a4bca31696a6"},"vehicle_type_id":"4","last_reported":1743066682,"current_range_meters":2800,"station_id":"ce4bh192rcd13ifvqdc0","pricing_plan_id":"cebpf4jnsgd1na2vs0mg"},{"bike_id":"24dde3d4-dcb9-4dee-b055-cbcb94fe7997","system_id":"levelo_inurba_marseille","lat":43.24987,"lon":5.38944,"is_reserved":false,"is_disabled":false,"rental_uris":{"android":"levelo://app?vid=24dde3d4-dcb9-4dee-b055-cbcb94fe7997","ios":"levelo://app?vid=24dde3d4-dcb9-4dee-b055-cbcb94fe7997"},"vehicle_type_id":"4","last_reported":1743066682,"current_range_meters":2800,"station_id":"ce4bhgp2rcd13ifvqfd0","pricing_plan_id":"cebpf4jnsgd1na2vs0mg"},{"bike_id":"ac16162e-9eb6-40a2-ae8b-a763f64ec361","system_id":"levelo_inurba_marseille","lat":43.28992,"lon":5.35581,"is_reserved":false,"is_disabled":false,"rental_uris":{"android":"levelo://app?vid=ac16162e-9eb6-40a2-ae8b-a763f64ec361","ios":"levelo://app?vid=ac16162e-9eb6-40a2-ae8b-a763f64ec361"},"vehicle_type_id":"4","last_reported":1743066682,"current_range_meters":3200,"station_id":"ce4bhb92rcd13ifvqen0","pricing_plan_id":"cebpf4jnsgd1na2vs0mg"},{"bike_id":"04c9b98d-13e4-4a79-9fd1-8c337070bb92","system_id":"levelo_inurba_marseille","lat":43.28148,"lon":5.42622,"is_reserved":false,"is_disabled":false,"rental_uris":{"android":"levelo://app?vid=04c9b98d-13e4-4a79-9fd1-8c337070bb92","ios":"levelo://app?vid=04c9b98d-13e4-4a79-9fd1-8c337070bb92"},"vehicle_type_id":"4","last_reported":1743066682,"current_range_meters":3200,"station_id":"ce4bhnh2rcd13ifvqgug","pricing_plan_id":"cebpf4jnsgd1na2vs0mg"},{"bike_id":"36ad6beb-a094-49f3-94ba-941743663021","system_id":"levelo_inurba_marseille","lat":43.24181,"lon":5.39724,"is_reserved":false,"is_disabled":false,"rental_uris":{"android":"levelo://app?vid=36ad6beb-a094-49f3-94ba-941743663021","ios":"levelo://app?vid=36ad6beb-a094-49f3-94ba-941743663021"},"vehicle_type_id":"4","last_reported":1743066682,"current_range_meters":3200,"station_id":"ce4bhn12rcd13ifvqgpg","pricing_plan_id":"cebpf4jnsgd1na2vs0mg"},{"bike_id":"48822a6e-9863-438b-b433-8ccb3f8db96d","system_id":"levelo_inurba_marseille","lat":43.31719,"lon":5.3765,"is_reserved":false,"is_disabled":true,"rental_uris":{"android":"levelo://app?vid=48822a6e-9863-438b-b433-8ccb3f8db96d","ios":"levelo://app?vid=48822a6e-9863-438b-b433-8ccb3f8db96d"},"vehicle_type_id":"4","last_reported":1743066682,"current_range_meters":3200,"station_id":"","pricing_plan_id":"cebpf4jnsgd1na2vs0mg"},{"bike_id":"4dede78b-6390-46d1-bea7-2dfea69be803","system_id":"levelo_inurba_marseille","lat":43.3021,"lon":5.39468,"is_reserved":false,"is_disabled":false,"rental_uris":{"android":"levelo://app?vid=4dede78b-6390-46d1-bea7-2dfea69be803","ios":"levelo://app?vid=4dede78b-6390-46d1-bea7-2dfea69be803"},"vehicle_type_id":"4","last_reported":1743066682,"current_range_meters":2800,"station_id":"ce4bh0p2rcd13ifvqd70","pricing_plan_id":"cebpf4jnsgd1na2vs0mg"},{"bike_id":"d1f01175-b943-4f72-b1d0-f51e91b1c346","system_id":"levelo_inurba_marseille","lat":43.26567,"lon":5.39004,"is_reserved":false,"is_disabled":false,"rental_uris":{"android":"levelo://app?vid=d1f01175-b943-4f72-b1d0-f51e91b1c346","ios":"levelo://app?vid=d1f01175-b943-4f72-b1d0-f51e91b1c346"},"vehicle_type_id":"4","last_reported":1743066682,"current_range_meters":3600,"station_id":"ce4bhe12rcd13ifvqf30","pricing_plan_id":"cebpf4jnsgd1na2vs0mg"},{"bike_id":"33d12302-ab8b-4f13-924f-dac00f82faa1","system_id":"levelo_inurba_marseille","lat":43.288421,"lon":5.393138,"is_reserved":false,"is_disabled":true,"rental_uris":{"android":"levelo://app?vid=33d12302-ab8b-4f13-924f-dac00f82faa1","ios":"levelo://app?vid=33d12302-ab8b-4f13-924f-dac00f82faa1"},"vehicle_type_id":"4","last_reported":1743066682,"current_range_meters":3600,"station_id":"","pricing_plan_id":"cebpf4jnsgd1na2vs0mg"},{"bike_id":"58ff955d-96fa-4d76-b015-6dc5978783a5","system_id":"levelo_inurba_marseille","lat":43.34145,"lon":5.40902,"is_reserved":false,"is_disabled":false,"rental_uris":{"android":"levelo://app?vid=58ff955d-96fa-4d76-b015-6dc5978783a5","ios":"levelo://app?vid=58ff955d-96fa-4d76-b015-6dc5978783a5"},"vehicle_type_id":"4","last_reported":1743066682,"current_range_meters":3600,"station_id":"ce4bhqh2rcd13ifvqhlg","pricing_plan_id":"cebpf4jnsgd1na2vs0mg"},{"bike_id":"1eee075d-6c4c-4c8f-96cb-131b395f334d","system_id":"levelo_inurba_marseille","lat":43.23155,"lon":5.43702,"is_reserved":false,"is_disabled":false,"rental_uris":{"android":"levelo://app?vid=1eee075d-6c4c-4c8f-96cb-131b395f334d","ios":"levelo://app?vid=1eee075d-6c4c-4c8f-96cb-131b395f334d"},"vehicle_type_id":"4","last_reported":1743066682,"current_range_meters":0,"station_id":"ce4bhmp2rcd13ifvqgog","pricing_plan_id":"cebpf4jnsgd1na2vs0mg"},{"bike_id":"ae2ef5ba-cfcc-4056-918b-033aea4001f8","system_id":"levelo_inurba_marseille","lat":43.23966,"lon":5.36629,"is_reserved":false,"is_disabled":true,"rental_uris":{"android":"levelo://app?vid=ae2ef5ba-cfcc-4056-918b-033aea4001f8","ios":"levelo://app?vid=ae2ef5ba-cfcc-4056-918b-033aea4001f8"},"vehicle_type_id":"4","last_reported":1743066682,"current_range_meters":4000,"station_id":"ce4bhi12rcd13ifvqfp0","pricing_plan_id":"cebpf4jnsgd1na2vs0mg"},{"bike_id":"c7fcd6a7-cb7a-4a29-be0e-a504595af42e","system_id":"levelo_inurba_marseille","lat":43.30463,"lon":5.37899,"is_reserved":false,"is_disabled":false,"rental_uris":{"android":"levelo://app?vid=c7fcd6a7-cb7a-4a29-be0e-a504595af42e","ios":"levelo://app?vid=c7fcd6a7-cb7a-4a29-be0e-a504595af42e"},"vehicle_type_id":"4","last_reported":1743066682,"current_range_meters":2000,"station_id":"ce4bgup2rcd13ifvqcn0","pricing_plan_id":"cebpf4jnsgd1na2vs0mg"},{"bike_id":"1dd765a9-64b4-439c-a196-df55419cc971","system_id":"levelo_inurba_marseille","lat":43.24165,"lon":5.3639,"is_reserved":false,"is_disabled":false,"rental_uris":{"android":"levelo://app?vid=1dd765a9-64b4-439c-a196-df55419cc971","ios":"levelo://app?vid=1dd765a9-64b4-439c-a196-df55419cc971"},"vehicle_type_id":"4","last_reported":1743066682,"current_range_meters":4000,"station_id":"cpo36qri1sfpv3e86is0","pricing_plan_id":"cebpf4jnsgd1na2vs0mg"},{"bike_id":"a6460627-511d-44ea-a912-da2085b0a119","system_id":"levelo_inurba_marseille","lat":43.29411,"lon":5.38594,"is_reserved":false,"is_disabled":true,"rental_uris":{"android":"levelo://app?vid=a6460627-511d-44ea-a912-da2085b0a119","ios":"levelo://app?vid=a6460627-511d-44ea-a912-da2085b0a119"},"vehicle_type_id":"4","last_reported":1743066682,"current_range_meters":4000,"station_id":"ce4bh2h2rcd13ifvqdh0","pricing_plan_id":"cebpf4jnsgd1na2vs0mg"},{"bike_id":"1285826f-14e1-4d6b-a0d8-2066b06564bd","system_id":"levelo_inurba_marseille","lat":43.30914,"lon":5.36851,"is_reserved":false,"is_disabled":false,"rental_uris":{"android":"levelo://app?vid=1285826f-14e1-4d6b-a0d8-2066b06564bd","ios":"levelo://app?vid=1285826f-14e1-4d6b-a0d8-2066b06564bd"},"vehicle_type_id":"4","last_reported":1743066682,"current_range_meters":4000,"station_id":"ce4bgn92rcd13ifvqbvg","pricing_plan_id":"cebpf4jnsgd1na2vs0mg"},{"bike_id":"9cb8dca6-b4bb-4ffb-8d45-993bd4eef6f0","system_id":"levelo_inurba_marseille","lat":43.25007,"lon":5.38934,"is_reserved":false,"is_disabled":false,"rental_uris":{"android":"levelo://app?vid=9cb8dca6-b4bb-4ffb-8d45-993bd4eef6f0","ios":"levelo://app?vid=9cb8dca6-b4bb-4ffb-8d45-993bd4eef6f0"},"vehicle_type_id":"4","last_reported":1743066682,"current_range_meters":4000,"station_id":"ce4bhgp2rcd13ifvqfd0","pricing_plan_id":"cebpf4jnsgd1na2vs0mg"},{"bike_id":"3714b31f-7913-4003-b9cc-b9a0f5516938","system_id":"levelo_inurba_marseille","lat":43.29297,"lon":5.37441,"is_reserved":false,"is_disabled":false,"rental_uris":{"android":"levelo://app?vid=3714b31f-7913-4003-b9cc-b9a0f5516938","ios":"levelo://app?vid=3714b31f-7913-4003-b9cc-b9a0f5516938"},"vehicle_type_id":"4","last_reported":1743066682,"current_range_meters":4000,"station_id":"ce4bgi12rcd13ifvqb70","pricing_plan_id":"cebpf4jnsgd1na2vs0mg"},{"bike_id":"60602613-cdf9-481c-890b-0717b3ed7fe0","system_id":"levelo_inurba_marseille","lat":43.27825,"lon":5.40721,"is_reserved":false,"is_disabled":false,"rental_uris":{"android":"levelo://app?vid=60602613-cdf9-481c-890b-0717b3ed7fe0","ios":"levelo://app?vid=60602613-cdf9-481c-890b-0717b3ed7fe0"},"vehicle_type_id":"4","last_reported":1743066682,"current_range_meters":4000,"station_id":"ce4bhnh2rcd13ifvqgtg","pricing_plan_id":"cebpf4jnsgd1na2vs0mg"},{"bike_id":"bc77c702-f5a9-4048-a4f4-9cf804d165a7","system_id":"levelo_inurba_marseille","lat":43.28721,"lon":5.37926,"is_reserved":false,"is_disabled":false,"rental_uris":{"android":"levelo://app?vid=bc77c702-f5a9-4048-a4f4-9cf804d165a7","ios":"levelo://app?vid=bc77c702-f5a9-4048-a4f4-9cf804d165a7"},"vehicle_type_id":"4","last_reported":1743066682,"current_range_meters":4400,"station_id":"ce4bh9p2rcd13ifvqec0","pricing_plan_id":"cebpf4jnsgd1na2vs0mg"},{"bike_id":"44156654-a4cf-4f20-b992-8a27bbcc69ed","system_id":"levelo_inurba_marseille","lat":43.23186,"lon":5.39982,"is_reserved":false,"is_disabled":true,"rental_uris":{"android":"levelo://app?vid=44156654-a4cf-4f20-b992-8a27bbcc69ed","ios":"levelo://app?vid=44156654-a4cf-4f20-b992-8a27bbcc69ed"},"vehicle_type_id":"4","last_reported":1743066682,"current_range_meters":4400,"station_id":"ce4bhn12rcd13ifvqgqg","pricing_plan_id":"cebpf4jnsgd1na2vs0mg"},{"bike_id":"c17fe3fc-ef8e-4aeb-8995-206eff1483c0","system_id":"levelo_inurba_marseille","lat":43.30909,"lon":5.3686,"is_reserved":false,"is_disabled":false,"rental_uris":{"android":"levelo://app?vid=c17fe3fc-ef8e-4aeb-8995-206eff1483c0","ios":"levelo://app?vid=c17fe3fc-ef8e-4aeb-8995-206eff1483c0"},"vehicle_type_id":"4","last_reported":1743066682,"current_range_meters":4400,"station_id":"ce4bgn92rcd13ifvqbvg","pricing_plan_id":"cebpf4jnsgd1na2vs0mg"},{"bike_id":"81686c2f-ef1a-46bd-9091-0d37794347df","system_id":"levelo_inurba_marseille","lat":43.30893,"lon":5.36868,"is_reserved":false,"is_disabled":false,"rental_uris":{"android":"levelo://app?vid=81686c2f-ef1a-46bd-9091-0d37794347df","ios":"levelo://app?vid=81686c2f-ef1a-46bd-9091-0d37794347df"},"vehicle_type_id":"4","last_reported":1743066682,"current_range_meters":4400,"station_id":"ce4bgn92rcd13ifvqbvg","pricing_plan_id":"cebpf4jnsgd1na2vs0mg"},{"bike_id":"cb6001e2-8e03-4383-8dd9-6f24164b2a7c","system_id":"levelo_inurba_marseille","lat":43.28942,"lon":5.39638,"is_reserved":false,"is_disabled":true,"rental_uris":{"android":"levelo://app?vid=cb6001e2-8e03-4383-8dd9-6f24164b2a7c","ios":"levelo://app?vid=cb6001e2-8e03-4383-8dd9-6f24164b2a7c"},"vehicle_type_id":"4","last_reported":1743066682,"current_range_meters":4400,"station_id":"ce4bh3h2rcd13ifvqdn0","pricing_plan_id":"cebpf4jnsgd1na2vs0mg"},{"bike_id":"6ea4a9b7-b6f3-47a0-b74c-79171f0f3679","system_id":"levelo_inurba_marseille","lat":43.29019,"lon":5.38139,"is_reserved":false,"is_disabled":false,"rental_uris":{"android":"levelo://app?vid=6ea4a9b7-b6f3-47a0-b74c-79171f0f3679","ios":"levelo://app?vid=6ea4a9b7-b6f3-47a0-b74c-79171f0f3679"},"vehicle_type_id":"4","last_reported":1743066682,"current_range_meters":4800,"station_id":"ce4bh4p2rcd13ifvqe1g","pricing_plan_id":"cebpf4jnsgd1na2vs0mg"},{"bike_id":"18849a0a-d04d-4032-bed5-6b39dc997875","system_id":"levelo_inurba_marseille","lat":43.24073,"lon":5.37744,"is_reserved":false,"is_disabled":false,"rental_uris":{"android":"levelo://app?vid=18849a0a-d04d-4032-bed5-6b39dc997875","ios":"levelo://app?vid=18849a0a-d04d-4032-bed5-6b39dc997875"},"vehicle_type_id":"4","last_reported":1743066682,"current_range_meters":4800,"station_id":"ce4bhnp2rcd13ifvqgvg","pricing_plan_id":"cebpf4jnsgd1na2vs0mg"},{"bike_id":"9e78826b-cf68-4e54-8154-ed77796800b9","system_id":"levelo_inurba_marseille","lat":43.24168,"lon":5.36389,"is_reserved":false,"is_disabled":false,"rental_uris":{"android":"levelo://app?vid=9e78826b-cf68-4e54-8154-ed77796800b9","ios":"levelo://app?vid=9e78826b-cf68-4e54-8154-ed77796800b9"},"vehicle_type_id":"4","last_reported":1743066682,"current_range_meters":4800,"station_id":"cpo36qri1sfpv3e86is0","pricing_plan_id":"cebpf4jnsgd1na2vs0mg"},{"bike_id":"a5fb06d1-c469-4515-9522-548b956fd2b3","system_id":"levelo_inurba_marseille","lat":43.31755,"lon":5.38998,"is_reserved":false,"is_disabled":false,"rental_uris":{"android":"levelo://app?vid=a5fb06d1-c469-4515-9522-548b956fd2b3","ios":"levelo://app?vid=a5fb06d1-c469-4515-9522-548b956fd2b3"},"vehicle_type_id":"4","last_reported":1743066682,"current_range_meters":4800,"station_id":"ce4bhqp2rcd13ifvqhng","pricing_plan_id":"cebpf4jnsgd1na2vs0mg"},{"bike_id":"947a861c-8309-4480-b112-7a641e8fdbf4","system_id":"levelo_inurba_marseille","lat":43.311751,"lon":5.387209,"is_reserved":false,"is_disabled":false,"rental_uris":{"android":"levelo://app?vid=947a861c-8309-4480-b112-7a641e8fdbf4","ios":"levelo://app?vid=947a861c-8309-4480-b112-7a641e8fdbf4"},"vehicle_type_id":"4","last_reported":1743066682,"current_range_meters":4800,"station_id":"ce4bgv12rcd13ifvqcp0","pricing_plan_id":"cebpf4jnsgd1na2vs0mg"},{"bike_id":"067247e0-a27c-4e52-9052-c6b9eea5c7f4","system_id":"levelo_inurba_marseille","lat":43.31437,"lon":5.37451,"is_reserved":false,"is_disabled":false,"rental_uris":{"android":"levelo://app?vid=067247e0-a27c-4e52-9052-c6b9eea5c7f4","ios":"levelo://app?vid=067247e0-a27c-4e52-9052-c6b9eea5c7f4"},"vehicle_type_id":"4","last_reported":1743066682,"current_range_meters":4800,"station_id":"","pricing_plan_id":"cebpf4jnsgd1na2vs0mg"},{"bike_id":"d021d68d-8ae6-4775-8ae8-b202fe9ee83d","system_id":"levelo_inurba_marseille","lat":43.28766,"lon":5.39313,"is_reserved":false,"is_disabled":false,"rental_uris":{"android":"levelo://app?vid=d021d68d-8ae6-4775-8ae8-b202fe9ee83d","ios":"levelo://app?vid=d021d68d-8ae6-4775-8ae8-b202fe9ee83d"},"vehicle_type_id":"4","last_reported":1743066682,"current_range_meters":5600,"station_id":"","pricing_plan_id":"cebpf4jnsgd1na2vs0mg"},{"bike_id":"e5977896-b7b6-4c37-b67d-6774405e75ae","system_id":"levelo_inurba_marseille","lat":43.29611,"lon":5.38104,"is_reserved":false,"is_disabled":false,"rental_uris":{"android":"levelo://app?vid=e5977896-b7b6-4c37-b67d-6774405e75ae","ios":"levelo://app?vid=e5977896-b7b6-4c37-b67d-6774405e75ae"},"vehicle_type_id":"4","last_reported":1743066682,"current_range_meters":4800,"station_id":"ce4bgl12rcd13ifvqbo0","pricing_plan_id":"cebpf4jnsgd1na2vs0mg"},{"bike_id":"067a574b-fca3-4ce0-9186-1e1d41a1ebe6","system_id":"levelo_inurba_marseille","lat":43.28024,"lon":5.36948,"is_reserved":false,"is_disabled":false,"rental_uris":{"android":"levelo://app?vid=067a574b-fca3-4ce0-9186-1e1d41a1ebe6","ios":"levelo://app?vid=067a574b-fca3-4ce0-9186-1e1d41a1ebe6"},"vehicle_type_id":"4","last_reported":1743066682,"current_range_meters":4800,"station_id":"ce4bha12rcd13ifvqef0","pricing_plan_id":"cebpf4jnsgd1na2vs0mg"},{"bike_id":"9a2b8b53-a5da-4536-93cc-10050de6e9de","system_id":"levelo_inurba_marseille","lat":43.29297,"lon":5.37445,"is_reserved":false,"is_disabled":false,"rental_uris":{"android":"levelo://app?vid=9a2b8b53-a5da-4536-93cc-10050de6e9de","ios":"levelo://app?vid=9a2b8b53-a5da-4536-93cc-10050de6e9de"},"vehicle_type_id":"4","last_reported":1743066682,"current_range_meters":5600,"station_id":"ce4bgi12rcd13ifvqb70","pricing_plan_id":"cebpf4jnsgd1na2vs0mg"},{"bike_id":"ee28380f-2566-499f-8ab8-5a75cb1ed72f","system_id":"levelo_inurba_marseille","lat":43.288329,"lon":5.393258,"is_reserved":false,"is_disabled":true,"rental_uris":{"android":"levelo://app?vid=ee28380f-2566-499f-8ab8-5a75cb1ed72f","ios":"levelo://app?vid=ee28380f-2566-499f-8ab8-5a75cb1ed72f"},"vehicle_type_id":"4","last_reported":1743066682,"current_range_meters":5600,"station_id":"","pricing_plan_id":"cebpf4jnsgd1na2vs0mg"},{"bike_id":"5022a418-e26e-42bd-a927-038bb3f42723","system_id":"levelo_inurba_marseille","lat":43.23184,"lon":5.3998,"is_reserved":false,"is_disabled":false,"rental_uris":{"android":"levelo://app?vid=5022a418-e26e-42bd-a927-038bb3f42723","ios":"levelo://app?vid=5022a418-e26e-42bd-a927-038bb3f42723"},"vehicle_type_id":"4","last_reported":1743066682,"current_range_meters":5600,"station_id":"ce4bhn12rcd13ifvqgqg","pricing_plan_id":"cebpf4jnsgd1na2vs0mg"},{"bike_id":"ba928e2c-172e-4d95-afa4-8dab7a73bb9a","system_id":"levelo_inurba_marseille","lat":43.30993,"lon":5.39668,"is_reserved":false,"is_disabled":false,"rental_uris":{"android":"levelo://app?vid=ba928e2c-172e-4d95-afa4-8dab7a73bb9a","ios":"levelo://app?vid=ba928e2c-172e-4d95-afa4-8dab7a73bb9a"},"vehicle_type_id":"4","last_reported":1743066682,"current_range_meters":6000,"station_id":"","pricing_plan_id":"cebpf4jnsgd1na2vs0mg"},{"bike_id":"b5059696-3106-44e7-b468-d3646dad90d1","system_id":"levelo_inurba_marseille","lat":43.29583,"lon":5.36735,"is_reserved":false,"is_disabled":false,"rental_uris":{"android":"levelo://app?vid=b5059696-3106-44e7-b468-d3646dad90d1","ios":"levelo://app?vid=b5059696-3106-44e7-b468-d3646dad90d1"},"vehicle_type_id":"4","last_reported":1743066682,"current_range_meters":5600,"station_id":"ce4bgph2rcd13ifvqc2g","pricing_plan_id":"cebpf4jnsgd1na2vs0mg"},{"bike_id":"48037de6-3574-4888-a8a2-bdbb638d64a9","system_id":"levelo_inurba_marseille","lat":43.26558,"lon":5.37285,"is_reserved":false,"is_disabled":false,"rental_uris":{"android":"levelo://app?vid=48037de6-3574-4888-a8a2-bdbb638d64a9","ios":"levelo://app?vid=48037de6-3574-4888-a8a2-bdbb638d64a9"},"vehicle_type_id":"4","last_reported":1743066682,"current_range_meters":6000,"station_id":"ce4bhg12rcd13ifvqf70","pricing_plan_id":"cebpf4jnsgd1na2vs0mg"},{"bike_id":"e92c7e7e-a315-47d2-86a7-ce5346880675","system_id":"levelo_inurba_marseille","lat":43.32103,"lon":5.36798,"is_reserved":false,"is_disabled":false,"rental_uris":{"android":"levelo://app?vid=e92c7e7e-a315-47d2-86a7-ce5346880675","ios":"levelo://app?vid=e92c7e7e-a315-47d2-86a7-ce5346880675"},"vehicle_type_id":"4","last_reported":1743066682,"current_range_meters":6000,"station_id":"ce4bhrh2rcd13ifvqhug","pricing_plan_id":"cebpf4jnsgd1na2vs0mg"},{"bike_id":"598e1521-ea09-4968-bac1-208db71d337f","system_id":"levelo_inurba_marseille","lat":43.31233,"lon":5.36846,"is_reserved":false,"is_disabled":false,"rental_uris":{"android":"levelo://app?vid=598e1521-ea09-4968-bac1-208db71d337f","ios":"levelo://app?vid=598e1521-ea09-4968-bac1-208db71d337f"},"vehicle_type_id":"4","last_reported":1743066682,"current_range_meters":6000,"station_id":"ce4bgl92rcd13ifvqbq0","pricing_plan_id":"cebpf4jnsgd1na2vs0mg"},{"bike_id":"d0c4c6fc-e0eb-407d-b9f5-a1e9b2dcccc8","system_id":"levelo_inurba_marseille","lat":43.31357,"lon":5.38494,"is_reserved":false,"is_disabled":false,"rental_uris":{"android":"levelo://app?vid=d0c4c6fc-e0eb-407d-b9f5-a1e9b2dcccc8","ios":"levelo://app?vid=d0c4c6fc-e0eb-407d-b9f5-a1e9b2dcccc8"},"vehicle_type_id":"4","last_reported":1743066682,"current_range_meters":6000,"station_id":"ce4bgt92rcd13ifvqcf0","pricing_plan_id":"cebpf4jnsgd1na2vs0mg"},{"bike_id":"3c5968ce-3876-490a-b487-45ab0e81c5a2","system_id":"levelo_inurba_marseille","lat":43.28489,"lon":5.38528,"is_reserved":false,"is_disabled":false,"rental_uris":{"android":"levelo://app?vid=3c5968ce-3876-490a-b487-45ab0e81c5a2","ios":"levelo://app?vid=3c5968ce-3876-490a-b487-45ab0e81c5a2"},"vehicle_type_id":"4","last_reported":1743066682,"current_range_meters":6000,"station_id":"ce4bh8p2rcd13ifvqeb0","pricing_plan_id":"cebpf4jnsgd1na2vs0mg"},{"bike_id":"4c5d2621-9d23-4ca3-a80c-65bdaf2e6b1b","system_id":"levelo_inurba_marseille","lat":43.31357,"lon":5.38501,"is_reserved":false,"is_disabled":false,"rental_uris":{"android":"levelo://app?vid=4c5d2621-9d23-4ca3-a80c-65bdaf2e6b1b","ios":"levelo://app?vid=4c5d2621-9d23-4ca3-a80c-65bdaf2e6b1b"},"vehicle_type_id":"4","last_reported":1743066682,"current_range_meters":6000,"station_id":"ce4bgt92rcd13ifvqcf0","pricing_plan_id":"cebpf4jnsgd1na2vs0mg"},{"bike_id":"ff2428d8-fcc1-4b2b-972f-a6acd82316ed","system_id":"levelo_inurba_marseille","lat":43.32495,"lon":5.36557,"is_reserved":false,"is_disabled":true,"rental_uris":{"android":"levelo://app?vid=ff2428d8-fcc1-4b2b-972f-a6acd82316ed","ios":"levelo://app?vid=ff2428d8-fcc1-4b2b-972f-a6acd82316ed"},"vehicle_type_id":"4","last_reported":1743066682,"current_range_meters":6400,"station_id":"ce4bhs12rcd13ifvqhvg","pricing_plan_id":"cebpf4jnsgd1na2vs0mg"},{"bike_id":"1bdb47d8-a4c7-4118-bdaf-4834ca1aaf27","system_id":"levelo_inurba_marseille","lat":43.30559,"lon":5.3647,"is_reserved":false,"is_disabled":false,"rental_uris":{"android":"levelo://app?vid=1bdb47d8-a4c7-4118-bdaf-4834ca1aaf27","ios":"levelo://app?vid=1bdb47d8-a4c7-4118-bdaf-4834ca1aaf27"},"vehicle_type_id":"4","last_reported":1743066682,"current_range_meters":6400,"station_id":"ce4bgs12rcd13ifvqcag","pricing_plan_id":"cebpf4jnsgd1na2vs0mg"},{"bike_id":"1145b7f2-470b-425f-af20-579a7184164a","system_id":"levelo_inurba_marseille","lat":43.29033,"lon":5.39976,"is_reserved":false,"is_disabled":false,"rental_uris":{"android":"levelo://app?vid=1145b7f2-470b-425f-af20-579a7184164a","ios":"levelo://app?vid=1145b7f2-470b-425f-af20-579a7184164a"},"vehicle_type_id":"4","last_reported":1743066682,"current_range_meters":6000,"station_id":"ce4bh392rcd13ifvqdm0","pricing_plan_id":"cebpf4jnsgd1na2vs0mg"},{"bike_id":"3cf930b2-36f0-431a-987f-3761b3917c58","system_id":"levelo_inurba_marseille","lat":43.31698,"lon":5.40468,"is_reserved":false,"is_disabled":false,"rental_uris":{"android":"levelo://app?vid=3cf930b2-36f0-431a-987f-3761b3917c58","ios":"levelo://app?vid=3cf930b2-36f0-431a-987f-3761b3917c58"},"vehicle_type_id":"4","last_reported":1743066682,"current_range_meters":6400,"station_id":"ce4bh012rcd13ifvqd00","pricing_plan_id":"cebpf4jnsgd1na2vs0mg"},{"bike_id":"e40ca3db-9cd3-4e7c-a6c9-9922c73b5079","system_id":"levelo_inurba_marseille","lat":43.3039,"lon":5.42492,"is_reserved":false,"is_disabled":false,"rental_uris":{"android":"levelo://app?vid=e40ca3db-9cd3-4e7c-a6c9-9922c73b5079","ios":"levelo://app?vid=e40ca3db-9cd3-4e7c-a6c9-9922c73b5079"},"vehicle_type_id":"4","last_reported":1743066682,"current_range_meters":6400,"station_id":"ce4bhoh2rcd13ifvqh6g","pricing_plan_id":"cebpf4jnsgd1na2vs0mg"},{"bike_id":"1ff40e0c-f2ee-4fb7-ad16-546b5863c0bd","system_id":"levelo_inurba_marseille","lat":43.22933,"lon":5.35375,"is_reserved":false,"is_disabled":false,"rental_uris":{"android":"levelo://app?vid=1ff40e0c-f2ee-4fb7-ad16-546b5863c0bd","ios":"levelo://app?vid=1ff40e0c-f2ee-4fb7-ad16-546b5863c0bd"},"vehicle_type_id":"4","last_reported":1743066682,"current_range_meters":6400,"station_id":"cpo3532slgdg3j2ikp40","pricing_plan_id":"cebpf4jnsgd1na2vs0mg"},{"bike_id":"4d6d8a3e-5cdb-4d7b-bbad-abcfee7897a7","system_id":"levelo_inurba_marseille","lat":43.28004,"lon":5.36935,"is_reserved":false,"is_disabled":false,"rental_uris":{"android":"levelo://app?vid=4d6d8a3e-5cdb-4d7b-bbad-abcfee7897a7","ios":"levelo://app?vid=4d6d8a3e-5cdb-4d7b-bbad-abcfee7897a7"},"vehicle_type_id":"4","last_reported":1743066682,"current_range_meters":6400,"station_id":"ce4bha12rcd13ifvqef0","pricing_plan_id":"cebpf4jnsgd1na2vs0mg"},{"bike_id":"f331f4a0-921f-47e2-bc64-3b6ed88b17e3","system_id":"levelo_inurba_marseille","lat":43.27178,"lon":5.41,"is_reserved":false,"is_disabled":false,"rental_uris":{"android":"levelo://app?vid=f331f4a0-921f-47e2-bc64-3b6ed88b17e3","ios":"levelo://app?vid=f331f4a0-921f-47e2-bc64-3b6ed88b17e3"},"vehicle_type_id":"4","last_reported":1743066682,"current_range_meters":6400,"station_id":"ce4bhl12rcd13ifvqgf0","pricing_plan_id":"cebpf4jnsgd1na2vs0mg"},{"bike_id":"cbb04385-b733-4245-8069-e7d5530c1471","system_id":"levelo_inurba_marseille","lat":43.31104,"lon":5.37776,"is_reserved":false,"is_disabled":false,"rental_uris":{"android":"levelo://app?vid=cbb04385-b733-4245-8069-e7d5530c1471","ios":"levelo://app?vid=cbb04385-b733-4245-8069-e7d5530c1471"},"vehicle_type_id":"4","last_reported":1743066682,"current_range_meters":6400,"station_id":"ce4bgt92rcd13ifvqcg0","pricing_plan_id":"cebpf4jnsgd1na2vs0mg"},{"bike_id":"9c66cc15-0096-423b-bdc5-f6e3c74078ab","system_id":"levelo_inurba_marseille","lat":43.31205,"lon":5.37871,"is_reserved":false,"is_disabled":false,"rental_uris":{"android":"levelo://app?vid=9c66cc15-0096-423b-bdc5-f6e3c74078ab","ios":"levelo://app?vid=9c66cc15-0096-423b-bdc5-f6e3c74078ab"},"vehicle_type_id":"4","last_reported":1743066682,"current_range_meters":6400,"station_id":"","pricing_plan_id":"cebpf4jnsgd1na2vs0mg"},{"bike_id":"46a66d4f-5832-45ff-a17d-e9fa3e3708e6","system_id":"levelo_inurba_marseille","lat":43.29844,"lon":5.36272,"is_reserved":false,"is_disabled":false,"rental_uris":{"android":"levelo://app?vid=46a66d4f-5832-45ff-a17d-e9fa3e3708e6","ios":"levelo://app?vid=46a66d4f-5832-45ff-a17d-e9fa3e3708e6"},"vehicle_type_id":"4","last_reported":1743066682,"current_range_meters":6400,"station_id":"ce4bgpp2rcd13ifvqc3g","pricing_plan_id":"cebpf4jnsgd1na2vs0mg"},{"bike_id":"c808ed1b-fd41-4dba-bb7a-c75ce0a0719b","system_id":"levelo_inurba_marseille","lat":43.30144,"lon":5.37416,"is_reserved":false,"is_disabled":false,"rental_uris":{"android":"levelo://app?vid=c808ed1b-fd41-4dba-bb7a-c75ce0a0719b","ios":"levelo://app?vid=c808ed1b-fd41-4dba-bb7a-c75ce0a0719b"},"vehicle_type_id":"4","last_reported":1743066682,"current_range_meters":6400,"station_id":"ce4bgs92rcd13ifvqcc0","pricing_plan_id":"cebpf4jnsgd1na2vs0mg"},{"bike_id":"d36bbb83-b991-43e9-ac22-002518ae9f1f","system_id":"levelo_inurba_marseille","lat":43.23189,"lon":5.39981,"is_reserved":false,"is_disabled":false,"rental_uris":{"android":"levelo://app?vid=d36bbb83-b991-43e9-ac22-002518ae9f1f","ios":"levelo://app?vid=d36bbb83-b991-43e9-ac22-002518ae9f1f"},"vehicle_type_id":"4","last_reported":1743066682,"current_range_meters":6400,"station_id":"ce4bhn12rcd13ifvqgqg","pricing_plan_id":"cebpf4jnsgd1na2vs0mg"},{"bike_id":"41e5f267-ce12-4d49-85f8-a37604430f8e","system_id":"levelo_inurba_marseille","lat":43.22962,"lon":5.35373,"is_reserved":false,"is_disabled":false,"rental_uris":{"android":"levelo://app?vid=41e5f267-ce12-4d49-85f8-a37604430f8e","ios":"levelo://app?vid=41e5f267-ce12-4d49-85f8-a37604430f8e"},"vehicle_type_id":"4","last_reported":1743066682,"current_range_meters":6400,"station_id":"cpo3532slgdg3j2ikp40","pricing_plan_id":"cebpf4jnsgd1na2vs0mg"},{"bike_id":"1e0b2636-48a1-4292-92c0-73b807651a12","system_id":"levelo_inurba_marseille","lat":43.289703,"lon":5.37838,"is_reserved":false,"is_disabled":false,"rental_uris":{"android":"levelo://app?vid=1e0b2636-48a1-4292-92c0-73b807651a12","ios":"levelo://app?vid=1e0b2636-48a1-4292-92c0-73b807651a12"},"vehicle_type_id":"4","last_reported":1743066682,"current_range_meters":6800,"station_id":"ce4bgip2rcd13ifvqbb0","pricing_plan_id":"cebpf4jnsgd1na2vs0mg"},{"bike_id":"918814ca-5e98-4992-8bbe-4f04fdfb2cc7","system_id":"levelo_inurba_marseille","lat":43.30555,"lon":5.36707,"is_reserved":false,"is_disabled":false,"rental_uris":{"android":"levelo://app?vid=918814ca-5e98-4992-8bbe-4f04fdfb2cc7","ios":"levelo://app?vid=918814ca-5e98-4992-8bbe-4f04fdfb2cc7"},"vehicle_type_id":"4","last_reported":1743066682,"current_range_meters":6800,"station_id":"ce4bgrp2rcd13ifvqc9g","pricing_plan_id":"cebpf4jnsgd1na2vs0mg"},{"bike_id":"8a9602e7-e6f2-4dac-845f-cea224e49dd5","system_id":"levelo_inurba_marseille","lat":43.23067,"lon":5.35491,"is_reserved":false,"is_disabled":false,"rental_uris":{"android":"levelo://app?vid=8a9602e7-e6f2-4dac-845f-cea224e49dd5","ios":"levelo://app?vid=8a9602e7-e6f2-4dac-845f-cea224e49dd5"},"vehicle_type_id":"4","last_reported":1743066682,"current_range_meters":6800,"station_id":"cpo3342slgdg3j2ifvpg","pricing_plan_id":"cebpf4jnsgd1na2vs0mg"},{"bike_id":"500ae4ba-0f8b-4234-ad47-d0f7e3ee77fd","system_id":"levelo_inurba_marseille","lat":43.29093,"lon":5.3818,"is_reserved":false,"is_disabled":true,"rental_uris":{"android":"levelo://app?vid=500ae4ba-0f8b-4234-ad47-d0f7e3ee77fd","ios":"levelo://app?vid=500ae4ba-0f8b-4234-ad47-d0f7e3ee77fd"},"vehicle_type_id":"4","last_reported":1743066682,"current_range_meters":6800,"station_id":"ce4bho12rcd13ifvqh1g","pricing_plan_id":"cebpf4jnsgd1na2vs0mg"},{"bike_id":"d6f51450-c5fa-4bbc-b29b-77b38403e093","system_id":"levelo_inurba_marseille","lat":43.31495,"lon":5.37305,"is_reserved":false,"is_disabled":false,"rental_uris":{"android":"levelo://app?vid=d6f51450-c5fa-4bbc-b29b-77b38403e093","ios":"levelo://app?vid=d6f51450-c5fa-4bbc-b29b-77b38403e093"},"vehicle_type_id":"4","last_reported":1743066682,"current_range_meters":6800,"station_id":"ce4bgt12rcd13ifvqcd0","pricing_plan_id":"cebpf4jnsgd1na2vs0mg"},{"bike_id":"56506e9c-df9f-450e-bb06-2924deaa86ed","system_id":"levelo_inurba_marseille","lat":43.30532,"lon":5.36535,"is_reserved":false,"is_disabled":false,"rental_uris":{"android":"levelo://app?vid=56506e9c-df9f-450e-bb06-2924deaa86ed","ios":"levelo://app?vid=56506e9c-df9f-450e-bb06-2924deaa86ed"},"vehicle_type_id":"4","last_reported":1743066682,"current_range_meters":6800,"station_id":"ce4bgs12rcd13ifvqcag","pricing_plan_id":"cebpf4jnsgd1na2vs0mg"},{"bike_id":"b30d442b-7284-44ac-87ce-821b5a0ec057","system_id":"levelo_inurba_marseille","lat":43.32613,"lon":5.36572,"is_reserved":false,"is_disabled":false,"rental_uris":{"android":"levelo://app?vid=b30d442b-7284-44ac-87ce-821b5a0ec057","ios":"levelo://app?vid=b30d442b-7284-44ac-87ce-821b5a0ec057"},"vehicle_type_id":"4","last_reported":1743066682,"current_range_meters":7200,"station_id":"","pricing_plan_id":"cebpf4jnsgd1na2vs0mg"},{"bike_id":"60572ac8-f8fa-4090-a8da-a05557d22647","system_id":"levelo_inurba_marseille","lat":43.33602,"lon":5.40996,"is_reserved":false,"is_disabled":true,"rental_uris":{"android":"levelo://app?vid=60572ac8-f8fa-4090-a8da-a05557d22647","ios":"levelo://app?vid=60572ac8-f8fa-4090-a8da-a05557d22647"},"vehicle_type_id":"4","last_reported":1743066682,"current_range_meters":7200,"station_id":"ce4bhqh2rcd13ifvqhmg","pricing_plan_id":"cebpf4jnsgd1na2vs0mg"},{"bike_id":"7f69b6c3-94ac-4826-a0fb-9cf89c1b6668","system_id":"levelo_inurba_marseille","lat":43.28472,"lon":5.38423,"is_reserved":false,"is_disabled":false,"rental_uris":{"android":"levelo://app?vid=7f69b6c3-94ac-4826-a0fb-9cf89c1b6668","ios":"levelo://app?vid=7f69b6c3-94ac-4826-a0fb-9cf89c1b6668"},"vehicle_type_id":"4","last_reported":1743066682,"current_range_meters":7200,"station_id":"ce4bh512rcd13ifvqe3g","pricing_plan_id":"cebpf4jnsgd1na2vs0mg"},{"bike_id":"694e96cc-56e7-4b40-a014-acd95a9fef7d","system_id":"levelo_inurba_marseille","lat":43.2749,"lon":5.42459,"is_reserved":false,"is_disabled":false,"rental_uris":{"android":"levelo://app?vid=694e96cc-56e7-4b40-a014-acd95a9fef7d","ios":"levelo://app?vid=694e96cc-56e7-4b40-a014-acd95a9fef7d"},"vehicle_type_id":"4","last_reported":1743066682,"current_range_meters":7200,"station_id":"ce4bhn92rcd13ifvqgrg","pricing_plan_id":"cebpf4jnsgd1na2vs0mg"},{"bike_id":"2591bfdd-195a-43fc-b49b-cead5d9ba9e8","system_id":"levelo_inurba_marseille","lat":43.250059,"lon":5.389101,"is_reserved":false,"is_disabled":false,"rental_uris":{"android":"levelo://app?vid=2591bfdd-195a-43fc-b49b-cead5d9ba9e8","ios":"levelo://app?vid=2591bfdd-195a-43fc-b49b-cead5d9ba9e8"},"vehicle_type_id":"4","last_reported":1743066682,"current_range_meters":7200,"station_id":"ce4bhgp2rcd13ifvqfd0","pricing_plan_id":"cebpf4jnsgd1na2vs0mg"},{"bike_id":"794490d5-013f-4f87-8efd-6a908fec090d","system_id":"levelo_inurba_marseille","lat":43.29847,"lon":5.36266,"is_reserved":false,"is_disabled":false,"rental_uris":{"android":"levelo://app?vid=794490d5-013f-4f87-8efd-6a908fec090d","ios":"levelo://app?vid=794490d5-013f-4f87-8efd-6a908fec090d"},"vehicle_type_id":"4","last_reported":1743066682,"current_range_meters":7200,"station_id":"ce4bgpp2rcd13ifvqc3g","pricing_plan_id":"cebpf4jnsgd1na2vs0mg"},{"bike_id":"44c050ab-34e3-492c-aac5-fd072a1c083b","system_id":"levelo_inurba_marseille","lat":43.25001,"lon":5.38927,"is_reserved":false,"is_disabled":false,"rental_uris":{"android":"levelo://app?vid=44c050ab-34e3-492c-aac5-fd072a1c083b","ios":"levelo://app?vid=44c050ab-34e3-492c-aac5-fd072a1c083b"},"vehicle_type_id":"4","last_reported":1743066682,"current_range_meters":7200,"station_id":"ce4bhgp2rcd13ifvqfd0","pricing_plan_id":"cebpf4jnsgd1na2vs0mg"},{"bike_id":"23d103ac-8236-4f83-90b8-fc4cee58aeca","system_id":"levelo_inurba_marseille","lat":43.32286,"lon":5.38277,"is_reserved":false,"is_disabled":false,"rental_uris":{"android":"levelo://app?vid=23d103ac-8236-4f83-90b8-fc4cee58aeca","ios":"levelo://app?vid=23d103ac-8236-4f83-90b8-fc4cee58aeca"},"vehicle_type_id":"4","last_reported":1743066682,"current_range_meters":6800,"station_id":"ce4bhr12rcd13ifvqhqg","pricing_plan_id":"cebpf4jnsgd1na2vs0mg"},{"bike_id":"ccdfac36-22da-4f2d-bd50-7bf147cc0fff","system_id":"levelo_inurba_marseille","lat":43.29904,"lon":5.43659,"is_reserved":false,"is_disabled":false,"rental_uris":{"android":"levelo://app?vid=ccdfac36-22da-4f2d-bd50-7bf147cc0fff","ios":"levelo://app?vid=ccdfac36-22da-4f2d-bd50-7bf147cc0fff"},"vehicle_type_id":"4","last_reported":1743066682,"current_range_meters":8000,"station_id":"ce4bhpp2rcd13ifvqhfg","pricing_plan_id":"cebpf4jnsgd1na2vs0mg"},{"bike_id":"d9f88365-e21e-43dc-8fb6-680b0e4ec30b","system_id":"levelo_inurba_marseille","lat":43.27472,"lon":5.42468,"is_reserved":false,"is_disabled":false,"rental_uris":{"android":"levelo://app?vid=d9f88365-e21e-43dc-8fb6-680b0e4ec30b","ios":"levelo://app?vid=d9f88365-e21e-43dc-8fb6-680b0e4ec30b"},"vehicle_type_id":"4","last_reported":1743066682,"current_range_meters":8000,"station_id":"ce4bhn92rcd13ifvqgrg","pricing_plan_id":"cebpf4jnsgd1na2vs0mg"},{"bike_id":"93791201-7dbd-4b36-9501-0e3a7441873a","system_id":"levelo_inurba_marseille","lat":43.30322,"lon":5.36897,"is_reserved":false,"is_disabled":false,"rental_uris":{"android":"levelo://app?vid=93791201-7dbd-4b36-9501-0e3a7441873a","ios":"levelo://app?vid=93791201-7dbd-4b36-9501-0e3a7441873a"},"vehicle_type_id":"4","last_reported":1743066682,"current_range_meters":8000,"station_id":"ce4bgqh2rcd13ifvqc5g","pricing_plan_id":"cebpf4jnsgd1na2vs0mg"},{"bike_id":"089350bf-5e4f-44b0-a51d-89ae0b1ae440","system_id":"levelo_inurba_marseille","lat":43.305599,"lon":5.365465,"is_reserved":false,"is_disabled":false,"rental_uris":{"android":"levelo://app?vid=089350bf-5e4f-44b0-a51d-89ae0b1ae440","ios":"levelo://app?vid=089350bf-5e4f-44b0-a51d-89ae0b1ae440"},"vehicle_type_id":"4","last_reported":1743066682,"current_range_meters":8000,"station_id":"ce4bgs12rcd13ifvqcag","pricing_plan_id":"cebpf4jnsgd1na2vs0mg"},{"bike_id":"99afdbe7-0705-4a5e-aecc-e7a54bcc04b7","system_id":"levelo_inurba_marseille","lat":43.31237,"lon":5.36881,"is_reserved":false,"is_disabled":false,"rental_uris":{"android":"levelo://app?vid=99afdbe7-0705-4a5e-aecc-e7a54bcc04b7","ios":"levelo://app?vid=99afdbe7-0705-4a5e-aecc-e7a54bcc04b7"},"vehicle_type_id":"4","last_reported":1743066682,"current_range_meters":8000,"station_id":"ce4bgl92rcd13ifvqbq0","pricing_plan_id":"cebpf4jnsgd1na2vs0mg"},{"bike_id":"d45a2f6c-957b-46cd-bd89-ee8e58d1536e","system_id":"levelo_inurba_marseille","lat":43.27734,"lon":5.40779,"is_reserved":false,"is_disabled":false,"rental_uris":{"android":"levelo://app?vid=d45a2f6c-957b-46cd-bd89-ee8e58d1536e","ios":"levelo://app?vid=d45a2f6c-957b-46cd-bd89-ee8e58d1536e"},"vehicle_type_id":"4","last_reported":1743066682,"current_range_meters":8000,"station_id":"","pricing_plan_id":"cebpf4jnsgd1na2vs0mg"},{"bike_id":"84a7a785-5392-42bc-8088-fb903bcc7f5c","system_id":"levelo_inurba_marseille","lat":43.2306,"lon":5.35499,"is_reserved":false,"is_disabled":false,"rental_uris":{"android":"levelo://app?vid=84a7a785-5392-42bc-8088-fb903bcc7f5c","ios":"levelo://app?vid=84a7a785-5392-42bc-8088-fb903bcc7f5c"},"vehicle_type_id":"4","last_reported":1743066682,"current_range_meters":8000,"station_id":"cpo3342slgdg3j2ifvpg","pricing_plan_id":"cebpf4jnsgd1na2vs0mg"},{"bike_id":"4c2653da-637b-4e2f-b9aa-d031950ec373","system_id":"levelo_inurba_marseille","lat":43.267846,"lon":5.394141,"is_reserved":false,"is_disabled":false,"rental_uris":{"android":"levelo://app?vid=4c2653da-637b-4e2f-b9aa-d031950ec373","ios":"levelo://app?vid=4c2653da-637b-4e2f-b9aa-d031950ec373"},"vehicle_type_id":"4","last_reported":1743066682,"current_range_meters":8000,"station_id":"ce4bhh12rcd13ifvqfg0","pricing_plan_id":"cebpf4jnsgd1na2vs0mg"},{"bike_id":"9a966c9e-31be-41ca-84a8-bca823b4276c","system_id":"levelo_inurba_marseille","lat":43.27212,"lon":5.3917,"is_reserved":false,"is_disabled":false,"rental_uris":{"android":"levelo://app?vid=9a966c9e-31be-41ca-84a8-bca823b4276c","ios":"levelo://app?vid=9a966c9e-31be-41ca-84a8-bca823b4276c"},"vehicle_type_id":"4","last_reported":1743066682,"current_range_meters":8000,"station_id":"ce4bhhp2rcd13ifvqfm0","pricing_plan_id":"cebpf4jnsgd1na2vs0mg"},{"bike_id":"72abcfc3-57f9-42f0-8bea-30766e03ff51","system_id":"levelo_inurba_marseille","lat":43.2722,"lon":5.3918,"is_reserved":false,"is_disabled":false,"rental_uris":{"android":"levelo://app?vid=72abcfc3-57f9-42f0-8bea-30766e03ff51","ios":"levelo://app?vid=72abcfc3-57f9-42f0-8bea-30766e03ff51"},"vehicle_type_id":"4","last_reported":1743066682,"current_range_meters":8000,"station_id":"ce4bhhp2rcd13ifvqfm0","pricing_plan_id":"cebpf4jnsgd1na2vs0mg"},{"bike_id":"8f4c6599-c57c-47f3-b859-da4512b39b4a","system_id":"levelo_inurba_marseille","lat":43.305357,"lon":5.365294,"is_reserved":false,"is_disabled":false,"rental_uris":{"android":"levelo://app?vid=8f4c6599-c57c-47f3-b859-da4512b39b4a","ios":"levelo://app?vid=8f4c6599-c57c-47f3-b859-da4512b39b4a"},"vehicle_type_id":"4","last_reported":1743066682,"current_range_meters":8000,"station_id":"ce4bgs12rcd13ifvqcag","pricing_plan_id":"cebpf4jnsgd1na2vs0mg"},{"bike_id":"4446deb6-d967-4989-aa7c-6b3463f48d2a","system_id":"levelo_inurba_marseille","lat":43.29278,"lon":5.37625,"is_reserved":false,"is_disabled":false,"rental_uris":{"android":"levelo://app?vid=4446deb6-d967-4989-aa7c-6b3463f48d2a","ios":"levelo://app?vid=4446deb6-d967-4989-aa7c-6b3463f48d2a"},"vehicle_type_id":"4","last_reported":1743066682,"current_range_meters":8000,"station_id":"ce4bgi12rcd13ifvqb80","pricing_plan_id":"cebpf4jnsgd1na2vs0mg"},{"bike_id":"7813f42a-8d11-4b2a-b077-be9650363461","system_id":"levelo_inurba_marseille","lat":43.23154,"lon":5.43714,"is_reserved":false,"is_disabled":false,"rental_uris":{"android":"levelo://app?vid=7813f42a-8d11-4b2a-b077-be9650363461","ios":"levelo://app?vid=7813f42a-8d11-4b2a-b077-be9650363461"},"vehicle_type_id":"4","last_reported":1743066682,"current_range_meters":8000,"station_id":"ce4bhmp2rcd13ifvqgog","pricing_plan_id":"cebpf4jnsgd1na2vs0mg"},{"bike_id":"0aa04ef9-357e-48cd-a613-22531ef7300a","system_id":"levelo_inurba_marseille","lat":43.24546,"lon":5.39519,"is_reserved":false,"is_disabled":false,"rental_uris":{"android":"levelo://app?vid=0aa04ef9-357e-48cd-a613-22531ef7300a","ios":"levelo://app?vid=0aa04ef9-357e-48cd-a613-22531ef7300a"},"vehicle_type_id":"4","last_reported":1743066682,"current_range_meters":8000,"station_id":"ce4bhlp2rcd13ifvqgjg","pricing_plan_id":"cebpf4jnsgd1na2vs0mg"},{"bike_id":"e4da3e84-b2d2-487a-9e61-555ac0256fc0","system_id":"levelo_inurba_marseille","lat":43.26941,"lon":5.3864,"is_reserved":false,"is_disabled":false,"rental_uris":{"android":"levelo://app?vid=e4da3e84-b2d2-487a-9e61-555ac0256fc0","ios":"levelo://app?vid=e4da3e84-b2d2-487a-9e61-555ac0256fc0"},"vehicle_type_id":"4","last_reported":1743066682,"current_range_meters":8000,"station_id":"ce4bhh92rcd13ifvqfh0","pricing_plan_id":"cebpf4jnsgd1na2vs0mg"},{"bike_id":"da4f4636-af9e-4f7c-9489-966f387c8ea2","system_id":"levelo_inurba_marseille","lat":43.2603,"lon":5.37546,"is_reserved":false,"is_disabled":false,"rental_uris":{"android":"levelo://app?vid=da4f4636-af9e-4f7c-9489-966f387c8ea2","ios":"levelo://app?vid=da4f4636-af9e-4f7c-9489-966f387c8ea2"},"vehicle_type_id":"4","last_reported":1743066682,"current_range_meters":8400,"station_id":"ce4bhgh2rcd13ifvqfa0","pricing_plan_id":"cebpf4jnsgd1na2vs0mg"},{"bike_id":"9801c320-ae5f-4ebd-937b-0fd1e37b6f18","system_id":"levelo_inurba_marseille","lat":43.30316,"lon":5.36902,"is_reserved":false,"is_disabled":false,"rental_uris":{"android":"levelo://app?vid=9801c320-ae5f-4ebd-937b-0fd1e37b6f18","ios":"levelo://app?vid=9801c320-ae5f-4ebd-937b-0fd1e37b6f18"},"vehicle_type_id":"4","last_reported":1743066682,"current_range_meters":8400,"station_id":"ce4bgqh2rcd13ifvqc5g","pricing_plan_id":"cebpf4jnsgd1na2vs0mg"},{"bike_id":"a29625cc-ea6a-44ad-a6ae-c5d6301296bf","system_id":"levelo_inurba_marseille","lat":43.32472,"lon":5.36576,"is_reserved":false,"is_disabled":true,"rental_uris":{"android":"levelo://app?vid=a29625cc-ea6a-44ad-a6ae-c5d6301296bf","ios":"levelo://app?vid=a29625cc-ea6a-44ad-a6ae-c5d6301296bf"},"vehicle_type_id":"4","last_reported":1743066682,"current_range_meters":8400,"station_id":"ce4bhs12rcd13ifvqhvg","pricing_plan_id":"cebpf4jnsgd1na2vs0mg"},{"bike_id":"9e01211e-e64c-4feb-aa09-244ab1d93db6","system_id":"levelo_inurba_marseille","lat":43.30549,"lon":5.36702,"is_reserved":false,"is_disabled":false,"rental_uris":{"android":"levelo://app?vid=9e01211e-e64c-4feb-aa09-244ab1d93db6","ios":"levelo://app?vid=9e01211e-e64c-4feb-aa09-244ab1d93db6"},"vehicle_type_id":"4","last_reported":1743066682,"current_range_meters":8400,"station_id":"ce4bgrp2rcd13ifvqc9g","pricing_plan_id":"cebpf4jnsgd1na2vs0mg"},{"bike_id":"ebbdcca7-9a55-47c8-b84d-446046bae70b","system_id":"levelo_inurba_marseille","lat":43.2408,"lon":5.3775,"is_reserved":false,"is_disabled":false,"rental_uris":{"android":"levelo://app?vid=ebbdcca7-9a55-47c8-b84d-446046bae70b","ios":"levelo://app?vid=ebbdcca7-9a55-47c8-b84d-446046bae70b"},"vehicle_type_id":"4","last_reported":1743066682,"current_range_meters":8400,"station_id":"ce4bhnp2rcd13ifvqgvg","pricing_plan_id":"cebpf4jnsgd1na2vs0mg"},{"bike_id":"01bd901e-20d3-4858-baf4-60839e27b3ce","system_id":"levelo_inurba_marseille","lat":43.31232,"lon":5.36858,"is_reserved":false,"is_disabled":false,"rental_uris":{"android":"levelo://app?vid=01bd901e-20d3-4858-baf4-60839e27b3ce","ios":"levelo://app?vid=01bd901e-20d3-4858-baf4-60839e27b3ce"},"vehicle_type_id":"4","last_reported":1743066682,"current_range_meters":8400,"station_id":"ce4bgl92rcd13ifvqbq0","pricing_plan_id":"cebpf4jnsgd1na2vs0mg"},{"bike_id":"dc8ccdc9-a018-4504-b0a9-676297905591","system_id":"levelo_inurba_marseille","lat":43.29301,"lon":5.3697,"is_reserved":false,"is_disabled":false,"rental_uris":{"android":"levelo://app?vid=dc8ccdc9-a018-4504-b0a9-676297905591","ios":"levelo://app?vid=dc8ccdc9-a018-4504-b0a9-676297905591"},"vehicle_type_id":"4","last_reported":1743066682,"current_range_meters":8400,"station_id":"","pricing_plan_id":"cebpf4jnsgd1na2vs0mg"},{"bike_id":"da01d825-0a78-4002-8e7e-212e861f429d","system_id":"levelo_inurba_marseille","lat":43.23152,"lon":5.43712,"is_reserved":false,"is_disabled":false,"rental_uris":{"android":"levelo://app?vid=da01d825-0a78-4002-8e7e-212e861f429d","ios":"levelo://app?vid=da01d825-0a78-4002-8e7e-212e861f429d"},"vehicle_type_id":"4","last_reported":1743066682,"current_range_meters":8400,"station_id":"ce4bhmp2rcd13ifvqgog","pricing_plan_id":"cebpf4jnsgd1na2vs0mg"},{"bike_id":"629dc58e-f1fa-4c78-b496-582f20ae1d69","system_id":"levelo_inurba_marseille","lat":43.23149,"lon":5.43723,"is_reserved":false,"is_disabled":false,"rental_uris":{"android":"levelo://app?vid=629dc58e-f1fa-4c78-b496-582f20ae1d69","ios":"levelo://app?vid=629dc58e-f1fa-4c78-b496-582f20ae1d69"},"vehicle_type_id":"4","last_reported":1743066682,"current_range_meters":8400,"station_id":"ce4bhmp2rcd13ifvqgog","pricing_plan_id":"cebpf4jnsgd1na2vs0mg"},{"bike_id":"18460cf5-915d-48eb-8bb6-4a7b73794a0c","system_id":"levelo_inurba_marseille","lat":43.31279,"lon":5.36832,"is_reserved":false,"is_disabled":false,"rental_uris":{"android":"levelo://app?vid=18460cf5-915d-48eb-8bb6-4a7b73794a0c","ios":"levelo://app?vid=18460cf5-915d-48eb-8bb6-4a7b73794a0c"},"vehicle_type_id":"4","last_reported":1743066682,"current_range_meters":8800,"station_id":"","pricing_plan_id":"cebpf4jnsgd1na2vs0mg"},{"bike_id":"b4c7e319-62c5-4a21-b957-344161e4163d","system_id":"levelo_inurba_marseille","lat":43.28972,"lon":5.37826,"is_reserved":false,"is_disabled":false,"rental_uris":{"android":"levelo://app?vid=b4c7e319-62c5-4a21-b957-344161e4163d","ios":"levelo://app?vid=b4c7e319-62c5-4a21-b957-344161e4163d"},"vehicle_type_id":"4","last_reported":1743066682,"current_range_meters":8800,"station_id":"ce4bh9p2rcd13ifvqed0","pricing_plan_id":"cebpf4jnsgd1na2vs0mg"},{"bike_id":"748177e5-aa5f-4eac-bce8-f4252f0d115c","system_id":"levelo_inurba_marseille","lat":43.29877,"lon":5.39724,"is_reserved":false,"is_disabled":false,"rental_uris":{"android":"levelo://app?vid=748177e5-aa5f-4eac-bce8-f4252f0d115c","ios":"levelo://app?vid=748177e5-aa5f-4eac-bce8-f4252f0d115c"},"vehicle_type_id":"4","last_reported":1743066682,"current_range_meters":8800,"station_id":"ce4bh0h2rcd13ifvqd50","pricing_plan_id":"cebpf4jnsgd1na2vs0mg"},{"bike_id":"bf2b816e-1e7e-46ae-a644-271755239091","system_id":"levelo_inurba_marseille","lat":43.30465,"lon":5.37902,"is_reserved":false,"is_disabled":false,"rental_uris":{"android":"levelo://app?vid=bf2b816e-1e7e-46ae-a644-271755239091","ios":"levelo://app?vid=bf2b816e-1e7e-46ae-a644-271755239091"},"vehicle_type_id":"4","last_reported":1743066682,"current_range_meters":8800,"station_id":"ce4bgup2rcd13ifvqcn0","pricing_plan_id":"cebpf4jnsgd1na2vs0mg"},{"bike_id":"881e8bd5-2618-4adf-9dab-bec8b2ec4bcd","system_id":"levelo_inurba_marseille","lat":43.26668,"lon":5.38263,"is_reserved":false,"is_disabled":false,"rental_uris":{"android":"levelo://app?vid=881e8bd5-2618-4adf-9dab-bec8b2ec4bcd","ios":"levelo://app?vid=881e8bd5-2618-4adf-9dab-bec8b2ec4bcd"},"vehicle_type_id":"4","last_reported":1743066682,"current_range_meters":8800,"station_id":"ce4bhg92rcd13ifvqf90","pricing_plan_id":"cebpf4jnsgd1na2vs0mg"},{"bike_id":"a44a784e-a92b-4bcf-b3ae-f275115fc9f3","system_id":"levelo_inurba_marseille","lat":43.29783,"lon":5.39352,"is_reserved":false,"is_disabled":false,"rental_uris":{"android":"levelo://app?vid=a44a784e-a92b-4bcf-b3ae-f275115fc9f3","ios":"levelo://app?vid=a44a784e-a92b-4bcf-b3ae-f275115fc9f3"},"vehicle_type_id":"4","last_reported":1743066682,"current_range_meters":8800,"station_id":"chh1huq6cuj3fo74tm60","pricing_plan_id":"cebpf4jnsgd1na2vs0mg"},{"bike_id":"a25f00d1-aca5-442a-9dff-8fa7d9ea1d32","system_id":"levelo_inurba_marseille","lat":43.303173,"lon":5.369006,"is_reserved":false,"is_disabled":false,"rental_uris":{"android":"levelo://app?vid=a25f00d1-aca5-442a-9dff-8fa7d9ea1d32","ios":"levelo://app?vid=a25f00d1-aca5-442a-9dff-8fa7d9ea1d32"},"vehicle_type_id":"4","last_reported":1743066682,"current_range_meters":8800,"station_id":"ce4bgqh2rcd13ifvqc5g","pricing_plan_id":"cebpf4jnsgd1na2vs0mg"},{"bike_id":"87d73c12-5f46-4736-886e-dc8f77cbb1b4","system_id":"levelo_inurba_marseille","lat":43.2962,"lon":5.37726,"is_reserved":false,"is_disabled":false,"rental_uris":{"android":"levelo://app?vid=87d73c12-5f46-4736-886e-dc8f77cbb1b4","ios":"levelo://app?vid=87d73c12-5f46-4736-886e-dc8f77cbb1b4"},"vehicle_type_id":"4","last_reported":1743066682,"current_range_meters":8800,"station_id":"ce4bgi92rcd13ifvqb90","pricing_plan_id":"cebpf4jnsgd1na2vs0mg"},{"bike_id":"85d0fa0c-b5b9-41cd-ba43-951901672dab","system_id":"levelo_inurba_marseille","lat":43.25613,"lon":5.3897,"is_reserved":false,"is_disabled":false,"rental_uris":{"android":"levelo://app?vid=85d0fa0c-b5b9-41cd-ba43-951901672dab","ios":"levelo://app?vid=85d0fa0c-b5b9-41cd-ba43-951901672dab"},"vehicle_type_id":"4","last_reported":1743066682,"current_range_meters":8800,"station_id":"","pricing_plan_id":"cebpf4jnsgd1na2vs0mg"},{"bike_id":"31b76e62-592f-46b1-8095-61cadd54262e","system_id":"levelo_inurba_marseille","lat":43.26683,"lon":5.38263,"is_reserved":false,"is_disabled":false,"rental_uris":{"android":"levelo://app?vid=31b76e62-592f-46b1-8095-61cadd54262e","ios":"levelo://app?vid=31b76e62-592f-46b1-8095-61cadd54262e"},"vehicle_type_id":"4","last_reported":1743066682,"current_range_meters":8800,"station_id":"ce4bhg92rcd13ifvqf90","pricing_plan_id":"cebpf4jnsgd1na2vs0mg"},{"bike_id":"402cc30d-39ca-4056-ad42-effd69fbd9c9","system_id":"levelo_inurba_marseille","lat":43.2408,"lon":5.37757,"is_reserved":false,"is_disabled":false,"rental_uris":{"android":"levelo://app?vid=402cc30d-39ca-4056-ad42-effd69fbd9c9","ios":"levelo://app?vid=402cc30d-39ca-4056-ad42-effd69fbd9c9"},"vehicle_type_id":"4","last_reported":1743066682,"current_range_meters":8800,"station_id":"ce4bhnp2rcd13ifvqgvg","pricing_plan_id":"cebpf4jnsgd1na2vs0mg"},{"bike_id":"40046afd-c6aa-43ea-88bd-183a4d2ec61c","system_id":"levelo_inurba_marseille","lat":43.31611,"lon":5.41679,"is_reserved":false,"is_disabled":false,"rental_uris":{"android":"levelo://app?vid=40046afd-c6aa-43ea-88bd-183a4d2ec61c","ios":"levelo://app?vid=40046afd-c6aa-43ea-88bd-183a4d2ec61c"},"vehicle_type_id":"4","last_reported":1743066682,"current_range_meters":9200,"station_id":"","pricing_plan_id":"cebpf4jnsgd1na2vs0mg"},{"bike_id":"775ecec5-9231-4fb9-8a34-cb3f2feb49bd","system_id":"levelo_inurba_marseille","lat":43.33725,"lon":5.39184,"is_reserved":false,"is_disabled":false,"rental_uris":{"android":"levelo://app?vid=775ecec5-9231-4fb9-8a34-cb3f2feb49bd","ios":"levelo://app?vid=775ecec5-9231-4fb9-8a34-cb3f2feb49bd"},"vehicle_type_id":"4","last_reported":1743066682,"current_range_meters":8800,"station_id":"ce4bhr92rcd13ifvqhsg","pricing_plan_id":"cebpf4jnsgd1na2vs0mg"},{"bike_id":"94d5bc28-e6ae-4b4b-99ee-30ba3e27dc71","system_id":"levelo_inurba_marseille","lat":43.31365,"lon":5.366935,"is_reserved":false,"is_disabled":false,"rental_uris":{"android":"levelo://app?vid=94d5bc28-e6ae-4b4b-99ee-30ba3e27dc71","ios":"levelo://app?vid=94d5bc28-e6ae-4b4b-99ee-30ba3e27dc71"},"vehicle_type_id":"4","last_reported":1743066682,"current_range_meters":9200,"station_id":"ce4bgr92rcd13ifvqc6g","pricing_plan_id":"cebpf4jnsgd1na2vs0mg"},{"bike_id":"8ed07b2d-ae82-4485-8560-7a6519bdbee8","system_id":"levelo_inurba_marseille","lat":43.30863,"lon":5.36869,"is_reserved":false,"is_disabled":false,"rental_uris":{"android":"levelo://app?vid=8ed07b2d-ae82-4485-8560-7a6519bdbee8","ios":"levelo://app?vid=8ed07b2d-ae82-4485-8560-7a6519bdbee8"},"vehicle_type_id":"4","last_reported":1743066682,"current_range_meters":9200,"station_id":"","pricing_plan_id":"cebpf4jnsgd1na2vs0mg"},{"bike_id":"415abcb6-742c-4b67-b315-b542207f0720","system_id":"levelo_inurba_marseille","lat":43.29569,"lon":5.37509,"is_reserved":false,"is_disabled":false,"rental_uris":{"android":"levelo://app?vid=415abcb6-742c-4b67-b315-b542207f0720","ios":"levelo://app?vid=415abcb6-742c-4b67-b315-b542207f0720"},"vehicle_type_id":"4","last_reported":1743066682,"current_range_meters":9200,"station_id":"ce4bgh92rcd13ifvqb50","pricing_plan_id":"cebpf4jnsgd1na2vs0mg"},{"bike_id":"0efa9a85-a950-471a-88a8-073f5726d25d","system_id":"levelo_inurba_marseille","lat":43.29261,"lon":5.38425,"is_reserved":false,"is_disabled":true,"rental_uris":{"android":"levelo://app?vid=0efa9a85-a950-471a-88a8-073f5726d25d","ios":"levelo://app?vid=0efa9a85-a950-471a-88a8-073f5726d25d"},"vehicle_type_id":"4","last_reported":1743066682,"current_range_meters":9600,"station_id":"ce4bh692rcd13ifvqea0","pricing_plan_id":"cebpf4jnsgd1na2vs0mg"},{"bike_id":"eca4da62-6370-4187-bd27-0c03f6c76648","system_id":"levelo_inurba_marseille","lat":43.30463,"lon":5.37922,"is_reserved":false,"is_disabled":false,"rental_uris":{"android":"levelo://app?vid=eca4da62-6370-4187-bd27-0c03f6c76648","ios":"levelo://app?vid=eca4da62-6370-4187-bd27-0c03f6c76648"},"vehicle_type_id":"4","last_reported":1743066682,"current_range_meters":9600,"station_id":"ce4bgup2rcd13ifvqcn0","pricing_plan_id":"cebpf4jnsgd1na2vs0mg"},{"bike_id":"b7b84f78-a0bd-4839-9bec-74d0eacb879d","system_id":"levelo_inurba_marseille","lat":43.24075,"lon":5.37757,"is_reserved":false,"is_disabled":false,"rental_uris":{"android":"levelo://app?vid=b7b84f78-a0bd-4839-9bec-74d0eacb879d","ios":"levelo://app?vid=b7b84f78-a0bd-4839-9bec-74d0eacb879d"},"vehicle_type_id":"4","last_reported":1743066682,"current_range_meters":9600,"station_id":"ce4bhnp2rcd13ifvqgvg","pricing_plan_id":"cebpf4jnsgd1na2vs0mg"},{"bike_id":"f8a5e80a-07e7-47f3-bfaf-ffc91ab4dc2c","system_id":"levelo_inurba_marseille","lat":43.26947,"lon":5.38629,"is_reserved":false,"is_disabled":false,"rental_uris":{"android":"levelo://app?vid=f8a5e80a-07e7-47f3-bfaf-ffc91ab4dc2c","ios":"levelo://app?vid=f8a5e80a-07e7-47f3-bfaf-ffc91ab4dc2c"},"vehicle_type_id":"4","last_reported":1743066682,"current_range_meters":9600,"station_id":"ce4bhh92rcd13ifvqfh0","pricing_plan_id":"cebpf4jnsgd1na2vs0mg"},{"bike_id":"8e200acb-fcce-4624-a302-374480040b78","system_id":"levelo_inurba_marseille","lat":43.30466,"lon":5.3791,"is_reserved":false,"is_disabled":false,"rental_uris":{"android":"levelo://app?vid=8e200acb-fcce-4624-a302-374480040b78","ios":"levelo://app?vid=8e200acb-fcce-4624-a302-374480040b78"},"vehicle_type_id":"4","last_reported":1743066682,"current_range_meters":9600,"station_id":"ce4bgup2rcd13ifvqcn0","pricing_plan_id":"cebpf4jnsgd1na2vs0mg"},{"bike_id":"a53b5987-13ec-40d3-a6d4-281783cb3092","system_id":"levelo_inurba_marseille","lat":43.3046,"lon":5.37919,"is_reserved":false,"is_disabled":false,"rental_uris":{"android":"levelo://app?vid=a53b5987-13ec-40d3-a6d4-281783cb3092","ios":"levelo://app?vid=a53b5987-13ec-40d3-a6d4-281783cb3092"},"vehicle_type_id":"4","last_reported":1743066682,"current_range_meters":9600,"station_id":"ce4bgup2rcd13ifvqcn0","pricing_plan_id":"cebpf4jnsgd1na2vs0mg"},{"bike_id":"26f6952e-dbce-4b31-899b-09f8e9c201b8","system_id":"levelo_inurba_marseille","lat":43.308958,"lon":5.396644,"is_reserved":false,"is_disabled":false,"rental_uris":{"android":"levelo://app?vid=26f6952e-dbce-4b31-899b-09f8e9c201b8","ios":"levelo://app?vid=26f6952e-dbce-4b31-899b-09f8e9c201b8"},"vehicle_type_id":"4","last_reported":1743066682,"current_range_meters":10000,"station_id":"ce4bh012rcd13ifvqcv0","pricing_plan_id":"cebpf4jnsgd1na2vs0mg"},{"bike_id":"8732884c-0d12-4c73-aa6b-b5db2e9036dc","system_id":"levelo_inurba_marseille","lat":43.3054,"lon":5.36692,"is_reserved":false,"is_disabled":false,"rental_uris":{"android":"levelo://app?vid=8732884c-0d12-4c73-aa6b-b5db2e9036dc","ios":"levelo://app?vid=8732884c-0d12-4c73-aa6b-b5db2e9036dc"},"vehicle_type_id":"4","last_reported":1743066682,"current_range_meters":10000,"station_id":"ce4bgrp2rcd13ifvqc9g","pricing_plan_id":"cebpf4jnsgd1na2vs0mg"},{"bike_id":"31bd9ef9-af3a-4703-bcba-03e64f582c24","system_id":"levelo_inurba_marseille","lat":43.2749,"lon":5.4246,"is_reserved":false,"is_disabled":false,"rental_uris":{"android":"levelo://app?vid=31bd9ef9-af3a-4703-bcba-03e64f582c24","ios":"levelo://app?vid=31bd9ef9-af3a-4703-bcba-03e64f582c24"},"vehicle_type_id":"4","last_reported":1743066682,"current_range_meters":10000,"station_id":"ce4bhn92rcd13ifvqgrg","pricing_plan_id":"cebpf4jnsgd1na2vs0mg"},{"bike_id":"1b43fc25-3ea0-48b3-af2c-a67610b49dc2","system_id":"levelo_inurba_marseille","lat":43.31373,"lon":5.36694,"is_reserved":false,"is_disabled":false,"rental_uris":{"android":"levelo://app?vid=1b43fc25-3ea0-48b3-af2c-a67610b49dc2","ios":"levelo://app?vid=1b43fc25-3ea0-48b3-af2c-a67610b49dc2"},"vehicle_type_id":"4","last_reported":1743066682,"current_range_meters":10000,"station_id":"ce4bgr92rcd13ifvqc6g","pricing_plan_id":"cebpf4jnsgd1na2vs0mg"},{"bike_id":"0b67625b-373e-4292-9ff1-fdff5608c330","system_id":"levelo_inurba_marseille","lat":43.31359,"lon":5.36695,"is_reserved":false,"is_disabled":false,"rental_uris":{"android":"levelo://app?vid=0b67625b-373e-4292-9ff1-fdff5608c330","ios":"levelo://app?vid=0b67625b-373e-4292-9ff1-fdff5608c330"},"vehicle_type_id":"4","last_reported":1743066682,"current_range_meters":10000,"station_id":"ce4bgr92rcd13ifvqc6g","pricing_plan_id":"cebpf4jnsgd1na2vs0mg"},{"bike_id":"cff8994d-77fb-4983-95ec-41addf895282","system_id":"levelo_inurba_marseille","lat":43.29108,"lon":5.39855,"is_reserved":false,"is_disabled":false,"rental_uris":{"android":"levelo://app?vid=cff8994d-77fb-4983-95ec-41addf895282","ios":"levelo://app?vid=cff8994d-77fb-4983-95ec-41addf895282"},"vehicle_type_id":"4","last_reported":1743066682,"current_range_meters":10000,"station_id":"","pricing_plan_id":"cebpf4jnsgd1na2vs0mg"},{"bike_id":"09b7635b-55d7-46b6-97d9-f356dc094f33","system_id":"levelo_inurba_marseille","lat":43.2594,"lon":5.40896,"is_reserved":false,"is_disabled":false,"rental_uris":{"android":"levelo://app?vid=09b7635b-55d7-46b6-97d9-f356dc094f33","ios":"levelo://app?vid=09b7635b-55d7-46b6-97d9-f356dc094f33"},"vehicle_type_id":"4","last_reported":1743066682,"current_range_meters":10000,"station_id":"ce4bhm92rcd13ifvqglg","pricing_plan_id":"cebpf4jnsgd1na2vs0mg"},{"bike_id":"025425bb-1287-4df2-9401-0428a6e93f63","system_id":"levelo_inurba_marseille","lat":43.30905,"lon":5.3685,"is_reserved":false,"is_disabled":false,"rental_uris":{"android":"levelo://app?vid=025425bb-1287-4df2-9401-0428a6e93f63","ios":"levelo://app?vid=025425bb-1287-4df2-9401-0428a6e93f63"},"vehicle_type_id":"4","last_reported":1743066682,"current_range_meters":10800,"station_id":"ce4bgn92rcd13ifvqbvg","pricing_plan_id":"cebpf4jnsgd1na2vs0mg"},{"bike_id":"bafe41c6-e32c-412f-a1d9-b3ec72d705cf","system_id":"levelo_inurba_marseille","lat":43.29514,"lon":5.37505,"is_reserved":false,"is_disabled":false,"rental_uris":{"android":"levelo://app?vid=bafe41c6-e32c-412f-a1d9-b3ec72d705cf","ios":"levelo://app?vid=bafe41c6-e32c-412f-a1d9-b3ec72d705cf"},"vehicle_type_id":"4","last_reported":1743066682,"current_range_meters":10800,"station_id":"ce4bgkp2rcd13ifvqbmg","pricing_plan_id":"cebpf4jnsgd1na2vs0mg"},{"bike_id":"5d97e6db-29aa-4dc3-a913-dd5ff76e3f8c","system_id":"levelo_inurba_marseille","lat":43.29418,"lon":5.38612,"is_reserved":false,"is_disabled":true,"rental_uris":{"android":"levelo://app?vid=5d97e6db-29aa-4dc3-a913-dd5ff76e3f8c","ios":"levelo://app?vid=5d97e6db-29aa-4dc3-a913-dd5ff76e3f8c"},"vehicle_type_id":"4","last_reported":1743066682,"current_range_meters":10800,"station_id":"ce4bh2h2rcd13ifvqdh0","pricing_plan_id":"cebpf4jnsgd1na2vs0mg"},{"bike_id":"6d93f036-c539-463a-a634-86c7fdf6c00e","system_id":"levelo_inurba_marseille","lat":43.30919,"lon":5.368472,"is_reserved":false,"is_disabled":false,"rental_uris":{"android":"levelo://app?vid=6d93f036-c539-463a-a634-86c7fdf6c00e","ios":"levelo://app?vid=6d93f036-c539-463a-a634-86c7fdf6c00e"},"vehicle_type_id":"4","last_reported":1743066682,"current_range_meters":10800,"station_id":"ce4bgn92rcd13ifvqbvg","pricing_plan_id":"cebpf4jnsgd1na2vs0mg"},{"bike_id":"5611c475-851f-4bff-9eb4-1673a793d8d7","system_id":"levelo_inurba_marseille","lat":43.31358,"lon":5.36702,"is_reserved":false,"is_disabled":false,"rental_uris":{"android":"levelo://app?vid=5611c475-851f-4bff-9eb4-1673a793d8d7","ios":"levelo://app?vid=5611c475-851f-4bff-9eb4-1673a793d8d7"},"vehicle_type_id":"4","last_reported":1743066682,"current_range_meters":10800,"station_id":"ce4bgr92rcd13ifvqc6g","pricing_plan_id":"cebpf4jnsgd1na2vs0mg"},{"bike_id":"c18155db-65c7-4d5a-8c5b-923eb75c675d","system_id":"levelo_inurba_marseille","lat":43.321,"lon":5.36771,"is_reserved":false,"is_disabled":false,"rental_uris":{"android":"levelo://app?vid=c18155db-65c7-4d5a-8c5b-923eb75c675d","ios":"levelo://app?vid=c18155db-65c7-4d5a-8c5b-923eb75c675d"},"vehicle_type_id":"4","last_reported":1743066682,"current_range_meters":10800,"station_id":"ce4bhrh2rcd13ifvqhug","pricing_plan_id":"cebpf4jnsgd1na2vs0mg"},{"bike_id":"546d70f3-051f-4b76-b2b1-9ab192ca486a","system_id":"levelo_inurba_marseille","lat":43.29851,"lon":5.36282,"is_reserved":false,"is_disabled":false,"rental_uris":{"android":"levelo://app?vid=546d70f3-051f-4b76-b2b1-9ab192ca486a","ios":"levelo://app?vid=546d70f3-051f-4b76-b2b1-9ab192ca486a"},"vehicle_type_id":"4","last_reported":1743066682,"current_range_meters":10000,"station_id":"ce4bgpp2rcd13ifvqc3g","pricing_plan_id":"cebpf4jnsgd1na2vs0mg"},{"bike_id":"8e1fd18c-ee2f-4132-8303-b254e815e5b7","system_id":"levelo_inurba_marseille","lat":43.24991,"lon":5.3897,"is_reserved":false,"is_disabled":false,"rental_uris":{"android":"levelo://app?vid=8e1fd18c-ee2f-4132-8303-b254e815e5b7","ios":"levelo://app?vid=8e1fd18c-ee2f-4132-8303-b254e815e5b7"},"vehicle_type_id":"4","last_reported":1743066682,"current_range_meters":10800,"station_id":"ce4bhgp2rcd13ifvqfd0","pricing_plan_id":"cebpf4jnsgd1na2vs0mg"},{"bike_id":"1c21b756-e036-4348-8b3e-23fd217ddfa2","system_id":"levelo_inurba_marseille","lat":43.26951,"lon":5.38622,"is_reserved":false,"is_disabled":false,"rental_uris":{"android":"levelo://app?vid=1c21b756-e036-4348-8b3e-23fd217ddfa2","ios":"levelo://app?vid=1c21b756-e036-4348-8b3e-23fd217ddfa2"},"vehicle_type_id":"4","last_reported":1743066682,"current_range_meters":10800,"station_id":"ce4bhh92rcd13ifvqfh0","pricing_plan_id":"cebpf4jnsgd1na2vs0mg"},{"bike_id":"cc47bdae-e849-4c2a-a9b3-b38e0f1eb05b","system_id":"levelo_inurba_marseille","lat":43.249998,"lon":5.389336,"is_reserved":false,"is_disabled":false,"rental_uris":{"android":"levelo://app?vid=cc47bdae-e849-4c2a-a9b3-b38e0f1eb05b","ios":"levelo://app?vid=cc47bdae-e849-4c2a-a9b3-b38e0f1eb05b"},"vehicle_type_id":"4","last_reported":1743066682,"current_range_meters":10800,"station_id":"ce4bhgp2rcd13ifvqfd0","pricing_plan_id":"cebpf4jnsgd1na2vs0mg"},{"bike_id":"1315cf04-c031-4438-b452-80eff3dd2e77","system_id":"levelo_inurba_marseille","lat":43.2499,"lon":5.38941,"is_reserved":false,"is_disabled":false,"rental_uris":{"android":"levelo://app?vid=1315cf04-c031-4438-b452-80eff3dd2e77","ios":"levelo://app?vid=1315cf04-c031-4438-b452-80eff3dd2e77"},"vehicle_type_id":"4","last_reported":1743066682,"current_range_meters":10800,"station_id":"ce4bhgp2rcd13ifvqfd0","pricing_plan_id":"cebpf4jnsgd1na2vs0mg"},{"bike_id":"df631c8a-0145-46d7-b535-345caf7c5f5d","system_id":"levelo_inurba_marseille","lat":43.23149,"lon":5.43709,"is_reserved":false,"is_disabled":false,"rental_uris":{"android":"levelo://app?vid=df631c8a-0145-46d7-b535-345caf7c5f5d","ios":"levelo://app?vid=df631c8a-0145-46d7-b535-345caf7c5f5d"},"vehicle_type_id":"4","last_reported":1743066682,"current_range_meters":11200,"station_id":"ce4bhmp2rcd13ifvqgog","pricing_plan_id":"cebpf4jnsgd1na2vs0mg"},{"bike_id":"975934f6-7a33-420c-bd9c-1cd88c1e6d5c","system_id":"levelo_inurba_marseille","lat":43.27996,"lon":5.38763,"is_reserved":false,"is_disabled":false,"rental_uris":{"android":"levelo://app?vid=975934f6-7a33-420c-bd9c-1cd88c1e6d5c","ios":"levelo://app?vid=975934f6-7a33-420c-bd9c-1cd88c1e6d5c"},"vehicle_type_id":"4","last_reported":1743066682,"current_range_meters":11200,"station_id":"ce4bhg12rcd13ifvqf80","pricing_plan_id":"cebpf4jnsgd1na2vs0mg"},{"bike_id":"0dff4b98-97a7-47ec-af33-9754dad53f3c","system_id":"levelo_inurba_marseille","lat":43.32485,"lon":5.36558,"is_reserved":false,"is_disabled":false,"rental_uris":{"android":"levelo://app?vid=0dff4b98-97a7-47ec-af33-9754dad53f3c","ios":"levelo://app?vid=0dff4b98-97a7-47ec-af33-9754dad53f3c"},"vehicle_type_id":"4","last_reported":1743066682,"current_range_meters":11200,"station_id":"ce4bhs12rcd13ifvqhvg","pricing_plan_id":"cebpf4jnsgd1na2vs0mg"},{"bike_id":"11e06e15-2b79-4034-a177-ef444ba6b3c5","system_id":"levelo_inurba_marseille","lat":43.29253,"lon":5.40912,"is_reserved":false,"is_disabled":false,"rental_uris":{"android":"levelo://app?vid=11e06e15-2b79-4034-a177-ef444ba6b3c5","ios":"levelo://app?vid=11e06e15-2b79-4034-a177-ef444ba6b3c5"},"vehicle_type_id":"4","last_reported":1743066682,"current_range_meters":11200,"station_id":"ce4bh192rcd13ifvqdc0","pricing_plan_id":"cebpf4jnsgd1na2vs0mg"},{"bike_id":"f35c8dac-946a-4808-9e5d-c62d8a387844","system_id":"levelo_inurba_marseille","lat":43.30465,"lon":5.37912,"is_reserved":false,"is_disabled":false,"rental_uris":{"android":"levelo://app?vid=f35c8dac-946a-4808-9e5d-c62d8a387844","ios":"levelo://app?vid=f35c8dac-946a-4808-9e5d-c62d8a387844"},"vehicle_type_id":"4","last_reported":1743066682,"current_range_meters":11200,"station_id":"ce4bgup2rcd13ifvqcn0","pricing_plan_id":"cebpf4jnsgd1na2vs0mg"},{"bike_id":"2a8938f3-a92d-4fae-9674-112eef02fe99","system_id":"levelo_inurba_marseille","lat":43.31227,"lon":5.36861,"is_reserved":false,"is_disabled":false,"rental_uris":{"android":"levelo://app?vid=2a8938f3-a92d-4fae-9674-112eef02fe99","ios":"levelo://app?vid=2a8938f3-a92d-4fae-9674-112eef02fe99"},"vehicle_type_id":"4","last_reported":1743066682,"current_range_meters":11200,"station_id":"ce4bgl92rcd13ifvqbq0","pricing_plan_id":"cebpf4jnsgd1na2vs0mg"},{"bike_id":"79fa1e0e-c232-4c90-a66c-bc72a259131c","system_id":"levelo_inurba_marseille","lat":43.30465,"lon":5.37905,"is_reserved":false,"is_disabled":false,"rental_uris":{"android":"levelo://app?vid=79fa1e0e-c232-4c90-a66c-bc72a259131c","ios":"levelo://app?vid=79fa1e0e-c232-4c90-a66c-bc72a259131c"},"vehicle_type_id":"4","last_reported":1743066682,"current_range_meters":11200,"station_id":"ce4bgup2rcd13ifvqcn0","pricing_plan_id":"cebpf4jnsgd1na2vs0mg"},{"bike_id":"97b447f0-cc80-4696-9af6-f4b95c6964a4","system_id":"levelo_inurba_marseille","lat":43.30555,"lon":5.36707,"is_reserved":false,"is_disabled":false,"rental_uris":{"android":"levelo://app?vid=97b447f0-cc80-4696-9af6-f4b95c6964a4","ios":"levelo://app?vid=97b447f0-cc80-4696-9af6-f4b95c6964a4"},"vehicle_type_id":"4","last_reported":1743066682,"current_range_meters":11200,"station_id":"ce4bgrp2rcd13ifvqc9g","pricing_plan_id":"cebpf4jnsgd1na2vs0mg"},{"bike_id":"0ac88cdf-dd3a-494f-aaa5-2b24d1ce393f","system_id":"levelo_inurba_marseille","lat":43.231948,"lon":5.35564,"is_reserved":false,"is_disabled":false,"rental_uris":{"android":"levelo://app?vid=0ac88cdf-dd3a-494f-aaa5-2b24d1ce393f","ios":"levelo://app?vid=0ac88cdf-dd3a-494f-aaa5-2b24d1ce393f"},"vehicle_type_id":"4","last_reported":1743066682,"current_range_meters":11200,"station_id":"ce4bhu92rcd13ifvqi70","pricing_plan_id":"cebpf4jnsgd1na2vs0mg"},{"bike_id":"b8c9a18b-1e58-427c-aa57-0ba04358baae","system_id":"levelo_inurba_marseille","lat":43.28717,"lon":5.37931,"is_reserved":false,"is_disabled":false,"rental_uris":{"android":"levelo://app?vid=b8c9a18b-1e58-427c-aa57-0ba04358baae","ios":"levelo://app?vid=b8c9a18b-1e58-427c-aa57-0ba04358baae"},"vehicle_type_id":"4","last_reported":1743066682,"current_range_meters":14000,"station_id":"ce4bh9p2rcd13ifvqec0","pricing_plan_id":"cebpf4jnsgd1na2vs0mg"},{"bike_id":"3a77925d-7c70-486f-9a97-e2d9fc1b227e","system_id":"levelo_inurba_marseille","lat":43.26681,"lon":5.38263,"is_reserved":false,"is_disabled":false,"rental_uris":{"android":"levelo://app?vid=3a77925d-7c70-486f-9a97-e2d9fc1b227e","ios":"levelo://app?vid=3a77925d-7c70-486f-9a97-e2d9fc1b227e"},"vehicle_type_id":"4","last_reported":1743066682,"current_range_meters":10800,"station_id":"ce4bhg92rcd13ifvqf90","pricing_plan_id":"cebpf4jnsgd1na2vs0mg"},{"bike_id":"a11cdfc5-beff-4efa-a65e-8cfb23bce778","system_id":"levelo_inurba_marseille","lat":43.29223,"lon":5.36054,"is_reserved":false,"is_disabled":false,"rental_uris":{"android":"levelo://app?vid=a11cdfc5-beff-4efa-a65e-8cfb23bce778","ios":"levelo://app?vid=a11cdfc5-beff-4efa-a65e-8cfb23bce778"},"vehicle_type_id":"4","last_reported":1743066682,"current_range_meters":11200,"station_id":"ce4bhbh2rcd13ifvqeqg","pricing_plan_id":"cebpf4jnsgd1na2vs0mg"},{"bike_id":"78534986-92a7-4b56-a1a9-68e46138534f","system_id":"levelo_inurba_marseille","lat":43.30898,"lon":5.37186,"is_reserved":false,"is_disabled":true,"rental_uris":{"android":"levelo://app?vid=78534986-92a7-4b56-a1a9-68e46138534f","ios":"levelo://app?vid=78534986-92a7-4b56-a1a9-68e46138534f"},"vehicle_type_id":"4","last_reported":1743066682,"current_range_meters":11200,"station_id":"ce4bguh2rcd13ifvqckg","pricing_plan_id":"cebpf4jnsgd1na2vs0mg"},{"bike_id":"886b8cc5-9e20-4ab7-aa91-67c4a8166806","system_id":"levelo_inurba_marseille","lat":43.30535,"lon":5.36704,"is_reserved":false,"is_disabled":false,"rental_uris":{"android":"levelo://app?vid=886b8cc5-9e20-4ab7-aa91-67c4a8166806","ios":"levelo://app?vid=886b8cc5-9e20-4ab7-aa91-67c4a8166806"},"vehicle_type_id":"4","last_reported":1743066682,"current_range_meters":11600,"station_id":"ce4bgrp2rcd13ifvqc9g","pricing_plan_id":"cebpf4jnsgd1na2vs0mg"},{"bike_id":"13f84f39-4fcf-482e-95d4-4178fddfc3b5","system_id":"levelo_inurba_marseille","lat":43.29842,"lon":5.36269,"is_reserved":false,"is_disabled":false,"rental_uris":{"android":"levelo://app?vid=13f84f39-4fcf-482e-95d4-4178fddfc3b5","ios":"levelo://app?vid=13f84f39-4fcf-482e-95d4-4178fddfc3b5"},"vehicle_type_id":"4","last_reported":1743066682,"current_range_meters":11600,"station_id":"ce4bgpp2rcd13ifvqc3g","pricing_plan_id":"cebpf4jnsgd1na2vs0mg"},{"bike_id":"ecdfb301-ebdb-432a-ab5a-7520834a8251","system_id":"levelo_inurba_marseille","lat":43.29897,"lon":5.37483,"is_reserved":false,"is_disabled":false,"rental_uris":{"android":"levelo://app?vid=ecdfb301-ebdb-432a-ab5a-7520834a8251","ios":"levelo://app?vid=ecdfb301-ebdb-432a-ab5a-7520834a8251"},"vehicle_type_id":"4","last_reported":1743066682,"current_range_meters":11600,"station_id":"ce4bgjh2rcd13ifvqbg0","pricing_plan_id":"cebpf4jnsgd1na2vs0mg"},{"bike_id":"75c7187b-7cb5-4136-b180-795a32bcbe1d","system_id":"levelo_inurba_marseille","lat":43.27974,"lon":5.38589,"is_reserved":false,"is_disabled":true,"rental_uris":{"android":"levelo://app?vid=75c7187b-7cb5-4136-b180-795a32bcbe1d","ios":"levelo://app?vid=75c7187b-7cb5-4136-b180-795a32bcbe1d"},"vehicle_type_id":"4","last_reported":1743066682,"current_range_meters":11600,"station_id":"","pricing_plan_id":"cebpf4jnsgd1na2vs0mg"},{"bike_id":"b7df044c-a420-415e-b7b7-345aa8eb07fc","system_id":"levelo_inurba_marseille","lat":43.31857,"lon":5.38696,"is_reserved":false,"is_disabled":false,"rental_uris":{"android":"levelo://app?vid=b7df044c-a420-415e-b7b7-345aa8eb07fc","ios":"levelo://app?vid=b7df044c-a420-415e-b7b7-345aa8eb07fc"},"vehicle_type_id":"4","last_reported":1743066682,"current_range_meters":11600,"station_id":"","pricing_plan_id":"cebpf4jnsgd1na2vs0mg"},{"bike_id":"b1ef2f09-6356-4d0b-9dfd-4aa87f45794b","system_id":"levelo_inurba_marseille","lat":43.26564,"lon":5.39006,"is_reserved":false,"is_disabled":false,"rental_uris":{"android":"levelo://app?vid=b1ef2f09-6356-4d0b-9dfd-4aa87f45794b","ios":"levelo://app?vid=b1ef2f09-6356-4d0b-9dfd-4aa87f45794b"},"vehicle_type_id":"4","last_reported":1743066682,"current_range_meters":11600,"station_id":"ce4bhe12rcd13ifvqf30","pricing_plan_id":"cebpf4jnsgd1na2vs0mg"},{"bike_id":"e2a14ebe-571b-4d9a-b046-51936c4c0f26","system_id":"levelo_inurba_marseille","lat":43.27509,"lon":5.42451,"is_reserved":false,"is_disabled":false,"rental_uris":{"android":"levelo://app?vid=e2a14ebe-571b-4d9a-b046-51936c4c0f26","ios":"levelo://app?vid=e2a14ebe-571b-4d9a-b046-51936c4c0f26"},"vehicle_type_id":"4","last_reported":1743066682,"current_range_meters":11600,"station_id":"ce4bhn92rcd13ifvqgrg","pricing_plan_id":"cebpf4jnsgd1na2vs0mg"},{"bike_id":"cdf833dd-f3b4-479c-8b79-3ae80466fb5b","system_id":"levelo_inurba_marseille","lat":43.30902,"lon":5.36875,"is_reserved":false,"is_disabled":false,"rental_uris":{"android":"levelo://app?vid=cdf833dd-f3b4-479c-8b79-3ae80466fb5b","ios":"levelo://app?vid=cdf833dd-f3b4-479c-8b79-3ae80466fb5b"},"vehicle_type_id":"4","last_reported":1743066682,"current_range_meters":12000,"station_id":"ce4bgn92rcd13ifvqbvg","pricing_plan_id":"cebpf4jnsgd1na2vs0mg"},{"bike_id":"2d4748b4-d1d5-4d84-85e6-b23c9f28a316","system_id":"levelo_inurba_marseille","lat":43.24182,"lon":5.39737,"is_reserved":false,"is_disabled":false,"rental_uris":{"android":"levelo://app?vid=2d4748b4-d1d5-4d84-85e6-b23c9f28a316","ios":"levelo://app?vid=2d4748b4-d1d5-4d84-85e6-b23c9f28a316"},"vehicle_type_id":"4","last_reported":1743066682,"current_range_meters":12000,"station_id":"ce4bhn12rcd13ifvqgpg","pricing_plan_id":"cebpf4jnsgd1na2vs0mg"},{"bike_id":"7c285597-f0a3-4fa7-b770-71b756211889","system_id":"levelo_inurba_marseille","lat":43.30181,"lon":5.36622,"is_reserved":false,"is_disabled":false,"rental_uris":{"android":"levelo://app?vid=7c285597-f0a3-4fa7-b770-71b756211889","ios":"levelo://app?vid=7c285597-f0a3-4fa7-b770-71b756211889"},"vehicle_type_id":"4","last_reported":1743066682,"current_range_meters":12000,"station_id":"ce4bgrh2rcd13ifvqc8g","pricing_plan_id":"cebpf4jnsgd1na2vs0mg"},{"bike_id":"dc6ba273-c8b5-4984-ae97-4145246fda83","system_id":"levelo_inurba_marseille","lat":43.313341,"lon":5.367011,"is_reserved":false,"is_disabled":false,"rental_uris":{"android":"levelo://app?vid=dc6ba273-c8b5-4984-ae97-4145246fda83","ios":"levelo://app?vid=dc6ba273-c8b5-4984-ae97-4145246fda83"},"vehicle_type_id":"4","last_reported":1743066682,"current_range_meters":12000,"station_id":"ce4bgr92rcd13ifvqc6g","pricing_plan_id":"cebpf4jnsgd1na2vs0mg"},{"bike_id":"fa8197be-8000-4264-8b56-5b3e020be7b3","system_id":"levelo_inurba_marseille","lat":43.287129,"lon":5.379306,"is_reserved":false,"is_disabled":false,"rental_uris":{"android":"levelo://app?vid=fa8197be-8000-4264-8b56-5b3e020be7b3","ios":"levelo://app?vid=fa8197be-8000-4264-8b56-5b3e020be7b3"},"vehicle_type_id":"4","last_reported":1743066682,"current_range_meters":12000,"station_id":"ce4bh9p2rcd13ifvqec0","pricing_plan_id":"cebpf4jnsgd1na2vs0mg"},{"bike_id":"2892245e-7ab2-4d11-be01-294283086612","system_id":"levelo_inurba_marseille","lat":43.27326,"lon":5.39115,"is_reserved":false,"is_disabled":false,"rental_uris":{"android":"levelo://app?vid=2892245e-7ab2-4d11-be01-294283086612","ios":"levelo://app?vid=2892245e-7ab2-4d11-be01-294283086612"},"vehicle_type_id":"4","last_reported":1743066682,"current_range_meters":12000,"station_id":"ce4bhgp2rcd13ifvqfe0","pricing_plan_id":"cebpf4jnsgd1na2vs0mg"},{"bike_id":"9d0ea48f-b8fd-4513-91f2-3047ce4fe441","system_id":"levelo_inurba_marseille","lat":43.33604,"lon":5.41027,"is_reserved":false,"is_disabled":false,"rental_uris":{"android":"levelo://app?vid=9d0ea48f-b8fd-4513-91f2-3047ce4fe441","ios":"levelo://app?vid=9d0ea48f-b8fd-4513-91f2-3047ce4fe441"},"vehicle_type_id":"4","last_reported":1743066682,"current_range_meters":12000,"station_id":"ce4bhqh2rcd13ifvqhmg","pricing_plan_id":"cebpf4jnsgd1na2vs0mg"},{"bike_id":"2079e143-15fb-4fca-b428-1dcdbd2da2aa","system_id":"levelo_inurba_marseille","lat":43.278154,"lon":5.407188,"is_reserved":false,"is_disabled":false,"rental_uris":{"android":"levelo://app?vid=2079e143-15fb-4fca-b428-1dcdbd2da2aa","ios":"levelo://app?vid=2079e143-15fb-4fca-b428-1dcdbd2da2aa"},"vehicle_type_id":"4","last_reported":1743066682,"current_range_meters":12000,"station_id":"ce4bhnh2rcd13ifvqgtg","pricing_plan_id":"cebpf4jnsgd1na2vs0mg"},{"bike_id":"64aa8384-340c-47d4-a788-2e29b01a88d3","system_id":"levelo_inurba_marseille","lat":43.27487,"lon":5.42459,"is_reserved":false,"is_disabled":false,"rental_uris":{"android":"levelo://app?vid=64aa8384-340c-47d4-a788-2e29b01a88d3","ios":"levelo://app?vid=64aa8384-340c-47d4-a788-2e29b01a88d3"},"vehicle_type_id":"4","last_reported":1743066682,"current_range_meters":12000,"station_id":"ce4bhn92rcd13ifvqgrg","pricing_plan_id":"cebpf4jnsgd1na2vs0mg"},{"bike_id":"650e2baa-fb43-4668-944c-8872c4ae8841","system_id":"levelo_inurba_marseille","lat":43.29848,"lon":5.36269,"is_reserved":false,"is_disabled":false,"rental_uris":{"android":"levelo://app?vid=650e2baa-fb43-4668-944c-8872c4ae8841","ios":"levelo://app?vid=650e2baa-fb43-4668-944c-8872c4ae8841"},"vehicle_type_id":"4","last_reported":1743066682,"current_range_meters":12000,"station_id":"ce4bgpp2rcd13ifvqc3g","pricing_plan_id":"cebpf4jnsgd1na2vs0mg"},{"bike_id":"64f0ea86-1180-4755-95e1-3cbc9c8d4cf5","system_id":"levelo_inurba_marseille","lat":43.33012,"lon":5.43872,"is_reserved":false,"is_disabled":true,"rental_uris":{"android":"levelo://app?vid=64f0ea86-1180-4755-95e1-3cbc9c8d4cf5","ios":"levelo://app?vid=64f0ea86-1180-4755-95e1-3cbc9c8d4cf5"},"vehicle_type_id":"4","last_reported":1743066682,"current_range_meters":12000,"station_id":"","pricing_plan_id":"cebpf4jnsgd1na2vs0mg"},{"bike_id":"59b78039-07c8-4481-876d-404938d15499","system_id":"levelo_inurba_marseille","lat":43.30533,"lon":5.36548,"is_reserved":false,"is_disabled":false,"rental_uris":{"android":"levelo://app?vid=59b78039-07c8-4481-876d-404938d15499","ios":"levelo://app?vid=59b78039-07c8-4481-876d-404938d15499"},"vehicle_type_id":"4","last_reported":1743066682,"current_range_meters":12000,"station_id":"ce4bgs12rcd13ifvqcag","pricing_plan_id":"cebpf4jnsgd1na2vs0mg"},{"bike_id":"40deaf11-8708-4ecc-a749-e67cbcf349f9","system_id":"levelo_inurba_marseille","lat":43.30279,"lon":5.3769,"is_reserved":false,"is_disabled":false,"rental_uris":{"android":"levelo://app?vid=40deaf11-8708-4ecc-a749-e67cbcf349f9","ios":"levelo://app?vid=40deaf11-8708-4ecc-a749-e67cbcf349f9"},"vehicle_type_id":"4","last_reported":1743066682,"current_range_meters":12000,"station_id":"ce4bguh2rcd13ifvqcj0","pricing_plan_id":"cebpf4jnsgd1na2vs0mg"},{"bike_id":"fc8e8371-f4e9-4721-bc19-563801e389dc","system_id":"levelo_inurba_marseille","lat":43.337444,"lon":5.374475,"is_reserved":false,"is_disabled":false,"rental_uris":{"android":"levelo://app?vid=fc8e8371-f4e9-4721-bc19-563801e389dc","ios":"levelo://app?vid=fc8e8371-f4e9-4721-bc19-563801e389dc"},"vehicle_type_id":"4","last_reported":1743066682,"current_range_meters":12000,"station_id":"","pricing_plan_id":"cebpf4jnsgd1na2vs0mg"},{"bike_id":"43273a64-655e-48f1-b37e-97aafbb9b964","system_id":"levelo_inurba_marseille","lat":43.30909,"lon":5.36849,"is_reserved":false,"is_disabled":false,"rental_uris":{"android":"levelo://app?vid=43273a64-655e-48f1-b37e-97aafbb9b964","ios":"levelo://app?vid=43273a64-655e-48f1-b37e-97aafbb9b964"},"vehicle_type_id":"4","last_reported":1743066682,"current_range_meters":12400,"station_id":"ce4bgn92rcd13ifvqbvg","pricing_plan_id":"cebpf4jnsgd1na2vs0mg"},{"bike_id":"60d0dbbf-88d3-4a52-a6d0-645622533b79","system_id":"levelo_inurba_marseille","lat":43.23141,"lon":5.43702,"is_reserved":false,"is_disabled":false,"rental_uris":{"android":"levelo://app?vid=60d0dbbf-88d3-4a52-a6d0-645622533b79","ios":"levelo://app?vid=60d0dbbf-88d3-4a52-a6d0-645622533b79"},"vehicle_type_id":"4","last_reported":1743066682,"current_range_meters":12400,"station_id":"ce4bhmp2rcd13ifvqgog","pricing_plan_id":"cebpf4jnsgd1na2vs0mg"},{"bike_id":"43e0baaa-8243-4dd1-b4bf-82586d89d78f","system_id":"levelo_inurba_marseille","lat":43.33611,"lon":5.41025,"is_reserved":false,"is_disabled":false,"rental_uris":{"android":"levelo://app?vid=43e0baaa-8243-4dd1-b4bf-82586d89d78f","ios":"levelo://app?vid=43e0baaa-8243-4dd1-b4bf-82586d89d78f"},"vehicle_type_id":"4","last_reported":1743066682,"current_range_meters":12400,"station_id":"ce4bhqh2rcd13ifvqhmg","pricing_plan_id":"cebpf4jnsgd1na2vs0mg"},{"bike_id":"568b2dda-9933-4401-b583-2bcdfc2486e6","system_id":"levelo_inurba_marseille","lat":43.24071,"lon":5.3776,"is_reserved":false,"is_disabled":false,"rental_uris":{"android":"levelo://app?vid=568b2dda-9933-4401-b583-2bcdfc2486e6","ios":"levelo://app?vid=568b2dda-9933-4401-b583-2bcdfc2486e6"},"vehicle_type_id":"4","last_reported":1743066682,"current_range_meters":12400,"station_id":"ce4bhnp2rcd13ifvqgvg","pricing_plan_id":"cebpf4jnsgd1na2vs0mg"},{"bike_id":"25c93242-72e6-4525-aea7-7d96e2cd1825","system_id":"levelo_inurba_marseille","lat":43.330671,"lon":5.408335,"is_reserved":false,"is_disabled":false,"rental_uris":{"android":"levelo://app?vid=25c93242-72e6-4525-aea7-7d96e2cd1825","ios":"levelo://app?vid=25c93242-72e6-4525-aea7-7d96e2cd1825"},"vehicle_type_id":"4","last_reported":1743066682,"current_range_meters":12400,"station_id":"","pricing_plan_id":"cebpf4jnsgd1na2vs0mg"},{"bike_id":"9a15a95f-cf9b-4362-bb25-0b5170108c0a","system_id":"levelo_inurba_marseille","lat":43.30525,"lon":5.36528,"is_reserved":false,"is_disabled":false,"rental_uris":{"android":"levelo://app?vid=9a15a95f-cf9b-4362-bb25-0b5170108c0a","ios":"levelo://app?vid=9a15a95f-cf9b-4362-bb25-0b5170108c0a"},"vehicle_type_id":"4","last_reported":1743066682,"current_range_meters":12400,"station_id":"ce4bgs12rcd13ifvqcag","pricing_plan_id":"cebpf4jnsgd1na2vs0mg"},{"bike_id":"30cd612a-8cb0-4fab-9e3a-cd08e9fc22b5","system_id":"levelo_inurba_marseille","lat":43.29512,"lon":5.39428,"is_reserved":false,"is_disabled":true,"rental_uris":{"android":"levelo://app?vid=30cd612a-8cb0-4fab-9e3a-cd08e9fc22b5","ios":"levelo://app?vid=30cd612a-8cb0-4fab-9e3a-cd08e9fc22b5"},"vehicle_type_id":"4","last_reported":1743066682,"current_range_meters":12400,"station_id":"ce4bh292rcd13ifvqdf0","pricing_plan_id":"cebpf4jnsgd1na2vs0mg"},{"bike_id":"8a31fc7b-7bec-4db2-be74-7543f084bdff","system_id":"levelo_inurba_marseille","lat":43.22935,"lon":5.35375,"is_reserved":false,"is_disabled":false,"rental_uris":{"android":"levelo://app?vid=8a31fc7b-7bec-4db2-be74-7543f084bdff","ios":"levelo://app?vid=8a31fc7b-7bec-4db2-be74-7543f084bdff"},"vehicle_type_id":"4","last_reported":1743066682,"current_range_meters":12400,"station_id":"cpo3532slgdg3j2ikp40","pricing_plan_id":"cebpf4jnsgd1na2vs0mg"},{"bike_id":"0fc709a1-478a-4101-ada7-c2e93cbc5b9d","system_id":"levelo_inurba_marseille","lat":43.29913,"lon":5.38149,"is_reserved":false,"is_disabled":false,"rental_uris":{"android":"levelo://app?vid=0fc709a1-478a-4101-ada7-c2e93cbc5b9d","ios":"levelo://app?vid=0fc709a1-478a-4101-ada7-c2e93cbc5b9d"},"vehicle_type_id":"4","last_reported":1743066682,"current_range_meters":12400,"station_id":"ce4bgj12rcd13ifvqbc0","pricing_plan_id":"cebpf4jnsgd1na2vs0mg"},{"bike_id":"b8029f5d-5f7a-479f-8d3a-727b1cc27eab","system_id":"levelo_inurba_marseille","lat":43.25951,"lon":5.40867,"is_reserved":false,"is_disabled":false,"rental_uris":{"android":"levelo://app?vid=b8029f5d-5f7a-479f-8d3a-727b1cc27eab","ios":"levelo://app?vid=b8029f5d-5f7a-479f-8d3a-727b1cc27eab"},"vehicle_type_id":"4","last_reported":1743066682,"current_range_meters":12400,"station_id":"ce4bhm92rcd13ifvqglg","pricing_plan_id":"cebpf4jnsgd1na2vs0mg"},{"bike_id":"7d8fcc06-bb8b-4066-9d4c-554629f263fd","system_id":"levelo_inurba_marseille","lat":43.29541,"lon":5.37496,"is_reserved":false,"is_disabled":false,"rental_uris":{"android":"levelo://app?vid=7d8fcc06-bb8b-4066-9d4c-554629f263fd","ios":"levelo://app?vid=7d8fcc06-bb8b-4066-9d4c-554629f263fd"},"vehicle_type_id":"4","last_reported":1743066682,"current_range_meters":12400,"station_id":"ce4bgkp2rcd13ifvqbmg","pricing_plan_id":"cebpf4jnsgd1na2vs0mg"},{"bike_id":"2fe546b8-fa69-42c4-ae8f-4b3f4b863d6b","system_id":"levelo_inurba_marseille","lat":43.28148,"lon":5.4265,"is_reserved":false,"is_disabled":false,"rental_uris":{"android":"levelo://app?vid=2fe546b8-fa69-42c4-ae8f-4b3f4b863d6b","ios":"levelo://app?vid=2fe546b8-fa69-42c4-ae8f-4b3f4b863d6b"},"vehicle_type_id":"4","last_reported":1743066682,"current_range_meters":12400,"station_id":"ce4bhnh2rcd13ifvqgug","pricing_plan_id":"cebpf4jnsgd1na2vs0mg"},{"bike_id":"9c2e20b3-f9e7-4588-934a-ef6d6223514b","system_id":"levelo_inurba_marseille","lat":43.30145,"lon":5.37414,"is_reserved":false,"is_disabled":false,"rental_uris":{"android":"levelo://app?vid=9c2e20b3-f9e7-4588-934a-ef6d6223514b","ios":"levelo://app?vid=9c2e20b3-f9e7-4588-934a-ef6d6223514b"},"vehicle_type_id":"4","last_reported":1743066682,"current_range_meters":12400,"station_id":"ce4bgs92rcd13ifvqcc0","pricing_plan_id":"cebpf4jnsgd1na2vs0mg"},{"bike_id":"12de2a5d-af1a-406f-ae29-1792c23b418c","system_id":"levelo_inurba_marseille","lat":43.28431,"lon":5.34983,"is_reserved":false,"is_disabled":true,"rental_uris":{"android":"levelo://app?vid=12de2a5d-af1a-406f-ae29-1792c23b418c","ios":"levelo://app?vid=12de2a5d-af1a-406f-ae29-1792c23b418c"},"vehicle_type_id":"4","last_reported":1743066682,"current_range_meters":12800,"station_id":"ce4bhbh2rcd13ifvqepg","pricing_plan_id":"cebpf4jnsgd1na2vs0mg"},{"bike_id":"bd70f3ca-575f-4d82-ba36-4d691c71747e","system_id":"levelo_inurba_marseille","lat":43.33025,"lon":5.39035,"is_reserved":false,"is_disabled":false,"rental_uris":{"android":"levelo://app?vid=bd70f3ca-575f-4d82-ba36-4d691c71747e","ios":"levelo://app?vid=bd70f3ca-575f-4d82-ba36-4d691c71747e"},"vehicle_type_id":"4","last_reported":1743066682,"current_range_meters":12400,"station_id":"ce4bhr92rcd13ifvqhrg","pricing_plan_id":"cebpf4jnsgd1na2vs0mg"},{"bike_id":"286d4471-dd2f-434b-9c2b-f9c3829d6782","system_id":"levelo_inurba_marseille","lat":43.289429,"lon":5.396195,"is_reserved":false,"is_disabled":false,"rental_uris":{"android":"levelo://app?vid=286d4471-dd2f-434b-9c2b-f9c3829d6782","ios":"levelo://app?vid=286d4471-dd2f-434b-9c2b-f9c3829d6782"},"vehicle_type_id":"4","last_reported":1743066682,"current_range_meters":12800,"station_id":"ce4bh3h2rcd13ifvqdn0","pricing_plan_id":"cebpf4jnsgd1na2vs0mg"},{"bike_id":"46bc710b-ba5b-4a06-b139-1452387f1098","system_id":"levelo_inurba_marseille","lat":43.23155,"lon":5.43716,"is_reserved":false,"is_disabled":false,"rental_uris":{"android":"levelo://app?vid=46bc710b-ba5b-4a06-b139-1452387f1098","ios":"levelo://app?vid=46bc710b-ba5b-4a06-b139-1452387f1098"},"vehicle_type_id":"4","last_reported":1743066682,"current_range_meters":12800,"station_id":"ce4bhmp2rcd13ifvqgog","pricing_plan_id":"cebpf4jnsgd1na2vs0mg"},{"bike_id":"df767ddd-5f05-41e7-9ca1-d7a3b4ddff9f","system_id":"levelo_inurba_marseille","lat":43.24084,"lon":5.37738,"is_reserved":false,"is_disabled":false,"rental_uris":{"android":"levelo://app?vid=df767ddd-5f05-41e7-9ca1-d7a3b4ddff9f","ios":"levelo://app?vid=df767ddd-5f05-41e7-9ca1-d7a3b4ddff9f"},"vehicle_type_id":"4","last_reported":1743066682,"current_range_meters":12800,"station_id":"ce4bhnp2rcd13ifvqgvg","pricing_plan_id":"cebpf4jnsgd1na2vs0mg"},{"bike_id":"8ce3e8ad-9362-40c8-9284-29a9342d7b87","system_id":"levelo_inurba_marseille","lat":43.30541,"lon":5.36535,"is_reserved":false,"is_disabled":false,"rental_uris":{"android":"levelo://app?vid=8ce3e8ad-9362-40c8-9284-29a9342d7b87","ios":"levelo://app?vid=8ce3e8ad-9362-40c8-9284-29a9342d7b87"},"vehicle_type_id":"4","last_reported":1743066682,"current_range_meters":12800,"station_id":"ce4bgs12rcd13ifvqcag","pricing_plan_id":"cebpf4jnsgd1na2vs0mg"},{"bike_id":"b92531f3-1086-4aff-8df8-9ccdf666ba85","system_id":"levelo_inurba_marseille","lat":43.297351,"lon":5.376869,"is_reserved":false,"is_disabled":true,"rental_uris":{"android":"levelo://app?vid=b92531f3-1086-4aff-8df8-9ccdf666ba85","ios":"levelo://app?vid=b92531f3-1086-4aff-8df8-9ccdf666ba85"},"vehicle_type_id":"4","last_reported":1743066682,"current_range_meters":12800,"station_id":"ce4bgkh2rcd13ifvqbl0","pricing_plan_id":"cebpf4jnsgd1na2vs0mg"},{"bike_id":"19221227-42ec-4f4b-8f04-42a0818e22f5","system_id":"levelo_inurba_marseille","lat":43.32108,"lon":5.36775,"is_reserved":false,"is_disabled":false,"rental_uris":{"android":"levelo://app?vid=19221227-42ec-4f4b-8f04-42a0818e22f5","ios":"levelo://app?vid=19221227-42ec-4f4b-8f04-42a0818e22f5"},"vehicle_type_id":"4","last_reported":1743066682,"current_range_meters":12800,"station_id":"ce4bhrh2rcd13ifvqhug","pricing_plan_id":"cebpf4jnsgd1na2vs0mg"},{"bike_id":"aabd682a-105c-46e6-a4fe-4b72a3fb7bb6","system_id":"levelo_inurba_marseille","lat":43.2408,"lon":5.37749,"is_reserved":false,"is_disabled":false,"rental_uris":{"android":"levelo://app?vid=aabd682a-105c-46e6-a4fe-4b72a3fb7bb6","ios":"levelo://app?vid=aabd682a-105c-46e6-a4fe-4b72a3fb7bb6"},"vehicle_type_id":"4","last_reported":1743066682,"current_range_meters":12800,"station_id":"ce4bhnp2rcd13ifvqgvg","pricing_plan_id":"cebpf4jnsgd1na2vs0mg"},{"bike_id":"f00e0bf1-e77c-4752-8f1b-63a2e565cf51","system_id":"levelo_inurba_marseille","lat":43.27985,"lon":5.38731,"is_reserved":false,"is_disabled":true,"rental_uris":{"android":"levelo://app?vid=f00e0bf1-e77c-4752-8f1b-63a2e565cf51","ios":"levelo://app?vid=f00e0bf1-e77c-4752-8f1b-63a2e565cf51"},"vehicle_type_id":"4","last_reported":1743066682,"current_range_meters":13600,"station_id":"ce4bhg12rcd13ifvqf80","pricing_plan_id":"cebpf4jnsgd1na2vs0mg"},{"bike_id":"a29ae324-66c6-4116-9546-4ee45a5417c9","system_id":"levelo_inurba_marseille","lat":43.304664,"lon":5.379192,"is_reserved":false,"is_disabled":false,"rental_uris":{"android":"levelo://app?vid=a29ae324-66c6-4116-9546-4ee45a5417c9","ios":"levelo://app?vid=a29ae324-66c6-4116-9546-4ee45a5417c9"},"vehicle_type_id":"4","last_reported":1743066682,"current_range_meters":14800,"station_id":"ce4bhnh2rcd13ifvqgtg","pricing_plan_id":"cebpf4jnsgd1na2vs0mg"},{"bike_id":"6e6c7cb3-4049-417b-959e-2206fccc5314","system_id":"levelo_inurba_marseille","lat":43.23196,"lon":5.35551,"is_reserved":false,"is_disabled":false,"rental_uris":{"android":"levelo://app?vid=6e6c7cb3-4049-417b-959e-2206fccc5314","ios":"levelo://app?vid=6e6c7cb3-4049-417b-959e-2206fccc5314"},"vehicle_type_id":"4","last_reported":1743066682,"current_range_meters":13600,"station_id":"ce4bhu92rcd13ifvqi70","pricing_plan_id":"cebpf4jnsgd1na2vs0mg"},{"bike_id":"5ec88630-85ca-4af2-aee6-04104ffbcae2","system_id":"levelo_inurba_marseille","lat":43.30536,"lon":5.36694,"is_reserved":false,"is_disabled":false,"rental_uris":{"android":"levelo://app?vid=5ec88630-85ca-4af2-aee6-04104ffbcae2","ios":"levelo://app?vid=5ec88630-85ca-4af2-aee6-04104ffbcae2"},"vehicle_type_id":"4","last_reported":1743066682,"current_range_meters":13600,"station_id":"ce4bgrp2rcd13ifvqc9g","pricing_plan_id":"cebpf4jnsgd1na2vs0mg"},{"bike_id":"1e42b97f-f553-4bab-a74e-b427ae69b349","system_id":"levelo_inurba_marseille","lat":43.28713,"lon":5.37936,"is_reserved":false,"is_disabled":false,"rental_uris":{"android":"levelo://app?vid=1e42b97f-f553-4bab-a74e-b427ae69b349","ios":"levelo://app?vid=1e42b97f-f553-4bab-a74e-b427ae69b349"},"vehicle_type_id":"4","last_reported":1743066682,"current_range_meters":12400,"station_id":"ce4bh9p2rcd13ifvqec0","pricing_plan_id":"cebpf4jnsgd1na2vs0mg"},{"bike_id":"4605e24d-65b2-4424-9d4d-b88f889f4b8e","system_id":"levelo_inurba_marseille","lat":43.28111,"lon":5.39851,"is_reserved":false,"is_disabled":false,"rental_uris":{"android":"levelo://app?vid=4605e24d-65b2-4424-9d4d-b88f889f4b8e","ios":"levelo://app?vid=4605e24d-65b2-4424-9d4d-b88f889f4b8e"},"vehicle_type_id":"4","last_reported":1743066682,"current_range_meters":13600,"station_id":"","pricing_plan_id":"cebpf4jnsgd1na2vs0mg"},{"bike_id":"1c248df9-cad4-4911-99ef-33bd089104c8","system_id":"levelo_inurba_marseille","lat":43.26692,"lon":5.38277,"is_reserved":false,"is_disabled":false,"rental_uris":{"android":"levelo://app?vid=1c248df9-cad4-4911-99ef-33bd089104c8","ios":"levelo://app?vid=1c248df9-cad4-4911-99ef-33bd089104c8"},"vehicle_type_id":"4","last_reported":1743066682,"current_range_meters":14000,"station_id":"ce4bhg92rcd13ifvqf90","pricing_plan_id":"cebpf4jnsgd1na2vs0mg"},{"bike_id":"174e57de-1063-4e20-a965-a2657662bf56","system_id":"levelo_inurba_marseille","lat":43.24998,"lon":5.38938,"is_reserved":false,"is_disabled":false,"rental_uris":{"android":"levelo://app?vid=174e57de-1063-4e20-a965-a2657662bf56","ios":"levelo://app?vid=174e57de-1063-4e20-a965-a2657662bf56"},"vehicle_type_id":"4","last_reported":1743066682,"current_range_meters":14000,"station_id":"ce4bhgp2rcd13ifvqfd0","pricing_plan_id":"cebpf4jnsgd1na2vs0mg"},{"bike_id":"929dc956-2b4d-4a62-a433-5892161c84a1","system_id":"levelo_inurba_marseille","lat":43.3248,"lon":5.36564,"is_reserved":false,"is_disabled":false,"rental_uris":{"android":"levelo://app?vid=929dc956-2b4d-4a62-a433-5892161c84a1","ios":"levelo://app?vid=929dc956-2b4d-4a62-a433-5892161c84a1"},"vehicle_type_id":"4","last_reported":1743066682,"current_range_meters":14000,"station_id":"ce4bhs12rcd13ifvqhvg","pricing_plan_id":"cebpf4jnsgd1na2vs0mg"},{"bike_id":"4bf382b5-aace-4bd2-bacb-5b7a58f988d4","system_id":"levelo_inurba_marseille","lat":43.29532,"lon":5.38543,"is_reserved":false,"is_disabled":true,"rental_uris":{"android":"levelo://app?vid=4bf382b5-aace-4bd2-bacb-5b7a58f988d4","ios":"levelo://app?vid=4bf382b5-aace-4bd2-bacb-5b7a58f988d4"},"vehicle_type_id":"4","last_reported":1743066682,"current_range_meters":14000,"station_id":"ce4bgih2rcd13ifvqba0","pricing_plan_id":"cebpf4jnsgd1na2vs0mg"},{"bike_id":"c9d25743-68ae-4479-9c17-59c34dbbf7e8","system_id":"levelo_inurba_marseille","lat":43.278739,"lon":5.412131,"is_reserved":false,"is_disabled":false,"rental_uris":{"android":"levelo://app?vid=c9d25743-68ae-4479-9c17-59c34dbbf7e8","ios":"levelo://app?vid=c9d25743-68ae-4479-9c17-59c34dbbf7e8"},"vehicle_type_id":"4","last_reported":1743066682,"current_range_meters":14000,"station_id":"","pricing_plan_id":"cebpf4jnsgd1na2vs0mg"},{"bike_id":"6873363b-d7ff-4854-80d0-6092fe5582f2","system_id":"levelo_inurba_marseille","lat":43.30947,"lon":5.39028,"is_reserved":false,"is_disabled":false,"rental_uris":{"android":"levelo://app?vid=6873363b-d7ff-4854-80d0-6092fe5582f2","ios":"levelo://app?vid=6873363b-d7ff-4854-80d0-6092fe5582f2"},"vehicle_type_id":"4","last_reported":1743066682,"current_range_meters":14000,"station_id":"ce4bgup2rcd13ifvqco0","pricing_plan_id":"cebpf4jnsgd1na2vs0mg"},{"bike_id":"30c07ebd-f333-4879-80de-59dbaee1aff8","system_id":"levelo_inurba_marseille","lat":43.25022,"lon":5.38917,"is_reserved":false,"is_disabled":false,"rental_uris":{"android":"levelo://app?vid=30c07ebd-f333-4879-80de-59dbaee1aff8","ios":"levelo://app?vid=30c07ebd-f333-4879-80de-59dbaee1aff8"},"vehicle_type_id":"4","last_reported":1743066682,"current_range_meters":14000,"station_id":"ce4bhgp2rcd13ifvqfd0","pricing_plan_id":"cebpf4jnsgd1na2vs0mg"},{"bike_id":"db7b924e-49c9-48c8-8880-78e3e841369a","system_id":"levelo_inurba_marseille","lat":43.29299,"lon":5.37439,"is_reserved":false,"is_disabled":false,"rental_uris":{"android":"levelo://app?vid=db7b924e-49c9-48c8-8880-78e3e841369a","ios":"levelo://app?vid=db7b924e-49c9-48c8-8880-78e3e841369a"},"vehicle_type_id":"4","last_reported":1743066682,"current_range_meters":14400,"station_id":"ce4bgi12rcd13ifvqb70","pricing_plan_id":"cebpf4jnsgd1na2vs0mg"},{"bike_id":"2517ea2d-4228-41b9-93c0-c6c14a153a90","system_id":"levelo_inurba_marseille","lat":43.29846,"lon":5.36272,"is_reserved":false,"is_disabled":false,"rental_uris":{"android":"levelo://app?vid=2517ea2d-4228-41b9-93c0-c6c14a153a90","ios":"levelo://app?vid=2517ea2d-4228-41b9-93c0-c6c14a153a90"},"vehicle_type_id":"4","last_reported":1743066682,"current_range_meters":14400,"station_id":"ce4bgpp2rcd13ifvqc3g","pricing_plan_id":"cebpf4jnsgd1na2vs0mg"},{"bike_id":"44bdf3f3-30f1-4607-83dd-ac0c29640d9b","system_id":"levelo_inurba_marseille","lat":43.26558,"lon":5.37281,"is_reserved":false,"is_disabled":false,"rental_uris":{"android":"levelo://app?vid=44bdf3f3-30f1-4607-83dd-ac0c29640d9b","ios":"levelo://app?vid=44bdf3f3-30f1-4607-83dd-ac0c29640d9b"},"vehicle_type_id":"4","last_reported":1743066682,"current_range_meters":14400,"station_id":"ce4bhg12rcd13ifvqf70","pricing_plan_id":"cebpf4jnsgd1na2vs0mg"},{"bike_id":"3a0c3c70-f897-42ea-adff-ea251c315b1a","system_id":"levelo_inurba_marseille","lat":43.31357,"lon":5.38504,"is_reserved":false,"is_disabled":false,"rental_uris":{"android":"levelo://app?vid=3a0c3c70-f897-42ea-adff-ea251c315b1a","ios":"levelo://app?vid=3a0c3c70-f897-42ea-adff-ea251c315b1a"},"vehicle_type_id":"4","last_reported":1743066682,"current_range_meters":14400,"station_id":"ce4bgt92rcd13ifvqcf0","pricing_plan_id":"cebpf4jnsgd1na2vs0mg"},{"bike_id":"e0f854e6-2375-437d-a78b-6d5bf2ead237","system_id":"levelo_inurba_marseille","lat":43.33466,"lon":5.40046,"is_reserved":false,"is_disabled":false,"rental_uris":{"android":"levelo://app?vid=e0f854e6-2375-437d-a78b-6d5bf2ead237","ios":"levelo://app?vid=e0f854e6-2375-437d-a78b-6d5bf2ead237"},"vehicle_type_id":"4","last_reported":1743066682,"current_range_meters":14400,"station_id":"","pricing_plan_id":"cebpf4jnsgd1na2vs0mg"},{"bike_id":"ef34c5df-04ac-43f5-b064-e6bc9741740d","system_id":"levelo_inurba_marseille","lat":43.32361,"lon":5.36738,"is_reserved":false,"is_disabled":false,"rental_uris":{"android":"levelo://app?vid=ef34c5df-04ac-43f5-b064-e6bc9741740d","ios":"levelo://app?vid=ef34c5df-04ac-43f5-b064-e6bc9741740d"},"vehicle_type_id":"4","last_reported":1743066682,"current_range_meters":14400,"station_id":"ce4bhsh2rcd13ifvqi2g","pricing_plan_id":"cebpf4jnsgd1na2vs0mg"},{"bike_id":"fca480f8-b315-42ed-8b94-e43ecf953dd7","system_id":"levelo_inurba_marseille","lat":43.2694,"lon":5.38639,"is_reserved":false,"is_disabled":false,"rental_uris":{"android":"levelo://app?vid=fca480f8-b315-42ed-8b94-e43ecf953dd7","ios":"levelo://app?vid=fca480f8-b315-42ed-8b94-e43ecf953dd7"},"vehicle_type_id":"4","last_reported":1743066682,"current_range_meters":14800,"station_id":"ce4bhh92rcd13ifvqfh0","pricing_plan_id":"cebpf4jnsgd1na2vs0mg"},