{"last_updated":1759172845,"ttl":60,"version":"2.2","data":{"bikes":[{"bike_id":"e52ba28b-2e01-4454-aff4-54fcb2bd833b","system_id":"levelo_inurba_marseille","lat":43.2418,"lon":5.39738,"is_reserved":false,"is_disabled":false,"rental_uris":{"android":"levelo://app?vid=e52ba28b-2e01-4454-aff4-54fcb2bd833b","ios":"levelo://app?vid=e52ba28b-2e01-4454-aff4-54fcb2bd833b"},"vehicle_type_id":"4","last_reported":1759172846,"current_range_meters":2800,"station_id":"ce4bhn12rcd13ifvqgpg","pricing_plan_id":"cebpf4jnsgd1na2vs0mg"},{"bike_id":"71c7058a-cdb4-4ce7-9fdc-97eb4f57386f","system_id":"levelo_inurba_marseille","lat":43.25102,"lon":5.40326,"is_reserved":false,"is_disabled":false,"rental_uris":{"android":"levelo://app?vid=71c7058a-cdb4-4ce7-9fdc-97eb4f57386f","ios":"levelo://app?vid=71c7058a-cdb4-4ce7-9fdc-97eb4f57386f"},"vehicle_type_id":"4","last_reported":1759172846,"current_range_meters":2800,"station_id":"ce4bhlh2rcd13ifvqgig","pricing_plan_id":"cebpf4jnsgd1na2vs0mg"},{"bike_id":"29dbd7d1-419f-495a-beff-a4f4369b08e6","system_id":"levelo_inurba_marseille","lat":43.289765,"lon":5.383719,"is_reserved":false,"is_disabled":false,"rental_uris":{"android":"levelo://app?vid=29dbd7d1-419f-495a-beff-a4f4369b08e6","ios":"levelo://app?vid=29dbd7d1-419f-495a-beff-a4f4369b08e6"},"vehicle_type_id":"4","last_reported":1759172846,"current_range_meters":2800,"station_id":"","pricing_plan_id":"cebpf4jnsgd1na2vs0mg"},{"bike_id":"99a0f22e-03cd-430c-b5d6-dc3ed6190bd4","system_id":"levelo_inurba_marseille","lat":43.30282,"lon":5.38654,"is_reserved":false,"is_disabled":false,"rental_uris":{"android":"levelo://app?vid=99a0f22e-03cd-430c-b5d6-dc3ed6190bd4","ios":"levelo://app?vid=99a0f22e-03cd-430c-b5d6-dc3ed6190bd4"},"vehicle_type_id":"4","last_reported":1759172846,"current_range_meters":2800,"station_id":"","pricing_plan_id":"cebpf4jnsgd1na2vs0mg"},{"bike_id":"9faa6f79-7710-45e8-b965-55511a47c700","system_id":"levelo_inurba_marseille","lat":43.24993,"lon":5.38924,"is_reserved":false,"is_disabled":false,"rental_uris":{"android":"levelo://app?vid=9faa6f79-7710-45e8-b965-55511a47c700","ios":"levelo://app?vid=9faa6f79-7710-45e8-b965-55511a47c700"},"vehicle_type_id":"4","last_reported":1759172846,"current_range_meters":3200,"station_id":"ce4bhgp2rcd13ifvqfd0","pricing_plan_id":"cebpf4jnsgd1na2vs0mg"},{"bike_id":"185ddc78-c546-4c8f-8c63-85e15fd8775b","system_id":"levelo_inurba_marseille","lat":43.3064,"lon":5.4011,"is_reserved":false,"is_disabled":false,"rental_uris":{"android":"levelo://app?vid=185ddc78-c546-4c8f-8c63-85e15fd8775b","ios":"levelo://app?vid=185ddc78-c546-4c8f-8c63-85e15fd8775b"},"vehicle_type_id":"4","last_reported":1759172846,"current_range_meters":3200,"station_id":"ce4bh112rcd13ifvqda0","pricing_plan_id":"cebpf4jnsgd1na2vs0mg"},{"bike_id":"228a1b50-af37-4ee1-8a31-b4823ab4890a","system_id":"levelo_inurba_marseille","lat":43.23965,"lon":5.36634,"is_reserved":false,"is_disabled":false,"rental_uris":{"android":"levelo://app?vid=228a1b50-af37-4ee1-8a31-b4823ab4890a","ios":"levelo://app?vid=228a1b50-af37-4ee1-8a31-b4823ab4890a"},"vehicle_type_id":"4","last_reported":1759172846,"current_range_meters":3200,"station_id":"ce4bhi12rcd13ifvqfp0","pricing_plan_id":"cebpf4jnsgd1na2vs0mg"},{"bike_id":"c3ef382f-72d7-46c0-a7b0-c98e14aeb35c","system_id":"levelo_inurba_marseille","lat":43.30261,"lon":5.40088,"is_reserved":false,"is_disabled":false,"rental_uris":{"android":"levelo://app?vid=c3ef382f-72d7-46c0-a7b0-c98e14aeb35c","ios":"levelo://app?vid=c3ef382f-72d7-46c0-a7b0-c98e14aeb35c"},"vehicle_type_id":"4","last_reported":1759172846,"current_range_meters":3600,"station_id":"ce4bgvh2rcd13ifvqcs0","pricing_plan_id":"cebpf4jnsgd1na2vs0mg"},{"bike_id":"aa7708cb-ead7-4c10-ac96-3cc1e07540dc","system_id":"levelo_inurba_marseille","lat":43.28149,"lon":5.42651,"is_reserved":false,"is_disabled":false,"rental_uris":{"android":"levelo://app?vid=aa7708cb-ead7-4c10-ac96-3cc1e07540dc","ios":"levelo://app?vid=aa7708cb-ead7-4c10-ac96-3cc1e07540dc"},"vehicle_type_id":"4","last_reported":1759172846,"current_range_meters":3600,"station_id":"ce4bhnh2rcd13ifvqgug","pricing_plan_id":"cebpf4jnsgd1na2vs0mg"},{"bike_id":"51245ca3-17e2-46b1-aafa-52fad22bb4fc","system_id":"levelo_inurba_marseille","lat":43.288266,"lon":5.38234,"is_reserved":false,"is_disabled":false,"rental_uris":{"android":"levelo://app?vid=51245ca3-17e2-46b1-aafa-52fad22bb4fc","ios":"levelo://app?vid=51245ca3-17e2-46b1-aafa-52fad22bb4fc"},"vehicle_type_id":"4","last_reported":1759172846,"current_range_meters":3600,"station_id":"ce4bh4p2rcd13ifvqe1g","pricing_plan_id":"cebpf4jnsgd1na2vs0mg"},{"bike_id":"4fcf49da-ad50-414a-bda8-cbd36287dfda","system_id":"levelo_inurba_marseille","lat":43.25504,"lon":5.37659,"is_reserved":false,"is_disabled":true,"rental_uris":{"android":"levelo://app?vid=4fcf49da-ad50-414a-bda8-cbd36287dfda","ios":"levelo://app?vid=4fcf49da-ad50-414a-bda8-cbd36287dfda"},"vehicle_type_id":"4","last_reported":1759172846,"current_range_meters":4000,"station_id":"ce4bhh12rcd13ifvqff0","pricing_plan_id":"cebpf4jnsgd1na2vs0mg"},{"bike_id":"e06617ed-78e3-432a-a009-f0cc3f12a69a","system_id":"levelo_inurba_marseille","lat":43.31375,"lon":5.38498,"is_reserved":false,"is_disabled":false,"rental_uris":{"android":"levelo://app?vid=e06617ed-78e3-432a-a009-f0cc3f12a69a","ios":"levelo://app?vid=e06617ed-78e3-432a-a009-f0cc3f12a69a"},"vehicle_type_id":"4","last_reported":1759172846,"current_range_meters":4000,"station_id":"ce4bgt92rcd13ifvqcf0","pricing_plan_id":"cebpf4jnsgd1na2vs0mg"},{"bike_id":"d20f17df-f85a-42b4-9690-1b9231b54db3","system_id":"levelo_inurba_marseille","lat":43.23183,"lon":5.39971,"is_reserved":false,"is_disabled":false,"rental_uris":{"android":"levelo://app?vid=d20f17df-f85a-42b4-9690-1b9231b54db3","ios":"levelo://app?vid=d20f17df-f85a-42b4-9690-1b9231b54db3"},"vehicle_type_id":"4","last_reported":1759172846,"current_range_meters":4000,"station_id":"ce4bhn12rcd13ifvqgqg","pricing_plan_id":"cebpf4jnsgd1na2vs0mg"},{"bike_id":"e3dfa130-5ccf-437c-8050-c470d0ea5f23","system_id":"levelo_inurba_marseille","lat":43.2944,"lon":5.39759,"is_reserved":false,"is_disabled":false,"rental_uris":{"android":"levelo://app?vid=e3dfa130-5ccf-437c-8050-c470d0ea5f23","ios":"levelo://app?vid=e3dfa130-5ccf-437c-8050-c470d0ea5f23"},"vehicle_type_id":"4","last_reported":1759172846,"current_range_meters":4000,"station_id":"ce4bh3h2rcd13ifvqdo0","pricing_plan_id":"cebpf4jnsgd1na2vs0mg"},{"bike_id":"a13326a6-5ab1-48c6-8192-061a8bed119f","system_id":"levelo_inurba_marseille","lat":43.310808,"lon":5.383526,"is_reserved":false,"is_disabled":false,"rental_uris":{"android":"levelo://app?vid=a13326a6-5ab1-48c6-8192-061a8bed119f","ios":"levelo://app?vid=a13326a6-5ab1-48c6-8192-061a8bed119f"},"vehicle_type_id":"4","last_reported":1759172846,"current_range_meters":4000,"station_id":"ce4bgv92rcd13ifvqcr0","pricing_plan_id":"cebpf4jnsgd1na2vs0mg"},{"bike_id":"4aefdc7d-8dd5-4130-8630-c761455732a0","system_id":"levelo_inurba_marseille","lat":43.30209,"lon":5.3948,"is_reserved":false,"is_disabled":false,"rental_uris":{"android":"levelo://app?vid=4aefdc7d-8dd5-4130-8630-c761455732a0","ios":"levelo://app?vid=4aefdc7d-8dd5-4130-8630-c761455732a0"},"vehicle_type_id":"4","last_reported":1759172846,"current_range_meters":4000,"station_id":"ce4bh0p2rcd13ifvqd70","pricing_plan_id":"cebpf4jnsgd1na2vs0mg"},{"bike_id":"cf019335-1a00-4d3a-b137-2a1d40ad1fe6","system_id":"levelo_inurba_marseille","lat":43.29016,"lon":5.38648,"is_reserved":false,"is_disabled":false,"rental_uris":{"android":"levelo://app?vid=cf019335-1a00-4d3a-b137-2a1d40ad1fe6","ios":"levelo://app?vid=cf019335-1a00-4d3a-b137-2a1d40ad1fe6"},"vehicle_type_id":"4","last_reported":1759172846,"current_range_meters":4000,"station_id":"ce4bh4p2rcd13ifvqe0g","pricing_plan_id":"cebpf4jnsgd1na2vs0mg"},{"bike_id":"a53f6e1f-fbff-4d88-94e1-d8057c6015b1","system_id":"levelo_inurba_marseille","lat":43.28699,"lon":5.37393,"is_reserved":false,"is_disabled":false,"rental_uris":{"android":"levelo://app?vid=a53f6e1f-fbff-4d88-94e1-d8057c6015b1","ios":"levelo://app?vid=a53f6e1f-fbff-4d88-94e1-d8057c6015b1"},"vehicle_type_id":"4","last_reported":1759172846,"current_range_meters":4400,"station_id":"ce4bh3p2rcd13ifvqdq0","pricing_plan_id":"cebpf4jnsgd1na2vs0mg"},{"bike_id":"61ccc5bc-ce0a-42b5-80bd-c3e53600a688","system_id":"levelo_inurba_marseille","lat":43.28566,"lon":5.395,"is_reserved":false,"is_disabled":false,"rental_uris":{"android":"levelo://app?vid=61ccc5bc-ce0a-42b5-80bd-c3e53600a688","ios":"levelo://app?vid=61ccc5bc-ce0a-42b5-80bd-c3e53600a688"},"vehicle_type_id":"4","last_reported":1759172846,"current_range_meters":4400,"station_id":"ce4bh292rcd13ifvqdg0","pricing_plan_id":"cebpf4jnsgd1na2vs0mg"},{"bike_id":"b4df932c-b838-4d88-a12e-148758d10bb6","system_id":"levelo_inurba_marseille","lat":43.29786,"lon":5.39355,"is_reserved":false,"is_disabled":false,"rental_uris":{"android":"levelo://app?vid=b4df932c-b838-4d88-a12e-148758d10bb6","ios":"levelo://app?vid=b4df932c-b838-4d88-a12e-148758d10bb6"},"vehicle_type_id":"4","last_reported":1759172846,"current_range_meters":4800,"station_id":"chh1huq6cuj3fo74tm60","pricing_plan_id":"cebpf4jnsgd1na2vs0mg"},{"bike_id":"af47df4c-6782-4320-96ff-16e2f3df4bac","system_id":"levelo_inurba_marseille","lat":43.248006,"lon":5.374559,"is_reserved":false,"is_disabled":false,"rental_uris":{"android":"levelo://app?vid=af47df4c-6782-4320-96ff-16e2f3df4bac","ios":"levelo://app?vid=af47df4c-6782-4320-96ff-16e2f3df4bac"},"vehicle_type_id":"4","last_reported":1759172846,"current_range_meters":4800,"station_id":"ce4bhgh2rcd13ifvqfb0","pricing_plan_id":"cebpf4jnsgd1na2vs0mg"},{"bike_id":"4f194c40-87fd-45d8-84a8-40381524af69","system_id":"levelo_inurba_marseille","lat":43.24695,"lon":5.38172,"is_reserved":false,"is_disabled":false,"rental_uris":{"android":"levelo://app?vid=4f194c40-87fd-45d8-84a8-40381524af69","ios":"levelo://app?vid=4f194c40-87fd-45d8-84a8-40381524af69"},"vehicle_type_id":"4","last_reported":1759172846,"current_range_meters":4800,"station_id":"ce4bhih2rcd13ifvqfr0","pricing_plan_id":"cebpf4jnsgd1na2vs0mg"},{"bike_id":"ae8fbe28-6ac4-4a84-85ad-e11129cb415f","system_id":"levelo_inurba_marseille","lat":43.31267,"lon":5.4017,"is_reserved":false,"is_disabled":false,"rental_uris":{"android":"levelo://app?vid=ae8fbe28-6ac4-4a84-85ad-e11129cb415f","ios":"levelo://app?vid=ae8fbe28-6ac4-4a84-85ad-e11129cb415f"},"vehicle_type_id":"4","last_reported":1759172846,"current_range_meters":4800,"station_id":"ce4bh092rcd13ifvqd30","pricing_plan_id":"cebpf4jnsgd1na2vs0mg"},{"bike_id":"d39013ea-54ba-4dbd-930e-53fbb0f893da","system_id":"levelo_inurba_marseille","lat":43.29611,"lon":5.38112,"is_reserved":false,"is_disabled":false,"rental_uris":{"android":"levelo://app?vid=d39013ea-54ba-4dbd-930e-53fbb0f893da","ios":"levelo://app?vid=d39013ea-54ba-4dbd-930e-53fbb0f893da"},"vehicle_type_id":"4","last_reported":1759172846,"current_range_meters":4800,"station_id":"ce4bgl12rcd13ifvqbo0","pricing_plan_id":"cebpf4jnsgd1na2vs0mg"},{"bike_id":"d552b674-447d-4838-a09c-1bf022dca1c6","system_id":"levelo_inurba_marseille","lat":43.24664,"lon":5.38168,"is_reserved":false,"is_disabled":false,"rental_uris":{"android":"levelo://app?vid=d552b674-447d-4838-a09c-1bf022dca1c6","ios":"levelo://app?vid=d552b674-447d-4838-a09c-1bf022dca1c6"},"vehicle_type_id":"4","last_reported":1759172846,"current_range_meters":5600,"station_id":"ce4bhih2rcd13ifvqfr0","pricing_plan_id":"cebpf4jnsgd1na2vs0mg"},{"bike_id":"61dd405e-f4e8-4eab-966a-a47ff6584e41","system_id":"levelo_inurba_marseille","lat":43.28721,"lon":5.36093,"is_reserved":false,"is_disabled":false,"rental_uris":{"android":"levelo://app?vid=61dd405e-f4e8-4eab-966a-a47ff6584e41","ios":"levelo://app?vid=61dd405e-f4e8-4eab-966a-a47ff6584e41"},"vehicle_type_id":"4","last_reported":1759172846,"current_range_meters":5600,"station_id":"cki0cbj6b192h4jlfktg","pricing_plan_id":"cebpf4jnsgd1na2vs0mg"},{"bike_id":"621524a0-dfff-4b28-bd39-7ffde079228d","system_id":"levelo_inurba_marseille","lat":43.29197,"lon":5.35801,"is_reserved":false,"is_disabled":false,"rental_uris":{"android":"levelo://app?vid=621524a0-dfff-4b28-bd39-7ffde079228d","ios":"levelo://app?vid=621524a0-dfff-4b28-bd39-7ffde079228d"},"vehicle_type_id":"4","last_reported":1759172846,"current_range_meters":5600,"station_id":"ce4bhb12rcd13ifvqel0","pricing_plan_id":"cebpf4jnsgd1na2vs0mg"},{"bike_id":"2670aded-ec49-4d8c-94d2-14988c2705aa","system_id":"levelo_inurba_marseille","lat":43.29611,"lon":5.37722,"is_reserved":false,"is_disabled":false,"rental_uris":{"android":"levelo://app?vid=2670aded-ec49-4d8c-94d2-14988c2705aa","ios":"levelo://app?vid=2670aded-ec49-4d8c-94d2-14988c2705aa"},"vehicle_type_id":"4","last_reported":1759172846,"current_range_meters":5600,"station_id":"ce4bgi92rcd13ifvqb90","pricing_plan_id":"cebpf4jnsgd1na2vs0mg"},{"bike_id":"3c2693e1-07a9-4b9c-852d-14a4489b1884","system_id":"levelo_inurba_marseille","lat":43.28456,"lon":5.35883,"is_reserved":false,"is_disabled":false,"rental_uris":{"android":"levelo://app?vid=3c2693e1-07a9-4b9c-852d-14a4489b1884","ios":"levelo://app?vid=3c2693e1-07a9-4b9c-852d-14a4489b1884"},"vehicle_type_id":"4","last_reported":1759172846,"current_range_meters":5600,"station_id":"ce4bhah2rcd13ifvqei0","pricing_plan_id":"cebpf4jnsgd1na2vs0mg"},{"bike_id":"d19d3f26-2ed9-4325-a03a-20938ce7b7ff","system_id":"levelo_inurba_marseille","lat":43.31072,"lon":5.38352,"is_reserved":false,"is_disabled":false,"rental_uris":{"android":"levelo://app?vid=d19d3f26-2ed9-4325-a03a-20938ce7b7ff","ios":"levelo://app?vid=d19d3f26-2ed9-4325-a03a-20938ce7b7ff"},"vehicle_type_id":"4","last_reported":1759172846,"current_range_meters":5600,"station_id":"ce4bgv92rcd13ifvqcr0","pricing_plan_id":"cebpf4jnsgd1na2vs0mg"},{"bike_id":"f957a086-10a0-460e-9cf8-842846f2fe92","system_id":"levelo_inurba_marseille","lat":43.25583,"lon":5.38238,"is_reserved":false,"is_disabled":false,"rental_uris":{"android":"levelo://app?vid=f957a086-10a0-460e-9cf8-842846f2fe92","ios":"levelo://app?vid=f957a086-10a0-460e-9cf8-842846f2fe92"},"vehicle_type_id":"4","last_reported":1759172846,"current_range_meters":6000,"station_id":"ce4bhih2rcd13ifvqfs0","pricing_plan_id":"cebpf4jnsgd1na2vs0mg"},{"bike_id":"fba9f0c2-3afb-41d2-9e1c-61389d787478","system_id":"levelo_inurba_marseille","lat":43.29102,"lon":5.38126,"is_reserved":false,"is_disabled":false,"rental_uris":{"android":"levelo://app?vid=fba9f0c2-3afb-41d2-9e1c-61389d787478","ios":"levelo://app?vid=fba9f0c2-3afb-41d2-9e1c-61389d787478"},"vehicle_type_id":"4","last_reported":1759172846,"current_range_meters":6000,"station_id":"ce4bh512rcd13ifvqe2g","pricing_plan_id":"cebpf4jnsgd1na2vs0mg"},{"bike_id":"0eff7e32-085c-418b-b6a2-ca35de20c1e2","system_id":"levelo_inurba_marseille","lat":43.32659,"lon":5.41002,"is_reserved":false,"is_disabled":false,"rental_uris":{"android":"levelo://app?vid=0eff7e32-085c-418b-b6a2-ca35de20c1e2","ios":"levelo://app?vid=0eff7e32-085c-418b-b6a2-ca35de20c1e2"},"vehicle_type_id":"4","last_reported":1759172846,"current_range_meters":5600,"station_id":"ce4bhpp2rcd13ifvqhgg","pricing_plan_id":"cebpf4jnsgd1na2vs0mg"},{"bike_id":"18905215-e548-4170-8634-47c99f61286f","system_id":"levelo_inurba_marseille","lat":43.30637,"lon":5.40099,"is_reserved":false,"is_disabled":false,"rental_uris":{"android":"levelo://app?vid=18905215-e548-4170-8634-47c99f61286f","ios":"levelo://app?vid=18905215-e548-4170-8634-47c99f61286f"},"vehicle_type_id":"4","last_reported":1759172846,"current_range_meters":6000,"station_id":"ce4bh112rcd13ifvqda0","pricing_plan_id":"cebpf4jnsgd1na2vs0mg"},{"bike_id":"c4f5bf64-b763-4876-a9cd-43935d3a3615","system_id":"levelo_inurba_marseille","lat":43.29873,"lon":5.38913,"is_reserved":false,"is_disabled":false,"rental_uris":{"android":"levelo://app?vid=c4f5bf64-b763-4876-a9cd-43935d3a3615","ios":"levelo://app?vid=c4f5bf64-b763-4876-a9cd-43935d3a3615"},"vehicle_type_id":"4","last_reported":1759172846,"current_range_meters":6000,"station_id":"ce4bh392rcd13ifvqdl0","pricing_plan_id":"cebpf4jnsgd1na2vs0mg"},{"bike_id":"d8c7b56a-ccf9-4e12-b25f-ac7a22480fed","system_id":"levelo_inurba_marseille","lat":43.27069,"lon":5.42279,"is_reserved":false,"is_disabled":false,"rental_uris":{"android":"levelo://app?vid=d8c7b56a-ccf9-4e12-b25f-ac7a22480fed","ios":"levelo://app?vid=d8c7b56a-ccf9-4e12-b25f-ac7a22480fed"},"vehicle_type_id":"4","last_reported":1759172846,"current_range_meters":6000,"station_id":"ce4bhk92rcd13ifvqgb0","pricing_plan_id":"cebpf4jnsgd1na2vs0mg"},{"bike_id":"ad4373c5-8d2d-4e32-a085-60a4af83d94c","system_id":"levelo_inurba_marseille","lat":43.31118,"lon":5.37769,"is_reserved":false,"is_disabled":false,"rental_uris":{"android":"levelo://app?vid=ad4373c5-8d2d-4e32-a085-60a4af83d94c","ios":"levelo://app?vid=ad4373c5-8d2d-4e32-a085-60a4af83d94c"},"vehicle_type_id":"4","last_reported":1759172846,"current_range_meters":6400,"station_id":"ce4bgt92rcd13ifvqcg0","pricing_plan_id":"cebpf4jnsgd1na2vs0mg"},{"bike_id":"295a8beb-fbec-41eb-b119-3b76187b5849","system_id":"levelo_inurba_marseille","lat":43.29525,"lon":5.38541,"is_reserved":false,"is_disabled":false,"rental_uris":{"android":"levelo://app?vid=295a8beb-fbec-41eb-b119-3b76187b5849","ios":"levelo://app?vid=295a8beb-fbec-41eb-b119-3b76187b5849"},"vehicle_type_id":"4","last_reported":1759172846,"current_range_meters":6400,"station_id":"ce4bgih2rcd13ifvqba0","pricing_plan_id":"cebpf4jnsgd1na2vs0mg"},{"bike_id":"bc85c2b7-fb13-477a-bbd7-01f47d27e6a2","system_id":"levelo_inurba_marseille","lat":43.23193,"lon":5.35561,"is_reserved":false,"is_disabled":false,"rental_uris":{"android":"levelo://app?vid=bc85c2b7-fb13-477a-bbd7-01f47d27e6a2","ios":"levelo://app?vid=bc85c2b7-fb13-477a-bbd7-01f47d27e6a2"},"vehicle_type_id":"4","last_reported":1759172846,"current_range_meters":6400,"station_id":"ce4bhu92rcd13ifvqi70","pricing_plan_id":"cebpf4jnsgd1na2vs0mg"},{"bike_id":"be7dae0d-94d7-4a0d-89d8-07c528e32b57","system_id":"levelo_inurba_marseille","lat":43.32583,"lon":5.39056,"is_reserved":false,"is_disabled":false,"rental_uris":{"android":"levelo://app?vid=be7dae0d-94d7-4a0d-89d8-07c528e32b57","ios":"levelo://app?vid=be7dae0d-94d7-4a0d-89d8-07c528e32b57"},"vehicle_type_id":"4","last_reported":1759172846,"current_range_meters":6400,"station_id":"","pricing_plan_id":"cebpf4jnsgd1na2vs0mg"},{"bike_id":"c9916796-5f07-4d22-aceb-87882fb08ac5","system_id":"levelo_inurba_marseille","lat":43.305975,"lon":5.365582,"is_reserved":false,"is_disabled":false,"rental_uris":{"android":"levelo://app?vid=c9916796-5f07-4d22-aceb-87882fb08ac5","ios":"levelo://app?vid=c9916796-5f07-4d22-aceb-87882fb08ac5"},"vehicle_type_id":"4","last_reported":1759172846,"current_range_meters":6800,"station_id":"ce4bgs12rcd13ifvqcag","pricing_plan_id":"cebpf4jnsgd1na2vs0mg"},{"bike_id":"702f2a8a-b695-444a-b130-53d0ab1c9224","system_id":"levelo_inurba_marseille","lat":43.25442,"lon":5.37574,"is_reserved":false,"is_disabled":false,"rental_uris":{"android":"levelo://app?vid=702f2a8a-b695-444a-b130-53d0ab1c9224","ios":"levelo://app?vid=702f2a8a-b695-444a-b130-53d0ab1c9224"},"vehicle_type_id":"4","last_reported":1759172846,"current_range_meters":6800,"station_id":"","pricing_plan_id":"cebpf4jnsgd1na2vs0mg"},{"bike_id":"daf541c9-71f3-40c6-8d93-c8a9ad714a13","system_id":"levelo_inurba_marseille","lat":43.3009,"lon":5.39081,"is_reserved":false,"is_disabled":false,"rental_uris":{"android":"levelo://app?vid=daf541c9-71f3-40c6-8d93-c8a9ad714a13","ios":"levelo://app?vid=daf541c9-71f3-40c6-8d93-c8a9ad714a13"},"vehicle_type_id":"4","last_reported":1759172846,"current_range_meters":6800,"station_id":"ce4bh192rcd13ifvqdb0","pricing_plan_id":"cebpf4jnsgd1na2vs0mg"},{"bike_id":"8a4a8404-2223-404b-b9d6-fda388efd3eb","system_id":"levelo_inurba_marseille","lat":43.225399,"lon":5.348524,"is_reserved":false,"is_disabled":false,"rental_uris":{"android":"levelo://app?vid=8a4a8404-2223-404b-b9d6-fda388efd3eb","ios":"levelo://app?vid=8a4a8404-2223-404b-b9d6-fda388efd3eb"},"vehicle_type_id":"4","last_reported":1759172846,"current_range_meters":6800,"station_id":"","pricing_plan_id":"cebpf4jnsgd1na2vs0mg"},{"bike_id":"4c0b4218-50e1-41ba-b7e0-f0446f18f5e5","system_id":"levelo_inurba_marseille","lat":43.24806,"lon":5.37455,"is_reserved":false,"is_disabled":false,"rental_uris":{"android":"levelo://app?vid=4c0b4218-50e1-41ba-b7e0-f0446f18f5e5","ios":"levelo://app?vid=4c0b4218-50e1-41ba-b7e0-f0446f18f5e5"},"vehicle_type_id":"4","last_reported":1759172846,"current_range_meters":6800,"station_id":"ce4bhgh2rcd13ifvqfb0","pricing_plan_id":"cebpf4jnsgd1na2vs0mg"},{"bike_id":"107d46a6-d259-496f-b920-088c817f5968","system_id":"levelo_inurba_marseille","lat":43.27996,"lon":5.40011,"is_reserved":false,"is_disabled":false,"rental_uris":{"android":"levelo://app?vid=107d46a6-d259-496f-b920-088c817f5968","ios":"levelo://app?vid=107d46a6-d259-496f-b920-088c817f5968"},"vehicle_type_id":"4","last_reported":1759172846,"current_range_meters":6800,"station_id":"ce4bho92rcd13ifvqh4g","pricing_plan_id":"cebpf4jnsgd1na2vs0mg"},{"bike_id":"258ab053-1083-4ca9-a32a-1e85f085fc22","system_id":"levelo_inurba_marseille","lat":43.337444,"lon":5.374475,"is_reserved":false,"is_disabled":false,"rental_uris":{"android":"levelo://app?vid=258ab053-1083-4ca9-a32a-1e85f085fc22","ios":"levelo://app?vid=258ab053-1083-4ca9-a32a-1e85f085fc22"},"vehicle_type_id":"4","last_reported":1759172846,"current_range_meters":6800,"station_id":"","pricing_plan_id":"cebpf4jnsgd1na2vs0mg"},{"bike_id":"cefe59df-2426-4a68-83cf-fcecbb3c8c98","system_id":"levelo_inurba_marseille","lat":43.30216,"lon":5.39641,"is_reserved":false,"is_disabled":true,"rental_uris":{"android":"levelo://app?vid=cefe59df-2426-4a68-83cf-fcecbb3c8c98","ios":"levelo://app?vid=cefe59df-2426-4a68-83cf-fcecbb3c8c98"},"vehicle_type_id":"4","last_reported":1759172846,"current_range_meters":7200,"station_id":"","pricing_plan_id":"cebpf4jnsgd1na2vs0mg"},{"bike_id":"3b8754c6-2c8e-4865-ba8d-1179f0045661","system_id":"levelo_inurba_marseille","lat":43.24183,"lon":5.397322,"is_reserved":false,"is_disabled":false,"rental_uris":{"android":"levelo://app?vid=3b8754c6-2c8e-4865-ba8d-1179f0045661","ios":"levelo://app?vid=3b8754c6-2c8e-4865-ba8d-1179f0045661"},"vehicle_type_id":"4","last_reported":1759172846,"current_range_meters":7200,"station_id":"ce4bhn12rcd13ifvqgpg","pricing_plan_id":"cebpf4jnsgd1na2vs0mg"},{"bike_id":"6eeea41b-aa60-4f14-a3fb-55ba3b641da2","system_id":"levelo_inurba_marseille","lat":43.298715,"lon":5.38909,"is_reserved":false,"is_disabled":true,"rental_uris":{"android":"levelo://app?vid=6eeea41b-aa60-4f14-a3fb-55ba3b641da2","ios":"levelo://app?vid=6eeea41b-aa60-4f14-a3fb-55ba3b641da2"},"vehicle_type_id":"4","last_reported":1759172846,"current_range_meters":7200,"station_id":"ce4bh392rcd13ifvqdl0","pricing_plan_id":"cebpf4jnsgd1na2vs0mg"},{"bike_id":"5dd3343c-8e1b-4622-bbd9-8040b4723513","system_id":"levelo_inurba_marseille","lat":43.30881,"lon":5.3721,"is_reserved":false,"is_disabled":false,"rental_uris":{"android":"levelo://app?vid=5dd3343c-8e1b-4622-bbd9-8040b4723513","ios":"levelo://app?vid=5dd3343c-8e1b-4622-bbd9-8040b4723513"},"vehicle_type_id":"4","last_reported":1759172846,"current_range_meters":7200,"station_id":"ce4bguh2rcd13ifvqckg","pricing_plan_id":"cebpf4jnsgd1na2vs0mg"},{"bike_id":"b0ce1c8e-e1ce-4620-b40e-243c89b7a141","system_id":"levelo_inurba_marseille","lat":43.31487,"lon":5.37311,"is_reserved":false,"is_disabled":false,"rental_uris":{"android":"levelo://app?vid=b0ce1c8e-e1ce-4620-b40e-243c89b7a141","ios":"levelo://app?vid=b0ce1c8e-e1ce-4620-b40e-243c89b7a141"},"vehicle_type_id":"4","last_reported":1759172846,"current_range_meters":7200,"station_id":"ce4bgt12rcd13ifvqcd0","pricing_plan_id":"cebpf4jnsgd1na2vs0mg"},{"bike_id":"8b353c9e-13c5-42ee-a76f-ccbd6269a3dc","system_id":"levelo_inurba_marseille","lat":43.30424,"lon":5.366666,"is_reserved":false,"is_disabled":false,"rental_uris":{"android":"levelo://app?vid=8b353c9e-13c5-42ee-a76f-ccbd6269a3dc","ios":"levelo://app?vid=8b353c9e-13c5-42ee-a76f-ccbd6269a3dc"},"vehicle_type_id":"4","last_reported":1759172846,"current_range_meters":8000,"station_id":"","pricing_plan_id":"cebpf4jnsgd1na2vs0mg"},{"bike_id":"07747a9a-2f8f-4658-8dca-60b461ec0ab5","system_id":"levelo_inurba_marseille","lat":43.24179,"lon":5.39732,"is_reserved":false,"is_disabled":false,"rental_uris":{"android":"levelo://app?vid=07747a9a-2f8f-4658-8dca-60b461ec0ab5","ios":"levelo://app?vid=07747a9a-2f8f-4658-8dca-60b461ec0ab5"},"vehicle_type_id":"4","last_reported":1759172846,"current_range_meters":8000,"station_id":"ce4bhn12rcd13ifvqgpg","pricing_plan_id":"cebpf4jnsgd1na2vs0mg"},{"bike_id":"ae717c3f-d8a7-461a-a578-8bf557ac62db","system_id":"levelo_inurba_marseille","lat":43.25506,"lon":5.37657,"is_reserved":false,"is_disabled":false,"rental_uris":{"android":"levelo://app?vid=ae717c3f-d8a7-461a-a578-8bf557ac62db","ios":"levelo://app?vid=ae717c3f-d8a7-461a-a578-8bf557ac62db"},"vehicle_type_id":"4","last_reported":1759172846,"current_range_meters":8000,"station_id":"ce4bhh12rcd13ifvqff0","pricing_plan_id":"cebpf4jnsgd1na2vs0mg"},{"bike_id":"6dadca8b-1783-4f22-927a-396948aff375","system_id":"levelo_inurba_marseille","lat":43.31073,"lon":5.38355,"is_reserved":false,"is_disabled":false,"rental_uris":{"android":"levelo://app?vid=6dadca8b-1783-4f22-927a-396948aff375","ios":"levelo://app?vid=6dadca8b-1783-4f22-927a-396948aff375"},"vehicle_type_id":"4","last_reported":1759172846,"current_range_meters":8000,"station_id":"ce4bgv92rcd13ifvqcr0","pricing_plan_id":"cebpf4jnsgd1na2vs0mg"},{"bike_id":"2c6518be-b3f0-42d2-93c9-c1de9e54885f","system_id":"levelo_inurba_marseille","lat":43.29227,"lon":5.38219,"is_reserved":false,"is_disabled":false,"rental_uris":{"android":"levelo://app?vid=2c6518be-b3f0-42d2-93c9-c1de9e54885f","ios":"levelo://app?vid=2c6518be-b3f0-42d2-93c9-c1de9e54885f"},"vehicle_type_id":"4","last_reported":1759172846,"current_range_meters":8000,"station_id":"","pricing_plan_id":"cebpf4jnsgd1na2vs0mg"},{"bike_id":"0a3aa82e-1f07-4120-83bd-453d3a5f2cd8","system_id":"levelo_inurba_marseille","lat":43.26199,"lon":5.37936,"is_reserved":false,"is_disabled":false,"rental_uris":{"android":"levelo://app?vid=0a3aa82e-1f07-4120-83bd-453d3a5f2cd8","ios":"levelo://app?vid=0a3aa82e-1f07-4120-83bd-453d3a5f2cd8"},"vehicle_type_id":"4","last_reported":1759172846,"current_range_meters":7200,"station_id":"ce4bhjp2rcd13ifvqg90","pricing_plan_id":"cebpf4jnsgd1na2vs0mg"},{"bike_id":"a5c9ad3d-5dc6-4bfc-8f84-a7195d8f7265","system_id":"levelo_inurba_marseille","lat":43.3014,"lon":5.39879,"is_reserved":false,"is_disabled":false,"rental_uris":{"android":"levelo://app?vid=a5c9ad3d-5dc6-4bfc-8f84-a7195d8f7265","ios":"levelo://app?vid=a5c9ad3d-5dc6-4bfc-8f84-a7195d8f7265"},"vehicle_type_id":"4","last_reported":1759172846,"current_range_meters":8000,"station_id":"ce4bh0h2rcd13ifvqd40","pricing_plan_id":"cebpf4jnsgd1na2vs0mg"},{"bike_id":"ee96a502-9b76-492e-840a-498b02aefe72","system_id":"levelo_inurba_marseille","lat":43.32355,"lon":5.39217,"is_reserved":false,"is_disabled":false,"rental_uris":{"android":"levelo://app?vid=ee96a502-9b76-492e-840a-498b02aefe72","ios":"levelo://app?vid=ee96a502-9b76-492e-840a-498b02aefe72"},"vehicle_type_id":"4","last_reported":1759172846,"current_range_meters":8000,"station_id":"","pricing_plan_id":"cebpf4jnsgd1na2vs0mg"},{"bike_id":"a2500c40-b7f2-45c6-ba23-6a2b0c5fd5f9","system_id":"levelo_inurba_marseille","lat":43.290332,"lon":5.386574,"is_reserved":false,"is_disabled":false,"rental_uris":{"android":"levelo://app?vid=a2500c40-b7f2-45c6-ba23-6a2b0c5fd5f9","ios":"levelo://app?vid=a2500c40-b7f2-45c6-ba23-6a2b0c5fd5f9"},"vehicle_type_id":"4","last_reported":1759172846,"current_range_meters":8000,"station_id":"ce4bh4p2rcd13ifvqe0g","pricing_plan_id":"cebpf4jnsgd1na2vs0mg"},{"bike_id":"8fe55a06-3727-430d-947d-d30149af51d2","system_id":"levelo_inurba_marseille","lat":43.25584,"lon":5.3825,"is_reserved":false,"is_disabled":false,"rental_uris":{"android":"levelo://app?vid=8fe55a06-3727-430d-947d-d30149af51d2","ios":"levelo://app?vid=8fe55a06-3727-430d-947d-d30149af51d2"},"vehicle_type_id":"4","last_reported":1759172846,"current_range_meters":8000,"station_id":"ce4bhih2rcd13ifvqfs0","pricing_plan_id":"cebpf4jnsgd1na2vs0mg"},{"bike_id":"0e784bd3-6a17-43c5-866e-06357c4155d9","system_id":"levelo_inurba_marseille","lat":43.24389,"lon":5.37056,"is_reserved":false,"is_disabled":false,"rental_uris":{"android":"levelo://app?vid=0e784bd3-6a17-43c5-866e-06357c4155d9","ios":"levelo://app?vid=0e784bd3-6a17-43c5-866e-06357c4155d9"},"vehicle_type_id":"4","last_reported":1759172846,"current_range_meters":8000,"station_id":"ce4bhhh2rcd13ifvqfk0","pricing_plan_id":"cebpf4jnsgd1na2vs0mg"},{"bike_id":"33ad0a6a-6c3a-4cb6-abbb-221b72a9a741","system_id":"levelo_inurba_marseille","lat":43.29637,"lon":5.40617,"is_reserved":false,"is_disabled":false,"rental_uris":{"android":"levelo://app?vid=33ad0a6a-6c3a-4cb6-abbb-221b72a9a741","ios":"levelo://app?vid=33ad0a6a-6c3a-4cb6-abbb-221b72a9a741"},"vehicle_type_id":"4","last_reported":1759172846,"current_range_meters":8000,"station_id":"ce4bh0h2rcd13ifvqd60","pricing_plan_id":"cebpf4jnsgd1na2vs0mg"},{"bike_id":"da0f26e9-0bdb-4063-b9f5-dcfb6728a88e","system_id":"levelo_inurba_marseille","lat":43.22939,"lon":5.35388,"is_reserved":false,"is_disabled":true,"rental_uris":{"android":"levelo://app?vid=da0f26e9-0bdb-4063-b9f5-dcfb6728a88e","ios":"levelo://app?vid=da0f26e9-0bdb-4063-b9f5-dcfb6728a88e"},"vehicle_type_id":"4","last_reported":1759172846,"current_range_meters":8000,"station_id":"cpo3532slgdg3j2ikp40","pricing_plan_id":"cebpf4jnsgd1na2vs0mg"},{"bike_id":"78a8e586-ee37-409e-9770-c1e203508c93","system_id":"levelo_inurba_marseille","lat":43.25339,"lon":5.4218,"is_reserved":false,"is_disabled":false,"rental_uris":{"android":"levelo://app?vid=78a8e586-ee37-409e-9770-c1e203508c93","ios":"levelo://app?vid=78a8e586-ee37-409e-9770-c1e203508c93"},"vehicle_type_id":"4","last_reported":1759172846,"current_range_meters":8000,"station_id":"st_d2m65c5bi1j21697t3ng","pricing_plan_id":"cebpf4jnsgd1na2vs0mg"},{"bike_id":"1dad2113-89e2-44fc-a0b6-ddd6a09baff1","system_id":"levelo_inurba_marseille","lat":43.337444,"lon":5.374475,"is_reserved":false,"is_disabled":false,"rental_uris":{"android":"levelo://app?vid=1dad2113-89e2-44fc-a0b6-ddd6a09baff1","ios":"levelo://app?vid=1dad2113-89e2-44fc-a0b6-ddd6a09baff1"},"vehicle_type_id":"4","last_reported":1759172846,"current_range_meters":8000,"station_id":"","pricing_plan_id":"cebpf4jnsgd1na2vs0mg"},{"bike_id":"ab3e4d7b-b29e-4f76-bc69-a9c42e2a028a","system_id":"levelo_inurba_marseille","lat":43.3038,"lon":5.42492,"is_reserved":false,"is_disabled":false,"rental_uris":{"android":"levelo://app?vid=ab3e4d7b-b29e-4f76-bc69-a9c42e2a028a","ios":"levelo://app?vid=ab3e4d7b-b29e-4f76-bc69-a9c42e2a028a"},"vehicle_type_id":"4","last_reported":1759172846,"current_range_meters":8400,"station_id":"ce4bhoh2rcd13ifvqh6g","pricing_plan_id":"cebpf4jnsgd1na2vs0mg"},{"bike_id":"cebffcbc-0db6-412d-add8-54304fd0ea2b","system_id":"levelo_inurba_marseille","lat":43.295891,"lon":5.381023,"is_reserved":false,"is_disabled":false,"rental_uris":{"android":"levelo://app?vid=cebffcbc-0db6-412d-add8-54304fd0ea2b","ios":"levelo://app?vid=cebffcbc-0db6-412d-add8-54304fd0ea2b"},"vehicle_type_id":"4","last_reported":1759172846,"current_range_meters":8400,"station_id":"ce4bgl12rcd13ifvqbo0","pricing_plan_id":"cebpf4jnsgd1na2vs0mg"},{"bike_id":"c29764c0-1ed4-42eb-865a-0c49767897dc","system_id":"levelo_inurba_marseille","lat":43.25342,"lon":5.42176,"is_reserved":false,"is_disabled":true,"rental_uris":{"android":"levelo://app?vid=c29764c0-1ed4-42eb-865a-0c49767897dc","ios":"levelo://app?vid=c29764c0-1ed4-42eb-865a-0c49767897dc"},"vehicle_type_id":"4","last_reported":1759172846,"current_range_meters":8400,"station_id":"st_d2m65c5bi1j21697t3ng","pricing_plan_id":"cebpf4jnsgd1na2vs0mg"},{"bike_id":"805d261a-8a05-45b4-8761-4b367f7f327c","system_id":"levelo_inurba_marseille","lat":43.29531,"lon":5.39408,"is_reserved":false,"is_disabled":false,"rental_uris":{"android":"levelo://app?vid=805d261a-8a05-45b4-8761-4b367f7f327c","ios":"levelo://app?vid=805d261a-8a05-45b4-8761-4b367f7f327c"},"vehicle_type_id":"4","last_reported":1759172846,"current_range_meters":8400,"station_id":"ce4bh292rcd13ifvqdf0","pricing_plan_id":"cebpf4jnsgd1na2vs0mg"},{"bike_id":"699ddf49-9298-4cb5-b3bb-794eda46ffa2","system_id":"levelo_inurba_marseille","lat":43.29632,"lon":5.40598,"is_reserved":false,"is_disabled":false,"rental_uris":{"android":"levelo://app?vid=699ddf49-9298-4cb5-b3bb-794eda46ffa2","ios":"levelo://app?vid=699ddf49-9298-4cb5-b3bb-794eda46ffa2"},"vehicle_type_id":"4","last_reported":1759172846,"current_range_meters":8400,"station_id":"ce4bh0h2rcd13ifvqd60","pricing_plan_id":"cebpf4jnsgd1na2vs0mg"},{"bike_id":"511cc80f-04a6-4a9f-afdd-004129d93b1f","system_id":"levelo_inurba_marseille","lat":43.26612,"lon":5.3938,"is_reserved":false,"is_disabled":false,"rental_uris":{"android":"levelo://app?vid=511cc80f-04a6-4a9f-afdd-004129d93b1f","ios":"levelo://app?vid=511cc80f-04a6-4a9f-afdd-004129d93b1f"},"vehicle_type_id":"4","last_reported":1759172846,"current_range_meters":8400,"station_id":"","pricing_plan_id":"cebpf4jnsgd1na2vs0mg"},{"bike_id":"bde8be9b-86c1-4539-a411-44f88083ac31","system_id":"levelo_inurba_marseille","lat":43.315159,"lon":5.372466,"is_reserved":false,"is_disabled":false,"rental_uris":{"android":"levelo://app?vid=bde8be9b-86c1-4539-a411-44f88083ac31","ios":"levelo://app?vid=bde8be9b-86c1-4539-a411-44f88083ac31"},"vehicle_type_id":"4","last_reported":1759172846,"current_range_meters":8400,"station_id":"ce4bgth2rcd13ifvqch0","pricing_plan_id":"cebpf4jnsgd1na2vs0mg"},{"bike_id":"c3be2a57-eca3-4562-9b4e-a830fabde609","system_id":"levelo_inurba_marseille","lat":43.28659,"lon":5.36353,"is_reserved":false,"is_disabled":false,"rental_uris":{"android":"levelo://app?vid=c3be2a57-eca3-4562-9b4e-a830fabde609","ios":"levelo://app?vid=c3be2a57-eca3-4562-9b4e-a830fabde609"},"vehicle_type_id":"4","last_reported":1759172846,"current_range_meters":8800,"station_id":"ce4bhah2rcd13ifvqej0","pricing_plan_id":"cebpf4jnsgd1na2vs0mg"},{"bike_id":"dfca8062-2b71-47ec-a650-bcaaf20d339e","system_id":"levelo_inurba_marseille","lat":43.2908,"lon":5.37171,"is_reserved":false,"is_disabled":false,"rental_uris":{"android":"levelo://app?vid=dfca8062-2b71-47ec-a650-bcaaf20d339e","ios":"levelo://app?vid=dfca8062-2b71-47ec-a650-bcaaf20d339e"},"vehicle_type_id":"4","last_reported":1759172846,"current_range_meters":8400,"station_id":"ce4bh5p2rcd13ifvqe4g","pricing_plan_id":"cebpf4jnsgd1na2vs0mg"},{"bike_id":"03350417-1098-4d6c-b8fe-9e64358744bf","system_id":"levelo_inurba_marseille","lat":43.31134,"lon":5.37592,"is_reserved":false,"is_disabled":false,"rental_uris":{"android":"levelo://app?vid=03350417-1098-4d6c-b8fe-9e64358744bf","ios":"levelo://app?vid=03350417-1098-4d6c-b8fe-9e64358744bf"},"vehicle_type_id":"4","last_reported":1759172846,"current_range_meters":8800,"station_id":"","pricing_plan_id":"cebpf4jnsgd1na2vs0mg"},{"bike_id":"efdd62a8-4ef5-4506-afac-d82da0475f49","system_id":"levelo_inurba_marseille","lat":43.28351,"lon":5.38108,"is_reserved":false,"is_disabled":false,"rental_uris":{"android":"levelo://app?vid=efdd62a8-4ef5-4506-afac-d82da0475f49","ios":"levelo://app?vid=efdd62a8-4ef5-4506-afac-d82da0475f49"},"vehicle_type_id":"4","last_reported":1759172846,"current_range_meters":9200,"station_id":"ce4bh412rcd13ifvqdr0","pricing_plan_id":"cebpf4jnsgd1na2vs0mg"},{"bike_id":"5dac40ec-25a4-4f4b-a302-e7c82b9abaf4","system_id":"levelo_inurba_marseille","lat":43.2929,"lon":5.40115,"is_reserved":false,"is_disabled":false,"rental_uris":{"android":"levelo://app?vid=5dac40ec-25a4-4f4b-a302-e7c82b9abaf4","ios":"levelo://app?vid=5dac40ec-25a4-4f4b-a302-e7c82b9abaf4"},"vehicle_type_id":"4","last_reported":1759172846,"current_range_meters":9200,"station_id":"ce4bh312rcd13ifvqdk0","pricing_plan_id":"cebpf4jnsgd1na2vs0mg"},{"bike_id":"03e38958-02d9-431c-aa26-c4e1013a7cf3","system_id":"levelo_inurba_marseille","lat":43.28861,"lon":5.42513,"is_reserved":false,"is_disabled":false,"rental_uris":{"android":"levelo://app?vid=03e38958-02d9-431c-aa26-c4e1013a7cf3","ios":"levelo://app?vid=03e38958-02d9-431c-aa26-c4e1013a7cf3"},"vehicle_type_id":"4","last_reported":1759172846,"current_range_meters":9200,"station_id":"st_d3b462108ojc7389ooeg","pricing_plan_id":"cebpf4jnsgd1na2vs0mg"},{"bike_id":"3e85acfa-1a84-4d57-ab54-7264200ebfb9","system_id":"levelo_inurba_marseille","lat":43.31134,"lon":5.37782,"is_reserved":false,"is_disabled":false,"rental_uris":{"android":"levelo://app?vid=3e85acfa-1a84-4d57-ab54-7264200ebfb9","ios":"levelo://app?vid=3e85acfa-1a84-4d57-ab54-7264200ebfb9"},"vehicle_type_id":"4","last_reported":1759172846,"current_range_meters":9200,"station_id":"ce4bgt92rcd13ifvqcg0","pricing_plan_id":"cebpf4jnsgd1na2vs0mg"},{"bike_id":"35e8f722-b82a-4247-beb8-7e2827829ce6","system_id":"levelo_inurba_marseille","lat":43.32405,"lon":5.3911,"is_reserved":false,"is_disabled":false,"rental_uris":{"android":"levelo://app?vid=35e8f722-b82a-4247-beb8-7e2827829ce6","ios":"levelo://app?vid=35e8f722-b82a-4247-beb8-7e2827829ce6"},"vehicle_type_id":"4","last_reported":1759172846,"current_range_meters":9200,"station_id":"","pricing_plan_id":"cebpf4jnsgd1na2vs0mg"},{"bike_id":"cfeab341-304a-4e35-ba3b-0554512692e6","system_id":"levelo_inurba_marseille","lat":43.298088,"lon":5.381087,"is_reserved":false,"is_disabled":false,"rental_uris":{"android":"levelo://app?vid=cfeab341-304a-4e35-ba3b-0554512692e6","ios":"levelo://app?vid=cfeab341-304a-4e35-ba3b-0554512692e6"},"vehicle_type_id":"4","last_reported":1759172846,"current_range_meters":9200,"station_id":"ce4bgip2rcd13ifvqbb0","pricing_plan_id":"cebpf4jnsgd1na2vs0mg"},{"bike_id":"dcaf3233-ddff-4cd1-a0ec-8a4c4b26bf10","system_id":"levelo_inurba_marseille","lat":43.27804,"lon":5.40718,"is_reserved":false,"is_disabled":false,"rental_uris":{"android":"levelo://app?vid=dcaf3233-ddff-4cd1-a0ec-8a4c4b26bf10","ios":"levelo://app?vid=dcaf3233-ddff-4cd1-a0ec-8a4c4b26bf10"},"vehicle_type_id":"4","last_reported":1759172846,"current_range_meters":9200,"station_id":"ce4bhnh2rcd13ifvqgtg","pricing_plan_id":"cebpf4jnsgd1na2vs0mg"},{"bike_id":"e5378695-fba9-432a-9cfb-3b5b05e40fec","system_id":"levelo_inurba_marseille","lat":43.337986,"lon":5.374304,"is_reserved":false,"is_disabled":false,"rental_uris":{"android":"levelo://app?vid=e5378695-fba9-432a-9cfb-3b5b05e40fec","ios":"levelo://app?vid=e5378695-fba9-432a-9cfb-3b5b05e40fec"},"vehicle_type_id":"4","last_reported":1759172846,"current_range_meters":9200,"station_id":"","pricing_plan_id":"cebpf4jnsgd1na2vs0mg"},{"bike_id":"c47f5c3e-1ff3-43b7-b740-1c081ef57305","system_id":"levelo_inurba_marseille","lat":43.29647,"lon":5.376,"is_reserved":false,"is_disabled":false,"rental_uris":{"android":"levelo://app?vid=c47f5c3e-1ff3-43b7-b740-1c081ef57305","ios":"levelo://app?vid=c47f5c3e-1ff3-43b7-b740-1c081ef57305"},"vehicle_type_id":"4","last_reported":1759172846,"current_range_meters":9600,"station_id":"","pricing_plan_id":"cebpf4jnsgd1na2vs0mg"},{"bike_id":"eb11a926-eaff-453a-8a38-71e0521d94c9","system_id":"levelo_inurba_marseille","lat":43.2991,"lon":5.38163,"is_reserved":false,"is_disabled":false,"rental_uris":{"android":"levelo://app?vid=eb11a926-eaff-453a-8a38-71e0521d94c9","ios":"levelo://app?vid=eb11a926-eaff-453a-8a38-71e0521d94c9"},"vehicle_type_id":"4","last_reported":1759172846,"current_range_meters":9200,"station_id":"ce4bgj12rcd13ifvqbc0","pricing_plan_id":"cebpf4jnsgd1na2vs0mg"},{"bike_id":"9c657e68-17d9-42e7-aa98-db9bf52f631f","system_id":"levelo_inurba_marseille","lat":43.31121,"lon":5.37768,"is_reserved":false,"is_disabled":false,"rental_uris":{"android":"levelo://app?vid=9c657e68-17d9-42e7-aa98-db9bf52f631f","ios":"levelo://app?vid=9c657e68-17d9-42e7-aa98-db9bf52f631f"},"vehicle_type_id":"4","last_reported":1759172846,"current_range_meters":9600,"station_id":"ce4bgt92rcd13ifvqcg0","pricing_plan_id":"cebpf4jnsgd1na2vs0mg"},{"bike_id":"67200657-336e-421b-879d-6056227e2c5b","system_id":"levelo_inurba_marseille","lat":43.29762,"lon":5.39363,"is_reserved":false,"is_disabled":false,"rental_uris":{"android":"levelo://app?vid=67200657-336e-421b-879d-6056227e2c5b","ios":"levelo://app?vid=67200657-336e-421b-879d-6056227e2c5b"},"vehicle_type_id":"4","last_reported":1759172846,"current_range_meters":9600,"station_id":"chh1huq6cuj3fo74tm60","pricing_plan_id":"cebpf4jnsgd1na2vs0mg"},{"bike_id":"d7d09523-34bb-44d2-9695-02f0abea9b47","system_id":"levelo_inurba_marseille","lat":43.29689,"lon":5.37922,"is_reserved":false,"is_disabled":false,"rental_uris":{"android":"levelo://app?vid=d7d09523-34bb-44d2-9695-02f0abea9b47","ios":"levelo://app?vid=d7d09523-34bb-44d2-9695-02f0abea9b47"},"vehicle_type_id":"4","last_reported":1759172846,"current_range_meters":9600,"station_id":"","pricing_plan_id":"cebpf4jnsgd1na2vs0mg"},{"bike_id":"06248793-b4be-4175-8253-bd1507538553","system_id":"levelo_inurba_marseille","lat":43.25117,"lon":5.40325,"is_reserved":false,"is_disabled":false,"rental_uris":{"android":"levelo://app?vid=06248793-b4be-4175-8253-bd1507538553","ios":"levelo://app?vid=06248793-b4be-4175-8253-bd1507538553"},"vehicle_type_id":"4","last_reported":1759172846,"current_range_meters":9600,"station_id":"ce4bhlh2rcd13ifvqgig","pricing_plan_id":"cebpf4jnsgd1na2vs0mg"},{"bike_id":"45cd9e73-8786-4978-9923-6422323a7327","system_id":"levelo_inurba_marseille","lat":43.25569,"lon":5.38239,"is_reserved":false,"is_disabled":true,"rental_uris":{"android":"levelo://app?vid=45cd9e73-8786-4978-9923-6422323a7327","ios":"levelo://app?vid=45cd9e73-8786-4978-9923-6422323a7327"},"vehicle_type_id":"4","last_reported":1759172846,"current_range_meters":9600,"station_id":"ce4bhih2rcd13ifvqfs0","pricing_plan_id":"cebpf4jnsgd1na2vs0mg"},{"bike_id":"3607d85c-5b23-4af4-af55-2e69601e17d7","system_id":"levelo_inurba_marseille","lat":43.30948,"lon":5.39041,"is_reserved":false,"is_disabled":false,"rental_uris":{"android":"levelo://app?vid=3607d85c-5b23-4af4-af55-2e69601e17d7","ios":"levelo://app?vid=3607d85c-5b23-4af4-af55-2e69601e17d7"},"vehicle_type_id":"4","last_reported":1759172846,"current_range_meters":9600,"station_id":"ce4bgup2rcd13ifvqco0","pricing_plan_id":"cebpf4jnsgd1na2vs0mg"},{"bike_id":"b348a57a-d995-459f-a9af-7c5623a6366e","system_id":"levelo_inurba_marseille","lat":43.30589,"lon":5.39353,"is_reserved":false,"is_disabled":false,"rental_uris":{"android":"levelo://app?vid=b348a57a-d995-459f-a9af-7c5623a6366e","ios":"levelo://app?vid=b348a57a-d995-459f-a9af-7c5623a6366e"},"vehicle_type_id":"4","last_reported":1759172846,"current_range_meters":10000,"station_id":"ce4bh0p2rcd13ifvqd80","pricing_plan_id":"cebpf4jnsgd1na2vs0mg"},{"bike_id":"dff6dfd0-bca8-4cdb-90f0-373412e684cc","system_id":"levelo_inurba_marseille","lat":43.28987,"lon":5.3784,"is_reserved":false,"is_disabled":false,"rental_uris":{"android":"levelo://app?vid=dff6dfd0-bca8-4cdb-90f0-373412e684cc","ios":"levelo://app?vid=dff6dfd0-bca8-4cdb-90f0-373412e684cc"},"vehicle_type_id":"4","last_reported":1759172846,"current_range_meters":10000,"station_id":"ce4bh9p2rcd13ifvqed0","pricing_plan_id":"cebpf4jnsgd1na2vs0mg"},{"bike_id":"d6c734f5-0e13-46a8-8e3e-fda40abe4b7d","system_id":"levelo_inurba_marseille","lat":43.302139,"lon":5.394708,"is_reserved":false,"is_disabled":true,"rental_uris":{"android":"levelo://app?vid=d6c734f5-0e13-46a8-8e3e-fda40abe4b7d","ios":"levelo://app?vid=d6c734f5-0e13-46a8-8e3e-fda40abe4b7d"},"vehicle_type_id":"4","last_reported":1759172846,"current_range_meters":10000,"station_id":"ce4bhgh2rcd13ifvqfa0","pricing_plan_id":"cebpf4jnsgd1na2vs0mg"},{"bike_id":"80b98ce0-3233-47ce-84db-722943723d1e","system_id":"levelo_inurba_marseille","lat":43.269329,"lon":5.38928,"is_reserved":false,"is_disabled":false,"rental_uris":{"android":"levelo://app?vid=80b98ce0-3233-47ce-84db-722943723d1e","ios":"levelo://app?vid=80b98ce0-3233-47ce-84db-722943723d1e"},"vehicle_type_id":"4","last_reported":1759172846,"current_range_meters":10000,"station_id":"","pricing_plan_id":"cebpf4jnsgd1na2vs0mg"},{"bike_id":"9c4235da-d3d0-4056-aa6b-c6aa6e8e7367","system_id":"levelo_inurba_marseille","lat":43.30656,"lon":5.37504,"is_reserved":false,"is_disabled":false,"rental_uris":{"android":"levelo://app?vid=9c4235da-d3d0-4056-aa6b-c6aa6e8e7367","ios":"levelo://app?vid=9c4235da-d3d0-4056-aa6b-c6aa6e8e7367"},"vehicle_type_id":"4","last_reported":1759172846,"current_range_meters":10000,"station_id":"","pricing_plan_id":"cebpf4jnsgd1na2vs0mg"},{"bike_id":"513ad495-dd75-4a56-a5a2-7d530325e15e","system_id":"levelo_inurba_marseille","lat":43.30326,"lon":5.40437,"is_reserved":false,"is_disabled":false,"rental_uris":{"android":"levelo://app?vid=513ad495-dd75-4a56-a5a2-7d530325e15e","ios":"levelo://app?vid=513ad495-dd75-4a56-a5a2-7d530325e15e"},"vehicle_type_id":"4","last_reported":1759172846,"current_range_meters":10000,"station_id":"ce4bh012rcd13ifvqd10","pricing_plan_id":"cebpf4jnsgd1na2vs0mg"},{"bike_id":"ee6406f7-9f33-4935-a835-0f3904e54bc4","system_id":"levelo_inurba_marseille","lat":43.31875,"lon":5.37317,"is_reserved":false,"is_disabled":true,"rental_uris":{"android":"levelo://app?vid=ee6406f7-9f33-4935-a835-0f3904e54bc4","ios":"levelo://app?vid=ee6406f7-9f33-4935-a835-0f3904e54bc4"},"vehicle_type_id":"4","last_reported":1759172846,"current_range_meters":10800,"station_id":"ce4bgt12rcd13ifvqcd0","pricing_plan_id":"cebpf4jnsgd1na2vs0mg"},{"bike_id":"44cc4359-e7b3-48af-83b4-65edd912ef63","system_id":"levelo_inurba_marseille","lat":43.28158,"lon":5.42649,"is_reserved":false,"is_disabled":true,"rental_uris":{"android":"levelo://app?vid=44cc4359-e7b3-48af-83b4-65edd912ef63","ios":"levelo://app?vid=44cc4359-e7b3-48af-83b4-65edd912ef63"},"vehicle_type_id":"4","last_reported":1759172846,"current_range_meters":10800,"station_id":"ce4bhnh2rcd13ifvqgug","pricing_plan_id":"cebpf4jnsgd1na2vs0mg"},{"bike_id":"b112c340-5c7f-4d60-8acc-43466e19c436","system_id":"levelo_inurba_marseille","lat":43.25097,"lon":5.39521,"is_reserved":false,"is_disabled":false,"rental_uris":{"android":"levelo://app?vid=b112c340-5c7f-4d60-8acc-43466e19c436","ios":"levelo://app?vid=b112c340-5c7f-4d60-8acc-43466e19c436"},"vehicle_type_id":"4","last_reported":1759172846,"current_range_meters":10800,"station_id":"ce4bhm12rcd13ifvqgkg","pricing_plan_id":"cebpf4jnsgd1na2vs0mg"},{"bike_id":"10176dad-e77f-4f18-8cea-556decfc72aa","system_id":"levelo_inurba_marseille","lat":43.21756,"lon":5.34631,"is_reserved":false,"is_disabled":false,"rental_uris":{"android":"levelo://app?vid=10176dad-e77f-4f18-8cea-556decfc72aa","ios":"levelo://app?vid=10176dad-e77f-4f18-8cea-556decfc72aa"},"vehicle_type_id":"4","last_reported":1759172846,"current_range_meters":10800,"station_id":"st_cvj6r9ubvosntc0bgbag","pricing_plan_id":"cebpf4jnsgd1na2vs0mg"},{"bike_id":"f7456992-84c4-4a5c-a266-583ab3e3ea8c","system_id":"levelo_inurba_marseille","lat":43.28724,"lon":5.36104,"is_reserved":false,"is_disabled":false,"rental_uris":{"android":"levelo://app?vid=f7456992-84c4-4a5c-a266-583ab3e3ea8c","ios":"levelo://app?vid=f7456992-84c4-4a5c-a266-583ab3e3ea8c"},"vehicle_type_id":"4","last_reported":1759172846,"current_range_meters":10000,"station_id":"cki0cbj6b192h4jlfktg","pricing_plan_id":"cebpf4jnsgd1na2vs0mg"},{"bike_id":"07648681-7b10-4ced-8d96-599377d8d028","system_id":"levelo_inurba_marseille","lat":43.31989,"lon":5.38149,"is_reserved":false,"is_disabled":false,"rental_uris":{"android":"levelo://app?vid=07648681-7b10-4ced-8d96-599377d8d028","ios":"levelo://app?vid=07648681-7b10-4ced-8d96-599377d8d028"},"vehicle_type_id":"4","last_reported":1759172846,"current_range_meters":10800,"station_id":"ce4bhr12rcd13ifvqhpg","pricing_plan_id":"cebpf4jnsgd1na2vs0mg"},{"bike_id":"ce5e157e-4ef2-4c41-9b3b-54d3eecbfa45","system_id":"levelo_inurba_marseille","lat":43.22532,"lon":5.34866,"is_reserved":false,"is_disabled":false,"rental_uris":{"android":"levelo://app?vid=ce5e157e-4ef2-4c41-9b3b-54d3eecbfa45","ios":"levelo://app?vid=ce5e157e-4ef2-4c41-9b3b-54d3eecbfa45"},"vehicle_type_id":"4","last_reported":1759172846,"current_range_meters":10800,"station_id":"","pricing_plan_id":"cebpf4jnsgd1na2vs0mg"},{"bike_id":"8c0227e3-55e8-4994-aa0c-9b6ee99b7e26","system_id":"levelo_inurba_marseille","lat":43.23048,"lon":5.35506,"is_reserved":false,"is_disabled":false,"rental_uris":{"android":"levelo://app?vid=8c0227e3-55e8-4994-aa0c-9b6ee99b7e26","ios":"levelo://app?vid=8c0227e3-55e8-4994-aa0c-9b6ee99b7e26"},"vehicle_type_id":"4","last_reported":1759172846,"current_range_meters":11200,"station_id":"cpo3342slgdg3j2ifvpg","pricing_plan_id":"cebpf4jnsgd1na2vs0mg"},{"bike_id":"9d3bf7ed-71ea-4a40-a5e5-87cd143a2f4c","system_id":"levelo_inurba_marseille","lat":43.293575,"lon":5.407409,"is_reserved":false,"is_disabled":false,"rental_uris":{"android":"levelo://app?vid=9d3bf7ed-71ea-4a40-a5e5-87cd143a2f4c","ios":"levelo://app?vid=9d3bf7ed-71ea-4a40-a5e5-87cd143a2f4c"},"vehicle_type_id":"4","last_reported":1759172846,"current_range_meters":11200,"station_id":"ce4bh192rcd13ifvqdc0","pricing_plan_id":"cebpf4jnsgd1na2vs0mg"},{"bike_id":"831e6a54-bde0-4f77-80bc-8857d66d3744","system_id":"levelo_inurba_marseille","lat":43.27947,"lon":5.41051,"is_reserved":false,"is_disabled":true,"rental_uris":{"android":"levelo://app?vid=831e6a54-bde0-4f77-80bc-8857d66d3744","ios":"levelo://app?vid=831e6a54-bde0-4f77-80bc-8857d66d3744"},"vehicle_type_id":"4","last_reported":1759172846,"current_range_meters":11200,"station_id":"ce4bhnp2rcd13ifvqh0g","pricing_plan_id":"cebpf4jnsgd1na2vs0mg"},{"bike_id":"7e62fabe-d046-4087-9cd5-ed86b3f20bf0","system_id":"levelo_inurba_marseille","lat":43.295941,"lon":5.406017,"is_reserved":false,"is_disabled":false,"rental_uris":{"android":"levelo://app?vid=7e62fabe-d046-4087-9cd5-ed86b3f20bf0","ios":"levelo://app?vid=7e62fabe-d046-4087-9cd5-ed86b3f20bf0"},"vehicle_type_id":"4","last_reported":1759172846,"current_range_meters":11200,"station_id":"ce4bh0h2rcd13ifvqd60","pricing_plan_id":"cebpf4jnsgd1na2vs0mg"},{"bike_id":"17370ebd-b5fd-4574-b46a-946f9a9aca45","system_id":"levelo_inurba_marseille","lat":43.29248,"lon":5.40912,"is_reserved":false,"is_disabled":false,"rental_uris":{"android":"levelo://app?vid=17370ebd-b5fd-4574-b46a-946f9a9aca45","ios":"levelo://app?vid=17370ebd-b5fd-4574-b46a-946f9a9aca45"},"vehicle_type_id":"4","last_reported":1759172846,"current_range_meters":11600,"station_id":"ce4bh192rcd13ifvqdc0","pricing_plan_id":"cebpf4jnsgd1na2vs0mg"},{"bike_id":"7952d0c5-c3b4-4c29-bacd-f59ef155894d","system_id":"levelo_inurba_marseille","lat":43.309025,"lon":5.381673,"is_reserved":false,"is_disabled":false,"rental_uris":{"android":"levelo://app?vid=7952d0c5-c3b4-4c29-bacd-f59ef155894d","ios":"levelo://app?vid=7952d0c5-c3b4-4c29-bacd-f59ef155894d"},"vehicle_type_id":"4","last_reported":1759172846,"current_range_meters":11600,"station_id":"","pricing_plan_id":"cebpf4jnsgd1na2vs0mg"},{"bike_id":"ab87546f-9c82-4e8c-aa56-98f6fc8cd71b","system_id":"levelo_inurba_marseille","lat":43.28453,"lon":5.39175,"is_reserved":false,"is_disabled":false,"rental_uris":{"android":"levelo://app?vid=ab87546f-9c82-4e8c-aa56-98f6fc8cd71b","ios":"levelo://app?vid=ab87546f-9c82-4e8c-aa56-98f6fc8cd71b"},"vehicle_type_id":"4","last_reported":1759172846,"current_range_meters":11600,"station_id":"ce4bhoh2rcd13ifvqh5g","pricing_plan_id":"cebpf4jnsgd1na2vs0mg"},{"bike_id":"ea59b303-6900-42ad-9e79-5b0f95bedd6c","system_id":"levelo_inurba_marseille","lat":43.30438,"lon":5.36859,"is_reserved":false,"is_disabled":false,"rental_uris":{"android":"levelo://app?vid=ea59b303-6900-42ad-9e79-5b0f95bedd6c","ios":"levelo://app?vid=ea59b303-6900-42ad-9e79-5b0f95bedd6c"},"vehicle_type_id":"4","last_reported":1759172846,"current_range_meters":11600,"station_id":"","pricing_plan_id":"cebpf4jnsgd1na2vs0mg"},{"bike_id":"d86446ad-6e4e-43ef-943a-4d0b1c9bdca7","system_id":"levelo_inurba_marseille","lat":43.25089,"lon":5.39527,"is_reserved":false,"is_disabled":false,"rental_uris":{"android":"levelo://app?vid=d86446ad-6e4e-43ef-943a-4d0b1c9bdca7","ios":"levelo://app?vid=d86446ad-6e4e-43ef-943a-4d0b1c9bdca7"},"vehicle_type_id":"4","last_reported":1759172846,"current_range_meters":11600,"station_id":"ce4bhm12rcd13ifvqgkg","pricing_plan_id":"cebpf4jnsgd1na2vs0mg"},{"bike_id":"0eda2527-f3ce-4552-96df-04220f592c11","system_id":"levelo_inurba_marseille","lat":43.21184,"lon":5.35103,"is_reserved":false,"is_disabled":false,"rental_uris":{"android":"levelo://app?vid=0eda2527-f3ce-4552-96df-04220f592c11","ios":"levelo://app?vid=0eda2527-f3ce-4552-96df-04220f592c11"},"vehicle_type_id":"4","last_reported":1759172846,"current_range_meters":11600,"station_id":"st_cvj6sg6p6f1abm77japg","pricing_plan_id":"cebpf4jnsgd1na2vs0mg"},{"bike_id":"f745b30d-1109-4416-a6bc-ad327f92b670","system_id":"levelo_inurba_marseille","lat":43.31761,"lon":5.39023,"is_reserved":false,"is_disabled":false,"rental_uris":{"android":"levelo://app?vid=f745b30d-1109-4416-a6bc-ad327f92b670","ios":"levelo://app?vid=f745b30d-1109-4416-a6bc-ad327f92b670"},"vehicle_type_id":"4","last_reported":1759172846,"current_range_meters":11600,"station_id":"ce4bhqp2rcd13ifvqhng","pricing_plan_id":"cebpf4jnsgd1na2vs0mg"},{"bike_id":"be9ebcae-abfd-4da6-b8e7-99a4a930610c","system_id":"levelo_inurba_marseille","lat":43.31127,"lon":5.37787,"is_reserved":false,"is_disabled":false,"rental_uris":{"android":"levelo://app?vid=be9ebcae-abfd-4da6-b8e7-99a4a930610c","ios":"levelo://app?vid=be9ebcae-abfd-4da6-b8e7-99a4a930610c"},"vehicle_type_id":"4","last_reported":1759172846,"current_range_meters":12000,"station_id":"ce4bgt92rcd13ifvqcg0","pricing_plan_id":"cebpf4jnsgd1na2vs0mg"},{"bike_id":"b17fcf4a-d2df-4ab3-8ed1-cbfd1aa36b53","system_id":"levelo_inurba_marseille","lat":43.3133,"lon":5.39698,"is_reserved":false,"is_disabled":false,"rental_uris":{"android":"levelo://app?vid=b17fcf4a-d2df-4ab3-8ed1-cbfd1aa36b53","ios":"levelo://app?vid=b17fcf4a-d2df-4ab3-8ed1-cbfd1aa36b53"},"vehicle_type_id":"4","last_reported":1759172846,"current_range_meters":12000,"station_id":"ce4bgvp2rcd13ifvqcu0","pricing_plan_id":"cebpf4jnsgd1na2vs0mg"},{"bike_id":"7dc10ae7-7366-4aef-afb3-946c513f88ef","system_id":"levelo_inurba_marseille","lat":43.27997,"lon":5.363994,"is_reserved":false,"is_disabled":false,"rental_uris":{"android":"levelo://app?vid=7dc10ae7-7366-4aef-afb3-946c513f88ef","ios":"levelo://app?vid=7dc10ae7-7366-4aef-afb3-946c513f88ef"},"vehicle_type_id":"4","last_reported":1759172846,"current_range_meters":12000,"station_id":"ce4bha12rcd13ifvqef0","pricing_plan_id":"cebpf4jnsgd1na2vs0mg"},{"bike_id":"a1f05e86-3ce3-4caf-984d-685c1de96b6f","system_id":"levelo_inurba_marseille","lat":43.30922,"lon":5.40139,"is_reserved":false,"is_disabled":false,"rental_uris":{"android":"levelo://app?vid=a1f05e86-3ce3-4caf-984d-685c1de96b6f","ios":"levelo://app?vid=a1f05e86-3ce3-4caf-984d-685c1de96b6f"},"vehicle_type_id":"4","last_reported":1759172846,"current_range_meters":12000,"station_id":"ce4bgvp2rcd13ifvqct0","pricing_plan_id":"cebpf4jnsgd1na2vs0mg"},{"bike_id":"f83fb8d3-a923-4789-87d2-2d06da9c7fdf","system_id":"levelo_inurba_marseille","lat":43.29538,"lon":5.39394,"is_reserved":false,"is_disabled":false,"rental_uris":{"android":"levelo://app?vid=f83fb8d3-a923-4789-87d2-2d06da9c7fdf","ios":"levelo://app?vid=f83fb8d3-a923-4789-87d2-2d06da9c7fdf"},"vehicle_type_id":"4","last_reported":1759172846,"current_range_meters":12000,"station_id":"ce4bh292rcd13ifvqdf0","pricing_plan_id":"cebpf4jnsgd1na2vs0mg"},{"bike_id":"f6e8cf02-4ec8-4f47-83dd-ddd84fe62208","system_id":"levelo_inurba_marseille","lat":43.23175,"lon":5.40005,"is_reserved":false,"is_disabled":false,"rental_uris":{"android":"levelo://app?vid=f6e8cf02-4ec8-4f47-83dd-ddd84fe62208","ios":"levelo://app?vid=f6e8cf02-4ec8-4f47-83dd-ddd84fe62208"},"vehicle_type_id":"4","last_reported":1759172846,"current_range_meters":12000,"station_id":"ce4bhn12rcd13ifvqgqg","pricing_plan_id":"cebpf4jnsgd1na2vs0mg"},{"bike_id":"c627b34a-8e81-4438-af3b-4fd0aab1c160","system_id":"levelo_inurba_marseille","lat":43.296624,"lon":5.360048,"is_reserved":false,"is_disabled":false,"rental_uris":{"android":"levelo://app?vid=c627b34a-8e81-4438-af3b-4fd0aab1c160","ios":"levelo://app?vid=c627b34a-8e81-4438-af3b-4fd0aab1c160"},"vehicle_type_id":"4","last_reported":1759172846,"current_range_meters":12000,"station_id":"","pricing_plan_id":"cebpf4jnsgd1na2vs0mg"},{"bike_id":"a07a513e-e5a9-4481-8592-d991379bc662","system_id":"levelo_inurba_marseille","lat":43.33735,"lon":5.37481,"is_reserved":false,"is_disabled":false,"rental_uris":{"android":"levelo://app?vid=a07a513e-e5a9-4481-8592-d991379bc662","ios":"levelo://app?vid=a07a513e-e5a9-4481-8592-d991379bc662"},"vehicle_type_id":"4","last_reported":1759172846,"current_range_meters":12000,"station_id":"","pricing_plan_id":"cebpf4jnsgd1na2vs0mg"},{"bike_id":"04cb393d-b1e8-4a72-ab1f-4e3a96eac3f7","system_id":"levelo_inurba_marseille","lat":43.28124,"lon":5.37849,"is_reserved":false,"is_disabled":false,"rental_uris":{"android":"levelo://app?vid=04cb393d-b1e8-4a72-ab1f-4e3a96eac3f7","ios":"levelo://app?vid=04cb393d-b1e8-4a72-ab1f-4e3a96eac3f7"},"vehicle_type_id":"4","last_reported":1759172846,"current_range_meters":12000,"station_id":"ce4bha12rcd13ifvqee0","pricing_plan_id":"cebpf4jnsgd1na2vs0mg"},{"bike_id":"a0626b95-b5a9-4995-9277-4bbaf3a9fe1e","system_id":"levelo_inurba_marseille","lat":43.30243,"lon":5.40069,"is_reserved":false,"is_disabled":false,"rental_uris":{"android":"levelo://app?vid=a0626b95-b5a9-4995-9277-4bbaf3a9fe1e","ios":"levelo://app?vid=a0626b95-b5a9-4995-9277-4bbaf3a9fe1e"},"vehicle_type_id":"4","last_reported":1759172846,"current_range_meters":12400,"station_id":"ce4bgvh2rcd13ifvqcs0","pricing_plan_id":"cebpf4jnsgd1na2vs0mg"},{"bike_id":"08897f5d-483e-4ffa-b1bb-f13bc5f35002","system_id":"levelo_inurba_marseille","lat":43.28071,"lon":5.39655,"is_reserved":false,"is_disabled":false,"rental_uris":{"android":"levelo://app?vid=08897f5d-483e-4ffa-b1bb-f13bc5f35002","ios":"levelo://app?vid=08897f5d-483e-4ffa-b1bb-f13bc5f35002"},"vehicle_type_id":"4","last_reported":1759172846,"current_range_meters":12400,"station_id":"ce4bho12rcd13ifvqh2g","pricing_plan_id":"cebpf4jnsgd1na2vs0mg"},{"bike_id":"0030cf69-75f8-4719-a372-efc52bdb748a","system_id":"levelo_inurba_marseille","lat":43.32931,"lon":5.45413,"is_reserved":false,"is_disabled":false,"rental_uris":{"android":"levelo://app?vid=0030cf69-75f8-4719-a372-efc52bdb748a","ios":"levelo://app?vid=0030cf69-75f8-4719-a372-efc52bdb748a"},"vehicle_type_id":"4","last_reported":1759172846,"current_range_meters":12400,"station_id":"","pricing_plan_id":"cebpf4jnsgd1na2vs0mg"},{"bike_id":"16736934-dfee-4899-9572-c856d9cb8245","system_id":"levelo_inurba_marseille","lat":43.27825,"lon":5.4074,"is_reserved":false,"is_disabled":false,"rental_uris":{"android":"levelo://app?vid=16736934-dfee-4899-9572-c856d9cb8245","ios":"levelo://app?vid=16736934-dfee-4899-9572-c856d9cb8245"},"vehicle_type_id":"4","last_reported":1759172846,"current_range_meters":12400,"station_id":"ce4bhnh2rcd13ifvqgtg","pricing_plan_id":"cebpf4jnsgd1na2vs0mg"},{"bike_id":"e5e6cdfd-67b7-4a91-a68e-a67622511322","system_id":"levelo_inurba_marseille","lat":43.28077,"lon":5.39665,"is_reserved":false,"is_disabled":false,"rental_uris":{"android":"levelo://app?vid=e5e6cdfd-67b7-4a91-a68e-a67622511322","ios":"levelo://app?vid=e5e6cdfd-67b7-4a91-a68e-a67622511322"},"vehicle_type_id":"4","last_reported":1759172846,"current_range_meters":12000,"station_id":"ce4bho12rcd13ifvqh2g","pricing_plan_id":"cebpf4jnsgd1na2vs0mg"},{"bike_id":"385fa573-6758-43e7-a2f4-f27be30ea572","system_id":"levelo_inurba_marseille","lat":43.32102,"lon":5.36789,"is_reserved":false,"is_disabled":false,"rental_uris":{"android":"levelo://app?vid=385fa573-6758-43e7-a2f4-f27be30ea572","ios":"levelo://app?vid=385fa573-6758-43e7-a2f4-f27be30ea572"},"vehicle_type_id":"4","last_reported":1759172846,"current_range_meters":12800,"station_id":"ce4bhrh2rcd13ifvqhug","pricing_plan_id":"cebpf4jnsgd1na2vs0mg"},{"bike_id":"d60dc148-253b-4625-ae0c-8c88dcdb4260","system_id":"levelo_inurba_marseille","lat":43.272127,"lon":5.391798,"is_reserved":false,"is_disabled":false,"rental_uris":{"android":"levelo://app?vid=d60dc148-253b-4625-ae0c-8c88dcdb4260","ios":"levelo://app?vid=d60dc148-253b-4625-ae0c-8c88dcdb4260"},"vehicle_type_id":"4","last_reported":1759172846,"current_range_meters":12800,"station_id":"","pricing_plan_id":"cebpf4jnsgd1na2vs0mg"},{"bike_id":"40d5dc39-6be0-4981-985c-7676be853716","system_id":"levelo_inurba_marseille","lat":43.25324,"lon":5.42166,"is_reserved":false,"is_disabled":false,"rental_uris":{"android":"levelo://app?vid=40d5dc39-6be0-4981-985c-7676be853716","ios":"levelo://app?vid=40d5dc39-6be0-4981-985c-7676be853716"},"vehicle_type_id":"4","last_reported":1759172846,"current_range_meters":12800,"station_id":"st_d2m65c5bi1j21697t3ng","pricing_plan_id":"cebpf4jnsgd1na2vs0mg"},{"bike_id":"f5a2a98d-a030-4efc-9ffc-fa7aa724a9c7","system_id":"levelo_inurba_marseille","lat":43.29564,"lon":5.39979,"is_reserved":false,"is_disabled":false,"rental_uris":{"android":"levelo://app?vid=f5a2a98d-a030-4efc-9ffc-fa7aa724a9c7","ios":"levelo://app?vid=f5a2a98d-a030-4efc-9ffc-fa7aa724a9c7"},"vehicle_type_id":"4","last_reported":1759172846,"current_range_meters":12800,"station_id":"ce4bh312rcd13ifvqdj0","pricing_plan_id":"cebpf4jnsgd1na2vs0mg"},{"bike_id":"fe7c339b-81a8-4a59-b339-9d30aae20d0f","system_id":"levelo_inurba_marseille","lat":43.25343,"lon":5.42176,"is_reserved":false,"is_disabled":false,"rental_uris":{"android":"levelo://app?vid=fe7c339b-81a8-4a59-b339-9d30aae20d0f","ios":"levelo://app?vid=fe7c339b-81a8-4a59-b339-9d30aae20d0f"},"vehicle_type_id":"4","last_reported":1759172846,"current_range_meters":12800,"station_id":"st_d2m65c5bi1j21697t3ng","pricing_plan_id":"cebpf4jnsgd1na2vs0mg"},{"bike_id":"f641615c-32ef-461d-b38d-2f4e986a8fc4","system_id":"levelo_inurba_marseille","lat":43.29634,"lon":5.37167,"is_reserved":false,"is_disabled":false,"rental_uris":{"android":"levelo://app?vid=f641615c-32ef-461d-b38d-2f4e986a8fc4","ios":"levelo://app?vid=f641615c-32ef-461d-b38d-2f4e986a8fc4"},"vehicle_type_id":"4","last_reported":1759172846,"current_range_meters":12800,"station_id":"ce4bgnh2rcd13ifvqc0g","pricing_plan_id":"cebpf4jnsgd1na2vs0mg"},{"bike_id":"2698c3c3-4f41-480c-b3bd-bf477fd82bf2","system_id":"levelo_inurba_marseille","lat":43.28699,"lon":5.37398,"is_reserved":false,"is_disabled":false,"rental_uris":{"android":"levelo://app?vid=2698c3c3-4f41-480c-b3bd-bf477fd82bf2","ios":"levelo://app?vid=2698c3c3-4f41-480c-b3bd-bf477fd82bf2"},"vehicle_type_id":"4","last_reported":1759172846,"current_range_meters":12800,"station_id":"ce4bh3p2rcd13ifvqdq0","pricing_plan_id":"cebpf4jnsgd1na2vs0mg"},{"bike_id":"498de633-1978-409b-aa35-b617d56ba506","system_id":"levelo_inurba_marseille","lat":43.289401,"lon":5.366452,"is_reserved":false,"is_disabled":false,"rental_uris":{"android":"levelo://app?vid=498de633-1978-409b-aa35-b617d56ba506","ios":"levelo://app?vid=498de633-1978-409b-aa35-b617d56ba506"},"vehicle_type_id":"4","last_reported":1759172846,"current_range_meters":12800,"station_id":"ce4bhap2rcd13ifvqek0","pricing_plan_id":"cebpf4jnsgd1na2vs0mg"},{"bike_id":"c0aa09b9-3ca4-4680-aebb-be7c8cfe21b2","system_id":"levelo_inurba_marseille","lat":43.29258,"lon":5.38436,"is_reserved":false,"is_disabled":false,"rental_uris":{"android":"levelo://app?vid=c0aa09b9-3ca4-4680-aebb-be7c8cfe21b2","ios":"levelo://app?vid=c0aa09b9-3ca4-4680-aebb-be7c8cfe21b2"},"vehicle_type_id":"4","last_reported":1759172846,"current_range_meters":13600,"station_id":"ce4bh692rcd13ifvqea0","pricing_plan_id":"cebpf4jnsgd1na2vs0mg"},{"bike_id":"a6d5fea6-0b36-4308-aa47-0115b1c3b025","system_id":"levelo_inurba_marseille","lat":43.30738,"lon":5.42449,"is_reserved":false,"is_disabled":false,"rental_uris":{"android":"levelo://app?vid=a6d5fea6-0b36-4308-aa47-0115b1c3b025","ios":"levelo://app?vid=a6d5fea6-0b36-4308-aa47-0115b1c3b025"},"vehicle_type_id":"4","last_reported":1759172846,"current_range_meters":13600,"station_id":"st_cvj6ca6bvosntc0bfgr0","pricing_plan_id":"cebpf4jnsgd1na2vs0mg"},{"bike_id":"aa123961-c527-4db0-9350-7d548f67905a","system_id":"levelo_inurba_marseille","lat":43.27946,"lon":5.38753,"is_reserved":false,"is_disabled":false,"rental_uris":{"android":"levelo://app?vid=aa123961-c527-4db0-9350-7d548f67905a","ios":"levelo://app?vid=aa123961-c527-4db0-9350-7d548f67905a"},"vehicle_type_id":"4","last_reported":1759172846,"current_range_meters":13600,"station_id":"ce4bh492rcd13ifvqdvg","pricing_plan_id":"cebpf4jnsgd1na2vs0mg"},{"bike_id":"ba1cfbb3-555c-4e6c-85db-b50e9395062e","system_id":"levelo_inurba_marseille","lat":43.246877,"lon":5.381936,"is_reserved":false,"is_disabled":false,"rental_uris":{"android":"levelo://app?vid=ba1cfbb3-555c-4e6c-85db-b50e9395062e","ios":"levelo://app?vid=ba1cfbb3-555c-4e6c-85db-b50e9395062e"},"vehicle_type_id":"4","last_reported":1759172846,"current_range_meters":13600,"station_id":"","pricing_plan_id":"cebpf4jnsgd1na2vs0mg"},{"bike_id":"cb560dc5-3481-46ba-9bbe-3e3027c9ead9","system_id":"levelo_inurba_marseille","lat":43.27989,"lon":5.41659,"is_reserved":false,"is_disabled":false,"rental_uris":{"android":"levelo://app?vid=cb560dc5-3481-46ba-9bbe-3e3027c9ead9","ios":"levelo://app?vid=cb560dc5-3481-46ba-9bbe-3e3027c9ead9"},"vehicle_type_id":"4","last_reported":1759172846,"current_range_meters":13600,"station_id":"ce4bho12rcd13ifvqh1g","pricing_plan_id":"cebpf4jnsgd1na2vs0mg"},{"bike_id":"42fe4fc1-aaad-41c5-9eee-de813f970dda","system_id":"levelo_inurba_marseille","lat":43.31075,"lon":5.3836,"is_reserved":false,"is_disabled":false,"rental_uris":{"android":"levelo://app?vid=42fe4fc1-aaad-41c5-9eee-de813f970dda","ios":"levelo://app?vid=42fe4fc1-aaad-41c5-9eee-de813f970dda"},"vehicle_type_id":"4","last_reported":1759172846,"current_range_meters":13600,"station_id":"ce4bgv92rcd13ifvqcr0","pricing_plan_id":"cebpf4jnsgd1na2vs0mg"},{"bike_id":"ea06ea0d-e046-4d18-bbe8-8532c6db6580","system_id":"levelo_inurba_marseille","lat":43.265693,"lon":5.390496,"is_reserved":false,"is_disabled":false,"rental_uris":{"android":"levelo://app?vid=ea06ea0d-e046-4d18-bbe8-8532c6db6580","ios":"levelo://app?vid=ea06ea0d-e046-4d18-bbe8-8532c6db6580"},"vehicle_type_id":"4","last_reported":1759172846,"current_range_meters":13600,"station_id":"ce4bhe12rcd13ifvqf30","pricing_plan_id":"cebpf4jnsgd1na2vs0mg"},{"bike_id":"ddf54a02-e0e3-4e99-9130-b6317f7a732e","system_id":"levelo_inurba_marseille","lat":43.29031,"lon":5.38661,"is_reserved":false,"is_disabled":false,"rental_uris":{"android":"levelo://app?vid=ddf54a02-e0e3-4e99-9130-b6317f7a732e","ios":"levelo://app?vid=ddf54a02-e0e3-4e99-9130-b6317f7a732e"},"vehicle_type_id":"4","last_reported":1759172846,"current_range_meters":13600,"station_id":"ce4bh4p2rcd13ifvqe0g","pricing_plan_id":"cebpf4jnsgd1na2vs0mg"},{"bike_id":"a8d70b36-f892-428c-bb97-13ccb8cc41d3","system_id":"levelo_inurba_marseille","lat":43.25507,"lon":5.37656,"is_reserved":false,"is_disabled":false,"rental_uris":{"android":"levelo://app?vid=a8d70b36-f892-428c-bb97-13ccb8cc41d3","ios":"levelo://app?vid=a8d70b36-f892-428c-bb97-13ccb8cc41d3"},"vehicle_type_id":"4","last_reported":1759172846,"current_range_meters":13600,"station_id":"ce4bhh12rcd13ifvqff0","pricing_plan_id":"cebpf4jnsgd1na2vs0mg"},{"bike_id":"8e286296-5795-40aa-b7b0-3bcf4d08f714","system_id":"levelo_inurba_marseille","lat":43.32367,"lon":5.38894,"is_reserved":false,"is_disabled":false,"rental_uris":{"android":"levelo://app?vid=8e286296-5795-40aa-b7b0-3bcf4d08f714","ios":"levelo://app?vid=8e286296-5795-40aa-b7b0-3bcf4d08f714"},"vehicle_type_id":"4","last_reported":1759172846,"current_range_meters":13600,"station_id":"ce4bhqp2rcd13ifvqhog","pricing_plan_id":"cebpf4jnsgd1na2vs0mg"},{"bike_id":"aebf0e68-ba27-412a-9ce2-11cc42127dee","system_id":"levelo_inurba_marseille","lat":43.337444,"lon":5.374475,"is_reserved":false,"is_disabled":false,"rental_uris":{"android":"levelo://app?vid=aebf0e68-ba27-412a-9ce2-11cc42127dee","ios":"levelo://app?vid=aebf0e68-ba27-412a-9ce2-11cc42127dee"},"vehicle_type_id":"4","last_reported":1759172846,"current_range_meters":13600,"station_id":"","pricing_plan_id":"cebpf4jnsgd1na2vs0mg"},{"bike_id":"86a4a986-d5c3-4e5c-b592-0091247f2306","system_id":"levelo_inurba_marseille","lat":43.30431,"lon":5.38895,"is_reserved":false,"is_disabled":false,"rental_uris":{"android":"levelo://app?vid=86a4a986-d5c3-4e5c-b592-0091247f2306","ios":"levelo://app?vid=86a4a986-d5c3-4e5c-b592-0091247f2306"},"vehicle_type_id":"4","last_reported":1759172846,"current_range_meters":14000,"station_id":"ce4bgk12rcd13ifvqbi0","pricing_plan_id":"cebpf4jnsgd1na2vs0mg"},{"bike_id":"ae7b056b-3f1c-4b5f-a546-87c25f8ce4e1","system_id":"levelo_inurba_marseille","lat":43.26929,"lon":5.38925,"is_reserved":false,"is_disabled":false,"rental_uris":{"android":"levelo://app?vid=ae7b056b-3f1c-4b5f-a546-87c25f8ce4e1","ios":"levelo://app?vid=ae7b056b-3f1c-4b5f-a546-87c25f8ce4e1"},"vehicle_type_id":"4","last_reported":1759172846,"current_range_meters":14000,"station_id":"ce4bhhh2rcd13ifvqfl0","pricing_plan_id":"cebpf4jnsgd1na2vs0mg"},{"bike_id":"cde9157f-87a7-4e27-a9af-91de2bbef34a","system_id":"levelo_inurba_marseille","lat":43.25091,"lon":5.39527,"is_reserved":false,"is_disabled":false,"rental_uris":{"android":"levelo://app?vid=cde9157f-87a7-4e27-a9af-91de2bbef34a","ios":"levelo://app?vid=cde9157f-87a7-4e27-a9af-91de2bbef34a"},"vehicle_type_id":"4","last_reported":1759172846,"current_range_meters":14000,"station_id":"ce4bhm12rcd13ifvqgkg","pricing_plan_id":"cebpf4jnsgd1na2vs0mg"},{"bike_id":"5ac5ea43-3ef4-4d5c-9e38-afe5a8f77954","system_id":"levelo_inurba_marseille","lat":43.30137,"lon":5.39881,"is_reserved":false,"is_disabled":false,"rental_uris":{"android":"levelo://app?vid=5ac5ea43-3ef4-4d5c-9e38-afe5a8f77954","ios":"levelo://app?vid=5ac5ea43-3ef4-4d5c-9e38-afe5a8f77954"},"vehicle_type_id":"4","last_reported":1759172846,"current_range_meters":14000,"station_id":"ce4bh0h2rcd13ifvqd40","pricing_plan_id":"cebpf4jnsgd1na2vs0mg"},{"bike_id":"91658db2-d6ae-4346-bb4d-02353c95c4ab","system_id":"levelo_inurba_marseille","lat":43.25342,"lon":5.42157,"is_reserved":false,"is_disabled":false,"rental_uris":{"android":"levelo://app?vid=91658db2-d6ae-4346-bb4d-02353c95c4ab","ios":"levelo://app?vid=91658db2-d6ae-4346-bb4d-02353c95c4ab"},"vehicle_type_id":"4","last_reported":1759172846,"current_range_meters":14000,"station_id":"st_d2m65c5bi1j21697t3ng","pricing_plan_id":"cebpf4jnsgd1na2vs0mg"},{"bike_id":"8cbcf5e7-b804-4925-bbed-5f57e8580ccf","system_id":"levelo_inurba_marseille","lat":43.31519,"lon":5.36803,"is_reserved":false,"is_disabled":false,"rental_uris":{"android":"levelo://app?vid=8cbcf5e7-b804-4925-bbed-5f57e8580ccf","ios":"levelo://app?vid=8cbcf5e7-b804-4925-bbed-5f57e8580ccf"},"vehicle_type_id":"4","last_reported":1759172846,"current_range_meters":14000,"station_id":"","pricing_plan_id":"cebpf4jnsgd1na2vs0mg"},{"bike_id":"56d6a008-a903-4bd5-8ee3-1cec5d05c634","system_id":"levelo_inurba_marseille","lat":43.31749,"lon":5.39024,"is_reserved":false,"is_disabled":false,"rental_uris":{"android":"levelo://app?vid=56d6a008-a903-4bd5-8ee3-1cec5d05c634","ios":"levelo://app?vid=56d6a008-a903-4bd5-8ee3-1cec5d05c634"},"vehicle_type_id":"4","last_reported":1759172846,"current_range_meters":14000,"station_id":"ce4bhqp2rcd13ifvqhng","pricing_plan_id":"cebpf4jnsgd1na2vs0mg"},{"bike_id":"1fa1d044-e771-4a5f-bba8-2331cabafdf8","system_id":"levelo_inurba_marseille","lat":43.29028,"lon":5.38656,"is_reserved":false,"is_disabled":false,"rental_uris":{"android":"levelo://app?vid=1fa1d044-e771-4a5f-bba8-2331cabafdf8","ios":"levelo://app?vid=1fa1d044-e771-4a5f-bba8-2331cabafdf8"},"vehicle_type_id":"4","last_reported":1759172846,"current_range_meters":14000,"station_id":"ce4bh4p2rcd13ifvqe0g","pricing_plan_id":"cebpf4jnsgd1na2vs0mg"},{"bike_id":"7141d5c0-e60c-44f1-bfa8-47000c17aa41","system_id":"levelo_inurba_marseille","lat":43.32004,"lon":5.38096,"is_reserved":false,"is_disabled":false,"rental_uris":{"android":"levelo://app?vid=7141d5c0-e60c-44f1-bfa8-47000c17aa41","ios":"levelo://app?vid=7141d5c0-e60c-44f1-bfa8-47000c17aa41"},"vehicle_type_id":"4","last_reported":1759172846,"current_range_meters":14000,"station_id":"","pricing_plan_id":"cebpf4jnsgd1na2vs0mg"},{"bike_id":"aa964867-cd5c-4289-89a3-2ad56cce8ab1","system_id":"levelo_inurba_marseille","lat":43.23175,"lon":5.39981,"is_reserved":false,"is_disabled":false,"rental_uris":{"android":"levelo://app?vid=aa964867-cd5c-4289-89a3-2ad56cce8ab1","ios":"levelo://app?vid=aa964867-cd5c-4289-89a3-2ad56cce8ab1"},"vehicle_type_id":"4","last_reported":1759172846,"current_range_meters":14000,"station_id":"ce4bhn12rcd13ifvqgqg","pricing_plan_id":"cebpf4jnsgd1na2vs0mg"},{"bike_id":"3645f311-b424-42ff-8ab3-a598710e9214","system_id":"levelo_inurba_marseille","lat":43.23176,"lon":5.39974,"is_reserved":false,"is_disabled":true,"rental_uris":{"android":"levelo://app?vid=3645f311-b424-42ff-8ab3-a598710e9214","ios":"levelo://app?vid=3645f311-b424-42ff-8ab3-a598710e9214"},"vehicle_type_id":"4","last_reported":1759172846,"current_range_meters":14000,"station_id":"ce4bhn12rcd13ifvqgqg","pricing_plan_id":"cebpf4jnsgd1na2vs0mg"},{"bike_id":"78edd212-3bd8-4a45-bced-089e3907902a","system_id":"levelo_inurba_marseille","lat":43.32739,"lon":5.423816,"is_reserved":false,"is_disabled":true,"rental_uris":{"android":"levelo://app?vid=78edd212-3bd8-4a45-bced-089e3907902a","ios":"levelo://app?vid=78edd212-3bd8-4a45-bced-089e3907902a"},"vehicle_type_id":"4","last_reported":1759172846,"current_range_meters":14400,"station_id":"","pricing_plan_id":"cebpf4jnsgd1na2vs0mg"},{"bike_id":"cfbccd9b-7487-4373-bd45-0825506fdb75","system_id":"levelo_inurba_marseille","lat":43.29172,"lon":5.37158,"is_reserved":false,"is_disabled":false,"rental_uris":{"android":"levelo://app?vid=cfbccd9b-7487-4373-bd45-0825506fdb75","ios":"levelo://app?vid=cfbccd9b-7487-4373-bd45-0825506fdb75"},"vehicle_type_id":"4","last_reported":1759172846,"current_range_meters":14400,"station_id":"ce4bha92rcd13ifvqeh0","pricing_plan_id":"cebpf4jnsgd1na2vs0mg"},{"bike_id":"37f92675-5c6d-4cea-8a60-2198fa390655","system_id":"levelo_inurba_marseille","lat":43.23961,"lon":5.36626,"is_reserved":false,"is_disabled":false,"rental_uris":{"android":"levelo://app?vid=37f92675-5c6d-4cea-8a60-2198fa390655","ios":"levelo://app?vid=37f92675-5c6d-4cea-8a60-2198fa390655"},"vehicle_type_id":"4","last_reported":1759172846,"current_range_meters":14400,"station_id":"","pricing_plan_id":"cebpf4jnsgd1na2vs0mg"},{"bike_id":"a9cd5665-4575-420b-bb7e-e441349a406a","system_id":"levelo_inurba_marseille","lat":43.28436,"lon":5.34994,"is_reserved":false,"is_disabled":false,"rental_uris":{"android":"levelo://app?vid=a9cd5665-4575-420b-bb7e-e441349a406a","ios":"levelo://app?vid=a9cd5665-4575-420b-bb7e-e441349a406a"},"vehicle_type_id":"4","last_reported":1759172846,"current_range_meters":14400,"station_id":"ce4bhbh2rcd13ifvqepg","pricing_plan_id":"cebpf4jnsgd1na2vs0mg"},{"bike_id":"90b4c2c6-74ed-4bc2-b762-05e29dca864f","system_id":"levelo_inurba_marseille","lat":43.24654,"lon":5.38898,"is_reserved":false,"is_disabled":false,"rental_uris":{"android":"levelo://app?vid=90b4c2c6-74ed-4bc2-b762-05e29dca864f","ios":"levelo://app?vid=90b4c2c6-74ed-4bc2-b762-05e29dca864f"},"vehicle_type_id":"4","last_reported":1759172846,"current_range_meters":14400,"station_id":"ce4bhg12rcd13ifvqf60","pricing_plan_id":"cebpf4jnsgd1na2vs0mg"},{"bike_id":"3538f1f5-c060-4c98-aaba-5c3e589740f0","system_id":"levelo_inurba_marseille","lat":43.23968,"lon":5.36639,"is_reserved":false,"is_disabled":false,"rental_uris":{"android":"levelo://app?vid=3538f1f5-c060-4c98-aaba-5c3e589740f0","ios":"levelo://app?vid=3538f1f5-c060-4c98-aaba-5c3e589740f0"},"vehicle_type_id":"4","last_reported":1759172846,"current_range_meters":14400,"station_id":"ce4bhi12rcd13ifvqfp0","pricing_plan_id":"cebpf4jnsgd1na2vs0mg"},{"bike_id":"e6ad85b1-a3cb-4839-baf9-2eb5999fca22","system_id":"levelo_inurba_marseille","lat":43.29524,"lon":5.38547,"is_reserved":false,"is_disabled":false,"rental_uris":{"android":"levelo://app?vid=e6ad85b1-a3cb-4839-baf9-2eb5999fca22","ios":"levelo://app?vid=e6ad85b1-a3cb-4839-baf9-2eb5999fca22"},"vehicle_type_id":"4","last_reported":1759172846,"current_range_meters":14400,"station_id":"ce4bgih2rcd13ifvqba0","pricing_plan_id":"cebpf4jnsgd1na2vs0mg"},{"bike_id":"a804ed38-2824-42e4-8adc-6f8a71f3a071","system_id":"levelo_inurba_marseille","lat":43.29595,"lon":5.38109,"is_reserved":false,"is_disabled":false,"rental_uris":{"android":"levelo://app?vid=a804ed38-2824-42e4-8adc-6f8a71f3a071","ios":"levelo://app?vid=a804ed38-2824-42e4-8adc-6f8a71f3a071"},"vehicle_type_id":"4","last_reported":1759172846,"current_range_meters":14400,"station_id":"ce4bgl12rcd13ifvqbo0","pricing_plan_id":"cebpf4jnsgd1na2vs0mg"},{"bike_id":"e75a043a-077f-43a6-9b36-26a2c2059b68","system_id":"levelo_inurba_marseille","lat":43.29013,"lon":5.38649,"is_reserved":false,"is_disabled":false,"rental_uris":{"android":"levelo://app?vid=e75a043a-077f-43a6-9b36-26a2c2059b68","ios":"levelo://app?vid=e75a043a-077f-43a6-9b36-26a2c2059b68"},"vehicle_type_id":"4","last_reported":1759172846,"current_range_meters":14400,"station_id":"ce4bh4p2rcd13ifvqe0g","pricing_plan_id":"cebpf4jnsgd1na2vs0mg"},{"bike_id":"a2e45c06-7d2f-44e3-92a1-23bde99e0798","system_id":"levelo_inurba_marseille","lat":43.28859,"lon":5.42524,"is_reserved":false,"is_disabled":false,"rental_uris":{"android":"levelo://app?vid=a2e45c06-7d2f-44e3-92a1-23bde99e0798","ios":"levelo://app?vid=a2e45c06-7d2f-44e3-92a1-23bde99e0798"},"vehicle_type_id":"4","last_reported":1759172846,"current_range_meters":14400,"station_id":"st_d3b462108ojc7389ooeg","pricing_plan_id":"cebpf4jnsgd1na2vs0mg"},{"bike_id":"78d31c07-fdee-421a-b355-3e02fac02760","system_id":"levelo_inurba_marseille","lat":43.25502,"lon":5.37656,"is_reserved":false,"is_disabled":false,"rental_uris":{"android":"levelo://app?vid=78d31c07-fdee-421a-b355-3e02fac02760","ios":"levelo://app?vid=78d31c07-fdee-421a-b355-3e02fac02760"},"vehicle_type_id":"4","last_reported":1759172846,"current_range_meters":14400,"station_id":"ce4bhh12rcd13ifvqff0","pricing_plan_id":"cebpf4jnsgd1na2vs0mg"},{"bike_id":"50db5d85-cf29-4c95-8cdf-8bacc7a306bd","system_id":"levelo_inurba_marseille","lat":43.27953,"lon":5.41048,"is_reserved":false,"is_disabled":false,"rental_uris":{"android":"levelo://app?vid=50db5d85-cf29-4c95-8cdf-8bacc7a306bd","ios":"levelo://app?vid=50db5d85-cf29-4c95-8cdf-8bacc7a306bd"},"vehicle_type_id":"4","last_reported":1759172846,"current_range_meters":14400,"station_id":"ce4bhnp2rcd13ifvqh0g","pricing_plan_id":"cebpf4jnsgd1na2vs0mg"},{"bike_id":"17bbf4dd-fba9-4826-8c7d-9be0609a6e2f","system_id":"levelo_inurba_marseille","lat":43.31145,"lon":5.37722,"is_reserved":false,"is_disabled":false,"rental_uris":{"android":"levelo://app?vid=17bbf4dd-fba9-4826-8c7d-9be0609a6e2f","ios":"levelo://app?vid=17bbf4dd-fba9-4826-8c7d-9be0609a6e2f"},"vehicle_type_id":"4","last_reported":1759172846,"current_range_meters":14400,"station_id":"","pricing_plan_id":"cebpf4jnsgd1na2vs0mg"},{"bike_id":"99ce2063-5dfb-4ed3-a4a6-8fc3a54c4890","system_id":"levelo_inurba_marseille","lat":43.337444,"lon":5.374475,"is_reserved":false,"is_disabled":false,"rental_uris":{"android":"levelo://app?vid=99ce2063-5dfb-4ed3-a4a6-8fc3a54c4890","ios":"levelo://app?vid=99ce2063-5dfb-4ed3-a4a6-8fc3a54c4890"},"vehicle_type_id":"4","last_reported":1759172846,"current_range_meters":14400,"station_id":"","pricing_plan_id":"cebpf4jnsgd1na2vs0mg"},{"bike_id":"3c4e46ad-31c7-48b5-838b-052765ac1932","system_id":"levelo_inurba_marseille","lat":43.30307,"lon":5.3921,"is_reserved":false,"is_disabled":false,"rental_uris":{"android":"levelo://app?vid=3c4e46ad-31c7-48b5-838b-052765ac1932","ios":"levelo://app?vid=3c4e46ad-31c7-48b5-838b-052765ac1932"},"vehicle_type_id":"4","last_reported":1759172846,"current_range_meters":14400,"station_id":"ce4bgkh2rcd13ifvqbk0","pricing_plan_id":"cebpf4jnsgd1na2vs0mg"},{"bike_id":"834d954d-eca7-4c68-a992-51d80a79bde9","system_id":"levelo_inurba_marseille","lat":43.29523,"lon":5.38543,"is_reserved":false,"is_disabled":false,"rental_uris":{"android":"levelo://app?vid=834d954d-eca7-4c68-a992-51d80a79bde9","ios":"levelo://app?vid=834d954d-eca7-4c68-a992-51d80a79bde9"},"vehicle_type_id":"4","last_reported":1759172846,"current_range_meters":14800,"station_id":"ce4bgih2rcd13ifvqba0","pricing_plan_id":"cebpf4jnsgd1na2vs0mg"},{"bike_id":"b758b494-181d-4229-918f-9ce41e85b04d","system_id":"levelo_inurba_marseille","lat":43.331648,"lon":5.381891,"is_reserved":false,"is_disabled":false,"rental_uris":{"android":"levelo://app?vid=b758b494-181d-4229-918f-9ce41e85b04d","ios":"levelo://app?vid=b758b494-181d-4229-918f-9ce41e85b04d"},"vehicle_type_id":"4","last_reported":1759172846,"current_range_meters":14800,"station_id":"","pricing_plan_id":"cebpf4jnsgd1na2vs0mg"},{"bike_id":"5a26f084-3186-4538-89bb-92d2f3486f2f","system_id":"levelo_inurba_marseille","lat":43.29903,"lon":5.38157,"is_reserved":false,"is_disabled":false,"rental_uris":{"android":"levelo://app?vid=5a26f084-3186-4538-89bb-92d2f3486f2f","ios":"levelo://app?vid=5a26f084-3186-4538-89bb-92d2f3486f2f"},"vehicle_type_id":"4","last_reported":1759172846,"current_range_meters":14800,"station_id":"ce4bgj12rcd13ifvqbc0","pricing_plan_id":"cebpf4jnsgd1na2vs0mg"},{"bike_id":"b6a57b90-e1df-4d16-8464-7614d8008326","system_id":"levelo_inurba_marseille","lat":43.31707,"lon":5.43695,"is_reserved":false,"is_disabled":false,"rental_uris":{"android":"levelo://app?vid=b6a57b90-e1df-4d16-8464-7614d8008326","ios":"levelo://app?vid=b6a57b90-e1df-4d16-8464-7614d8008326"},"vehicle_type_id":"4","last_reported":1759172846,"current_range_meters":14800,"station_id":"ce4bhp92rcd13ifvqhcg","pricing_plan_id":"cebpf4jnsgd1na2vs0mg"},{"bike_id":"1b37b743-8b81-4c7c-a5ad-e2e51e3a9905","system_id":"levelo_inurba_marseille","lat":43.231844,"lon":5.399927,"is_reserved":false,"is_disabled":false,"rental_uris":{"android":"levelo://app?vid=1b37b743-8b81-4c7c-a5ad-e2e51e3a9905","ios":"levelo://app?vid=1b37b743-8b81-4c7c-a5ad-e2e51e3a9905"},"vehicle_type_id":"4","last_reported":1759172846,"current_range_meters":14800,"station_id":"ce4bhn12rcd13ifvqgqg","pricing_plan_id":"cebpf4jnsgd1na2vs0mg"},{"bike_id":"3110c5b5-e2e9-41ae-9cc4-95e4cfaded32","system_id":"levelo_inurba_marseille","lat":43.29042,"lon":5.38642,"is_reserved":false,"is_disabled":false,"rental_uris":{"android":"levelo://app?vid=3110c5b5-e2e9-41ae-9cc4-95e4cfaded32","ios":"levelo://app?vid=3110c5b5-e2e9-41ae-9cc4-95e4cfaded32"},"vehicle_type_id":"4","last_reported":1759172846,"current_range_meters":14800,"station_id":"ce4bh4p2rcd13ifvqe0g","pricing_plan_id":"cebpf4jnsgd1na2vs0mg"},{"bike_id":"cb8737f5-9915-4005-98ee-fd2aa1c38d9f","system_id":"levelo_inurba_marseille","lat":43.23184,"lon":5.39982,"is_reserved":false,"is_disabled":false,"rental_uris":{"android":"levelo://app?vid=cb8737f5-9915-4005-98ee-fd2aa1c38d9f","ios":"levelo://app?vid=cb8737f5-9915-4005-98ee-fd2aa1c38d9f"},"vehicle_type_id":"4","last_reported":1759172846,"current_range_meters":14800,"station_id":"ce4bhn12rcd13ifvqgqg","pricing_plan_id":"cebpf4jnsgd1na2vs0mg"},{"bike_id":"00b3c5d5-9ad5-4872-b372-089fa3a04914","system_id":"levelo_inurba_marseille","lat":43.286376,"lon":5.354934,"is_reserved":false,"is_disabled":false,"rental_uris":{"android":"levelo://app?vid=00b3c5d5-9ad5-4872-b372-089fa3a04914","ios":"levelo://app?vid=00b3c5d5-9ad5-4872-b372-089fa3a04914"},"vehicle_type_id":"4","last_reported":1759172846,"current_range_meters":14800,"station_id":"","pricing_plan_id":"cebpf4jnsgd1na2vs0mg"},{"bike_id":"f4e169e6-32e3-46ca-8c44-dd2d245fa722","system_id":"levelo_inurba_marseille","lat":43.29786,"lon":5.39348,"is_reserved":false,"is_disabled":false,"rental_uris":{"android":"levelo://app?vid=f4e169e6-32e3-46ca-8c44-dd2d245fa722","ios":"levelo://app?vid=f4e169e6-32e3-46ca-8c44-dd2d245fa722"},"vehicle_type_id":"4","last_reported":1759172846,"current_range_meters":14800,"station_id":"chh1huq6cuj3fo74tm60","pricing_plan_id":"cebpf4jnsgd1na2vs0mg"},{"bike_id":"e4208e71-ee3c-4399-9ff3-1be2fa5a0630","system_id":"levelo_inurba_marseille","lat":43.24388,"lon":5.37068,"is_reserved":false,"is_disabled":false,"rental_uris":{"android":"levelo://app?vid=e4208e71-ee3c-4399-9ff3-1be2fa5a0630","ios":"levelo://app?vid=e4208e71-ee3c-4399-9ff3-1be2fa5a0630"},"vehicle_type_id":"4","last_reported":1759172846,"current_range_meters":14800,"station_id":"ce4bhhh2rcd13ifvqfk0","pricing_plan_id":"cebpf4jnsgd1na2vs0mg"},{"bike_id":"92662833-c6ac-4b02-b7df-1638b54b1972","system_id":"levelo_inurba_marseille","lat":43.33742,"lon":5.37449,"is_reserved":false,"is_disabled":false,"rental_uris":{"android":"levelo://app?vid=92662833-c6ac-4b02-b7df-1638b54b1972","ios":"levelo://app?vid=92662833-c6ac-4b02-b7df-1638b54b1972"},"vehicle_type_id":"4","last_reported":1759172846,"current_range_meters":14800,"station_id":"","pricing_plan_id":"cebpf4jnsgd1na2vs0mg"},{"bike_id":"f8d78e5f-60e1-4623-939f-49e76ff16505","system_id":"levelo_inurba_marseille","lat":43.33742,"lon":5.37448,"is_reserved":false,"is_disabled":false,"rental_uris":{"android":"levelo://app?vid=f8d78e5f-60e1-4623-939f-49e76ff16505","ios":"levelo://app?vid=f8d78e5f-60e1-4623-939f-49e76ff16505"},"vehicle_type_id":"4","last_reported":1759172846,"current_range_meters":14800,"station_id":"","pricing_plan_id":"cebpf4jnsgd1na2vs0mg"},{"bike_id":"03f32f64-0404-4a20-9139-200484afc1be","system_id":"levelo_inurba_marseille","lat":43.29571,"lon":5.39992,"is_reserved":false,"is_disabled":false,"rental_uris":{"android":"levelo://app?vid=03f32f64-0404-4a20-9139-200484afc1be","ios":"levelo://app?vid=03f32f64-0404-4a20-9139-200484afc1be"},"vehicle_type_id":"4","last_reported":1759172846,"current_range_meters":15200,"station_id":"ce4bh312rcd13ifvqdj0","pricing_plan_id":"cebpf4jnsgd1na2vs0mg"},{"bike_id":"044920dd-d539-4b28-a284-f3f6330313ab","system_id":"levelo_inurba_marseille","lat":43.28088,"lon":5.39658,"is_reserved":false,"is_disabled":false,"rental_uris":{"android":"levelo://app?vid=044920dd-d539-4b28-a284-f3f6330313ab","ios":"levelo://app?vid=044920dd-d539-4b28-a284-f3f6330313ab"},"vehicle_type_id":"4","last_reported":1759172846,"current_range_meters":15200,"station_id":"ce4bho12rcd13ifvqh2g","pricing_plan_id":"cebpf4jnsgd1na2vs0mg"},{"bike_id":"1f05ab47-bda3-411a-921d-9f21cd784300","system_id":"levelo_inurba_marseille","lat":43.28349,"lon":5.381,"is_reserved":false,"is_disabled":false,"rental_uris":{"android":"levelo://app?vid=1f05ab47-bda3-411a-921d-9f21cd784300","ios":"levelo://app?vid=1f05ab47-bda3-411a-921d-9f21cd784300"},"vehicle_type_id":"4","last_reported":1759172846,"current_range_meters":15200,"station_id":"ce4bh412rcd13ifvqdr0","pricing_plan_id":"cebpf4jnsgd1na2vs0mg"},{"bike_id":"1c5bce0b-29c8-4062-ba0d-d258ad7d76bc","system_id":"levelo_inurba_marseille","lat":43.28104,"lon":5.37847,"is_reserved":false,"is_disabled":false,"rental_uris":{"android":"levelo://app?vid=1c5bce0b-29c8-4062-ba0d-d258ad7d76bc","ios":"levelo://app?vid=1c5bce0b-29c8-4062-ba0d-d258ad7d76bc"},"vehicle_type_id":"4","last_reported":1759172846,"current_range_meters":15200,"station_id":"ce4bha12rcd13ifvqee0","pricing_plan_id":"cebpf4jnsgd1na2vs0mg"},{"bike_id":"180f9710-c4cf-40c2-9a95-b8c1ad89aeae","system_id":"levelo_inurba_marseille","lat":43.29558,"lon":5.375,"is_reserved":false,"is_disabled":true,"rental_uris":{"android":"levelo://app?vid=180f9710-c4cf-40c2-9a95-b8c1ad89aeae","ios":"levelo://app?vid=180f9710-c4cf-40c2-9a95-b8c1ad89aeae"},"vehicle_type_id":"4","last_reported":1759172846,"current_range_meters":15200,"station_id":"ce4bgh92rcd13ifvqb50","pricing_plan_id":"cebpf4jnsgd1na2vs0mg"},{"bike_id":"d515a3cf-29dc-4e14-ae7f-af1536e8a0a3","system_id":"levelo_inurba_marseille","lat":43.27085,"lon":5.42275,"is_reserved":false,"is_disabled":false,"rental_uris":{"android":"levelo://app?vid=d515a3cf-29dc-4e14-ae7f-af1536e8a0a3","ios":"levelo://app?vid=d515a3cf-29dc-4e14-ae7f-af1536e8a0a3"},"vehicle_type_id":"4","last_reported":1759172846,"current_range_meters":15200,"station_id":"ce4bhk92rcd13ifvqgb0","pricing_plan_id":"cebpf4jnsgd1na2vs0mg"},{"bike_id":"738a51a6-02d0-4def-8f3f-9c82f6a6dd05","system_id":"levelo_inurba_marseille","lat":43.32358,"lon":5.36725,"is_reserved":false,"is_disabled":false,"rental_uris":{"android":"levelo://app?vid=738a51a6-02d0-4def-8f3f-9c82f6a6dd05","ios":"levelo://app?vid=738a51a6-02d0-4def-8f3f-9c82f6a6dd05"},"vehicle_type_id":"4","last_reported":1759172846,"current_range_meters":15200,"station_id":"ce4bhsh2rcd13ifvqi2g","pricing_plan_id":"cebpf4jnsgd1na2vs0mg"},{"bike_id":"2ddf6f61-f409-4b65-a5a3-73ea7eb8819c","system_id":"levelo_inurba_marseille","lat":43.31179,"lon":5.38726,"is_reserved":false,"is_disabled":false,"rental_uris":{"android":"levelo://app?vid=2ddf6f61-f409-4b65-a5a3-73ea7eb8819c","ios":"levelo://app?vid=2ddf6f61-f409-4b65-a5a3-73ea7eb8819c"},"vehicle_type_id":"4","last_reported":1759172846,"current_range_meters":15200,"station_id":"ce4bgv12rcd13ifvqcp0","pricing_plan_id":"cebpf4jnsgd1na2vs0mg"},{"bike_id":"8f8ec1bb-1c65-4822-a12b-5489ea630dba","system_id":"levelo_inurba_marseille","lat":43.29637,"lon":5.406,"is_reserved":false,"is_disabled":false,"rental_uris":{"android":"levelo://app?vid=8f8ec1bb-1c65-4822-a12b-5489ea630dba","ios":"levelo://app?vid=8f8ec1bb-1c65-4822-a12b-5489ea630dba"},"vehicle_type_id":"4","last_reported":1759172846,"current_range_meters":15200,"station_id":"ce4bh0h2rcd13ifvqd60","pricing_plan_id":"cebpf4jnsgd1na2vs0mg"},{"bike_id":"56ca0258-bee9-4eb2-b3c5-63b5cd0b9e67","system_id":"levelo_inurba_marseille","lat":43.33737,"lon":5.37445,"is_reserved":false,"is_disabled":false,"rental_uris":{"android":"levelo://app?vid=56ca0258-bee9-4eb2-b3c5-63b5cd0b9e67","ios":"levelo://app?vid=56ca0258-bee9-4eb2-b3c5-63b5cd0b9e67"},"vehicle_type_id":"4","last_reported":1759172846,"current_range_meters":15200,"station_id":"","pricing_plan_id":"cebpf4jnsgd1na2vs0mg"},{"bike_id":"3dda0a6b-81c8-466a-a8af-b2f519ed9b93","system_id":"levelo_inurba_marseille","lat":43.27614,"lon":5.36118,"is_reserved":false,"is_disabled":false,"rental_uris":{"android":"levelo://app?vid=3dda0a6b-81c8-466a-a8af-b2f519ed9b93","ios":"levelo://app?vid=3dda0a6b-81c8-466a-a8af-b2f519ed9b93"},"vehicle_type_id":"4","last_reported":1759172846,"current_range_meters":15200,"station_id":"ce4bgj92rcd13ifvqbe0","pricing_plan_id":"cebpf4jnsgd1na2vs0mg"},{"bike_id":"be5d5608-9ee4-4caf-bc59-ada223a9d1b2","system_id":"levelo_inurba_marseille","lat":43.292961,"lon":5.374632,"is_reserved":false,"is_disabled":false,"rental_uris":{"android":"levelo://app?vid=be5d5608-9ee4-4caf-bc59-ada223a9d1b2","ios":"levelo://app?vid=be5d5608-9ee4-4caf-bc59-ada223a9d1b2"},"vehicle_type_id":"4","last_reported":1759172846,"current_range_meters":16000,"station_id":"ce4bgi12rcd13ifvqb70","pricing_plan_id":"cebpf4jnsgd1na2vs0mg"},{"bike_id":"0aba4fe3-5dca-4d79-8b9d-2fc77d6e7d70","system_id":"levelo_inurba_marseille","lat":43.28418,"lon":5.349815,"is_reserved":false,"is_disabled":false,"rental_uris":{"android":"levelo://app?vid=0aba4fe3-5dca-4d79-8b9d-2fc77d6e7d70","ios":"levelo://app?vid=0aba4fe3-5dca-4d79-8b9d-2fc77d6e7d70"},"vehicle_type_id":"4","last_reported":1759172846,"current_range_meters":16000,"station_id":"","pricing_plan_id":"cebpf4jnsgd1na2vs0mg"},{"bike_id":"96520869-d013-4e0c-a355-f7bbd728ba84","system_id":"levelo_inurba_marseille","lat":43.323495,"lon":5.367092,"is_reserved":false,"is_disabled":false,"rental_uris":{"android":"levelo://app?vid=96520869-d013-4e0c-a355-f7bbd728ba84","ios":"levelo://app?vid=96520869-d013-4e0c-a355-f7bbd728ba84"},"vehicle_type_id":"4","last_reported":1759172846,"current_range_meters":16000,"station_id":"ce4bhsh2rcd13ifvqi2g","pricing_plan_id":"cebpf4jnsgd1na2vs0mg"},{"bike_id":"716ec372-1e32-4564-8f0e-da5da7c66c4a","system_id":"levelo_inurba_marseille","lat":43.25742,"lon":5.4111,"is_reserved":false,"is_disabled":true,"rental_uris":{"android":"levelo://app?vid=716ec372-1e32-4564-8f0e-da5da7c66c4a","ios":"levelo://app?vid=716ec372-1e32-4564-8f0e-da5da7c66c4a"},"vehicle_type_id":"4","last_reported":1759172846,"current_range_meters":16000,"station_id":"ce4bhkp2rcd13ifvqgd0","pricing_plan_id":"cebpf4jnsgd1na2vs0mg"},{"bike_id":"8e0e8ea4-2f5b-458c-9b0a-66deb7cd3b4b","system_id":"levelo_inurba_marseille","lat":43.29261,"lon":5.3845,"is_reserved":false,"is_disabled":false,"rental_uris":{"android":"levelo://app?vid=8e0e8ea4-2f5b-458c-9b0a-66deb7cd3b4b","ios":"levelo://app?vid=8e0e8ea4-2f5b-458c-9b0a-66deb7cd3b4b"},"vehicle_type_id":"4","last_reported":1759172846,"current_range_meters":16000,"station_id":"ce4bh692rcd13ifvqea0","pricing_plan_id":"cebpf4jnsgd1na2vs0mg"},{"bike_id":"e17857ef-9057-4d30-b1e9-4ab6ead4c304","system_id":"levelo_inurba_marseille","lat":43.246565,"lon":5.388893,"is_reserved":false,"is_disabled":true,"rental_uris":{"android":"levelo://app?vid=e17857ef-9057-4d30-b1e9-4ab6ead4c304","ios":"levelo://app?vid=e17857ef-9057-4d30-b1e9-4ab6ead4c304"},"vehicle_type_id":"4","last_reported":1759172846,"current_range_meters":16000,"station_id":"ce4bhg12rcd13ifvqf60","pricing_plan_id":"cebpf4jnsgd1na2vs0mg"},{"bike_id":"5cf25d75-ba09-4433-97e9-19303117d241","system_id":"levelo_inurba_marseille","lat":43.29801,"lon":5.38099,"is_reserved":false,"is_disabled":false,"rental_uris":{"android":"levelo://app?vid=5cf25d75-ba09-4433-97e9-19303117d241","ios":"levelo://app?vid=5cf25d75-ba09-4433-97e9-19303117d241"},"vehicle_type_id":"4","last_reported":1759172846,"current_range_meters":16000,"station_id":"ce4bgip2rcd13ifvqbb0","pricing_plan_id":"cebpf4jnsgd1na2vs0mg"},{"bike_id":"0ad7bfcb-5365-46c5-8d29-4860daebb1c2","system_id":"levelo_inurba_marseille","lat":43.27998,"lon":5.41671,"is_reserved":false,"is_disabled":false,"rental_uris":{"android":"levelo://app?vid=0ad7bfcb-5365-46c5-8d29-4860daebb1c2","ios":"levelo://app?vid=0ad7bfcb-5365-46c5-8d29-4860daebb1c2"},"vehicle_type_id":"4","last_reported":1759172846,"current_range_meters":16000,"station_id":"ce4bho12rcd13ifvqh1g","pricing_plan_id":"cebpf4jnsgd1na2vs0mg"},{"bike_id":"a3eeb075-923a-4788-96f1-d0b7f025aeb7","system_id":"levelo_inurba_marseille","lat":43.29167,"lon":5.37182,"is_reserved":false,"is_disabled":false,"rental_uris":{"android":"levelo://app?vid=a3eeb075-923a-4788-96f1-d0b7f025aeb7","ios":"levelo://app?vid=a3eeb075-923a-4788-96f1-d0b7f025aeb7"},"vehicle_type_id":"4","last_reported":1759172846,"current_range_meters":16000,"station_id":"ce4bha92rcd13ifvqeh0","pricing_plan_id":"cebpf4jnsgd1na2vs0mg"},{"bike_id":"05003c91-a305-4a33-a438-1d7ddd3d026b","system_id":"levelo_inurba_marseille","lat":43.25331,"lon":5.42152,"is_reserved":false,"is_disabled":false,"rental_uris":{"android":"levelo://app?vid=05003c91-a305-4a33-a438-1d7ddd3d026b","ios":"levelo://app?vid=05003c91-a305-4a33-a438-1d7ddd3d026b"},"vehicle_type_id":"4","last_reported":1759172846,"current_range_meters":16000,"station_id":"st_d2m65c5bi1j21697t3ng","pricing_plan_id":"cebpf4jnsgd1na2vs0mg"},{"bike_id":"48acb65d-dece-4830-a219-6c7b2de70bd6","system_id":"levelo_inurba_marseille","lat":43.2843,"lon":5.39176,"is_reserved":false,"is_disabled":false,"rental_uris":{"android":"levelo://app?vid=48acb65d-dece-4830-a219-6c7b2de70bd6","ios":"levelo://app?vid=48acb65d-dece-4830-a219-6c7b2de70bd6"},"vehicle_type_id":"4","last_reported":1759172846,"current_range_meters":16000,"station_id":"ce4bhoh2rcd13ifvqh5g","pricing_plan_id":"cebpf4jnsgd1na2vs0mg"},{"bike_id":"961d9ac8-e04a-41ed-b46b-f19e8d2ebee0","system_id":"levelo_inurba_marseille","lat":43.29976,"lon":5.37181,"is_reserved":false,"is_disabled":false,"rental_uris":{"android":"levelo://app?vid=961d9ac8-e04a-41ed-b46b-f19e8d2ebee0","ios":"levelo://app?vid=961d9ac8-e04a-41ed-b46b-f19e8d2ebee0"},"vehicle_type_id":"4","last_reported":1759172846,"current_range_meters":16000,"station_id":"ce4bgr92rcd13ifvqc7g","pricing_plan_id":"cebpf4jnsgd1na2vs0mg"},{"bike_id":"fb78d8d5-f814-4bc4-8cff-5f3f388833d8","system_id":"levelo_inurba_marseille","lat":43.29036,"lon":5.38639,"is_reserved":false,"is_disabled":false,"rental_uris":{"android":"levelo://app?vid=fb78d8d5-f814-4bc4-8cff-5f3f388833d8","ios":"levelo://app?vid=fb78d8d5-f814-4bc4-8cff-5f3f388833d8"},"vehicle_type_id":"4","last_reported":1759172846,"current_range_meters":16000,"station_id":"ce4bh4p2rcd13ifvqe0g","pricing_plan_id":"cebpf4jnsgd1na2vs0mg"},{"bike_id":"03fa4704-fb06-466a-bacd-913cbd558a3b","system_id":"levelo_inurba_marseille","lat":43.2814,"lon":5.42646,"is_reserved":false,"is_disabled":false,"rental_uris":{"android":"levelo://app?vid=03fa4704-fb06-466a-bacd-913cbd558a3b","ios":"levelo://app?vid=03fa4704-fb06-466a-bacd-913cbd558a3b"},"vehicle_type_id":"4","last_reported":1759172846,"current_range_meters":16400,"station_id":"ce4bhnh2rcd13ifvqgug","pricing_plan_id":"cebpf4jnsgd1na2vs0mg"},{"bike_id":"b797ad5f-4e9a-4643-931a-5694bb29572e","system_id":"levelo_inurba_marseille","lat":43.289254,"lon":5.38407,"is_reserved":false,"is_disabled":false,"rental_uris":{"android":"levelo://app?vid=b797ad5f-4e9a-4643-931a-5694bb29572e","ios":"levelo://app?vid=b797ad5f-4e9a-4643-931a-5694bb29572e"},"vehicle_type_id":"4","last_reported":1759172846,"current_range_meters":16400,"station_id":"ce4bh612rcd13ifvqe6g","pricing_plan_id":"cebpf4jnsgd1na2vs0mg"},{"bike_id":"874e6cfc-a27a-4c36-98eb-f458ea8c9ee2","system_id":"levelo_inurba_marseille","lat":43.30794,"lon":5.38173,"is_reserved":false,"is_disabled":false,"rental_uris":{"android":"levelo://app?vid=874e6cfc-a27a-4c36-98eb-f458ea8c9ee2","ios":"levelo://app?vid=874e6cfc-a27a-4c36-98eb-f458ea8c9ee2"},"vehicle_type_id":"4","last_reported":1759172846,"current_range_meters":16000,"station_id":"ce4bgt12rcd13ifvqce0","pricing_plan_id":"cebpf4jnsgd1na2vs0mg"},{"bike_id":"86203e6a-44fb-4b68-bfde-80b28ea19ca9","system_id":"levelo_inurba_marseille","lat":43.28648,"lon":5.36347,"is_reserved":false,"is_disabled":false,"rental_uris":{"android":"levelo://app?vid=86203e6a-44fb-4b68-bfde-80b28ea19ca9","ios":"levelo://app?vid=86203e6a-44fb-4b68-bfde-80b28ea19ca9"},"vehicle_type_id":"4","last_reported":1759172846,"current_range_meters":16400,"station_id":"ce4bhah2rcd13ifvqej0","pricing_plan_id":"cebpf4jnsgd1na2vs0mg"},{"bike_id":"f44df0c8-3c0a-4103-982e-900169d96e81","system_id":"levelo_inurba_marseille","lat":43.32104,"lon":5.36784,"is_reserved":false,"is_disabled":false,"rental_uris":{"android":"levelo://app?vid=f44df0c8-3c0a-4103-982e-900169d96e81","ios":"levelo://app?vid=f44df0c8-3c0a-4103-982e-900169d96e81"},"vehicle_type_id":"4","last_reported":1759172846,"current_range_meters":16400,"station_id":"ce4bhrh2rcd13ifvqhug","pricing_plan_id":"cebpf4jnsgd1na2vs0mg"},{"bike_id":"13604148-437a-4148-9ed9-019ca4e03ec3","system_id":"levelo_inurba_marseille","lat":43.24642,"lon":5.431527,"is_reserved":false,"is_disabled":false,"rental_uris":{"android":"levelo://app?vid=13604148-437a-4148-9ed9-019ca4e03ec3","ios":"levelo://app?vid=13604148-437a-4148-9ed9-019ca4e03ec3"},"vehicle_type_id":"4","last_reported":1759172846,"current_range_meters":16400,"station_id":"st_d2m6c4gdas8pm72e190g","pricing_plan_id":"cebpf4jnsgd1na2vs0mg"},{"bike_id":"211afd9f-58b0-436e-9b6b-1acbadc34392","system_id":"levelo_inurba_marseille","lat":43.32308,"lon":5.36662,"is_reserved":false,"is_disabled":false,"rental_uris":{"android":"levelo://app?vid=211afd9f-58b0-436e-9b6b-1acbadc34392","ios":"levelo://app?vid=211afd9f-58b0-436e-9b6b-1acbadc34392"},"vehicle_type_id":"4","last_reported":1759172846,"current_range_meters":16400,"station_id":"ce4bhsh2rcd13ifvqi2g","pricing_plan_id":"cebpf4jnsgd1na2vs0mg"},{"bike_id":"f56285e1-1800-4825-881d-40265a87b7af","system_id":"levelo_inurba_marseille","lat":43.30428,"lon":5.38896,"is_reserved":false,"is_disabled":false,"rental_uris":{"android":"levelo://app?vid=f56285e1-1800-4825-881d-40265a87b7af","ios":"levelo://app?vid=f56285e1-1800-4825-881d-40265a87b7af"},"vehicle_type_id":"4","last_reported":1759172846,"current_range_meters":16000,"station_id":"ce4bgk12rcd13ifvqbi0","pricing_plan_id":"cebpf4jnsgd1na2vs0mg"},