{"last_updated":1752164027,"ttl":60,"version":"2.2","data":{"bikes":[{"bike_id":"cd20cfea-2f2f-444d-a882-a49b6cf370eb","system_id":"levelo_inurba_marseille","lat":43.337444,"lon":5.374475,"is_reserved":false,"is_disabled":true,"rental_uris":{"android":"levelo://app?vid=cd20cfea-2f2f-444d-a882-a49b6cf370eb","ios":"levelo://app?vid=cd20cfea-2f2f-444d-a882-a49b6cf370eb"},"vehicle_type_id":"4","last_reported":1752164027,"current_range_meters":0,"station_id":"","pricing_plan_id":"cebpf4jnsgd1na2vs0mg"},{"bike_id":"3da29fb8-fc97-44c6-b9ac-31dd456b2fd4","system_id":"levelo_inurba_marseille","lat":43.33771,"lon":5.37424,"is_reserved":false,"is_disabled":true,"rental_uris":{"android":"levelo://app?vid=3da29fb8-fc97-44c6-b9ac-31dd456b2fd4","ios":"levelo://app?vid=3da29fb8-fc97-44c6-b9ac-31dd456b2fd4"},"vehicle_type_id":"4","last_reported":1752164027,"current_range_meters":0,"station_id":"","pricing_plan_id":"cebpf4jnsgd1na2vs0mg"},{"bike_id":"01861ad8-a8d7-4be6-816e-651927c87584","system_id":"levelo_inurba_marseille","lat":43.33751,"lon":5.37456,"is_reserved":false,"is_disabled":true,"rental_uris":{"android":"levelo://app?vid=01861ad8-a8d7-4be6-816e-651927c87584","ios":"levelo://app?vid=01861ad8-a8d7-4be6-816e-651927c87584"},"vehicle_type_id":"4","last_reported":1752164027,"current_range_meters":0,"station_id":"","pricing_plan_id":"cebpf4jnsgd1na2vs0mg"},{"bike_id":"37f2becd-23f9-4f13-a711-38b8024eeec7","system_id":"levelo_inurba_marseille","lat":43.33768,"lon":5.37516,"is_reserved":false,"is_disabled":true,"rental_uris":{"android":"levelo://app?vid=37f2becd-23f9-4f13-a711-38b8024eeec7","ios":"levelo://app?vid=37f2becd-23f9-4f13-a711-38b8024eeec7"},"vehicle_type_id":"4","last_reported":1752164027,"current_range_meters":0,"station_id":"","pricing_plan_id":"cebpf4jnsgd1na2vs0mg"},{"bike_id":"364ed917-f0fc-43f3-adba-12070344c36e","system_id":"levelo_inurba_marseille","lat":43.30518,"lon":5.36527,"is_reserved":false,"is_disabled":true,"rental_uris":{"android":"levelo://app?vid=364ed917-f0fc-43f3-adba-12070344c36e","ios":"levelo://app?vid=364ed917-f0fc-43f3-adba-12070344c36e"},"vehicle_type_id":"4","last_reported":1752164027,"current_range_meters":0,"station_id":"","pricing_plan_id":"cebpf4jnsgd1na2vs0mg"},{"bike_id":"53b1a31e-8ada-40c0-8d64-113a81233c84","system_id":"levelo_inurba_marseille","lat":43.364093,"lon":5.319281,"is_reserved":false,"is_disabled":true,"rental_uris":{"android":"levelo://app?vid=53b1a31e-8ada-40c0-8d64-113a81233c84","ios":"levelo://app?vid=53b1a31e-8ada-40c0-8d64-113a81233c84"},"vehicle_type_id":"4","last_reported":1752164027,"current_range_meters":0,"station_id":"","pricing_plan_id":"cebpf4jnsgd1na2vs0mg"},{"bike_id":"db841109-9b56-4777-86e2-06fbf4ef1649","system_id":"levelo_inurba_marseille","lat":43.311276,"lon":5.397198,"is_reserved":false,"is_disabled":true,"rental_uris":{"android":"levelo://app?vid=db841109-9b56-4777-86e2-06fbf4ef1649","ios":"levelo://app?vid=db841109-9b56-4777-86e2-06fbf4ef1649"},"vehicle_type_id":"4","last_reported":1752164027,"current_range_meters":0,"station_id":"","pricing_plan_id":"cebpf4jnsgd1na2vs0mg"},{"bike_id":"09b81abb-a573-4712-b6a9-ad4852d59d17","system_id":"levelo_inurba_marseille","lat":43.30141,"lon":5.37425,"is_reserved":false,"is_disabled":true,"rental_uris":{"android":"levelo://app?vid=09b81abb-a573-4712-b6a9-ad4852d59d17","ios":"levelo://app?vid=09b81abb-a573-4712-b6a9-ad4852d59d17"},"vehicle_type_id":"4","last_reported":1752164027,"current_range_meters":0,"station_id":"ce4bgs92rcd13ifvqcc0","pricing_plan_id":"cebpf4jnsgd1na2vs0mg"},{"bike_id":"8c722d7b-4bd7-48ec-bd7b-eb658c30b968","system_id":"levelo_inurba_marseille","lat":43.30888,"lon":5.39666,"is_reserved":false,"is_disabled":true,"rental_uris":{"android":"levelo://app?vid=8c722d7b-4bd7-48ec-bd7b-eb658c30b968","ios":"levelo://app?vid=8c722d7b-4bd7-48ec-bd7b-eb658c30b968"},"vehicle_type_id":"4","last_reported":1752164027,"current_range_meters":0,"station_id":"ce4bh012rcd13ifvqcv0","pricing_plan_id":"cebpf4jnsgd1na2vs0mg"},{"bike_id":"aafb4677-382a-40a8-bd5e-2a4c37631722","system_id":"levelo_inurba_marseille","lat":43.28939,"lon":5.3664,"is_reserved":false,"is_disabled":true,"rental_uris":{"android":"levelo://app?vid=aafb4677-382a-40a8-bd5e-2a4c37631722","ios":"levelo://app?vid=aafb4677-382a-40a8-bd5e-2a4c37631722"},"vehicle_type_id":"4","last_reported":1752164027,"current_range_meters":0,"station_id":"ce4bhap2rcd13ifvqek0","pricing_plan_id":"cebpf4jnsgd1na2vs0mg"},{"bike_id":"435bcb1c-89db-4f7f-a553-a4b212517c4f","system_id":"levelo_inurba_marseille","lat":43.28615,"lon":5.35108,"is_reserved":false,"is_disabled":true,"rental_uris":{"android":"levelo://app?vid=435bcb1c-89db-4f7f-a553-a4b212517c4f","ios":"levelo://app?vid=435bcb1c-89db-4f7f-a553-a4b212517c4f"},"vehicle_type_id":"4","last_reported":1752164027,"current_range_meters":0,"station_id":"ce4bhch2rcd13ifvqeug","pricing_plan_id":"cebpf4jnsgd1na2vs0mg"},{"bike_id":"d3f8ab9d-270d-468d-8e22-a718a8a0bc60","system_id":"levelo_inurba_marseille","lat":43.24176,"lon":5.39725,"is_reserved":false,"is_disabled":true,"rental_uris":{"android":"levelo://app?vid=d3f8ab9d-270d-468d-8e22-a718a8a0bc60","ios":"levelo://app?vid=d3f8ab9d-270d-468d-8e22-a718a8a0bc60"},"vehicle_type_id":"4","last_reported":1752164027,"current_range_meters":0,"station_id":"ce4bhn12rcd13ifvqgpg","pricing_plan_id":"cebpf4jnsgd1na2vs0mg"},{"bike_id":"50d29d87-be07-4be0-8b6b-4da41d4d3fab","system_id":"levelo_inurba_marseille","lat":43.31084,"lon":5.42432,"is_reserved":false,"is_disabled":true,"rental_uris":{"android":"levelo://app?vid=50d29d87-be07-4be0-8b6b-4da41d4d3fab","ios":"levelo://app?vid=50d29d87-be07-4be0-8b6b-4da41d4d3fab"},"vehicle_type_id":"4","last_reported":1752164027,"current_range_meters":0,"station_id":"ce4bhp92rcd13ifvqhag","pricing_plan_id":"cebpf4jnsgd1na2vs0mg"},{"bike_id":"1ea07c30-7637-4836-8280-b70950b610b5","system_id":"levelo_inurba_marseille","lat":43.225037,"lon":5.347858,"is_reserved":false,"is_disabled":true,"rental_uris":{"android":"levelo://app?vid=1ea07c30-7637-4836-8280-b70950b610b5","ios":"levelo://app?vid=1ea07c30-7637-4836-8280-b70950b610b5"},"vehicle_type_id":"4","last_reported":1752164027,"current_range_meters":0,"station_id":"st_cvj5dfep6f1abm77gieg","pricing_plan_id":"cebpf4jnsgd1na2vs0mg"},{"bike_id":"85faeee0-fd7a-45cd-844e-112fd79aafee","system_id":"levelo_inurba_marseille","lat":43.30916,"lon":5.40139,"is_reserved":false,"is_disabled":true,"rental_uris":{"android":"levelo://app?vid=85faeee0-fd7a-45cd-844e-112fd79aafee","ios":"levelo://app?vid=85faeee0-fd7a-45cd-844e-112fd79aafee"},"vehicle_type_id":"4","last_reported":1752164027,"current_range_meters":400,"station_id":"ce4bgvp2rcd13ifvqct0","pricing_plan_id":"cebpf4jnsgd1na2vs0mg"},{"bike_id":"0e5d4a58-e880-46b2-8e92-d2d6442451e2","system_id":"levelo_inurba_marseille","lat":43.28585,"lon":5.39494,"is_reserved":false,"is_disabled":true,"rental_uris":{"android":"levelo://app?vid=0e5d4a58-e880-46b2-8e92-d2d6442451e2","ios":"levelo://app?vid=0e5d4a58-e880-46b2-8e92-d2d6442451e2"},"vehicle_type_id":"4","last_reported":1752164027,"current_range_meters":400,"station_id":"ce4bh292rcd13ifvqdg0","pricing_plan_id":"cebpf4jnsgd1na2vs0mg"},{"bike_id":"1160cc99-0ae4-48f4-ac37-faaf386a2336","system_id":"levelo_inurba_marseille","lat":43.26209,"lon":5.37445,"is_reserved":false,"is_disabled":true,"rental_uris":{"android":"levelo://app?vid=1160cc99-0ae4-48f4-ac37-faaf386a2336","ios":"levelo://app?vid=1160cc99-0ae4-48f4-ac37-faaf386a2336"},"vehicle_type_id":"4","last_reported":1752164027,"current_range_meters":800,"station_id":"ce4bhgp2rcd13ifvqfc0","pricing_plan_id":"cebpf4jnsgd1na2vs0mg"},{"bike_id":"888522e3-39b6-4ff3-ad74-ff6c6f771157","system_id":"levelo_inurba_marseille","lat":43.294937,"lon":5.402702,"is_reserved":false,"is_disabled":true,"rental_uris":{"android":"levelo://app?vid=888522e3-39b6-4ff3-ad74-ff6c6f771157","ios":"levelo://app?vid=888522e3-39b6-4ff3-ad74-ff6c6f771157"},"vehicle_type_id":"4","last_reported":1752164027,"current_range_meters":1600,"station_id":"","pricing_plan_id":"cebpf4jnsgd1na2vs0mg"},{"bike_id":"b5c03230-b7da-49aa-b997-bc51b5b428b9","system_id":"levelo_inurba_marseille","lat":43.30936,"lon":5.40143,"is_reserved":false,"is_disabled":true,"rental_uris":{"android":"levelo://app?vid=b5c03230-b7da-49aa-b997-bc51b5b428b9","ios":"levelo://app?vid=b5c03230-b7da-49aa-b997-bc51b5b428b9"},"vehicle_type_id":"4","last_reported":1752164027,"current_range_meters":1600,"station_id":"ce4bgvp2rcd13ifvqct0","pricing_plan_id":"cebpf4jnsgd1na2vs0mg"},{"bike_id":"d4eea5aa-0af1-4ffc-ab9c-683e94941ca4","system_id":"levelo_inurba_marseille","lat":43.313963,"lon":5.40276,"is_reserved":false,"is_disabled":true,"rental_uris":{"android":"levelo://app?vid=d4eea5aa-0af1-4ffc-ab9c-683e94941ca4","ios":"levelo://app?vid=d4eea5aa-0af1-4ffc-ab9c-683e94941ca4"},"vehicle_type_id":"4","last_reported":1752164027,"current_range_meters":1600,"station_id":"ce4bh092rcd13ifvqd30","pricing_plan_id":"cebpf4jnsgd1na2vs0mg"},{"bike_id":"7d881fa7-b6b6-4fe0-ad6f-59016feddfa6","system_id":"levelo_inurba_marseille","lat":43.26057,"lon":5.39396,"is_reserved":false,"is_disabled":true,"rental_uris":{"android":"levelo://app?vid=7d881fa7-b6b6-4fe0-ad6f-59016feddfa6","ios":"levelo://app?vid=7d881fa7-b6b6-4fe0-ad6f-59016feddfa6"},"vehicle_type_id":"4","last_reported":1752164027,"current_range_meters":1600,"station_id":"ce4bhh92rcd13ifvqfj0","pricing_plan_id":"cebpf4jnsgd1na2vs0mg"},{"bike_id":"fe557580-7d40-428c-bab9-732dac0da7f1","system_id":"levelo_inurba_marseille","lat":43.21208,"lon":5.35056,"is_reserved":false,"is_disabled":true,"rental_uris":{"android":"levelo://app?vid=fe557580-7d40-428c-bab9-732dac0da7f1","ios":"levelo://app?vid=fe557580-7d40-428c-bab9-732dac0da7f1"},"vehicle_type_id":"4","last_reported":1752164027,"current_range_meters":1600,"station_id":"st_cvj6sg6p6f1abm77japg","pricing_plan_id":"cebpf4jnsgd1na2vs0mg"},{"bike_id":"d72de211-9769-4ff1-a2a9-331535b05cfc","system_id":"levelo_inurba_marseille","lat":43.24548,"lon":5.39523,"is_reserved":false,"is_disabled":true,"rental_uris":{"android":"levelo://app?vid=d72de211-9769-4ff1-a2a9-331535b05cfc","ios":"levelo://app?vid=d72de211-9769-4ff1-a2a9-331535b05cfc"},"vehicle_type_id":"4","last_reported":1752164027,"current_range_meters":2000,"station_id":"ce4bhlp2rcd13ifvqgjg","pricing_plan_id":"cebpf4jnsgd1na2vs0mg"},{"bike_id":"1a1f053e-c595-4ce2-8bd9-8671456e86d6","system_id":"levelo_inurba_marseille","lat":43.28622,"lon":5.35106,"is_reserved":false,"is_disabled":false,"rental_uris":{"android":"levelo://app?vid=1a1f053e-c595-4ce2-8bd9-8671456e86d6","ios":"levelo://app?vid=1a1f053e-c595-4ce2-8bd9-8671456e86d6"},"vehicle_type_id":"4","last_reported":1752164027,"current_range_meters":3200,"station_id":"ce4bhch2rcd13ifvqeug","pricing_plan_id":"cebpf4jnsgd1na2vs0mg"},{"bike_id":"d8a7b841-e975-444a-92cc-0b420c2934d7","system_id":"levelo_inurba_marseille","lat":43.30189,"lon":5.36616,"is_reserved":false,"is_disabled":false,"rental_uris":{"android":"levelo://app?vid=d8a7b841-e975-444a-92cc-0b420c2934d7","ios":"levelo://app?vid=d8a7b841-e975-444a-92cc-0b420c2934d7"},"vehicle_type_id":"4","last_reported":1752164027,"current_range_meters":3600,"station_id":"ce4bgrh2rcd13ifvqc8g","pricing_plan_id":"cebpf4jnsgd1na2vs0mg"},{"bike_id":"2835b2dd-963d-4f3d-83c0-0d84a1e775ce","system_id":"levelo_inurba_marseille","lat":43.2732,"lon":5.3908,"is_reserved":false,"is_disabled":false,"rental_uris":{"android":"levelo://app?vid=2835b2dd-963d-4f3d-83c0-0d84a1e775ce","ios":"levelo://app?vid=2835b2dd-963d-4f3d-83c0-0d84a1e775ce"},"vehicle_type_id":"4","last_reported":1752164027,"current_range_meters":3600,"station_id":"ce4bhgp2rcd13ifvqfe0","pricing_plan_id":"cebpf4jnsgd1na2vs0mg"},{"bike_id":"cb3c9081-1bb5-43ec-bdd3-83a3584d5bdc","system_id":"levelo_inurba_marseille","lat":43.28905,"lon":5.3664,"is_reserved":false,"is_disabled":false,"rental_uris":{"android":"levelo://app?vid=cb3c9081-1bb5-43ec-bdd3-83a3584d5bdc","ios":"levelo://app?vid=cb3c9081-1bb5-43ec-bdd3-83a3584d5bdc"},"vehicle_type_id":"4","last_reported":1752164027,"current_range_meters":4800,"station_id":"","pricing_plan_id":"cebpf4jnsgd1na2vs0mg"},{"bike_id":"8191a70f-b6af-40b1-b20e-685c41888a80","system_id":"levelo_inurba_marseille","lat":43.30599,"lon":5.37226,"is_reserved":false,"is_disabled":false,"rental_uris":{"android":"levelo://app?vid=8191a70f-b6af-40b1-b20e-685c41888a80","ios":"levelo://app?vid=8191a70f-b6af-40b1-b20e-685c41888a80"},"vehicle_type_id":"4","last_reported":1752164027,"current_range_meters":5600,"station_id":"ce4bgqh2rcd13ifvqc4g","pricing_plan_id":"cebpf4jnsgd1na2vs0mg"},{"bike_id":"dfefecd7-5fea-48f0-87b6-4ea4e9a26470","system_id":"levelo_inurba_marseille","lat":43.28421,"lon":5.34973,"is_reserved":false,"is_disabled":false,"rental_uris":{"android":"levelo://app?vid=dfefecd7-5fea-48f0-87b6-4ea4e9a26470","ios":"levelo://app?vid=dfefecd7-5fea-48f0-87b6-4ea4e9a26470"},"vehicle_type_id":"4","last_reported":1752164027,"current_range_meters":5600,"station_id":"ce4bhbh2rcd13ifvqepg","pricing_plan_id":"cebpf4jnsgd1na2vs0mg"},{"bike_id":"7912c7fd-9b96-4196-aff7-d7ec52f416cd","system_id":"levelo_inurba_marseille","lat":43.29572,"lon":5.39982,"is_reserved":false,"is_disabled":false,"rental_uris":{"android":"levelo://app?vid=7912c7fd-9b96-4196-aff7-d7ec52f416cd","ios":"levelo://app?vid=7912c7fd-9b96-4196-aff7-d7ec52f416cd"},"vehicle_type_id":"4","last_reported":1752164027,"current_range_meters":6000,"station_id":"ce4bh312rcd13ifvqdj0","pricing_plan_id":"cebpf4jnsgd1na2vs0mg"},{"bike_id":"70fb38eb-bc91-46b9-8331-ce03b841c330","system_id":"levelo_inurba_marseille","lat":43.27923,"lon":5.35341,"is_reserved":false,"is_disabled":false,"rental_uris":{"android":"levelo://app?vid=70fb38eb-bc91-46b9-8331-ce03b841c330","ios":"levelo://app?vid=70fb38eb-bc91-46b9-8331-ce03b841c330"},"vehicle_type_id":"4","last_reported":1752164027,"current_range_meters":6400,"station_id":"","pricing_plan_id":"cebpf4jnsgd1na2vs0mg"},{"bike_id":"6a3b4419-ae23-4351-be2a-d4166197430a","system_id":"levelo_inurba_marseille","lat":43.28856,"lon":5.35863,"is_reserved":false,"is_disabled":false,"rental_uris":{"android":"levelo://app?vid=6a3b4419-ae23-4351-be2a-d4166197430a","ios":"levelo://app?vid=6a3b4419-ae23-4351-be2a-d4166197430a"},"vehicle_type_id":"4","last_reported":1752164027,"current_range_meters":6400,"station_id":"ce4bhb12rcd13ifvqem0","pricing_plan_id":"cebpf4jnsgd1na2vs0mg"},{"bike_id":"6ccf66ee-1b24-4d79-83b6-8ee6b2fc1c6c","system_id":"levelo_inurba_marseille","lat":43.2657,"lon":5.39005,"is_reserved":false,"is_disabled":false,"rental_uris":{"android":"levelo://app?vid=6ccf66ee-1b24-4d79-83b6-8ee6b2fc1c6c","ios":"levelo://app?vid=6ccf66ee-1b24-4d79-83b6-8ee6b2fc1c6c"},"vehicle_type_id":"4","last_reported":1752164027,"current_range_meters":6800,"station_id":"ce4bhe12rcd13ifvqf30","pricing_plan_id":"cebpf4jnsgd1na2vs0mg"},{"bike_id":"1b649bb4-42d5-484b-b364-ec68edd43cd0","system_id":"levelo_inurba_marseille","lat":43.26485,"lon":5.39552,"is_reserved":false,"is_disabled":false,"rental_uris":{"android":"levelo://app?vid=1b649bb4-42d5-484b-b364-ec68edd43cd0","ios":"levelo://app?vid=1b649bb4-42d5-484b-b364-ec68edd43cd0"},"vehicle_type_id":"4","last_reported":1752164027,"current_range_meters":6800,"station_id":"ce4bhi12rcd13ifvqfq0","pricing_plan_id":"cebpf4jnsgd1na2vs0mg"},{"bike_id":"34e02349-5660-4d39-a37d-b0a171e7a6d2","system_id":"levelo_inurba_marseille","lat":43.25577,"lon":5.38235,"is_reserved":false,"is_disabled":false,"rental_uris":{"android":"levelo://app?vid=34e02349-5660-4d39-a37d-b0a171e7a6d2","ios":"levelo://app?vid=34e02349-5660-4d39-a37d-b0a171e7a6d2"},"vehicle_type_id":"4","last_reported":1752164027,"current_range_meters":6800,"station_id":"ce4bhih2rcd13ifvqfs0","pricing_plan_id":"cebpf4jnsgd1na2vs0mg"},{"bike_id":"17f46dc0-aa22-47df-9f96-69e717e07d4a","system_id":"levelo_inurba_marseille","lat":43.30144,"lon":5.38779,"is_reserved":false,"is_disabled":false,"rental_uris":{"android":"levelo://app?vid=17f46dc0-aa22-47df-9f96-69e717e07d4a","ios":"levelo://app?vid=17f46dc0-aa22-47df-9f96-69e717e07d4a"},"vehicle_type_id":"4","last_reported":1752164027,"current_range_meters":7200,"station_id":"ce4bghh2rcd13ifvqb60","pricing_plan_id":"cebpf4jnsgd1na2vs0mg"},{"bike_id":"4fb0b3f9-a8e8-422a-974b-7c1496b30bda","system_id":"levelo_inurba_marseille","lat":43.30425,"lon":5.38888,"is_reserved":false,"is_disabled":false,"rental_uris":{"android":"levelo://app?vid=4fb0b3f9-a8e8-422a-974b-7c1496b30bda","ios":"levelo://app?vid=4fb0b3f9-a8e8-422a-974b-7c1496b30bda"},"vehicle_type_id":"4","last_reported":1752164027,"current_range_meters":7200,"station_id":"ce4bgk12rcd13ifvqbi0","pricing_plan_id":"cebpf4jnsgd1na2vs0mg"},{"bike_id":"851e087e-f68d-44d3-a3ec-ef370931b680","system_id":"levelo_inurba_marseille","lat":43.28991,"lon":5.37827,"is_reserved":false,"is_disabled":false,"rental_uris":{"android":"levelo://app?vid=851e087e-f68d-44d3-a3ec-ef370931b680","ios":"levelo://app?vid=851e087e-f68d-44d3-a3ec-ef370931b680"},"vehicle_type_id":"4","last_reported":1752164027,"current_range_meters":7200,"station_id":"ce4bh9p2rcd13ifvqed0","pricing_plan_id":"cebpf4jnsgd1na2vs0mg"},{"bike_id":"4cba1c77-56a8-4ee1-9134-7fb9c8c3a839","system_id":"levelo_inurba_marseille","lat":43.28446,"lon":5.34956,"is_reserved":false,"is_disabled":false,"rental_uris":{"android":"levelo://app?vid=4cba1c77-56a8-4ee1-9134-7fb9c8c3a839","ios":"levelo://app?vid=4cba1c77-56a8-4ee1-9134-7fb9c8c3a839"},"vehicle_type_id":"4","last_reported":1752164027,"current_range_meters":7200,"station_id":"ce4bhbh2rcd13ifvqepg","pricing_plan_id":"cebpf4jnsgd1na2vs0mg"},{"bike_id":"2354f4ca-20d1-4b1b-b469-739d1656dff6","system_id":"levelo_inurba_marseille","lat":43.28998,"lon":5.3762,"is_reserved":false,"is_disabled":false,"rental_uris":{"android":"levelo://app?vid=2354f4ca-20d1-4b1b-b469-739d1656dff6","ios":"levelo://app?vid=2354f4ca-20d1-4b1b-b469-739d1656dff6"},"vehicle_type_id":"4","last_reported":1752164027,"current_range_meters":8000,"station_id":"","pricing_plan_id":"cebpf4jnsgd1na2vs0mg"},{"bike_id":"2f677edb-b4f4-4603-9dab-0f05fbe0a0e5","system_id":"levelo_inurba_marseille","lat":43.3078,"lon":5.376502,"is_reserved":false,"is_disabled":false,"rental_uris":{"android":"levelo://app?vid=2f677edb-b4f4-4603-9dab-0f05fbe0a0e5","ios":"levelo://app?vid=2f677edb-b4f4-4603-9dab-0f05fbe0a0e5"},"vehicle_type_id":"4","last_reported":1752164027,"current_range_meters":8000,"station_id":"ce4bgv92rcd13ifvqcq0","pricing_plan_id":"cebpf4jnsgd1na2vs0mg"},{"bike_id":"d12bee1e-fefc-4d59-b1d8-e07b00ab3167","system_id":"levelo_inurba_marseille","lat":43.29269,"lon":5.36843,"is_reserved":false,"is_disabled":false,"rental_uris":{"android":"levelo://app?vid=d12bee1e-fefc-4d59-b1d8-e07b00ab3167","ios":"levelo://app?vid=d12bee1e-fefc-4d59-b1d8-e07b00ab3167"},"vehicle_type_id":"4","last_reported":1752164027,"current_range_meters":8000,"station_id":"ce4bhbp2rcd13ifvqesg","pricing_plan_id":"cebpf4jnsgd1na2vs0mg"},{"bike_id":"5a9914ff-94e5-4c39-8f14-8b085815046b","system_id":"levelo_inurba_marseille","lat":43.251172,"lon":5.403157,"is_reserved":false,"is_disabled":false,"rental_uris":{"android":"levelo://app?vid=5a9914ff-94e5-4c39-8f14-8b085815046b","ios":"levelo://app?vid=5a9914ff-94e5-4c39-8f14-8b085815046b"},"vehicle_type_id":"4","last_reported":1752164027,"current_range_meters":8000,"station_id":"ce4bhlh2rcd13ifvqgig","pricing_plan_id":"cebpf4jnsgd1na2vs0mg"},{"bike_id":"f573a8fb-f1f8-47c4-901e-ddf2739a5cca","system_id":"levelo_inurba_marseille","lat":43.36009,"lon":5.32473,"is_reserved":false,"is_disabled":false,"rental_uris":{"android":"levelo://app?vid=f573a8fb-f1f8-47c4-901e-ddf2739a5cca","ios":"levelo://app?vid=f573a8fb-f1f8-47c4-901e-ddf2739a5cca"},"vehicle_type_id":"4","last_reported":1752164027,"current_range_meters":8800,"station_id":"","pricing_plan_id":"cebpf4jnsgd1na2vs0mg"},{"bike_id":"b2f60116-997c-4a71-83ae-88ca8cdf5bba","system_id":"levelo_inurba_marseille","lat":43.27618,"lon":5.36104,"is_reserved":false,"is_disabled":false,"rental_uris":{"android":"levelo://app?vid=b2f60116-997c-4a71-83ae-88ca8cdf5bba","ios":"levelo://app?vid=b2f60116-997c-4a71-83ae-88ca8cdf5bba"},"vehicle_type_id":"4","last_reported":1752164027,"current_range_meters":8800,"station_id":"ce4bgj92rcd13ifvqbe0","pricing_plan_id":"cebpf4jnsgd1na2vs0mg"},{"bike_id":"50b85fea-0271-4a56-9a78-d70e852e401d","system_id":"levelo_inurba_marseille","lat":43.26218,"lon":5.3744,"is_reserved":false,"is_disabled":false,"rental_uris":{"android":"levelo://app?vid=50b85fea-0271-4a56-9a78-d70e852e401d","ios":"levelo://app?vid=50b85fea-0271-4a56-9a78-d70e852e401d"},"vehicle_type_id":"4","last_reported":1752164027,"current_range_meters":8800,"station_id":"ce4bhgp2rcd13ifvqfc0","pricing_plan_id":"cebpf4jnsgd1na2vs0mg"},{"bike_id":"84e7e709-4e4f-4764-818c-af719435bfca","system_id":"levelo_inurba_marseille","lat":43.31905,"lon":5.368293,"is_reserved":false,"is_disabled":false,"rental_uris":{"android":"levelo://app?vid=84e7e709-4e4f-4764-818c-af719435bfca","ios":"levelo://app?vid=84e7e709-4e4f-4764-818c-af719435bfca"},"vehicle_type_id":"4","last_reported":1752164027,"current_range_meters":9200,"station_id":"","pricing_plan_id":"cebpf4jnsgd1na2vs0mg"},{"bike_id":"1dc787c6-5fe3-44d3-8120-7b67ae95cb22","system_id":"levelo_inurba_marseille","lat":43.29572,"lon":5.37533,"is_reserved":false,"is_disabled":false,"rental_uris":{"android":"levelo://app?vid=1dc787c6-5fe3-44d3-8120-7b67ae95cb22","ios":"levelo://app?vid=1dc787c6-5fe3-44d3-8120-7b67ae95cb22"},"vehicle_type_id":"4","last_reported":1752164027,"current_range_meters":9200,"station_id":"ce4bgh92rcd13ifvqb50","pricing_plan_id":"cebpf4jnsgd1na2vs0mg"},{"bike_id":"993d2551-cfd1-4b89-943f-06555c6f491c","system_id":"levelo_inurba_marseille","lat":43.28408,"lon":5.37505,"is_reserved":false,"is_disabled":false,"rental_uris":{"android":"levelo://app?vid=993d2551-cfd1-4b89-943f-06555c6f491c","ios":"levelo://app?vid=993d2551-cfd1-4b89-943f-06555c6f491c"},"vehicle_type_id":"4","last_reported":1752164027,"current_range_meters":9200,"station_id":"ce4bh412rcd13ifvqds0","pricing_plan_id":"cebpf4jnsgd1na2vs0mg"},{"bike_id":"993f1c0d-8afc-4381-ae18-d8d534716fce","system_id":"levelo_inurba_marseille","lat":43.28419,"lon":5.34985,"is_reserved":false,"is_disabled":false,"rental_uris":{"android":"levelo://app?vid=993f1c0d-8afc-4381-ae18-d8d534716fce","ios":"levelo://app?vid=993f1c0d-8afc-4381-ae18-d8d534716fce"},"vehicle_type_id":"4","last_reported":1752164027,"current_range_meters":9600,"station_id":"ce4bhbh2rcd13ifvqepg","pricing_plan_id":"cebpf4jnsgd1na2vs0mg"},{"bike_id":"38b29baf-6ca9-42ef-be0c-1c796126a414","system_id":"levelo_inurba_marseille","lat":43.28418,"lon":5.34977,"is_reserved":false,"is_disabled":false,"rental_uris":{"android":"levelo://app?vid=38b29baf-6ca9-42ef-be0c-1c796126a414","ios":"levelo://app?vid=38b29baf-6ca9-42ef-be0c-1c796126a414"},"vehicle_type_id":"4","last_reported":1752164027,"current_range_meters":9600,"station_id":"ce4bhbh2rcd13ifvqepg","pricing_plan_id":"cebpf4jnsgd1na2vs0mg"},{"bike_id":"56c06933-7b74-48ca-a11b-e8bafb8a11d2","system_id":"levelo_inurba_marseille","lat":43.284317,"lon":5.349963,"is_reserved":false,"is_disabled":false,"rental_uris":{"android":"levelo://app?vid=56c06933-7b74-48ca-a11b-e8bafb8a11d2","ios":"levelo://app?vid=56c06933-7b74-48ca-a11b-e8bafb8a11d2"},"vehicle_type_id":"4","last_reported":1752164027,"current_range_meters":9600,"station_id":"ce4bhbh2rcd13ifvqepg","pricing_plan_id":"cebpf4jnsgd1na2vs0mg"},{"bike_id":"6e5c2657-ccb8-4153-8b94-2143bc427a03","system_id":"levelo_inurba_marseille","lat":43.22509,"lon":5.34769,"is_reserved":false,"is_disabled":false,"rental_uris":{"android":"levelo://app?vid=6e5c2657-ccb8-4153-8b94-2143bc427a03","ios":"levelo://app?vid=6e5c2657-ccb8-4153-8b94-2143bc427a03"},"vehicle_type_id":"4","last_reported":1752164027,"current_range_meters":9600,"station_id":"st_cvj5dfep6f1abm77gieg","pricing_plan_id":"cebpf4jnsgd1na2vs0mg"},{"bike_id":"b757ffbb-2b71-4330-9f60-5f8a9d46d16e","system_id":"levelo_inurba_marseille","lat":43.29655,"lon":5.3711,"is_reserved":false,"is_disabled":false,"rental_uris":{"android":"levelo://app?vid=b757ffbb-2b71-4330-9f60-5f8a9d46d16e","ios":"levelo://app?vid=b757ffbb-2b71-4330-9f60-5f8a9d46d16e"},"vehicle_type_id":"4","last_reported":1752164027,"current_range_meters":10000,"station_id":"","pricing_plan_id":"cebpf4jnsgd1na2vs0mg"},{"bike_id":"b2caa530-bb19-4cc6-a6bd-61e3e1d7432e","system_id":"levelo_inurba_marseille","lat":43.33763,"lon":5.37461,"is_reserved":false,"is_disabled":false,"rental_uris":{"android":"levelo://app?vid=b2caa530-bb19-4cc6-a6bd-61e3e1d7432e","ios":"levelo://app?vid=b2caa530-bb19-4cc6-a6bd-61e3e1d7432e"},"vehicle_type_id":"4","last_reported":1752164027,"current_range_meters":10000,"station_id":"","pricing_plan_id":"cebpf4jnsgd1na2vs0mg"},{"bike_id":"83caaf0d-b918-4b8a-83e5-fb6a9ff083fb","system_id":"levelo_inurba_marseille","lat":43.29449,"lon":5.37445,"is_reserved":false,"is_disabled":false,"rental_uris":{"android":"levelo://app?vid=83caaf0d-b918-4b8a-83e5-fb6a9ff083fb","ios":"levelo://app?vid=83caaf0d-b918-4b8a-83e5-fb6a9ff083fb"},"vehicle_type_id":"4","last_reported":1752164027,"current_range_meters":10000,"station_id":"","pricing_plan_id":"cebpf4jnsgd1na2vs0mg"},{"bike_id":"6ef5f3ea-45a5-4129-a8bc-9005968550f8","system_id":"levelo_inurba_marseille","lat":43.304407,"lon":5.368437,"is_reserved":false,"is_disabled":false,"rental_uris":{"android":"levelo://app?vid=6ef5f3ea-45a5-4129-a8bc-9005968550f8","ios":"levelo://app?vid=6ef5f3ea-45a5-4129-a8bc-9005968550f8"},"vehicle_type_id":"4","last_reported":1752164027,"current_range_meters":10000,"station_id":"","pricing_plan_id":"cebpf4jnsgd1na2vs0mg"},{"bike_id":"5c266e10-8a47-41b4-807d-8de954d8adf9","system_id":"levelo_inurba_marseille","lat":43.2738,"lon":5.36256,"is_reserved":false,"is_disabled":false,"rental_uris":{"android":"levelo://app?vid=5c266e10-8a47-41b4-807d-8de954d8adf9","ios":"levelo://app?vid=5c266e10-8a47-41b4-807d-8de954d8adf9"},"vehicle_type_id":"4","last_reported":1752164027,"current_range_meters":10000,"station_id":"ce4bhbh2rcd13ifvqeo0","pricing_plan_id":"cebpf4jnsgd1na2vs0mg"},{"bike_id":"833f97ec-e704-4051-ab3b-2e9eb58f71d0","system_id":"levelo_inurba_marseille","lat":43.30248,"lon":5.3752,"is_reserved":false,"is_disabled":false,"rental_uris":{"android":"levelo://app?vid=833f97ec-e704-4051-ab3b-2e9eb58f71d0","ios":"levelo://app?vid=833f97ec-e704-4051-ab3b-2e9eb58f71d0"},"vehicle_type_id":"4","last_reported":1752164027,"current_range_meters":10800,"station_id":"","pricing_plan_id":"cebpf4jnsgd1na2vs0mg"},{"bike_id":"051e4d81-7ebf-4304-8d7c-7acb25a25457","system_id":"levelo_inurba_marseille","lat":43.2901,"lon":5.3561,"is_reserved":false,"is_disabled":false,"rental_uris":{"android":"levelo://app?vid=051e4d81-7ebf-4304-8d7c-7acb25a25457","ios":"levelo://app?vid=051e4d81-7ebf-4304-8d7c-7acb25a25457"},"vehicle_type_id":"4","last_reported":1752164027,"current_range_meters":10800,"station_id":"ce4bhb92rcd13ifvqen0","pricing_plan_id":"cebpf4jnsgd1na2vs0mg"},{"bike_id":"a13e7d0e-2bac-4342-989e-1e7f5747d188","system_id":"levelo_inurba_marseille","lat":43.24391,"lon":5.3706,"is_reserved":false,"is_disabled":false,"rental_uris":{"android":"levelo://app?vid=a13e7d0e-2bac-4342-989e-1e7f5747d188","ios":"levelo://app?vid=a13e7d0e-2bac-4342-989e-1e7f5747d188"},"vehicle_type_id":"4","last_reported":1752164027,"current_range_meters":10800,"station_id":"ce4bhhh2rcd13ifvqfk0","pricing_plan_id":"cebpf4jnsgd1na2vs0mg"},{"bike_id":"552bb234-9ba4-4340-80a7-dc9a4f10ba66","system_id":"levelo_inurba_marseille","lat":43.23151,"lon":5.43715,"is_reserved":false,"is_disabled":false,"rental_uris":{"android":"levelo://app?vid=552bb234-9ba4-4340-80a7-dc9a4f10ba66","ios":"levelo://app?vid=552bb234-9ba4-4340-80a7-dc9a4f10ba66"},"vehicle_type_id":"4","last_reported":1752164027,"current_range_meters":10800,"station_id":"ce4bhmp2rcd13ifvqgog","pricing_plan_id":"cebpf4jnsgd1na2vs0mg"},{"bike_id":"2a2c2ba3-f4e7-4476-b21e-559d75857b71","system_id":"levelo_inurba_marseille","lat":43.27073,"lon":5.42291,"is_reserved":false,"is_disabled":false,"rental_uris":{"android":"levelo://app?vid=2a2c2ba3-f4e7-4476-b21e-559d75857b71","ios":"levelo://app?vid=2a2c2ba3-f4e7-4476-b21e-559d75857b71"},"vehicle_type_id":"4","last_reported":1752164027,"current_range_meters":11200,"station_id":"ce4bhk92rcd13ifvqgb0","pricing_plan_id":"cebpf4jnsgd1na2vs0mg"},{"bike_id":"9cffa79e-a6ea-49c6-955f-b0f2616bf505","system_id":"levelo_inurba_marseille","lat":43.24168,"lon":5.3639,"is_reserved":false,"is_disabled":false,"rental_uris":{"android":"levelo://app?vid=9cffa79e-a6ea-49c6-955f-b0f2616bf505","ios":"levelo://app?vid=9cffa79e-a6ea-49c6-955f-b0f2616bf505"},"vehicle_type_id":"4","last_reported":1752164027,"current_range_meters":11200,"station_id":"cpo36qri1sfpv3e86is0","pricing_plan_id":"cebpf4jnsgd1na2vs0mg"},{"bike_id":"f9ee97f3-793a-4037-86cc-dfe626a501ba","system_id":"levelo_inurba_marseille","lat":43.28414,"lon":5.34992,"is_reserved":false,"is_disabled":false,"rental_uris":{"android":"levelo://app?vid=f9ee97f3-793a-4037-86cc-dfe626a501ba","ios":"levelo://app?vid=f9ee97f3-793a-4037-86cc-dfe626a501ba"},"vehicle_type_id":"4","last_reported":1752164027,"current_range_meters":11600,"station_id":"ce4bhbh2rcd13ifvqepg","pricing_plan_id":"cebpf4jnsgd1na2vs0mg"},{"bike_id":"911fb65e-605a-41f3-aea9-a838749a8f81","system_id":"levelo_inurba_marseille","lat":43.248024,"lon":5.374579,"is_reserved":false,"is_disabled":false,"rental_uris":{"android":"levelo://app?vid=911fb65e-605a-41f3-aea9-a838749a8f81","ios":"levelo://app?vid=911fb65e-605a-41f3-aea9-a838749a8f81"},"vehicle_type_id":"4","last_reported":1752164027,"current_range_meters":11600,"station_id":"ce4bhgh2rcd13ifvqfb0","pricing_plan_id":"cebpf4jnsgd1na2vs0mg"},{"bike_id":"e578ab6f-6a72-44d0-884b-34de09c85c2e","system_id":"levelo_inurba_marseille","lat":43.22507,"lon":5.34781,"is_reserved":false,"is_disabled":false,"rental_uris":{"android":"levelo://app?vid=e578ab6f-6a72-44d0-884b-34de09c85c2e","ios":"levelo://app?vid=e578ab6f-6a72-44d0-884b-34de09c85c2e"},"vehicle_type_id":"4","last_reported":1752164027,"current_range_meters":11600,"station_id":"st_cvj5dfep6f1abm77gieg","pricing_plan_id":"cebpf4jnsgd1na2vs0mg"},{"bike_id":"32b0a09d-db22-4845-ba5e-b043bb8d161e","system_id":"levelo_inurba_marseille","lat":43.28409,"lon":5.34996,"is_reserved":false,"is_disabled":false,"rental_uris":{"android":"levelo://app?vid=32b0a09d-db22-4845-ba5e-b043bb8d161e","ios":"levelo://app?vid=32b0a09d-db22-4845-ba5e-b043bb8d161e"},"vehicle_type_id":"4","last_reported":1752164027,"current_range_meters":12000,"station_id":"ce4bhbh2rcd13ifvqepg","pricing_plan_id":"cebpf4jnsgd1na2vs0mg"},{"bike_id":"af5f2d13-a59b-4a57-a272-e84f7525f466","system_id":"levelo_inurba_marseille","lat":43.2827,"lon":5.35059,"is_reserved":false,"is_disabled":false,"rental_uris":{"android":"levelo://app?vid=af5f2d13-a59b-4a57-a272-e84f7525f466","ios":"levelo://app?vid=af5f2d13-a59b-4a57-a272-e84f7525f466"},"vehicle_type_id":"4","last_reported":1752164027,"current_range_meters":12000,"station_id":"ce4bhbp2rcd13ifvqerg","pricing_plan_id":"cebpf4jnsgd1na2vs0mg"},{"bike_id":"81d538da-70fb-43db-8b37-bf710db8f337","system_id":"levelo_inurba_marseille","lat":43.28691,"lon":5.37404,"is_reserved":false,"is_disabled":false,"rental_uris":{"android":"levelo://app?vid=81d538da-70fb-43db-8b37-bf710db8f337","ios":"levelo://app?vid=81d538da-70fb-43db-8b37-bf710db8f337"},"vehicle_type_id":"4","last_reported":1752164027,"current_range_meters":12400,"station_id":"ce4bh3p2rcd13ifvqdq0","pricing_plan_id":"cebpf4jnsgd1na2vs0mg"},{"bike_id":"9a0ff769-e057-4ad2-b9ad-a6d1ff66a3fe","system_id":"levelo_inurba_marseille","lat":43.28102,"lon":5.3784,"is_reserved":false,"is_disabled":false,"rental_uris":{"android":"levelo://app?vid=9a0ff769-e057-4ad2-b9ad-a6d1ff66a3fe","ios":"levelo://app?vid=9a0ff769-e057-4ad2-b9ad-a6d1ff66a3fe"},"vehicle_type_id":"4","last_reported":1752164027,"current_range_meters":12400,"station_id":"ce4bha12rcd13ifvqee0","pricing_plan_id":"cebpf4jnsgd1na2vs0mg"},{"bike_id":"feaa7e3a-cbe4-4489-be11-8a12d7eec173","system_id":"levelo_inurba_marseille","lat":43.25158,"lon":5.42637,"is_reserved":false,"is_disabled":false,"rental_uris":{"android":"levelo://app?vid=feaa7e3a-cbe4-4489-be11-8a12d7eec173","ios":"levelo://app?vid=feaa7e3a-cbe4-4489-be11-8a12d7eec173"},"vehicle_type_id":"4","last_reported":1752164027,"current_range_meters":12800,"station_id":"","pricing_plan_id":"cebpf4jnsgd1na2vs0mg"},{"bike_id":"3fe3f734-9d44-47a3-89f9-634cecedc4ed","system_id":"levelo_inurba_marseille","lat":43.26792,"lon":5.39409,"is_reserved":false,"is_disabled":false,"rental_uris":{"android":"levelo://app?vid=3fe3f734-9d44-47a3-89f9-634cecedc4ed","ios":"levelo://app?vid=3fe3f734-9d44-47a3-89f9-634cecedc4ed"},"vehicle_type_id":"4","last_reported":1752164027,"current_range_meters":12800,"station_id":"ce4bhh12rcd13ifvqfg0","pricing_plan_id":"cebpf4jnsgd1na2vs0mg"},{"bike_id":"43d1dd49-a44f-4bd4-ad26-c4ba5c0114ca","system_id":"levelo_inurba_marseille","lat":43.29871,"lon":5.39725,"is_reserved":false,"is_disabled":false,"rental_uris":{"android":"levelo://app?vid=43d1dd49-a44f-4bd4-ad26-c4ba5c0114ca","ios":"levelo://app?vid=43d1dd49-a44f-4bd4-ad26-c4ba5c0114ca"},"vehicle_type_id":"4","last_reported":1752164027,"current_range_meters":13600,"station_id":"ce4bh0h2rcd13ifvqd50","pricing_plan_id":"cebpf4jnsgd1na2vs0mg"},{"bike_id":"365eeb93-7c56-4b57-9b4c-7461dd6a8802","system_id":"levelo_inurba_marseille","lat":43.28612,"lon":5.35101,"is_reserved":false,"is_disabled":false,"rental_uris":{"android":"levelo://app?vid=365eeb93-7c56-4b57-9b4c-7461dd6a8802","ios":"levelo://app?vid=365eeb93-7c56-4b57-9b4c-7461dd6a8802"},"vehicle_type_id":"4","last_reported":1752164027,"current_range_meters":13600,"station_id":"ce4bhch2rcd13ifvqeug","pricing_plan_id":"cebpf4jnsgd1na2vs0mg"},{"bike_id":"753240c7-2b80-4dd3-b89c-10b253ed1ccf","system_id":"levelo_inurba_marseille","lat":43.29965,"lon":5.4132,"is_reserved":false,"is_disabled":false,"rental_uris":{"android":"levelo://app?vid=753240c7-2b80-4dd3-b89c-10b253ed1ccf","ios":"levelo://app?vid=753240c7-2b80-4dd3-b89c-10b253ed1ccf"},"vehicle_type_id":"4","last_reported":1752164027,"current_range_meters":13600,"station_id":"ce4bhp12rcd13ifvqh9g","pricing_plan_id":"cebpf4jnsgd1na2vs0mg"},{"bike_id":"81cf5a1f-63fe-4615-a476-f745971d0a16","system_id":"levelo_inurba_marseille","lat":43.22934,"lon":5.35376,"is_reserved":false,"is_disabled":false,"rental_uris":{"android":"levelo://app?vid=81cf5a1f-63fe-4615-a476-f745971d0a16","ios":"levelo://app?vid=81cf5a1f-63fe-4615-a476-f745971d0a16"},"vehicle_type_id":"4","last_reported":1752164027,"current_range_meters":13600,"station_id":"cpo3532slgdg3j2ikp40","pricing_plan_id":"cebpf4jnsgd1na2vs0mg"},{"bike_id":"de010bc4-5e98-41bd-aed3-9094f259cc5a","system_id":"levelo_inurba_marseille","lat":43.24155,"lon":5.36418,"is_reserved":false,"is_disabled":false,"rental_uris":{"android":"levelo://app?vid=de010bc4-5e98-41bd-aed3-9094f259cc5a","ios":"levelo://app?vid=de010bc4-5e98-41bd-aed3-9094f259cc5a"},"vehicle_type_id":"4","last_reported":1752164027,"current_range_meters":13600,"station_id":"cpo36qri1sfpv3e86is0","pricing_plan_id":"cebpf4jnsgd1na2vs0mg"},{"bike_id":"d738154a-b7a8-47ee-b4de-b37e92312c88","system_id":"levelo_inurba_marseille","lat":43.26177,"lon":5.37049,"is_reserved":false,"is_disabled":false,"rental_uris":{"android":"levelo://app?vid=d738154a-b7a8-47ee-b4de-b37e92312c88","ios":"levelo://app?vid=d738154a-b7a8-47ee-b4de-b37e92312c88"},"vehicle_type_id":"4","last_reported":1752164027,"current_range_meters":14000,"station_id":"","pricing_plan_id":"cebpf4jnsgd1na2vs0mg"},{"bike_id":"3e9bf0ba-20ef-4d1d-8346-6d7b9775dbd9","system_id":"levelo_inurba_marseille","lat":43.2842,"lon":5.34975,"is_reserved":false,"is_disabled":false,"rental_uris":{"android":"levelo://app?vid=3e9bf0ba-20ef-4d1d-8346-6d7b9775dbd9","ios":"levelo://app?vid=3e9bf0ba-20ef-4d1d-8346-6d7b9775dbd9"},"vehicle_type_id":"4","last_reported":1752164027,"current_range_meters":14000,"station_id":"ce4bhbh2rcd13ifvqepg","pricing_plan_id":"cebpf4jnsgd1na2vs0mg"},{"bike_id":"f4d8afa1-8f4d-42c0-b795-8a2d2ea9a8de","system_id":"levelo_inurba_marseille","lat":43.2783,"lon":5.4071,"is_reserved":false,"is_disabled":false,"rental_uris":{"android":"levelo://app?vid=f4d8afa1-8f4d-42c0-b795-8a2d2ea9a8de","ios":"levelo://app?vid=f4d8afa1-8f4d-42c0-b795-8a2d2ea9a8de"},"vehicle_type_id":"4","last_reported":1752164027,"current_range_meters":14000,"station_id":"ce4bhnh2rcd13ifvqgtg","pricing_plan_id":"cebpf4jnsgd1na2vs0mg"},{"bike_id":"d4fef870-f3df-418c-b45a-632453acc9ad","system_id":"levelo_inurba_marseille","lat":43.22528,"lon":5.34775,"is_reserved":false,"is_disabled":false,"rental_uris":{"android":"levelo://app?vid=d4fef870-f3df-418c-b45a-632453acc9ad","ios":"levelo://app?vid=d4fef870-f3df-418c-b45a-632453acc9ad"},"vehicle_type_id":"4","last_reported":1752164027,"current_range_meters":14000,"station_id":"st_cvj5dfep6f1abm77gieg","pricing_plan_id":"cebpf4jnsgd1na2vs0mg"},{"bike_id":"d3e8264f-5e78-41b8-b5b0-557e389e6623","system_id":"levelo_inurba_marseille","lat":43.31371,"lon":5.37159,"is_reserved":false,"is_disabled":false,"rental_uris":{"android":"levelo://app?vid=d3e8264f-5e78-41b8-b5b0-557e389e6623","ios":"levelo://app?vid=d3e8264f-5e78-41b8-b5b0-557e389e6623"},"vehicle_type_id":"4","last_reported":1752164027,"current_range_meters":14400,"station_id":"","pricing_plan_id":"cebpf4jnsgd1na2vs0mg"},{"bike_id":"5e652fbf-2930-4f54-b983-f14790f50846","system_id":"levelo_inurba_marseille","lat":43.273887,"lon":5.362713,"is_reserved":false,"is_disabled":false,"rental_uris":{"android":"levelo://app?vid=5e652fbf-2930-4f54-b983-f14790f50846","ios":"levelo://app?vid=5e652fbf-2930-4f54-b983-f14790f50846"},"vehicle_type_id":"4","last_reported":1752164027,"current_range_meters":14400,"station_id":"ce4bhbh2rcd13ifvqeo0","pricing_plan_id":"cebpf4jnsgd1na2vs0mg"},{"bike_id":"b74c957d-1785-40d4-9fbc-3764f015ffa1","system_id":"levelo_inurba_marseille","lat":43.26489,"lon":5.39544,"is_reserved":false,"is_disabled":false,"rental_uris":{"android":"levelo://app?vid=b74c957d-1785-40d4-9fbc-3764f015ffa1","ios":"levelo://app?vid=b74c957d-1785-40d4-9fbc-3764f015ffa1"},"vehicle_type_id":"4","last_reported":1752164027,"current_range_meters":14400,"station_id":"ce4bhi12rcd13ifvqfq0","pricing_plan_id":"cebpf4jnsgd1na2vs0mg"},{"bike_id":"f373e4a8-33e3-4f72-ae8e-e7ab386910f4","system_id":"levelo_inurba_marseille","lat":43.22525,"lon":5.34783,"is_reserved":false,"is_disabled":false,"rental_uris":{"android":"levelo://app?vid=f373e4a8-33e3-4f72-ae8e-e7ab386910f4","ios":"levelo://app?vid=f373e4a8-33e3-4f72-ae8e-e7ab386910f4"},"vehicle_type_id":"4","last_reported":1752164027,"current_range_meters":14400,"station_id":"st_cvj5dfep6f1abm77gieg","pricing_plan_id":"cebpf4jnsgd1na2vs0mg"},{"bike_id":"119b7eed-1582-4766-b484-107798ee8de6","system_id":"levelo_inurba_marseille","lat":43.284198,"lon":5.349949,"is_reserved":false,"is_disabled":false,"rental_uris":{"android":"levelo://app?vid=119b7eed-1582-4766-b484-107798ee8de6","ios":"levelo://app?vid=119b7eed-1582-4766-b484-107798ee8de6"},"vehicle_type_id":"4","last_reported":1752164027,"current_range_meters":14800,"station_id":"ce4bhbh2rcd13ifvqepg","pricing_plan_id":"cebpf4jnsgd1na2vs0mg"},{"bike_id":"09aee4ce-72ba-4110-ae6d-59c27f6b644c","system_id":"levelo_inurba_marseille","lat":43.28618,"lon":5.35102,"is_reserved":false,"is_disabled":false,"rental_uris":{"android":"levelo://app?vid=09aee4ce-72ba-4110-ae6d-59c27f6b644c","ios":"levelo://app?vid=09aee4ce-72ba-4110-ae6d-59c27f6b644c"},"vehicle_type_id":"4","last_reported":1752164027,"current_range_meters":14800,"station_id":"ce4bhch2rcd13ifvqeug","pricing_plan_id":"cebpf4jnsgd1na2vs0mg"},{"bike_id":"f3d48c3c-f435-400a-82f3-730e4f5d0d26","system_id":"levelo_inurba_marseille","lat":43.26554,"lon":5.37286,"is_reserved":false,"is_disabled":false,"rental_uris":{"android":"levelo://app?vid=f3d48c3c-f435-400a-82f3-730e4f5d0d26","ios":"levelo://app?vid=f3d48c3c-f435-400a-82f3-730e4f5d0d26"},"vehicle_type_id":"4","last_reported":1752164027,"current_range_meters":14800,"station_id":"ce4bhg12rcd13ifvqf70","pricing_plan_id":"cebpf4jnsgd1na2vs0mg"},{"bike_id":"73fe94e8-74f9-41f0-85e9-7d8c52adf2fc","system_id":"levelo_inurba_marseille","lat":43.212597,"lon":5.352966,"is_reserved":false,"is_disabled":false,"rental_uris":{"android":"levelo://app?vid=73fe94e8-74f9-41f0-85e9-7d8c52adf2fc","ios":"levelo://app?vid=73fe94e8-74f9-41f0-85e9-7d8c52adf2fc"},"vehicle_type_id":"4","last_reported":1752164027,"current_range_meters":15200,"station_id":"","pricing_plan_id":"cebpf4jnsgd1na2vs0mg"},{"bike_id":"9f5e74ce-2459-4c6f-a171-f6d1e8a1ed83","system_id":"levelo_inurba_marseille","lat":43.31873,"lon":5.37545,"is_reserved":false,"is_disabled":false,"rental_uris":{"android":"levelo://app?vid=9f5e74ce-2459-4c6f-a171-f6d1e8a1ed83","ios":"levelo://app?vid=9f5e74ce-2459-4c6f-a171-f6d1e8a1ed83"},"vehicle_type_id":"4","last_reported":1752164027,"current_range_meters":15200,"station_id":"","pricing_plan_id":"cebpf4jnsgd1na2vs0mg"},{"bike_id":"51571abf-6662-4ba0-83e0-ef7d333eeeb7","system_id":"levelo_inurba_marseille","lat":43.2991,"lon":5.38132,"is_reserved":false,"is_disabled":false,"rental_uris":{"android":"levelo://app?vid=51571abf-6662-4ba0-83e0-ef7d333eeeb7","ios":"levelo://app?vid=51571abf-6662-4ba0-83e0-ef7d333eeeb7"},"vehicle_type_id":"4","last_reported":1752164027,"current_range_meters":15200,"station_id":"ce4bgj12rcd13ifvqbc0","pricing_plan_id":"cebpf4jnsgd1na2vs0mg"},{"bike_id":"f08c5a33-a96a-4155-9f01-50f3dfb50167","system_id":"levelo_inurba_marseille","lat":43.25092,"lon":5.39519,"is_reserved":false,"is_disabled":false,"rental_uris":{"android":"levelo://app?vid=f08c5a33-a96a-4155-9f01-50f3dfb50167","ios":"levelo://app?vid=f08c5a33-a96a-4155-9f01-50f3dfb50167"},"vehicle_type_id":"4","last_reported":1752164027,"current_range_meters":15200,"station_id":"ce4bhm12rcd13ifvqgkg","pricing_plan_id":"cebpf4jnsgd1na2vs0mg"},{"bike_id":"ff212813-f028-4982-b200-054099bc1426","system_id":"levelo_inurba_marseille","lat":43.281565,"lon":5.426423,"is_reserved":false,"is_disabled":false,"rental_uris":{"android":"levelo://app?vid=ff212813-f028-4982-b200-054099bc1426","ios":"levelo://app?vid=ff212813-f028-4982-b200-054099bc1426"},"vehicle_type_id":"4","last_reported":1752164027,"current_range_meters":15200,"station_id":"ce4bhnh2rcd13ifvqgug","pricing_plan_id":"cebpf4jnsgd1na2vs0mg"},{"bike_id":"1999e0a4-8ee1-4cfd-9464-ac3f6506522b","system_id":"levelo_inurba_marseille","lat":43.22934,"lon":5.35378,"is_reserved":false,"is_disabled":false,"rental_uris":{"android":"levelo://app?vid=1999e0a4-8ee1-4cfd-9464-ac3f6506522b","ios":"levelo://app?vid=1999e0a4-8ee1-4cfd-9464-ac3f6506522b"},"vehicle_type_id":"4","last_reported":1752164027,"current_range_meters":15200,"station_id":"cpo3532slgdg3j2ikp40","pricing_plan_id":"cebpf4jnsgd1na2vs0mg"},{"bike_id":"8330a68f-2f6e-4337-9657-35d7d87c04ca","system_id":"levelo_inurba_marseille","lat":43.25451,"lon":5.37946,"is_reserved":false,"is_disabled":false,"rental_uris":{"android":"levelo://app?vid=8330a68f-2f6e-4337-9657-35d7d87c04ca","ios":"levelo://app?vid=8330a68f-2f6e-4337-9657-35d7d87c04ca"},"vehicle_type_id":"4","last_reported":1752164027,"current_range_meters":16000,"station_id":"","pricing_plan_id":"cebpf4jnsgd1na2vs0mg"},{"bike_id":"4e209b0c-855f-4b51-8120-2faef8673853","system_id":"levelo_inurba_marseille","lat":43.30597,"lon":5.36876,"is_reserved":false,"is_disabled":false,"rental_uris":{"android":"levelo://app?vid=4e209b0c-855f-4b51-8120-2faef8673853","ios":"levelo://app?vid=4e209b0c-855f-4b51-8120-2faef8673853"},"vehicle_type_id":"4","last_reported":1752164027,"current_range_meters":16000,"station_id":"","pricing_plan_id":"cebpf4jnsgd1na2vs0mg"},{"bike_id":"66f39a9c-6e50-4483-9a3d-b596775cd650","system_id":"levelo_inurba_marseille","lat":43.26035,"lon":5.37548,"is_reserved":false,"is_disabled":false,"rental_uris":{"android":"levelo://app?vid=66f39a9c-6e50-4483-9a3d-b596775cd650","ios":"levelo://app?vid=66f39a9c-6e50-4483-9a3d-b596775cd650"},"vehicle_type_id":"4","last_reported":1752164027,"current_range_meters":16000,"station_id":"ce4bhgh2rcd13ifvqfa0","pricing_plan_id":"cebpf4jnsgd1na2vs0mg"},{"bike_id":"b4d4ad90-f95f-4ae8-bda3-e9e581edf1c6","system_id":"levelo_inurba_marseille","lat":43.26218,"lon":5.37442,"is_reserved":false,"is_disabled":false,"rental_uris":{"android":"levelo://app?vid=b4d4ad90-f95f-4ae8-bda3-e9e581edf1c6","ios":"levelo://app?vid=b4d4ad90-f95f-4ae8-bda3-e9e581edf1c6"},"vehicle_type_id":"4","last_reported":1752164027,"current_range_meters":16000,"station_id":"ce4bhgp2rcd13ifvqfc0","pricing_plan_id":"cebpf4jnsgd1na2vs0mg"},{"bike_id":"4e9c1f87-a435-4f44-b3da-2affda0fc2b7","system_id":"levelo_inurba_marseille","lat":43.24183,"lon":5.36395,"is_reserved":false,"is_disabled":false,"rental_uris":{"android":"levelo://app?vid=4e9c1f87-a435-4f44-b3da-2affda0fc2b7","ios":"levelo://app?vid=4e9c1f87-a435-4f44-b3da-2affda0fc2b7"},"vehicle_type_id":"4","last_reported":1752164027,"current_range_meters":16000,"station_id":"cpo36qri1sfpv3e86is0","pricing_plan_id":"cebpf4jnsgd1na2vs0mg"},{"bike_id":"fa87fcb5-aacb-41a1-a789-0296bbd02085","system_id":"levelo_inurba_marseille","lat":43.24579,"lon":5.37372,"is_reserved":false,"is_disabled":false,"rental_uris":{"android":"levelo://app?vid=fa87fcb5-aacb-41a1-a789-0296bbd02085","ios":"levelo://app?vid=fa87fcb5-aacb-41a1-a789-0296bbd02085"},"vehicle_type_id":"4","last_reported":1752164027,"current_range_meters":16400,"station_id":"","pricing_plan_id":"cebpf4jnsgd1na2vs0mg"},{"bike_id":"55eb3ee3-207d-45c9-a356-7e275a6ee08e","system_id":"levelo_inurba_marseille","lat":43.322208,"lon":5.407363,"is_reserved":false,"is_disabled":false,"rental_uris":{"android":"levelo://app?vid=55eb3ee3-207d-45c9-a356-7e275a6ee08e","ios":"levelo://app?vid=55eb3ee3-207d-45c9-a356-7e275a6ee08e"},"vehicle_type_id":"4","last_reported":1752164027,"current_range_meters":16400,"station_id":"ce4bh092rcd13ifvqd30","pricing_plan_id":"cebpf4jnsgd1na2vs0mg"},{"bike_id":"1bb9fd2a-76a2-4cd1-9214-8f11a0639d77","system_id":"levelo_inurba_marseille","lat":43.29882,"lon":5.38909,"is_reserved":false,"is_disabled":false,"rental_uris":{"android":"levelo://app?vid=1bb9fd2a-76a2-4cd1-9214-8f11a0639d77","ios":"levelo://app?vid=1bb9fd2a-76a2-4cd1-9214-8f11a0639d77"},"vehicle_type_id":"4","last_reported":1752164027,"current_range_meters":16400,"station_id":"ce4bh392rcd13ifvqdl0","pricing_plan_id":"cebpf4jnsgd1na2vs0mg"},{"bike_id":"beea29e4-65a7-4b2c-aaf7-d69974b08e00","system_id":"levelo_inurba_marseille","lat":43.24812,"lon":5.37454,"is_reserved":false,"is_disabled":false,"rental_uris":{"android":"levelo://app?vid=beea29e4-65a7-4b2c-aaf7-d69974b08e00","ios":"levelo://app?vid=beea29e4-65a7-4b2c-aaf7-d69974b08e00"},"vehicle_type_id":"4","last_reported":1752164027,"current_range_meters":16400,"station_id":"ce4bhgh2rcd13ifvqfb0","pricing_plan_id":"cebpf4jnsgd1na2vs0mg"},{"bike_id":"d239ec91-3d85-4054-99ad-d6e238150af9","system_id":"levelo_inurba_marseille","lat":43.21194,"lon":5.35072,"is_reserved":false,"is_disabled":false,"rental_uris":{"android":"levelo://app?vid=d239ec91-3d85-4054-99ad-d6e238150af9","ios":"levelo://app?vid=d239ec91-3d85-4054-99ad-d6e238150af9"},"vehicle_type_id":"4","last_reported":1752164027,"current_range_meters":16400,"station_id":"st_cvj6sg6p6f1abm77japg","pricing_plan_id":"cebpf4jnsgd1na2vs0mg"},{"bike_id":"bd69f1e7-b901-41a0-b2c9-aee4bd027443","system_id":"levelo_inurba_marseille","lat":43.21194,"lon":5.35071,"is_reserved":false,"is_disabled":false,"rental_uris":{"android":"levelo://app?vid=bd69f1e7-b901-41a0-b2c9-aee4bd027443","ios":"levelo://app?vid=bd69f1e7-b901-41a0-b2c9-aee4bd027443"},"vehicle_type_id":"4","last_reported":1752164027,"current_range_meters":16400,"station_id":"st_cvj6sg6p6f1abm77japg","pricing_plan_id":"cebpf4jnsgd1na2vs0mg"},{"bike_id":"a5a6c2c1-2d48-4581-8647-6eab6c0bbb54","system_id":"levelo_inurba_marseille","lat":43.26342,"lon":5.37386,"is_reserved":false,"is_disabled":false,"rental_uris":{"android":"levelo://app?vid=a5a6c2c1-2d48-4581-8647-6eab6c0bbb54","ios":"levelo://app?vid=a5a6c2c1-2d48-4581-8647-6eab6c0bbb54"},"vehicle_type_id":"4","last_reported":1752164027,"current_range_meters":16800,"station_id":"","pricing_plan_id":"cebpf4jnsgd1na2vs0mg"},{"bike_id":"c7bc0b85-c966-4913-8908-15a71d65944b","system_id":"levelo_inurba_marseille","lat":43.35469,"lon":5.35708,"is_reserved":false,"is_disabled":false,"rental_uris":{"android":"levelo://app?vid=c7bc0b85-c966-4913-8908-15a71d65944b","ios":"levelo://app?vid=c7bc0b85-c966-4913-8908-15a71d65944b"},"vehicle_type_id":"4","last_reported":1752164027,"current_range_meters":16800,"station_id":"","pricing_plan_id":"cebpf4jnsgd1na2vs0mg"},{"bike_id":"24b17f7b-dff1-4936-b27a-7c2c6813a894","system_id":"levelo_inurba_marseille","lat":43.24583,"lon":5.37377,"is_reserved":false,"is_disabled":false,"rental_uris":{"android":"levelo://app?vid=24b17f7b-dff1-4936-b27a-7c2c6813a894","ios":"levelo://app?vid=24b17f7b-dff1-4936-b27a-7c2c6813a894"},"vehicle_type_id":"4","last_reported":1752164027,"current_range_meters":16800,"station_id":"","pricing_plan_id":"cebpf4jnsgd1na2vs0mg"},{"bike_id":"bcb5093d-72d2-421e-92d3-1be69245626d","system_id":"levelo_inurba_marseille","lat":43.28266,"lon":5.35062,"is_reserved":false,"is_disabled":false,"rental_uris":{"android":"levelo://app?vid=bcb5093d-72d2-421e-92d3-1be69245626d","ios":"levelo://app?vid=bcb5093d-72d2-421e-92d3-1be69245626d"},"vehicle_type_id":"4","last_reported":1752164027,"current_range_meters":16800,"station_id":"ce4bhbp2rcd13ifvqerg","pricing_plan_id":"cebpf4jnsgd1na2vs0mg"},{"bike_id":"15ab90ec-56d6-4852-abe6-f4c7ffe49d82","system_id":"levelo_inurba_marseille","lat":43.28272,"lon":5.35055,"is_reserved":false,"is_disabled":false,"rental_uris":{"android":"levelo://app?vid=15ab90ec-56d6-4852-abe6-f4c7ffe49d82","ios":"levelo://app?vid=15ab90ec-56d6-4852-abe6-f4c7ffe49d82"},"vehicle_type_id":"4","last_reported":1752164027,"current_range_meters":16800,"station_id":"ce4bhbp2rcd13ifvqerg","pricing_plan_id":"cebpf4jnsgd1na2vs0mg"},{"bike_id":"620c39dc-a416-4605-b27e-d4faf78ab1bf","system_id":"levelo_inurba_marseille","lat":43.22937,"lon":5.35382,"is_reserved":false,"is_disabled":false,"rental_uris":{"android":"levelo://app?vid=620c39dc-a416-4605-b27e-d4faf78ab1bf","ios":"levelo://app?vid=620c39dc-a416-4605-b27e-d4faf78ab1bf"},"vehicle_type_id":"4","last_reported":1752164027,"current_range_meters":16800,"station_id":"cpo3532slgdg3j2ikp40","pricing_plan_id":"cebpf4jnsgd1na2vs0mg"},{"bike_id":"ee1ac907-8623-4d00-ac01-d41dd90be9fe","system_id":"levelo_inurba_marseille","lat":43.211923,"lon":5.350756,"is_reserved":false,"is_disabled":false,"rental_uris":{"android":"levelo://app?vid=ee1ac907-8623-4d00-ac01-d41dd90be9fe","ios":"levelo://app?vid=ee1ac907-8623-4d00-ac01-d41dd90be9fe"},"vehicle_type_id":"4","last_reported":1752164027,"current_range_meters":16800,"station_id":"st_cvj6sg6p6f1abm77japg","pricing_plan_id":"cebpf4jnsgd1na2vs0mg"},{"bike_id":"0eac6451-c547-4a99-88d5-79d8d8ff4092","system_id":"levelo_inurba_marseille","lat":43.25501,"lon":5.37649,"is_reserved":false,"is_disabled":false,"rental_uris":{"android":"levelo://app?vid=0eac6451-c547-4a99-88d5-79d8d8ff4092","ios":"levelo://app?vid=0eac6451-c547-4a99-88d5-79d8d8ff4092"},"vehicle_type_id":"4","last_reported":1752164027,"current_range_meters":17200,"station_id":"ce4bhh12rcd13ifvqff0","pricing_plan_id":"cebpf4jnsgd1na2vs0mg"},{"bike_id":"1787e472-8d92-4f6e-9830-98951fa4f28a","system_id":"levelo_inurba_marseille","lat":43.25114,"lon":5.40324,"is_reserved":false,"is_disabled":false,"rental_uris":{"android":"levelo://app?vid=1787e472-8d92-4f6e-9830-98951fa4f28a","ios":"levelo://app?vid=1787e472-8d92-4f6e-9830-98951fa4f28a"},"vehicle_type_id":"4","last_reported":1752164027,"current_range_meters":17200,"station_id":"ce4bhlh2rcd13ifvqgig","pricing_plan_id":"cebpf4jnsgd1na2vs0mg"},{"bike_id":"8f89e4f3-495a-4317-bd6d-37a19186d65b","system_id":"levelo_inurba_marseille","lat":43.33732,"lon":5.39183,"is_reserved":false,"is_disabled":false,"rental_uris":{"android":"levelo://app?vid=8f89e4f3-495a-4317-bd6d-37a19186d65b","ios":"levelo://app?vid=8f89e4f3-495a-4317-bd6d-37a19186d65b"},"vehicle_type_id":"4","last_reported":1752164027,"current_range_meters":17200,"station_id":"ce4bhr92rcd13ifvqhsg","pricing_plan_id":"cebpf4jnsgd1na2vs0mg"},{"bike_id":"2b6bd3ba-dfe0-4fa1-b1ff-f2c2b313332f","system_id":"levelo_inurba_marseille","lat":43.30646,"lon":5.40091,"is_reserved":false,"is_disabled":false,"rental_uris":{"android":"levelo://app?vid=2b6bd3ba-dfe0-4fa1-b1ff-f2c2b313332f","ios":"levelo://app?vid=2b6bd3ba-dfe0-4fa1-b1ff-f2c2b313332f"},"vehicle_type_id":"4","last_reported":1752164027,"current_range_meters":17600,"station_id":"ce4bh112rcd13ifvqda0","pricing_plan_id":"cebpf4jnsgd1na2vs0mg"},{"bike_id":"30fd62ac-ec19-4504-9233-e7df60bba0d2","system_id":"levelo_inurba_marseille","lat":43.29227,"lon":5.36064,"is_reserved":false,"is_disabled":false,"rental_uris":{"android":"levelo://app?vid=30fd62ac-ec19-4504-9233-e7df60bba0d2","ios":"levelo://app?vid=30fd62ac-ec19-4504-9233-e7df60bba0d2"},"vehicle_type_id":"4","last_reported":1752164027,"current_range_meters":17600,"station_id":"ce4bhbh2rcd13ifvqeqg","pricing_plan_id":"cebpf4jnsgd1na2vs0mg"},{"bike_id":"b91b8fb9-5444-4d1a-81f3-85ecd3bb1405","system_id":"levelo_inurba_marseille","lat":43.23186,"lon":5.39981,"is_reserved":false,"is_disabled":false,"rental_uris":{"android":"levelo://app?vid=b91b8fb9-5444-4d1a-81f3-85ecd3bb1405","ios":"levelo://app?vid=b91b8fb9-5444-4d1a-81f3-85ecd3bb1405"},"vehicle_type_id":"4","last_reported":1752164027,"current_range_meters":17600,"station_id":"ce4bhn12rcd13ifvqgqg","pricing_plan_id":"cebpf4jnsgd1na2vs0mg"},{"bike_id":"ccd8088e-665d-407d-bc70-2c07bf9cec81","system_id":"levelo_inurba_marseille","lat":43.22971,"lon":5.35384,"is_reserved":false,"is_disabled":false,"rental_uris":{"android":"levelo://app?vid=ccd8088e-665d-407d-bc70-2c07bf9cec81","ios":"levelo://app?vid=ccd8088e-665d-407d-bc70-2c07bf9cec81"},"vehicle_type_id":"4","last_reported":1752164027,"current_range_meters":17600,"station_id":"cpo3532slgdg3j2ikp40","pricing_plan_id":"cebpf4jnsgd1na2vs0mg"},{"bike_id":"6d526cf2-f7c6-43f0-8c10-b635af2f14a9","system_id":"levelo_inurba_marseille","lat":43.22938,"lon":5.35385,"is_reserved":false,"is_disabled":false,"rental_uris":{"android":"levelo://app?vid=6d526cf2-f7c6-43f0-8c10-b635af2f14a9","ios":"levelo://app?vid=6d526cf2-f7c6-43f0-8c10-b635af2f14a9"},"vehicle_type_id":"4","last_reported":1752164027,"current_range_meters":17600,"station_id":"cpo3532slgdg3j2ikp40","pricing_plan_id":"cebpf4jnsgd1na2vs0mg"},{"bike_id":"9b8d88ed-6470-44a5-bbbe-5ed7e95c1cb7","system_id":"levelo_inurba_marseille","lat":43.24172,"lon":5.36399,"is_reserved":false,"is_disabled":false,"rental_uris":{"android":"levelo://app?vid=9b8d88ed-6470-44a5-bbbe-5ed7e95c1cb7","ios":"levelo://app?vid=9b8d88ed-6470-44a5-bbbe-5ed7e95c1cb7"},"vehicle_type_id":"4","last_reported":1752164027,"current_range_meters":17600,"station_id":"cpo36qri1sfpv3e86is0","pricing_plan_id":"cebpf4jnsgd1na2vs0mg"},{"bike_id":"6737467a-fe5d-470c-a191-2df05ebbb3bb","system_id":"levelo_inurba_marseille","lat":43.22504,"lon":5.3478,"is_reserved":false,"is_disabled":false,"rental_uris":{"android":"levelo://app?vid=6737467a-fe5d-470c-a191-2df05ebbb3bb","ios":"levelo://app?vid=6737467a-fe5d-470c-a191-2df05ebbb3bb"},"vehicle_type_id":"4","last_reported":1752164027,"current_range_meters":17600,"station_id":"st_cvj5dfep6f1abm77gieg","pricing_plan_id":"cebpf4jnsgd1na2vs0mg"},{"bike_id":"29a0a180-d29f-4a4e-a71b-d1d9d42cb217","system_id":"levelo_inurba_marseille","lat":43.21199,"lon":5.35096,"is_reserved":false,"is_disabled":false,"rental_uris":{"android":"levelo://app?vid=29a0a180-d29f-4a4e-a71b-d1d9d42cb217","ios":"levelo://app?vid=29a0a180-d29f-4a4e-a71b-d1d9d42cb217"},"vehicle_type_id":"4","last_reported":1752164027,"current_range_meters":17600,"station_id":"st_cvj6sg6p6f1abm77japg","pricing_plan_id":"cebpf4jnsgd1na2vs0mg"},{"bike_id":"595e9351-a7ce-45de-8995-771f7d9fe86e","system_id":"levelo_inurba_marseille","lat":43.309243,"lon":5.378088,"is_reserved":false,"is_disabled":false,"rental_uris":{"android":"levelo://app?vid=595e9351-a7ce-45de-8995-771f7d9fe86e","ios":"levelo://app?vid=595e9351-a7ce-45de-8995-771f7d9fe86e"},"vehicle_type_id":"4","last_reported":1752164027,"current_range_meters":18000,"station_id":"","pricing_plan_id":"cebpf4jnsgd1na2vs0mg"},{"bike_id":"a3b181d7-660b-4384-bba7-2a3716216f96","system_id":"levelo_inurba_marseille","lat":43.29371,"lon":5.37847,"is_reserved":false,"is_disabled":false,"rental_uris":{"android":"levelo://app?vid=a3b181d7-660b-4384-bba7-2a3716216f96","ios":"levelo://app?vid=a3b181d7-660b-4384-bba7-2a3716216f96"},"vehicle_type_id":"4","last_reported":1752164027,"current_range_meters":18000,"station_id":"ce4bgjh2rcd13ifvqbf0","pricing_plan_id":"cebpf4jnsgd1na2vs0mg"},{"bike_id":"ca388669-3cd9-4c5f-aa23-09368d809d3d","system_id":"levelo_inurba_marseille","lat":43.29263,"lon":5.40899,"is_reserved":false,"is_disabled":false,"rental_uris":{"android":"levelo://app?vid=ca388669-3cd9-4c5f-aa23-09368d809d3d","ios":"levelo://app?vid=ca388669-3cd9-4c5f-aa23-09368d809d3d"},"vehicle_type_id":"4","last_reported":1752164027,"current_range_meters":18000,"station_id":"ce4bh192rcd13ifvqdc0","pricing_plan_id":"cebpf4jnsgd1na2vs0mg"},{"bike_id":"9c7b9eb3-fb2c-449b-b274-14b6d04b355e","system_id":"levelo_inurba_marseille","lat":43.28943,"lon":5.39629,"is_reserved":false,"is_disabled":false,"rental_uris":{"android":"levelo://app?vid=9c7b9eb3-fb2c-449b-b274-14b6d04b355e","ios":"levelo://app?vid=9c7b9eb3-fb2c-449b-b274-14b6d04b355e"},"vehicle_type_id":"4","last_reported":1752164027,"current_range_meters":18000,"station_id":"ce4bh3h2rcd13ifvqdn0","pricing_plan_id":"cebpf4jnsgd1na2vs0mg"},{"bike_id":"d33cbabe-8724-4b7d-a873-a5476968f7d3","system_id":"levelo_inurba_marseille","lat":43.28426,"lon":5.34981,"is_reserved":false,"is_disabled":false,"rental_uris":{"android":"levelo://app?vid=d33cbabe-8724-4b7d-a873-a5476968f7d3","ios":"levelo://app?vid=d33cbabe-8724-4b7d-a873-a5476968f7d3"},"vehicle_type_id":"4","last_reported":1752164027,"current_range_meters":18000,"station_id":"ce4bhbh2rcd13ifvqepg","pricing_plan_id":"cebpf4jnsgd1na2vs0mg"},{"bike_id":"ab7ba332-0fe2-4b95-9500-35c9f93412fb","system_id":"levelo_inurba_marseille","lat":43.28277,"lon":5.35058,"is_reserved":false,"is_disabled":false,"rental_uris":{"android":"levelo://app?vid=ab7ba332-0fe2-4b95-9500-35c9f93412fb","ios":"levelo://app?vid=ab7ba332-0fe2-4b95-9500-35c9f93412fb"},"vehicle_type_id":"4","last_reported":1752164027,"current_range_meters":18000,"station_id":"ce4bhbp2rcd13ifvqerg","pricing_plan_id":"cebpf4jnsgd1na2vs0mg"},{"bike_id":"bb5f6e14-9798-4952-af04-7c292094af51","system_id":"levelo_inurba_marseille","lat":43.286157,"lon":5.350984,"is_reserved":false,"is_disabled":false,"rental_uris":{"android":"levelo://app?vid=bb5f6e14-9798-4952-af04-7c292094af51","ios":"levelo://app?vid=bb5f6e14-9798-4952-af04-7c292094af51"},"vehicle_type_id":"4","last_reported":1752164027,"current_range_meters":18000,"station_id":"ce4bhch2rcd13ifvqeug","pricing_plan_id":"cebpf4jnsgd1na2vs0mg"},{"bike_id":"8b440aeb-3c8b-4650-9f24-9c9b62dd74de","system_id":"levelo_inurba_marseille","lat":43.21197,"lon":5.35066,"is_reserved":false,"is_disabled":false,"rental_uris":{"android":"levelo://app?vid=8b440aeb-3c8b-4650-9f24-9c9b62dd74de","ios":"levelo://app?vid=8b440aeb-3c8b-4650-9f24-9c9b62dd74de"},"vehicle_type_id":"4","last_reported":1752164027,"current_range_meters":18000,"station_id":"st_cvj6sg6p6f1abm77japg","pricing_plan_id":"cebpf4jnsgd1na2vs0mg"},{"bike_id":"f172a914-1395-4e57-8a1c-dcbe8652545d","system_id":"levelo_inurba_marseille","lat":43.26206,"lon":5.37442,"is_reserved":false,"is_disabled":false,"rental_uris":{"android":"levelo://app?vid=f172a914-1395-4e57-8a1c-dcbe8652545d","ios":"levelo://app?vid=f172a914-1395-4e57-8a1c-dcbe8652545d"},"vehicle_type_id":"4","last_reported":1752164027,"current_range_meters":18800,"station_id":"ce4bhgp2rcd13ifvqfc0","pricing_plan_id":"cebpf4jnsgd1na2vs0mg"},{"bike_id":"e3a75ee9-c614-467b-8cc2-f813bcef2ab1","system_id":"levelo_inurba_marseille","lat":43.33743,"lon":5.3919,"is_reserved":false,"is_disabled":false,"rental_uris":{"android":"levelo://app?vid=e3a75ee9-c614-467b-8cc2-f813bcef2ab1","ios":"levelo://app?vid=e3a75ee9-c614-467b-8cc2-f813bcef2ab1"},"vehicle_type_id":"4","last_reported":1752164027,"current_range_meters":18800,"station_id":"ce4bhr92rcd13ifvqhsg","pricing_plan_id":"cebpf4jnsgd1na2vs0mg"},{"bike_id":"5423e7d5-07f9-4264-9d42-219884898d7f","system_id":"levelo_inurba_marseille","lat":43.24171,"lon":5.3639,"is_reserved":false,"is_disabled":false,"rental_uris":{"android":"levelo://app?vid=5423e7d5-07f9-4264-9d42-219884898d7f","ios":"levelo://app?vid=5423e7d5-07f9-4264-9d42-219884898d7f"},"vehicle_type_id":"4","last_reported":1752164027,"current_range_meters":18800,"station_id":"cpo36qri1sfpv3e86is0","pricing_plan_id":"cebpf4jnsgd1na2vs0mg"},{"bike_id":"96f82260-718a-4e3a-9802-28ac9d732e83","system_id":"levelo_inurba_marseille","lat":43.26161,"lon":5.37468,"is_reserved":false,"is_disabled":false,"rental_uris":{"android":"levelo://app?vid=96f82260-718a-4e3a-9802-28ac9d732e83","ios":"levelo://app?vid=96f82260-718a-4e3a-9802-28ac9d732e83"},"vehicle_type_id":"4","last_reported":1752164027,"current_range_meters":19200,"station_id":"","pricing_plan_id":"cebpf4jnsgd1na2vs0mg"},{"bike_id":"cb8db05c-7ef4-4fcf-b321-cdc13d7cccad","system_id":"levelo_inurba_marseille","lat":43.29093,"lon":5.35605,"is_reserved":false,"is_disabled":false,"rental_uris":{"android":"levelo://app?vid=cb8db05c-7ef4-4fcf-b321-cdc13d7cccad","ios":"levelo://app?vid=cb8db05c-7ef4-4fcf-b321-cdc13d7cccad"},"vehicle_type_id":"4","last_reported":1752164027,"current_range_meters":19200,"station_id":"","pricing_plan_id":"cebpf4jnsgd1na2vs0mg"},{"bike_id":"479b69d4-3376-4ae6-bc74-41dcf16b0474","system_id":"levelo_inurba_marseille","lat":43.22502,"lon":5.3478,"is_reserved":false,"is_disabled":false,"rental_uris":{"android":"levelo://app?vid=479b69d4-3376-4ae6-bc74-41dcf16b0474","ios":"levelo://app?vid=479b69d4-3376-4ae6-bc74-41dcf16b0474"},"vehicle_type_id":"4","last_reported":1752164027,"current_range_meters":19200,"station_id":"st_cvj5dfep6f1abm77gieg","pricing_plan_id":"cebpf4jnsgd1na2vs0mg"},{"bike_id":"74e28da6-3b32-49bf-b00e-3c1cff23531a","system_id":"levelo_inurba_marseille","lat":43.273825,"lon":5.362543,"is_reserved":false,"is_disabled":false,"rental_uris":{"android":"levelo://app?vid=74e28da6-3b32-49bf-b00e-3c1cff23531a","ios":"levelo://app?vid=74e28da6-3b32-49bf-b00e-3c1cff23531a"},"vehicle_type_id":"4","last_reported":1752164027,"current_range_meters":19600,"station_id":"ce4bhbh2rcd13ifvqeo0","pricing_plan_id":"cebpf4jnsgd1na2vs0mg"},{"bike_id":"f89cbb7d-c8f7-4239-a061-c56dfbaf8fe7","system_id":"levelo_inurba_marseille","lat":43.28412,"lon":5.34978,"is_reserved":false,"is_disabled":false,"rental_uris":{"android":"levelo://app?vid=f89cbb7d-c8f7-4239-a061-c56dfbaf8fe7","ios":"levelo://app?vid=f89cbb7d-c8f7-4239-a061-c56dfbaf8fe7"},"vehicle_type_id":"4","last_reported":1752164027,"current_range_meters":19600,"station_id":"ce4bhbh2rcd13ifvqepg","pricing_plan_id":"cebpf4jnsgd1na2vs0mg"},{"bike_id":"19d33d6b-ba87-4683-aeb7-3dd88f99966f","system_id":"levelo_inurba_marseille","lat":43.30419,"lon":5.41292,"is_reserved":false,"is_disabled":false,"rental_uris":{"android":"levelo://app?vid=19d33d6b-ba87-4683-aeb7-3dd88f99966f","ios":"levelo://app?vid=19d33d6b-ba87-4683-aeb7-3dd88f99966f"},"vehicle_type_id":"4","last_reported":1752164027,"current_range_meters":19600,"station_id":"ce4bhop2rcd13ifvqh8g","pricing_plan_id":"cebpf4jnsgd1na2vs0mg"},{"bike_id":"495b42e7-c480-4c9f-af1d-45f0e83f40b6","system_id":"levelo_inurba_marseille","lat":43.21746,"lon":5.34607,"is_reserved":false,"is_disabled":false,"rental_uris":{"android":"levelo://app?vid=495b42e7-c480-4c9f-af1d-45f0e83f40b6","ios":"levelo://app?vid=495b42e7-c480-4c9f-af1d-45f0e83f40b6"},"vehicle_type_id":"4","last_reported":1752164027,"current_range_meters":19600,"station_id":"st_cvj6r9ubvosntc0bgbag","pricing_plan_id":"cebpf4jnsgd1na2vs0mg"},{"bike_id":"dafa5a87-b26d-4379-9a6b-1f02133b78a6","system_id":"levelo_inurba_marseille","lat":43.211974,"lon":5.350832,"is_reserved":false,"is_disabled":false,"rental_uris":{"android":"levelo://app?vid=dafa5a87-b26d-4379-9a6b-1f02133b78a6","ios":"levelo://app?vid=dafa5a87-b26d-4379-9a6b-1f02133b78a6"},"vehicle_type_id":"4","last_reported":1752164027,"current_range_meters":19600,"station_id":"st_cvj6sg6p6f1abm77japg","pricing_plan_id":"cebpf4jnsgd1na2vs0mg"},{"bike_id":"52bbed55-bb43-4609-aa14-ca80dd09df26","system_id":"levelo_inurba_marseille","lat":43.337474,"lon":5.374876,"is_reserved":false,"is_disabled":false,"rental_uris":{"android":"levelo://app?vid=52bbed55-bb43-4609-aa14-ca80dd09df26","ios":"levelo://app?vid=52bbed55-bb43-4609-aa14-ca80dd09df26"},"vehicle_type_id":"4","last_reported":1752164027,"current_range_meters":20000,"station_id":"","pricing_plan_id":"cebpf4jnsgd1na2vs0mg"},{"bike_id":"2a2b3889-1b6f-4248-9f6e-2211631d1d38","system_id":"levelo_inurba_marseille","lat":43.240787,"lon":5.377627,"is_reserved":false,"is_disabled":false,"rental_uris":{"android":"levelo://app?vid=2a2b3889-1b6f-4248-9f6e-2211631d1d38","ios":"levelo://app?vid=2a2b3889-1b6f-4248-9f6e-2211631d1d38"},"vehicle_type_id":"4","last_reported":1752164027,"current_range_meters":20000,"station_id":"","pricing_plan_id":"cebpf4jnsgd1na2vs0mg"},{"bike_id":"7b5cd6ce-df57-4328-854d-cb2d1407ab18","system_id":"levelo_inurba_marseille","lat":43.3307,"lon":5.39027,"is_reserved":false,"is_disabled":false,"rental_uris":{"android":"levelo://app?vid=7b5cd6ce-df57-4328-854d-cb2d1407ab18","ios":"levelo://app?vid=7b5cd6ce-df57-4328-854d-cb2d1407ab18"},"vehicle_type_id":"4","last_reported":1752164027,"current_range_meters":20000,"station_id":"","pricing_plan_id":"cebpf4jnsgd1na2vs0mg"},{"bike_id":"493cf96e-e37d-4197-bc8b-d75d717b1325","system_id":"levelo_inurba_marseille","lat":43.27618,"lon":5.36105,"is_reserved":false,"is_disabled":false,"rental_uris":{"android":"levelo://app?vid=493cf96e-e37d-4197-bc8b-d75d717b1325","ios":"levelo://app?vid=493cf96e-e37d-4197-bc8b-d75d717b1325"},"vehicle_type_id":"4","last_reported":1752164027,"current_range_meters":20000,"station_id":"ce4bgj92rcd13ifvqbe0","pricing_plan_id":"cebpf4jnsgd1na2vs0mg"},{"bike_id":"ec8f48e0-76ec-477e-a3d5-c18a3450aaa6","system_id":"levelo_inurba_marseille","lat":43.27611,"lon":5.3611,"is_reserved":false,"is_disabled":false,"rental_uris":{"android":"levelo://app?vid=ec8f48e0-76ec-477e-a3d5-c18a3450aaa6","ios":"levelo://app?vid=ec8f48e0-76ec-477e-a3d5-c18a3450aaa6"},"vehicle_type_id":"4","last_reported":1752164027,"current_range_meters":20000,"station_id":"ce4bgj92rcd13ifvqbe0","pricing_plan_id":"cebpf4jnsgd1na2vs0mg"},{"bike_id":"240aff83-107d-44a0-9c41-e5ddc205848e","system_id":"levelo_inurba_marseille","lat":43.28106,"lon":5.37833,"is_reserved":false,"is_disabled":false,"rental_uris":{"android":"levelo://app?vid=240aff83-107d-44a0-9c41-e5ddc205848e","ios":"levelo://app?vid=240aff83-107d-44a0-9c41-e5ddc205848e"},"vehicle_type_id":"4","last_reported":1752164027,"current_range_meters":20000,"station_id":"ce4bha12rcd13ifvqee0","pricing_plan_id":"cebpf4jnsgd1na2vs0mg"},{"bike_id":"cd0db069-a7fa-4c85-b822-14eda541dcdf","system_id":"levelo_inurba_marseille","lat":43.284266,"lon":5.349887,"is_reserved":false,"is_disabled":false,"rental_uris":{"android":"levelo://app?vid=cd0db069-a7fa-4c85-b822-14eda541dcdf","ios":"levelo://app?vid=cd0db069-a7fa-4c85-b822-14eda541dcdf"},"vehicle_type_id":"4","last_reported":1752164027,"current_range_meters":20000,"station_id":"ce4bhbh2rcd13ifvqepg","pricing_plan_id":"cebpf4jnsgd1na2vs0mg"},{"bike_id":"f2f21f0c-8da9-490b-aeba-9c9ed2f712f4","system_id":"levelo_inurba_marseille","lat":43.28273,"lon":5.3506,"is_reserved":false,"is_disabled":false,"rental_uris":{"android":"levelo://app?vid=f2f21f0c-8da9-490b-aeba-9c9ed2f712f4","ios":"levelo://app?vid=f2f21f0c-8da9-490b-aeba-9c9ed2f712f4"},"vehicle_type_id":"4","last_reported":1752164027,"current_range_meters":20000,"station_id":"ce4bhbp2rcd13ifvqerg","pricing_plan_id":"cebpf4jnsgd1na2vs0mg"},{"bike_id":"88ae071b-05d8-478f-85f8-91f0f866dfb9","system_id":"levelo_inurba_marseille","lat":43.24167,"lon":5.36392,"is_reserved":false,"is_disabled":false,"rental_uris":{"android":"levelo://app?vid=88ae071b-05d8-478f-85f8-91f0f866dfb9","ios":"levelo://app?vid=88ae071b-05d8-478f-85f8-91f0f866dfb9"},"vehicle_type_id":"4","last_reported":1752164027,"current_range_meters":20000,"station_id":"cpo36qri1sfpv3e86is0","pricing_plan_id":"cebpf4jnsgd1na2vs0mg"},{"bike_id":"37b84a38-055a-4a6e-a56a-8ff3d0c1b2ec","system_id":"levelo_inurba_marseille","lat":43.211895,"lon":5.350751,"is_reserved":false,"is_disabled":false,"rental_uris":{"android":"levelo://app?vid=37b84a38-055a-4a6e-a56a-8ff3d0c1b2ec","ios":"levelo://app?vid=37b84a38-055a-4a6e-a56a-8ff3d0c1b2ec"},"vehicle_type_id":"4","last_reported":1752164027,"current_range_meters":20000,"station_id":"st_cvj6sg6p6f1abm77japg","pricing_plan_id":"cebpf4jnsgd1na2vs0mg"},{"bike_id":"2b52bfd7-61a6-4311-9b55-d5f6720b4086","system_id":"levelo_inurba_marseille","lat":43.27927,"lon":5.35321,"is_reserved":false,"is_disabled":false,"rental_uris":{"android":"levelo://app?vid=2b52bfd7-61a6-4311-9b55-d5f6720b4086","ios":"levelo://app?vid=2b52bfd7-61a6-4311-9b55-d5f6720b4086"},"vehicle_type_id":"4","last_reported":1752164027,"current_range_meters":20400,"station_id":"","pricing_plan_id":"cebpf4jnsgd1na2vs0mg"},{"bike_id":"43b90c82-97e0-4fa7-8b67-2448f07d529e","system_id":"levelo_inurba_marseille","lat":43.21179,"lon":5.35052,"is_reserved":false,"is_disabled":false,"rental_uris":{"android":"levelo://app?vid=43b90c82-97e0-4fa7-8b67-2448f07d529e","ios":"levelo://app?vid=43b90c82-97e0-4fa7-8b67-2448f07d529e"},"vehicle_type_id":"4","last_reported":1752164027,"current_range_meters":20400,"station_id":"","pricing_plan_id":"cebpf4jnsgd1na2vs0mg"},{"bike_id":"bd07bfd5-8c03-4cb3-991d-e271b79dcece","system_id":"levelo_inurba_marseille","lat":43.30889,"lon":5.39658,"is_reserved":false,"is_disabled":false,"rental_uris":{"android":"levelo://app?vid=bd07bfd5-8c03-4cb3-991d-e271b79dcece","ios":"levelo://app?vid=bd07bfd5-8c03-4cb3-991d-e271b79dcece"},"vehicle_type_id":"4","last_reported":1752164027,"current_range_meters":20400,"station_id":"ce4bh012rcd13ifvqcv0","pricing_plan_id":"cebpf4jnsgd1na2vs0mg"},{"bike_id":"16e99f87-7aa7-4582-9017-f2c8e6d4f340","system_id":"levelo_inurba_marseille","lat":43.28464,"lon":5.35893,"is_reserved":false,"is_disabled":false,"rental_uris":{"android":"levelo://app?vid=16e99f87-7aa7-4582-9017-f2c8e6d4f340","ios":"levelo://app?vid=16e99f87-7aa7-4582-9017-f2c8e6d4f340"},"vehicle_type_id":"4","last_reported":1752164027,"current_range_meters":20400,"station_id":"ce4bhah2rcd13ifvqei0","pricing_plan_id":"cebpf4jnsgd1na2vs0mg"},{"bike_id":"4439aae1-39c8-4cb8-be99-1cf211bed0a8","system_id":"levelo_inurba_marseille","lat":43.27384,"lon":5.36263,"is_reserved":false,"is_disabled":false,"rental_uris":{"android":"levelo://app?vid=4439aae1-39c8-4cb8-be99-1cf211bed0a8","ios":"levelo://app?vid=4439aae1-39c8-4cb8-be99-1cf211bed0a8"},"vehicle_type_id":"4","last_reported":1752164027,"current_range_meters":20400,"station_id":"ce4bhbh2rcd13ifvqeo0","pricing_plan_id":"cebpf4jnsgd1na2vs0mg"},{"bike_id":"b91a9b02-eaab-4e94-aa0d-bbcdcefe543a","system_id":"levelo_inurba_marseille","lat":43.28002,"lon":5.41652,"is_reserved":false,"is_disabled":false,"rental_uris":{"android":"levelo://app?vid=b91a9b02-eaab-4e94-aa0d-bbcdcefe543a","ios":"levelo://app?vid=b91a9b02-eaab-4e94-aa0d-bbcdcefe543a"},"vehicle_type_id":"4","last_reported":1752164027,"current_range_meters":20400,"station_id":"ce4bho12rcd13ifvqh1g","pricing_plan_id":"cebpf4jnsgd1na2vs0mg"},{"bike_id":"5d6c4eeb-e496-433a-b6ba-1c8b385b2e6b","system_id":"levelo_inurba_marseille","lat":43.31759,"lon":5.39014,"is_reserved":false,"is_disabled":false,"rental_uris":{"android":"levelo://app?vid=5d6c4eeb-e496-433a-b6ba-1c8b385b2e6b","ios":"levelo://app?vid=5d6c4eeb-e496-433a-b6ba-1c8b385b2e6b"},"vehicle_type_id":"4","last_reported":1752164027,"current_range_meters":20400,"station_id":"ce4bhqp2rcd13ifvqhng","pricing_plan_id":"cebpf4jnsgd1na2vs0mg"},{"bike_id":"5f9facdb-d1e1-40e1-8ceb-766e4b9ac193","system_id":"levelo_inurba_marseille","lat":43.21754,"lon":5.345992,"is_reserved":false,"is_disabled":false,"rental_uris":{"android":"levelo://app?vid=5f9facdb-d1e1-40e1-8ceb-766e4b9ac193","ios":"levelo://app?vid=5f9facdb-d1e1-40e1-8ceb-766e4b9ac193"},"vehicle_type_id":"4","last_reported":1752164027,"current_range_meters":20800,"station_id":"","pricing_plan_id":"cebpf4jnsgd1na2vs0mg"},{"bike_id":"e408666d-2020-4ab7-b766-2c04dd0d8596","system_id":"levelo_inurba_marseille","lat":43.32093,"lon":5.41532,"is_reserved":false,"is_disabled":false,"rental_uris":{"android":"levelo://app?vid=e408666d-2020-4ab7-b766-2c04dd0d8596","ios":"levelo://app?vid=e408666d-2020-4ab7-b766-2c04dd0d8596"},"vehicle_type_id":"4","last_reported":1752164027,"current_range_meters":20800,"station_id":"","pricing_plan_id":"cebpf4jnsgd1na2vs0mg"},{"bike_id":"f512c59e-0c31-4474-acca-e0830138b291","system_id":"levelo_inurba_marseille","lat":43.29309,"lon":5.37475,"is_reserved":false,"is_disabled":false,"rental_uris":{"android":"levelo://app?vid=f512c59e-0c31-4474-acca-e0830138b291","ios":"levelo://app?vid=f512c59e-0c31-4474-acca-e0830138b291"},"vehicle_type_id":"4","last_reported":1752164027,"current_range_meters":20800,"station_id":"ce4bgi12rcd13ifvqb70","pricing_plan_id":"cebpf4jnsgd1na2vs0mg"},{"bike_id":"68826ec1-2d41-4bb5-a405-afb62c7d1197","system_id":"levelo_inurba_marseille","lat":43.28409,"lon":5.34998,"is_reserved":false,"is_disabled":false,"rental_uris":{"android":"levelo://app?vid=68826ec1-2d41-4bb5-a405-afb62c7d1197","ios":"levelo://app?vid=68826ec1-2d41-4bb5-a405-afb62c7d1197"},"vehicle_type_id":"4","last_reported":1752164027,"current_range_meters":20800,"station_id":"ce4bhbh2rcd13ifvqepg","pricing_plan_id":"cebpf4jnsgd1na2vs0mg"},{"bike_id":"dbba3321-20c7-4989-a7b5-ea9ab2c4b3e8","system_id":"levelo_inurba_marseille","lat":43.261935,"lon":5.374477,"is_reserved":false,"is_disabled":false,"rental_uris":{"android":"levelo://app?vid=dbba3321-20c7-4989-a7b5-ea9ab2c4b3e8","ios":"levelo://app?vid=dbba3321-20c7-4989-a7b5-ea9ab2c4b3e8"},"vehicle_type_id":"4","last_reported":1752164027,"current_range_meters":20800,"station_id":"ce4bhgp2rcd13ifvqfc0","pricing_plan_id":"cebpf4jnsgd1na2vs0mg"},{"bike_id":"b6dcd2c1-0d76-4767-8413-3866b661d382","system_id":"levelo_inurba_marseille","lat":43.279459,"lon":5.410666,"is_reserved":false,"is_disabled":false,"rental_uris":{"android":"levelo://app?vid=b6dcd2c1-0d76-4767-8413-3866b661d382","ios":"levelo://app?vid=b6dcd2c1-0d76-4767-8413-3866b661d382"},"vehicle_type_id":"4","last_reported":1752164027,"current_range_meters":20800,"station_id":"ce4bhnp2rcd13ifvqh0g","pricing_plan_id":"cebpf4jnsgd1na2vs0mg"},{"bike_id":"95732df8-6c94-4c0c-9bb3-297fd2e8aeb1","system_id":"levelo_inurba_marseille","lat":43.31528,"lon":5.38037,"is_reserved":false,"is_disabled":false,"rental_uris":{"android":"levelo://app?vid=95732df8-6c94-4c0c-9bb3-297fd2e8aeb1","ios":"levelo://app?vid=95732df8-6c94-4c0c-9bb3-297fd2e8aeb1"},"vehicle_type_id":"4","last_reported":1752164027,"current_range_meters":20800,"station_id":"ce4bhsp2rcd13ifvqi50","pricing_plan_id":"cebpf4jnsgd1na2vs0mg"},{"bike_id":"27a08b2c-c33c-48f9-965b-9b78deb931b7","system_id":"levelo_inurba_marseille","lat":43.298085,"lon":5.381047,"is_reserved":false,"is_disabled":false,"rental_uris":{"android":"levelo://app?vid=27a08b2c-c33c-48f9-965b-9b78deb931b7","ios":"levelo://app?vid=27a08b2c-c33c-48f9-965b-9b78deb931b7"},"vehicle_type_id":"4","last_reported":1752164027,"current_range_meters":21600,"station_id":"ce4bgip2rcd13ifvqbb0","pricing_plan_id":"cebpf4jnsgd1na2vs0mg"},{"bike_id":"5e8e2973-8562-414c-a2a7-f651670dd623","system_id":"levelo_inurba_marseille","lat":43.28417,"lon":5.34984,"is_reserved":false,"is_disabled":false,"rental_uris":{"android":"levelo://app?vid=5e8e2973-8562-414c-a2a7-f651670dd623","ios":"levelo://app?vid=5e8e2973-8562-414c-a2a7-f651670dd623"},"vehicle_type_id":"4","last_reported":1752164027,"current_range_meters":21600,"station_id":"ce4bhbh2rcd13ifvqepg","pricing_plan_id":"cebpf4jnsgd1na2vs0mg"},{"bike_id":"9d0d85e3-ee19-452d-93c5-fbfc98a09acf","system_id":"levelo_inurba_marseille","lat":43.31772,"lon":5.43549,"is_reserved":false,"is_disabled":false,"rental_uris":{"android":"levelo://app?vid=9d0d85e3-ee19-452d-93c5-fbfc98a09acf","ios":"levelo://app?vid=9d0d85e3-ee19-452d-93c5-fbfc98a09acf"},"vehicle_type_id":"4","last_reported":1752164027,"current_range_meters":22000,"station_id":"","pricing_plan_id":"cebpf4jnsgd1na2vs0mg"},{"bike_id":"e1d93387-0760-4e52-97c0-2da94b06d908","system_id":"levelo_inurba_marseille","lat":43.276129,"lon":5.360936,"is_reserved":false,"is_disabled":false,"rental_uris":{"android":"levelo://app?vid=e1d93387-0760-4e52-97c0-2da94b06d908","ios":"levelo://app?vid=e1d93387-0760-4e52-97c0-2da94b06d908"},"vehicle_type_id":"4","last_reported":1752164027,"current_range_meters":22000,"station_id":"ce4bgj92rcd13ifvqbe0","pricing_plan_id":"cebpf4jnsgd1na2vs0mg"},{"bike_id":"019ab98f-1040-4d27-806b-bbb32ffcbdf2","system_id":"levelo_inurba_marseille","lat":43.29269,"lon":5.38453,"is_reserved":false,"is_disabled":false,"rental_uris":{"android":"levelo://app?vid=019ab98f-1040-4d27-806b-bbb32ffcbdf2","ios":"levelo://app?vid=019ab98f-1040-4d27-806b-bbb32ffcbdf2"},"vehicle_type_id":"4","last_reported":1752164027,"current_range_meters":22000,"station_id":"ce4bh692rcd13ifvqea0","pricing_plan_id":"cebpf4jnsgd1na2vs0mg"},{"bike_id":"39438dbc-87f6-42fd-8e4b-472a9231b8ee","system_id":"levelo_inurba_marseille","lat":43.26198,"lon":5.3745,"is_reserved":false,"is_disabled":false,"rental_uris":{"android":"levelo://app?vid=39438dbc-87f6-42fd-8e4b-472a9231b8ee","ios":"levelo://app?vid=39438dbc-87f6-42fd-8e4b-472a9231b8ee"},"vehicle_type_id":"4","last_reported":1752164027,"current_range_meters":22000,"station_id":"ce4bhgp2rcd13ifvqfc0","pricing_plan_id":"cebpf4jnsgd1na2vs0mg"},{"bike_id":"beccf310-cf09-4fa3-9cfd-f4df4292f0d8","system_id":"levelo_inurba_marseille","lat":43.29529,"lon":5.37505,"is_reserved":false,"is_disabled":false,"rental_uris":{"android":"levelo://app?vid=beccf310-cf09-4fa3-9cfd-f4df4292f0d8","ios":"levelo://app?vid=beccf310-cf09-4fa3-9cfd-f4df4292f0d8"},"vehicle_type_id":"4","last_reported":1752164027,"current_range_meters":22400,"station_id":"ce4bgkp2rcd13ifvqbmg","pricing_plan_id":"cebpf4jnsgd1na2vs0mg"},{"bike_id":"1e9fd962-7dd0-4c85-89e4-a69a8b8029db","system_id":"levelo_inurba_marseille","lat":43.27377,"lon":5.36255,"is_reserved":false,"is_disabled":false,"rental_uris":{"android":"levelo://app?vid=1e9fd962-7dd0-4c85-89e4-a69a8b8029db","ios":"levelo://app?vid=1e9fd962-7dd0-4c85-89e4-a69a8b8029db"},"vehicle_type_id":"4","last_reported":1752164027,"current_range_meters":22400,"station_id":"ce4bhbh2rcd13ifvqeo0","pricing_plan_id":"cebpf4jnsgd1na2vs0mg"},{"bike_id":"961462f0-23a3-4075-bae2-9dac5a8431e4","system_id":"levelo_inurba_marseille","lat":43.25107,"lon":5.40324,"is_reserved":false,"is_disabled":false,"rental_uris":{"android":"levelo://app?vid=961462f0-23a3-4075-bae2-9dac5a8431e4","ios":"levelo://app?vid=961462f0-23a3-4075-bae2-9dac5a8431e4"},"vehicle_type_id":"4","last_reported":1752164027,"current_range_meters":22400,"station_id":"ce4bhlh2rcd13ifvqgig","pricing_plan_id":"cebpf4jnsgd1na2vs0mg"},{"bike_id":"452e8211-4f44-45d0-814a-3e9e25b8c44e","system_id":"levelo_inurba_marseille","lat":43.21196,"lon":5.35072,"is_reserved":false,"is_disabled":false,"rental_uris":{"android":"levelo://app?vid=452e8211-4f44-45d0-814a-3e9e25b8c44e","ios":"levelo://app?vid=452e8211-4f44-45d0-814a-3e9e25b8c44e"},"vehicle_type_id":"4","last_reported":1752164027,"current_range_meters":22400,"station_id":"st_cvj6sg6p6f1abm77japg","pricing_plan_id":"cebpf4jnsgd1na2vs0mg"},{"bike_id":"e86ba8c9-208d-482c-a826-4c100938472a","system_id":"levelo_inurba_marseille","lat":43.211911,"lon":5.350672,"is_reserved":false,"is_disabled":false,"rental_uris":{"android":"levelo://app?vid=e86ba8c9-208d-482c-a826-4c100938472a","ios":"levelo://app?vid=e86ba8c9-208d-482c-a826-4c100938472a"},"vehicle_type_id":"4","last_reported":1752164027,"current_range_meters":22400,"station_id":"st_cvj6sg6p6f1abm77japg","pricing_plan_id":"cebpf4jnsgd1na2vs0mg"},{"bike_id":"ac91d51c-3a8e-4733-b40c-aa9f928a61b8","system_id":"levelo_inurba_marseille","lat":43.30147,"lon":5.39857,"is_reserved":false,"is_disabled":false,"rental_uris":{"android":"levelo://app?vid=ac91d51c-3a8e-4733-b40c-aa9f928a61b8","ios":"levelo://app?vid=ac91d51c-3a8e-4733-b40c-aa9f928a61b8"},"vehicle_type_id":"4","last_reported":1752164027,"current_range_meters":22800,"station_id":"ce4bh0h2rcd13ifvqd40","pricing_plan_id":"cebpf4jnsgd1na2vs0mg"},{"bike_id":"63eb0946-3a7f-48f5-9ce5-04ee0abbe304","system_id":"levelo_inurba_marseille","lat":43.28434,"lon":5.34992,"is_reserved":false,"is_disabled":false,"rental_uris":{"android":"levelo://app?vid=63eb0946-3a7f-48f5-9ce5-04ee0abbe304","ios":"levelo://app?vid=63eb0946-3a7f-48f5-9ce5-04ee0abbe304"},"vehicle_type_id":"4","last_reported":1752164027,"current_range_meters":22800,"station_id":"ce4bhbh2rcd13ifvqepg","pricing_plan_id":"cebpf4jnsgd1na2vs0mg"},{"bike_id":"79e2c32c-3853-4b73-bf2e-d1299a1cf5b2","system_id":"levelo_inurba_marseille","lat":43.28424,"lon":5.34991,"is_reserved":false,"is_disabled":false,"rental_uris":{"android":"levelo://app?vid=79e2c32c-3853-4b73-bf2e-d1299a1cf5b2","ios":"levelo://app?vid=79e2c32c-3853-4b73-bf2e-d1299a1cf5b2"},"vehicle_type_id":"4","last_reported":1752164027,"current_range_meters":22800,"station_id":"ce4bhbh2rcd13ifvqepg","pricing_plan_id":"cebpf4jnsgd1na2vs0mg"},{"bike_id":"d5e6942e-9cf0-4099-ab46-48b215cc6d5e","system_id":"levelo_inurba_marseille","lat":43.282683,"lon":5.350666,"is_reserved":false,"is_disabled":false,"rental_uris":{"android":"levelo://app?vid=d5e6942e-9cf0-4099-ab46-48b215cc6d5e","ios":"levelo://app?vid=d5e6942e-9cf0-4099-ab46-48b215cc6d5e"},"vehicle_type_id":"4","last_reported":1752164027,"current_range_meters":22800,"station_id":"ce4bhbp2rcd13ifvqerg","pricing_plan_id":"cebpf4jnsgd1na2vs0mg"},{"bike_id":"4a7a4854-c569-4450-8a24-d610f59cd81e","system_id":"levelo_inurba_marseille","lat":43.28279,"lon":5.35101,"is_reserved":false,"is_disabled":false,"rental_uris":{"android":"levelo://app?vid=4a7a4854-c569-4450-8a24-d610f59cd81e","ios":"levelo://app?vid=4a7a4854-c569-4450-8a24-d610f59cd81e"},"vehicle_type_id":"4","last_reported":1752164027,"current_range_meters":22800,"station_id":"ce4bhbp2rcd13ifvqerg","pricing_plan_id":"cebpf4jnsgd1na2vs0mg"},{"bike_id":"4ad614ce-5867-4c3c-92f7-09c59577250b","system_id":"levelo_inurba_marseille","lat":43.26195,"lon":5.37433,"is_reserved":false,"is_disabled":false,"rental_uris":{"android":"levelo://app?vid=4ad614ce-5867-4c3c-92f7-09c59577250b","ios":"levelo://app?vid=4ad614ce-5867-4c3c-92f7-09c59577250b"},"vehicle_type_id":"4","last_reported":1752164027,"current_range_meters":22800,"station_id":"ce4bhgp2rcd13ifvqfc0","pricing_plan_id":"cebpf4jnsgd1na2vs0mg"},{"bike_id":"5fae4696-4745-4bfd-b3fa-9c8f72e406b8","system_id":"levelo_inurba_marseille","lat":43.21749,"lon":5.34607,"is_reserved":false,"is_disabled":false,"rental_uris":{"android":"levelo://app?vid=5fae4696-4745-4bfd-b3fa-9c8f72e406b8","ios":"levelo://app?vid=5fae4696-4745-4bfd-b3fa-9c8f72e406b8"},"vehicle_type_id":"4","last_reported":1752164027,"current_range_meters":22800,"station_id":"st_cvj6r9ubvosntc0bgbag","pricing_plan_id":"cebpf4jnsgd1na2vs0mg"},{"bike_id":"3e08c1f6-9052-44c1-91c1-724f0c2fce1e","system_id":"levelo_inurba_marseille","lat":43.30945,"lon":5.39038,"is_reserved":false,"is_disabled":false,"rental_uris":{"android":"levelo://app?vid=3e08c1f6-9052-44c1-91c1-724f0c2fce1e","ios":"levelo://app?vid=3e08c1f6-9052-44c1-91c1-724f0c2fce1e"},"vehicle_type_id":"4","last_reported":1752164027,"current_range_meters":23200,"station_id":"ce4bgup2rcd13ifvqco0","pricing_plan_id":"cebpf4jnsgd1na2vs0mg"},{"bike_id":"a74ba9cc-31bd-49e3-9d44-81fa19434997","system_id":"levelo_inurba_marseille","lat":43.295649,"lon":5.397974,"is_reserved":false,"is_disabled":false,"rental_uris":{"android":"levelo://app?vid=a74ba9cc-31bd-49e3-9d44-81fa19434997","ios":"levelo://app?vid=a74ba9cc-31bd-49e3-9d44-81fa19434997"},"vehicle_type_id":"4","last_reported":1752164027,"current_range_meters":23200,"station_id":"ce4bh312rcd13ifvqdj0","pricing_plan_id":"cebpf4jnsgd1na2vs0mg"},{"bike_id":"c9b9a15c-eafd-4945-97fb-d47ead089018","system_id":"levelo_inurba_marseille","lat":43.2738,"lon":5.36249,"is_reserved":false,"is_disabled":false,"rental_uris":{"android":"levelo://app?vid=c9b9a15c-eafd-4945-97fb-d47ead089018","ios":"levelo://app?vid=c9b9a15c-eafd-4945-97fb-d47ead089018"},"vehicle_type_id":"4","last_reported":1752164027,"current_range_meters":23200,"station_id":"ce4bhbh2rcd13ifvqeo0","pricing_plan_id":"cebpf4jnsgd1na2vs0mg"},{"bike_id":"332c530f-0402-4fb0-ab1c-577087e02459","system_id":"levelo_inurba_marseille","lat":43.28423,"lon":5.34988,"is_reserved":false,"is_disabled":false,"rental_uris":{"android":"levelo://app?vid=332c530f-0402-4fb0-ab1c-577087e02459","ios":"levelo://app?vid=332c530f-0402-4fb0-ab1c-577087e02459"},"vehicle_type_id":"4","last_reported":1752164027,"current_range_meters":23200,"station_id":"ce4bhbh2rcd13ifvqepg","pricing_plan_id":"cebpf4jnsgd1na2vs0mg"},{"bike_id":"881ac15c-e324-4bf4-9569-ad048d9e8a7c","system_id":"levelo_inurba_marseille","lat":43.299,"lon":5.43668,"is_reserved":false,"is_disabled":false,"rental_uris":{"android":"levelo://app?vid=881ac15c-e324-4bf4-9569-ad048d9e8a7c","ios":"levelo://app?vid=881ac15c-e324-4bf4-9569-ad048d9e8a7c"},"vehicle_type_id":"4","last_reported":1752164027,"current_range_meters":23200,"station_id":"ce4bhpp2rcd13ifvqhfg","pricing_plan_id":"cebpf4jnsgd1na2vs0mg"},{"bike_id":"7143a012-d20e-4c24-9ea7-9f79110acd24","system_id":"levelo_inurba_marseille","lat":43.2417,"lon":5.36408,"is_reserved":false,"is_disabled":false,"rental_uris":{"android":"levelo://app?vid=7143a012-d20e-4c24-9ea7-9f79110acd24","ios":"levelo://app?vid=7143a012-d20e-4c24-9ea7-9f79110acd24"},"vehicle_type_id":"4","last_reported":1752164027,"current_range_meters":23200,"station_id":"cpo36qri1sfpv3e86is0","pricing_plan_id":"cebpf4jnsgd1na2vs0mg"},{"bike_id":"2c376372-8aa0-4245-ba33-0666425259de","system_id":"levelo_inurba_marseille","lat":43.29283,"lon":5.4012,"is_reserved":false,"is_disabled":false,"rental_uris":{"android":"levelo://app?vid=2c376372-8aa0-4245-ba33-0666425259de","ios":"levelo://app?vid=2c376372-8aa0-4245-ba33-0666425259de"},"vehicle_type_id":"4","last_reported":1752164027,"current_range_meters":24000,"station_id":"ce4bh312rcd13ifvqdk0","pricing_plan_id":"cebpf4jnsgd1na2vs0mg"},{"bike_id":"ebcf2222-4d2c-434f-b87e-306d18ad75ce","system_id":"levelo_inurba_marseille","lat":43.27812,"lon":5.4072,"is_reserved":false,"is_disabled":false,"rental_uris":{"android":"levelo://app?vid=ebcf2222-4d2c-434f-b87e-306d18ad75ce","ios":"levelo://app?vid=ebcf2222-4d2c-434f-b87e-306d18ad75ce"},"vehicle_type_id":"4","last_reported":1752164027,"current_range_meters":24000,"station_id":"ce4bhnh2rcd13ifvqgtg","pricing_plan_id":"cebpf4jnsgd1na2vs0mg"},{"bike_id":"b65b5275-1140-45e1-ad78-0772ba0b96fa","system_id":"levelo_inurba_marseille","lat":43.229294,"lon":5.353762,"is_reserved":false,"is_disabled":false,"rental_uris":{"android":"levelo://app?vid=b65b5275-1140-45e1-ad78-0772ba0b96fa","ios":"levelo://app?vid=b65b5275-1140-45e1-ad78-0772ba0b96fa"},"vehicle_type_id":"4","last_reported":1752164027,"current_range_meters":24000,"station_id":"cpo3532slgdg3j2ikp40","pricing_plan_id":"cebpf4jnsgd1na2vs0mg"},{"bike_id":"c1a2a69e-9bf5-4849-b55f-6847b98c70a7","system_id":"levelo_inurba_marseille","lat":43.28265,"lon":5.35066,"is_reserved":false,"is_disabled":false,"rental_uris":{"android":"levelo://app?vid=c1a2a69e-9bf5-4849-b55f-6847b98c70a7","ios":"levelo://app?vid=c1a2a69e-9bf5-4849-b55f-6847b98c70a7"},"vehicle_type_id":"4","last_reported":1752164027,"current_range_meters":24400,"station_id":"","pricing_plan_id":"cebpf4jnsgd1na2vs0mg"},{"bike_id":"869a13a5-f02d-4a46-a9e4-e2ba84e60ad9","system_id":"levelo_inurba_marseille","lat":43.30885,"lon":5.39657,"is_reserved":false,"is_disabled":false,"rental_uris":{"android":"levelo://app?vid=869a13a5-f02d-4a46-a9e4-e2ba84e60ad9","ios":"levelo://app?vid=869a13a5-f02d-4a46-a9e4-e2ba84e60ad9"},"vehicle_type_id":"4","last_reported":1752164027,"current_range_meters":24400,"station_id":"ce4bh012rcd13ifvqcv0","pricing_plan_id":"cebpf4jnsgd1na2vs0mg"},{"bike_id":"9be62f6f-7d56-4899-bb4c-ba9a07ea2fc3","system_id":"levelo_inurba_marseille","lat":43.29531,"lon":5.39402,"is_reserved":false,"is_disabled":false,"rental_uris":{"android":"levelo://app?vid=9be62f6f-7d56-4899-bb4c-ba9a07ea2fc3","ios":"levelo://app?vid=9be62f6f-7d56-4899-bb4c-ba9a07ea2fc3"},"vehicle_type_id":"4","last_reported":1752164027,"current_range_meters":24400,"station_id":"ce4bh292rcd13ifvqdf0","pricing_plan_id":"cebpf4jnsgd1na2vs0mg"},{"bike_id":"867a9817-5116-47a6-b19a-880999c12e76","system_id":"levelo_inurba_marseille","lat":43.28422,"lon":5.34992,"is_reserved":false,"is_disabled":false,"rental_uris":{"android":"levelo://app?vid=867a9817-5116-47a6-b19a-880999c12e76","ios":"levelo://app?vid=867a9817-5116-47a6-b19a-880999c12e76"},"vehicle_type_id":"4","last_reported":1752164027,"current_range_meters":24400,"station_id":"ce4bhbh2rcd13ifvqepg","pricing_plan_id":"cebpf4jnsgd1na2vs0mg"},{"bike_id":"8ca63729-5a1f-43f3-919a-869902d9925a","system_id":"levelo_inurba_marseille","lat":43.28273,"lon":5.35068,"is_reserved":false,"is_disabled":false,"rental_uris":{"android":"levelo://app?vid=8ca63729-5a1f-43f3-919a-869902d9925a","ios":"levelo://app?vid=8ca63729-5a1f-43f3-919a-869902d9925a"},"vehicle_type_id":"4","last_reported":1752164027,"current_range_meters":24400,"station_id":"ce4bhbp2rcd13ifvqerg","pricing_plan_id":"cebpf4jnsgd1na2vs0mg"},{"bike_id":"391dd7b6-7a9a-47ce-bfbb-167602fd14dd","system_id":"levelo_inurba_marseille","lat":43.2828,"lon":5.3507,"is_reserved":false,"is_disabled":false,"rental_uris":{"android":"levelo://app?vid=391dd7b6-7a9a-47ce-bfbb-167602fd14dd","ios":"levelo://app?vid=391dd7b6-7a9a-47ce-bfbb-167602fd14dd"},"vehicle_type_id":"4","last_reported":1752164027,"current_range_meters":24400,"station_id":"ce4bhbp2rcd13ifvqerg","pricing_plan_id":"cebpf4jnsgd1na2vs0mg"},{"bike_id":"de2087fe-f3c3-4473-acf1-dfc627e2f513","system_id":"levelo_inurba_marseille","lat":43.26783,"lon":5.39412,"is_reserved":false,"is_disabled":false,"rental_uris":{"android":"levelo://app?vid=de2087fe-f3c3-4473-acf1-dfc627e2f513","ios":"levelo://app?vid=de2087fe-f3c3-4473-acf1-dfc627e2f513"},"vehicle_type_id":"4","last_reported":1752164027,"current_range_meters":24400,"station_id":"ce4bhh12rcd13ifvqfg0","pricing_plan_id":"cebpf4jnsgd1na2vs0mg"},{"bike_id":"d795c164-5c25-4d56-aee7-f18845bddb7d","system_id":"levelo_inurba_marseille","lat":43.27503,"lon":5.42441,"is_reserved":false,"is_disabled":false,"rental_uris":{"android":"levelo://app?vid=d795c164-5c25-4d56-aee7-f18845bddb7d","ios":"levelo://app?vid=d795c164-5c25-4d56-aee7-f18845bddb7d"},"vehicle_type_id":"4","last_reported":1752164027,"current_range_meters":24400,"station_id":"ce4bhn92rcd13ifvqgrg","pricing_plan_id":"cebpf4jnsgd1na2vs0mg"},{"bike_id":"4966ba18-9112-4ef5-a895-77bb699fa0df","system_id":"levelo_inurba_marseille","lat":43.2406,"lon":5.37777,"is_reserved":false,"is_disabled":false,"rental_uris":{"android":"levelo://app?vid=4966ba18-9112-4ef5-a895-77bb699fa0df","ios":"levelo://app?vid=4966ba18-9112-4ef5-a895-77bb699fa0df"},"vehicle_type_id":"4","last_reported":1752164027,"current_range_meters":24400,"station_id":"ce4bhnp2rcd13ifvqgvg","pricing_plan_id":"cebpf4jnsgd1na2vs0mg"},{"bike_id":"54e396f9-9d94-4b8f-95e4-893836693cd7","system_id":"levelo_inurba_marseille","lat":43.27989,"lon":5.41647,"is_reserved":false,"is_disabled":false,"rental_uris":{"android":"levelo://app?vid=54e396f9-9d94-4b8f-95e4-893836693cd7","ios":"levelo://app?vid=54e396f9-9d94-4b8f-95e4-893836693cd7"},"vehicle_type_id":"4","last_reported":1752164027,"current_range_meters":24400,"station_id":"ce4bho12rcd13ifvqh1g","pricing_plan_id":"cebpf4jnsgd1na2vs0mg"},{"bike_id":"00bc0b3b-e317-4a17-a011-a3a9a29d816a","system_id":"levelo_inurba_marseille","lat":43.212023,"lon":5.350723,"is_reserved":false,"is_disabled":false,"rental_uris":{"android":"levelo://app?vid=00bc0b3b-e317-4a17-a011-a3a9a29d816a","ios":"levelo://app?vid=00bc0b3b-e317-4a17-a011-a3a9a29d816a"},"vehicle_type_id":"4","last_reported":1752164027,"current_range_meters":24400,"station_id":"st_cvj6sg6p6f1abm77japg","pricing_plan_id":"cebpf4jnsgd1na2vs0mg"},{"bike_id":"57bd238c-4e6a-448e-a652-c90f14edd2a1","system_id":"levelo_inurba_marseille","lat":43.22878,"lon":5.34978,"is_reserved":false,"is_disabled":false,"rental_uris":{"android":"levelo://app?vid=57bd238c-4e6a-448e-a652-c90f14edd2a1","ios":"levelo://app?vid=57bd238c-4e6a-448e-a652-c90f14edd2a1"},"vehicle_type_id":"4","last_reported":1752164027,"current_range_meters":24800,"station_id":"","pricing_plan_id":"cebpf4jnsgd1na2vs0mg"},{"bike_id":"1550d62c-ac23-4182-a92a-927896c39981","system_id":"levelo_inurba_marseille","lat":43.32977,"lon":5.38245,"is_reserved":false,"is_disabled":false,"rental_uris":{"android":"levelo://app?vid=1550d62c-ac23-4182-a92a-927896c39981","ios":"levelo://app?vid=1550d62c-ac23-4182-a92a-927896c39981"},"vehicle_type_id":"4","last_reported":1752164027,"current_range_meters":24800,"station_id":"","pricing_plan_id":"cebpf4jnsgd1na2vs0mg"},{"bike_id":"d799b321-3a7d-4201-b46e-ffe2ad124f19","system_id":"levelo_inurba_marseille","lat":43.32929,"lon":5.38383,"is_reserved":false,"is_disabled":false,"rental_uris":{"android":"levelo://app?vid=d799b321-3a7d-4201-b46e-ffe2ad124f19","ios":"levelo://app?vid=d799b321-3a7d-4201-b46e-ffe2ad124f19"},"vehicle_type_id":"4","last_reported":1752164027,"current_range_meters":24800,"station_id":"","pricing_plan_id":"cebpf4jnsgd1na2vs0mg"},{"bike_id":"f05286ab-5b4f-4982-a1d7-f9339f1e3534","system_id":"levelo_inurba_marseille","lat":43.29869,"lon":5.39728,"is_reserved":false,"is_disabled":false,"rental_uris":{"android":"levelo://app?vid=f05286ab-5b4f-4982-a1d7-f9339f1e3534","ios":"levelo://app?vid=f05286ab-5b4f-4982-a1d7-f9339f1e3534"},"vehicle_type_id":"4","last_reported":1752164027,"current_range_meters":24800,"station_id":"ce4bh0h2rcd13ifvqd50","pricing_plan_id":"cebpf4jnsgd1na2vs0mg"},{"bike_id":"7f550e18-9a7e-492e-bc19-b884f472ecf7","system_id":"levelo_inurba_marseille","lat":43.30643,"lon":5.40111,"is_reserved":false,"is_disabled":false,"rental_uris":{"android":"levelo://app?vid=7f550e18-9a7e-492e-bc19-b884f472ecf7","ios":"levelo://app?vid=7f550e18-9a7e-492e-bc19-b884f472ecf7"},"vehicle_type_id":"4","last_reported":1752164027,"current_range_meters":24800,"station_id":"ce4bh112rcd13ifvqda0","pricing_plan_id":"cebpf4jnsgd1na2vs0mg"},{"bike_id":"bb866881-70b6-41b7-945a-db307d054a84","system_id":"levelo_inurba_marseille","lat":43.28426,"lon":5.34987,"is_reserved":false,"is_disabled":false,"rental_uris":{"android":"levelo://app?vid=bb866881-70b6-41b7-945a-db307d054a84","ios":"levelo://app?vid=bb866881-70b6-41b7-945a-db307d054a84"},"vehicle_type_id":"4","last_reported":1752164027,"current_range_meters":24800,"station_id":"ce4bhbh2rcd13ifvqepg","pricing_plan_id":"cebpf4jnsgd1na2vs0mg"},{"bike_id":"7893bd80-f844-4e1a-8edc-76903ad549b8","system_id":"levelo_inurba_marseille","lat":43.28423,"lon":5.34984,"is_reserved":false,"is_disabled":false,"rental_uris":{"android":"levelo://app?vid=7893bd80-f844-4e1a-8edc-76903ad549b8","ios":"levelo://app?vid=7893bd80-f844-4e1a-8edc-76903ad549b8"},"vehicle_type_id":"4","last_reported":1752164027,"current_range_meters":24800,"station_id":"ce4bhbh2rcd13ifvqepg","pricing_plan_id":"cebpf4jnsgd1na2vs0mg"},{"bike_id":"8d58d7f6-0ec5-43d2-9092-b56ea57b8741","system_id":"levelo_inurba_marseille","lat":43.28428,"lon":5.34991,"is_reserved":false,"is_disabled":false,"rental_uris":{"android":"levelo://app?vid=8d58d7f6-0ec5-43d2-9092-b56ea57b8741","ios":"levelo://app?vid=8d58d7f6-0ec5-43d2-9092-b56ea57b8741"},"vehicle_type_id":"4","last_reported":1752164027,"current_range_meters":24800,"station_id":"ce4bhbh2rcd13ifvqepg","pricing_plan_id":"cebpf4jnsgd1na2vs0mg"},{"bike_id":"0d31b67c-8415-4994-9db5-dc389dbf2047","system_id":"levelo_inurba_marseille","lat":43.26033,"lon":5.37549,"is_reserved":false,"is_disabled":false,"rental_uris":{"android":"levelo://app?vid=0d31b67c-8415-4994-9db5-dc389dbf2047","ios":"levelo://app?vid=0d31b67c-8415-4994-9db5-dc389dbf2047"},"vehicle_type_id":"4","last_reported":1752164027,"current_range_meters":24800,"station_id":"ce4bhgh2rcd13ifvqfa0","pricing_plan_id":"cebpf4jnsgd1na2vs0mg"},{"bike_id":"fef340bd-4a0b-470f-8e93-5c23b1a84b4e","system_id":"levelo_inurba_marseille","lat":43.23069,"lon":5.35489,"is_reserved":false,"is_disabled":false,"rental_uris":{"android":"levelo://app?vid=fef340bd-4a0b-470f-8e93-5c23b1a84b4e","ios":"levelo://app?vid=fef340bd-4a0b-470f-8e93-5c23b1a84b4e"},"vehicle_type_id":"4","last_reported":1752164027,"current_range_meters":24800,"station_id":"cpo3342slgdg3j2ifvpg","pricing_plan_id":"cebpf4jnsgd1na2vs0mg"},{"bike_id":"51890362-46b0-4ee7-9f02-afbf036d064e","system_id":"levelo_inurba_marseille","lat":43.211962,"lon":5.350718,"is_reserved":false,"is_disabled":false,"rental_uris":{"android":"levelo://app?vid=51890362-46b0-4ee7-9f02-afbf036d064e","ios":"levelo://app?vid=51890362-46b0-4ee7-9f02-afbf036d064e"},"vehicle_type_id":"4","last_reported":1752164027,"current_range_meters":24800,"station_id":"st_cvj6sg6p6f1abm77japg","pricing_plan_id":"cebpf4jnsgd1na2vs0mg"},{"bike_id":"85d2aee3-4fe4-4c9f-9f31-cc4fe835c04e","system_id":"levelo_inurba_marseille","lat":43.2119,"lon":5.35076,"is_reserved":false,"is_disabled":false,"rental_uris":{"android":"levelo://app?vid=85d2aee3-4fe4-4c9f-9f31-cc4fe835c04e","ios":"levelo://app?vid=85d2aee3-4fe4-4c9f-9f31-cc4fe835c04e"},"vehicle_type_id":"4","last_reported":1752164027,"current_range_meters":24800,"station_id":"st_cvj6sg6p6f1abm77japg","pricing_plan_id":"cebpf4jnsgd1na2vs0mg"},{"bike_id":"ee5338dd-18a1-4b48-a5b0-f8c72f7b1319","system_id":"levelo_inurba_marseille","lat":43.31792,"lon":5.36835,"is_reserved":false,"is_disabled":false,"rental_uris":{"android":"levelo://app?vid=ee5338dd-18a1-4b48-a5b0-f8c72f7b1319","ios":"levelo://app?vid=ee5338dd-18a1-4b48-a5b0-f8c72f7b1319"},"vehicle_type_id":"4","last_reported":1752164027,"current_range_meters":25200,"station_id":"","pricing_plan_id":"cebpf4jnsgd1na2vs0mg"},{"bike_id":"8b37f03f-f226-4bbc-8648-b109da7ba145","system_id":"levelo_inurba_marseille","lat":43.30536,"lon":5.366999,"is_reserved":false,"is_disabled":false,"rental_uris":{"android":"levelo://app?vid=8b37f03f-f226-4bbc-8648-b109da7ba145","ios":"levelo://app?vid=8b37f03f-f226-4bbc-8648-b109da7ba145"},"vehicle_type_id":"4","last_reported":1752164027,"current_range_meters":25200,"station_id":"","pricing_plan_id":"cebpf4jnsgd1na2vs0mg"},{"bike_id":"21949b63-e965-4573-9813-162870e4ab93","system_id":"levelo_inurba_marseille","lat":43.29706,"lon":5.37696,"is_reserved":false,"is_disabled":false,"rental_uris":{"android":"levelo://app?vid=21949b63-e965-4573-9813-162870e4ab93","ios":"levelo://app?vid=21949b63-e965-4573-9813-162870e4ab93"},"vehicle_type_id":"4","last_reported":1752164027,"current_range_meters":25200,"station_id":"ce4bgkh2rcd13ifvqbl0","pricing_plan_id":"cebpf4jnsgd1na2vs0mg"},{"bike_id":"30bac9c2-ec48-44f3-8fc3-45383eeab4a8","system_id":"levelo_inurba_marseille","lat":43.28424,"lon":5.3499,"is_reserved":false,"is_disabled":false,"rental_uris":{"android":"levelo://app?vid=30bac9c2-ec48-44f3-8fc3-45383eeab4a8","ios":"levelo://app?vid=30bac9c2-ec48-44f3-8fc3-45383eeab4a8"},