{"last_updated":1700348799,"ttl":30,"version":"2.2","data":{"bikes":[{"bike_id":"2fb83260-d08d-4936-b786-c99586082e64","system_id":"levelo_inurba_marseille","lat":43.31341,"lon":5.367098,"is_reserved":false,"is_disabled":false,"rental_uris":{"android":"levelo://app?vid=2fb83260-d08d-4936-b786-c99586082e64","ios":"levelo://app?vid=2fb83260-d08d-4936-b786-c99586082e64"},"vehicle_type_id":"4","last_reported":1700348799,"current_range_meters":3200,"station_id":"ce4bgr92rcd13ifvqc6g","pricing_plan_id":"free"},{"bike_id":"943dfc2f-eec4-44b8-ae3a-bf8f278b58c3","system_id":"levelo_inurba_marseille","lat":43.31153,"lon":5.368896,"is_reserved":false,"is_disabled":false,"rental_uris":{"android":"levelo://app?vid=943dfc2f-eec4-44b8-ae3a-bf8f278b58c3","ios":"levelo://app?vid=943dfc2f-eec4-44b8-ae3a-bf8f278b58c3"},"vehicle_type_id":"4","last_reported":1700348799,"current_range_meters":0,"station_id":"","pricing_plan_id":"free"},{"bike_id":"3475d204-43b6-43d9-b615-ca1d0d58200e","system_id":"levelo_inurba_marseille","lat":43.30679,"lon":5.3679,"is_reserved":false,"is_disabled":false,"rental_uris":{"android":"levelo://app?vid=3475d204-43b6-43d9-b615-ca1d0d58200e","ios":"levelo://app?vid=3475d204-43b6-43d9-b615-ca1d0d58200e"},"vehicle_type_id":"4","last_reported":1700348799,"current_range_meters":13200,"station_id":"","pricing_plan_id":"free"},{"bike_id":"09ccbac6-0f01-4cfb-8bb8-da5484277d5c","system_id":"levelo_inurba_marseille","lat":43.31944,"lon":5.371067,"is_reserved":false,"is_disabled":false,"rental_uris":{"android":"levelo://app?vid=09ccbac6-0f01-4cfb-8bb8-da5484277d5c","ios":"levelo://app?vid=09ccbac6-0f01-4cfb-8bb8-da5484277d5c"},"vehicle_type_id":"4","last_reported":1700348799,"current_range_meters":3200,"station_id":"","pricing_plan_id":"free"},{"bike_id":"ff5e473e-bd31-4593-b877-105b3e5e30f6","system_id":"levelo_inurba_marseille","lat":43.305989,"lon":5.37225,"is_reserved":false,"is_disabled":false,"rental_uris":{"android":"levelo://app?vid=ff5e473e-bd31-4593-b877-105b3e5e30f6","ios":"levelo://app?vid=ff5e473e-bd31-4593-b877-105b3e5e30f6"},"vehicle_type_id":"4","last_reported":1700348799,"current_range_meters":27600,"station_id":"ce4bgqh2rcd13ifvqc4g","pricing_plan_id":"free"},{"bike_id":"249fc3b0-b761-41d8-a579-ae90127799ee","system_id":"levelo_inurba_marseille","lat":43.311125,"lon":5.377624,"is_reserved":false,"is_disabled":false,"rental_uris":{"android":"levelo://app?vid=249fc3b0-b761-41d8-a579-ae90127799ee","ios":"levelo://app?vid=249fc3b0-b761-41d8-a579-ae90127799ee"},"vehicle_type_id":"4","last_reported":1700348799,"current_range_meters":13200,"station_id":"ce4bgt92rcd13ifvqcg0","pricing_plan_id":"free"},{"bike_id":"dcbf9c93-0758-41cf-8699-4ede01d69428","system_id":"levelo_inurba_marseille","lat":43.308147,"lon":5.376541,"is_reserved":false,"is_disabled":false,"rental_uris":{"android":"levelo://app?vid=dcbf9c93-0758-41cf-8699-4ede01d69428","ios":"levelo://app?vid=dcbf9c93-0758-41cf-8699-4ede01d69428"},"vehicle_type_id":"4","last_reported":1700348799,"current_range_meters":14000,"station_id":"ce4bgv92rcd13ifvqcq0","pricing_plan_id":"free"},{"bike_id":"9c6cb93e-1760-40ad-b03f-91f534a7dbc3","system_id":"levelo_inurba_marseille","lat":43.317075,"lon":5.377367,"is_reserved":false,"is_disabled":false,"rental_uris":{"android":"levelo://app?vid=9c6cb93e-1760-40ad-b03f-91f534a7dbc3","ios":"levelo://app?vid=9c6cb93e-1760-40ad-b03f-91f534a7dbc3"},"vehicle_type_id":"4","last_reported":1700348799,"current_range_meters":28400,"station_id":"ce4bgth2rcd13ifvqch0","pricing_plan_id":"free"},{"bike_id":"4fd22685-7805-44ad-8b8b-ffa6b8b80822","system_id":"levelo_inurba_marseille","lat":43.301939,"lon":5.366286,"is_reserved":false,"is_disabled":false,"rental_uris":{"android":"levelo://app?vid=4fd22685-7805-44ad-8b8b-ffa6b8b80822","ios":"levelo://app?vid=4fd22685-7805-44ad-8b8b-ffa6b8b80822"},"vehicle_type_id":"4","last_reported":1700348799,"current_range_meters":11600,"station_id":"ce4bgrh2rcd13ifvqc8g","pricing_plan_id":"free"},{"bike_id":"474ff195-d35a-46b8-8ffe-e938decef69b","system_id":"levelo_inurba_marseille","lat":43.304606,"lon":5.379026,"is_reserved":false,"is_disabled":false,"rental_uris":{"android":"levelo://app?vid=474ff195-d35a-46b8-8ffe-e938decef69b","ios":"levelo://app?vid=474ff195-d35a-46b8-8ffe-e938decef69b"},"vehicle_type_id":"4","last_reported":1700348799,"current_range_meters":7200,"station_id":"ce4bgup2rcd13ifvqcn0","pricing_plan_id":"free"},{"bike_id":"0f40eb85-975a-446c-85e4-3f94157372bc","system_id":"levelo_inurba_marseille","lat":43.324733,"lon":5.36579,"is_reserved":false,"is_disabled":false,"rental_uris":{"android":"levelo://app?vid=0f40eb85-975a-446c-85e4-3f94157372bc","ios":"levelo://app?vid=0f40eb85-975a-446c-85e4-3f94157372bc"},"vehicle_type_id":"4","last_reported":1700348799,"current_range_meters":0,"station_id":"ce4bhs12rcd13ifvqhvg","pricing_plan_id":"free"},{"bike_id":"5a6db0fc-cfe2-47a7-ae76-d4e0529428ab","system_id":"levelo_inurba_marseille","lat":43.31983,"lon":5.381111,"is_reserved":false,"is_disabled":false,"rental_uris":{"android":"levelo://app?vid=5a6db0fc-cfe2-47a7-ae76-d4e0529428ab","ios":"levelo://app?vid=5a6db0fc-cfe2-47a7-ae76-d4e0529428ab"},"vehicle_type_id":"4","last_reported":1700348799,"current_range_meters":16400,"station_id":"","pricing_plan_id":"free"},{"bike_id":"b07df4dc-5dee-47d2-9384-cdf7d13ef59f","system_id":"levelo_inurba_marseille","lat":43.31756,"lon":5.38328,"is_reserved":false,"is_disabled":false,"rental_uris":{"android":"levelo://app?vid=b07df4dc-5dee-47d2-9384-cdf7d13ef59f","ios":"levelo://app?vid=b07df4dc-5dee-47d2-9384-cdf7d13ef59f"},"vehicle_type_id":"4","last_reported":1700348799,"current_range_meters":22000,"station_id":"","pricing_plan_id":"free"},{"bike_id":"abb5a752-dcd4-4467-a360-e886684f7426","system_id":"levelo_inurba_marseille","lat":43.319935,"lon":5.381699,"is_reserved":false,"is_disabled":false,"rental_uris":{"android":"levelo://app?vid=abb5a752-dcd4-4467-a360-e886684f7426","ios":"levelo://app?vid=abb5a752-dcd4-4467-a360-e886684f7426"},"vehicle_type_id":"4","last_reported":1700348799,"current_range_meters":3600,"station_id":"ce4bhr12rcd13ifvqhpg","pricing_plan_id":"free"},{"bike_id":"a1c34850-99f2-48b4-9518-45eaece296dc","system_id":"levelo_inurba_marseille","lat":43.313571,"lon":5.384829,"is_reserved":false,"is_disabled":false,"rental_uris":{"android":"levelo://app?vid=a1c34850-99f2-48b4-9518-45eaece296dc","ios":"levelo://app?vid=a1c34850-99f2-48b4-9518-45eaece296dc"},"vehicle_type_id":"4","last_reported":1700348799,"current_range_meters":18800,"station_id":"ce4bgt92rcd13ifvqcf0","pricing_plan_id":"free"},{"bike_id":"24512161-6523-4c54-a850-1985b1a9c756","system_id":"levelo_inurba_marseille","lat":43.313571,"lon":5.384829,"is_reserved":false,"is_disabled":false,"rental_uris":{"android":"levelo://app?vid=24512161-6523-4c54-a850-1985b1a9c756","ios":"levelo://app?vid=24512161-6523-4c54-a850-1985b1a9c756"},"vehicle_type_id":"4","last_reported":1700348799,"current_range_meters":22800,"station_id":"ce4bgt92rcd13ifvqcf0","pricing_plan_id":"free"},{"bike_id":"3eba9e26-9882-47fa-bebd-3c77294d00a4","system_id":"levelo_inurba_marseille","lat":43.31359,"lon":5.38503,"is_reserved":false,"is_disabled":false,"rental_uris":{"android":"levelo://app?vid=3eba9e26-9882-47fa-bebd-3c77294d00a4","ios":"levelo://app?vid=3eba9e26-9882-47fa-bebd-3c77294d00a4"},"vehicle_type_id":"4","last_reported":1700348799,"current_range_meters":4000,"station_id":"ce4bgt92rcd13ifvqcf0","pricing_plan_id":"free"},{"bike_id":"8ba0146b-37f2-4226-b56f-b98018980890","system_id":"levelo_inurba_marseille","lat":43.313571,"lon":5.384829,"is_reserved":false,"is_disabled":false,"rental_uris":{"android":"levelo://app?vid=8ba0146b-37f2-4226-b56f-b98018980890","ios":"levelo://app?vid=8ba0146b-37f2-4226-b56f-b98018980890"},"vehicle_type_id":"4","last_reported":1700348799,"current_range_meters":29200,"station_id":"ce4bgt92rcd13ifvqcf0","pricing_plan_id":"free"},{"bike_id":"c5d1c331-062d-42ff-b914-5763e25cf607","system_id":"levelo_inurba_marseille","lat":43.313571,"lon":5.384829,"is_reserved":false,"is_disabled":false,"rental_uris":{"android":"levelo://app?vid=c5d1c331-062d-42ff-b914-5763e25cf607","ios":"levelo://app?vid=c5d1c331-062d-42ff-b914-5763e25cf607"},"vehicle_type_id":"4","last_reported":1700348799,"current_range_meters":5200,"station_id":"ce4bgt92rcd13ifvqcf0","pricing_plan_id":"free"},{"bike_id":"15693ee3-d003-4d40-a401-0ba9d6fc6292","system_id":"levelo_inurba_marseille","lat":43.299222,"lon":5.365554,"is_reserved":false,"is_disabled":false,"rental_uris":{"android":"levelo://app?vid=15693ee3-d003-4d40-a401-0ba9d6fc6292","ios":"levelo://app?vid=15693ee3-d003-4d40-a401-0ba9d6fc6292"},"vehicle_type_id":"4","last_reported":1700348799,"current_range_meters":0,"station_id":"ce4bgm92rcd13ifvqbr0","pricing_plan_id":"free"},{"bike_id":"6f9a5cdd-a01a-4693-b407-01e0b39196a9","system_id":"levelo_inurba_marseille","lat":43.299724,"lon":5.371829,"is_reserved":false,"is_disabled":false,"rental_uris":{"android":"levelo://app?vid=6f9a5cdd-a01a-4693-b407-01e0b39196a9","ios":"levelo://app?vid=6f9a5cdd-a01a-4693-b407-01e0b39196a9"},"vehicle_type_id":"4","last_reported":1700348799,"current_range_meters":8400,"station_id":"ce4bgr92rcd13ifvqc7g","pricing_plan_id":"free"},{"bike_id":"e3cffe58-3cbb-4848-a735-e5bf4c053887","system_id":"levelo_inurba_marseille","lat":43.299724,"lon":5.371829,"is_reserved":false,"is_disabled":false,"rental_uris":{"android":"levelo://app?vid=e3cffe58-3cbb-4848-a735-e5bf4c053887","ios":"levelo://app?vid=e3cffe58-3cbb-4848-a735-e5bf4c053887"},"vehicle_type_id":"4","last_reported":1700348799,"current_range_meters":16800,"station_id":"ce4bgr92rcd13ifvqc7g","pricing_plan_id":"free"},{"bike_id":"5da9dea2-bd9f-4746-b637-56e44ea9e587","system_id":"levelo_inurba_marseille","lat":43.298489,"lon":5.362942,"is_reserved":false,"is_disabled":false,"rental_uris":{"android":"levelo://app?vid=5da9dea2-bd9f-4746-b637-56e44ea9e587","ios":"levelo://app?vid=5da9dea2-bd9f-4746-b637-56e44ea9e587"},"vehicle_type_id":"4","last_reported":1700348799,"current_range_meters":0,"station_id":"","pricing_plan_id":"free"},{"bike_id":"67b7b9ec-436a-4d23-8b2c-e6620194026a","system_id":"levelo_inurba_marseille","lat":43.311714,"lon":5.387091,"is_reserved":false,"is_disabled":false,"rental_uris":{"android":"levelo://app?vid=67b7b9ec-436a-4d23-8b2c-e6620194026a","ios":"levelo://app?vid=67b7b9ec-436a-4d23-8b2c-e6620194026a"},"vehicle_type_id":"4","last_reported":1700348799,"current_range_meters":0,"station_id":"ce4bgv12rcd13ifvqcp0","pricing_plan_id":"free"},{"bike_id":"8c76c6e2-5f6a-4818-85cb-8b750ab02a02","system_id":"levelo_inurba_marseille","lat":43.311722,"lon":5.387247,"is_reserved":false,"is_disabled":false,"rental_uris":{"android":"levelo://app?vid=8c76c6e2-5f6a-4818-85cb-8b750ab02a02","ios":"levelo://app?vid=8c76c6e2-5f6a-4818-85cb-8b750ab02a02"},"vehicle_type_id":"4","last_reported":1700348799,"current_range_meters":28400,"station_id":"ce4bgv12rcd13ifvqcp0","pricing_plan_id":"free"},{"bike_id":"a2e90176-5d0e-4866-b062-73d6defcaac4","system_id":"levelo_inurba_marseille","lat":43.311722,"lon":5.387247,"is_reserved":false,"is_disabled":false,"rental_uris":{"android":"levelo://app?vid=a2e90176-5d0e-4866-b062-73d6defcaac4","ios":"levelo://app?vid=a2e90176-5d0e-4866-b062-73d6defcaac4"},"vehicle_type_id":"4","last_reported":1700348799,"current_range_meters":8400,"station_id":"ce4bgv12rcd13ifvqcp0","pricing_plan_id":"free"},{"bike_id":"b6d2a68d-db4e-46a1-b036-730037139be3","system_id":"levelo_inurba_marseille","lat":43.328314,"lon":5.366842,"is_reserved":false,"is_disabled":false,"rental_uris":{"android":"levelo://app?vid=b6d2a68d-db4e-46a1-b036-730037139be3","ios":"levelo://app?vid=b6d2a68d-db4e-46a1-b036-730037139be3"},"vehicle_type_id":"4","last_reported":1700348799,"current_range_meters":3600,"station_id":"ce4bhs92rcd13ifvqi0g","pricing_plan_id":"free"},{"bike_id":"5b7d5a7f-164c-4fbd-9744-517d33bf789a","system_id":"levelo_inurba_marseille","lat":43.297163,"lon":5.365866,"is_reserved":false,"is_disabled":false,"rental_uris":{"android":"levelo://app?vid=5b7d5a7f-164c-4fbd-9744-517d33bf789a","ios":"levelo://app?vid=5b7d5a7f-164c-4fbd-9744-517d33bf789a"},"vehicle_type_id":"4","last_reported":1700348799,"current_range_meters":23200,"station_id":"ce4bgn12rcd13ifvqbt0","pricing_plan_id":"free"},{"bike_id":"971ef656-b95a-417d-b69d-a5ba3954e948","system_id":"levelo_inurba_marseille","lat":43.328355,"lon":5.366767,"is_reserved":false,"is_disabled":false,"rental_uris":{"android":"levelo://app?vid=971ef656-b95a-417d-b69d-a5ba3954e948","ios":"levelo://app?vid=971ef656-b95a-417d-b69d-a5ba3954e948"},"vehicle_type_id":"4","last_reported":1700348799,"current_range_meters":5600,"station_id":"ce4bhs92rcd13ifvqi0g","pricing_plan_id":"free"},{"bike_id":"506fa654-0fd9-4a2d-a856-791702be991b","system_id":"levelo_inurba_marseille","lat":43.297163,"lon":5.365866,"is_reserved":false,"is_disabled":false,"rental_uris":{"android":"levelo://app?vid=506fa654-0fd9-4a2d-a856-791702be991b","ios":"levelo://app?vid=506fa654-0fd9-4a2d-a856-791702be991b"},"vehicle_type_id":"4","last_reported":1700348799,"current_range_meters":0,"station_id":"ce4bgn12rcd13ifvqbt0","pricing_plan_id":"free"},{"bike_id":"bab6e1e8-0726-4f51-8b18-d54941f080d7","system_id":"levelo_inurba_marseille","lat":43.297013,"lon":5.37394,"is_reserved":false,"is_disabled":false,"rental_uris":{"android":"levelo://app?vid=bab6e1e8-0726-4f51-8b18-d54941f080d7","ios":"levelo://app?vid=bab6e1e8-0726-4f51-8b18-d54941f080d7"},"vehicle_type_id":"4","last_reported":1700348799,"current_range_meters":0,"station_id":"","pricing_plan_id":"free"},{"bike_id":"d2361881-11f3-4895-b1d7-110ec0560711","system_id":"levelo_inurba_marseille","lat":43.30985,"lon":5.39004,"is_reserved":false,"is_disabled":false,"rental_uris":{"android":"levelo://app?vid=d2361881-11f3-4895-b1d7-110ec0560711","ios":"levelo://app?vid=d2361881-11f3-4895-b1d7-110ec0560711"},"vehicle_type_id":"4","last_reported":1700348799,"current_range_meters":9600,"station_id":"","pricing_plan_id":"free"},{"bike_id":"58a389d8-09b7-41dd-a9b1-d3ffd242db64","system_id":"levelo_inurba_marseille","lat":43.317557,"lon":5.390173,"is_reserved":false,"is_disabled":false,"rental_uris":{"android":"levelo://app?vid=58a389d8-09b7-41dd-a9b1-d3ffd242db64","ios":"levelo://app?vid=58a389d8-09b7-41dd-a9b1-d3ffd242db64"},"vehicle_type_id":"4","last_reported":1700348799,"current_range_meters":10800,"station_id":"ce4bhqp2rcd13ifvqhng","pricing_plan_id":"free"},{"bike_id":"245ed204-36aa-4afc-8581-8d2381f0c7c7","system_id":"levelo_inurba_marseille","lat":43.317557,"lon":5.390173,"is_reserved":false,"is_disabled":false,"rental_uris":{"android":"levelo://app?vid=245ed204-36aa-4afc-8581-8d2381f0c7c7","ios":"levelo://app?vid=245ed204-36aa-4afc-8581-8d2381f0c7c7"},"vehicle_type_id":"4","last_reported":1700348799,"current_range_meters":9600,"station_id":"ce4bhqp2rcd13ifvqhng","pricing_plan_id":"free"},{"bike_id":"416d9943-f07e-495b-8f28-05ae82c1f6a3","system_id":"levelo_inurba_marseille","lat":43.317557,"lon":5.390173,"is_reserved":false,"is_disabled":false,"rental_uris":{"android":"levelo://app?vid=416d9943-f07e-495b-8f28-05ae82c1f6a3","ios":"levelo://app?vid=416d9943-f07e-495b-8f28-05ae82c1f6a3"},"vehicle_type_id":"4","last_reported":1700348799,"current_range_meters":6800,"station_id":"ce4bhqp2rcd13ifvqhng","pricing_plan_id":"free"},{"bike_id":"d2dced52-b7fb-4d11-ad33-56be009e3364","system_id":"levelo_inurba_marseille","lat":43.321847,"lon":5.388263,"is_reserved":false,"is_disabled":false,"rental_uris":{"android":"levelo://app?vid=d2dced52-b7fb-4d11-ad33-56be009e3364","ios":"levelo://app?vid=d2dced52-b7fb-4d11-ad33-56be009e3364"},"vehicle_type_id":"4","last_reported":1700348799,"current_range_meters":17200,"station_id":"","pricing_plan_id":"free"},{"bike_id":"67ffd28a-0325-489b-a10f-d90500122751","system_id":"levelo_inurba_marseille","lat":43.295748,"lon":5.37522,"is_reserved":false,"is_disabled":false,"rental_uris":{"android":"levelo://app?vid=67ffd28a-0325-489b-a10f-d90500122751","ios":"levelo://app?vid=67ffd28a-0325-489b-a10f-d90500122751"},"vehicle_type_id":"4","last_reported":1700348799,"current_range_meters":30400,"station_id":"ce4bgh92rcd13ifvqb50","pricing_plan_id":"free"},{"bike_id":"5b72006f-e777-4e0f-a773-4bf48f9209d2","system_id":"levelo_inurba_marseille","lat":43.304278,"lon":5.388868,"is_reserved":false,"is_disabled":false,"rental_uris":{"android":"levelo://app?vid=5b72006f-e777-4e0f-a773-4bf48f9209d2","ios":"levelo://app?vid=5b72006f-e777-4e0f-a773-4bf48f9209d2"},"vehicle_type_id":"4","last_reported":1700348799,"current_range_meters":18400,"station_id":"ce4bgk12rcd13ifvqbi0","pricing_plan_id":"free"},{"bike_id":"3e3e92fe-39b7-4933-99ff-3747b28b5d69","system_id":"levelo_inurba_marseille","lat":43.328154,"lon":5.380034,"is_reserved":false,"is_disabled":false,"rental_uris":{"android":"levelo://app?vid=3e3e92fe-39b7-4933-99ff-3747b28b5d69","ios":"levelo://app?vid=3e3e92fe-39b7-4933-99ff-3747b28b5d69"},"vehicle_type_id":"4","last_reported":1700348799,"current_range_meters":8400,"station_id":"","pricing_plan_id":"free"},{"bike_id":"e145a3f7-00ac-4f8f-bfe5-435bc38ccaf7","system_id":"levelo_inurba_marseille","lat":43.293801,"lon":5.363066,"is_reserved":false,"is_disabled":false,"rental_uris":{"android":"levelo://app?vid=e145a3f7-00ac-4f8f-bfe5-435bc38ccaf7","ios":"levelo://app?vid=e145a3f7-00ac-4f8f-bfe5-435bc38ccaf7"},"vehicle_type_id":"4","last_reported":1700348799,"current_range_meters":26000,"station_id":"","pricing_plan_id":"free"},{"bike_id":"c0e7d7b2-39c5-4286-a38b-f465bf1b2091","system_id":"levelo_inurba_marseille","lat":43.29899,"lon":5.38553,"is_reserved":false,"is_disabled":false,"rental_uris":{"android":"levelo://app?vid=c0e7d7b2-39c5-4286-a38b-f465bf1b2091","ios":"levelo://app?vid=c0e7d7b2-39c5-4286-a38b-f465bf1b2091"},"vehicle_type_id":"4","last_reported":1700348799,"current_range_meters":0,"station_id":"","pricing_plan_id":"free"},{"bike_id":"93ccea24-26fe-4100-8ef5-9ccfb64c9ace","system_id":"levelo_inurba_marseille","lat":43.32366,"lon":5.38886,"is_reserved":false,"is_disabled":false,"rental_uris":{"android":"levelo://app?vid=93ccea24-26fe-4100-8ef5-9ccfb64c9ace","ios":"levelo://app?vid=93ccea24-26fe-4100-8ef5-9ccfb64c9ace"},"vehicle_type_id":"4","last_reported":1700348799,"current_range_meters":31200,"station_id":"ce4bhqp2rcd13ifvqhog","pricing_plan_id":"free"},{"bike_id":"489903ae-1ffd-46f7-98d3-6a932b3e85b0","system_id":"levelo_inurba_marseille","lat":43.32366,"lon":5.38886,"is_reserved":false,"is_disabled":false,"rental_uris":{"android":"levelo://app?vid=489903ae-1ffd-46f7-98d3-6a932b3e85b0","ios":"levelo://app?vid=489903ae-1ffd-46f7-98d3-6a932b3e85b0"},"vehicle_type_id":"4","last_reported":1700348799,"current_range_meters":12000,"station_id":"ce4bhqp2rcd13ifvqhog","pricing_plan_id":"free"},{"bike_id":"252b7542-ce9b-4edd-9935-e5a672df25af","system_id":"levelo_inurba_marseille","lat":43.296212,"lon":5.381505,"is_reserved":false,"is_disabled":false,"rental_uris":{"android":"levelo://app?vid=252b7542-ce9b-4edd-9935-e5a672df25af","ios":"levelo://app?vid=252b7542-ce9b-4edd-9935-e5a672df25af"},"vehicle_type_id":"4","last_reported":1700348799,"current_range_meters":0,"station_id":"","pricing_plan_id":"free"},{"bike_id":"878b65df-f795-4b88-bafc-10f923c14bd7","system_id":"levelo_inurba_marseille","lat":43.3004,"lon":5.38958,"is_reserved":false,"is_disabled":false,"rental_uris":{"android":"levelo://app?vid=878b65df-f795-4b88-bafc-10f923c14bd7","ios":"levelo://app?vid=878b65df-f795-4b88-bafc-10f923c14bd7"},"vehicle_type_id":"4","last_reported":1700348799,"current_range_meters":14000,"station_id":"","pricing_plan_id":"free"},{"bike_id":"e821a208-4b01-4429-81fb-838b8294f50c","system_id":"levelo_inurba_marseille","lat":43.305994,"lon":5.393687,"is_reserved":false,"is_disabled":false,"rental_uris":{"android":"levelo://app?vid=e821a208-4b01-4429-81fb-838b8294f50c","ios":"levelo://app?vid=e821a208-4b01-4429-81fb-838b8294f50c"},"vehicle_type_id":"4","last_reported":1700348799,"current_range_meters":2400,"station_id":"ce4bh0p2rcd13ifvqd80","pricing_plan_id":"free"},{"bike_id":"176ad690-5500-4377-9db3-4deedcc79185","system_id":"levelo_inurba_marseille","lat":43.30585,"lon":5.3937,"is_reserved":false,"is_disabled":false,"rental_uris":{"android":"levelo://app?vid=176ad690-5500-4377-9db3-4deedcc79185","ios":"levelo://app?vid=176ad690-5500-4377-9db3-4deedcc79185"},"vehicle_type_id":"4","last_reported":1700348799,"current_range_meters":2800,"station_id":"ce4bh0p2rcd13ifvqd80","pricing_plan_id":"free"},{"bike_id":"d292cd5f-b54d-457b-a4ed-0de930216c3c","system_id":"levelo_inurba_marseille","lat":43.303002,"lon":5.392142,"is_reserved":false,"is_disabled":false,"rental_uris":{"android":"levelo://app?vid=d292cd5f-b54d-457b-a4ed-0de930216c3c","ios":"levelo://app?vid=d292cd5f-b54d-457b-a4ed-0de930216c3c"},"vehicle_type_id":"4","last_reported":1700348799,"current_range_meters":8400,"station_id":"ce4bgkh2rcd13ifvqbk0","pricing_plan_id":"free"},{"bike_id":"c63e5b07-b41d-4b10-a0a5-43e27cef0942","system_id":"levelo_inurba_marseille","lat":43.302992,"lon":5.392136,"is_reserved":false,"is_disabled":false,"rental_uris":{"android":"levelo://app?vid=c63e5b07-b41d-4b10-a0a5-43e27cef0942","ios":"levelo://app?vid=c63e5b07-b41d-4b10-a0a5-43e27cef0942"},"vehicle_type_id":"4","last_reported":1700348799,"current_range_meters":14400,"station_id":"ce4bgkh2rcd13ifvqbk0","pricing_plan_id":"free"},{"bike_id":"a2b3558f-9d6a-4dea-9b02-78c3a4e2bb71","system_id":"levelo_inurba_marseille","lat":43.30088,"lon":5.39081,"is_reserved":false,"is_disabled":false,"rental_uris":{"android":"levelo://app?vid=a2b3558f-9d6a-4dea-9b02-78c3a4e2bb71","ios":"levelo://app?vid=a2b3558f-9d6a-4dea-9b02-78c3a4e2bb71"},"vehicle_type_id":"4","last_reported":1700348799,"current_range_meters":0,"station_id":"ce4bh192rcd13ifvqdb0","pricing_plan_id":"free"},{"bike_id":"786afbe7-ae1c-4641-93b3-eee911fd07e4","system_id":"levelo_inurba_marseille","lat":43.292857,"lon":5.377189,"is_reserved":false,"is_disabled":false,"rental_uris":{"android":"levelo://app?vid=786afbe7-ae1c-4641-93b3-eee911fd07e4","ios":"levelo://app?vid=786afbe7-ae1c-4641-93b3-eee911fd07e4"},"vehicle_type_id":"4","last_reported":1700348799,"current_range_meters":0,"station_id":"","pricing_plan_id":"free"},{"bike_id":"4eef38cc-64cf-4f4d-8d5b-99bd9d3b1b37","system_id":"levelo_inurba_marseille","lat":43.291675,"lon":5.371583,"is_reserved":false,"is_disabled":false,"rental_uris":{"android":"levelo://app?vid=4eef38cc-64cf-4f4d-8d5b-99bd9d3b1b37","ios":"levelo://app?vid=4eef38cc-64cf-4f4d-8d5b-99bd9d3b1b37"},"vehicle_type_id":"4","last_reported":1700348799,"current_range_meters":27200,"station_id":"ce4bha92rcd13ifvqeh0","pricing_plan_id":"free"},{"bike_id":"c387e703-fce0-4511-b251-f6796db7f0b7","system_id":"levelo_inurba_marseille","lat":43.298764,"lon":5.388973,"is_reserved":false,"is_disabled":false,"rental_uris":{"android":"levelo://app?vid=c387e703-fce0-4511-b251-f6796db7f0b7","ios":"levelo://app?vid=c387e703-fce0-4511-b251-f6796db7f0b7"},"vehicle_type_id":"4","last_reported":1700348799,"current_range_meters":6400,"station_id":"ce4bh392rcd13ifvqdl0","pricing_plan_id":"free"},{"bike_id":"76468b57-6bfa-4c52-88ad-9a1b2576a117","system_id":"levelo_inurba_marseille","lat":43.298696,"lon":5.389141,"is_reserved":false,"is_disabled":false,"rental_uris":{"android":"levelo://app?vid=76468b57-6bfa-4c52-88ad-9a1b2576a117","ios":"levelo://app?vid=76468b57-6bfa-4c52-88ad-9a1b2576a117"},"vehicle_type_id":"4","last_reported":1700348799,"current_range_meters":0,"station_id":"ce4bh392rcd13ifvqdl0","pricing_plan_id":"free"},{"bike_id":"a40fd974-3afa-4abc-b303-85332b96188b","system_id":"levelo_inurba_marseille","lat":43.313291,"lon":5.396838,"is_reserved":false,"is_disabled":false,"rental_uris":{"android":"levelo://app?vid=a40fd974-3afa-4abc-b303-85332b96188b","ios":"levelo://app?vid=a40fd974-3afa-4abc-b303-85332b96188b"},"vehicle_type_id":"4","last_reported":1700348799,"current_range_meters":5600,"station_id":"ce4bgvp2rcd13ifvqcu0","pricing_plan_id":"free"},{"bike_id":"9477565a-21f4-478c-96f6-57c129eb1e57","system_id":"levelo_inurba_marseille","lat":43.313291,"lon":5.396838,"is_reserved":false,"is_disabled":false,"rental_uris":{"android":"levelo://app?vid=9477565a-21f4-478c-96f6-57c129eb1e57","ios":"levelo://app?vid=9477565a-21f4-478c-96f6-57c129eb1e57"},"vehicle_type_id":"4","last_reported":1700348799,"current_range_meters":16000,"station_id":"ce4bgvp2rcd13ifvqcu0","pricing_plan_id":"free"},{"bike_id":"46429514-9d87-4911-8fbc-f0eb0137767d","system_id":"levelo_inurba_marseille","lat":43.309047,"lon":5.396551,"is_reserved":false,"is_disabled":false,"rental_uris":{"android":"levelo://app?vid=46429514-9d87-4911-8fbc-f0eb0137767d","ios":"levelo://app?vid=46429514-9d87-4911-8fbc-f0eb0137767d"},"vehicle_type_id":"4","last_reported":1700348799,"current_range_meters":7200,"station_id":"ce4bh012rcd13ifvqcv0","pricing_plan_id":"free"},{"bike_id":"c892bab2-c735-491c-becb-1eb0bb2df2dc","system_id":"levelo_inurba_marseille","lat":43.309038,"lon":5.396546,"is_reserved":false,"is_disabled":false,"rental_uris":{"android":"levelo://app?vid=c892bab2-c735-491c-becb-1eb0bb2df2dc","ios":"levelo://app?vid=c892bab2-c735-491c-becb-1eb0bb2df2dc"},"vehicle_type_id":"4","last_reported":1700348799,"current_range_meters":15200,"station_id":"ce4bh012rcd13ifvqcv0","pricing_plan_id":"free"},{"bike_id":"91e91fb0-318a-40eb-8028-a2dbea6080b7","system_id":"levelo_inurba_marseille","lat":43.28944,"lon":5.36637,"is_reserved":false,"is_disabled":false,"rental_uris":{"android":"levelo://app?vid=91e91fb0-318a-40eb-8028-a2dbea6080b7","ios":"levelo://app?vid=91e91fb0-318a-40eb-8028-a2dbea6080b7"},"vehicle_type_id":"4","last_reported":1700348799,"current_range_meters":0,"station_id":"ce4bhap2rcd13ifvqek0","pricing_plan_id":"free"},{"bike_id":"082b3bea-3399-4887-a69c-15dc00370590","system_id":"levelo_inurba_marseille","lat":43.292644,"lon":5.384257,"is_reserved":false,"is_disabled":false,"rental_uris":{"android":"levelo://app?vid=082b3bea-3399-4887-a69c-15dc00370590","ios":"levelo://app?vid=082b3bea-3399-4887-a69c-15dc00370590"},"vehicle_type_id":"4","last_reported":1700348799,"current_range_meters":15600,"station_id":"ce4bh692rcd13ifvqea0","pricing_plan_id":"free"},{"bike_id":"16ed2be5-bfbf-408f-ba5d-8b274535d913","system_id":"levelo_inurba_marseille","lat":43.330442,"lon":5.389148,"is_reserved":false,"is_disabled":false,"rental_uris":{"android":"levelo://app?vid=16ed2be5-bfbf-408f-ba5d-8b274535d913","ios":"levelo://app?vid=16ed2be5-bfbf-408f-ba5d-8b274535d913"},"vehicle_type_id":"4","last_reported":1700348799,"current_range_meters":26000,"station_id":"ce4bhr92rcd13ifvqhrg","pricing_plan_id":"free"},{"bike_id":"cf5af278-62d3-4342-bc8e-36278f621dd1","system_id":"levelo_inurba_marseille","lat":43.290104,"lon":5.356111,"is_reserved":false,"is_disabled":false,"rental_uris":{"android":"levelo://app?vid=cf5af278-62d3-4342-bc8e-36278f621dd1","ios":"levelo://app?vid=cf5af278-62d3-4342-bc8e-36278f621dd1"},"vehicle_type_id":"4","last_reported":1700348799,"current_range_meters":3600,"station_id":"ce4bhb92rcd13ifvqen0","pricing_plan_id":"free"},{"bike_id":"6dfacf75-1489-4777-beb3-387c0914c022","system_id":"levelo_inurba_marseille","lat":43.3304,"lon":5.389233,"is_reserved":false,"is_disabled":false,"rental_uris":{"android":"levelo://app?vid=6dfacf75-1489-4777-beb3-387c0914c022","ios":"levelo://app?vid=6dfacf75-1489-4777-beb3-387c0914c022"},"vehicle_type_id":"4","last_reported":1700348799,"current_range_meters":19600,"station_id":"ce4bhr92rcd13ifvqhrg","pricing_plan_id":"free"},{"bike_id":"78bcfa10-507e-4cf8-aae4-239e691ce53f","system_id":"levelo_inurba_marseille","lat":43.33043,"lon":5.38924,"is_reserved":false,"is_disabled":false,"rental_uris":{"android":"levelo://app?vid=78bcfa10-507e-4cf8-aae4-239e691ce53f","ios":"levelo://app?vid=78bcfa10-507e-4cf8-aae4-239e691ce53f"},"vehicle_type_id":"4","last_reported":1700348799,"current_range_meters":20400,"station_id":"ce4bhr92rcd13ifvqhrg","pricing_plan_id":"free"},{"bike_id":"e3e774e1-f581-41c6-8c39-cc8450289f30","system_id":"levelo_inurba_marseille","lat":43.281044,"lon":5.378308,"is_reserved":false,"is_disabled":false,"rental_uris":{"android":"levelo://app?vid=e3e774e1-f581-41c6-8c39-cc8450289f30","ios":"levelo://app?vid=e3e774e1-f581-41c6-8c39-cc8450289f30"},"vehicle_type_id":"4","last_reported":1700348799,"current_range_meters":13200,"station_id":"ce4bha12rcd13ifvqee0","pricing_plan_id":"free"},{"bike_id":"e2e82308-f8f0-4e9b-a14f-a0585f2bb0e6","system_id":"levelo_inurba_marseille","lat":43.28856,"lon":5.358371,"is_reserved":false,"is_disabled":false,"rental_uris":{"android":"levelo://app?vid=e2e82308-f8f0-4e9b-a14f-a0585f2bb0e6","ios":"levelo://app?vid=e2e82308-f8f0-4e9b-a14f-a0585f2bb0e6"},"vehicle_type_id":"4","last_reported":1700348799,"current_range_meters":4400,"station_id":"ce4bhb12rcd13ifvqem0","pricing_plan_id":"free"},{"bike_id":"f98a1cdb-582d-40d3-8d76-6f2fe71b8c0a","system_id":"levelo_inurba_marseille","lat":43.28856,"lon":5.358371,"is_reserved":false,"is_disabled":false,"rental_uris":{"android":"levelo://app?vid=f98a1cdb-582d-40d3-8d76-6f2fe71b8c0a","ios":"levelo://app?vid=f98a1cdb-582d-40d3-8d76-6f2fe71b8c0a"},"vehicle_type_id":"4","last_reported":1700348799,"current_range_meters":21200,"station_id":"ce4bhb12rcd13ifvqem0","pricing_plan_id":"free"},{"bike_id":"d381e49f-e8d1-4d82-b7fe-c779600cc992","system_id":"levelo_inurba_marseille","lat":43.288432,"lon":5.35847,"is_reserved":false,"is_disabled":false,"rental_uris":{"android":"levelo://app?vid=d381e49f-e8d1-4d82-b7fe-c779600cc992","ios":"levelo://app?vid=d381e49f-e8d1-4d82-b7fe-c779600cc992"},"vehicle_type_id":"4","last_reported":1700348799,"current_range_meters":0,"station_id":"ce4bhb12rcd13ifvqem0","pricing_plan_id":"free"},{"bike_id":"07202f70-50d7-46f0-a5bd-59712659d6a0","system_id":"levelo_inurba_marseille","lat":43.31251,"lon":5.40162,"is_reserved":false,"is_disabled":false,"rental_uris":{"android":"levelo://app?vid=07202f70-50d7-46f0-a5bd-59712659d6a0","ios":"levelo://app?vid=07202f70-50d7-46f0-a5bd-59712659d6a0"},"vehicle_type_id":"4","last_reported":1700348799,"current_range_meters":13200,"station_id":"","pricing_plan_id":"free"},{"bike_id":"ed95fae0-5138-4277-ba77-36f491fb90fd","system_id":"levelo_inurba_marseille","lat":43.309371,"lon":5.401449,"is_reserved":false,"is_disabled":false,"rental_uris":{"android":"levelo://app?vid=ed95fae0-5138-4277-ba77-36f491fb90fd","ios":"levelo://app?vid=ed95fae0-5138-4277-ba77-36f491fb90fd"},"vehicle_type_id":"4","last_reported":1700348799,"current_range_meters":800,"station_id":"ce4bgvp2rcd13ifvqct0","pricing_plan_id":"free"},{"bike_id":"4a1eeebc-381a-42de-a98e-f332397794af","system_id":"levelo_inurba_marseille","lat":43.30933,"lon":5.40142,"is_reserved":false,"is_disabled":false,"rental_uris":{"android":"levelo://app?vid=4a1eeebc-381a-42de-a98e-f332397794af","ios":"levelo://app?vid=4a1eeebc-381a-42de-a98e-f332397794af"},"vehicle_type_id":"4","last_reported":1700348799,"current_range_meters":4800,"station_id":"ce4bgvp2rcd13ifvqct0","pricing_plan_id":"free"},{"bike_id":"f3d4d412-cb72-4481-bb1b-13e35868ae4e","system_id":"levelo_inurba_marseille","lat":43.306412,"lon":5.401035,"is_reserved":false,"is_disabled":false,"rental_uris":{"android":"levelo://app?vid=f3d4d412-cb72-4481-bb1b-13e35868ae4e","ios":"levelo://app?vid=f3d4d412-cb72-4481-bb1b-13e35868ae4e"},"vehicle_type_id":"4","last_reported":1700348799,"current_range_meters":0,"station_id":"ce4bh112rcd13ifvqda0","pricing_plan_id":"free"},{"bike_id":"55e03788-2a8a-437b-b98d-eddedafa78d8","system_id":"levelo_inurba_marseille","lat":43.312609,"lon":5.401662,"is_reserved":false,"is_disabled":false,"rental_uris":{"android":"levelo://app?vid=55e03788-2a8a-437b-b98d-eddedafa78d8","ios":"levelo://app?vid=55e03788-2a8a-437b-b98d-eddedafa78d8"},"vehicle_type_id":"4","last_reported":1700348799,"current_range_meters":6000,"station_id":"ce4bh092rcd13ifvqd30","pricing_plan_id":"free"},{"bike_id":"0243db20-ce9a-479f-9d7f-1a62609d3470","system_id":"levelo_inurba_marseille","lat":43.30932,"lon":5.40146,"is_reserved":false,"is_disabled":false,"rental_uris":{"android":"levelo://app?vid=0243db20-ce9a-479f-9d7f-1a62609d3470","ios":"levelo://app?vid=0243db20-ce9a-479f-9d7f-1a62609d3470"},"vehicle_type_id":"4","last_reported":1700348799,"current_range_meters":0,"station_id":"ce4bgvp2rcd13ifvqct0","pricing_plan_id":"free"},{"bike_id":"a9f72574-b125-4967-82d0-88e187ac2496","system_id":"levelo_inurba_marseille","lat":43.306412,"lon":5.401035,"is_reserved":false,"is_disabled":false,"rental_uris":{"android":"levelo://app?vid=a9f72574-b125-4967-82d0-88e187ac2496","ios":"levelo://app?vid=a9f72574-b125-4967-82d0-88e187ac2496"},"vehicle_type_id":"4","last_reported":1700348799,"current_range_meters":8000,"station_id":"ce4bh112rcd13ifvqda0","pricing_plan_id":"free"},{"bike_id":"17c6fb86-e6af-40cf-94cc-678ddca76f5a","system_id":"levelo_inurba_marseille","lat":43.30635,"lon":5.4009,"is_reserved":false,"is_disabled":false,"rental_uris":{"android":"levelo://app?vid=17c6fb86-e6af-40cf-94cc-678ddca76f5a","ios":"levelo://app?vid=17c6fb86-e6af-40cf-94cc-678ddca76f5a"},"vehicle_type_id":"4","last_reported":1700348799,"current_range_meters":22000,"station_id":"ce4bh112rcd13ifvqda0","pricing_plan_id":"free"},{"bike_id":"c9daab7e-5a6a-4e31-b7c6-aea7ead6e3cc","system_id":"levelo_inurba_marseille","lat":43.30636,"lon":5.40091,"is_reserved":false,"is_disabled":false,"rental_uris":{"android":"levelo://app?vid=c9daab7e-5a6a-4e31-b7c6-aea7ead6e3cc","ios":"levelo://app?vid=c9daab7e-5a6a-4e31-b7c6-aea7ead6e3cc"},"vehicle_type_id":"4","last_reported":1700348799,"current_range_meters":21200,"station_id":"ce4bh112rcd13ifvqda0","pricing_plan_id":"free"},{"bike_id":"ab6b897a-db41-4fdd-b8c3-ceb54eceb328","system_id":"levelo_inurba_marseille","lat":43.3064,"lon":5.40096,"is_reserved":false,"is_disabled":false,"rental_uris":{"android":"levelo://app?vid=ab6b897a-db41-4fdd-b8c3-ceb54eceb328","ios":"levelo://app?vid=ab6b897a-db41-4fdd-b8c3-ceb54eceb328"},"vehicle_type_id":"4","last_reported":1700348799,"current_range_meters":17200,"station_id":"ce4bh112rcd13ifvqda0","pricing_plan_id":"free"},{"bike_id":"5294e2d3-8fdc-49b9-b115-4bf20c8d73bc","system_id":"levelo_inurba_marseille","lat":43.306412,"lon":5.401035,"is_reserved":false,"is_disabled":false,"rental_uris":{"android":"levelo://app?vid=5294e2d3-8fdc-49b9-b115-4bf20c8d73bc","ios":"levelo://app?vid=5294e2d3-8fdc-49b9-b115-4bf20c8d73bc"},"vehicle_type_id":"4","last_reported":1700348799,"current_range_meters":12000,"station_id":"ce4bh112rcd13ifvqda0","pricing_plan_id":"free"},{"bike_id":"a3308100-e2ad-4dc7-99a3-0d6091e7a831","system_id":"levelo_inurba_marseille","lat":43.301117,"lon":5.398795,"is_reserved":false,"is_disabled":false,"rental_uris":{"android":"levelo://app?vid=a3308100-e2ad-4dc7-99a3-0d6091e7a831","ios":"levelo://app?vid=a3308100-e2ad-4dc7-99a3-0d6091e7a831"},"vehicle_type_id":"4","last_reported":1700348799,"current_range_meters":22400,"station_id":"ce4bh0h2rcd13ifvqd40","pricing_plan_id":"free"},{"bike_id":"aa6421b1-4ba9-422e-af6d-75c7cb529593","system_id":"levelo_inurba_marseille","lat":43.301117,"lon":5.398795,"is_reserved":false,"is_disabled":false,"rental_uris":{"android":"levelo://app?vid=aa6421b1-4ba9-422e-af6d-75c7cb529593","ios":"levelo://app?vid=aa6421b1-4ba9-422e-af6d-75c7cb529593"},"vehicle_type_id":"4","last_reported":1700348799,"current_range_meters":30800,"station_id":"ce4bh0h2rcd13ifvqd40","pricing_plan_id":"free"},{"bike_id":"01415aa6-4d5e-4406-a413-0fd7c809c541","system_id":"levelo_inurba_marseille","lat":43.28727,"lon":5.36078,"is_reserved":false,"is_disabled":false,"rental_uris":{"android":"levelo://app?vid=01415aa6-4d5e-4406-a413-0fd7c809c541","ios":"levelo://app?vid=01415aa6-4d5e-4406-a413-0fd7c809c541"},"vehicle_type_id":"4","last_reported":1700348799,"current_range_meters":24400,"station_id":"cki0cbj6b192h4jlfktg","pricing_plan_id":"free"},{"bike_id":"70aa7f9c-9f54-4d73-baea-40672d909afe","system_id":"levelo_inurba_marseille","lat":43.28722,"lon":5.36085,"is_reserved":false,"is_disabled":false,"rental_uris":{"android":"levelo://app?vid=70aa7f9c-9f54-4d73-baea-40672d909afe","ios":"levelo://app?vid=70aa7f9c-9f54-4d73-baea-40672d909afe"},"vehicle_type_id":"4","last_reported":1700348799,"current_range_meters":0,"station_id":"cki0cbj6b192h4jlfktg","pricing_plan_id":"free"},{"bike_id":"8e5cf5c8-1dc2-4e3c-a31e-02e895926b4b","system_id":"levelo_inurba_marseille","lat":43.28721,"lon":5.36088,"is_reserved":false,"is_disabled":false,"rental_uris":{"android":"levelo://app?vid=8e5cf5c8-1dc2-4e3c-a31e-02e895926b4b","ios":"levelo://app?vid=8e5cf5c8-1dc2-4e3c-a31e-02e895926b4b"},"vehicle_type_id":"4","last_reported":1700348799,"current_range_meters":14800,"station_id":"cki0cbj6b192h4jlfktg","pricing_plan_id":"free"},{"bike_id":"9a5c61a1-3cd7-41ca-b45b-5667786f5243","system_id":"levelo_inurba_marseille","lat":43.298681,"lon":5.397225,"is_reserved":false,"is_disabled":false,"rental_uris":{"android":"levelo://app?vid=9a5c61a1-3cd7-41ca-b45b-5667786f5243","ios":"levelo://app?vid=9a5c61a1-3cd7-41ca-b45b-5667786f5243"},"vehicle_type_id":"4","last_reported":1700348799,"current_range_meters":800,"station_id":"ce4bh0h2rcd13ifvqd50","pricing_plan_id":"free"},{"bike_id":"e6913b37-a2f8-4808-8851-b88cb2f6bed1","system_id":"levelo_inurba_marseille","lat":43.29035,"lon":5.38639,"is_reserved":false,"is_disabled":false,"rental_uris":{"android":"levelo://app?vid=e6913b37-a2f8-4808-8851-b88cb2f6bed1","ios":"levelo://app?vid=e6913b37-a2f8-4808-8851-b88cb2f6bed1"},"vehicle_type_id":"4","last_reported":1700348799,"current_range_meters":28800,"station_id":"ce4bh4p2rcd13ifvqe0g","pricing_plan_id":"free"},{"bike_id":"153db761-9c91-4c9e-b119-ad2ce8e9e7c9","system_id":"levelo_inurba_marseille","lat":43.290357,"lon":5.386409,"is_reserved":false,"is_disabled":false,"rental_uris":{"android":"levelo://app?vid=153db761-9c91-4c9e-b119-ad2ce8e9e7c9","ios":"levelo://app?vid=153db761-9c91-4c9e-b119-ad2ce8e9e7c9"},"vehicle_type_id":"4","last_reported":1700348799,"current_range_meters":23600,"station_id":"ce4bh4p2rcd13ifvqe0g","pricing_plan_id":"free"},{"bike_id":"9139ce8b-3875-483f-bcf2-ef42daeb6838","system_id":"levelo_inurba_marseille","lat":43.31646,"lon":5.40438,"is_reserved":false,"is_disabled":false,"rental_uris":{"android":"levelo://app?vid=9139ce8b-3875-483f-bcf2-ef42daeb6838","ios":"levelo://app?vid=9139ce8b-3875-483f-bcf2-ef42daeb6838"},"vehicle_type_id":"4","last_reported":1700348799,"current_range_meters":5600,"station_id":"ce4bh012rcd13ifvqd00","pricing_plan_id":"free"},{"bike_id":"67414a89-0abe-43ee-8612-257e37f85946","system_id":"levelo_inurba_marseille","lat":43.291994,"lon":5.392907,"is_reserved":false,"is_disabled":false,"rental_uris":{"android":"levelo://app?vid=67414a89-0abe-43ee-8612-257e37f85946","ios":"levelo://app?vid=67414a89-0abe-43ee-8612-257e37f85946"},"vehicle_type_id":"4","last_reported":1700348799,"current_range_meters":13600,"station_id":"ce4bh192rcd13ifvqdd0","pricing_plan_id":"free"},{"bike_id":"0b46b1b4-f42b-4e67-9aef-2797da64a2b5","system_id":"levelo_inurba_marseille","lat":43.331123,"lon":5.396819,"is_reserved":false,"is_disabled":false,"rental_uris":{"android":"levelo://app?vid=0b46b1b4-f42b-4e67-9aef-2797da64a2b5","ios":"levelo://app?vid=0b46b1b4-f42b-4e67-9aef-2797da64a2b5"},"vehicle_type_id":"4","last_reported":1700348799,"current_range_meters":17200,"station_id":"","pricing_plan_id":"free"},{"bike_id":"0fdad163-2945-48d2-8e82-091df4232fd9","system_id":"levelo_inurba_marseille","lat":43.284534,"lon":5.358662,"is_reserved":false,"is_disabled":false,"rental_uris":{"android":"levelo://app?vid=0fdad163-2945-48d2-8e82-091df4232fd9","ios":"levelo://app?vid=0fdad163-2945-48d2-8e82-091df4232fd9"},"vehicle_type_id":"4","last_reported":1700348799,"current_range_meters":14400,"station_id":"ce4bhah2rcd13ifvqei0","pricing_plan_id":"free"},{"bike_id":"48c82686-5999-4e77-a74a-40833e7a58eb","system_id":"levelo_inurba_marseille","lat":43.284534,"lon":5.358662,"is_reserved":false,"is_disabled":false,"rental_uris":{"android":"levelo://app?vid=48c82686-5999-4e77-a74a-40833e7a58eb","ios":"levelo://app?vid=48c82686-5999-4e77-a74a-40833e7a58eb"},"vehicle_type_id":"4","last_reported":1700348799,"current_range_meters":400,"station_id":"ce4bhah2rcd13ifvqei0","pricing_plan_id":"free"},{"bike_id":"95876aef-c84c-47db-99f2-a3c4ba238a6f","system_id":"levelo_inurba_marseille","lat":43.284538,"lon":5.358657,"is_reserved":false,"is_disabled":false,"rental_uris":{"android":"levelo://app?vid=95876aef-c84c-47db-99f2-a3c4ba238a6f","ios":"levelo://app?vid=95876aef-c84c-47db-99f2-a3c4ba238a6f"},"vehicle_type_id":"4","last_reported":1700348799,"current_range_meters":2800,"station_id":"ce4bhah2rcd13ifvqei0","pricing_plan_id":"free"},{"bike_id":"4a96ea9f-08d4-4c56-8260-57216b0fc889","system_id":"levelo_inurba_marseille","lat":43.284538,"lon":5.358657,"is_reserved":false,"is_disabled":false,"rental_uris":{"android":"levelo://app?vid=4a96ea9f-08d4-4c56-8260-57216b0fc889","ios":"levelo://app?vid=4a96ea9f-08d4-4c56-8260-57216b0fc889"},"vehicle_type_id":"4","last_reported":1700348799,"current_range_meters":13600,"station_id":"ce4bhah2rcd13ifvqei0","pricing_plan_id":"free"},{"bike_id":"99de5e8e-71b0-4ad2-b517-84e912871ac8","system_id":"levelo_inurba_marseille","lat":43.284538,"lon":5.358657,"is_reserved":false,"is_disabled":false,"rental_uris":{"android":"levelo://app?vid=99de5e8e-71b0-4ad2-b517-84e912871ac8","ios":"levelo://app?vid=99de5e8e-71b0-4ad2-b517-84e912871ac8"},"vehicle_type_id":"4","last_reported":1700348799,"current_range_meters":8800,"station_id":"ce4bhah2rcd13ifvqei0","pricing_plan_id":"free"},{"bike_id":"4a2c745f-5bab-4993-ad8f-d91bff5b4aeb","system_id":"levelo_inurba_marseille","lat":43.284534,"lon":5.358662,"is_reserved":false,"is_disabled":false,"rental_uris":{"android":"levelo://app?vid=4a2c745f-5bab-4993-ad8f-d91bff5b4aeb","ios":"levelo://app?vid=4a2c745f-5bab-4993-ad8f-d91bff5b4aeb"},"vehicle_type_id":"4","last_reported":1700348799,"current_range_meters":12800,"station_id":"ce4bhah2rcd13ifvqei0","pricing_plan_id":"free"},{"bike_id":"5b325f02-5135-43ee-955c-52acbebf582b","system_id":"levelo_inurba_marseille","lat":43.294314,"lon":5.397498,"is_reserved":false,"is_disabled":false,"rental_uris":{"android":"levelo://app?vid=5b325f02-5135-43ee-955c-52acbebf582b","ios":"levelo://app?vid=5b325f02-5135-43ee-955c-52acbebf582b"},"vehicle_type_id":"4","last_reported":1700348799,"current_range_meters":26000,"station_id":"ce4bh3h2rcd13ifvqdo0","pricing_plan_id":"free"},{"bike_id":"5e652d9d-c310-4a42-9d7f-dd12383980c4","system_id":"levelo_inurba_marseille","lat":43.28453,"lon":5.35897,"is_reserved":false,"is_disabled":false,"rental_uris":{"android":"levelo://app?vid=5e652d9d-c310-4a42-9d7f-dd12383980c4","ios":"levelo://app?vid=5e652d9d-c310-4a42-9d7f-dd12383980c4"},"vehicle_type_id":"4","last_reported":1700348799,"current_range_meters":0,"station_id":"ce4bhah2rcd13ifvqei0","pricing_plan_id":"free"},{"bike_id":"ff93a1e4-e569-4e9b-a5f3-5b5f552fe74a","system_id":"levelo_inurba_marseille","lat":43.284534,"lon":5.358662,"is_reserved":false,"is_disabled":false,"rental_uris":{"android":"levelo://app?vid=ff93a1e4-e569-4e9b-a5f3-5b5f552fe74a","ios":"levelo://app?vid=ff93a1e4-e569-4e9b-a5f3-5b5f552fe74a"},"vehicle_type_id":"4","last_reported":1700348799,"current_range_meters":24000,"station_id":"ce4bhah2rcd13ifvqei0","pricing_plan_id":"free"},{"bike_id":"f5e7e833-7ea8-49ac-aa98-6ce0b2839956","system_id":"levelo_inurba_marseille","lat":43.284126,"lon":5.375099,"is_reserved":false,"is_disabled":false,"rental_uris":{"android":"levelo://app?vid=f5e7e833-7ea8-49ac-aa98-6ce0b2839956","ios":"levelo://app?vid=f5e7e833-7ea8-49ac-aa98-6ce0b2839956"},"vehicle_type_id":"4","last_reported":1700348799,"current_range_meters":2400,"station_id":"ce4bh412rcd13ifvqds0","pricing_plan_id":"free"},{"bike_id":"8a6329af-f488-4217-b872-47e3ac29345c","system_id":"levelo_inurba_marseille","lat":43.283998,"lon":5.375062,"is_reserved":false,"is_disabled":false,"rental_uris":{"android":"levelo://app?vid=8a6329af-f488-4217-b872-47e3ac29345c","ios":"levelo://app?vid=8a6329af-f488-4217-b872-47e3ac29345c"},"vehicle_type_id":"4","last_reported":1700348799,"current_range_meters":2800,"station_id":"ce4bh412rcd13ifvqds0","pricing_plan_id":"free"},{"bike_id":"d94dfb15-e572-4e59-af3c-ee7cbd62cef5","system_id":"levelo_inurba_marseille","lat":43.295717,"lon":5.399697,"is_reserved":false,"is_disabled":false,"rental_uris":{"android":"levelo://app?vid=d94dfb15-e572-4e59-af3c-ee7cbd62cef5","ios":"levelo://app?vid=d94dfb15-e572-4e59-af3c-ee7cbd62cef5"},"vehicle_type_id":"4","last_reported":1700348799,"current_range_meters":12400,"station_id":"","pricing_plan_id":"free"},{"bike_id":"83817918-40fc-48a0-b4d2-4ca9f198594c","system_id":"levelo_inurba_marseille","lat":43.294538,"lon":5.39855,"is_reserved":false,"is_disabled":false,"rental_uris":{"android":"levelo://app?vid=83817918-40fc-48a0-b4d2-4ca9f198594c","ios":"levelo://app?vid=83817918-40fc-48a0-b4d2-4ca9f198594c"},"vehicle_type_id":"4","last_reported":1700348799,"current_range_meters":0,"station_id":"","pricing_plan_id":"free"},{"bike_id":"5974ad3b-da81-42ca-a08b-1b3632a47afa","system_id":"levelo_inurba_marseille","lat":43.33237,"lon":5.3985,"is_reserved":false,"is_disabled":false,"rental_uris":{"android":"levelo://app?vid=5974ad3b-da81-42ca-a08b-1b3632a47afa","ios":"levelo://app?vid=5974ad3b-da81-42ca-a08b-1b3632a47afa"},"vehicle_type_id":"4","last_reported":1700348799,"current_range_meters":3600,"station_id":"","pricing_plan_id":"free"},{"bike_id":"6364147f-5b0d-4e52-9491-e43b350f5c7a","system_id":"levelo_inurba_marseille","lat":43.33717,"lon":5.391857,"is_reserved":false,"is_disabled":false,"rental_uris":{"android":"levelo://app?vid=6364147f-5b0d-4e52-9491-e43b350f5c7a","ios":"levelo://app?vid=6364147f-5b0d-4e52-9491-e43b350f5c7a"},"vehicle_type_id":"4","last_reported":1700348799,"current_range_meters":28800,"station_id":"ce4bhr92rcd13ifvqhsg","pricing_plan_id":"free"},{"bike_id":"3602b74d-bc5d-4276-85ce-c45681ab1737","system_id":"levelo_inurba_marseille","lat":43.33717,"lon":5.391857,"is_reserved":false,"is_disabled":false,"rental_uris":{"android":"levelo://app?vid=3602b74d-bc5d-4276-85ce-c45681ab1737","ios":"levelo://app?vid=3602b74d-bc5d-4276-85ce-c45681ab1737"},"vehicle_type_id":"4","last_reported":1700348799,"current_range_meters":30400,"station_id":"ce4bhr92rcd13ifvqhsg","pricing_plan_id":"free"},{"bike_id":"a08607c1-816a-491b-a085-3077fb7fb178","system_id":"levelo_inurba_marseille","lat":43.323464,"lon":5.406297,"is_reserved":false,"is_disabled":false,"rental_uris":{"android":"levelo://app?vid=a08607c1-816a-491b-a085-3077fb7fb178","ios":"levelo://app?vid=a08607c1-816a-491b-a085-3077fb7fb178"},"vehicle_type_id":"4","last_reported":1700348799,"current_range_meters":18800,"station_id":"ce4bhq92rcd13ifvqhjg","pricing_plan_id":"free"},{"bike_id":"47fc198e-e2d5-4986-aa37-01560ae701d0","system_id":"levelo_inurba_marseille","lat":43.28483,"lon":5.38409,"is_reserved":false,"is_disabled":false,"rental_uris":{"android":"levelo://app?vid=47fc198e-e2d5-4986-aa37-01560ae701d0","ios":"levelo://app?vid=47fc198e-e2d5-4986-aa37-01560ae701d0"},"vehicle_type_id":"4","last_reported":1700348799,"current_range_meters":11600,"station_id":"ce4bh512rcd13ifvqe3g","pricing_plan_id":"free"},{"bike_id":"b3afde41-bda4-402e-909d-6932e5c47c9d","system_id":"levelo_inurba_marseille","lat":43.288501,"lon":5.393087,"is_reserved":false,"is_disabled":false,"rental_uris":{"android":"levelo://app?vid=b3afde41-bda4-402e-909d-6932e5c47c9d","ios":"levelo://app?vid=b3afde41-bda4-402e-909d-6932e5c47c9d"},"vehicle_type_id":"4","last_reported":1700348799,"current_range_meters":400,"station_id":"ce4bh2p2rcd13ifvqdi0","pricing_plan_id":"free"},{"bike_id":"d3dd3e3d-57b0-4c9e-949f-fddd56c2349c","system_id":"levelo_inurba_marseille","lat":43.32521,"lon":5.40575,"is_reserved":false,"is_disabled":false,"rental_uris":{"android":"levelo://app?vid=d3dd3e3d-57b0-4c9e-949f-fddd56c2349c","ios":"levelo://app?vid=d3dd3e3d-57b0-4c9e-949f-fddd56c2349c"},"vehicle_type_id":"4","last_reported":1700348799,"current_range_meters":800,"station_id":"","pricing_plan_id":"free"},{"bike_id":"2251da5a-4f03-495f-ad37-8949b9261cad","system_id":"levelo_inurba_marseille","lat":43.284219,"lon":5.3497,"is_reserved":false,"is_disabled":false,"rental_uris":{"android":"levelo://app?vid=2251da5a-4f03-495f-ad37-8949b9261cad","ios":"levelo://app?vid=2251da5a-4f03-495f-ad37-8949b9261cad"},"vehicle_type_id":"4","last_reported":1700348799,"current_range_meters":400,"station_id":"ce4bhbh2rcd13ifvqepg","pricing_plan_id":"free"},{"bike_id":"dac86b36-3e39-4422-a9ba-1867e98ecb86","system_id":"levelo_inurba_marseille","lat":43.289363,"lon":5.396322,"is_reserved":false,"is_disabled":false,"rental_uris":{"android":"levelo://app?vid=dac86b36-3e39-4422-a9ba-1867e98ecb86","ios":"levelo://app?vid=dac86b36-3e39-4422-a9ba-1867e98ecb86"},"vehicle_type_id":"4","last_reported":1700348799,"current_range_meters":31200,"station_id":"ce4bh3h2rcd13ifvqdn0","pricing_plan_id":"free"},{"bike_id":"5837876b-8905-4237-a44c-91f0f3d0b552","system_id":"levelo_inurba_marseille","lat":43.28039,"lon":5.369297,"is_reserved":false,"is_disabled":false,"rental_uris":{"android":"levelo://app?vid=5837876b-8905-4237-a44c-91f0f3d0b552","ios":"levelo://app?vid=5837876b-8905-4237-a44c-91f0f3d0b552"},"vehicle_type_id":"4","last_reported":1700348799,"current_range_meters":25200,"station_id":"ce4bha12rcd13ifvqef0","pricing_plan_id":"free"},{"bike_id":"69fa908c-692a-4914-90f3-c5212b8c1458","system_id":"levelo_inurba_marseille","lat":43.28039,"lon":5.369297,"is_reserved":false,"is_disabled":false,"rental_uris":{"android":"levelo://app?vid=69fa908c-692a-4914-90f3-c5212b8c1458","ios":"levelo://app?vid=69fa908c-692a-4914-90f3-c5212b8c1458"},"vehicle_type_id":"4","last_reported":1700348799,"current_range_meters":5200,"station_id":"ce4bha12rcd13ifvqef0","pricing_plan_id":"free"},{"bike_id":"809faf2e-ae75-40ff-941f-f1d697814f21","system_id":"levelo_inurba_marseille","lat":43.280382,"lon":5.369291,"is_reserved":false,"is_disabled":false,"rental_uris":{"android":"levelo://app?vid=809faf2e-ae75-40ff-941f-f1d697814f21","ios":"levelo://app?vid=809faf2e-ae75-40ff-941f-f1d697814f21"},"vehicle_type_id":"4","last_reported":1700348799,"current_range_meters":16800,"station_id":"ce4bha12rcd13ifvqef0","pricing_plan_id":"free"},{"bike_id":"df348ccf-7ffc-4253-95f7-bf3beb0b8892","system_id":"levelo_inurba_marseille","lat":43.280382,"lon":5.369291,"is_reserved":false,"is_disabled":false,"rental_uris":{"android":"levelo://app?vid=df348ccf-7ffc-4253-95f7-bf3beb0b8892","ios":"levelo://app?vid=df348ccf-7ffc-4253-95f7-bf3beb0b8892"},"vehicle_type_id":"4","last_reported":1700348799,"current_range_meters":26400,"station_id":"ce4bha12rcd13ifvqef0","pricing_plan_id":"free"},{"bike_id":"f657a136-deae-43b4-aaca-ab1b272879ff","system_id":"levelo_inurba_marseille","lat":43.281044,"lon":5.378308,"is_reserved":false,"is_disabled":false,"rental_uris":{"android":"levelo://app?vid=f657a136-deae-43b4-aaca-ab1b272879ff","ios":"levelo://app?vid=f657a136-deae-43b4-aaca-ab1b272879ff"},"vehicle_type_id":"4","last_reported":1700348799,"current_range_meters":19200,"station_id":"ce4bha12rcd13ifvqee0","pricing_plan_id":"free"},{"bike_id":"bc081cc5-5345-4ef7-b442-26e3ce5aca33","system_id":"levelo_inurba_marseille","lat":43.281044,"lon":5.378308,"is_reserved":false,"is_disabled":false,"rental_uris":{"android":"levelo://app?vid=bc081cc5-5345-4ef7-b442-26e3ce5aca33","ios":"levelo://app?vid=bc081cc5-5345-4ef7-b442-26e3ce5aca33"},"vehicle_type_id":"4","last_reported":1700348799,"current_range_meters":19600,"station_id":"ce4bha12rcd13ifvqee0","pricing_plan_id":"free"},{"bike_id":"dd94692f-67e7-4f64-8fa8-0eef2b92c077","system_id":"levelo_inurba_marseille","lat":43.296263,"lon":5.40601,"is_reserved":false,"is_disabled":false,"rental_uris":{"android":"levelo://app?vid=dd94692f-67e7-4f64-8fa8-0eef2b92c077","ios":"levelo://app?vid=dd94692f-67e7-4f64-8fa8-0eef2b92c077"},"vehicle_type_id":"4","last_reported":1700348799,"current_range_meters":9600,"station_id":"ce4bh0h2rcd13ifvqd60","pricing_plan_id":"free"},{"bike_id":"ccf9b17e-2fb6-47d5-b5cb-73ea08fcb6e5","system_id":"levelo_inurba_marseille","lat":43.28575,"lon":5.39498,"is_reserved":false,"is_disabled":false,"rental_uris":{"android":"levelo://app?vid=ccf9b17e-2fb6-47d5-b5cb-73ea08fcb6e5","ios":"levelo://app?vid=ccf9b17e-2fb6-47d5-b5cb-73ea08fcb6e5"},"vehicle_type_id":"4","last_reported":1700348799,"current_range_meters":0,"station_id":"ce4bh292rcd13ifvqdg0","pricing_plan_id":"free"},{"bike_id":"53ddc5b5-bae6-41a6-a56f-2271f0a381a4","system_id":"levelo_inurba_marseille","lat":43.304188,"lon":5.412904,"is_reserved":false,"is_disabled":false,"rental_uris":{"android":"levelo://app?vid=53ddc5b5-bae6-41a6-a56f-2271f0a381a4","ios":"levelo://app?vid=53ddc5b5-bae6-41a6-a56f-2271f0a381a4"},"vehicle_type_id":"4","last_reported":1700348799,"current_range_meters":1600,"station_id":"ce4bhop2rcd13ifvqh8g","pricing_plan_id":"free"},{"bike_id":"0b360304-d567-433a-be4c-89e972187919","system_id":"levelo_inurba_marseille","lat":43.279087,"lon":5.380114,"is_reserved":false,"is_disabled":false,"rental_uris":{"android":"levelo://app?vid=0b360304-d567-433a-be4c-89e972187919","ios":"levelo://app?vid=0b360304-d567-433a-be4c-89e972187919"},"vehicle_type_id":"4","last_reported":1700348799,"current_range_meters":19600,"station_id":"ce4bhf92rcd13ifvqf50","pricing_plan_id":"free"},{"bike_id":"ffde1ad1-0651-4e77-9d6a-d4e8691b3742","system_id":"levelo_inurba_marseille","lat":43.279087,"lon":5.380114,"is_reserved":false,"is_disabled":false,"rental_uris":{"android":"levelo://app?vid=ffde1ad1-0651-4e77-9d6a-d4e8691b3742","ios":"levelo://app?vid=ffde1ad1-0651-4e77-9d6a-d4e8691b3742"},"vehicle_type_id":"4","last_reported":1700348799,"current_range_meters":12800,"station_id":"ce4bhf92rcd13ifvqf50","pricing_plan_id":"free"},{"bike_id":"70398ab5-fac2-46eb-a28b-4bc3a30d156f","system_id":"levelo_inurba_marseille","lat":43.279087,"lon":5.380114,"is_reserved":false,"is_disabled":false,"rental_uris":{"android":"levelo://app?vid=70398ab5-fac2-46eb-a28b-4bc3a30d156f","ios":"levelo://app?vid=70398ab5-fac2-46eb-a28b-4bc3a30d156f"},"vehicle_type_id":"4","last_reported":1700348799,"current_range_meters":13600,"station_id":"ce4bhf92rcd13ifvqf50","pricing_plan_id":"free"},{"bike_id":"5f67d1e4-9228-42be-8c43-df9fde5feea3","system_id":"levelo_inurba_marseille","lat":43.279087,"lon":5.380114,"is_reserved":false,"is_disabled":false,"rental_uris":{"android":"levelo://app?vid=5f67d1e4-9228-42be-8c43-df9fde5feea3","ios":"levelo://app?vid=5f67d1e4-9228-42be-8c43-df9fde5feea3"},"vehicle_type_id":"4","last_reported":1700348799,"current_range_meters":18800,"station_id":"ce4bhf92rcd13ifvqf50","pricing_plan_id":"free"},{"bike_id":"ce1494c6-fdc7-4586-8b9d-2799e18af8f9","system_id":"levelo_inurba_marseille","lat":43.287154,"lon":5.399979,"is_reserved":false,"is_disabled":false,"rental_uris":{"android":"levelo://app?vid=ce1494c6-fdc7-4586-8b9d-2799e18af8f9","ios":"levelo://app?vid=ce1494c6-fdc7-4586-8b9d-2799e18af8f9"},"vehicle_type_id":"4","last_reported":1700348799,"current_range_meters":800,"station_id":"ce4bho92rcd13ifvqh3g","pricing_plan_id":"free"},{"bike_id":"3cff9a27-094d-4dea-a92e-ca997fe848b1","system_id":"levelo_inurba_marseille","lat":43.287154,"lon":5.399979,"is_reserved":false,"is_disabled":false,"rental_uris":{"android":"levelo://app?vid=3cff9a27-094d-4dea-a92e-ca997fe848b1","ios":"levelo://app?vid=3cff9a27-094d-4dea-a92e-ca997fe848b1"},"vehicle_type_id":"4","last_reported":1700348799,"current_range_meters":14400,"station_id":"ce4bho92rcd13ifvqh3g","pricing_plan_id":"free"},{"bike_id":"41df03e4-2c77-4a1a-8578-516ff9ffb868","system_id":"levelo_inurba_marseille","lat":43.287154,"lon":5.399979,"is_reserved":false,"is_disabled":false,"rental_uris":{"android":"levelo://app?vid=41df03e4-2c77-4a1a-8578-516ff9ffb868","ios":"levelo://app?vid=41df03e4-2c77-4a1a-8578-516ff9ffb868"},"vehicle_type_id":"4","last_reported":1700348799,"current_range_meters":0,"station_id":"ce4bho92rcd13ifvqh3g","pricing_plan_id":"free"},{"bike_id":"7aec40cf-fac1-458f-8669-ac74908c3b0e","system_id":"levelo_inurba_marseille","lat":43.287154,"lon":5.399979,"is_reserved":false,"is_disabled":false,"rental_uris":{"android":"levelo://app?vid=7aec40cf-fac1-458f-8669-ac74908c3b0e","ios":"levelo://app?vid=7aec40cf-fac1-458f-8669-ac74908c3b0e"},"vehicle_type_id":"4","last_reported":1700348799,"current_range_meters":9600,"station_id":"ce4bho92rcd13ifvqh3g","pricing_plan_id":"free"},{"bike_id":"2ad85542-3d44-429c-90a8-cbe265fcc244","system_id":"levelo_inurba_marseille","lat":43.279087,"lon":5.380114,"is_reserved":false,"is_disabled":false,"rental_uris":{"android":"levelo://app?vid=2ad85542-3d44-429c-90a8-cbe265fcc244","ios":"levelo://app?vid=2ad85542-3d44-429c-90a8-cbe265fcc244"},"vehicle_type_id":"4","last_reported":1700348799,"current_range_meters":12400,"station_id":"ce4bhf92rcd13ifvqf50","pricing_plan_id":"free"},{"bike_id":"feca28d2-7019-4e39-96be-d7938cc29597","system_id":"levelo_inurba_marseille","lat":43.32435,"lon":5.4137,"is_reserved":false,"is_disabled":false,"rental_uris":{"android":"levelo://app?vid=feca28d2-7019-4e39-96be-d7938cc29597","ios":"levelo://app?vid=feca28d2-7019-4e39-96be-d7938cc29597"},"vehicle_type_id":"4","last_reported":1700348799,"current_range_meters":0,"station_id":"","pricing_plan_id":"free"},{"bike_id":"06f154da-4aae-4fe6-8d38-922fd2c19629","system_id":"levelo_inurba_marseille","lat":43.299579,"lon":5.413255,"is_reserved":false,"is_disabled":false,"rental_uris":{"android":"levelo://app?vid=06f154da-4aae-4fe6-8d38-922fd2c19629","ios":"levelo://app?vid=06f154da-4aae-4fe6-8d38-922fd2c19629"},"vehicle_type_id":"4","last_reported":1700348799,"current_range_meters":27600,"station_id":"ce4bhp12rcd13ifvqh9g","pricing_plan_id":"free"},{"bike_id":"fb0ee05a-c8cf-4a25-a1e5-1054b631edb0","system_id":"levelo_inurba_marseille","lat":43.279742,"lon":5.38744,"is_reserved":false,"is_disabled":false,"rental_uris":{"android":"levelo://app?vid=fb0ee05a-c8cf-4a25-a1e5-1054b631edb0","ios":"levelo://app?vid=fb0ee05a-c8cf-4a25-a1e5-1054b631edb0"},"vehicle_type_id":"4","last_reported":1700348799,"current_range_meters":21600,"station_id":"ce4bhg12rcd13ifvqf80","pricing_plan_id":"free"},{"bike_id":"d1bdbd49-6f0a-40bf-b327-676c33190ef4","system_id":"levelo_inurba_marseille","lat":43.292571,"lon":5.409107,"is_reserved":false,"is_disabled":false,"rental_uris":{"android":"levelo://app?vid=d1bdbd49-6f0a-40bf-b327-676c33190ef4","ios":"levelo://app?vid=d1bdbd49-6f0a-40bf-b327-676c33190ef4"},"vehicle_type_id":"4","last_reported":1700348799,"current_range_meters":27200,"station_id":"ce4bh192rcd13ifvqdc0","pricing_plan_id":"free"},{"bike_id":"f44f67a8-bc4a-44fb-80cb-b9b806f7cce8","system_id":"levelo_inurba_marseille","lat":43.292569,"lon":5.409107,"is_reserved":false,"is_disabled":false,"rental_uris":{"android":"levelo://app?vid=f44f67a8-bc4a-44fb-80cb-b9b806f7cce8","ios":"levelo://app?vid=f44f67a8-bc4a-44fb-80cb-b9b806f7cce8"},"vehicle_type_id":"4","last_reported":1700348799,"current_range_meters":2000,"station_id":"ce4bh192rcd13ifvqdc0","pricing_plan_id":"free"},{"bike_id":"b1316a19-36d3-4d45-b0da-1a2f28ec0fc0","system_id":"levelo_inurba_marseille","lat":43.292571,"lon":5.409107,"is_reserved":false,"is_disabled":false,"rental_uris":{"android":"levelo://app?vid=b1316a19-36d3-4d45-b0da-1a2f28ec0fc0","ios":"levelo://app?vid=b1316a19-36d3-4d45-b0da-1a2f28ec0fc0"},"vehicle_type_id":"4","last_reported":1700348799,"current_range_meters":2800,"station_id":"ce4bh192rcd13ifvqdc0","pricing_plan_id":"free"},{"bike_id":"ad3efb1c-b1c5-45d6-8f1d-ad3e082b3022","system_id":"levelo_inurba_marseille","lat":43.292569,"lon":5.409107,"is_reserved":false,"is_disabled":false,"rental_uris":{"android":"levelo://app?vid=ad3efb1c-b1c5-45d6-8f1d-ad3e082b3022","ios":"levelo://app?vid=ad3efb1c-b1c5-45d6-8f1d-ad3e082b3022"},"vehicle_type_id":"4","last_reported":1700348799,"current_range_meters":7200,"station_id":"ce4bh192rcd13ifvqdc0","pricing_plan_id":"free"},{"bike_id":"e60a3918-77dc-427b-8a43-02ba89e68286","system_id":"levelo_inurba_marseille","lat":43.292571,"lon":5.409107,"is_reserved":false,"is_disabled":false,"rental_uris":{"android":"levelo://app?vid=e60a3918-77dc-427b-8a43-02ba89e68286","ios":"levelo://app?vid=e60a3918-77dc-427b-8a43-02ba89e68286"},"vehicle_type_id":"4","last_reported":1700348799,"current_range_meters":30000,"station_id":"ce4bh192rcd13ifvqdc0","pricing_plan_id":"free"},{"bike_id":"3a34ab10-d5a5-454b-aa99-068a762dd74b","system_id":"levelo_inurba_marseille","lat":43.292569,"lon":5.409107,"is_reserved":false,"is_disabled":false,"rental_uris":{"android":"levelo://app?vid=3a34ab10-d5a5-454b-aa99-068a762dd74b","ios":"levelo://app?vid=3a34ab10-d5a5-454b-aa99-068a762dd74b"},"vehicle_type_id":"4","last_reported":1700348799,"current_range_meters":13600,"station_id":"ce4bh192rcd13ifvqdc0","pricing_plan_id":"free"},{"bike_id":"10606041-6d1f-4abe-8004-6325e0030224","system_id":"levelo_inurba_marseille","lat":43.280784,"lon":5.396622,"is_reserved":false,"is_disabled":false,"rental_uris":{"android":"levelo://app?vid=10606041-6d1f-4abe-8004-6325e0030224","ios":"levelo://app?vid=10606041-6d1f-4abe-8004-6325e0030224"},"vehicle_type_id":"4","last_reported":1700348799,"current_range_meters":3600,"station_id":"ce4bho12rcd13ifvqh2g","pricing_plan_id":"free"},{"bike_id":"f9e05f08-87e9-40de-93d7-e360681eb739","system_id":"levelo_inurba_marseille","lat":43.30354,"lon":5.41881,"is_reserved":false,"is_disabled":false,"rental_uris":{"android":"levelo://app?vid=f9e05f08-87e9-40de-93d7-e360681eb739","ios":"levelo://app?vid=f9e05f08-87e9-40de-93d7-e360681eb739"},"vehicle_type_id":"4","last_reported":1700348799,"current_range_meters":0,"station_id":"ce4bhop2rcd13ifvqh7g","pricing_plan_id":"free"},{"bike_id":"b7d2fc7d-2116-4358-b530-1a1e845776b7","system_id":"levelo_inurba_marseille","lat":43.275625,"lon":5.384392,"is_reserved":false,"is_disabled":false,"rental_uris":{"android":"levelo://app?vid=b7d2fc7d-2116-4358-b530-1a1e845776b7","ios":"levelo://app?vid=b7d2fc7d-2116-4358-b530-1a1e845776b7"},"vehicle_type_id":"4","last_reported":1700348799,"current_range_meters":28800,"station_id":"ce4bhh92rcd13ifvqfi0","pricing_plan_id":"free"},{"bike_id":"bb61282f-fd59-4f37-8829-7f16818bad22","system_id":"levelo_inurba_marseille","lat":43.275625,"lon":5.384392,"is_reserved":false,"is_disabled":false,"rental_uris":{"android":"levelo://app?vid=bb61282f-fd59-4f37-8829-7f16818bad22","ios":"levelo://app?vid=bb61282f-fd59-4f37-8829-7f16818bad22"},"vehicle_type_id":"4","last_reported":1700348799,"current_range_meters":14000,"station_id":"ce4bhh92rcd13ifvqfi0","pricing_plan_id":"free"},{"bike_id":"fa3b7614-7dd0-4d7b-83ab-f7fc54e8bddb","system_id":"levelo_inurba_marseille","lat":43.273613,"lon":5.362705,"is_reserved":false,"is_disabled":false,"rental_uris":{"android":"levelo://app?vid=fa3b7614-7dd0-4d7b-83ab-f7fc54e8bddb","ios":"levelo://app?vid=fa3b7614-7dd0-4d7b-83ab-f7fc54e8bddb"},"vehicle_type_id":"4","last_reported":1700348799,"current_range_meters":25200,"station_id":"ce4bhbh2rcd13ifvqeo0","pricing_plan_id":"free"},{"bike_id":"c90a32b6-a921-4bdc-b5a3-a11243200c68","system_id":"levelo_inurba_marseille","lat":43.273609,"lon":5.362708,"is_reserved":false,"is_disabled":false,"rental_uris":{"android":"levelo://app?vid=c90a32b6-a921-4bdc-b5a3-a11243200c68","ios":"levelo://app?vid=c90a32b6-a921-4bdc-b5a3-a11243200c68"},"vehicle_type_id":"4","last_reported":1700348799,"current_range_meters":4800,"station_id":"ce4bhbh2rcd13ifvqeo0","pricing_plan_id":"free"},{"bike_id":"323d6c43-d2b5-49c8-bf39-5242c6145100","system_id":"levelo_inurba_marseille","lat":43.273609,"lon":5.362708,"is_reserved":false,"is_disabled":false,"rental_uris":{"android":"levelo://app?vid=323d6c43-d2b5-49c8-bf39-5242c6145100","ios":"levelo://app?vid=323d6c43-d2b5-49c8-bf39-5242c6145100"},"vehicle_type_id":"4","last_reported":1700348799,"current_range_meters":10800,"station_id":"ce4bhbh2rcd13ifvqeo0","pricing_plan_id":"free"},{"bike_id":"72a01077-dee8-4290-9bf2-91ac165c37fd","system_id":"levelo_inurba_marseille","lat":43.336134,"lon":5.410341,"is_reserved":false,"is_disabled":false,"rental_uris":{"android":"levelo://app?vid=72a01077-dee8-4290-9bf2-91ac165c37fd","ios":"levelo://app?vid=72a01077-dee8-4290-9bf2-91ac165c37fd"},"vehicle_type_id":"4","last_reported":1700348799,"current_range_meters":25600,"station_id":"ce4bhqh2rcd13ifvqhmg","pricing_plan_id":"free"},{"bike_id":"4e076906-68b6-4396-b68d-fb23fc841e3a","system_id":"levelo_inurba_marseille","lat":43.33612,"lon":5.410321,"is_reserved":false,"is_disabled":false,"rental_uris":{"android":"levelo://app?vid=4e076906-68b6-4396-b68d-fb23fc841e3a","ios":"levelo://app?vid=4e076906-68b6-4396-b68d-fb23fc841e3a"},"vehicle_type_id":"4","last_reported":1700348799,"current_range_meters":23200,"station_id":"ce4bhqh2rcd13ifvqhmg","pricing_plan_id":"free"},{"bike_id":"d69994bb-c32a-48c3-9c4a-3b835490a2ba","system_id":"levelo_inurba_marseille","lat":43.279952,"lon":5.400085,"is_reserved":false,"is_disabled":false,"rental_uris":{"android":"levelo://app?vid=d69994bb-c32a-48c3-9c4a-3b835490a2ba","ios":"levelo://app?vid=d69994bb-c32a-48c3-9c4a-3b835490a2ba"},"vehicle_type_id":"4","last_reported":1700348799,"current_range_meters":7200,"station_id":"ce4bho92rcd13ifvqh4g","pricing_plan_id":"free"},{"bike_id":"e6d4981d-66fd-40f8-9520-f7addfae3aee","system_id":"levelo_inurba_marseille","lat":43.27989,"lon":5.40022,"is_reserved":false,"is_disabled":false,"rental_uris":{"android":"levelo://app?vid=e6d4981d-66fd-40f8-9520-f7addfae3aee","ios":"levelo://app?vid=e6d4981d-66fd-40f8-9520-f7addfae3aee"},"vehicle_type_id":"4","last_reported":1700348799,"current_range_meters":19600,"station_id":"ce4bho92rcd13ifvqh4g","pricing_plan_id":"free"},{"bike_id":"1c489e8f-9c52-4563-a1a2-18535a1743aa","system_id":"levelo_inurba_marseille","lat":43.27978,"lon":5.40036,"is_reserved":false,"is_disabled":false,"rental_uris":{"android":"levelo://app?vid=1c489e8f-9c52-4563-a1a2-18535a1743aa","ios":"levelo://app?vid=1c489e8f-9c52-4563-a1a2-18535a1743aa"},"vehicle_type_id":"4","last_reported":1700348799,"current_range_meters":31200,"station_id":"ce4bho92rcd13ifvqh4g","pricing_plan_id":"free"},{"bike_id":"8cb3fbde-a7e5-41de-94f3-c33c37555f74","system_id":"levelo_inurba_marseille","lat":43.317121,"lon":5.423936,"is_reserved":false,"is_disabled":false,"rental_uris":{"android":"levelo://app?vid=8cb3fbde-a7e5-41de-94f3-c33c37555f74","ios":"levelo://app?vid=8cb3fbde-a7e5-41de-94f3-c33c37555f74"},"vehicle_type_id":"4","last_reported":1700348799,"current_range_meters":28800,"station_id":"ce4bhp92rcd13ifvqhbg","pricing_plan_id":"free"},{"bike_id":"33573f9b-da60-45a9-a9e9-19a3ae09c8b3","system_id":"levelo_inurba_marseille","lat":43.340804,"lon":5.410219,"is_reserved":false,"is_disabled":false,"rental_uris":{"android":"levelo://app?vid=33573f9b-da60-45a9-a9e9-19a3ae09c8b3","ios":"levelo://app?vid=33573f9b-da60-45a9-a9e9-19a3ae09c8b3"},"vehicle_type_id":"4","last_reported":1700348799,"current_range_meters":21600,"station_id":"ce4bhqh2rcd13ifvqhlg","pricing_plan_id":"free"},{"bike_id":"dd454d04-95d8-4be7-b84e-4fbf0f487480","system_id":"levelo_inurba_marseille","lat":43.340804,"lon":5.410219,"is_reserved":false,"is_disabled":false,"rental_uris":{"android":"levelo://app?vid=dd454d04-95d8-4be7-b84e-4fbf0f487480","ios":"levelo://app?vid=dd454d04-95d8-4be7-b84e-4fbf0f487480"},"vehicle_type_id":"4","last_reported":1700348799,"current_range_meters":20800,"station_id":"ce4bhqh2rcd13ifvqhlg","pricing_plan_id":"free"},{"bike_id":"d40bdb48-6ed1-4c9e-8da7-6814ed463183","system_id":"levelo_inurba_marseille","lat":43.340804,"lon":5.410219,"is_reserved":false,"is_disabled":false,"rental_uris":{"android":"levelo://app?vid=d40bdb48-6ed1-4c9e-8da7-6814ed463183","ios":"levelo://app?vid=d40bdb48-6ed1-4c9e-8da7-6814ed463183"},"vehicle_type_id":"4","last_reported":1700348799,"current_range_meters":0,"station_id":"ce4bhqh2rcd13ifvqhlg","pricing_plan_id":"free"},{"bike_id":"f8f5619a-a183-461d-b100-453fb972fcd4","system_id":"levelo_inurba_marseille","lat":43.272118,"lon":5.391758,"is_reserved":false,"is_disabled":false,"rental_uris":{"android":"levelo://app?vid=f8f5619a-a183-461d-b100-453fb972fcd4","ios":"levelo://app?vid=f8f5619a-a183-461d-b100-453fb972fcd4"},"vehicle_type_id":"4","last_reported":1700348799,"current_range_meters":24400,"station_id":"ce4bhhp2rcd13ifvqfm0","pricing_plan_id":"free"},{"bike_id":"139753b1-0b83-4c3a-80f1-5052bac15461","system_id":"levelo_inurba_marseille","lat":43.272095,"lon":5.392665,"is_reserved":false,"is_disabled":false,"rental_uris":{"android":"levelo://app?vid=139753b1-0b83-4c3a-80f1-5052bac15461","ios":"levelo://app?vid=139753b1-0b83-4c3a-80f1-5052bac15461"},"vehicle_type_id":"4","last_reported":1700348799,"current_range_meters":9200,"station_id":"","pricing_plan_id":"free"},{"bike_id":"fe139271-7817-4645-9ec4-f7eee743e805","system_id":"levelo_inurba_marseille","lat":43.271896,"lon":5.392307,"is_reserved":false,"is_disabled":false,"rental_uris":{"android":"levelo://app?vid=fe139271-7817-4645-9ec4-f7eee743e805","ios":"levelo://app?vid=fe139271-7817-4645-9ec4-f7eee743e805"},"vehicle_type_id":"4","last_reported":1700348799,"current_range_meters":0,"station_id":"ce4bhhp2rcd13ifvqfm0","pricing_plan_id":"free"},{"bike_id":"f0ed4531-078e-42fb-a007-3ed80505eb54","system_id":"levelo_inurba_marseille","lat":43.271891,"lon":5.392412,"is_reserved":false,"is_disabled":false,"rental_uris":{"android":"levelo://app?vid=f0ed4531-078e-42fb-a007-3ed80505eb54","ios":"levelo://app?vid=f0ed4531-078e-42fb-a007-3ed80505eb54"},"vehicle_type_id":"4","last_reported":1700348799,"current_range_meters":5600,"station_id":"","pricing_plan_id":"free"},{"bike_id":"08b435c4-205c-42d6-8404-c916901c2441","system_id":"levelo_inurba_marseille","lat":43.278128,"lon":5.407195,"is_reserved":false,"is_disabled":false,"rental_uris":{"android":"levelo://app?vid=08b435c4-205c-42d6-8404-c916901c2441","ios":"levelo://app?vid=08b435c4-205c-42d6-8404-c916901c2441"},"vehicle_type_id":"4","last_reported":1700348799,"current_range_meters":18000,"station_id":"ce4bhnh2rcd13ifvqgtg","pricing_plan_id":"free"},{"bike_id":"f9aa93c7-ef9b-4c09-b88b-3c4a52c1051f","system_id":"levelo_inurba_marseille","lat":43.278128,"lon":5.407195,"is_reserved":false,"is_disabled":false,"rental_uris":{"android":"levelo://app?vid=f9aa93c7-ef9b-4c09-b88b-3c4a52c1051f","ios":"levelo://app?vid=f9aa93c7-ef9b-4c09-b88b-3c4a52c1051f"},"vehicle_type_id":"4","last_reported":1700348799,"current_range_meters":30000,"station_id":"ce4bhnh2rcd13ifvqgtg","pricing_plan_id":"free"},{"bike_id":"15a89bae-fc3f-4440-97ba-ea86a53f4e2e","system_id":"levelo_inurba_marseille","lat":43.269467,"lon":5.386439,"is_reserved":false,"is_disabled":false,"rental_uris":{"android":"levelo://app?vid=15a89bae-fc3f-4440-97ba-ea86a53f4e2e","ios":"levelo://app?vid=15a89bae-fc3f-4440-97ba-ea86a53f4e2e"},"vehicle_type_id":"4","last_reported":1700348799,"current_range_meters":30400,"station_id":"ce4bhh92rcd13ifvqfh0","pricing_plan_id":"free"},{"bike_id":"f43d9a9c-5cec-49e0-a18d-9b539aa37375","system_id":"levelo_inurba_marseille","lat":43.279465,"lon":5.410561,"is_reserved":false,"is_disabled":false,"rental_uris":{"android":"levelo://app?vid=f43d9a9c-5cec-49e0-a18d-9b539aa37375","ios":"levelo://app?vid=f43d9a9c-5cec-49e0-a18d-9b539aa37375"},"vehicle_type_id":"4","last_reported":1700348799,"current_range_meters":19600,"station_id":"ce4bhnp2rcd13ifvqh0g","pricing_plan_id":"free"},{"bike_id":"c66ddc89-f5f8-4891-a146-125b11f6fdcb","system_id":"levelo_inurba_marseille","lat":43.29674,"lon":5.42787,"is_reserved":false,"is_disabled":false,"rental_uris":{"android":"levelo://app?vid=c66ddc89-f5f8-4891-a146-125b11f6fdcb","ios":"levelo://app?vid=c66ddc89-f5f8-4891-a146-125b11f6fdcb"},"vehicle_type_id":"4","last_reported":1700348799,"current_range_meters":20000,"station_id":"","pricing_plan_id":"free"},{"bike_id":"208dc22b-5220-4521-9531-720641d54377","system_id":"levelo_inurba_marseille","lat":43.265558,"lon":5.372835,"is_reserved":false,"is_disabled":false,"rental_uris":{"android":"levelo://app?vid=208dc22b-5220-4521-9531-720641d54377","ios":"levelo://app?vid=208dc22b-5220-4521-9531-720641d54377"},"vehicle_type_id":"4","last_reported":1700348799,"current_range_meters":0,"station_id":"ce4bhg12rcd13ifvqf70","pricing_plan_id":"free"},{"bike_id":"c7758cb2-2a45-4f89-aa5c-0e391d845c76","system_id":"levelo_inurba_marseille","lat":43.326053,"lon":5.429943,"is_reserved":false,"is_disabled":false,"rental_uris":{"android":"levelo://app?vid=c7758cb2-2a45-4f89-aa5c-0e391d845c76","ios":"levelo://app?vid=c7758cb2-2a45-4f89-aa5c-0e391d845c76"},"vehicle_type_id":"4","last_reported":1700348799,"current_range_meters":2800,"station_id":"","pricing_plan_id":"free"},{"bike_id":"42871d3b-8c03-490f-baf1-f4b57c44a331","system_id":"levelo_inurba_marseille","lat":43.326569,"lon":5.430586,"is_reserved":false,"is_disabled":false,"rental_uris":{"android":"levelo://app?vid=42871d3b-8c03-490f-baf1-f4b57c44a331","ios":"levelo://app?vid=42871d3b-8c03-490f-baf1-f4b57c44a331"},"vehicle_type_id":"4","last_reported":1700348799,"current_range_meters":16400,"station_id":"","pricing_plan_id":"free"},{"bike_id":"fb0f8f02-5c4d-4282-bd1c-d6f69569b453","system_id":"levelo_inurba_marseille","lat":43.27996,"lon":5.416624,"is_reserved":false,"is_disabled":false,"rental_uris":{"android":"levelo://app?vid=fb0f8f02-5c4d-4282-bd1c-d6f69569b453","ios":"levelo://app?vid=fb0f8f02-5c4d-4282-bd1c-d6f69569b453"},"vehicle_type_id":"4","last_reported":1700348799,"current_range_meters":26800,"station_id":"ce4bho12rcd13ifvqh1g","pricing_plan_id":"free"},{"bike_id":"d077710c-062f-4bb5-bc07-f925193fbbe9","system_id":"levelo_inurba_marseille","lat":43.31719,"lon":5.43699,"is_reserved":false,"is_disabled":false,"rental_uris":{"android":"levelo://app?vid=d077710c-062f-4bb5-bc07-f925193fbbe9","ios":"levelo://app?vid=d077710c-062f-4bb5-bc07-f925193fbbe9"},"vehicle_type_id":"4","last_reported":1700348799,"current_range_meters":5200,"station_id":"ce4bhp92rcd13ifvqhcg","pricing_plan_id":"free"},{"bike_id":"584c5199-357e-4900-bd58-cb216b28e7ac","system_id":"levelo_inurba_marseille","lat":43.317104,"lon":5.436818,"is_reserved":false,"is_disabled":false,"rental_uris":{"android":"levelo://app?vid=584c5199-357e-4900-bd58-cb216b28e7ac","ios":"levelo://app?vid=584c5199-357e-4900-bd58-cb216b28e7ac"},"vehicle_type_id":"4","last_reported":1700348799,"current_range_meters":31200,"station_id":"ce4bhp92rcd13ifvqhcg","pricing_plan_id":"free"},{"bike_id":"4eb3ca55-8582-4005-8d50-08c98619b69a","system_id":"levelo_inurba_marseille","lat":43.317104,"lon":5.436818,"is_reserved":false,"is_disabled":false,"rental_uris":{"android":"levelo://app?vid=4eb3ca55-8582-4005-8d50-08c98619b69a","ios":"levelo://app?vid=4eb3ca55-8582-4005-8d50-08c98619b69a"},"vehicle_type_id":"4","last_reported":1700348799,"current_range_meters":2400,"station_id":"ce4bhp92rcd13ifvqhcg","pricing_plan_id":"free"},{"bike_id":"74ce853b-0d8b-42c9-81c8-17a7564a4b34","system_id":"levelo_inurba_marseille","lat":43.31725,"lon":5.43786,"is_reserved":false,"is_disabled":false,"rental_uris":{"android":"levelo://app?vid=74ce853b-0d8b-42c9-81c8-17a7564a4b34","ios":"levelo://app?vid=74ce853b-0d8b-42c9-81c8-17a7564a4b34"},"vehicle_type_id":"4","last_reported":1700348799,"current_range_meters":16800,"station_id":"","pricing_plan_id":"free"},{"bike_id":"9ae96c3a-bf60-4cff-88ed-d593e21791ef","system_id":"levelo_inurba_marseille","lat":43.298768,"lon":5.43643,"is_reserved":false,"is_disabled":false,"rental_uris":{"android":"levelo://app?vid=9ae96c3a-bf60-4cff-88ed-d593e21791ef","ios":"levelo://app?vid=9ae96c3a-bf60-4cff-88ed-d593e21791ef"},"vehicle_type_id":"4","last_reported":1700348799,"current_range_meters":18000,"station_id":"ce4bhpp2rcd13ifvqhfg","pricing_plan_id":"free"},{"bike_id":"34c356c7-6d41-4c28-bf15-c6ff08d36598","system_id":"levelo_inurba_marseille","lat":43.298768,"lon":5.43643,"is_reserved":false,"is_disabled":false,"rental_uris":{"android":"levelo://app?vid=34c356c7-6d41-4c28-bf15-c6ff08d36598","ios":"levelo://app?vid=34c356c7-6d41-4c28-bf15-c6ff08d36598"},"vehicle_type_id":"4","last_reported":1700348799,"current_range_meters":22800,"station_id":"ce4bhpp2rcd13ifvqhfg","pricing_plan_id":"free"},{"bike_id":"abadc828-69fe-497b-b711-e5360a68b2c4","system_id":"levelo_inurba_marseille","lat":43.298768,"lon":5.43643,"is_reserved":false,"is_disabled":false,"rental_uris":{"android":"levelo://app?vid=abadc828-69fe-497b-b711-e5360a68b2c4","ios":"levelo://app?vid=abadc828-69fe-497b-b711-e5360a68b2c4"},"vehicle_type_id":"4","last_reported":1700348799,"current_range_meters":23200,"station_id":"ce4bhpp2rcd13ifvqhfg","pricing_plan_id":"free"},{"bike_id":"dfebeb8d-f976-47ff-99b9-1894168be217","system_id":"levelo_inurba_marseille","lat":43.281548,"lon":5.42643,"is_reserved":false,"is_disabled":false,"rental_uris":{"android":"levelo://app?vid=dfebeb8d-f976-47ff-99b9-1894168be217","ios":"levelo://app?vid=dfebeb8d-f976-47ff-99b9-1894168be217"},"vehicle_type_id":"4","last_reported":1700348799,"current_range_meters":14400,"station_id":"ce4bhnh2rcd13ifvqgug","pricing_plan_id":"free"},{"bike_id":"e0b3ec2d-fda2-40ca-9072-03a4797bd40f","system_id":"levelo_inurba_marseille","lat":43.281548,"lon":5.42643,"is_reserved":false,"is_disabled":false,"rental_uris":{"android":"levelo://app?vid=e0b3ec2d-fda2-40ca-9072-03a4797bd40f","ios":"levelo://app?vid=e0b3ec2d-fda2-40ca-9072-03a4797bd40f"},"vehicle_type_id":"4","last_reported":1700348799,"current_range_meters":12400,"station_id":"ce4bhnh2rcd13ifvqgug","pricing_plan_id":"free"},{"bike_id":"52c2449e-ba19-42b2-a2b7-5e9532985598","system_id":"levelo_inurba_marseille","lat":43.32279,"lon":5.43926,"is_reserved":false,"is_disabled":false,"rental_uris":{"android":"levelo://app?vid=52c2449e-ba19-42b2-a2b7-5e9532985598","ios":"levelo://app?vid=52c2449e-ba19-42b2-a2b7-5e9532985598"},"vehicle_type_id":"4","last_reported":1700348799,"current_range_meters":14800,"station_id":"","pricing_plan_id":"free"},{"bike_id":"d88b6a73-531b-425a-9e55-b97c354f59a2","system_id":"levelo_inurba_marseille","lat":43.32279,"lon":5.43934,"is_reserved":false,"is_disabled":false,"rental_uris":{"android":"levelo://app?vid=d88b6a73-531b-425a-9e55-b97c354f59a2","ios":"levelo://app?vid=d88b6a73-531b-425a-9e55-b97c354f59a2"},"vehicle_type_id":"4","last_reported":1700348799,"current_range_meters":28000,"station_id":"","pricing_plan_id":"free"},{"bike_id":"c15cbfe4-6e79-4293-b2f2-eee731f9c6c2","system_id":"levelo_inurba_marseille","lat":43.26066,"lon":5.39399,"is_reserved":false,"is_disabled":false,"rental_uris":{"android":"levelo://app?vid=c15cbfe4-6e79-4293-b2f2-eee731f9c6c2","ios":"levelo://app?vid=c15cbfe4-6e79-4293-b2f2-eee731f9c6c2"},"vehicle_type_id":"4","last_reported":1700348799,"current_range_meters":0,"station_id":"ce4bhh92rcd13ifvqfj0","pricing_plan_id":"free"},{"bike_id":"91b3c4bf-7b19-45fb-b809-6f886f9aa480","system_id":"levelo_inurba_marseille","lat":43.275028,"lon":5.424534,"is_reserved":false,"is_disabled":false,"rental_uris":{"android":"levelo://app?vid=91b3c4bf-7b19-45fb-b809-6f886f9aa480","ios":"levelo://app?vid=91b3c4bf-7b19-45fb-b809-6f886f9aa480"},"vehicle_type_id":"4","last_reported":1700348799,"current_range_meters":8400,"station_id":"ce4bhn92rcd13ifvqgrg","pricing_plan_id":"free"},{"bike_id":"039398bb-8f48-4a09-90e4-c695a075e1b2","system_id":"levelo_inurba_marseille","lat":43.275028,"lon":5.424534,"is_reserved":false,"is_disabled":false,"rental_uris":{"android":"levelo://app?vid=039398bb-8f48-4a09-90e4-c695a075e1b2","ios":"levelo://app?vid=039398bb-8f48-4a09-90e4-c695a075e1b2"},"vehicle_type_id":"4","last_reported":1700348799,"current_range_meters":12800,"station_id":"ce4bhn92rcd13ifvqgrg","pricing_plan_id":"free"},{"bike_id":"83adb50e-13ad-4a0a-b679-c8ddf78a1b0a","system_id":"levelo_inurba_marseille","lat":43.275028,"lon":5.424534,"is_reserved":false,"is_disabled":false,"rental_uris":{"android":"levelo://app?vid=83adb50e-13ad-4a0a-b679-c8ddf78a1b0a","ios":"levelo://app?vid=83adb50e-13ad-4a0a-b679-c8ddf78a1b0a"},"vehicle_type_id":"4","last_reported":1700348799,"current_range_meters":10400,"station_id":"ce4bhn92rcd13ifvqgrg","pricing_plan_id":"free"},{"bike_id":"29611ddf-2142-42d8-a93f-205ca8309b2b","system_id":"levelo_inurba_marseille","lat":43.260909,"lon":5.397591,"is_reserved":false,"is_disabled":false,"rental_uris":{"android":"levelo://app?vid=29611ddf-2142-42d8-a93f-205ca8309b2b","ios":"levelo://app?vid=29611ddf-2142-42d8-a93f-205ca8309b2b"},"vehicle_type_id":"4","last_reported":1700348799,"current_range_meters":0,"station_id":"ce4bhi12rcd13ifvqfq0","pricing_plan_id":"free"},{"bike_id":"956f93f8-b714-4b88-a26b-a27fe26a895d","system_id":"levelo_inurba_marseille","lat":43.270721,"lon":5.422764,"is_reserved":false,"is_disabled":false,"rental_uris":{"android":"levelo://app?vid=956f93f8-b714-4b88-a26b-a27fe26a895d","ios":"levelo://app?vid=956f93f8-b714-4b88-a26b-a27fe26a895d"},"vehicle_type_id":"4","last_reported":1700348799,"current_range_meters":24800,"station_id":"ce4bhk92rcd13ifvqgb0","pricing_plan_id":"free"},{"bike_id":"1aad1190-3717-48c1-b218-3940ae3995c4","system_id":"levelo_inurba_marseille","lat":43.270721,"lon":5.422764,"is_reserved":false,"is_disabled":false,"rental_uris":{"android":"levelo://app?vid=1aad1190-3717-48c1-b218-3940ae3995c4","ios":"levelo://app?vid=1aad1190-3717-48c1-b218-3940ae3995c4"},"vehicle_type_id":"4","last_reported":1700348799,"current_range_meters":28400,"station_id":"ce4bhk92rcd13ifvqgb0","pricing_plan_id":"free"},{"bike_id":"18bbd51d-8cc1-45ae-8de8-902f49fb4bfa","system_id":"levelo_inurba_marseille","lat":43.258658,"lon":5.398935,"is_reserved":false,"is_disabled":false,"rental_uris":{"android":"levelo://app?vid=18bbd51d-8cc1-45ae-8de8-902f49fb4bfa","ios":"levelo://app?vid=18bbd51d-8cc1-45ae-8de8-902f49fb4bfa"},"vehicle_type_id":"4","last_reported":1700348799,"current_range_meters":3600,"station_id":"ce4bhl92rcd13ifvqghg","pricing_plan_id":"free"},{"bike_id":"caa1522a-cc68-46e6-9ec7-ae3e091b09e9","system_id":"levelo_inurba_marseille","lat":43.258658,"lon":5.398935,"is_reserved":false,"is_disabled":false,"rental_uris":{"android":"levelo://app?vid=caa1522a-cc68-46e6-9ec7-ae3e091b09e9","ios":"levelo://app?vid=caa1522a-cc68-46e6-9ec7-ae3e091b09e9"},"vehicle_type_id":"4","last_reported":1700348799,"current_range_meters":1600,"station_id":"ce4bhl92rcd13ifvqghg","pricing_plan_id":"free"},{"bike_id":"7ad27884-6005-4573-b788-863e7849e691","system_id":"levelo_inurba_marseille","lat":43.257079,"lon":5.411051,"is_reserved":false,"is_disabled":false,"rental_uris":{"android":"levelo://app?vid=7ad27884-6005-4573-b788-863e7849e691","ios":"levelo://app?vid=7ad27884-6005-4573-b788-863e7849e691"},"vehicle_type_id":"4","last_reported":1700348799,"current_range_meters":1200,"station_id":"ce4bhkp2rcd13ifvqgd0","pricing_plan_id":"free"},{"bike_id":"268e7890-750e-4202-904d-61f2525519c6","system_id":"levelo_inurba_marseille","lat":43.25724,"lon":5.41106,"is_reserved":false,"is_disabled":false,"rental_uris":{"android":"levelo://app?vid=268e7890-750e-4202-904d-61f2525519c6","ios":"levelo://app?vid=268e7890-750e-4202-904d-61f2525519c6"},"vehicle_type_id":"4","last_reported":1700348799,"current_range_meters":13600,"station_id":"ce4bhkp2rcd13ifvqgd0","pricing_plan_id":"free"},{"bike_id":"3d030556-11af-411c-b3f7-637a1d98a1b4","system_id":"levelo_inurba_marseille","lat":43.25725,"lon":5.41109,"is_reserved":false,"is_disabled":false,"rental_uris":{"android":"levelo://app?vid=3d030556-11af-411c-b3f7-637a1d98a1b4","ios":"levelo://app?vid=3d030556-11af-411c-b3f7-637a1d98a1b4"},"vehicle_type_id":"4","last_reported":1700348799,"current_range_meters":15200,"station_id":"ce4bhkp2rcd13ifvqgd0","pricing_plan_id":"free"},{"bike_id":"c066fd2a-8fee-4202-8f47-33f36da84f5d","system_id":"levelo_inurba_marseille","lat":43.257079,"lon":5.411051,"is_reserved":false,"is_disabled":false,"rental_uris":{"android":"levelo://app?vid=c066fd2a-8fee-4202-8f47-33f36da84f5d","ios":"levelo://app?vid=c066fd2a-8fee-4202-8f47-33f36da84f5d"},"vehicle_type_id":"4","last_reported":1700348799,"current_range_meters":31200,"station_id":"ce4bhkp2rcd13ifvqgd0","pricing_plan_id":"free"},{"bike_id":"44f08415-9b06-48c1-9eeb-6c227f27cac1","system_id":"levelo_inurba_marseille","lat":43.25724,"lon":5.4111,"is_reserved":false,"is_disabled":false,"rental_uris":{"android":"levelo://app?vid=44f08415-9b06-48c1-9eeb-6c227f27cac1","ios":"levelo://app?vid=44f08415-9b06-48c1-9eeb-6c227f27cac1"},"vehicle_type_id":"4","last_reported":1700348799,"current_range_meters":8000,"station_id":"ce4bhkp2rcd13ifvqgd0","pricing_plan_id":"free"},{"bike_id":"054d9785-8ef4-4c9a-b63a-ca6d7d069df2","system_id":"levelo_inurba_marseille","lat":43.250009,"lon":5.389195,"is_reserved":false,"is_disabled":false,"rental_uris":{"android":"levelo://app?vid=054d9785-8ef4-4c9a-b63a-ca6d7d069df2","ios":"levelo://app?vid=054d9785-8ef4-4c9a-b63a-ca6d7d069df2"},"vehicle_type_id":"4","last_reported":1700348799,"current_range_meters":26800,"station_id":"ce4bhgp2rcd13ifvqfd0","pricing_plan_id":"free"},{"bike_id":"961fc85e-a432-471f-b1c4-71f9c8f489a3","system_id":"levelo_inurba_marseille","lat":43.25102,"lon":5.403214,"is_reserved":false,"is_disabled":false,"rental_uris":{"android":"levelo://app?vid=961fc85e-a432-471f-b1c4-71f9c8f489a3","ios":"levelo://app?vid=961fc85e-a432-471f-b1c4-71f9c8f489a3"},"vehicle_type_id":"4","last_reported":1700348799,"current_range_meters":0,"station_id":"ce4bhlh2rcd13ifvqgig","pricing_plan_id":"free"},{"bike_id":"0dce2ebe-4c8d-4238-831c-91ac920da6d4","system_id":"levelo_inurba_marseille","lat":43.25102,"lon":5.403214,"is_reserved":false,"is_disabled":false,"rental_uris":{"android":"levelo://app?vid=0dce2ebe-4c8d-4238-831c-91ac920da6d4","ios":"levelo://app?vid=0dce2ebe-4c8d-4238-831c-91ac920da6d4"},"vehicle_type_id":"4","last_reported":1700348799,"current_range_meters":400,"station_id":"ce4bhlh2rcd13ifvqgig","pricing_plan_id":"free"},{"bike_id":"f7a693a5-95dc-453c-99cd-4ff2e0d36c95","system_id":"levelo_inurba_marseille","lat":43.243884,"lon":5.370737,"is_reserved":false,"is_disabled":false,"rental_uris":{"android":"levelo://app?vid=f7a693a5-95dc-453c-99cd-4ff2e0d36c95","ios":"levelo://app?vid=f7a693a5-95dc-453c-99cd-4ff2e0d36c95"},"vehicle_type_id":"4","last_reported":1700348799,"current_range_meters":26000,"station_id":"ce4bhhh2rcd13ifvqfk0","pricing_plan_id":"free"},{"bike_id":"2e3af95f-ee41-421d-9973-d1eed6305545","system_id":"levelo_inurba_marseille","lat":43.243884,"lon":5.370736,"is_reserved":false,"is_disabled":false,"rental_uris":{"android":"levelo://app?vid=2e3af95f-ee41-421d-9973-d1eed6305545","ios":"levelo://app?vid=2e3af95f-ee41-421d-9973-d1eed6305545"},"vehicle_type_id":"4","last_reported":1700348799,"current_range_meters":28000,"station_id":"ce4bhhh2rcd13ifvqfk0","pricing_plan_id":"free"},{"bike_id":"8961b0d1-502b-4df0-a3f3-cca7f1f0eb8c","system_id":"levelo_inurba_marseille","lat":43.241782,"lon":5.397261,"is_reserved":false,"is_disabled":false,"rental_uris":{"android":"levelo://app?vid=8961b0d1-502b-4df0-a3f3-cca7f1f0eb8c","ios":"levelo://app?vid=8961b0d1-502b-4df0-a3f3-cca7f1f0eb8c"},"vehicle_type_id":"4","last_reported":1700348799,"current_range_meters":10800,"station_id":"ce4bhn12rcd13ifvqgpg","pricing_plan_id":"free"},{"bike_id":"41795ff1-b589-4d36-8884-8ab7fa8447ca","system_id":"levelo_inurba_marseille","lat":43.240623,"lon":5.377642,"is_reserved":false,"is_disabled":false,"rental_uris":{"android":"levelo://app?vid=41795ff1-b589-4d36-8884-8ab7fa8447ca","ios":"levelo://app?vid=41795ff1-b589-4d36-8884-8ab7fa8447ca"},"vehicle_type_id":"4","last_reported":1700348799,"current_range_meters":9600,"station_id":"ce4bhnp2rcd13ifvqgvg","pricing_plan_id":"free"},{"bike_id":"1f1852a1-9197-4bda-b6df-60d068f7f3cb","system_id":"levelo_inurba_marseille","lat":43.240623,"lon":5.377642,"is_reserved":false,"is_disabled":false,"rental_uris":{"android":"levelo://app?vid=1f1852a1-9197-4bda-b6df-60d068f7f3cb","ios":"levelo://app?vid=1f1852a1-9197-4bda-b6df-60d068f7f3cb"},"vehicle_type_id":"4","last_reported":1700348799,"current_range_meters":400,"station_id":"ce4bhnp2rcd13ifvqgvg","pricing_plan_id":"free"},{"bike_id":"0ad92559-ce7b-4f42-a92a-40dafdb893de","system_id":"levelo_inurba_marseille","lat":43.239588,"lon":5.366238,"is_reserved":false,"is_disabled":false,"rental_uris":{"android":"levelo://app?vid=0ad92559-ce7b-4f42-a92a-40dafdb893de","ios":"levelo://app?vid=0ad92559-ce7b-4f42-a92a-40dafdb893de"},"vehicle_type_id":"4","last_reported":1700348799,"current_range_meters":27200,"station_id":"ce4bhi12rcd13ifvqfp0","pricing_plan_id":"free"},{"bike_id":"4370869b-0c59-4e1b-b4c7-59bf3a7bc50e","system_id":"levelo_inurba_marseille","lat":43.241782,"lon":5.397264,"is_reserved":false,"is_disabled":false,"rental_uris":{"android":"levelo://app?vid=4370869b-0c59-4e1b-b4c7-59bf3a7bc50e","ios":"levelo://app?vid=4370869b-0c59-4e1b-b4c7-59bf3a7bc50e"},"vehicle_type_id":"4","last_reported":1700348799,"current_range_meters":16800,"station_id":"ce4bhn12rcd13ifvqgpg","pricing_plan_id":"free"},{"bike_id":"07e8793f-b5c8-4815-95b2-cfd73adfc584","system_id":"levelo_inurba_marseille","lat":43.24179,"lon":5.39727,"is_reserved":false,"is_disabled":false,"rental_uris":{"android":"levelo://app?vid=07e8793f-b5c8-4815-95b2-cfd73adfc584","ios":"levelo://app?vid=07e8793f-b5c8-4815-95b2-cfd73adfc584"},"vehicle_type_id":"4","last_reported":1700348799,"current_range_meters":26400,"station_id":"ce4bhn12rcd13ifvqgpg","pricing_plan_id":"free"},{"bike_id":"662f058d-46b1-4787-b52a-d29e98a28779","system_id":"levelo_inurba_marseille","lat":43.231919,"lon":5.355532,"is_reserved":false,"is_disabled":false,"rental_uris":{"android":"levelo://app?vid=662f058d-46b1-4787-b52a-d29e98a28779","ios":"levelo://app?vid=662f058d-46b1-4787-b52a-d29e98a28779"},"vehicle_type_id":"4","last_reported":1700348799,"current_range_meters":15200,"station_id":"ce4bhu92rcd13ifvqi70","pricing_plan_id":"free"},{"bike_id":"486fecf0-765d-4eee-9a85-898f8aa27175","system_id":"levelo_inurba_marseille","lat":43.231793,"lon":5.400044,"is_reserved":false,"is_disabled":false,"rental_uris":{"android":"levelo://app?vid=486fecf0-765d-4eee-9a85-898f8aa27175","ios":"levelo://app?vid=486fecf0-765d-4eee-9a85-898f8aa27175"},"vehicle_type_id":"4","last_reported":1700348799,"current_range_meters":30000,"station_id":"ce4bhn12rcd13ifvqgqg","pricing_plan_id":"free"},{"bike_id":"fb647ab6-bdfe-4d43-8021-469b840e3f01","system_id":"levelo_inurba_marseille","lat":43.231794,"lon":5.400052,"is_reserved":false,"is_disabled":false,"rental_uris":{"android":"levelo://app?vid=fb647ab6-bdfe-4d43-8021-469b840e3f01","ios":"levelo://app?vid=fb647ab6-bdfe-4d43-8021-469b840e3f01"},"vehicle_type_id":"4","last_reported":1700348799,"current_range_meters":28000,"station_id":"ce4bhn12rcd13ifvqgqg","pricing_plan_id":"free"},{"bike_id":"f4a8cd9e-70db-4af1-b4c0-7aa0a7fac3fa","system_id":"levelo_inurba_marseille","lat":43.23186,"lon":5.399879,"is_reserved":false,"is_disabled":false,"rental_uris":{"android":"levelo://app?vid=f4a8cd9e-70db-4af1-b4c0-7aa0a7fac3fa","ios":"levelo://app?vid=f4a8cd9e-70db-4af1-b4c0-7aa0a7fac3fa"},"vehicle_type_id":"4","last_reported":1700348799,"current_range_meters":30000,"station_id":"ce4bhn12rcd13ifvqgqg","pricing_plan_id":"free"},{"bike_id":"ad9d26be-fd61-4954-b04a-614ee9d33f7d","system_id":"levelo_inurba_marseille","lat":43.231794,"lon":5.400052,"is_reserved":false,"is_disabled":false,"rental_uris":{"android":"levelo://app?vid=ad9d26be-fd61-4954-b04a-614ee9d33f7d","ios":"levelo://app?vid=ad9d26be-fd61-4954-b04a-614ee9d33f7d"},"vehicle_type_id":"4","last_reported":1700348799,"current_range_meters":31200,"station_id":"ce4bhn12rcd13ifvqgqg","pricing_plan_id":"free"},{"bike_id":"efc139d5-8bb1-4a6b-b437-01d31830d455","system_id":"levelo_inurba_marseille","lat":43.231794,"lon":5.400052,"is_reserved":false,"is_disabled":false,"rental_uris":{"android":"levelo://app?vid=efc139d5-8bb1-4a6b-b437-01d31830d455","ios":"levelo://app?vid=efc139d5-8bb1-4a6b-b437-01d31830d455"},"vehicle_type_id":"4","last_reported":1700348799,"current_range_meters":31200,"station_id":"ce4bhn12rcd13ifvqgqg","pricing_plan_id":"free"},{"bike_id":"fa9cc91c-c78c-4cb3-ab2e-3cc3c66a937c","system_id":"levelo_inurba_marseille","lat":43.23184,"lon":5.39989,"is_reserved":false,"is_disabled":false,"rental_uris":{"android":"levelo://app?vid=fa9cc91c-c78c-4cb3-ab2e-3cc3c66a937c","ios":"levelo://app?vid=fa9cc91c-c78c-4cb3-ab2e-3cc3c66a937c"},"vehicle_type_id":"4","last_reported":1700348799,"current_range_meters":20800,"station_id":"ce4bhn12rcd13ifvqgqg","pricing_plan_id":"free"},{"bike_id":"a77536b5-5a4a-4d26-b9d3-350ffe3416bd","system_id":"levelo_inurba_marseille","lat":43.231793,"lon":5.400044,"is_reserved":false,"is_disabled":false,"rental_uris":{"android":"levelo://app?vid=a77536b5-5a4a-4d26-b9d3-350ffe3416bd","ios":"levelo://app?vid=a77536b5-5a4a-4d26-b9d3-350ffe3416bd"},"vehicle_type_id":"4","last_reported":1700348799,"current_range_meters":10000,"station_id":"ce4bhn12rcd13ifvqgqg","pricing_plan_id":"free"},{"bike_id":"7bc95a0e-72f8-4232-b877-46fe8e7f9e0c","system_id":"levelo_inurba_marseille","lat":43.231794,"lon":5.400052,"is_reserved":false,"is_disabled":false,"rental_uris":{"android":"levelo://app?vid=7bc95a0e-72f8-4232-b877-46fe8e7f9e0c","ios":"levelo://app?vid=7bc95a0e-72f8-4232-b877-46fe8e7f9e0c"},"vehicle_type_id":"4","last_reported":1700348799,"current_range_meters":31600,"station_id":"ce4bhn12rcd13ifvqgqg","pricing_plan_id":"free"},{"bike_id":"21e2e00e-8e23-4563-8bed-08400fc48e72","system_id":"levelo_inurba_marseille","lat":43.23184,"lon":5.39997,"is_reserved":false,"is_disabled":false,"rental_uris":{"android":"levelo://app?vid=21e2e00e-8e23-4563-8bed-08400fc48e72","ios":"levelo://app?vid=21e2e00e-8e23-4563-8bed-08400fc48e72"},"vehicle_type_id":"4","last_reported":1700348799,"current_range_meters":26800,"station_id":"ce4bhn12rcd13ifvqgqg","pricing_plan_id":"free"},{"bike_id":"5d8316f4-9b3b-4f22-8b0a-d975b6faa1c0","system_id":"levelo_inurba_marseille","lat":43.231793,"lon":5.400044,"is_reserved":false,"is_disabled":false,"rental_uris":{"android":"levelo://app?vid=5d8316f4-9b3b-4f22-8b0a-d975b6faa1c0","ios":"levelo://app?vid=5d8316f4-9b3b-4f22-8b0a-d975b6faa1c0"},"vehicle_type_id":"4","last_reported":1700348799,"current_range_meters":18000,"station_id":"ce4bhn12rcd13ifvqgqg","pricing_plan_id":"free"},{"bike_id":"adac1971-5e73-41e6-9ade-b5ded0f026e7","system_id":"levelo_inurba_marseille","lat":43.231793,"lon":5.400044,"is_reserved":false,"is_disabled":false,"rental_uris":{"android":"levelo://app?vid=adac1971-5e73-41e6-9ade-b5ded0f026e7","ios":"levelo://app?vid=adac1971-5e73-41e6-9ade-b5ded0f026e7"},"vehicle_type_id":"4","last_reported":1700348799,"current_range_meters":30800,"station_id":"ce4bhn12rcd13ifvqgqg","pricing_plan_id":"free"},{"bike_id":"adaed5b2-5df4-4ff5-a8ef-af36cdca2a2f","system_id":"levelo_inurba_marseille","lat":43.231789,"lon":5.399924,"is_reserved":false,"is_disabled":false,"rental_uris":{"android":"levelo://app?vid=adaed5b2-5df4-4ff5-a8ef-af36cdca2a2f","ios":"levelo://app?vid=adaed5b2-5df4-4ff5-a8ef-af36cdca2a2f"},"vehicle_type_id":"4","last_reported":1700348799,"current_range_meters":2400,"station_id":"ce4bhn12rcd13ifvqgqg","pricing_plan_id":"free"},{"bike_id":"6cc2b76e-a1a4-4596-98b3-c8b21b159827","system_id":"levelo_inurba_marseille","lat":43.231562,"lon":5.436933,"is_reserved":false,"is_disabled":false,"rental_uris":{"android":"levelo://app?vid=6cc2b76e-a1a4-4596-98b3-c8b21b159827","ios":"levelo://app?vid=6cc2b76e-a1a4-4596-98b3-c8b21b159827"},"vehicle_type_id":"4","last_reported":1700348799,"current_range_meters":18800,"station_id":"ce4bhmp2rcd13ifvqgog","pricing_plan_id":"free"},{"bike_id":"ac753338-7ae7-484b-b345-d535336dbb1b","system_id":"levelo_inurba_marseille","lat":43.231562,"lon":5.436933,"is_reserved":false,"is_disabled":false,"rental_uris":{"android":"levelo://app?vid=ac753338-7ae7-484b-b345-d535336dbb1b","ios":"levelo://app?vid=ac753338-7ae7-484b-b345-d535336dbb1b"},"vehicle_type_id":"4","last_reported":1700348799,"current_range_meters":24000,"station_id":"ce4bhmp2rcd13ifvqgog","pricing_plan_id":"free"},{"bike_id":"96c9b960-69c2-43ef-8595-a0d32e3cd3b8","system_id":"levelo_inurba_marseille","lat":43.23151,"lon":5.4372,"is_reserved":false,"is_disabled":false,"rental_uris":{"android":"levelo://app?vid=96c9b960-69c2-43ef-8595-a0d32e3cd3b8","ios":"levelo://app?vid=96c9b960-69c2-43ef-8595-a0d32e3cd3b8"},"vehicle_type_id":"4","last_reported":1700348799,"current_range_meters":14000,"station_id":"ce4bhmp2rcd13ifvqgog","pricing_plan_id":"free"}]}}