{"last_updated":1729616863,"ttl":60,"version":"2.2","data":{"bikes":[{"bike_id":"98f49a3e-cf68-4472-b956-a74716e8903a","system_id":"levelo_inurba_marseille","lat":43.289276,"lon":5.383979,"is_reserved":false,"is_disabled":false,"rental_uris":{"android":"levelo://app?vid=98f49a3e-cf68-4472-b956-a74716e8903a","ios":"levelo://app?vid=98f49a3e-cf68-4472-b956-a74716e8903a"},"vehicle_type_id":"4","last_reported":1729616863,"current_range_meters":36800,"station_id":"ce4bh612rcd13ifvqe6g","pricing_plan_id":"cebpf4jnsgd1na2vs0mg"},{"bike_id":"b80433a2-f594-4dec-a114-a3daef230c2e","system_id":"levelo_inurba_marseille","lat":43.27377,"lon":5.3626,"is_reserved":false,"is_disabled":false,"rental_uris":{"android":"levelo://app?vid=b80433a2-f594-4dec-a114-a3daef230c2e","ios":"levelo://app?vid=b80433a2-f594-4dec-a114-a3daef230c2e"},"vehicle_type_id":"4","last_reported":1729616863,"current_range_meters":28800,"station_id":"ce4bhbh2rcd13ifvqeo0","pricing_plan_id":"cebpf4jnsgd1na2vs0mg"},{"bike_id":"2be7ea3d-6d76-49e7-b738-fbc1ec80ba5d","system_id":"levelo_inurba_marseille","lat":43.30144,"lon":5.3742,"is_reserved":false,"is_disabled":false,"rental_uris":{"android":"levelo://app?vid=2be7ea3d-6d76-49e7-b738-fbc1ec80ba5d","ios":"levelo://app?vid=2be7ea3d-6d76-49e7-b738-fbc1ec80ba5d"},"vehicle_type_id":"4","last_reported":1729616863,"current_range_meters":22000,"station_id":"ce4bgs92rcd13ifvqcc0","pricing_plan_id":"cebpf4jnsgd1na2vs0mg"},{"bike_id":"a1734ac5-bdd5-4f8f-af9b-24c96f810d8e","system_id":"levelo_inurba_marseille","lat":43.299,"lon":5.43667,"is_reserved":false,"is_disabled":false,"rental_uris":{"android":"levelo://app?vid=a1734ac5-bdd5-4f8f-af9b-24c96f810d8e","ios":"levelo://app?vid=a1734ac5-bdd5-4f8f-af9b-24c96f810d8e"},"vehicle_type_id":"4","last_reported":1729616863,"current_range_meters":24000,"station_id":"ce4bhpp2rcd13ifvqhfg","pricing_plan_id":"cebpf4jnsgd1na2vs0mg"},{"bike_id":"41ab3696-02ce-40e3-9010-f5bd25cf919e","system_id":"levelo_inurba_marseille","lat":43.29527,"lon":5.38558,"is_reserved":false,"is_disabled":false,"rental_uris":{"android":"levelo://app?vid=41ab3696-02ce-40e3-9010-f5bd25cf919e","ios":"levelo://app?vid=41ab3696-02ce-40e3-9010-f5bd25cf919e"},"vehicle_type_id":"4","last_reported":1729616863,"current_range_meters":4800,"station_id":"ce4bgih2rcd13ifvqba0","pricing_plan_id":"cebpf4jnsgd1na2vs0mg"},{"bike_id":"18508f44-95c9-4da6-abab-5b1e714758ab","system_id":"levelo_inurba_marseille","lat":43.29973,"lon":5.37184,"is_reserved":false,"is_disabled":false,"rental_uris":{"android":"levelo://app?vid=18508f44-95c9-4da6-abab-5b1e714758ab","ios":"levelo://app?vid=18508f44-95c9-4da6-abab-5b1e714758ab"},"vehicle_type_id":"4","last_reported":1729616863,"current_range_meters":6400,"station_id":"ce4bgr92rcd13ifvqc7g","pricing_plan_id":"cebpf4jnsgd1na2vs0mg"},{"bike_id":"b1ded69e-7cb9-4ee7-9de8-822785858240","system_id":"levelo_inurba_marseille","lat":43.31329,"lon":5.397,"is_reserved":false,"is_disabled":false,"rental_uris":{"android":"levelo://app?vid=b1ded69e-7cb9-4ee7-9de8-822785858240","ios":"levelo://app?vid=b1ded69e-7cb9-4ee7-9de8-822785858240"},"vehicle_type_id":"4","last_reported":1729616863,"current_range_meters":34000,"station_id":"ce4bgvp2rcd13ifvqcu0","pricing_plan_id":"cebpf4jnsgd1na2vs0mg"},{"bike_id":"ae5cf7ed-e86e-4f7d-a591-86acb58296e4","system_id":"levelo_inurba_marseille","lat":43.29575,"lon":5.37517,"is_reserved":false,"is_disabled":false,"rental_uris":{"android":"levelo://app?vid=ae5cf7ed-e86e-4f7d-a591-86acb58296e4","ios":"levelo://app?vid=ae5cf7ed-e86e-4f7d-a591-86acb58296e4"},"vehicle_type_id":"4","last_reported":1729616863,"current_range_meters":35200,"station_id":"ce4bgh92rcd13ifvqb50","pricing_plan_id":"cebpf4jnsgd1na2vs0mg"},{"bike_id":"cb5d20af-74bd-480d-a1be-33d81d588524","system_id":"levelo_inurba_marseille","lat":43.29259,"lon":5.38442,"is_reserved":false,"is_disabled":false,"rental_uris":{"android":"levelo://app?vid=cb5d20af-74bd-480d-a1be-33d81d588524","ios":"levelo://app?vid=cb5d20af-74bd-480d-a1be-33d81d588524"},"vehicle_type_id":"4","last_reported":1729616863,"current_range_meters":6400,"station_id":"ce4bh692rcd13ifvqea0","pricing_plan_id":"cebpf4jnsgd1na2vs0mg"},{"bike_id":"5c449356-4ac4-4d08-a405-c433fbe21a80","system_id":"levelo_inurba_marseille","lat":43.33737,"lon":5.37458,"is_reserved":false,"is_disabled":false,"rental_uris":{"android":"levelo://app?vid=5c449356-4ac4-4d08-a405-c433fbe21a80","ios":"levelo://app?vid=5c449356-4ac4-4d08-a405-c433fbe21a80"},"vehicle_type_id":"4","last_reported":1729616863,"current_range_meters":33200,"station_id":"","pricing_plan_id":"cebpf4jnsgd1na2vs0mg"},{"bike_id":"bc293a65-b991-490c-ab0e-1bce4f60512c","system_id":"levelo_inurba_marseille","lat":43.29978,"lon":5.38495,"is_reserved":false,"is_disabled":false,"rental_uris":{"android":"levelo://app?vid=bc293a65-b991-490c-ab0e-1bce4f60512c","ios":"levelo://app?vid=bc293a65-b991-490c-ab0e-1bce4f60512c"},"vehicle_type_id":"4","last_reported":1729616863,"current_range_meters":17200,"station_id":"ce4bgj92rcd13ifvqbd0","pricing_plan_id":"cebpf4jnsgd1na2vs0mg"},{"bike_id":"d9008e40-da82-4c68-80dc-7d1e7ccee04d","system_id":"levelo_inurba_marseille","lat":43.30457,"lon":5.40186,"is_reserved":false,"is_disabled":false,"rental_uris":{"android":"levelo://app?vid=d9008e40-da82-4c68-80dc-7d1e7ccee04d","ios":"levelo://app?vid=d9008e40-da82-4c68-80dc-7d1e7ccee04d"},"vehicle_type_id":"4","last_reported":1729616863,"current_range_meters":8800,"station_id":"","pricing_plan_id":"cebpf4jnsgd1na2vs0mg"},{"bike_id":"4b0a930b-8f93-4ac5-9ebd-fd1c3db335c1","system_id":"levelo_inurba_marseille","lat":43.2738,"lon":5.36261,"is_reserved":false,"is_disabled":false,"rental_uris":{"android":"levelo://app?vid=4b0a930b-8f93-4ac5-9ebd-fd1c3db335c1","ios":"levelo://app?vid=4b0a930b-8f93-4ac5-9ebd-fd1c3db335c1"},"vehicle_type_id":"4","last_reported":1729616863,"current_range_meters":24800,"station_id":"ce4bhbh2rcd13ifvqeo0","pricing_plan_id":"cebpf4jnsgd1na2vs0mg"},{"bike_id":"80f01561-4f78-4d59-98de-f130f22341eb","system_id":"levelo_inurba_marseille","lat":43.28154,"lon":5.42641,"is_reserved":false,"is_disabled":false,"rental_uris":{"android":"levelo://app?vid=80f01561-4f78-4d59-98de-f130f22341eb","ios":"levelo://app?vid=80f01561-4f78-4d59-98de-f130f22341eb"},"vehicle_type_id":"4","last_reported":1729616863,"current_range_meters":4400,"station_id":"ce4bhnh2rcd13ifvqgug","pricing_plan_id":"cebpf4jnsgd1na2vs0mg"},{"bike_id":"47ed7c91-ec05-4e4f-bdc7-4f48a4cf47e2","system_id":"levelo_inurba_marseille","lat":43.30587,"lon":5.37251,"is_reserved":false,"is_disabled":false,"rental_uris":{"android":"levelo://app?vid=47ed7c91-ec05-4e4f-bdc7-4f48a4cf47e2","ios":"levelo://app?vid=47ed7c91-ec05-4e4f-bdc7-4f48a4cf47e2"},"vehicle_type_id":"4","last_reported":1729616863,"current_range_meters":35200,"station_id":"ce4bgqh2rcd13ifvqc4g","pricing_plan_id":"cebpf4jnsgd1na2vs0mg"},{"bike_id":"b62830e9-b932-4821-91c5-d8fd325c5f38","system_id":"levelo_inurba_marseille","lat":43.25521,"lon":5.40953,"is_reserved":false,"is_disabled":false,"rental_uris":{"android":"levelo://app?vid=b62830e9-b932-4821-91c5-d8fd325c5f38","ios":"levelo://app?vid=b62830e9-b932-4821-91c5-d8fd325c5f38"},"vehicle_type_id":"4","last_reported":1729616863,"current_range_meters":18800,"station_id":"","pricing_plan_id":"cebpf4jnsgd1na2vs0mg"},{"bike_id":"49a272d4-bf96-4473-b3f5-35c4956da975","system_id":"levelo_inurba_marseille","lat":43.29208,"lon":5.36057,"is_reserved":false,"is_disabled":false,"rental_uris":{"android":"levelo://app?vid=49a272d4-bf96-4473-b3f5-35c4956da975","ios":"levelo://app?vid=49a272d4-bf96-4473-b3f5-35c4956da975"},"vehicle_type_id":"4","last_reported":1729616863,"current_range_meters":7200,"station_id":"ce4bhbh2rcd13ifvqeqg","pricing_plan_id":"cebpf4jnsgd1na2vs0mg"},{"bike_id":"78deca94-3259-4829-bb24-b65d3a8108a4","system_id":"levelo_inurba_marseille","lat":43.29246,"lon":5.38459,"is_reserved":false,"is_disabled":false,"rental_uris":{"android":"levelo://app?vid=78deca94-3259-4829-bb24-b65d3a8108a4","ios":"levelo://app?vid=78deca94-3259-4829-bb24-b65d3a8108a4"},"vehicle_type_id":"4","last_reported":1729616863,"current_range_meters":14400,"station_id":"ce4bh692rcd13ifvqea0","pricing_plan_id":"cebpf4jnsgd1na2vs0mg"},{"bike_id":"70116684-b3ba-475b-b2c1-6b739058919a","system_id":"levelo_inurba_marseille","lat":43.29557,"lon":5.42299,"is_reserved":false,"is_disabled":false,"rental_uris":{"android":"levelo://app?vid=70116684-b3ba-475b-b2c1-6b739058919a","ios":"levelo://app?vid=70116684-b3ba-475b-b2c1-6b739058919a"},"vehicle_type_id":"4","last_reported":1729616863,"current_range_meters":4800,"station_id":"ce4bhph2rcd13ifvqhdg","pricing_plan_id":"cebpf4jnsgd1na2vs0mg"},{"bike_id":"ded2d6fb-74ee-4001-8f43-30e69413d8bc","system_id":"levelo_inurba_marseille","lat":43.32543,"lon":5.41438,"is_reserved":false,"is_disabled":false,"rental_uris":{"android":"levelo://app?vid=ded2d6fb-74ee-4001-8f43-30e69413d8bc","ios":"levelo://app?vid=ded2d6fb-74ee-4001-8f43-30e69413d8bc"},"vehicle_type_id":"4","last_reported":1729616863,"current_range_meters":16000,"station_id":"ce4bhq12rcd13ifvqhhg","pricing_plan_id":"cebpf4jnsgd1na2vs0mg"},{"bike_id":"612305b2-a6e5-4c62-9fec-e8af3bce752a","system_id":"levelo_inurba_marseille","lat":43.29529,"lon":5.38545,"is_reserved":false,"is_disabled":false,"rental_uris":{"android":"levelo://app?vid=612305b2-a6e5-4c62-9fec-e8af3bce752a","ios":"levelo://app?vid=612305b2-a6e5-4c62-9fec-e8af3bce752a"},"vehicle_type_id":"4","last_reported":1729616863,"current_range_meters":18800,"station_id":"ce4bgih2rcd13ifvqba0","pricing_plan_id":"cebpf4jnsgd1na2vs0mg"},{"bike_id":"7c7ff39d-ab5a-4ac9-a97d-84fd2fb59036","system_id":"levelo_inurba_marseille","lat":43.26509,"lon":5.39537,"is_reserved":false,"is_disabled":false,"rental_uris":{"android":"levelo://app?vid=7c7ff39d-ab5a-4ac9-a97d-84fd2fb59036","ios":"levelo://app?vid=7c7ff39d-ab5a-4ac9-a97d-84fd2fb59036"},"vehicle_type_id":"4","last_reported":1729616863,"current_range_meters":6400,"station_id":"ce4bhi12rcd13ifvqfq0","pricing_plan_id":"cebpf4jnsgd1na2vs0mg"},{"bike_id":"1c1ab3c4-ccc6-4d4e-ad7b-45c1c85fc705","system_id":"levelo_inurba_marseille","lat":43.23988,"lon":5.38191,"is_reserved":false,"is_disabled":false,"rental_uris":{"android":"levelo://app?vid=1c1ab3c4-ccc6-4d4e-ad7b-45c1c85fc705","ios":"levelo://app?vid=1c1ab3c4-ccc6-4d4e-ad7b-45c1c85fc705"},"vehicle_type_id":"4","last_reported":1729616863,"current_range_meters":22800,"station_id":"","pricing_plan_id":"cebpf4jnsgd1na2vs0mg"},{"bike_id":"8d472ae9-a0ce-47d6-b7cc-9803b425d7f0","system_id":"levelo_inurba_marseille","lat":43.31322,"lon":5.39704,"is_reserved":false,"is_disabled":false,"rental_uris":{"android":"levelo://app?vid=8d472ae9-a0ce-47d6-b7cc-9803b425d7f0","ios":"levelo://app?vid=8d472ae9-a0ce-47d6-b7cc-9803b425d7f0"},"vehicle_type_id":"4","last_reported":1729616863,"current_range_meters":6800,"station_id":"ce4bgvp2rcd13ifvqcu0","pricing_plan_id":"cebpf4jnsgd1na2vs0mg"},{"bike_id":"c0dc8b1d-fdaa-488d-ade5-49a4f15aff40","system_id":"levelo_inurba_marseille","lat":43.2953,"lon":5.38547,"is_reserved":false,"is_disabled":false,"rental_uris":{"android":"levelo://app?vid=c0dc8b1d-fdaa-488d-ade5-49a4f15aff40","ios":"levelo://app?vid=c0dc8b1d-fdaa-488d-ade5-49a4f15aff40"},"vehicle_type_id":"4","last_reported":1729616863,"current_range_meters":30400,"station_id":"ce4bgih2rcd13ifvqba0","pricing_plan_id":"cebpf4jnsgd1na2vs0mg"},{"bike_id":"02594453-fddb-4059-bfeb-d744dd63f81b","system_id":"levelo_inurba_marseille","lat":43.27996,"lon":5.41658,"is_reserved":false,"is_disabled":false,"rental_uris":{"android":"levelo://app?vid=02594453-fddb-4059-bfeb-d744dd63f81b","ios":"levelo://app?vid=02594453-fddb-4059-bfeb-d744dd63f81b"},"vehicle_type_id":"4","last_reported":1729616863,"current_range_meters":36800,"station_id":"ce4bho12rcd13ifvqh1g","pricing_plan_id":"cebpf4jnsgd1na2vs0mg"},{"bike_id":"ea469235-7403-446e-a20f-16f80f68604b","system_id":"levelo_inurba_marseille","lat":43.28849,"lon":5.35855,"is_reserved":false,"is_disabled":false,"rental_uris":{"android":"levelo://app?vid=ea469235-7403-446e-a20f-16f80f68604b","ios":"levelo://app?vid=ea469235-7403-446e-a20f-16f80f68604b"},"vehicle_type_id":"4","last_reported":1729616863,"current_range_meters":2000,"station_id":"ce4bhb12rcd13ifvqem0","pricing_plan_id":"cebpf4jnsgd1na2vs0mg"},{"bike_id":"c545356b-b3b8-4e20-8638-60e580d00711","system_id":"levelo_inurba_marseille","lat":43.25576,"lon":5.3825,"is_reserved":false,"is_disabled":false,"rental_uris":{"android":"levelo://app?vid=c545356b-b3b8-4e20-8638-60e580d00711","ios":"levelo://app?vid=c545356b-b3b8-4e20-8638-60e580d00711"},"vehicle_type_id":"4","last_reported":1729616863,"current_range_meters":11200,"station_id":"ce4bhih2rcd13ifvqfs0","pricing_plan_id":"cebpf4jnsgd1na2vs0mg"},{"bike_id":"d8bd7326-7ef0-4a5e-8d83-02034cf48a30","system_id":"levelo_inurba_marseille","lat":43.32336,"lon":5.40625,"is_reserved":false,"is_disabled":false,"rental_uris":{"android":"levelo://app?vid=d8bd7326-7ef0-4a5e-8d83-02034cf48a30","ios":"levelo://app?vid=d8bd7326-7ef0-4a5e-8d83-02034cf48a30"},"vehicle_type_id":"4","last_reported":1729616863,"current_range_meters":22000,"station_id":"ce4bhq92rcd13ifvqhjg","pricing_plan_id":"cebpf4jnsgd1na2vs0mg"},{"bike_id":"1f5e8b7f-2e1f-45ab-a64c-7fc610fd5192","system_id":"levelo_inurba_marseille","lat":43.29279,"lon":5.36847,"is_reserved":false,"is_disabled":false,"rental_uris":{"android":"levelo://app?vid=1f5e8b7f-2e1f-45ab-a64c-7fc610fd5192","ios":"levelo://app?vid=1f5e8b7f-2e1f-45ab-a64c-7fc610fd5192"},"vehicle_type_id":"4","last_reported":1729616863,"current_range_meters":5600,"station_id":"ce4bhbp2rcd13ifvqesg","pricing_plan_id":"cebpf4jnsgd1na2vs0mg"},{"bike_id":"bf9458f9-4989-4571-a0f3-9c28a6cda8b0","system_id":"levelo_inurba_marseille","lat":43.24809,"lon":5.3746,"is_reserved":false,"is_disabled":false,"rental_uris":{"android":"levelo://app?vid=bf9458f9-4989-4571-a0f3-9c28a6cda8b0","ios":"levelo://app?vid=bf9458f9-4989-4571-a0f3-9c28a6cda8b0"},"vehicle_type_id":"4","last_reported":1729616863,"current_range_meters":38400,"station_id":"ce4bhgh2rcd13ifvqfb0","pricing_plan_id":"cebpf4jnsgd1na2vs0mg"},{"bike_id":"4f3ddb70-2e3a-45fc-9f3d-12fe30cc2c89","system_id":"levelo_inurba_marseille","lat":43.24659,"lon":5.38169,"is_reserved":false,"is_disabled":false,"rental_uris":{"android":"levelo://app?vid=4f3ddb70-2e3a-45fc-9f3d-12fe30cc2c89","ios":"levelo://app?vid=4f3ddb70-2e3a-45fc-9f3d-12fe30cc2c89"},"vehicle_type_id":"4","last_reported":1729616863,"current_range_meters":22400,"station_id":"ce4bhih2rcd13ifvqfr0","pricing_plan_id":"cebpf4jnsgd1na2vs0mg"},{"bike_id":"37485de3-68b7-446a-8a58-3265325ec503","system_id":"levelo_inurba_marseille","lat":43.27556,"lon":5.38439,"is_reserved":false,"is_disabled":false,"rental_uris":{"android":"levelo://app?vid=37485de3-68b7-446a-8a58-3265325ec503","ios":"levelo://app?vid=37485de3-68b7-446a-8a58-3265325ec503"},"vehicle_type_id":"4","last_reported":1729616863,"current_range_meters":33600,"station_id":"ce4bhh92rcd13ifvqfi0","pricing_plan_id":"cebpf4jnsgd1na2vs0mg"},{"bike_id":"0814bd44-7001-4b27-bf99-095cb16f5725","system_id":"levelo_inurba_marseille","lat":43.30339,"lon":5.36916,"is_reserved":false,"is_disabled":false,"rental_uris":{"android":"levelo://app?vid=0814bd44-7001-4b27-bf99-095cb16f5725","ios":"levelo://app?vid=0814bd44-7001-4b27-bf99-095cb16f5725"},"vehicle_type_id":"4","last_reported":1729616863,"current_range_meters":38800,"station_id":"ce4bgqh2rcd13ifvqc5g","pricing_plan_id":"cebpf4jnsgd1na2vs0mg"},{"bike_id":"81db9c70-bce4-4764-86a6-8d25b1c25e6d","system_id":"levelo_inurba_marseille","lat":43.24647,"lon":5.38887,"is_reserved":false,"is_disabled":false,"rental_uris":{"android":"levelo://app?vid=81db9c70-bce4-4764-86a6-8d25b1c25e6d","ios":"levelo://app?vid=81db9c70-bce4-4764-86a6-8d25b1c25e6d"},"vehicle_type_id":"4","last_reported":1729616863,"current_range_meters":19600,"station_id":"ce4bhg12rcd13ifvqf60","pricing_plan_id":"cebpf4jnsgd1na2vs0mg"},{"bike_id":"64172c49-f948-4009-b213-7e65fc906954","system_id":"levelo_inurba_marseille","lat":43.30138,"lon":5.38789,"is_reserved":false,"is_disabled":false,"rental_uris":{"android":"levelo://app?vid=64172c49-f948-4009-b213-7e65fc906954","ios":"levelo://app?vid=64172c49-f948-4009-b213-7e65fc906954"},"vehicle_type_id":"4","last_reported":1729616863,"current_range_meters":28400,"station_id":"ce4bghh2rcd13ifvqb60","pricing_plan_id":"cebpf4jnsgd1na2vs0mg"},{"bike_id":"3d06153b-b2a6-4673-b226-8ef80de78690","system_id":"levelo_inurba_marseille","lat":43.24805,"lon":5.37461,"is_reserved":false,"is_disabled":false,"rental_uris":{"android":"levelo://app?vid=3d06153b-b2a6-4673-b226-8ef80de78690","ios":"levelo://app?vid=3d06153b-b2a6-4673-b226-8ef80de78690"},"vehicle_type_id":"4","last_reported":1729616863,"current_range_meters":11200,"station_id":"ce4bhgh2rcd13ifvqfb0","pricing_plan_id":"cebpf4jnsgd1na2vs0mg"},{"bike_id":"88bac633-d670-4800-8844-e66d933d8d50","system_id":"levelo_inurba_marseille","lat":43.27497,"lon":5.42449,"is_reserved":false,"is_disabled":false,"rental_uris":{"android":"levelo://app?vid=88bac633-d670-4800-8844-e66d933d8d50","ios":"levelo://app?vid=88bac633-d670-4800-8844-e66d933d8d50"},"vehicle_type_id":"4","last_reported":1729616863,"current_range_meters":28400,"station_id":"ce4bhn92rcd13ifvqgrg","pricing_plan_id":"cebpf4jnsgd1na2vs0mg"},{"bike_id":"11256fd2-b537-43fb-8f2f-2312433c9979","system_id":"levelo_inurba_marseille","lat":43.28104,"lon":5.37839,"is_reserved":false,"is_disabled":false,"rental_uris":{"android":"levelo://app?vid=11256fd2-b537-43fb-8f2f-2312433c9979","ios":"levelo://app?vid=11256fd2-b537-43fb-8f2f-2312433c9979"},"vehicle_type_id":"4","last_reported":1729616863,"current_range_meters":8800,"station_id":"ce4bha12rcd13ifvqee0","pricing_plan_id":"cebpf4jnsgd1na2vs0mg"},{"bike_id":"f96127c9-a36c-4aaf-99c5-c5ceb039f819","system_id":"levelo_inurba_marseille","lat":43.24071,"lon":5.37772,"is_reserved":false,"is_disabled":false,"rental_uris":{"android":"levelo://app?vid=f96127c9-a36c-4aaf-99c5-c5ceb039f819","ios":"levelo://app?vid=f96127c9-a36c-4aaf-99c5-c5ceb039f819"},"vehicle_type_id":"4","last_reported":1729616863,"current_range_meters":10000,"station_id":"ce4bhnp2rcd13ifvqgvg","pricing_plan_id":"cebpf4jnsgd1na2vs0mg"},{"bike_id":"933b19f8-3345-4bf6-818e-48729f160484","system_id":"levelo_inurba_marseille","lat":43.29582,"lon":5.36741,"is_reserved":false,"is_disabled":false,"rental_uris":{"android":"levelo://app?vid=933b19f8-3345-4bf6-818e-48729f160484","ios":"levelo://app?vid=933b19f8-3345-4bf6-818e-48729f160484"},"vehicle_type_id":"4","last_reported":1729616863,"current_range_meters":38800,"station_id":"ce4bgph2rcd13ifvqc2g","pricing_plan_id":"cebpf4jnsgd1na2vs0mg"},{"bike_id":"7c7e03a1-4b22-4cf1-a7d3-79196cfa0acf","system_id":"levelo_inurba_marseille","lat":43.26675,"lon":5.3827,"is_reserved":false,"is_disabled":false,"rental_uris":{"android":"levelo://app?vid=7c7e03a1-4b22-4cf1-a7d3-79196cfa0acf","ios":"levelo://app?vid=7c7e03a1-4b22-4cf1-a7d3-79196cfa0acf"},"vehicle_type_id":"4","last_reported":1729616863,"current_range_meters":12800,"station_id":"ce4bhg92rcd13ifvqf90","pricing_plan_id":"cebpf4jnsgd1na2vs0mg"},{"bike_id":"d77f9174-68ef-4d49-a2eb-1c326b4ff12e","system_id":"levelo_inurba_marseille","lat":43.30607,"lon":5.37228,"is_reserved":false,"is_disabled":false,"rental_uris":{"android":"levelo://app?vid=d77f9174-68ef-4d49-a2eb-1c326b4ff12e","ios":"levelo://app?vid=d77f9174-68ef-4d49-a2eb-1c326b4ff12e"},"vehicle_type_id":"4","last_reported":1729616863,"current_range_meters":27200,"station_id":"ce4bgqh2rcd13ifvqc4g","pricing_plan_id":"cebpf4jnsgd1na2vs0mg"},{"bike_id":"864575c1-85b8-4008-92ba-391073d4ed51","system_id":"levelo_inurba_marseille","lat":43.23195,"lon":5.35549,"is_reserved":false,"is_disabled":false,"rental_uris":{"android":"levelo://app?vid=864575c1-85b8-4008-92ba-391073d4ed51","ios":"levelo://app?vid=864575c1-85b8-4008-92ba-391073d4ed51"},"vehicle_type_id":"4","last_reported":1729616863,"current_range_meters":24000,"station_id":"ce4bhu92rcd13ifvqi70","pricing_plan_id":"cebpf4jnsgd1na2vs0mg"},{"bike_id":"b3928e79-9fcd-4446-a813-6fab6c476a08","system_id":"levelo_inurba_marseille","lat":43.29194,"lon":5.35819,"is_reserved":false,"is_disabled":false,"rental_uris":{"android":"levelo://app?vid=b3928e79-9fcd-4446-a813-6fab6c476a08","ios":"levelo://app?vid=b3928e79-9fcd-4446-a813-6fab6c476a08"},"vehicle_type_id":"4","last_reported":1729616863,"current_range_meters":14800,"station_id":"ce4bhb12rcd13ifvqel0","pricing_plan_id":"cebpf4jnsgd1na2vs0mg"},{"bike_id":"64e31d75-d2ea-4a85-b575-47f5387bee0b","system_id":"levelo_inurba_marseille","lat":43.30803,"lon":5.4353,"is_reserved":false,"is_disabled":false,"rental_uris":{"android":"levelo://app?vid=64e31d75-d2ea-4a85-b575-47f5387bee0b","ios":"levelo://app?vid=64e31d75-d2ea-4a85-b575-47f5387bee0b"},"vehicle_type_id":"4","last_reported":1729616863,"current_range_meters":20800,"station_id":"ce4bhph2rcd13ifvqheg","pricing_plan_id":"cebpf4jnsgd1na2vs0mg"},{"bike_id":"0728974d-1ad5-4181-91f2-6035aab7157d","system_id":"levelo_inurba_marseille","lat":43.23191,"lon":5.35557,"is_reserved":false,"is_disabled":false,"rental_uris":{"android":"levelo://app?vid=0728974d-1ad5-4181-91f2-6035aab7157d","ios":"levelo://app?vid=0728974d-1ad5-4181-91f2-6035aab7157d"},"vehicle_type_id":"4","last_reported":1729616863,"current_range_meters":38800,"station_id":"ce4bhu92rcd13ifvqi70","pricing_plan_id":"cebpf4jnsgd1na2vs0mg"},{"bike_id":"8c81a5c1-7a75-4a52-98d0-d3f21453e947","system_id":"levelo_inurba_marseille","lat":43.30145,"lon":5.39884,"is_reserved":false,"is_disabled":false,"rental_uris":{"android":"levelo://app?vid=8c81a5c1-7a75-4a52-98d0-d3f21453e947","ios":"levelo://app?vid=8c81a5c1-7a75-4a52-98d0-d3f21453e947"},"vehicle_type_id":"4","last_reported":1729616863,"current_range_meters":38800,"station_id":"ce4bh0h2rcd13ifvqd40","pricing_plan_id":"cebpf4jnsgd1na2vs0mg"},{"bike_id":"747d76d1-2ad6-4664-830e-1bdfd82de986","system_id":"levelo_inurba_marseille","lat":43.29263,"lon":5.38448,"is_reserved":false,"is_disabled":false,"rental_uris":{"android":"levelo://app?vid=747d76d1-2ad6-4664-830e-1bdfd82de986","ios":"levelo://app?vid=747d76d1-2ad6-4664-830e-1bdfd82de986"},"vehicle_type_id":"4","last_reported":1729616863,"current_range_meters":14400,"station_id":"ce4bh692rcd13ifvqea0","pricing_plan_id":"cebpf4jnsgd1na2vs0mg"},{"bike_id":"80f3e9f4-89fe-444c-b731-b912fcc9aaf3","system_id":"levelo_inurba_marseille","lat":43.28155,"lon":5.42651,"is_reserved":false,"is_disabled":false,"rental_uris":{"android":"levelo://app?vid=80f3e9f4-89fe-444c-b731-b912fcc9aaf3","ios":"levelo://app?vid=80f3e9f4-89fe-444c-b731-b912fcc9aaf3"},"vehicle_type_id":"4","last_reported":1729616863,"current_range_meters":18000,"station_id":"ce4bhnh2rcd13ifvqgug","pricing_plan_id":"cebpf4jnsgd1na2vs0mg"},{"bike_id":"79a1e020-318b-42a1-a8c0-a424b1daf69e","system_id":"levelo_inurba_marseille","lat":43.296,"lon":5.36142,"is_reserved":false,"is_disabled":false,"rental_uris":{"android":"levelo://app?vid=79a1e020-318b-42a1-a8c0-a424b1daf69e","ios":"levelo://app?vid=79a1e020-318b-42a1-a8c0-a424b1daf69e"},"vehicle_type_id":"4","last_reported":1729616863,"current_range_meters":4800,"station_id":"","pricing_plan_id":"cebpf4jnsgd1na2vs0mg"},{"bike_id":"7adf842b-4b8c-4356-a23f-1be0cbaf4d21","system_id":"levelo_inurba_marseille","lat":43.23191,"lon":5.35556,"is_reserved":false,"is_disabled":false,"rental_uris":{"android":"levelo://app?vid=7adf842b-4b8c-4356-a23f-1be0cbaf4d21","ios":"levelo://app?vid=7adf842b-4b8c-4356-a23f-1be0cbaf4d21"},"vehicle_type_id":"4","last_reported":1729616863,"current_range_meters":8400,"station_id":"ce4bhu92rcd13ifvqi70","pricing_plan_id":"cebpf4jnsgd1na2vs0mg"},{"bike_id":"87e86d8d-27b9-40d6-a261-f4a599fbfb21","system_id":"levelo_inurba_marseille","lat":43.30928,"lon":5.40151,"is_reserved":false,"is_disabled":false,"rental_uris":{"android":"levelo://app?vid=87e86d8d-27b9-40d6-a261-f4a599fbfb21","ios":"levelo://app?vid=87e86d8d-27b9-40d6-a261-f4a599fbfb21"},"vehicle_type_id":"4","last_reported":1729616863,"current_range_meters":25200,"station_id":"ce4bgvp2rcd13ifvqct0","pricing_plan_id":"cebpf4jnsgd1na2vs0mg"},{"bike_id":"8d66234d-ed10-4a56-b9bf-7024ed1a6c9c","system_id":"levelo_inurba_marseille","lat":43.32598,"lon":5.37884,"is_reserved":false,"is_disabled":false,"rental_uris":{"android":"levelo://app?vid=8d66234d-ed10-4a56-b9bf-7024ed1a6c9c","ios":"levelo://app?vid=8d66234d-ed10-4a56-b9bf-7024ed1a6c9c"},"vehicle_type_id":"4","last_reported":1729616863,"current_range_meters":6000,"station_id":"","pricing_plan_id":"cebpf4jnsgd1na2vs0mg"},{"bike_id":"e5fe31da-482b-42d5-af67-89b997b30df6","system_id":"levelo_inurba_marseille","lat":43.28445,"lon":5.39208,"is_reserved":false,"is_disabled":false,"rental_uris":{"android":"levelo://app?vid=e5fe31da-482b-42d5-af67-89b997b30df6","ios":"levelo://app?vid=e5fe31da-482b-42d5-af67-89b997b30df6"},"vehicle_type_id":"4","last_reported":1729616863,"current_range_meters":4000,"station_id":"ce4bhoh2rcd13ifvqh5g","pricing_plan_id":"cebpf4jnsgd1na2vs0mg"},{"bike_id":"3b35b7ca-6360-44d5-a82f-ea962a993b6d","system_id":"levelo_inurba_marseille","lat":43.28157,"lon":5.42638,"is_reserved":false,"is_disabled":false,"rental_uris":{"android":"levelo://app?vid=3b35b7ca-6360-44d5-a82f-ea962a993b6d","ios":"levelo://app?vid=3b35b7ca-6360-44d5-a82f-ea962a993b6d"},"vehicle_type_id":"4","last_reported":1729616863,"current_range_meters":33600,"station_id":"ce4bhnh2rcd13ifvqgug","pricing_plan_id":"cebpf4jnsgd1na2vs0mg"},{"bike_id":"9c710226-1732-4e17-a238-a62f90efa98f","system_id":"levelo_inurba_marseille","lat":43.28464,"lon":5.39224,"is_reserved":false,"is_disabled":false,"rental_uris":{"android":"levelo://app?vid=9c710226-1732-4e17-a238-a62f90efa98f","ios":"levelo://app?vid=9c710226-1732-4e17-a238-a62f90efa98f"},"vehicle_type_id":"4","last_reported":1729616863,"current_range_meters":14400,"station_id":"ce4bhoh2rcd13ifvqh5g","pricing_plan_id":"cebpf4jnsgd1na2vs0mg"},{"bike_id":"a174f9e4-743e-4436-a856-9940f2d79c9a","system_id":"levelo_inurba_marseille","lat":43.311163,"lon":5.377665,"is_reserved":false,"is_disabled":false,"rental_uris":{"android":"levelo://app?vid=a174f9e4-743e-4436-a856-9940f2d79c9a","ios":"levelo://app?vid=a174f9e4-743e-4436-a856-9940f2d79c9a"},"vehicle_type_id":"4","last_reported":1729616863,"current_range_meters":4400,"station_id":"ce4bgt92rcd13ifvqcg0","pricing_plan_id":"cebpf4jnsgd1na2vs0mg"},{"bike_id":"0b625751-4a95-4102-ab71-368ce896ebd9","system_id":"levelo_inurba_marseille","lat":43.31999,"lon":5.38166,"is_reserved":false,"is_disabled":false,"rental_uris":{"android":"levelo://app?vid=0b625751-4a95-4102-ab71-368ce896ebd9","ios":"levelo://app?vid=0b625751-4a95-4102-ab71-368ce896ebd9"},"vehicle_type_id":"4","last_reported":1729616863,"current_range_meters":36800,"station_id":"ce4bhr12rcd13ifvqhpg","pricing_plan_id":"cebpf4jnsgd1na2vs0mg"},{"bike_id":"a8fd90e1-0f06-42a3-906b-c91cb727d214","system_id":"levelo_inurba_marseille","lat":43.26838,"lon":5.41117,"is_reserved":false,"is_disabled":false,"rental_uris":{"android":"levelo://app?vid=a8fd90e1-0f06-42a3-906b-c91cb727d214","ios":"levelo://app?vid=a8fd90e1-0f06-42a3-906b-c91cb727d214"},"vehicle_type_id":"4","last_reported":1729616863,"current_range_meters":12800,"station_id":"","pricing_plan_id":"cebpf4jnsgd1na2vs0mg"},{"bike_id":"8c6da327-7c14-4e9a-bf03-bafd912fd264","system_id":"levelo_inurba_marseille","lat":43.30427,"lon":5.39754,"is_reserved":false,"is_disabled":false,"rental_uris":{"android":"levelo://app?vid=8c6da327-7c14-4e9a-bf03-bafd912fd264","ios":"levelo://app?vid=8c6da327-7c14-4e9a-bf03-bafd912fd264"},"vehicle_type_id":"4","last_reported":1729616863,"current_range_meters":24000,"station_id":"ce4bh092rcd13ifvqd20","pricing_plan_id":"cebpf4jnsgd1na2vs0mg"},{"bike_id":"1e4f408a-7823-4f21-aceb-d6709974f1c5","system_id":"levelo_inurba_marseille","lat":43.23194,"lon":5.35563,"is_reserved":false,"is_disabled":false,"rental_uris":{"android":"levelo://app?vid=1e4f408a-7823-4f21-aceb-d6709974f1c5","ios":"levelo://app?vid=1e4f408a-7823-4f21-aceb-d6709974f1c5"},"vehicle_type_id":"4","last_reported":1729616863,"current_range_meters":24800,"station_id":"ce4bhu92rcd13ifvqi70","pricing_plan_id":"cebpf4jnsgd1na2vs0mg"},{"bike_id":"8b061439-56e5-4c70-b6af-9ad15387378f","system_id":"levelo_inurba_marseille","lat":43.24809,"lon":5.37461,"is_reserved":false,"is_disabled":false,"rental_uris":{"android":"levelo://app?vid=8b061439-56e5-4c70-b6af-9ad15387378f","ios":"levelo://app?vid=8b061439-56e5-4c70-b6af-9ad15387378f"},"vehicle_type_id":"4","last_reported":1729616863,"current_range_meters":12000,"station_id":"ce4bhgh2rcd13ifvqfb0","pricing_plan_id":"cebpf4jnsgd1na2vs0mg"},{"bike_id":"056754ac-f0b8-431b-8b5f-fbd16bad3a09","system_id":"levelo_inurba_marseille","lat":43.30189,"lon":5.36637,"is_reserved":false,"is_disabled":false,"rental_uris":{"android":"levelo://app?vid=056754ac-f0b8-431b-8b5f-fbd16bad3a09","ios":"levelo://app?vid=056754ac-f0b8-431b-8b5f-fbd16bad3a09"},"vehicle_type_id":"4","last_reported":1729616863,"current_range_meters":25200,"station_id":"ce4bgrh2rcd13ifvqc8g","pricing_plan_id":"cebpf4jnsgd1na2vs0mg"},{"bike_id":"ede43748-f3f5-461d-a636-fc8a065f8860","system_id":"levelo_inurba_marseille","lat":43.26209,"lon":5.37449,"is_reserved":false,"is_disabled":false,"rental_uris":{"android":"levelo://app?vid=ede43748-f3f5-461d-a636-fc8a065f8860","ios":"levelo://app?vid=ede43748-f3f5-461d-a636-fc8a065f8860"},"vehicle_type_id":"4","last_reported":1729616863,"current_range_meters":17600,"station_id":"ce4bhgp2rcd13ifvqfc0","pricing_plan_id":"cebpf4jnsgd1na2vs0mg"},{"bike_id":"c3945b60-e38d-4106-8f18-92c7f436cc4f","system_id":"levelo_inurba_marseille","lat":43.33757,"lon":5.37448,"is_reserved":false,"is_disabled":false,"rental_uris":{"android":"levelo://app?vid=c3945b60-e38d-4106-8f18-92c7f436cc4f","ios":"levelo://app?vid=c3945b60-e38d-4106-8f18-92c7f436cc4f"},"vehicle_type_id":"4","last_reported":1729616863,"current_range_meters":30800,"station_id":"","pricing_plan_id":"cebpf4jnsgd1na2vs0mg"},{"bike_id":"4598f267-108d-4a02-809d-d7ea55ba4bcb","system_id":"levelo_inurba_marseille","lat":43.29031,"lon":5.38116,"is_reserved":false,"is_disabled":false,"rental_uris":{"android":"levelo://app?vid=4598f267-108d-4a02-809d-d7ea55ba4bcb","ios":"levelo://app?vid=4598f267-108d-4a02-809d-d7ea55ba4bcb"},"vehicle_type_id":"4","last_reported":1729616863,"current_range_meters":28400,"station_id":"ce4bh4p2rcd13ifvqe1g","pricing_plan_id":"cebpf4jnsgd1na2vs0mg"},{"bike_id":"0eb29e7e-9ffd-48fc-b878-b6ad206a90e9","system_id":"levelo_inurba_marseille","lat":43.28697,"lon":5.37388,"is_reserved":false,"is_disabled":false,"rental_uris":{"android":"levelo://app?vid=0eb29e7e-9ffd-48fc-b878-b6ad206a90e9","ios":"levelo://app?vid=0eb29e7e-9ffd-48fc-b878-b6ad206a90e9"},"vehicle_type_id":"4","last_reported":1729616863,"current_range_meters":19600,"station_id":"ce4bh3p2rcd13ifvqdq0","pricing_plan_id":"cebpf4jnsgd1na2vs0mg"},{"bike_id":"851469e6-3175-46d6-a6e2-13dd7249f1b5","system_id":"levelo_inurba_marseille","lat":43.30598,"lon":5.3723,"is_reserved":false,"is_disabled":false,"rental_uris":{"android":"levelo://app?vid=851469e6-3175-46d6-a6e2-13dd7249f1b5","ios":"levelo://app?vid=851469e6-3175-46d6-a6e2-13dd7249f1b5"},"vehicle_type_id":"4","last_reported":1729616863,"current_range_meters":12400,"station_id":"ce4bgqh2rcd13ifvqc4g","pricing_plan_id":"cebpf4jnsgd1na2vs0mg"},{"bike_id":"af50320d-ec9c-4ba2-a415-6e61719bd25c","system_id":"levelo_inurba_marseille","lat":43.28402,"lon":5.37527,"is_reserved":false,"is_disabled":false,"rental_uris":{"android":"levelo://app?vid=af50320d-ec9c-4ba2-a415-6e61719bd25c","ios":"levelo://app?vid=af50320d-ec9c-4ba2-a415-6e61719bd25c"},"vehicle_type_id":"4","last_reported":1729616863,"current_range_meters":4400,"station_id":"ce4bh412rcd13ifvqds0","pricing_plan_id":"cebpf4jnsgd1na2vs0mg"},{"bike_id":"72c50839-00c5-491b-b2fa-f0e94cd720a4","system_id":"levelo_inurba_marseille","lat":43.29259,"lon":5.38425,"is_reserved":false,"is_disabled":false,"rental_uris":{"android":"levelo://app?vid=72c50839-00c5-491b-b2fa-f0e94cd720a4","ios":"levelo://app?vid=72c50839-00c5-491b-b2fa-f0e94cd720a4"},"vehicle_type_id":"4","last_reported":1729616863,"current_range_meters":38800,"station_id":"ce4bh692rcd13ifvqea0","pricing_plan_id":"cebpf4jnsgd1na2vs0mg"},{"bike_id":"925ca311-ea73-44f3-ae5e-35ca777de1cd","system_id":"levelo_inurba_marseille","lat":43.25579,"lon":5.38237,"is_reserved":false,"is_disabled":false,"rental_uris":{"android":"levelo://app?vid=925ca311-ea73-44f3-ae5e-35ca777de1cd","ios":"levelo://app?vid=925ca311-ea73-44f3-ae5e-35ca777de1cd"},"vehicle_type_id":"4","last_reported":1729616863,"current_range_meters":22800,"station_id":"ce4bhih2rcd13ifvqfs0","pricing_plan_id":"cebpf4jnsgd1na2vs0mg"},{"bike_id":"cc94d69b-3f1f-4ee6-a55b-b68a9e1db249","system_id":"levelo_inurba_marseille","lat":43.27936,"lon":5.41039,"is_reserved":false,"is_disabled":false,"rental_uris":{"android":"levelo://app?vid=cc94d69b-3f1f-4ee6-a55b-b68a9e1db249","ios":"levelo://app?vid=cc94d69b-3f1f-4ee6-a55b-b68a9e1db249"},"vehicle_type_id":"4","last_reported":1729616863,"current_range_meters":8800,"station_id":"ce4bhnp2rcd13ifvqh0g","pricing_plan_id":"cebpf4jnsgd1na2vs0mg"},{"bike_id":"d8d30b00-c51f-42c1-a4bc-5be916aaba37","system_id":"levelo_inurba_marseille","lat":43.2959,"lon":5.37369,"is_reserved":false,"is_disabled":false,"rental_uris":{"android":"levelo://app?vid=d8d30b00-c51f-42c1-a4bc-5be916aaba37","ios":"levelo://app?vid=d8d30b00-c51f-42c1-a4bc-5be916aaba37"},"vehicle_type_id":"4","last_reported":1729616863,"current_range_meters":28400,"station_id":"","pricing_plan_id":"cebpf4jnsgd1na2vs0mg"},{"bike_id":"82ee010f-458c-43ba-ba00-6acdecfdf16a","system_id":"levelo_inurba_marseille","lat":43.27371,"lon":5.36259,"is_reserved":false,"is_disabled":false,"rental_uris":{"android":"levelo://app?vid=82ee010f-458c-43ba-ba00-6acdecfdf16a","ios":"levelo://app?vid=82ee010f-458c-43ba-ba00-6acdecfdf16a"},"vehicle_type_id":"4","last_reported":1729616863,"current_range_meters":30800,"station_id":"ce4bhbh2rcd13ifvqeo0","pricing_plan_id":"cebpf4jnsgd1na2vs0mg"},{"bike_id":"b515e5b6-1f91-4dc8-bab5-092eba8195e6","system_id":"levelo_inurba_marseille","lat":43.26213,"lon":5.37451,"is_reserved":false,"is_disabled":false,"rental_uris":{"android":"levelo://app?vid=b515e5b6-1f91-4dc8-bab5-092eba8195e6","ios":"levelo://app?vid=b515e5b6-1f91-4dc8-bab5-092eba8195e6"},"vehicle_type_id":"4","last_reported":1729616863,"current_range_meters":32000,"station_id":"ce4bhgp2rcd13ifvqfc0","pricing_plan_id":"cebpf4jnsgd1na2vs0mg"},{"bike_id":"eecaa874-8534-437e-8009-9d3c8b6c67f6","system_id":"levelo_inurba_marseille","lat":43.311144,"lon":5.377582,"is_reserved":false,"is_disabled":false,"rental_uris":{"android":"levelo://app?vid=eecaa874-8534-437e-8009-9d3c8b6c67f6","ios":"levelo://app?vid=eecaa874-8534-437e-8009-9d3c8b6c67f6"},"vehicle_type_id":"4","last_reported":1729616863,"current_range_meters":6000,"station_id":"ce4bgt92rcd13ifvqcg0","pricing_plan_id":"cebpf4jnsgd1na2vs0mg"},{"bike_id":"c97aeca8-9498-419a-8a59-68c6ec24745f","system_id":"levelo_inurba_marseille","lat":43.30328,"lon":5.40443,"is_reserved":false,"is_disabled":false,"rental_uris":{"android":"levelo://app?vid=c97aeca8-9498-419a-8a59-68c6ec24745f","ios":"levelo://app?vid=c97aeca8-9498-419a-8a59-68c6ec24745f"},"vehicle_type_id":"4","last_reported":1729616863,"current_range_meters":7200,"station_id":"ce4bh012rcd13ifvqd10","pricing_plan_id":"cebpf4jnsgd1na2vs0mg"},{"bike_id":"7a2f17cc-87ff-4864-b9d1-6c3bc5ed8ac0","system_id":"levelo_inurba_marseille","lat":43.28154,"lon":5.4265,"is_reserved":false,"is_disabled":false,"rental_uris":{"android":"levelo://app?vid=7a2f17cc-87ff-4864-b9d1-6c3bc5ed8ac0","ios":"levelo://app?vid=7a2f17cc-87ff-4864-b9d1-6c3bc5ed8ac0"},"vehicle_type_id":"4","last_reported":1729616863,"current_range_meters":6000,"station_id":"ce4bhnh2rcd13ifvqgug","pricing_plan_id":"cebpf4jnsgd1na2vs0mg"},{"bike_id":"3dee495a-7a37-40c3-9d5a-0edc49499f73","system_id":"levelo_inurba_marseille","lat":43.27896,"lon":5.38012,"is_reserved":false,"is_disabled":false,"rental_uris":{"android":"levelo://app?vid=3dee495a-7a37-40c3-9d5a-0edc49499f73","ios":"levelo://app?vid=3dee495a-7a37-40c3-9d5a-0edc49499f73"},"vehicle_type_id":"4","last_reported":1729616863,"current_range_meters":30800,"station_id":"ce4bhf92rcd13ifvqf50","pricing_plan_id":"cebpf4jnsgd1na2vs0mg"},{"bike_id":"0a234139-2166-4ee5-afa4-45f596588691","system_id":"levelo_inurba_marseille","lat":43.28607,"lon":5.37074,"is_reserved":false,"is_disabled":false,"rental_uris":{"android":"levelo://app?vid=0a234139-2166-4ee5-afa4-45f596588691","ios":"levelo://app?vid=0a234139-2166-4ee5-afa4-45f596588691"},"vehicle_type_id":"4","last_reported":1729616863,"current_range_meters":9600,"station_id":"ce4bht12rcd13ifvqi60","pricing_plan_id":"cebpf4jnsgd1na2vs0mg"},{"bike_id":"e68074ff-f5e2-424b-ac9b-aa2b95174368","system_id":"levelo_inurba_marseille","lat":43.28154,"lon":5.42652,"is_reserved":false,"is_disabled":false,"rental_uris":{"android":"levelo://app?vid=e68074ff-f5e2-424b-ac9b-aa2b95174368","ios":"levelo://app?vid=e68074ff-f5e2-424b-ac9b-aa2b95174368"},"vehicle_type_id":"4","last_reported":1729616863,"current_range_meters":29600,"station_id":"ce4bhnh2rcd13ifvqgug","pricing_plan_id":"cebpf4jnsgd1na2vs0mg"},{"bike_id":"815dd284-1bd2-4bb9-992a-b2116e2485bc","system_id":"levelo_inurba_marseille","lat":43.32962,"lon":5.36552,"is_reserved":false,"is_disabled":false,"rental_uris":{"android":"levelo://app?vid=815dd284-1bd2-4bb9-992a-b2116e2485bc","ios":"levelo://app?vid=815dd284-1bd2-4bb9-992a-b2116e2485bc"},"vehicle_type_id":"4","last_reported":1729616863,"current_range_meters":32800,"station_id":"","pricing_plan_id":"cebpf4jnsgd1na2vs0mg"},{"bike_id":"a6becff1-00d3-47fa-8898-3ba6d7221fbe","system_id":"levelo_inurba_marseille","lat":43.2319,"lon":5.35554,"is_reserved":false,"is_disabled":false,"rental_uris":{"android":"levelo://app?vid=a6becff1-00d3-47fa-8898-3ba6d7221fbe","ios":"levelo://app?vid=a6becff1-00d3-47fa-8898-3ba6d7221fbe"},"vehicle_type_id":"4","last_reported":1729616863,"current_range_meters":36000,"station_id":"ce4bhu92rcd13ifvqi70","pricing_plan_id":"cebpf4jnsgd1na2vs0mg"},{"bike_id":"4861cf1c-f687-48f5-b9a8-d24434767d2d","system_id":"levelo_inurba_marseille","lat":43.29793,"lon":5.39345,"is_reserved":false,"is_disabled":false,"rental_uris":{"android":"levelo://app?vid=4861cf1c-f687-48f5-b9a8-d24434767d2d","ios":"levelo://app?vid=4861cf1c-f687-48f5-b9a8-d24434767d2d"},"vehicle_type_id":"4","last_reported":1729616863,"current_range_meters":27600,"station_id":"chh1huq6cuj3fo74tm60","pricing_plan_id":"cebpf4jnsgd1na2vs0mg"},{"bike_id":"38384d87-16ca-4b46-b6ac-8f5ede3c618a","system_id":"levelo_inurba_marseille","lat":43.289345,"lon":5.36402,"is_reserved":false,"is_disabled":false,"rental_uris":{"android":"levelo://app?vid=38384d87-16ca-4b46-b6ac-8f5ede3c618a","ios":"levelo://app?vid=38384d87-16ca-4b46-b6ac-8f5ede3c618a"},"vehicle_type_id":"4","last_reported":1729616863,"current_range_meters":14800,"station_id":"ce4bhc92rcd13ifvqetg","pricing_plan_id":"cebpf4jnsgd1na2vs0mg"},{"bike_id":"eff0d8a3-53e6-4aa1-ac1b-092cc0573fb9","system_id":"levelo_inurba_marseille","lat":43.27909,"lon":5.38017,"is_reserved":false,"is_disabled":false,"rental_uris":{"android":"levelo://app?vid=eff0d8a3-53e6-4aa1-ac1b-092cc0573fb9","ios":"levelo://app?vid=eff0d8a3-53e6-4aa1-ac1b-092cc0573fb9"},"vehicle_type_id":"4","last_reported":1729616863,"current_range_meters":10000,"station_id":"ce4bhf92rcd13ifvqf50","pricing_plan_id":"cebpf4jnsgd1na2vs0mg"},{"bike_id":"be215221-395a-4d0c-b3e2-8369c51a5b57","system_id":"levelo_inurba_marseille","lat":43.27373,"lon":5.36258,"is_reserved":false,"is_disabled":false,"rental_uris":{"android":"levelo://app?vid=be215221-395a-4d0c-b3e2-8369c51a5b57","ios":"levelo://app?vid=be215221-395a-4d0c-b3e2-8369c51a5b57"},"vehicle_type_id":"4","last_reported":1729616863,"current_range_meters":9600,"station_id":"ce4bhbh2rcd13ifvqeo0","pricing_plan_id":"cebpf4jnsgd1na2vs0mg"},{"bike_id":"2697f99b-49d7-4c18-b115-c88bbc16801b","system_id":"levelo_inurba_marseille","lat":43.29039,"lon":5.37572,"is_reserved":false,"is_disabled":false,"rental_uris":{"android":"levelo://app?vid=2697f99b-49d7-4c18-b115-c88bbc16801b","ios":"levelo://app?vid=2697f99b-49d7-4c18-b115-c88bbc16801b"},"vehicle_type_id":"4","last_reported":1729616863,"current_range_meters":26800,"station_id":"ce4bh692rcd13ifvqe90","pricing_plan_id":"cebpf4jnsgd1na2vs0mg"},{"bike_id":"70f5c988-d736-45a0-9b49-4ca642435bb6","system_id":"levelo_inurba_marseille","lat":43.24165,"lon":5.36397,"is_reserved":false,"is_disabled":false,"rental_uris":{"android":"levelo://app?vid=70f5c988-d736-45a0-9b49-4ca642435bb6","ios":"levelo://app?vid=70f5c988-d736-45a0-9b49-4ca642435bb6"},"vehicle_type_id":"4","last_reported":1729616863,"current_range_meters":17600,"station_id":"cpo36qri1sfpv3e86is0","pricing_plan_id":"cebpf4jnsgd1na2vs0mg"},{"bike_id":"a96ff7cd-ac97-4727-ac25-3bbd94944ae5","system_id":"levelo_inurba_marseille","lat":43.2942,"lon":5.38617,"is_reserved":false,"is_disabled":false,"rental_uris":{"android":"levelo://app?vid=a96ff7cd-ac97-4727-ac25-3bbd94944ae5","ios":"levelo://app?vid=a96ff7cd-ac97-4727-ac25-3bbd94944ae5"},"vehicle_type_id":"4","last_reported":1729616863,"current_range_meters":11600,"station_id":"ce4bh2h2rcd13ifvqdh0","pricing_plan_id":"cebpf4jnsgd1na2vs0mg"},{"bike_id":"c4baf1fe-6680-4f23-9b6d-d8643f9ca377","system_id":"levelo_inurba_marseille","lat":43.29786,"lon":5.39358,"is_reserved":false,"is_disabled":false,"rental_uris":{"android":"levelo://app?vid=c4baf1fe-6680-4f23-9b6d-d8643f9ca377","ios":"levelo://app?vid=c4baf1fe-6680-4f23-9b6d-d8643f9ca377"},"vehicle_type_id":"4","last_reported":1729616863,"current_range_meters":6000,"station_id":"chh1huq6cuj3fo74tm60","pricing_plan_id":"cebpf4jnsgd1na2vs0mg"},{"bike_id":"ae26383e-7577-4715-99e1-8402d6522353","system_id":"levelo_inurba_marseille","lat":43.30403,"lon":5.37775,"is_reserved":false,"is_disabled":false,"rental_uris":{"android":"levelo://app?vid=ae26383e-7577-4715-99e1-8402d6522353","ios":"levelo://app?vid=ae26383e-7577-4715-99e1-8402d6522353"},"vehicle_type_id":"4","last_reported":1729616863,"current_range_meters":23200,"station_id":"ce4bh0h2rcd13ifvqd50","pricing_plan_id":"cebpf4jnsgd1na2vs0mg"},{"bike_id":"cb4bec8b-fb72-42dd-8fc2-805b56b81d01","system_id":"levelo_inurba_marseille","lat":43.29254,"lon":5.38441,"is_reserved":false,"is_disabled":false,"rental_uris":{"android":"levelo://app?vid=cb4bec8b-fb72-42dd-8fc2-805b56b81d01","ios":"levelo://app?vid=cb4bec8b-fb72-42dd-8fc2-805b56b81d01"},"vehicle_type_id":"4","last_reported":1729616863,"current_range_meters":36800,"station_id":"ce4bh692rcd13ifvqea0","pricing_plan_id":"cebpf4jnsgd1na2vs0mg"},{"bike_id":"1e0f0495-5a59-4c28-9538-0600e4c2cb02","system_id":"levelo_inurba_marseille","lat":43.28689,"lon":5.399847,"is_reserved":false,"is_disabled":false,"rental_uris":{"android":"levelo://app?vid=1e0f0495-5a59-4c28-9538-0600e4c2cb02","ios":"levelo://app?vid=1e0f0495-5a59-4c28-9538-0600e4c2cb02"},"vehicle_type_id":"4","last_reported":1729616863,"current_range_meters":6000,"station_id":"ce4bho92rcd13ifvqh3g","pricing_plan_id":"cebpf4jnsgd1na2vs0mg"},{"bike_id":"b194a025-c111-4cbd-8919-60473f0f4eba","system_id":"levelo_inurba_marseille","lat":43.27986,"lon":5.41655,"is_reserved":false,"is_disabled":false,"rental_uris":{"android":"levelo://app?vid=b194a025-c111-4cbd-8919-60473f0f4eba","ios":"levelo://app?vid=b194a025-c111-4cbd-8919-60473f0f4eba"},"vehicle_type_id":"4","last_reported":1729616863,"current_range_meters":3200,"station_id":"ce4bho12rcd13ifvqh1g","pricing_plan_id":"cebpf4jnsgd1na2vs0mg"},{"bike_id":"84d150fe-1a4b-46c9-a8a8-9ec47c940c65","system_id":"levelo_inurba_marseille","lat":43.28262,"lon":5.35107,"is_reserved":false,"is_disabled":false,"rental_uris":{"android":"levelo://app?vid=84d150fe-1a4b-46c9-a8a8-9ec47c940c65","ios":"levelo://app?vid=84d150fe-1a4b-46c9-a8a8-9ec47c940c65"},"vehicle_type_id":"4","last_reported":1729616863,"current_range_meters":17200,"station_id":"ce4bgih2rcd13ifvqba0","pricing_plan_id":"cebpf4jnsgd1na2vs0mg"},{"bike_id":"0290ab5a-42d3-4476-9fc4-3caaf6899b72","system_id":"levelo_inurba_marseille","lat":43.29877,"lon":5.39745,"is_reserved":false,"is_disabled":false,"rental_uris":{"android":"levelo://app?vid=0290ab5a-42d3-4476-9fc4-3caaf6899b72","ios":"levelo://app?vid=0290ab5a-42d3-4476-9fc4-3caaf6899b72"},"vehicle_type_id":"4","last_reported":1729616863,"current_range_meters":31200,"station_id":"ce4bh0h2rcd13ifvqd50","pricing_plan_id":"cebpf4jnsgd1na2vs0mg"},{"bike_id":"f801a972-c648-424a-a7e1-9d8a4bf001b1","system_id":"levelo_inurba_marseille","lat":43.28042,"lon":5.3695,"is_reserved":false,"is_disabled":false,"rental_uris":{"android":"levelo://app?vid=f801a972-c648-424a-a7e1-9d8a4bf001b1","ios":"levelo://app?vid=f801a972-c648-424a-a7e1-9d8a4bf001b1"},"vehicle_type_id":"4","last_reported":1729616863,"current_range_meters":38000,"station_id":"ce4bha12rcd13ifvqef0","pricing_plan_id":"cebpf4jnsgd1na2vs0mg"},{"bike_id":"e7d675b7-3a7d-4dcc-b3fb-bbf74a8354ed","system_id":"levelo_inurba_marseille","lat":43.29211,"lon":5.39326,"is_reserved":false,"is_disabled":false,"rental_uris":{"android":"levelo://app?vid=e7d675b7-3a7d-4dcc-b3fb-bbf74a8354ed","ios":"levelo://app?vid=e7d675b7-3a7d-4dcc-b3fb-bbf74a8354ed"},"vehicle_type_id":"4","last_reported":1729616863,"current_range_meters":38000,"station_id":"ce4bh192rcd13ifvqdd0","pricing_plan_id":"cebpf4jnsgd1na2vs0mg"},{"bike_id":"ae51ebe9-0706-4fe6-aa54-c166ab3659c0","system_id":"levelo_inurba_marseille","lat":43.24806,"lon":5.37458,"is_reserved":false,"is_disabled":false,"rental_uris":{"android":"levelo://app?vid=ae51ebe9-0706-4fe6-aa54-c166ab3659c0","ios":"levelo://app?vid=ae51ebe9-0706-4fe6-aa54-c166ab3659c0"},"vehicle_type_id":"4","last_reported":1729616863,"current_range_meters":9600,"station_id":"ce4bhgh2rcd13ifvqfb0","pricing_plan_id":"cebpf4jnsgd1na2vs0mg"},{"bike_id":"fde87099-7284-4269-988f-0fd46b07308c","system_id":"levelo_inurba_marseille","lat":43.24804,"lon":5.3746,"is_reserved":false,"is_disabled":false,"rental_uris":{"android":"levelo://app?vid=fde87099-7284-4269-988f-0fd46b07308c","ios":"levelo://app?vid=fde87099-7284-4269-988f-0fd46b07308c"},"vehicle_type_id":"4","last_reported":1729616863,"current_range_meters":2800,"station_id":"ce4bhgh2rcd13ifvqfb0","pricing_plan_id":"cebpf4jnsgd1na2vs0mg"},{"bike_id":"ca26cea3-2c0f-4b4a-bb73-3e0db2b82791","system_id":"levelo_inurba_marseille","lat":43.25729,"lon":5.41111,"is_reserved":false,"is_disabled":false,"rental_uris":{"android":"levelo://app?vid=ca26cea3-2c0f-4b4a-bb73-3e0db2b82791","ios":"levelo://app?vid=ca26cea3-2c0f-4b4a-bb73-3e0db2b82791"},"vehicle_type_id":"4","last_reported":1729616863,"current_range_meters":27600,"station_id":"ce4bhkp2rcd13ifvqgd0","pricing_plan_id":"cebpf4jnsgd1na2vs0mg"},{"bike_id":"2b80f943-bf35-49c7-9584-ea1845fd1d05","system_id":"levelo_inurba_marseille","lat":43.23191,"lon":5.35548,"is_reserved":false,"is_disabled":false,"rental_uris":{"android":"levelo://app?vid=2b80f943-bf35-49c7-9584-ea1845fd1d05","ios":"levelo://app?vid=2b80f943-bf35-49c7-9584-ea1845fd1d05"},"vehicle_type_id":"4","last_reported":1729616863,"current_range_meters":9200,"station_id":"ce4bhu92rcd13ifvqi70","pricing_plan_id":"cebpf4jnsgd1na2vs0mg"},{"bike_id":"81e4488d-b9df-4764-b508-9fca2a6674ff","system_id":"levelo_inurba_marseille","lat":43.23196,"lon":5.35558,"is_reserved":false,"is_disabled":false,"rental_uris":{"android":"levelo://app?vid=81e4488d-b9df-4764-b508-9fca2a6674ff","ios":"levelo://app?vid=81e4488d-b9df-4764-b508-9fca2a6674ff"},"vehicle_type_id":"4","last_reported":1729616863,"current_range_meters":36800,"station_id":"ce4bhu92rcd13ifvqi70","pricing_plan_id":"cebpf4jnsgd1na2vs0mg"},{"bike_id":"c2f3b74d-79f4-45ea-8f16-6800d04d44f4","system_id":"levelo_inurba_marseille","lat":43.28153,"lon":5.42648,"is_reserved":false,"is_disabled":false,"rental_uris":{"android":"levelo://app?vid=c2f3b74d-79f4-45ea-8f16-6800d04d44f4","ios":"levelo://app?vid=c2f3b74d-79f4-45ea-8f16-6800d04d44f4"},"vehicle_type_id":"4","last_reported":1729616863,"current_range_meters":30000,"station_id":"ce4bhnh2rcd13ifvqgug","pricing_plan_id":"cebpf4jnsgd1na2vs0mg"},{"bike_id":"7bf23dd0-11cd-43e2-a6ee-e49ecdfe769d","system_id":"levelo_inurba_marseille","lat":43.28477,"lon":5.38418,"is_reserved":false,"is_disabled":false,"rental_uris":{"android":"levelo://app?vid=7bf23dd0-11cd-43e2-a6ee-e49ecdfe769d","ios":"levelo://app?vid=7bf23dd0-11cd-43e2-a6ee-e49ecdfe769d"},"vehicle_type_id":"4","last_reported":1729616863,"current_range_meters":10800,"station_id":"ce4bh512rcd13ifvqe3g","pricing_plan_id":"cebpf4jnsgd1na2vs0mg"},{"bike_id":"627c6540-d7df-46a3-8354-a24156ff4b61","system_id":"levelo_inurba_marseille","lat":43.30129,"lon":5.39865,"is_reserved":false,"is_disabled":false,"rental_uris":{"android":"levelo://app?vid=627c6540-d7df-46a3-8354-a24156ff4b61","ios":"levelo://app?vid=627c6540-d7df-46a3-8354-a24156ff4b61"},"vehicle_type_id":"4","last_reported":1729616863,"current_range_meters":38800,"station_id":"ce4bh0h2rcd13ifvqd40","pricing_plan_id":"cebpf4jnsgd1na2vs0mg"},{"bike_id":"944b5829-12ac-4e95-86cc-e220d2bc4d8a","system_id":"levelo_inurba_marseille","lat":43.31714,"lon":5.37736,"is_reserved":false,"is_disabled":false,"rental_uris":{"android":"levelo://app?vid=944b5829-12ac-4e95-86cc-e220d2bc4d8a","ios":"levelo://app?vid=944b5829-12ac-4e95-86cc-e220d2bc4d8a"},"vehicle_type_id":"4","last_reported":1729616863,"current_range_meters":18000,"station_id":"ce4bgth2rcd13ifvqch0","pricing_plan_id":"cebpf4jnsgd1na2vs0mg"},{"bike_id":"afea8f68-5061-45dc-9eed-ba2c96ecb9b6","system_id":"levelo_inurba_marseille","lat":43.28108,"lon":5.37842,"is_reserved":false,"is_disabled":false,"rental_uris":{"android":"levelo://app?vid=afea8f68-5061-45dc-9eed-ba2c96ecb9b6","ios":"levelo://app?vid=afea8f68-5061-45dc-9eed-ba2c96ecb9b6"},"vehicle_type_id":"4","last_reported":1729616863,"current_range_meters":10800,"station_id":"ce4bha12rcd13ifvqee0","pricing_plan_id":"cebpf4jnsgd1na2vs0mg"},{"bike_id":"1500bebc-a6fa-4c9c-83f3-b3edbb21b9db","system_id":"levelo_inurba_marseille","lat":43.309601,"lon":5.401523,"is_reserved":false,"is_disabled":false,"rental_uris":{"android":"levelo://app?vid=1500bebc-a6fa-4c9c-83f3-b3edbb21b9db","ios":"levelo://app?vid=1500bebc-a6fa-4c9c-83f3-b3edbb21b9db"},"vehicle_type_id":"4","last_reported":1729616863,"current_range_meters":8400,"station_id":"ce4bgvp2rcd13ifvqct0","pricing_plan_id":"cebpf4jnsgd1na2vs0mg"},{"bike_id":"0d750d0d-b898-4832-8a97-24bdb774c7b0","system_id":"levelo_inurba_marseille","lat":43.29837,"lon":5.37668,"is_reserved":false,"is_disabled":false,"rental_uris":{"android":"levelo://app?vid=0d750d0d-b898-4832-8a97-24bdb774c7b0","ios":"levelo://app?vid=0d750d0d-b898-4832-8a97-24bdb774c7b0"},"vehicle_type_id":"4","last_reported":1729616863,"current_range_meters":18000,"station_id":"","pricing_plan_id":"cebpf4jnsgd1na2vs0mg"},{"bike_id":"e5c8eb62-2a17-4bd2-9e8a-1afc19f8299b","system_id":"levelo_inurba_marseille","lat":43.30148,"lon":5.3742,"is_reserved":false,"is_disabled":false,"rental_uris":{"android":"levelo://app?vid=e5c8eb62-2a17-4bd2-9e8a-1afc19f8299b","ios":"levelo://app?vid=e5c8eb62-2a17-4bd2-9e8a-1afc19f8299b"},"vehicle_type_id":"4","last_reported":1729616863,"current_range_meters":5600,"station_id":"ce4bgs92rcd13ifvqcc0","pricing_plan_id":"cebpf4jnsgd1na2vs0mg"},{"bike_id":"29e438a7-a8b0-4729-bfde-61e57b80d3a6","system_id":"levelo_inurba_marseille","lat":43.27376,"lon":5.36261,"is_reserved":false,"is_disabled":false,"rental_uris":{"android":"levelo://app?vid=29e438a7-a8b0-4729-bfde-61e57b80d3a6","ios":"levelo://app?vid=29e438a7-a8b0-4729-bfde-61e57b80d3a6"},"vehicle_type_id":"4","last_reported":1729616863,"current_range_meters":10000,"station_id":"ce4bhbh2rcd13ifvqeo0","pricing_plan_id":"cebpf4jnsgd1na2vs0mg"},{"bike_id":"d60d3f4d-9bb2-49c2-a701-c13205a3a493","system_id":"levelo_inurba_marseille","lat":43.32475,"lon":5.36559,"is_reserved":false,"is_disabled":false,"rental_uris":{"android":"levelo://app?vid=d60d3f4d-9bb2-49c2-a701-c13205a3a493","ios":"levelo://app?vid=d60d3f4d-9bb2-49c2-a701-c13205a3a493"},"vehicle_type_id":"4","last_reported":1729616863,"current_range_meters":18000,"station_id":"ce4bhs12rcd13ifvqhvg","pricing_plan_id":"cebpf4jnsgd1na2vs0mg"},{"bike_id":"1b2938f5-6022-42e3-8759-190207d01f72","system_id":"levelo_inurba_marseille","lat":43.28097,"lon":5.37857,"is_reserved":false,"is_disabled":false,"rental_uris":{"android":"levelo://app?vid=1b2938f5-6022-42e3-8759-190207d01f72","ios":"levelo://app?vid=1b2938f5-6022-42e3-8759-190207d01f72"},"vehicle_type_id":"4","last_reported":1729616863,"current_range_meters":34000,"station_id":"ce4bha12rcd13ifvqee0","pricing_plan_id":"cebpf4jnsgd1na2vs0mg"},{"bike_id":"76b1f3cd-2443-4720-810d-a0d460cdf196","system_id":"levelo_inurba_marseille","lat":43.3122,"lon":5.36862,"is_reserved":false,"is_disabled":false,"rental_uris":{"android":"levelo://app?vid=76b1f3cd-2443-4720-810d-a0d460cdf196","ios":"levelo://app?vid=76b1f3cd-2443-4720-810d-a0d460cdf196"},"vehicle_type_id":"4","last_reported":1729616863,"current_range_meters":7200,"station_id":"ce4bgl92rcd13ifvqbq0","pricing_plan_id":"cebpf4jnsgd1na2vs0mg"},{"bike_id":"c503483f-043b-484b-be7c-3011a703c0ba","system_id":"levelo_inurba_marseille","lat":43.29178,"lon":5.37151,"is_reserved":false,"is_disabled":false,"rental_uris":{"android":"levelo://app?vid=c503483f-043b-484b-be7c-3011a703c0ba","ios":"levelo://app?vid=c503483f-043b-484b-be7c-3011a703c0ba"},"vehicle_type_id":"4","last_reported":1729616863,"current_range_meters":28400,"station_id":"ce4bha92rcd13ifvqeh0","pricing_plan_id":"cebpf4jnsgd1na2vs0mg"},{"bike_id":"4c55de4c-9cd7-4cfe-8db1-243f114b0070","system_id":"levelo_inurba_marseille","lat":43.29564,"lon":5.37534,"is_reserved":false,"is_disabled":false,"rental_uris":{"android":"levelo://app?vid=4c55de4c-9cd7-4cfe-8db1-243f114b0070","ios":"levelo://app?vid=4c55de4c-9cd7-4cfe-8db1-243f114b0070"},"vehicle_type_id":"4","last_reported":1729616863,"current_range_meters":26000,"station_id":"ce4bgh92rcd13ifvqb50","pricing_plan_id":"cebpf4jnsgd1na2vs0mg"},{"bike_id":"b9666ec0-2ca0-48a6-92f5-bcde643aab77","system_id":"levelo_inurba_marseille","lat":43.26216,"lon":5.37444,"is_reserved":false,"is_disabled":false,"rental_uris":{"android":"levelo://app?vid=b9666ec0-2ca0-48a6-92f5-bcde643aab77","ios":"levelo://app?vid=b9666ec0-2ca0-48a6-92f5-bcde643aab77"},"vehicle_type_id":"4","last_reported":1729616863,"current_range_meters":28400,"station_id":"ce4bhgp2rcd13ifvqfc0","pricing_plan_id":"cebpf4jnsgd1na2vs0mg"},{"bike_id":"9339d703-7807-48ac-aef0-184a1540f1bc","system_id":"levelo_inurba_marseille","lat":43.28839,"lon":5.39327,"is_reserved":false,"is_disabled":false,"rental_uris":{"android":"levelo://app?vid=9339d703-7807-48ac-aef0-184a1540f1bc","ios":"levelo://app?vid=9339d703-7807-48ac-aef0-184a1540f1bc"},"vehicle_type_id":"4","last_reported":1729616863,"current_range_meters":10800,"station_id":"ce4bh2p2rcd13ifvqdi0","pricing_plan_id":"cebpf4jnsgd1na2vs0mg"},{"bike_id":"c29e11b9-1bb7-4f2e-b0dc-50817f3aa66b","system_id":"levelo_inurba_marseille","lat":43.27552,"lon":5.38434,"is_reserved":false,"is_disabled":false,"rental_uris":{"android":"levelo://app?vid=c29e11b9-1bb7-4f2e-b0dc-50817f3aa66b","ios":"levelo://app?vid=c29e11b9-1bb7-4f2e-b0dc-50817f3aa66b"},"vehicle_type_id":"4","last_reported":1729616863,"current_range_meters":2800,"station_id":"ce4bhh92rcd13ifvqfi0","pricing_plan_id":"cebpf4jnsgd1na2vs0mg"},{"bike_id":"9594af62-a7fa-4cbd-b2bd-6c14ce75ee26","system_id":"levelo_inurba_marseille","lat":43.27371,"lon":5.3626,"is_reserved":false,"is_disabled":false,"rental_uris":{"android":"levelo://app?vid=9594af62-a7fa-4cbd-b2bd-6c14ce75ee26","ios":"levelo://app?vid=9594af62-a7fa-4cbd-b2bd-6c14ce75ee26"},"vehicle_type_id":"4","last_reported":1729616863,"current_range_meters":21600,"station_id":"ce4bhbh2rcd13ifvqeo0","pricing_plan_id":"cebpf4jnsgd1na2vs0mg"},{"bike_id":"4bf1dbf2-b0ea-46b4-80e2-4fbc2776096d","system_id":"levelo_inurba_marseille","lat":43.28101,"lon":5.37833,"is_reserved":false,"is_disabled":false,"rental_uris":{"android":"levelo://app?vid=4bf1dbf2-b0ea-46b4-80e2-4fbc2776096d","ios":"levelo://app?vid=4bf1dbf2-b0ea-46b4-80e2-4fbc2776096d"},"vehicle_type_id":"4","last_reported":1729616863,"current_range_meters":6400,"station_id":"ce4bha12rcd13ifvqee0","pricing_plan_id":"cebpf4jnsgd1na2vs0mg"},{"bike_id":"773338b0-8b01-4199-9cdb-7c1ae581a41e","system_id":"levelo_inurba_marseille","lat":43.26202,"lon":5.37935,"is_reserved":false,"is_disabled":false,"rental_uris":{"android":"levelo://app?vid=773338b0-8b01-4199-9cdb-7c1ae581a41e","ios":"levelo://app?vid=773338b0-8b01-4199-9cdb-7c1ae581a41e"},"vehicle_type_id":"4","last_reported":1729616863,"current_range_meters":6400,"station_id":"ce4bhjp2rcd13ifvqg90","pricing_plan_id":"cebpf4jnsgd1na2vs0mg"},{"bike_id":"da1a4521-7e49-4b2b-9209-eda7df885fa2","system_id":"levelo_inurba_marseille","lat":43.28933,"lon":5.36645,"is_reserved":false,"is_disabled":false,"rental_uris":{"android":"levelo://app?vid=da1a4521-7e49-4b2b-9209-eda7df885fa2","ios":"levelo://app?vid=da1a4521-7e49-4b2b-9209-eda7df885fa2"},"vehicle_type_id":"4","last_reported":1729616863,"current_range_meters":3600,"station_id":"ce4bhap2rcd13ifvqek0","pricing_plan_id":"cebpf4jnsgd1na2vs0mg"},{"bike_id":"7424be7b-3792-41b8-ac44-ee19dbc44a94","system_id":"levelo_inurba_marseille","lat":43.25581,"lon":5.38242,"is_reserved":false,"is_disabled":false,"rental_uris":{"android":"levelo://app?vid=7424be7b-3792-41b8-ac44-ee19dbc44a94","ios":"levelo://app?vid=7424be7b-3792-41b8-ac44-ee19dbc44a94"},"vehicle_type_id":"4","last_reported":1729616863,"current_range_meters":11200,"station_id":"ce4bhih2rcd13ifvqfs0","pricing_plan_id":"cebpf4jnsgd1na2vs0mg"},{"bike_id":"36f836fc-aaf7-4fbc-b63d-565d561b1f1e","system_id":"levelo_inurba_marseille","lat":43.31891,"lon":5.40735,"is_reserved":false,"is_disabled":false,"rental_uris":{"android":"levelo://app?vid=36f836fc-aaf7-4fbc-b63d-565d561b1f1e","ios":"levelo://app?vid=36f836fc-aaf7-4fbc-b63d-565d561b1f1e"},"vehicle_type_id":"4","last_reported":1729616863,"current_range_meters":6000,"station_id":"ce4bhq12rcd13ifvqhig","pricing_plan_id":"cebpf4jnsgd1na2vs0mg"},{"bike_id":"74321bda-05ec-4b28-9a33-0489024d4a48","system_id":"levelo_inurba_marseille","lat":43.29787,"lon":5.39343,"is_reserved":false,"is_disabled":false,"rental_uris":{"android":"levelo://app?vid=74321bda-05ec-4b28-9a33-0489024d4a48","ios":"levelo://app?vid=74321bda-05ec-4b28-9a33-0489024d4a48"},"vehicle_type_id":"4","last_reported":1729616863,"current_range_meters":20400,"station_id":"chh1huq6cuj3fo74tm60","pricing_plan_id":"cebpf4jnsgd1na2vs0mg"},{"bike_id":"65fcfbd6-72c2-43b0-918b-944c47db3091","system_id":"levelo_inurba_marseille","lat":43.265579,"lon":5.372891,"is_reserved":false,"is_disabled":false,"rental_uris":{"android":"levelo://app?vid=65fcfbd6-72c2-43b0-918b-944c47db3091","ios":"levelo://app?vid=65fcfbd6-72c2-43b0-918b-944c47db3091"},"vehicle_type_id":"4","last_reported":1729616863,"current_range_meters":3200,"station_id":"ce4bhg12rcd13ifvqf70","pricing_plan_id":"cebpf4jnsgd1na2vs0mg"},{"bike_id":"47b3c0a4-ad62-4766-bcdf-87bfde21dd20","system_id":"levelo_inurba_marseille","lat":43.2761,"lon":5.36116,"is_reserved":false,"is_disabled":false,"rental_uris":{"android":"levelo://app?vid=47b3c0a4-ad62-4766-bcdf-87bfde21dd20","ios":"levelo://app?vid=47b3c0a4-ad62-4766-bcdf-87bfde21dd20"},"vehicle_type_id":"4","last_reported":1729616863,"current_range_meters":22000,"station_id":"ce4bgj92rcd13ifvqbe0","pricing_plan_id":"cebpf4jnsgd1na2vs0mg"},{"bike_id":"15c7fc01-41bd-49a0-9e35-6327d7338ed8","system_id":"levelo_inurba_marseille","lat":43.30811,"lon":5.38145,"is_reserved":false,"is_disabled":false,"rental_uris":{"android":"levelo://app?vid=15c7fc01-41bd-49a0-9e35-6327d7338ed8","ios":"levelo://app?vid=15c7fc01-41bd-49a0-9e35-6327d7338ed8"},"vehicle_type_id":"4","last_reported":1729616863,"current_range_meters":9600,"station_id":"ce4bgt12rcd13ifvqce0","pricing_plan_id":"cebpf4jnsgd1na2vs0mg"},{"bike_id":"eb46b877-1b17-4c57-aa67-4a175d7bd4e1","system_id":"levelo_inurba_marseille","lat":43.30423,"lon":5.388763,"is_reserved":false,"is_disabled":false,"rental_uris":{"android":"levelo://app?vid=eb46b877-1b17-4c57-aa67-4a175d7bd4e1","ios":"levelo://app?vid=eb46b877-1b17-4c57-aa67-4a175d7bd4e1"},"vehicle_type_id":"4","last_reported":1729616863,"current_range_meters":19600,"station_id":"ce4bgqh2rcd13ifvqc5g","pricing_plan_id":"cebpf4jnsgd1na2vs0mg"},{"bike_id":"f6681304-9b35-45bb-8397-9a7b3ae99fa8","system_id":"levelo_inurba_marseille","lat":43.30219,"lon":5.39477,"is_reserved":false,"is_disabled":false,"rental_uris":{"android":"levelo://app?vid=f6681304-9b35-45bb-8397-9a7b3ae99fa8","ios":"levelo://app?vid=f6681304-9b35-45bb-8397-9a7b3ae99fa8"},"vehicle_type_id":"4","last_reported":1729616863,"current_range_meters":4800,"station_id":"ce4bh0p2rcd13ifvqd70","pricing_plan_id":"cebpf4jnsgd1na2vs0mg"},{"bike_id":"175cd287-f166-4416-a201-9eead2fc53fd","system_id":"levelo_inurba_marseille","lat":43.28152,"lon":5.42655,"is_reserved":false,"is_disabled":false,"rental_uris":{"android":"levelo://app?vid=175cd287-f166-4416-a201-9eead2fc53fd","ios":"levelo://app?vid=175cd287-f166-4416-a201-9eead2fc53fd"},"vehicle_type_id":"4","last_reported":1729616863,"current_range_meters":25200,"station_id":"ce4bhnh2rcd13ifvqgug","pricing_plan_id":"cebpf4jnsgd1na2vs0mg"},{"bike_id":"7b135d22-0c89-4d92-981b-c5c17dc2f9db","system_id":"levelo_inurba_marseille","lat":43.29873,"lon":5.39742,"is_reserved":false,"is_disabled":false,"rental_uris":{"android":"levelo://app?vid=7b135d22-0c89-4d92-981b-c5c17dc2f9db","ios":"levelo://app?vid=7b135d22-0c89-4d92-981b-c5c17dc2f9db"},"vehicle_type_id":"4","last_reported":1729616863,"current_range_meters":10000,"station_id":"ce4bh0h2rcd13ifvqd50","pricing_plan_id":"cebpf4jnsgd1na2vs0mg"},{"bike_id":"d5ccb0a3-1c42-469b-862c-b95852596747","system_id":"levelo_inurba_marseille","lat":43.29258,"lon":5.38439,"is_reserved":false,"is_disabled":false,"rental_uris":{"android":"levelo://app?vid=d5ccb0a3-1c42-469b-862c-b95852596747","ios":"levelo://app?vid=d5ccb0a3-1c42-469b-862c-b95852596747"},"vehicle_type_id":"4","last_reported":1729616863,"current_range_meters":4400,"station_id":"ce4bh692rcd13ifvqea0","pricing_plan_id":"cebpf4jnsgd1na2vs0mg"},{"bike_id":"36156996-45e5-46cb-8a8d-381e1f24a4b5","system_id":"levelo_inurba_marseille","lat":43.28151,"lon":5.4264,"is_reserved":false,"is_disabled":false,"rental_uris":{"android":"levelo://app?vid=36156996-45e5-46cb-8a8d-381e1f24a4b5","ios":"levelo://app?vid=36156996-45e5-46cb-8a8d-381e1f24a4b5"},"vehicle_type_id":"4","last_reported":1729616863,"current_range_meters":15200,"station_id":"ce4bhnh2rcd13ifvqgug","pricing_plan_id":"cebpf4jnsgd1na2vs0mg"},{"bike_id":"0955e62d-a0b8-40db-a67e-b9ba3dcfa2c5","system_id":"levelo_inurba_marseille","lat":43.31331,"lon":5.39696,"is_reserved":false,"is_disabled":false,"rental_uris":{"android":"levelo://app?vid=0955e62d-a0b8-40db-a67e-b9ba3dcfa2c5","ios":"levelo://app?vid=0955e62d-a0b8-40db-a67e-b9ba3dcfa2c5"},"vehicle_type_id":"4","last_reported":1729616863,"current_range_meters":19200,"station_id":"ce4bgvp2rcd13ifvqcu0","pricing_plan_id":"cebpf4jnsgd1na2vs0mg"},{"bike_id":"93e1d925-d983-468f-b100-02b367bcc61b","system_id":"levelo_inurba_marseille","lat":43.29961,"lon":5.41325,"is_reserved":false,"is_disabled":false,"rental_uris":{"android":"levelo://app?vid=93e1d925-d983-468f-b100-02b367bcc61b","ios":"levelo://app?vid=93e1d925-d983-468f-b100-02b367bcc61b"},"vehicle_type_id":"4","last_reported":1729616863,"current_range_meters":31200,"station_id":"ce4bhp12rcd13ifvqh9g","pricing_plan_id":"cebpf4jnsgd1na2vs0mg"},{"bike_id":"bb0d5db6-aab4-4643-b427-e0d1b3aaae4f","system_id":"levelo_inurba_marseille","lat":43.29093,"lon":5.38158,"is_reserved":false,"is_disabled":false,"rental_uris":{"android":"levelo://app?vid=bb0d5db6-aab4-4643-b427-e0d1b3aaae4f","ios":"levelo://app?vid=bb0d5db6-aab4-4643-b427-e0d1b3aaae4f"},"vehicle_type_id":"4","last_reported":1729616863,"current_range_meters":34000,"station_id":"ce4bh512rcd13ifvqe2g","pricing_plan_id":"cebpf4jnsgd1na2vs0mg"},{"bike_id":"0f064630-b817-4e49-8a85-44065fab2f80","system_id":"levelo_inurba_marseille","lat":43.29034,"lon":5.38641,"is_reserved":false,"is_disabled":false,"rental_uris":{"android":"levelo://app?vid=0f064630-b817-4e49-8a85-44065fab2f80","ios":"levelo://app?vid=0f064630-b817-4e49-8a85-44065fab2f80"},"vehicle_type_id":"4","last_reported":1729616863,"current_range_meters":15200,"station_id":"ce4bh4p2rcd13ifvqe0g","pricing_plan_id":"cebpf4jnsgd1na2vs0mg"},{"bike_id":"fc59e55c-da4e-4139-89ab-0903ebc6c8b9","system_id":"levelo_inurba_marseille","lat":43.28857,"lon":5.39328,"is_reserved":false,"is_disabled":false,"rental_uris":{"android":"levelo://app?vid=fc59e55c-da4e-4139-89ab-0903ebc6c8b9","ios":"levelo://app?vid=fc59e55c-da4e-4139-89ab-0903ebc6c8b9"},"vehicle_type_id":"4","last_reported":1729616863,"current_range_meters":3600,"station_id":"ce4bh2p2rcd13ifvqdi0","pricing_plan_id":"cebpf4jnsgd1na2vs0mg"},{"bike_id":"0d9ef5a3-2381-4d60-bff4-852d2062eb52","system_id":"levelo_inurba_marseille","lat":43.28101,"lon":5.37839,"is_reserved":false,"is_disabled":false,"rental_uris":{"android":"levelo://app?vid=0d9ef5a3-2381-4d60-bff4-852d2062eb52","ios":"levelo://app?vid=0d9ef5a3-2381-4d60-bff4-852d2062eb52"},"vehicle_type_id":"4","last_reported":1729616863,"current_range_meters":5600,"station_id":"ce4bha12rcd13ifvqee0","pricing_plan_id":"cebpf4jnsgd1na2vs0mg"},{"bike_id":"c76af8c3-f685-4d18-b51d-576f84ea933d","system_id":"levelo_inurba_marseille","lat":43.23961,"lon":5.36636,"is_reserved":false,"is_disabled":false,"rental_uris":{"android":"levelo://app?vid=c76af8c3-f685-4d18-b51d-576f84ea933d","ios":"levelo://app?vid=c76af8c3-f685-4d18-b51d-576f84ea933d"},"vehicle_type_id":"4","last_reported":1729616863,"current_range_meters":8400,"station_id":"ce4bhi12rcd13ifvqfp0","pricing_plan_id":"cebpf4jnsgd1na2vs0mg"},{"bike_id":"9221c06a-75f5-49e2-bb8c-153ff475ac43","system_id":"levelo_inurba_marseille","lat":43.23196,"lon":5.35556,"is_reserved":false,"is_disabled":false,"rental_uris":{"android":"levelo://app?vid=9221c06a-75f5-49e2-bb8c-153ff475ac43","ios":"levelo://app?vid=9221c06a-75f5-49e2-bb8c-153ff475ac43"},"vehicle_type_id":"4","last_reported":1729616863,"current_range_meters":11200,"station_id":"ce4bhu92rcd13ifvqi70","pricing_plan_id":"cebpf4jnsgd1na2vs0mg"},{"bike_id":"80b6f919-b3fd-4332-aba7-d7928d22547b","system_id":"levelo_inurba_marseille","lat":43.28157,"lon":5.42644,"is_reserved":false,"is_disabled":false,"rental_uris":{"android":"levelo://app?vid=80b6f919-b3fd-4332-aba7-d7928d22547b","ios":"levelo://app?vid=80b6f919-b3fd-4332-aba7-d7928d22547b"},"vehicle_type_id":"4","last_reported":1729616863,"current_range_meters":20800,"station_id":"ce4bhnh2rcd13ifvqgug","pricing_plan_id":"cebpf4jnsgd1na2vs0mg"},{"bike_id":"6d97641c-f34b-4ce4-a0cd-2cb10ad509cd","system_id":"levelo_inurba_marseille","lat":43.25501,"lon":5.37653,"is_reserved":false,"is_disabled":false,"rental_uris":{"android":"levelo://app?vid=6d97641c-f34b-4ce4-a0cd-2cb10ad509cd","ios":"levelo://app?vid=6d97641c-f34b-4ce4-a0cd-2cb10ad509cd"},"vehicle_type_id":"4","last_reported":1729616863,"current_range_meters":2000,"station_id":"ce4bhh12rcd13ifvqff0","pricing_plan_id":"cebpf4jnsgd1na2vs0mg"},{"bike_id":"e3a5be37-fa47-4379-ae30-8a48a4048b7b","system_id":"levelo_inurba_marseille","lat":43.2926,"lon":5.38439,"is_reserved":false,"is_disabled":false,"rental_uris":{"android":"levelo://app?vid=e3a5be37-fa47-4379-ae30-8a48a4048b7b","ios":"levelo://app?vid=e3a5be37-fa47-4379-ae30-8a48a4048b7b"},"vehicle_type_id":"4","last_reported":1729616863,"current_range_meters":18000,"station_id":"ce4bh692rcd13ifvqea0","pricing_plan_id":"cebpf4jnsgd1na2vs0mg"},{"bike_id":"8037737e-c999-41f7-9990-95b10490d33a","system_id":"levelo_inurba_marseille","lat":43.25002,"lon":5.38931,"is_reserved":false,"is_disabled":false,"rental_uris":{"android":"levelo://app?vid=8037737e-c999-41f7-9990-95b10490d33a","ios":"levelo://app?vid=8037737e-c999-41f7-9990-95b10490d33a"},"vehicle_type_id":"4","last_reported":1729616863,"current_range_meters":18800,"station_id":"ce4bhgp2rcd13ifvqfd0","pricing_plan_id":"cebpf4jnsgd1na2vs0mg"},{"bike_id":"7ac1a788-3dd8-4ec5-978a-5de36181bffe","system_id":"levelo_inurba_marseille","lat":43.2781,"lon":5.40714,"is_reserved":false,"is_disabled":false,"rental_uris":{"android":"levelo://app?vid=7ac1a788-3dd8-4ec5-978a-5de36181bffe","ios":"levelo://app?vid=7ac1a788-3dd8-4ec5-978a-5de36181bffe"},"vehicle_type_id":"4","last_reported":1729616863,"current_range_meters":3600,"station_id":"ce4bhnh2rcd13ifvqgtg","pricing_plan_id":"cebpf4jnsgd1na2vs0mg"},{"bike_id":"e0a4af1e-706d-4cfa-89df-ea235b99aa80","system_id":"levelo_inurba_marseille","lat":43.23966,"lon":5.36636,"is_reserved":false,"is_disabled":false,"rental_uris":{"android":"levelo://app?vid=e0a4af1e-706d-4cfa-89df-ea235b99aa80","ios":"levelo://app?vid=e0a4af1e-706d-4cfa-89df-ea235b99aa80"},"vehicle_type_id":"4","last_reported":1729616863,"current_range_meters":4000,"station_id":"ce4bhi12rcd13ifvqfp0","pricing_plan_id":"cebpf4jnsgd1na2vs0mg"},{"bike_id":"b58ed50b-3e42-4c56-a79f-51bfc9025870","system_id":"levelo_inurba_marseille","lat":43.29266,"lon":5.38434,"is_reserved":false,"is_disabled":false,"rental_uris":{"android":"levelo://app?vid=b58ed50b-3e42-4c56-a79f-51bfc9025870","ios":"levelo://app?vid=b58ed50b-3e42-4c56-a79f-51bfc9025870"},"vehicle_type_id":"4","last_reported":1729616863,"current_range_meters":16400,"station_id":"ce4bh692rcd13ifvqea0","pricing_plan_id":"cebpf4jnsgd1na2vs0mg"},{"bike_id":"852a0218-cec2-4bba-9467-500c0b04ab85","system_id":"levelo_inurba_marseille","lat":43.28154,"lon":5.42642,"is_reserved":false,"is_disabled":false,"rental_uris":{"android":"levelo://app?vid=852a0218-cec2-4bba-9467-500c0b04ab85","ios":"levelo://app?vid=852a0218-cec2-4bba-9467-500c0b04ab85"},"vehicle_type_id":"4","last_reported":1729616863,"current_range_meters":12800,"station_id":"ce4bhnh2rcd13ifvqgug","pricing_plan_id":"cebpf4jnsgd1na2vs0mg"},{"bike_id":"fa998b95-f24a-43b6-90ff-9f68337d82fc","system_id":"levelo_inurba_marseille","lat":43.24811,"lon":5.37459,"is_reserved":false,"is_disabled":false,"rental_uris":{"android":"levelo://app?vid=fa998b95-f24a-43b6-90ff-9f68337d82fc","ios":"levelo://app?vid=fa998b95-f24a-43b6-90ff-9f68337d82fc"},"vehicle_type_id":"4","last_reported":1729616863,"current_range_meters":28000,"station_id":"ce4bhgh2rcd13ifvqfb0","pricing_plan_id":"cebpf4jnsgd1na2vs0mg"},{"bike_id":"18db6014-25aa-4469-a809-c009ca67dcf8","system_id":"levelo_inurba_marseille","lat":43.2895,"lon":5.36635,"is_reserved":false,"is_disabled":false,"rental_uris":{"android":"levelo://app?vid=18db6014-25aa-4469-a809-c009ca67dcf8","ios":"levelo://app?vid=18db6014-25aa-4469-a809-c009ca67dcf8"},"vehicle_type_id":"4","last_reported":1729616863,"current_range_meters":3200,"station_id":"ce4bhap2rcd13ifvqek0","pricing_plan_id":"cebpf4jnsgd1na2vs0mg"},{"bike_id":"024a954f-27c1-474b-b0f4-592a1d5a0d87","system_id":"levelo_inurba_marseille","lat":43.28355,"lon":5.38108,"is_reserved":false,"is_disabled":false,"rental_uris":{"android":"levelo://app?vid=024a954f-27c1-474b-b0f4-592a1d5a0d87","ios":"levelo://app?vid=024a954f-27c1-474b-b0f4-592a1d5a0d87"},"vehicle_type_id":"4","last_reported":1729616863,"current_range_meters":14000,"station_id":"ce4bh412rcd13ifvqdr0","pricing_plan_id":"cebpf4jnsgd1na2vs0mg"},{"bike_id":"9b566306-69a5-49dc-9a6c-b06ff221288e","system_id":"levelo_inurba_marseille","lat":43.295094,"lon":5.423044,"is_reserved":false,"is_disabled":false,"rental_uris":{"android":"levelo://app?vid=9b566306-69a5-49dc-9a6c-b06ff221288e","ios":"levelo://app?vid=9b566306-69a5-49dc-9a6c-b06ff221288e"},"vehicle_type_id":"4","last_reported":1729616863,"current_range_meters":6400,"station_id":"ce4bhph2rcd13ifvqhdg","pricing_plan_id":"cebpf4jnsgd1na2vs0mg"},{"bike_id":"f5030d64-ab01-48a8-a13f-d333f3155afb","system_id":"levelo_inurba_marseille","lat":43.28096,"lon":5.37849,"is_reserved":false,"is_disabled":false,"rental_uris":{"android":"levelo://app?vid=f5030d64-ab01-48a8-a13f-d333f3155afb","ios":"levelo://app?vid=f5030d64-ab01-48a8-a13f-d333f3155afb"},"vehicle_type_id":"4","last_reported":1729616863,"current_range_meters":8000,"station_id":"ce4bha12rcd13ifvqee0","pricing_plan_id":"cebpf4jnsgd1na2vs0mg"},{"bike_id":"29dc692f-e54f-4c82-a10c-eba7400f35c5","system_id":"levelo_inurba_marseille","lat":43.29885,"lon":5.38913,"is_reserved":false,"is_disabled":false,"rental_uris":{"android":"levelo://app?vid=29dc692f-e54f-4c82-a10c-eba7400f35c5","ios":"levelo://app?vid=29dc692f-e54f-4c82-a10c-eba7400f35c5"},"vehicle_type_id":"4","last_reported":1729616863,"current_range_meters":21600,"station_id":"ce4bh392rcd13ifvqdl0","pricing_plan_id":"cebpf4jnsgd1na2vs0mg"},{"bike_id":"38ef27d4-72e9-470f-b3bd-485a74cb6ce9","system_id":"levelo_inurba_marseille","lat":43.24074,"lon":5.37768,"is_reserved":false,"is_disabled":false,"rental_uris":{"android":"levelo://app?vid=38ef27d4-72e9-470f-b3bd-485a74cb6ce9","ios":"levelo://app?vid=38ef27d4-72e9-470f-b3bd-485a74cb6ce9"},"vehicle_type_id":"4","last_reported":1729616863,"current_range_meters":34000,"station_id":"ce4bhnp2rcd13ifvqgvg","pricing_plan_id":"cebpf4jnsgd1na2vs0mg"},{"bike_id":"a824bce9-0c8f-47e6-a1e2-a51ca4e61331","system_id":"levelo_inurba_marseille","lat":43.27567,"lon":5.38425,"is_reserved":false,"is_disabled":false,"rental_uris":{"android":"levelo://app?vid=a824bce9-0c8f-47e6-a1e2-a51ca4e61331","ios":"levelo://app?vid=a824bce9-0c8f-47e6-a1e2-a51ca4e61331"},"vehicle_type_id":"4","last_reported":1729616863,"current_range_meters":14000,"station_id":"ce4bhh92rcd13ifvqfi0","pricing_plan_id":"cebpf4jnsgd1na2vs0mg"},{"bike_id":"79cfb1e6-562e-453e-a13a-f539b8d611c2","system_id":"levelo_inurba_marseille","lat":43.29436,"lon":5.39758,"is_reserved":false,"is_disabled":false,"rental_uris":{"android":"levelo://app?vid=79cfb1e6-562e-453e-a13a-f539b8d611c2","ios":"levelo://app?vid=79cfb1e6-562e-453e-a13a-f539b8d611c2"},"vehicle_type_id":"4","last_reported":1729616863,"current_range_meters":6800,"station_id":"ce4bh3h2rcd13ifvqdo0","pricing_plan_id":"cebpf4jnsgd1na2vs0mg"},{"bike_id":"95d9a9c1-920a-40da-a2f4-7aa788fcfe7c","system_id":"levelo_inurba_marseille","lat":43.25168,"lon":5.37486,"is_reserved":false,"is_disabled":false,"rental_uris":{"android":"levelo://app?vid=95d9a9c1-920a-40da-a2f4-7aa788fcfe7c","ios":"levelo://app?vid=95d9a9c1-920a-40da-a2f4-7aa788fcfe7c"},"vehicle_type_id":"4","last_reported":1729616863,"current_range_meters":6400,"station_id":"ce4bhbh2rcd13ifvqeo0","pricing_plan_id":"cebpf4jnsgd1na2vs0mg"},{"bike_id":"241eae11-0ca2-4cb8-8431-4b35c44610aa","system_id":"levelo_inurba_marseille","lat":43.31359,"lon":5.38496,"is_reserved":false,"is_disabled":false,"rental_uris":{"android":"levelo://app?vid=241eae11-0ca2-4cb8-8431-4b35c44610aa","ios":"levelo://app?vid=241eae11-0ca2-4cb8-8431-4b35c44610aa"},"vehicle_type_id":"4","last_reported":1729616863,"current_range_meters":16800,"station_id":"ce4bgt92rcd13ifvqcf0","pricing_plan_id":"cebpf4jnsgd1na2vs0mg"},{"bike_id":"d67283c5-2237-4bc6-8acd-659190b47e29","system_id":"levelo_inurba_marseille","lat":43.299612,"lon":5.385026,"is_reserved":false,"is_disabled":false,"rental_uris":{"android":"levelo://app?vid=d67283c5-2237-4bc6-8acd-659190b47e29","ios":"levelo://app?vid=d67283c5-2237-4bc6-8acd-659190b47e29"},"vehicle_type_id":"4","last_reported":1729616863,"current_range_meters":10800,"station_id":"ce4bgj92rcd13ifvqbd0","pricing_plan_id":"cebpf4jnsgd1na2vs0mg"},{"bike_id":"4792ba60-ca0a-48b1-9e05-faa0a6238f20","system_id":"levelo_inurba_marseille","lat":43.30246,"lon":5.40085,"is_reserved":false,"is_disabled":false,"rental_uris":{"android":"levelo://app?vid=4792ba60-ca0a-48b1-9e05-faa0a6238f20","ios":"levelo://app?vid=4792ba60-ca0a-48b1-9e05-faa0a6238f20"},"vehicle_type_id":"4","last_reported":1729616863,"current_range_meters":38800,"station_id":"ce4bgvh2rcd13ifvqcs0","pricing_plan_id":"cebpf4jnsgd1na2vs0mg"},{"bike_id":"dd482170-0c9e-4baa-84d3-9402d2c1ed70","system_id":"levelo_inurba_marseille","lat":43.32113,"lon":5.36776,"is_reserved":false,"is_disabled":false,"rental_uris":{"android":"levelo://app?vid=dd482170-0c9e-4baa-84d3-9402d2c1ed70","ios":"levelo://app?vid=dd482170-0c9e-4baa-84d3-9402d2c1ed70"},"vehicle_type_id":"4","last_reported":1729616863,"current_range_meters":38800,"station_id":"ce4bhrh2rcd13ifvqhug","pricing_plan_id":"cebpf4jnsgd1na2vs0mg"},{"bike_id":"3a375aae-c112-485f-95b1-2d8afc2bd3bb","system_id":"levelo_inurba_marseille","lat":43.28156,"lon":5.42644,"is_reserved":false,"is_disabled":false,"rental_uris":{"android":"levelo://app?vid=3a375aae-c112-485f-95b1-2d8afc2bd3bb","ios":"levelo://app?vid=3a375aae-c112-485f-95b1-2d8afc2bd3bb"},"vehicle_type_id":"4","last_reported":1729616863,"current_range_meters":24400,"station_id":"ce4bhnh2rcd13ifvqgug","pricing_plan_id":"cebpf4jnsgd1na2vs0mg"},{"bike_id":"07789225-8b1d-46fb-b546-a59e196fd0b3","system_id":"levelo_inurba_marseille","lat":43.29416,"lon":5.38632,"is_reserved":false,"is_disabled":false,"rental_uris":{"android":"levelo://app?vid=07789225-8b1d-46fb-b546-a59e196fd0b3","ios":"levelo://app?vid=07789225-8b1d-46fb-b546-a59e196fd0b3"},"vehicle_type_id":"4","last_reported":1729616863,"current_range_meters":22800,"station_id":"ce4bh2h2rcd13ifvqdh0","pricing_plan_id":"cebpf4jnsgd1na2vs0mg"},{"bike_id":"aec2ee6c-b3ad-4965-aa74-7f10f216d592","system_id":"levelo_inurba_marseille","lat":43.30136,"lon":5.38784,"is_reserved":false,"is_disabled":false,"rental_uris":{"android":"levelo://app?vid=aec2ee6c-b3ad-4965-aa74-7f10f216d592","ios":"levelo://app?vid=aec2ee6c-b3ad-4965-aa74-7f10f216d592"},"vehicle_type_id":"4","last_reported":1729616863,"current_range_meters":7200,"station_id":"ce4bghh2rcd13ifvqb60","pricing_plan_id":"cebpf4jnsgd1na2vs0mg"},{"bike_id":"81fa061e-6a08-4205-bbe9-8a73e6cbfaa5","system_id":"levelo_inurba_marseille","lat":43.24667,"lon":5.38164,"is_reserved":false,"is_disabled":false,"rental_uris":{"android":"levelo://app?vid=81fa061e-6a08-4205-bbe9-8a73e6cbfaa5","ios":"levelo://app?vid=81fa061e-6a08-4205-bbe9-8a73e6cbfaa5"},"vehicle_type_id":"4","last_reported":1729616863,"current_range_meters":12400,"station_id":"ce4bhih2rcd13ifvqfr0","pricing_plan_id":"cebpf4jnsgd1na2vs0mg"},{"bike_id":"11e635d9-6999-480a-8651-0d7416223992","system_id":"levelo_inurba_marseille","lat":43.28108,"lon":5.37838,"is_reserved":false,"is_disabled":false,"rental_uris":{"android":"levelo://app?vid=11e635d9-6999-480a-8651-0d7416223992","ios":"levelo://app?vid=11e635d9-6999-480a-8651-0d7416223992"},"vehicle_type_id":"4","last_reported":1729616863,"current_range_meters":23200,"station_id":"ce4bha12rcd13ifvqee0","pricing_plan_id":"cebpf4jnsgd1na2vs0mg"},{"bike_id":"f5d3adc4-04d0-4d88-80d4-f5338c322eed","system_id":"levelo_inurba_marseille","lat":43.28993,"lon":5.39858,"is_reserved":false,"is_disabled":false,"rental_uris":{"android":"levelo://app?vid=f5d3adc4-04d0-4d88-80d4-f5338c322eed","ios":"levelo://app?vid=f5d3adc4-04d0-4d88-80d4-f5338c322eed"},"vehicle_type_id":"4","last_reported":1729616863,"current_range_meters":30000,"station_id":"ce4bhnh2rcd13ifvqgtg","pricing_plan_id":"cebpf4jnsgd1na2vs0mg"},{"bike_id":"51eb7b91-a3e1-4c0d-be09-a45a1ed23541","system_id":"levelo_inurba_marseille","lat":43.28102,"lon":5.37835,"is_reserved":false,"is_disabled":false,"rental_uris":{"android":"levelo://app?vid=51eb7b91-a3e1-4c0d-be09-a45a1ed23541","ios":"levelo://app?vid=51eb7b91-a3e1-4c0d-be09-a45a1ed23541"},"vehicle_type_id":"4","last_reported":1729616863,"current_range_meters":4000,"station_id":"ce4bha12rcd13ifvqee0","pricing_plan_id":"cebpf4jnsgd1na2vs0mg"},{"bike_id":"062b2035-67e2-443e-a901-5c702cc4aedf","system_id":"levelo_inurba_marseille","lat":43.31273,"lon":5.40171,"is_reserved":false,"is_disabled":false,"rental_uris":{"android":"levelo://app?vid=062b2035-67e2-443e-a901-5c702cc4aedf","ios":"levelo://app?vid=062b2035-67e2-443e-a901-5c702cc4aedf"},"vehicle_type_id":"4","last_reported":1729616863,"current_range_meters":17200,"station_id":"ce4bh092rcd13ifvqd30","pricing_plan_id":"cebpf4jnsgd1na2vs0mg"},{"bike_id":"423fc3c6-83a1-49de-8c73-34ed9e9ccc50","system_id":"levelo_inurba_marseille","lat":43.29318,"lon":5.37037,"is_reserved":false,"is_disabled":false,"rental_uris":{"android":"levelo://app?vid=423fc3c6-83a1-49de-8c73-34ed9e9ccc50","ios":"levelo://app?vid=423fc3c6-83a1-49de-8c73-34ed9e9ccc50"},"vehicle_type_id":"4","last_reported":1729616863,"current_range_meters":4400,"station_id":"ce4bgi12rcd13ifvqb70","pricing_plan_id":"cebpf4jnsgd1na2vs0mg"},{"bike_id":"97e75128-7db1-4034-a5c5-c1d111fc921e","system_id":"levelo_inurba_marseille","lat":43.27904,"lon":5.38015,"is_reserved":false,"is_disabled":false,"rental_uris":{"android":"levelo://app?vid=97e75128-7db1-4034-a5c5-c1d111fc921e","ios":"levelo://app?vid=97e75128-7db1-4034-a5c5-c1d111fc921e"},"vehicle_type_id":"4","last_reported":1729616863,"current_range_meters":22400,"station_id":"ce4bhf92rcd13ifvqf50","pricing_plan_id":"cebpf4jnsgd1na2vs0mg"},{"bike_id":"e01ba4c5-a1cb-4de6-a357-09425f62829b","system_id":"levelo_inurba_marseille","lat":43.28932,"lon":5.3842,"is_reserved":false,"is_disabled":false,"rental_uris":{"android":"levelo://app?vid=e01ba4c5-a1cb-4de6-a357-09425f62829b","ios":"levelo://app?vid=e01ba4c5-a1cb-4de6-a357-09425f62829b"},"vehicle_type_id":"4","last_reported":1729616863,"current_range_meters":2800,"station_id":"ce4bh612rcd13ifvqe6g","pricing_plan_id":"cebpf4jnsgd1na2vs0mg"},{"bike_id":"65d358ea-a7f9-4eea-9896-fdfe8b33a12b","system_id":"levelo_inurba_marseille","lat":43.325875,"lon":5.411692,"is_reserved":false,"is_disabled":false,"rental_uris":{"android":"levelo://app?vid=65d358ea-a7f9-4eea-9896-fdfe8b33a12b","ios":"levelo://app?vid=65d358ea-a7f9-4eea-9896-fdfe8b33a12b"},"vehicle_type_id":"4","last_reported":1729616863,"current_range_meters":18800,"station_id":"","pricing_plan_id":"cebpf4jnsgd1na2vs0mg"},{"bike_id":"ff935539-6b7f-4917-ab5e-f18369d4b7d5","system_id":"levelo_inurba_marseille","lat":43.27808,"lon":5.40713,"is_reserved":false,"is_disabled":false,"rental_uris":{"android":"levelo://app?vid=ff935539-6b7f-4917-ab5e-f18369d4b7d5","ios":"levelo://app?vid=ff935539-6b7f-4917-ab5e-f18369d4b7d5"},"vehicle_type_id":"4","last_reported":1729616863,"current_range_meters":4000,"station_id":"ce4bhnh2rcd13ifvqgtg","pricing_plan_id":"cebpf4jnsgd1na2vs0mg"},{"bike_id":"cb76721d-309b-46b4-95c9-b3ebbff867c1","system_id":"levelo_inurba_marseille","lat":43.30954,"lon":5.39029,"is_reserved":false,"is_disabled":false,"rental_uris":{"android":"levelo://app?vid=cb76721d-309b-46b4-95c9-b3ebbff867c1","ios":"levelo://app?vid=cb76721d-309b-46b4-95c9-b3ebbff867c1"},"vehicle_type_id":"4","last_reported":1729616863,"current_range_meters":6400,"station_id":"ce4bgup2rcd13ifvqco0","pricing_plan_id":"cebpf4jnsgd1na2vs0mg"},{"bike_id":"b0be341f-0ab8-45d1-9154-f0ecdec5a6fb","system_id":"levelo_inurba_marseille","lat":43.27998,"lon":5.40057,"is_reserved":false,"is_disabled":false,"rental_uris":{"android":"levelo://app?vid=b0be341f-0ab8-45d1-9154-f0ecdec5a6fb","ios":"levelo://app?vid=b0be341f-0ab8-45d1-9154-f0ecdec5a6fb"},"vehicle_type_id":"4","last_reported":1729616863,"current_range_meters":5600,"station_id":"ce4bho92rcd13ifvqh4g","pricing_plan_id":"cebpf4jnsgd1na2vs0mg"},{"bike_id":"af13e376-71b2-4ae5-99b7-eee88ddacbdd","system_id":"levelo_inurba_marseille","lat":43.27812,"lon":5.40712,"is_reserved":false,"is_disabled":false,"rental_uris":{"android":"levelo://app?vid=af13e376-71b2-4ae5-99b7-eee88ddacbdd","ios":"levelo://app?vid=af13e376-71b2-4ae5-99b7-eee88ddacbdd"},"vehicle_type_id":"4","last_reported":1729616863,"current_range_meters":38400,"station_id":"ce4bhnh2rcd13ifvqgtg","pricing_plan_id":"cebpf4jnsgd1na2vs0mg"},{"bike_id":"3c53e3b6-fb9e-4926-96b4-6dfa98102590","system_id":"levelo_inurba_marseille","lat":43.29971,"lon":5.38499,"is_reserved":false,"is_disabled":false,"rental_uris":{"android":"levelo://app?vid=3c53e3b6-fb9e-4926-96b4-6dfa98102590","ios":"levelo://app?vid=3c53e3b6-fb9e-4926-96b4-6dfa98102590"},"vehicle_type_id":"4","last_reported":1729616863,"current_range_meters":25600,"station_id":"ce4bgj92rcd13ifvqbd0","pricing_plan_id":"cebpf4jnsgd1na2vs0mg"},{"bike_id":"7b79ba6d-f399-4172-8beb-f7575a71638e","system_id":"levelo_inurba_marseille","lat":43.28159,"lon":5.42644,"is_reserved":false,"is_disabled":false,"rental_uris":{"android":"levelo://app?vid=7b79ba6d-f399-4172-8beb-f7575a71638e","ios":"levelo://app?vid=7b79ba6d-f399-4172-8beb-f7575a71638e"},"vehicle_type_id":"4","last_reported":1729616863,"current_range_meters":18000,"station_id":"ce4bhnh2rcd13ifvqgug","pricing_plan_id":"cebpf4jnsgd1na2vs0mg"},{"bike_id":"94ad4a10-5350-498b-9f32-979c7dffb6e5","system_id":"levelo_inurba_marseille","lat":43.31358,"lon":5.38502,"is_reserved":false,"is_disabled":false,"rental_uris":{"android":"levelo://app?vid=94ad4a10-5350-498b-9f32-979c7dffb6e5","ios":"levelo://app?vid=94ad4a10-5350-498b-9f32-979c7dffb6e5"},"vehicle_type_id":"4","last_reported":1729616863,"current_range_meters":37600,"station_id":"ce4bgt92rcd13ifvqcf0","pricing_plan_id":"cebpf4jnsgd1na2vs0mg"},{"bike_id":"8f921518-8f48-41d4-ba09-ed1df2d94c72","system_id":"levelo_inurba_marseille","lat":43.31714,"lon":5.37398,"is_reserved":false,"is_disabled":false,"rental_uris":{"android":"levelo://app?vid=8f921518-8f48-41d4-ba09-ed1df2d94c72","ios":"levelo://app?vid=8f921518-8f48-41d4-ba09-ed1df2d94c72"},"vehicle_type_id":"4","last_reported":1729616863,"current_range_meters":11600,"station_id":"","pricing_plan_id":"cebpf4jnsgd1na2vs0mg"},{"bike_id":"f0ce26d1-0b80-48c6-9654-3618e6077fc9","system_id":"levelo_inurba_marseille","lat":43.2862,"lon":5.35108,"is_reserved":false,"is_disabled":false,"rental_uris":{"android":"levelo://app?vid=f0ce26d1-0b80-48c6-9654-3618e6077fc9","ios":"levelo://app?vid=f0ce26d1-0b80-48c6-9654-3618e6077fc9"},"vehicle_type_id":"4","last_reported":1729616863,"current_range_meters":2000,"station_id":"ce4bhch2rcd13ifvqeug","pricing_plan_id":"cebpf4jnsgd1na2vs0mg"},{"bike_id":"90b16f6b-d3a4-48e3-91e4-9e359cdb67b8","system_id":"levelo_inurba_marseille","lat":43.30889,"lon":5.39658,"is_reserved":false,"is_disabled":false,"rental_uris":{"android":"levelo://app?vid=90b16f6b-d3a4-48e3-91e4-9e359cdb67b8","ios":"levelo://app?vid=90b16f6b-d3a4-48e3-91e4-9e359cdb67b8"},"vehicle_type_id":"4","last_reported":1729616863,"current_range_meters":20000,"station_id":"ce4bh012rcd13ifvqcv0","pricing_plan_id":"cebpf4jnsgd1na2vs0mg"},{"bike_id":"0290e71e-6b1e-4655-9276-6d47b2f39717","system_id":"levelo_inurba_marseille","lat":43.29106,"lon":5.41756,"is_reserved":false,"is_disabled":false,"rental_uris":{"android":"levelo://app?vid=0290e71e-6b1e-4655-9276-6d47b2f39717","ios":"levelo://app?vid=0290e71e-6b1e-4655-9276-6d47b2f39717"},"vehicle_type_id":"4","last_reported":1729616863,"current_range_meters":22400,"station_id":"ce4bh192rcd13ifvqdc0","pricing_plan_id":"cebpf4jnsgd1na2vs0mg"},{"bike_id":"be94c911-2edc-4078-80d5-9de88e22d77c","system_id":"levelo_inurba_marseille","lat":43.28356,"lon":5.38103,"is_reserved":false,"is_disabled":false,"rental_uris":{"android":"levelo://app?vid=be94c911-2edc-4078-80d5-9de88e22d77c","ios":"levelo://app?vid=be94c911-2edc-4078-80d5-9de88e22d77c"},"vehicle_type_id":"4","last_reported":1729616863,"current_range_meters":35200,"station_id":"ce4bh412rcd13ifvqdr0","pricing_plan_id":"cebpf4jnsgd1na2vs0mg"},{"bike_id":"1703cae2-85dd-4d2f-b250-7e240ed3c33d","system_id":"levelo_inurba_marseille","lat":43.28157,"lon":5.42639,"is_reserved":false,"is_disabled":false,"rental_uris":{"android":"levelo://app?vid=1703cae2-85dd-4d2f-b250-7e240ed3c33d","ios":"levelo://app?vid=1703cae2-85dd-4d2f-b250-7e240ed3c33d"},"vehicle_type_id":"4","last_reported":1729616863,"current_range_meters":24800,"station_id":"ce4bhnh2rcd13ifvqgug","pricing_plan_id":"cebpf4jnsgd1na2vs0mg"},{"bike_id":"57a4d301-e11d-4c1f-9186-2f44dbef1a7c","system_id":"levelo_inurba_marseille","lat":43.33757,"lon":5.37435,"is_reserved":false,"is_disabled":false,"rental_uris":{"android":"levelo://app?vid=57a4d301-e11d-4c1f-9186-2f44dbef1a7c","ios":"levelo://app?vid=57a4d301-e11d-4c1f-9186-2f44dbef1a7c"},"vehicle_type_id":"4","last_reported":1729616863,"current_range_meters":34000,"station_id":"","pricing_plan_id":"cebpf4jnsgd1na2vs0mg"},{"bike_id":"0442b7fd-0998-4765-a218-c5830c343685","system_id":"levelo_inurba_marseille","lat":43.249939,"lon":5.389318,"is_reserved":false,"is_disabled":false,"rental_uris":{"android":"levelo://app?vid=0442b7fd-0998-4765-a218-c5830c343685","ios":"levelo://app?vid=0442b7fd-0998-4765-a218-c5830c343685"},"vehicle_type_id":"4","last_reported":1729616863,"current_range_meters":3600,"station_id":"ce4bhgp2rcd13ifvqfd0","pricing_plan_id":"cebpf4jnsgd1na2vs0mg"},{"bike_id":"7cb6dc2c-edda-4755-beaf-bd24e05830e7","system_id":"levelo_inurba_marseille","lat":43.31879,"lon":5.40763,"is_reserved":false,"is_disabled":false,"rental_uris":{"android":"levelo://app?vid=7cb6dc2c-edda-4755-beaf-bd24e05830e7","ios":"levelo://app?vid=7cb6dc2c-edda-4755-beaf-bd24e05830e7"},"vehicle_type_id":"4","last_reported":1729616863,"current_range_meters":28400,"station_id":"ce4bhq12rcd13ifvqhig","pricing_plan_id":"cebpf4jnsgd1na2vs0mg"},{"bike_id":"85b6cbe5-7907-45c7-a332-23d71b7642a6","system_id":"levelo_inurba_marseille","lat":43.31328,"lon":5.39698,"is_reserved":false,"is_disabled":false,"rental_uris":{"android":"levelo://app?vid=85b6cbe5-7907-45c7-a332-23d71b7642a6","ios":"levelo://app?vid=85b6cbe5-7907-45c7-a332-23d71b7642a6"},"vehicle_type_id":"4","last_reported":1729616863,"current_range_meters":4000,"station_id":"ce4bgvp2rcd13ifvqcu0","pricing_plan_id":"cebpf4jnsgd1na2vs0mg"},{"bike_id":"79dcd9c4-6ed7-4723-8f85-ff20b2b9c2da","system_id":"levelo_inurba_marseille","lat":43.28408,"lon":5.37528,"is_reserved":false,"is_disabled":false,"rental_uris":{"android":"levelo://app?vid=79dcd9c4-6ed7-4723-8f85-ff20b2b9c2da","ios":"levelo://app?vid=79dcd9c4-6ed7-4723-8f85-ff20b2b9c2da"},"vehicle_type_id":"4","last_reported":1729616863,"current_range_meters":27600,"station_id":"ce4bh412rcd13ifvqds0","pricing_plan_id":"cebpf4jnsgd1na2vs0mg"},{"bike_id":"e0bdc68e-9027-4750-b639-53b663eead9a","system_id":"levelo_inurba_marseille","lat":43.29887,"lon":5.38889,"is_reserved":false,"is_disabled":false,"rental_uris":{"android":"levelo://app?vid=e0bdc68e-9027-4750-b639-53b663eead9a","ios":"levelo://app?vid=e0bdc68e-9027-4750-b639-53b663eead9a"},"vehicle_type_id":"4","last_reported":1729616863,"current_range_meters":2800,"station_id":"ce4bh392rcd13ifvqdl0","pricing_plan_id":"cebpf4jnsgd1na2vs0mg"},{"bike_id":"24c8fe93-74dd-416f-b2d8-280f15992039","system_id":"levelo_inurba_marseille","lat":43.27375,"lon":5.36267,"is_reserved":false,"is_disabled":false,"rental_uris":{"android":"levelo://app?vid=24c8fe93-74dd-416f-b2d8-280f15992039","ios":"levelo://app?vid=24c8fe93-74dd-416f-b2d8-280f15992039"},"vehicle_type_id":"4","last_reported":1729616863,"current_range_meters":9600,"station_id":"ce4bhbh2rcd13ifvqeo0","pricing_plan_id":"cebpf4jnsgd1na2vs0mg"},{"bike_id":"7b378451-27a4-4177-b0c3-9a1d00f70fe9","system_id":"levelo_inurba_marseille","lat":43.29531,"lon":5.38544,"is_reserved":false,"is_disabled":false,"rental_uris":{"android":"levelo://app?vid=7b378451-27a4-4177-b0c3-9a1d00f70fe9","ios":"levelo://app?vid=7b378451-27a4-4177-b0c3-9a1d00f70fe9"},"vehicle_type_id":"4","last_reported":1729616863,"current_range_meters":10000,"station_id":"ce4bgih2rcd13ifvqba0","pricing_plan_id":"cebpf4jnsgd1na2vs0mg"},{"bike_id":"ba86ffd5-dcba-4a87-98b1-7e242c350119","system_id":"levelo_inurba_marseille","lat":43.30964,"lon":5.39033,"is_reserved":false,"is_disabled":false,"rental_uris":{"android":"levelo://app?vid=ba86ffd5-dcba-4a87-98b1-7e242c350119","ios":"levelo://app?vid=ba86ffd5-dcba-4a87-98b1-7e242c350119"},"vehicle_type_id":"4","last_reported":1729616863,"current_range_meters":36400,"station_id":"ce4bgup2rcd13ifvqco0","pricing_plan_id":"cebpf4jnsgd1na2vs0mg"},{"bike_id":"46335d8c-e2b7-4d33-aa54-52908399e3c0","system_id":"levelo_inurba_marseille","lat":43.26213,"lon":5.37447,"is_reserved":false,"is_disabled":false,"rental_uris":{"android":"levelo://app?vid=46335d8c-e2b7-4d33-aa54-52908399e3c0","ios":"levelo://app?vid=46335d8c-e2b7-4d33-aa54-52908399e3c0"},"vehicle_type_id":"4","last_reported":1729616863,"current_range_meters":21600,"station_id":"ce4bhgp2rcd13ifvqfc0","pricing_plan_id":"cebpf4jnsgd1na2vs0mg"},{"bike_id":"ec227404-514e-4eea-839a-0b858fe1567c","system_id":"levelo_inurba_marseille","lat":43.27623,"lon":5.36108,"is_reserved":false,"is_disabled":false,"rental_uris":{"android":"levelo://app?vid=ec227404-514e-4eea-839a-0b858fe1567c","ios":"levelo://app?vid=ec227404-514e-4eea-839a-0b858fe1567c"},"vehicle_type_id":"4","last_reported":1729616863,"current_range_meters":8800,"station_id":"ce4bgj92rcd13ifvqbe0","pricing_plan_id":"cebpf4jnsgd1na2vs0mg"},{"bike_id":"123317e6-f2a4-4d2e-b14f-1c83ddef9d45","system_id":"levelo_inurba_marseille","lat":43.313707,"lon":5.384861,"is_reserved":false,"is_disabled":false,"rental_uris":{"android":"levelo://app?vid=123317e6-f2a4-4d2e-b14f-1c83ddef9d45","ios":"levelo://app?vid=123317e6-f2a4-4d2e-b14f-1c83ddef9d45"},"vehicle_type_id":"4","last_reported":1729616863,"current_range_meters":17200,"station_id":"ce4bhap2rcd13ifvqek0","pricing_plan_id":"cebpf4jnsgd1na2vs0mg"},{"bike_id":"ca143d8c-6c2d-49f7-b067-b04f7516cb38","system_id":"levelo_inurba_marseille","lat":43.32001,"lon":5.38163,"is_reserved":false,"is_disabled":false,"rental_uris":{"android":"levelo://app?vid=ca143d8c-6c2d-49f7-b067-b04f7516cb38","ios":"levelo://app?vid=ca143d8c-6c2d-49f7-b067-b04f7516cb38"},"vehicle_type_id":"4","last_reported":1729616863,"current_range_meters":10800,"station_id":"ce4bhr12rcd13ifvqhpg","pricing_plan_id":"cebpf4jnsgd1na2vs0mg"},{"bike_id":"177c8e2a-1535-49b8-8dfe-6776fe834adc","system_id":"levelo_inurba_marseille","lat":43.289443,"lon":5.396328,"is_reserved":false,"is_disabled":false,"rental_uris":{"android":"levelo://app?vid=177c8e2a-1535-49b8-8dfe-6776fe834adc","ios":"levelo://app?vid=177c8e2a-1535-49b8-8dfe-6776fe834adc"},"vehicle_type_id":"4","last_reported":1729616863,"current_range_meters":8400,"station_id":"ce4bh3h2rcd13ifvqdn0","pricing_plan_id":"cebpf4jnsgd1na2vs0mg"},{"bike_id":"5e9ddd38-0c6a-46e7-9abf-f6f358dfc8d4","system_id":"levelo_inurba_marseille","lat":43.23197,"lon":5.35548,"is_reserved":false,"is_disabled":false,"rental_uris":{"android":"levelo://app?vid=5e9ddd38-0c6a-46e7-9abf-f6f358dfc8d4","ios":"levelo://app?vid=5e9ddd38-0c6a-46e7-9abf-f6f358dfc8d4"},"vehicle_type_id":"4","last_reported":1729616863,"current_range_meters":7200,"station_id":"ce4bhu92rcd13ifvqi70","pricing_plan_id":"cebpf4jnsgd1na2vs0mg"},{"bike_id":"75c1e567-9525-4d0d-84e8-b7ae2643ff9e","system_id":"levelo_inurba_marseille","lat":43.24803,"lon":5.37461,"is_reserved":false,"is_disabled":false,"rental_uris":{"android":"levelo://app?vid=75c1e567-9525-4d0d-84e8-b7ae2643ff9e","ios":"levelo://app?vid=75c1e567-9525-4d0d-84e8-b7ae2643ff9e"},"vehicle_type_id":"4","last_reported":1729616863,"current_range_meters":29600,"station_id":"ce4bhgh2rcd13ifvqfb0","pricing_plan_id":"cebpf4jnsgd1na2vs0mg"},{"bike_id":"6716ed74-67c0-4df4-b487-a2b801939997","system_id":"levelo_inurba_marseille","lat":43.27072,"lon":5.42282,"is_reserved":false,"is_disabled":false,"rental_uris":{"android":"levelo://app?vid=6716ed74-67c0-4df4-b487-a2b801939997","ios":"levelo://app?vid=6716ed74-67c0-4df4-b487-a2b801939997"},"vehicle_type_id":"4","last_reported":1729616863,"current_range_meters":23200,"station_id":"ce4bhk92rcd13ifvqgb0","pricing_plan_id":"cebpf4jnsgd1na2vs0mg"},{"bike_id":"c953233b-5c99-4c8c-8cb0-598661221565","system_id":"levelo_inurba_marseille","lat":43.23191,"lon":5.35558,"is_reserved":false,"is_disabled":false,"rental_uris":{"android":"levelo://app?vid=c953233b-5c99-4c8c-8cb0-598661221565","ios":"levelo://app?vid=c953233b-5c99-4c8c-8cb0-598661221565"},"vehicle_type_id":"4","last_reported":1729616863,"current_range_meters":39200,"station_id":"ce4bhu92rcd13ifvqi70","pricing_plan_id":"cebpf4jnsgd1na2vs0mg"},{"bike_id":"cb438502-67fc-43c4-bea3-3f479c5a0eb0","system_id":"levelo_inurba_marseille","lat":43.23194,"lon":5.35551,"is_reserved":false,"is_disabled":false,"rental_uris":{"android":"levelo://app?vid=cb438502-67fc-43c4-bea3-3f479c5a0eb0","ios":"levelo://app?vid=cb438502-67fc-43c4-bea3-3f479c5a0eb0"},"vehicle_type_id":"4","last_reported":1729616863,"current_range_meters":23200,"station_id":"ce4bhu92rcd13ifvqi70","pricing_plan_id":"cebpf4jnsgd1na2vs0mg"},{"bike_id":"0f2f7f58-997f-47d1-b016-6eb384883204","system_id":"levelo_inurba_marseille","lat":43.28937,"lon":5.36651,"is_reserved":false,"is_disabled":false,"rental_uris":{"android":"levelo://app?vid=0f2f7f58-997f-47d1-b016-6eb384883204","ios":"levelo://app?vid=0f2f7f58-997f-47d1-b016-6eb384883204"},"vehicle_type_id":"4","last_reported":1729616863,"current_range_meters":18000,"station_id":"ce4bhap2rcd13ifvqek0","pricing_plan_id":"cebpf4jnsgd1na2vs0mg"},{"bike_id":"db43a05f-51f2-43ee-91f0-40ba1f246586","system_id":"levelo_inurba_marseille","lat":43.30598,"lon":5.37249,"is_reserved":false,"is_disabled":false,"rental_uris":{"android":"levelo://app?vid=db43a05f-51f2-43ee-91f0-40ba1f246586","ios":"levelo://app?vid=db43a05f-51f2-43ee-91f0-40ba1f246586"},"vehicle_type_id":"4","last_reported":1729616863,"current_range_meters":37600,"station_id":"ce4bgqh2rcd13ifvqc4g","pricing_plan_id":"cebpf4jnsgd1na2vs0mg"},{"bike_id":"3777b3ae-8836-49db-b778-3392ec2efd3c","system_id":"levelo_inurba_marseille","lat":43.25123,"lon":5.40318,"is_reserved":false,"is_disabled":false,"rental_uris":{"android":"levelo://app?vid=3777b3ae-8836-49db-b778-3392ec2efd3c","ios":"levelo://app?vid=3777b3ae-8836-49db-b778-3392ec2efd3c"},"vehicle_type_id":"4","last_reported":1729616863,"current_range_meters":19200,"station_id":"ce4bhlh2rcd13ifvqgig","pricing_plan_id":"cebpf4jnsgd1na2vs0mg"},{"bike_id":"fb8c9149-ad9c-46a6-b0f1-0659b53e9eae","system_id":"levelo_inurba_marseille","lat":43.28153,"lon":5.42649,"is_reserved":false,"is_disabled":false,"rental_uris":{"android":"levelo://app?vid=fb8c9149-ad9c-46a6-b0f1-0659b53e9eae","ios":"levelo://app?vid=fb8c9149-ad9c-46a6-b0f1-0659b53e9eae"},"vehicle_type_id":"4","last_reported":1729616863,"current_range_meters":17200,"station_id":"ce4bhnh2rcd13ifvqgug","pricing_plan_id":"cebpf4jnsgd1na2vs0mg"},{"bike_id":"f6f08405-5415-48ce-a05d-8c6e6f40fe39","system_id":"levelo_inurba_marseille","lat":43.31363,"lon":5.38498,"is_reserved":false,"is_disabled":false,"rental_uris":{"android":"levelo://app?vid=f6f08405-5415-48ce-a05d-8c6e6f40fe39","ios":"levelo://app?vid=f6f08405-5415-48ce-a05d-8c6e6f40fe39"},"vehicle_type_id":"4","last_reported":1729616863,"current_range_meters":21600,"station_id":"ce4bgt92rcd13ifvqcf0","pricing_plan_id":"cebpf4jnsgd1na2vs0mg"},{"bike_id":"3ca3ba1e-f19c-4c3d-ae70-802a0601ffbb","system_id":"levelo_inurba_marseille","lat":43.24076,"lon":5.37766,"is_reserved":false,"is_disabled":false,"rental_uris":{"android":"levelo://app?vid=3ca3ba1e-f19c-4c3d-ae70-802a0601ffbb","ios":"levelo://app?vid=3ca3ba1e-f19c-4c3d-ae70-802a0601ffbb"},"vehicle_type_id":"4","last_reported":1729616863,"current_range_meters":12400,"station_id":"ce4bhnp2rcd13ifvqgvg","pricing_plan_id":"cebpf4jnsgd1na2vs0mg"},{"bike_id":"60edb1c4-bf75-4387-8847-0297f34f0c24","system_id":"levelo_inurba_marseille","lat":43.28097,"lon":5.37848,"is_reserved":false,"is_disabled":false,"rental_uris":{"android":"levelo://app?vid=60edb1c4-bf75-4387-8847-0297f34f0c24","ios":"levelo://app?vid=60edb1c4-bf75-4387-8847-0297f34f0c24"},"vehicle_type_id":"4","last_reported":1729616863,"current_range_meters":17200,"station_id":"ce4bha12rcd13ifvqee0","pricing_plan_id":"cebpf4jnsgd1na2vs0mg"},