{"last_updated":1724256679,"ttl":30,"version":"2.2","data":{"bikes":[{"bike_id":"524feb3a-7097-4471-bbf0-fb1373236439","system_id":"levelo_inurba_marseille","lat":43.30865,"lon":5.370483,"is_reserved":false,"is_disabled":false,"rental_uris":{"android":"levelo://app?vid=524feb3a-7097-4471-bbf0-fb1373236439","ios":"levelo://app?vid=524feb3a-7097-4471-bbf0-fb1373236439"},"vehicle_type_id":"4","last_reported":1724256679,"current_range_meters":0,"station_id":"","pricing_plan_id":"cebpf4jnsgd1na2vs0mg"},{"bike_id":"f8c250d3-44fe-4e36-aeb4-b2c18047ab84","system_id":"levelo_inurba_marseille","lat":43.303046,"lon":5.368981,"is_reserved":false,"is_disabled":false,"rental_uris":{"android":"levelo://app?vid=f8c250d3-44fe-4e36-aeb4-b2c18047ab84","ios":"levelo://app?vid=f8c250d3-44fe-4e36-aeb4-b2c18047ab84"},"vehicle_type_id":"4","last_reported":1724256679,"current_range_meters":23600,"station_id":"ce4bgqh2rcd13ifvqc5g","pricing_plan_id":"cebpf4jnsgd1na2vs0mg"},{"bike_id":"79a838eb-80e5-49cd-986d-417cc036cdc1","system_id":"levelo_inurba_marseille","lat":43.30545,"lon":5.367,"is_reserved":false,"is_disabled":false,"rental_uris":{"android":"levelo://app?vid=79a838eb-80e5-49cd-986d-417cc036cdc1","ios":"levelo://app?vid=79a838eb-80e5-49cd-986d-417cc036cdc1"},"vehicle_type_id":"4","last_reported":1724256679,"current_range_meters":0,"station_id":"ce4bgrp2rcd13ifvqc9g","pricing_plan_id":"cebpf4jnsgd1na2vs0mg"},{"bike_id":"592edbb0-cbef-4c32-a0c2-2c9c92d3fc9b","system_id":"levelo_inurba_marseille","lat":43.305712,"lon":5.365641,"is_reserved":false,"is_disabled":false,"rental_uris":{"android":"levelo://app?vid=592edbb0-cbef-4c32-a0c2-2c9c92d3fc9b","ios":"levelo://app?vid=592edbb0-cbef-4c32-a0c2-2c9c92d3fc9b"},"vehicle_type_id":"4","last_reported":1724256679,"current_range_meters":0,"station_id":"ce4bgs12rcd13ifvqcag","pricing_plan_id":"cebpf4jnsgd1na2vs0mg"},{"bike_id":"d807718a-344f-4f1d-b79d-33229619f215","system_id":"levelo_inurba_marseille","lat":43.305989,"lon":5.37225,"is_reserved":false,"is_disabled":false,"rental_uris":{"android":"levelo://app?vid=d807718a-344f-4f1d-b79d-33229619f215","ios":"levelo://app?vid=d807718a-344f-4f1d-b79d-33229619f215"},"vehicle_type_id":"4","last_reported":1724256679,"current_range_meters":4400,"station_id":"ce4bgqh2rcd13ifvqc4g","pricing_plan_id":"cebpf4jnsgd1na2vs0mg"},{"bike_id":"f2a216a7-1266-43e5-ab38-d49e7cd14995","system_id":"levelo_inurba_marseille","lat":43.306607,"lon":5.373668,"is_reserved":false,"is_disabled":false,"rental_uris":{"android":"levelo://app?vid=f2a216a7-1266-43e5-ab38-d49e7cd14995","ios":"levelo://app?vid=f2a216a7-1266-43e5-ab38-d49e7cd14995"},"vehicle_type_id":"4","last_reported":1724256679,"current_range_meters":12000,"station_id":"","pricing_plan_id":"cebpf4jnsgd1na2vs0mg"},{"bike_id":"63800b39-a3eb-4ed9-8c62-a856303d86ed","system_id":"levelo_inurba_marseille","lat":43.31714,"lon":5.377403,"is_reserved":false,"is_disabled":false,"rental_uris":{"android":"levelo://app?vid=63800b39-a3eb-4ed9-8c62-a856303d86ed","ios":"levelo://app?vid=63800b39-a3eb-4ed9-8c62-a856303d86ed"},"vehicle_type_id":"4","last_reported":1724256679,"current_range_meters":29600,"station_id":"ce4bgth2rcd13ifvqch0","pricing_plan_id":"cebpf4jnsgd1na2vs0mg"},{"bike_id":"87705ef3-ab9e-4780-a0de-da72dfca189b","system_id":"levelo_inurba_marseille","lat":43.30304,"lon":5.368987,"is_reserved":false,"is_disabled":false,"rental_uris":{"android":"levelo://app?vid=87705ef3-ab9e-4780-a0de-da72dfca189b","ios":"levelo://app?vid=87705ef3-ab9e-4780-a0de-da72dfca189b"},"vehicle_type_id":"4","last_reported":1724256679,"current_range_meters":8000,"station_id":"ce4bgqh2rcd13ifvqc5g","pricing_plan_id":"cebpf4jnsgd1na2vs0mg"},{"bike_id":"6fffaa63-2016-4c6b-914f-9b0d026bfe5c","system_id":"levelo_inurba_marseille","lat":43.315289,"lon":5.380349,"is_reserved":false,"is_disabled":false,"rental_uris":{"android":"levelo://app?vid=6fffaa63-2016-4c6b-914f-9b0d026bfe5c","ios":"levelo://app?vid=6fffaa63-2016-4c6b-914f-9b0d026bfe5c"},"vehicle_type_id":"4","last_reported":1724256679,"current_range_meters":8400,"station_id":"ce4bhsp2rcd13ifvqi50","pricing_plan_id":"cebpf4jnsgd1na2vs0mg"},{"bike_id":"05f061f5-7b3a-4e9e-887d-4b89834276cb","system_id":"levelo_inurba_marseille","lat":43.315289,"lon":5.380349,"is_reserved":false,"is_disabled":false,"rental_uris":{"android":"levelo://app?vid=05f061f5-7b3a-4e9e-887d-4b89834276cb","ios":"levelo://app?vid=05f061f5-7b3a-4e9e-887d-4b89834276cb"},"vehicle_type_id":"4","last_reported":1724256679,"current_range_meters":31200,"station_id":"ce4bhsp2rcd13ifvqi50","pricing_plan_id":"cebpf4jnsgd1na2vs0mg"},{"bike_id":"8e18b869-92d2-4185-b630-77610775fe71","system_id":"levelo_inurba_marseille","lat":43.301939,"lon":5.366286,"is_reserved":false,"is_disabled":false,"rental_uris":{"android":"levelo://app?vid=8e18b869-92d2-4185-b630-77610775fe71","ios":"levelo://app?vid=8e18b869-92d2-4185-b630-77610775fe71"},"vehicle_type_id":"4","last_reported":1724256679,"current_range_meters":18800,"station_id":"ce4bgrh2rcd13ifvqc8g","pricing_plan_id":"cebpf4jnsgd1na2vs0mg"},{"bike_id":"56cbf5b8-5584-44b0-ba29-ffbd21d0f217","system_id":"levelo_inurba_marseille","lat":43.301939,"lon":5.366286,"is_reserved":false,"is_disabled":false,"rental_uris":{"android":"levelo://app?vid=56cbf5b8-5584-44b0-ba29-ffbd21d0f217","ios":"levelo://app?vid=56cbf5b8-5584-44b0-ba29-ffbd21d0f217"},"vehicle_type_id":"4","last_reported":1724256679,"current_range_meters":12400,"station_id":"ce4bgrh2rcd13ifvqc8g","pricing_plan_id":"cebpf4jnsgd1na2vs0mg"},{"bike_id":"287cd585-b4ea-4773-9256-d8b73127883a","system_id":"levelo_inurba_marseille","lat":43.301939,"lon":5.366286,"is_reserved":false,"is_disabled":false,"rental_uris":{"android":"levelo://app?vid=287cd585-b4ea-4773-9256-d8b73127883a","ios":"levelo://app?vid=287cd585-b4ea-4773-9256-d8b73127883a"},"vehicle_type_id":"4","last_reported":1724256679,"current_range_meters":9600,"station_id":"ce4bgrh2rcd13ifvqc8g","pricing_plan_id":"cebpf4jnsgd1na2vs0mg"},{"bike_id":"e1f286bb-e993-4245-a4df-1f4181fa57c6","system_id":"levelo_inurba_marseille","lat":43.30737,"lon":5.38031,"is_reserved":false,"is_disabled":false,"rental_uris":{"android":"levelo://app?vid=e1f286bb-e993-4245-a4df-1f4181fa57c6","ios":"levelo://app?vid=e1f286bb-e993-4245-a4df-1f4181fa57c6"},"vehicle_type_id":"4","last_reported":1724256679,"current_range_meters":12800,"station_id":"","pricing_plan_id":"cebpf4jnsgd1na2vs0mg"},{"bike_id":"909101b1-90ee-44af-b6a4-c3442c7b0c25","system_id":"levelo_inurba_marseille","lat":43.308012,"lon":5.381511,"is_reserved":false,"is_disabled":false,"rental_uris":{"android":"levelo://app?vid=909101b1-90ee-44af-b6a4-c3442c7b0c25","ios":"levelo://app?vid=909101b1-90ee-44af-b6a4-c3442c7b0c25"},"vehicle_type_id":"4","last_reported":1724256679,"current_range_meters":15600,"station_id":"ce4bgt12rcd13ifvqce0","pricing_plan_id":"cebpf4jnsgd1na2vs0mg"},{"bike_id":"98115113-b436-40d9-87bb-3b3e82cf6847","system_id":"levelo_inurba_marseille","lat":43.308038,"lon":5.381538,"is_reserved":false,"is_disabled":false,"rental_uris":{"android":"levelo://app?vid=98115113-b436-40d9-87bb-3b3e82cf6847","ios":"levelo://app?vid=98115113-b436-40d9-87bb-3b3e82cf6847"},"vehicle_type_id":"4","last_reported":1724256679,"current_range_meters":0,"station_id":"ce4bgt12rcd13ifvqce0","pricing_plan_id":"cebpf4jnsgd1na2vs0mg"},{"bike_id":"91b4b8fd-54a4-4262-a27b-f0c7dbfe7c81","system_id":"levelo_inurba_marseille","lat":43.324771,"lon":5.36557,"is_reserved":false,"is_disabled":false,"rental_uris":{"android":"levelo://app?vid=91b4b8fd-54a4-4262-a27b-f0c7dbfe7c81","ios":"levelo://app?vid=91b4b8fd-54a4-4262-a27b-f0c7dbfe7c81"},"vehicle_type_id":"4","last_reported":1724256679,"current_range_meters":2800,"station_id":"ce4bhs12rcd13ifvqhvg","pricing_plan_id":"cebpf4jnsgd1na2vs0mg"},{"bike_id":"d0724eea-3fc7-4365-8b73-51e0ee694bd7","system_id":"levelo_inurba_marseille","lat":43.324771,"lon":5.36557,"is_reserved":false,"is_disabled":false,"rental_uris":{"android":"levelo://app?vid=d0724eea-3fc7-4365-8b73-51e0ee694bd7","ios":"levelo://app?vid=d0724eea-3fc7-4365-8b73-51e0ee694bd7"},"vehicle_type_id":"4","last_reported":1724256679,"current_range_meters":30000,"station_id":"ce4bhs12rcd13ifvqhvg","pricing_plan_id":"cebpf4jnsgd1na2vs0mg"},{"bike_id":"b1f6f36d-387d-47cb-a792-fbb853888376","system_id":"levelo_inurba_marseille","lat":43.324771,"lon":5.36557,"is_reserved":false,"is_disabled":false,"rental_uris":{"android":"levelo://app?vid=b1f6f36d-387d-47cb-a792-fbb853888376","ios":"levelo://app?vid=b1f6f36d-387d-47cb-a792-fbb853888376"},"vehicle_type_id":"4","last_reported":1724256679,"current_range_meters":31200,"station_id":"ce4bhs12rcd13ifvqhvg","pricing_plan_id":"cebpf4jnsgd1na2vs0mg"},{"bike_id":"58d51d3b-4c8f-4d49-9b0c-e44fd37ca954","system_id":"levelo_inurba_marseille","lat":43.310804,"lon":5.38359,"is_reserved":false,"is_disabled":false,"rental_uris":{"android":"levelo://app?vid=58d51d3b-4c8f-4d49-9b0c-e44fd37ca954","ios":"levelo://app?vid=58d51d3b-4c8f-4d49-9b0c-e44fd37ca954"},"vehicle_type_id":"4","last_reported":1724256679,"current_range_meters":13600,"station_id":"ce4bgv92rcd13ifvqcr0","pricing_plan_id":"cebpf4jnsgd1na2vs0mg"},{"bike_id":"0a7cacd5-a6f5-48c0-9b8f-8bc77fccc4a6","system_id":"levelo_inurba_marseille","lat":43.310804,"lon":5.38359,"is_reserved":false,"is_disabled":false,"rental_uris":{"android":"levelo://app?vid=0a7cacd5-a6f5-48c0-9b8f-8bc77fccc4a6","ios":"levelo://app?vid=0a7cacd5-a6f5-48c0-9b8f-8bc77fccc4a6"},"vehicle_type_id":"4","last_reported":1724256679,"current_range_meters":0,"station_id":"ce4bgv92rcd13ifvqcr0","pricing_plan_id":"cebpf4jnsgd1na2vs0mg"},{"bike_id":"ea1a1c38-8cd2-401e-91fd-9d0f5f29063d","system_id":"levelo_inurba_marseille","lat":43.310804,"lon":5.38359,"is_reserved":false,"is_disabled":false,"rental_uris":{"android":"levelo://app?vid=ea1a1c38-8cd2-401e-91fd-9d0f5f29063d","ios":"levelo://app?vid=ea1a1c38-8cd2-401e-91fd-9d0f5f29063d"},"vehicle_type_id":"4","last_reported":1724256679,"current_range_meters":8800,"station_id":"ce4bgv92rcd13ifvqcr0","pricing_plan_id":"cebpf4jnsgd1na2vs0mg"},{"bike_id":"80f241a1-c6e2-4d25-bf5b-71769097733c","system_id":"levelo_inurba_marseille","lat":43.319935,"lon":5.381699,"is_reserved":false,"is_disabled":false,"rental_uris":{"android":"levelo://app?vid=80f241a1-c6e2-4d25-bf5b-71769097733c","ios":"levelo://app?vid=80f241a1-c6e2-4d25-bf5b-71769097733c"},"vehicle_type_id":"4","last_reported":1724256679,"current_range_meters":26000,"station_id":"ce4bhr12rcd13ifvqhpg","pricing_plan_id":"cebpf4jnsgd1na2vs0mg"},{"bike_id":"8bd11a18-ff2e-4e86-b315-9440187cc471","system_id":"levelo_inurba_marseille","lat":43.305948,"lon":5.381954,"is_reserved":false,"is_disabled":false,"rental_uris":{"android":"levelo://app?vid=8bd11a18-ff2e-4e86-b315-9440187cc471","ios":"levelo://app?vid=8bd11a18-ff2e-4e86-b315-9440187cc471"},"vehicle_type_id":"4","last_reported":1724256679,"current_range_meters":23600,"station_id":"","pricing_plan_id":"cebpf4jnsgd1na2vs0mg"},{"bike_id":"a113109d-1582-4ff9-b691-e74a4ae113bf","system_id":"levelo_inurba_marseille","lat":43.319935,"lon":5.381699,"is_reserved":false,"is_disabled":false,"rental_uris":{"android":"levelo://app?vid=a113109d-1582-4ff9-b691-e74a4ae113bf","ios":"levelo://app?vid=a113109d-1582-4ff9-b691-e74a4ae113bf"},"vehicle_type_id":"4","last_reported":1724256679,"current_range_meters":30800,"station_id":"ce4bhr12rcd13ifvqhpg","pricing_plan_id":"cebpf4jnsgd1na2vs0mg"},{"bike_id":"82060040-f7aa-4557-8bda-5cb237d21720","system_id":"levelo_inurba_marseille","lat":43.313571,"lon":5.384829,"is_reserved":false,"is_disabled":false,"rental_uris":{"android":"levelo://app?vid=82060040-f7aa-4557-8bda-5cb237d21720","ios":"levelo://app?vid=82060040-f7aa-4557-8bda-5cb237d21720"},"vehicle_type_id":"4","last_reported":1724256679,"current_range_meters":29600,"station_id":"ce4bgt92rcd13ifvqcf0","pricing_plan_id":"cebpf4jnsgd1na2vs0mg"},{"bike_id":"7e459561-f70f-420b-8655-83581b136a2e","system_id":"levelo_inurba_marseille","lat":43.313571,"lon":5.384829,"is_reserved":false,"is_disabled":false,"rental_uris":{"android":"levelo://app?vid=7e459561-f70f-420b-8655-83581b136a2e","ios":"levelo://app?vid=7e459561-f70f-420b-8655-83581b136a2e"},"vehicle_type_id":"4","last_reported":1724256679,"current_range_meters":2400,"station_id":"ce4bgt92rcd13ifvqcf0","pricing_plan_id":"cebpf4jnsgd1na2vs0mg"},{"bike_id":"e80382ec-38b9-402b-93d1-f394ba6ffbc1","system_id":"levelo_inurba_marseille","lat":43.29947,"lon":5.36677,"is_reserved":false,"is_disabled":false,"rental_uris":{"android":"levelo://app?vid=e80382ec-38b9-402b-93d1-f394ba6ffbc1","ios":"levelo://app?vid=e80382ec-38b9-402b-93d1-f394ba6ffbc1"},"vehicle_type_id":"4","last_reported":1724256679,"current_range_meters":12000,"station_id":"","pricing_plan_id":"cebpf4jnsgd1na2vs0mg"},{"bike_id":"47470344-489c-4494-b09c-15d711104ac9","system_id":"levelo_inurba_marseille","lat":43.29947,"lon":5.36549,"is_reserved":false,"is_disabled":false,"rental_uris":{"android":"levelo://app?vid=47470344-489c-4494-b09c-15d711104ac9","ios":"levelo://app?vid=47470344-489c-4494-b09c-15d711104ac9"},"vehicle_type_id":"4","last_reported":1724256679,"current_range_meters":0,"station_id":"ce4bgm92rcd13ifvqbr0","pricing_plan_id":"cebpf4jnsgd1na2vs0mg"},{"bike_id":"35bb4391-4e14-4972-bc2c-ecd778261992","system_id":"levelo_inurba_marseille","lat":43.325985,"lon":5.364245,"is_reserved":false,"is_disabled":false,"rental_uris":{"android":"levelo://app?vid=35bb4391-4e14-4972-bc2c-ecd778261992","ios":"levelo://app?vid=35bb4391-4e14-4972-bc2c-ecd778261992"},"vehicle_type_id":"4","last_reported":1724256679,"current_range_meters":15200,"station_id":"","pricing_plan_id":"cebpf4jnsgd1na2vs0mg"},{"bike_id":"f3cf5901-4ace-48f9-9561-aa1faf7e6e57","system_id":"levelo_inurba_marseille","lat":43.299222,"lon":5.365554,"is_reserved":false,"is_disabled":false,"rental_uris":{"android":"levelo://app?vid=f3cf5901-4ace-48f9-9561-aa1faf7e6e57","ios":"levelo://app?vid=f3cf5901-4ace-48f9-9561-aa1faf7e6e57"},"vehicle_type_id":"4","last_reported":1724256679,"current_range_meters":0,"station_id":"ce4bgm92rcd13ifvqbr0","pricing_plan_id":"cebpf4jnsgd1na2vs0mg"},{"bike_id":"26aeb9f4-b5b4-4bc3-9ecd-38b74944ae16","system_id":"levelo_inurba_marseille","lat":43.299724,"lon":5.371829,"is_reserved":false,"is_disabled":false,"rental_uris":{"android":"levelo://app?vid=26aeb9f4-b5b4-4bc3-9ecd-38b74944ae16","ios":"levelo://app?vid=26aeb9f4-b5b4-4bc3-9ecd-38b74944ae16"},"vehicle_type_id":"4","last_reported":1724256679,"current_range_meters":8400,"station_id":"ce4bgr92rcd13ifvqc7g","pricing_plan_id":"cebpf4jnsgd1na2vs0mg"},{"bike_id":"3ea3a87e-ee8a-4575-88e0-f16ddc8d4d12","system_id":"levelo_inurba_marseille","lat":43.299724,"lon":5.371829,"is_reserved":false,"is_disabled":false,"rental_uris":{"android":"levelo://app?vid=3ea3a87e-ee8a-4575-88e0-f16ddc8d4d12","ios":"levelo://app?vid=3ea3a87e-ee8a-4575-88e0-f16ddc8d4d12"},"vehicle_type_id":"4","last_reported":1724256679,"current_range_meters":17200,"station_id":"ce4bgr92rcd13ifvqc7g","pricing_plan_id":"cebpf4jnsgd1na2vs0mg"},{"bike_id":"97925d54-f575-4c18-b3dd-0bb11ed49bdf","system_id":"levelo_inurba_marseille","lat":43.29916,"lon":5.36539,"is_reserved":false,"is_disabled":false,"rental_uris":{"android":"levelo://app?vid=97925d54-f575-4c18-b3dd-0bb11ed49bdf","ios":"levelo://app?vid=97925d54-f575-4c18-b3dd-0bb11ed49bdf"},"vehicle_type_id":"4","last_reported":1724256679,"current_range_meters":0,"station_id":"ce4bgm92rcd13ifvqbr0","pricing_plan_id":"cebpf4jnsgd1na2vs0mg"},{"bike_id":"08d10e11-bf25-4a73-8116-e5b8a72e1d1b","system_id":"levelo_inurba_marseille","lat":43.298433,"lon":5.362774,"is_reserved":false,"is_disabled":false,"rental_uris":{"android":"levelo://app?vid=08d10e11-bf25-4a73-8116-e5b8a72e1d1b","ios":"levelo://app?vid=08d10e11-bf25-4a73-8116-e5b8a72e1d1b"},"vehicle_type_id":"4","last_reported":1724256679,"current_range_meters":8400,"station_id":"ce4bgpp2rcd13ifvqc3g","pricing_plan_id":"cebpf4jnsgd1na2vs0mg"},{"bike_id":"30c64d80-b3fe-44a0-9247-0bb731f5ccc3","system_id":"levelo_inurba_marseille","lat":43.298433,"lon":5.362774,"is_reserved":false,"is_disabled":false,"rental_uris":{"android":"levelo://app?vid=30c64d80-b3fe-44a0-9247-0bb731f5ccc3","ios":"levelo://app?vid=30c64d80-b3fe-44a0-9247-0bb731f5ccc3"},"vehicle_type_id":"4","last_reported":1724256679,"current_range_meters":0,"station_id":"ce4bgpp2rcd13ifvqc3g","pricing_plan_id":"cebpf4jnsgd1na2vs0mg"},{"bike_id":"e14bb822-5963-4d06-b5c0-b75e1bf4bddb","system_id":"levelo_inurba_marseille","lat":43.298433,"lon":5.362774,"is_reserved":false,"is_disabled":false,"rental_uris":{"android":"levelo://app?vid=e14bb822-5963-4d06-b5c0-b75e1bf4bddb","ios":"levelo://app?vid=e14bb822-5963-4d06-b5c0-b75e1bf4bddb"},"vehicle_type_id":"4","last_reported":1724256679,"current_range_meters":30000,"station_id":"ce4bgpp2rcd13ifvqc3g","pricing_plan_id":"cebpf4jnsgd1na2vs0mg"},{"bike_id":"b9891ccc-3174-4419-b4a8-3fd9aa0b12ee","system_id":"levelo_inurba_marseille","lat":43.298433,"lon":5.362774,"is_reserved":false,"is_disabled":false,"rental_uris":{"android":"levelo://app?vid=b9891ccc-3174-4419-b4a8-3fd9aa0b12ee","ios":"levelo://app?vid=b9891ccc-3174-4419-b4a8-3fd9aa0b12ee"},"vehicle_type_id":"4","last_reported":1724256679,"current_range_meters":24000,"station_id":"ce4bgpp2rcd13ifvqc3g","pricing_plan_id":"cebpf4jnsgd1na2vs0mg"},{"bike_id":"4cfa47f4-ba4a-4c4a-b186-c019fc5fdbf6","system_id":"levelo_inurba_marseille","lat":43.298433,"lon":5.362774,"is_reserved":false,"is_disabled":false,"rental_uris":{"android":"levelo://app?vid=4cfa47f4-ba4a-4c4a-b186-c019fc5fdbf6","ios":"levelo://app?vid=4cfa47f4-ba4a-4c4a-b186-c019fc5fdbf6"},"vehicle_type_id":"4","last_reported":1724256679,"current_range_meters":26800,"station_id":"ce4bgpp2rcd13ifvqc3g","pricing_plan_id":"cebpf4jnsgd1na2vs0mg"},{"bike_id":"45f3490f-87f7-4754-9722-920de4c390ba","system_id":"levelo_inurba_marseille","lat":43.298433,"lon":5.362774,"is_reserved":false,"is_disabled":false,"rental_uris":{"android":"levelo://app?vid=45f3490f-87f7-4754-9722-920de4c390ba","ios":"levelo://app?vid=45f3490f-87f7-4754-9722-920de4c390ba"},"vehicle_type_id":"4","last_reported":1724256679,"current_range_meters":13200,"station_id":"ce4bgpp2rcd13ifvqc3g","pricing_plan_id":"cebpf4jnsgd1na2vs0mg"},{"bike_id":"95b4a43b-2c13-453b-950a-d8676655c4da","system_id":"levelo_inurba_marseille","lat":43.298433,"lon":5.362774,"is_reserved":false,"is_disabled":false,"rental_uris":{"android":"levelo://app?vid=95b4a43b-2c13-453b-950a-d8676655c4da","ios":"levelo://app?vid=95b4a43b-2c13-453b-950a-d8676655c4da"},"vehicle_type_id":"4","last_reported":1724256679,"current_range_meters":5600,"station_id":"ce4bgpp2rcd13ifvqc3g","pricing_plan_id":"cebpf4jnsgd1na2vs0mg"},{"bike_id":"49c20c14-c3c9-4144-b3f8-5f998b1937cf","system_id":"levelo_inurba_marseille","lat":43.298433,"lon":5.362774,"is_reserved":false,"is_disabled":false,"rental_uris":{"android":"levelo://app?vid=49c20c14-c3c9-4144-b3f8-5f998b1937cf","ios":"levelo://app?vid=49c20c14-c3c9-4144-b3f8-5f998b1937cf"},"vehicle_type_id":"4","last_reported":1724256679,"current_range_meters":23600,"station_id":"ce4bgpp2rcd13ifvqc3g","pricing_plan_id":"cebpf4jnsgd1na2vs0mg"},{"bike_id":"3e4e3eee-2023-4e6b-b11d-eed405f4bcd7","system_id":"levelo_inurba_marseille","lat":43.298433,"lon":5.362774,"is_reserved":false,"is_disabled":false,"rental_uris":{"android":"levelo://app?vid=3e4e3eee-2023-4e6b-b11d-eed405f4bcd7","ios":"levelo://app?vid=3e4e3eee-2023-4e6b-b11d-eed405f4bcd7"},"vehicle_type_id":"4","last_reported":1724256679,"current_range_meters":28800,"station_id":"ce4bgpp2rcd13ifvqc3g","pricing_plan_id":"cebpf4jnsgd1na2vs0mg"},{"bike_id":"3fa35bb4-4932-4a83-bd7d-65879d3e92d5","system_id":"levelo_inurba_marseille","lat":43.298433,"lon":5.362774,"is_reserved":false,"is_disabled":false,"rental_uris":{"android":"levelo://app?vid=3fa35bb4-4932-4a83-bd7d-65879d3e92d5","ios":"levelo://app?vid=3fa35bb4-4932-4a83-bd7d-65879d3e92d5"},"vehicle_type_id":"4","last_reported":1724256679,"current_range_meters":26400,"station_id":"ce4bgpp2rcd13ifvqc3g","pricing_plan_id":"cebpf4jnsgd1na2vs0mg"},{"bike_id":"4fc3ce5b-f72a-4972-974f-1bd687f6fa09","system_id":"levelo_inurba_marseille","lat":43.311722,"lon":5.387247,"is_reserved":false,"is_disabled":false,"rental_uris":{"android":"levelo://app?vid=4fc3ce5b-f72a-4972-974f-1bd687f6fa09","ios":"levelo://app?vid=4fc3ce5b-f72a-4972-974f-1bd687f6fa09"},"vehicle_type_id":"4","last_reported":1724256679,"current_range_meters":14400,"station_id":"ce4bgv12rcd13ifvqcp0","pricing_plan_id":"cebpf4jnsgd1na2vs0mg"},{"bike_id":"22a35e7a-2cf5-409d-806f-9f9424862552","system_id":"levelo_inurba_marseille","lat":43.311722,"lon":5.387247,"is_reserved":false,"is_disabled":false,"rental_uris":{"android":"levelo://app?vid=22a35e7a-2cf5-409d-806f-9f9424862552","ios":"levelo://app?vid=22a35e7a-2cf5-409d-806f-9f9424862552"},"vehicle_type_id":"4","last_reported":1724256679,"current_range_meters":0,"station_id":"ce4bgv12rcd13ifvqcp0","pricing_plan_id":"cebpf4jnsgd1na2vs0mg"},{"bike_id":"7e121c84-918d-45ab-b392-b43ad4373bd7","system_id":"levelo_inurba_marseille","lat":43.297774,"lon":5.370875,"is_reserved":false,"is_disabled":false,"rental_uris":{"android":"levelo://app?vid=7e121c84-918d-45ab-b392-b43ad4373bd7","ios":"levelo://app?vid=7e121c84-918d-45ab-b392-b43ad4373bd7"},"vehicle_type_id":"4","last_reported":1724256679,"current_range_meters":24800,"station_id":"ce4bgop2rcd13ifvqc1g","pricing_plan_id":"cebpf4jnsgd1na2vs0mg"},{"bike_id":"5827d245-ac08-4b00-96c4-07d2878acb95","system_id":"levelo_inurba_marseille","lat":43.297774,"lon":5.370875,"is_reserved":false,"is_disabled":false,"rental_uris":{"android":"levelo://app?vid=5827d245-ac08-4b00-96c4-07d2878acb95","ios":"levelo://app?vid=5827d245-ac08-4b00-96c4-07d2878acb95"},"vehicle_type_id":"4","last_reported":1724256679,"current_range_meters":0,"station_id":"ce4bgop2rcd13ifvqc1g","pricing_plan_id":"cebpf4jnsgd1na2vs0mg"},{"bike_id":"e3149b83-f444-41f8-aa7a-e9df3425fcc4","system_id":"levelo_inurba_marseille","lat":43.322872,"lon":5.382756,"is_reserved":false,"is_disabled":false,"rental_uris":{"android":"levelo://app?vid=e3149b83-f444-41f8-aa7a-e9df3425fcc4","ios":"levelo://app?vid=e3149b83-f444-41f8-aa7a-e9df3425fcc4"},"vehicle_type_id":"4","last_reported":1724256679,"current_range_meters":30000,"station_id":"ce4bhr12rcd13ifvqhqg","pricing_plan_id":"cebpf4jnsgd1na2vs0mg"},{"bike_id":"fa871de5-86c5-4f08-befa-7e58012c0f51","system_id":"levelo_inurba_marseille","lat":43.301615,"lon":5.381405,"is_reserved":false,"is_disabled":false,"rental_uris":{"android":"levelo://app?vid=fa871de5-86c5-4f08-befa-7e58012c0f51","ios":"levelo://app?vid=fa871de5-86c5-4f08-befa-7e58012c0f51"},"vehicle_type_id":"4","last_reported":1724256679,"current_range_meters":14000,"station_id":"ce4bgjp2rcd13ifvqbh0","pricing_plan_id":"cebpf4jnsgd1na2vs0mg"},{"bike_id":"173c87e2-330e-4e49-92a9-1f77ef590222","system_id":"levelo_inurba_marseille","lat":43.29668,"lon":5.36433,"is_reserved":false,"is_disabled":false,"rental_uris":{"android":"levelo://app?vid=173c87e2-330e-4e49-92a9-1f77ef590222","ios":"levelo://app?vid=173c87e2-330e-4e49-92a9-1f77ef590222"},"vehicle_type_id":"4","last_reported":1724256679,"current_range_meters":22000,"station_id":"","pricing_plan_id":"cebpf4jnsgd1na2vs0mg"},{"bike_id":"2d3330ce-9616-46ec-bba5-f5006a6bea6d","system_id":"levelo_inurba_marseille","lat":43.295908,"lon":5.36722,"is_reserved":false,"is_disabled":false,"rental_uris":{"android":"levelo://app?vid=2d3330ce-9616-46ec-bba5-f5006a6bea6d","ios":"levelo://app?vid=2d3330ce-9616-46ec-bba5-f5006a6bea6d"},"vehicle_type_id":"4","last_reported":1724256679,"current_range_meters":7600,"station_id":"ce4bgph2rcd13ifvqc2g","pricing_plan_id":"cebpf4jnsgd1na2vs0mg"},{"bike_id":"b3d6c0f6-3fb0-45cb-86bd-1d02e523cb92","system_id":"levelo_inurba_marseille","lat":43.296131,"lon":5.370791,"is_reserved":false,"is_disabled":false,"rental_uris":{"android":"levelo://app?vid=b3d6c0f6-3fb0-45cb-86bd-1d02e523cb92","ios":"levelo://app?vid=b3d6c0f6-3fb0-45cb-86bd-1d02e523cb92"},"vehicle_type_id":"4","last_reported":1724256679,"current_range_meters":0,"station_id":"ce4bgnh2rcd13ifvqc0g","pricing_plan_id":"cebpf4jnsgd1na2vs0mg"},{"bike_id":"f5d8553c-e3b1-44a8-8083-f5ad35172cc7","system_id":"levelo_inurba_marseille","lat":43.29717,"lon":5.3769,"is_reserved":false,"is_disabled":false,"rental_uris":{"android":"levelo://app?vid=f5d8553c-e3b1-44a8-8083-f5ad35172cc7","ios":"levelo://app?vid=f5d8553c-e3b1-44a8-8083-f5ad35172cc7"},"vehicle_type_id":"4","last_reported":1724256679,"current_range_meters":6000,"station_id":"ce4bhch2rcd13ifvqeug","pricing_plan_id":"cebpf4jnsgd1na2vs0mg"},{"bike_id":"92655198-83e6-4bb6-b085-0e0ee6629eb1","system_id":"levelo_inurba_marseille","lat":43.29616,"lon":5.36054,"is_reserved":false,"is_disabled":false,"rental_uris":{"android":"levelo://app?vid=92655198-83e6-4bb6-b085-0e0ee6629eb1","ios":"levelo://app?vid=92655198-83e6-4bb6-b085-0e0ee6629eb1"},"vehicle_type_id":"4","last_reported":1724256679,"current_range_meters":13600,"station_id":"","pricing_plan_id":"cebpf4jnsgd1na2vs0mg"},{"bike_id":"5ce32136-17ee-4cac-91cd-1af1a17d5646","system_id":"levelo_inurba_marseille","lat":43.296935,"lon":5.376544,"is_reserved":false,"is_disabled":false,"rental_uris":{"android":"levelo://app?vid=5ce32136-17ee-4cac-91cd-1af1a17d5646","ios":"levelo://app?vid=5ce32136-17ee-4cac-91cd-1af1a17d5646"},"vehicle_type_id":"4","last_reported":1724256679,"current_range_meters":0,"station_id":"ce4bgkh2rcd13ifvqbl0","pricing_plan_id":"cebpf4jnsgd1na2vs0mg"},{"bike_id":"b3240d57-6fc0-4781-a1d0-4f782a406ef6","system_id":"levelo_inurba_marseille","lat":43.299028,"lon":5.381509,"is_reserved":false,"is_disabled":false,"rental_uris":{"android":"levelo://app?vid=b3240d57-6fc0-4781-a1d0-4f782a406ef6","ios":"levelo://app?vid=b3240d57-6fc0-4781-a1d0-4f782a406ef6"},"vehicle_type_id":"4","last_reported":1724256679,"current_range_meters":0,"station_id":"ce4bgj12rcd13ifvqbc0","pricing_plan_id":"cebpf4jnsgd1na2vs0mg"},{"bike_id":"1e727d7e-fdc3-47b2-892e-86e2a0e41f8d","system_id":"levelo_inurba_marseille","lat":43.305362,"lon":5.388592,"is_reserved":false,"is_disabled":false,"rental_uris":{"android":"levelo://app?vid=1e727d7e-fdc3-47b2-892e-86e2a0e41f8d","ios":"levelo://app?vid=1e727d7e-fdc3-47b2-892e-86e2a0e41f8d"},"vehicle_type_id":"4","last_reported":1724256679,"current_range_meters":22400,"station_id":"","pricing_plan_id":"cebpf4jnsgd1na2vs0mg"},{"bike_id":"b4a80991-4ce5-4078-b0e7-30dc3fcaa974","system_id":"levelo_inurba_marseille","lat":43.295748,"lon":5.37522,"is_reserved":false,"is_disabled":false,"rental_uris":{"android":"levelo://app?vid=b4a80991-4ce5-4078-b0e7-30dc3fcaa974","ios":"levelo://app?vid=b4a80991-4ce5-4078-b0e7-30dc3fcaa974"},"vehicle_type_id":"4","last_reported":1724256679,"current_range_meters":0,"station_id":"ce4bgh92rcd13ifvqb50","pricing_plan_id":"cebpf4jnsgd1na2vs0mg"},{"bike_id":"02a67fc9-da8a-4eb0-80b7-18fcf1bc9446","system_id":"levelo_inurba_marseille","lat":43.298037,"lon":5.381066,"is_reserved":false,"is_disabled":false,"rental_uris":{"android":"levelo://app?vid=02a67fc9-da8a-4eb0-80b7-18fcf1bc9446","ios":"levelo://app?vid=02a67fc9-da8a-4eb0-80b7-18fcf1bc9446"},"vehicle_type_id":"4","last_reported":1724256679,"current_range_meters":0,"station_id":"ce4bgip2rcd13ifvqbb0","pricing_plan_id":"cebpf4jnsgd1na2vs0mg"},{"bike_id":"dbbb79dc-1d13-4079-93b8-b4640e760a13","system_id":"levelo_inurba_marseille","lat":43.304274,"lon":5.388873,"is_reserved":false,"is_disabled":false,"rental_uris":{"android":"levelo://app?vid=dbbb79dc-1d13-4079-93b8-b4640e760a13","ios":"levelo://app?vid=dbbb79dc-1d13-4079-93b8-b4640e760a13"},"vehicle_type_id":"4","last_reported":1724256679,"current_range_meters":19600,"station_id":"ce4bgk12rcd13ifvqbi0","pricing_plan_id":"cebpf4jnsgd1na2vs0mg"},{"bike_id":"0535be0f-1707-4be2-a024-b0b996081d31","system_id":"levelo_inurba_marseille","lat":43.30436,"lon":5.38889,"is_reserved":false,"is_disabled":false,"rental_uris":{"android":"levelo://app?vid=0535be0f-1707-4be2-a024-b0b996081d31","ios":"levelo://app?vid=0535be0f-1707-4be2-a024-b0b996081d31"},"vehicle_type_id":"4","last_reported":1724256679,"current_range_meters":18800,"station_id":"ce4bgk12rcd13ifvqbi0","pricing_plan_id":"cebpf4jnsgd1na2vs0mg"},{"bike_id":"61cdec59-69e6-4688-95f7-dab7fb69b9f6","system_id":"levelo_inurba_marseille","lat":43.30429,"lon":5.38884,"is_reserved":false,"is_disabled":false,"rental_uris":{"android":"levelo://app?vid=61cdec59-69e6-4688-95f7-dab7fb69b9f6","ios":"levelo://app?vid=61cdec59-69e6-4688-95f7-dab7fb69b9f6"},"vehicle_type_id":"4","last_reported":1724256679,"current_range_meters":0,"station_id":"ce4bgk12rcd13ifvqbi0","pricing_plan_id":"cebpf4jnsgd1na2vs0mg"},{"bike_id":"a4cb8cbd-7c73-4e59-82f2-fbdd9da14e9a","system_id":"levelo_inurba_marseille","lat":43.30431,"lon":5.38886,"is_reserved":false,"is_disabled":false,"rental_uris":{"android":"levelo://app?vid=a4cb8cbd-7c73-4e59-82f2-fbdd9da14e9a","ios":"levelo://app?vid=a4cb8cbd-7c73-4e59-82f2-fbdd9da14e9a"},"vehicle_type_id":"4","last_reported":1724256679,"current_range_meters":21200,"station_id":"ce4bgk12rcd13ifvqbi0","pricing_plan_id":"cebpf4jnsgd1na2vs0mg"},{"bike_id":"711cf8ae-617b-40d5-ac30-6b3ee09f9932","system_id":"levelo_inurba_marseille","lat":43.295748,"lon":5.37522,"is_reserved":false,"is_disabled":false,"rental_uris":{"android":"levelo://app?vid=711cf8ae-617b-40d5-ac30-6b3ee09f9932","ios":"levelo://app?vid=711cf8ae-617b-40d5-ac30-6b3ee09f9932"},"vehicle_type_id":"4","last_reported":1724256679,"current_range_meters":2400,"station_id":"ce4bgh92rcd13ifvqb50","pricing_plan_id":"cebpf4jnsgd1na2vs0mg"},{"bike_id":"cf78e3ff-a6e7-41d9-9c7b-2fa3fa37e3ea","system_id":"levelo_inurba_marseille","lat":43.295748,"lon":5.37522,"is_reserved":false,"is_disabled":false,"rental_uris":{"android":"levelo://app?vid=cf78e3ff-a6e7-41d9-9c7b-2fa3fa37e3ea","ios":"levelo://app?vid=cf78e3ff-a6e7-41d9-9c7b-2fa3fa37e3ea"},"vehicle_type_id":"4","last_reported":1724256679,"current_range_meters":0,"station_id":"ce4bgh92rcd13ifvqb50","pricing_plan_id":"cebpf4jnsgd1na2vs0mg"},{"bike_id":"f1c4b2e7-72fe-4bbc-b0d7-7e79bb0663b7","system_id":"levelo_inurba_marseille","lat":43.30436,"lon":5.38893,"is_reserved":false,"is_disabled":false,"rental_uris":{"android":"levelo://app?vid=f1c4b2e7-72fe-4bbc-b0d7-7e79bb0663b7","ios":"levelo://app?vid=f1c4b2e7-72fe-4bbc-b0d7-7e79bb0663b7"},"vehicle_type_id":"4","last_reported":1724256679,"current_range_meters":3200,"station_id":"ce4bgk12rcd13ifvqbi0","pricing_plan_id":"cebpf4jnsgd1na2vs0mg"},{"bike_id":"61284f71-1d1e-4ccf-a8b2-d24810eab846","system_id":"levelo_inurba_marseille","lat":43.304278,"lon":5.388868,"is_reserved":false,"is_disabled":false,"rental_uris":{"android":"levelo://app?vid=61284f71-1d1e-4ccf-a8b2-d24810eab846","ios":"levelo://app?vid=61284f71-1d1e-4ccf-a8b2-d24810eab846"},"vehicle_type_id":"4","last_reported":1724256679,"current_range_meters":1600,"station_id":"ce4bgk12rcd13ifvqbi0","pricing_plan_id":"cebpf4jnsgd1na2vs0mg"},{"bike_id":"42a63000-339b-4dc8-afab-d087fdc8887d","system_id":"levelo_inurba_marseille","lat":43.296263,"lon":5.377094,"is_reserved":false,"is_disabled":false,"rental_uris":{"android":"levelo://app?vid=42a63000-339b-4dc8-afab-d087fdc8887d","ios":"levelo://app?vid=42a63000-339b-4dc8-afab-d087fdc8887d"},"vehicle_type_id":"4","last_reported":1724256679,"current_range_meters":0,"station_id":"ce4bgi92rcd13ifvqb90","pricing_plan_id":"cebpf4jnsgd1na2vs0mg"},{"bike_id":"172d96d3-a790-441b-807f-1ef410fc0429","system_id":"levelo_inurba_marseille","lat":43.296277,"lon":5.377108,"is_reserved":false,"is_disabled":false,"rental_uris":{"android":"levelo://app?vid=172d96d3-a790-441b-807f-1ef410fc0429","ios":"levelo://app?vid=172d96d3-a790-441b-807f-1ef410fc0429"},"vehicle_type_id":"4","last_reported":1724256679,"current_range_meters":28400,"station_id":"ce4bgi92rcd13ifvqb90","pricing_plan_id":"cebpf4jnsgd1na2vs0mg"},{"bike_id":"3331cc6b-e299-4d5d-8cde-73cd2c53bba0","system_id":"levelo_inurba_marseille","lat":43.295279,"lon":5.375048,"is_reserved":false,"is_disabled":false,"rental_uris":{"android":"levelo://app?vid=3331cc6b-e299-4d5d-8cde-73cd2c53bba0","ios":"levelo://app?vid=3331cc6b-e299-4d5d-8cde-73cd2c53bba0"},"vehicle_type_id":"4","last_reported":1724256679,"current_range_meters":6000,"station_id":"ce4bgkp2rcd13ifvqbmg","pricing_plan_id":"cebpf4jnsgd1na2vs0mg"},{"bike_id":"31dc55e3-7c71-45f1-bb9a-852e3ca94bb5","system_id":"levelo_inurba_marseille","lat":43.304278,"lon":5.388868,"is_reserved":false,"is_disabled":false,"rental_uris":{"android":"levelo://app?vid=31dc55e3-7c71-45f1-bb9a-852e3ca94bb5","ios":"levelo://app?vid=31dc55e3-7c71-45f1-bb9a-852e3ca94bb5"},"vehicle_type_id":"4","last_reported":1724256679,"current_range_meters":8400,"station_id":"ce4bgk12rcd13ifvqbi0","pricing_plan_id":"cebpf4jnsgd1na2vs0mg"},{"bike_id":"adcc4b7d-9624-4d65-ace3-43c7fea28e5b","system_id":"levelo_inurba_marseille","lat":43.301396,"lon":5.387812,"is_reserved":false,"is_disabled":false,"rental_uris":{"android":"levelo://app?vid=adcc4b7d-9624-4d65-ace3-43c7fea28e5b","ios":"levelo://app?vid=adcc4b7d-9624-4d65-ace3-43c7fea28e5b"},"vehicle_type_id":"4","last_reported":1724256679,"current_range_meters":0,"station_id":"ce4bghh2rcd13ifvqb60","pricing_plan_id":"cebpf4jnsgd1na2vs0mg"},{"bike_id":"2becbe83-528a-4f7d-9986-faaebf52fb8d","system_id":"levelo_inurba_marseille","lat":43.301396,"lon":5.387812,"is_reserved":false,"is_disabled":false,"rental_uris":{"android":"levelo://app?vid=2becbe83-528a-4f7d-9986-faaebf52fb8d","ios":"levelo://app?vid=2becbe83-528a-4f7d-9986-faaebf52fb8d"},"vehicle_type_id":"4","last_reported":1724256679,"current_range_meters":20000,"station_id":"ce4bghh2rcd13ifvqb60","pricing_plan_id":"cebpf4jnsgd1na2vs0mg"},{"bike_id":"17c08b0d-e2bc-46dc-91d9-e8bb8ac76fd7","system_id":"levelo_inurba_marseille","lat":43.32367,"lon":5.388836,"is_reserved":false,"is_disabled":false,"rental_uris":{"android":"levelo://app?vid=17c08b0d-e2bc-46dc-91d9-e8bb8ac76fd7","ios":"levelo://app?vid=17c08b0d-e2bc-46dc-91d9-e8bb8ac76fd7"},"vehicle_type_id":"4","last_reported":1724256679,"current_range_meters":9200,"station_id":"ce4bhqp2rcd13ifvqhog","pricing_plan_id":"cebpf4jnsgd1na2vs0mg"},{"bike_id":"9b243fa0-c207-4268-93f6-f0e298046380","system_id":"levelo_inurba_marseille","lat":43.295279,"lon":5.375048,"is_reserved":false,"is_disabled":false,"rental_uris":{"android":"levelo://app?vid=9b243fa0-c207-4268-93f6-f0e298046380","ios":"levelo://app?vid=9b243fa0-c207-4268-93f6-f0e298046380"},"vehicle_type_id":"4","last_reported":1724256679,"current_range_meters":0,"station_id":"ce4bgkp2rcd13ifvqbmg","pricing_plan_id":"cebpf4jnsgd1na2vs0mg"},{"bike_id":"faaaba6b-0bae-4425-94dc-99b0e40c5b65","system_id":"levelo_inurba_marseille","lat":43.32367,"lon":5.388836,"is_reserved":false,"is_disabled":false,"rental_uris":{"android":"levelo://app?vid=faaaba6b-0bae-4425-94dc-99b0e40c5b65","ios":"levelo://app?vid=faaaba6b-0bae-4425-94dc-99b0e40c5b65"},"vehicle_type_id":"4","last_reported":1724256679,"current_range_meters":1600,"station_id":"ce4bhqp2rcd13ifvqhog","pricing_plan_id":"cebpf4jnsgd1na2vs0mg"},{"bike_id":"404d8282-7fd6-4bc5-ba4a-59483ada15b7","system_id":"levelo_inurba_marseille","lat":43.29602,"lon":5.381084,"is_reserved":false,"is_disabled":false,"rental_uris":{"android":"levelo://app?vid=404d8282-7fd6-4bc5-ba4a-59483ada15b7","ios":"levelo://app?vid=404d8282-7fd6-4bc5-ba4a-59483ada15b7"},"vehicle_type_id":"4","last_reported":1724256679,"current_range_meters":31200,"station_id":"ce4bgl12rcd13ifvqbo0","pricing_plan_id":"cebpf4jnsgd1na2vs0mg"},{"bike_id":"ab6481d7-d854-4c02-a8d3-81c9bbf1ca5c","system_id":"levelo_inurba_marseille","lat":43.29603,"lon":5.381,"is_reserved":false,"is_disabled":false,"rental_uris":{"android":"levelo://app?vid=ab6481d7-d854-4c02-a8d3-81c9bbf1ca5c","ios":"levelo://app?vid=ab6481d7-d854-4c02-a8d3-81c9bbf1ca5c"},"vehicle_type_id":"4","last_reported":1724256679,"current_range_meters":0,"station_id":"ce4bgl12rcd13ifvqbo0","pricing_plan_id":"cebpf4jnsgd1na2vs0mg"},{"bike_id":"4c299ab5-a983-4179-8b19-4889b25c3b50","system_id":"levelo_inurba_marseille","lat":43.29602,"lon":5.381084,"is_reserved":false,"is_disabled":false,"rental_uris":{"android":"levelo://app?vid=4c299ab5-a983-4179-8b19-4889b25c3b50","ios":"levelo://app?vid=4c299ab5-a983-4179-8b19-4889b25c3b50"},"vehicle_type_id":"4","last_reported":1724256679,"current_range_meters":7600,"station_id":"ce4bgl12rcd13ifvqbo0","pricing_plan_id":"cebpf4jnsgd1na2vs0mg"},{"bike_id":"b44d6334-784f-4ed7-ac32-e54cb8fc1565","system_id":"levelo_inurba_marseille","lat":43.293259,"lon":5.371586,"is_reserved":false,"is_disabled":false,"rental_uris":{"android":"levelo://app?vid=b44d6334-784f-4ed7-ac32-e54cb8fc1565","ios":"levelo://app?vid=b44d6334-784f-4ed7-ac32-e54cb8fc1565"},"vehicle_type_id":"4","last_reported":1724256679,"current_range_meters":28400,"station_id":"ce4bgh92rcd13ifvqb40","pricing_plan_id":"cebpf4jnsgd1na2vs0mg"},{"bike_id":"dbf1ad65-01c7-4fcb-b698-68b3a2b45838","system_id":"levelo_inurba_marseille","lat":43.293259,"lon":5.371586,"is_reserved":false,"is_disabled":false,"rental_uris":{"android":"levelo://app?vid=dbf1ad65-01c7-4fcb-b698-68b3a2b45838","ios":"levelo://app?vid=dbf1ad65-01c7-4fcb-b698-68b3a2b45838"},"vehicle_type_id":"4","last_reported":1724256679,"current_range_meters":0,"station_id":"ce4bgh92rcd13ifvqb40","pricing_plan_id":"cebpf4jnsgd1na2vs0mg"},{"bike_id":"80da338e-7723-409a-b9ba-8941ee66a6c6","system_id":"levelo_inurba_marseille","lat":43.292749,"lon":5.368402,"is_reserved":false,"is_disabled":false,"rental_uris":{"android":"levelo://app?vid=80da338e-7723-409a-b9ba-8941ee66a6c6","ios":"levelo://app?vid=80da338e-7723-409a-b9ba-8941ee66a6c6"},"vehicle_type_id":"4","last_reported":1724256679,"current_range_meters":0,"station_id":"ce4bhbp2rcd13ifvqesg","pricing_plan_id":"cebpf4jnsgd1na2vs0mg"},{"bike_id":"49225f99-4de8-4e57-809a-287f7f6ad2ff","system_id":"levelo_inurba_marseille","lat":43.305994,"lon":5.393687,"is_reserved":false,"is_disabled":false,"rental_uris":{"android":"levelo://app?vid=49225f99-4de8-4e57-809a-287f7f6ad2ff","ios":"levelo://app?vid=49225f99-4de8-4e57-809a-287f7f6ad2ff"},"vehicle_type_id":"4","last_reported":1724256679,"current_range_meters":30400,"station_id":"ce4bh0p2rcd13ifvqd80","pricing_plan_id":"cebpf4jnsgd1na2vs0mg"},{"bike_id":"36b673c4-d9eb-4aaa-a649-1187213b3d1d","system_id":"levelo_inurba_marseille","lat":43.305994,"lon":5.393687,"is_reserved":false,"is_disabled":false,"rental_uris":{"android":"levelo://app?vid=36b673c4-d9eb-4aaa-a649-1187213b3d1d","ios":"levelo://app?vid=36b673c4-d9eb-4aaa-a649-1187213b3d1d"},"vehicle_type_id":"4","last_reported":1724256679,"current_range_meters":0,"station_id":"ce4bh0p2rcd13ifvqd80","pricing_plan_id":"cebpf4jnsgd1na2vs0mg"},{"bike_id":"98f14f2c-1006-40ac-a414-6ea7d50239d1","system_id":"levelo_inurba_marseille","lat":43.305994,"lon":5.393687,"is_reserved":false,"is_disabled":false,"rental_uris":{"android":"levelo://app?vid=98f14f2c-1006-40ac-a414-6ea7d50239d1","ios":"levelo://app?vid=98f14f2c-1006-40ac-a414-6ea7d50239d1"},"vehicle_type_id":"4","last_reported":1724256679,"current_range_meters":800,"station_id":"ce4bh0p2rcd13ifvqd80","pricing_plan_id":"cebpf4jnsgd1na2vs0mg"},{"bike_id":"01e39ae5-2672-4de1-be91-cf38e4897f5e","system_id":"levelo_inurba_marseille","lat":43.29376,"lon":5.37847,"is_reserved":false,"is_disabled":false,"rental_uris":{"android":"levelo://app?vid=01e39ae5-2672-4de1-be91-cf38e4897f5e","ios":"levelo://app?vid=01e39ae5-2672-4de1-be91-cf38e4897f5e"},"vehicle_type_id":"4","last_reported":1724256679,"current_range_meters":14400,"station_id":"ce4bgjh2rcd13ifvqbf0","pricing_plan_id":"cebpf4jnsgd1na2vs0mg"},{"bike_id":"5ff33195-e844-4adf-97c4-582b2e23fd9c","system_id":"levelo_inurba_marseille","lat":43.29377,"lon":5.37852,"is_reserved":false,"is_disabled":false,"rental_uris":{"android":"levelo://app?vid=5ff33195-e844-4adf-97c4-582b2e23fd9c","ios":"levelo://app?vid=5ff33195-e844-4adf-97c4-582b2e23fd9c"},"vehicle_type_id":"4","last_reported":1724256679,"current_range_meters":0,"station_id":"ce4bgjh2rcd13ifvqbf0","pricing_plan_id":"cebpf4jnsgd1na2vs0mg"},{"bike_id":"bfdae0ad-86a6-44d5-ba44-680258148114","system_id":"levelo_inurba_marseille","lat":43.29375,"lon":5.37851,"is_reserved":false,"is_disabled":false,"rental_uris":{"android":"levelo://app?vid=bfdae0ad-86a6-44d5-ba44-680258148114","ios":"levelo://app?vid=bfdae0ad-86a6-44d5-ba44-680258148114"},"vehicle_type_id":"4","last_reported":1724256679,"current_range_meters":0,"station_id":"ce4bgjh2rcd13ifvqbf0","pricing_plan_id":"cebpf4jnsgd1na2vs0mg"},{"bike_id":"82d06227-92a0-4fa6-9fde-4ed8a031578b","system_id":"levelo_inurba_marseille","lat":43.300852,"lon":5.390859,"is_reserved":false,"is_disabled":false,"rental_uris":{"android":"levelo://app?vid=82d06227-92a0-4fa6-9fde-4ed8a031578b","ios":"levelo://app?vid=82d06227-92a0-4fa6-9fde-4ed8a031578b"},"vehicle_type_id":"4","last_reported":1724256679,"current_range_meters":16000,"station_id":"ce4bh192rcd13ifvqdb0","pricing_plan_id":"cebpf4jnsgd1na2vs0mg"},{"bike_id":"d2a821e7-fadb-4def-ac28-79ad3fa9baad","system_id":"levelo_inurba_marseille","lat":43.292311,"lon":5.360731,"is_reserved":false,"is_disabled":false,"rental_uris":{"android":"levelo://app?vid=d2a821e7-fadb-4def-ac28-79ad3fa9baad","ios":"levelo://app?vid=d2a821e7-fadb-4def-ac28-79ad3fa9baad"},"vehicle_type_id":"4","last_reported":1724256679,"current_range_meters":24800,"station_id":"ce4bhbh2rcd13ifvqeqg","pricing_plan_id":"cebpf4jnsgd1na2vs0mg"},{"bike_id":"a1ee5fe9-2769-49ea-92a8-763c745f9042","system_id":"levelo_inurba_marseille","lat":43.292311,"lon":5.360731,"is_reserved":false,"is_disabled":false,"rental_uris":{"android":"levelo://app?vid=a1ee5fe9-2769-49ea-92a8-763c745f9042","ios":"levelo://app?vid=a1ee5fe9-2769-49ea-92a8-763c745f9042"},"vehicle_type_id":"4","last_reported":1724256679,"current_range_meters":28800,"station_id":"ce4bhbh2rcd13ifvqeqg","pricing_plan_id":"cebpf4jnsgd1na2vs0mg"},{"bike_id":"6e732cae-1e5b-491d-9d9e-ee48e3d9747c","system_id":"levelo_inurba_marseille","lat":43.292311,"lon":5.360731,"is_reserved":false,"is_disabled":false,"rental_uris":{"android":"levelo://app?vid=6e732cae-1e5b-491d-9d9e-ee48e3d9747c","ios":"levelo://app?vid=6e732cae-1e5b-491d-9d9e-ee48e3d9747c"},"vehicle_type_id":"4","last_reported":1724256679,"current_range_meters":1200,"station_id":"ce4bhbh2rcd13ifvqeqg","pricing_plan_id":"cebpf4jnsgd1na2vs0mg"},{"bike_id":"b5a69baa-055f-4e2e-9a93-e8fe96fce342","system_id":"levelo_inurba_marseille","lat":43.292311,"lon":5.360731,"is_reserved":false,"is_disabled":false,"rental_uris":{"android":"levelo://app?vid=b5a69baa-055f-4e2e-9a93-e8fe96fce342","ios":"levelo://app?vid=b5a69baa-055f-4e2e-9a93-e8fe96fce342"},"vehicle_type_id":"4","last_reported":1724256679,"current_range_meters":18400,"station_id":"ce4bhbh2rcd13ifvqeqg","pricing_plan_id":"cebpf4jnsgd1na2vs0mg"},{"bike_id":"0c7b19ba-5858-4ca8-b2e5-5bb15ff19ea7","system_id":"levelo_inurba_marseille","lat":43.313686,"lon":5.39593,"is_reserved":false,"is_disabled":false,"rental_uris":{"android":"levelo://app?vid=0c7b19ba-5858-4ca8-b2e5-5bb15ff19ea7","ios":"levelo://app?vid=0c7b19ba-5858-4ca8-b2e5-5bb15ff19ea7"},"vehicle_type_id":"4","last_reported":1724256679,"current_range_meters":4800,"station_id":"","pricing_plan_id":"cebpf4jnsgd1na2vs0mg"},{"bike_id":"1b35c882-8dd6-48fc-bcd2-60375cf32a07","system_id":"levelo_inurba_marseille","lat":43.292311,"lon":5.360731,"is_reserved":false,"is_disabled":false,"rental_uris":{"android":"levelo://app?vid=1b35c882-8dd6-48fc-bcd2-60375cf32a07","ios":"levelo://app?vid=1b35c882-8dd6-48fc-bcd2-60375cf32a07"},"vehicle_type_id":"4","last_reported":1724256679,"current_range_meters":0,"station_id":"ce4bhbh2rcd13ifvqeqg","pricing_plan_id":"cebpf4jnsgd1na2vs0mg"},{"bike_id":"367fe593-fa03-4642-b50f-7f9d131a78b7","system_id":"levelo_inurba_marseille","lat":43.298764,"lon":5.388973,"is_reserved":false,"is_disabled":false,"rental_uris":{"android":"levelo://app?vid=367fe593-fa03-4642-b50f-7f9d131a78b7","ios":"levelo://app?vid=367fe593-fa03-4642-b50f-7f9d131a78b7"},"vehicle_type_id":"4","last_reported":1724256679,"current_range_meters":31200,"station_id":"ce4bh392rcd13ifvqdl0","pricing_plan_id":"cebpf4jnsgd1na2vs0mg"},{"bike_id":"d5563cf1-309b-4150-9354-61a8a63ac589","system_id":"levelo_inurba_marseille","lat":43.29257,"lon":5.37615,"is_reserved":false,"is_disabled":false,"rental_uris":{"android":"levelo://app?vid=d5563cf1-309b-4150-9354-61a8a63ac589","ios":"levelo://app?vid=d5563cf1-309b-4150-9354-61a8a63ac589"},"vehicle_type_id":"4","last_reported":1724256679,"current_range_meters":6800,"station_id":"ce4bgi12rcd13ifvqb80","pricing_plan_id":"cebpf4jnsgd1na2vs0mg"},{"bike_id":"fa7bbdda-c5a7-4e5e-b0f7-feed234dd40e","system_id":"levelo_inurba_marseille","lat":43.298685,"lon":5.388956,"is_reserved":false,"is_disabled":false,"rental_uris":{"android":"levelo://app?vid=fa7bbdda-c5a7-4e5e-b0f7-feed234dd40e","ios":"levelo://app?vid=fa7bbdda-c5a7-4e5e-b0f7-feed234dd40e"},"vehicle_type_id":"4","last_reported":1724256679,"current_range_meters":31200,"station_id":"ce4bh392rcd13ifvqdl0","pricing_plan_id":"cebpf4jnsgd1na2vs0mg"},{"bike_id":"94807453-c73a-4c34-8774-c0b5774d7289","system_id":"levelo_inurba_marseille","lat":43.298764,"lon":5.388973,"is_reserved":false,"is_disabled":false,"rental_uris":{"android":"levelo://app?vid=94807453-c73a-4c34-8774-c0b5774d7289","ios":"levelo://app?vid=94807453-c73a-4c34-8774-c0b5774d7289"},"vehicle_type_id":"4","last_reported":1724256679,"current_range_meters":31200,"station_id":"ce4bh392rcd13ifvqdl0","pricing_plan_id":"cebpf4jnsgd1na2vs0mg"},{"bike_id":"262084d5-a1b5-4331-bfd7-0ad3625e060f","system_id":"levelo_inurba_marseille","lat":43.333243,"lon":5.358547,"is_reserved":false,"is_disabled":false,"rental_uris":{"android":"levelo://app?vid=262084d5-a1b5-4331-bfd7-0ad3625e060f","ios":"levelo://app?vid=262084d5-a1b5-4331-bfd7-0ad3625e060f"},"vehicle_type_id":"4","last_reported":1724256679,"current_range_meters":18000,"station_id":"","pricing_plan_id":"cebpf4jnsgd1na2vs0mg"},{"bike_id":"ebce482c-c5cc-4f3b-a0de-a1e4845d02e2","system_id":"levelo_inurba_marseille","lat":43.29134,"lon":5.370623,"is_reserved":false,"is_disabled":false,"rental_uris":{"android":"levelo://app?vid=ebce482c-c5cc-4f3b-a0de-a1e4845d02e2","ios":"levelo://app?vid=ebce482c-c5cc-4f3b-a0de-a1e4845d02e2"},"vehicle_type_id":"4","last_reported":1724256679,"current_range_meters":10000,"station_id":"ce4bgh92rcd13ifvqb40","pricing_plan_id":"cebpf4jnsgd1na2vs0mg"},{"bike_id":"25418077-214b-4136-b0f0-99de459dcce2","system_id":"levelo_inurba_marseille","lat":43.292,"lon":5.35795,"is_reserved":false,"is_disabled":false,"rental_uris":{"android":"levelo://app?vid=25418077-214b-4136-b0f0-99de459dcce2","ios":"levelo://app?vid=25418077-214b-4136-b0f0-99de459dcce2"},"vehicle_type_id":"4","last_reported":1724256679,"current_range_meters":17600,"station_id":"ce4bhb12rcd13ifvqel0","pricing_plan_id":"cebpf4jnsgd1na2vs0mg"},{"bike_id":"a69440ca-c620-4122-ba06-a201942bb294","system_id":"levelo_inurba_marseille","lat":43.29196,"lon":5.35811,"is_reserved":false,"is_disabled":false,"rental_uris":{"android":"levelo://app?vid=a69440ca-c620-4122-ba06-a201942bb294","ios":"levelo://app?vid=a69440ca-c620-4122-ba06-a201942bb294"},"vehicle_type_id":"4","last_reported":1724256679,"current_range_meters":0,"station_id":"ce4bhb12rcd13ifvqel0","pricing_plan_id":"cebpf4jnsgd1na2vs0mg"},{"bike_id":"409932f4-a310-495e-8907-c64887d0fa64","system_id":"levelo_inurba_marseille","lat":43.291973,"lon":5.358043,"is_reserved":false,"is_disabled":false,"rental_uris":{"android":"levelo://app?vid=409932f4-a310-495e-8907-c64887d0fa64","ios":"levelo://app?vid=409932f4-a310-495e-8907-c64887d0fa64"},"vehicle_type_id":"4","last_reported":1724256679,"current_range_meters":0,"station_id":"ce4bhb12rcd13ifvqel0","pricing_plan_id":"cebpf4jnsgd1na2vs0mg"},{"bike_id":"7432ce9a-cd58-4189-8374-81a30ac8d0cf","system_id":"levelo_inurba_marseille","lat":43.309038,"lon":5.396546,"is_reserved":false,"is_disabled":false,"rental_uris":{"android":"levelo://app?vid=7432ce9a-cd58-4189-8374-81a30ac8d0cf","ios":"levelo://app?vid=7432ce9a-cd58-4189-8374-81a30ac8d0cf"},"vehicle_type_id":"4","last_reported":1724256679,"current_range_meters":0,"station_id":"ce4bh012rcd13ifvqcv0","pricing_plan_id":"cebpf4jnsgd1na2vs0mg"},{"bike_id":"1b3b837a-f748-4183-bf16-a728d57df2d2","system_id":"levelo_inurba_marseille","lat":43.309038,"lon":5.396546,"is_reserved":false,"is_disabled":false,"rental_uris":{"android":"levelo://app?vid=1b3b837a-f748-4183-bf16-a728d57df2d2","ios":"levelo://app?vid=1b3b837a-f748-4183-bf16-a728d57df2d2"},"vehicle_type_id":"4","last_reported":1724256679,"current_range_meters":15200,"station_id":"ce4bh012rcd13ifvqcv0","pricing_plan_id":"cebpf4jnsgd1na2vs0mg"},{"bike_id":"7b1acdb2-3737-4c9e-9172-1a601307ea8b","system_id":"levelo_inurba_marseille","lat":43.29193,"lon":5.35803,"is_reserved":false,"is_disabled":false,"rental_uris":{"android":"levelo://app?vid=7b1acdb2-3737-4c9e-9172-1a601307ea8b","ios":"levelo://app?vid=7b1acdb2-3737-4c9e-9172-1a601307ea8b"},"vehicle_type_id":"4","last_reported":1724256679,"current_range_meters":1600,"station_id":"ce4bhb12rcd13ifvqel0","pricing_plan_id":"cebpf4jnsgd1na2vs0mg"},{"bike_id":"01610a42-0f4d-4957-9517-22351d770ab5","system_id":"levelo_inurba_marseille","lat":43.291937,"lon":5.357983,"is_reserved":false,"is_disabled":false,"rental_uris":{"android":"levelo://app?vid=01610a42-0f4d-4957-9517-22351d770ab5","ios":"levelo://app?vid=01610a42-0f4d-4957-9517-22351d770ab5"},"vehicle_type_id":"4","last_reported":1724256679,"current_range_meters":12400,"station_id":"ce4bhb12rcd13ifvqel0","pricing_plan_id":"cebpf4jnsgd1na2vs0mg"},{"bike_id":"443667e5-e4d7-4c56-8491-1e888f1b7a9e","system_id":"levelo_inurba_marseille","lat":43.29192,"lon":5.35804,"is_reserved":false,"is_disabled":false,"rental_uris":{"android":"levelo://app?vid=443667e5-e4d7-4c56-8491-1e888f1b7a9e","ios":"levelo://app?vid=443667e5-e4d7-4c56-8491-1e888f1b7a9e"},"vehicle_type_id":"4","last_reported":1724256679,"current_range_meters":3600,"station_id":"ce4bhb12rcd13ifvqel0","pricing_plan_id":"cebpf4jnsgd1na2vs0mg"},{"bike_id":"c2ebaf42-af69-432d-bfd0-103fdb358de2","system_id":"levelo_inurba_marseille","lat":43.313291,"lon":5.396838,"is_reserved":false,"is_disabled":false,"rental_uris":{"android":"levelo://app?vid=c2ebaf42-af69-432d-bfd0-103fdb358de2","ios":"levelo://app?vid=c2ebaf42-af69-432d-bfd0-103fdb358de2"},"vehicle_type_id":"4","last_reported":1724256679,"current_range_meters":5600,"station_id":"ce4bgvp2rcd13ifvqcu0","pricing_plan_id":"cebpf4jnsgd1na2vs0mg"},{"bike_id":"a673b9b9-47fd-44d6-9108-844a8d27333e","system_id":"levelo_inurba_marseille","lat":43.292005,"lon":5.357875,"is_reserved":false,"is_disabled":false,"rental_uris":{"android":"levelo://app?vid=a673b9b9-47fd-44d6-9108-844a8d27333e","ios":"levelo://app?vid=a673b9b9-47fd-44d6-9108-844a8d27333e"},"vehicle_type_id":"4","last_reported":1724256679,"current_range_meters":14000,"station_id":"ce4bhb12rcd13ifvqel0","pricing_plan_id":"cebpf4jnsgd1na2vs0mg"},{"bike_id":"a465f109-d079-493e-9b52-4e745e29f42c","system_id":"levelo_inurba_marseille","lat":43.31328,"lon":5.39696,"is_reserved":false,"is_disabled":false,"rental_uris":{"android":"levelo://app?vid=a465f109-d079-493e-9b52-4e745e29f42c","ios":"levelo://app?vid=a465f109-d079-493e-9b52-4e745e29f42c"},"vehicle_type_id":"4","last_reported":1724256679,"current_range_meters":1600,"station_id":"ce4bgvp2rcd13ifvqcu0","pricing_plan_id":"cebpf4jnsgd1na2vs0mg"},{"bike_id":"74112ee0-4308-472d-82c4-a9ed4448ca51","system_id":"levelo_inurba_marseille","lat":43.309038,"lon":5.396546,"is_reserved":false,"is_disabled":false,"rental_uris":{"android":"levelo://app?vid=74112ee0-4308-472d-82c4-a9ed4448ca51","ios":"levelo://app?vid=74112ee0-4308-472d-82c4-a9ed4448ca51"},"vehicle_type_id":"4","last_reported":1724256679,"current_range_meters":25200,"station_id":"ce4bh012rcd13ifvqcv0","pricing_plan_id":"cebpf4jnsgd1na2vs0mg"},{"bike_id":"e5f470d9-d6c5-41ad-b89b-76c36ef5c658","system_id":"levelo_inurba_marseille","lat":43.33239,"lon":5.38051,"is_reserved":false,"is_disabled":false,"rental_uris":{"android":"levelo://app?vid=e5f470d9-d6c5-41ad-b89b-76c36ef5c658","ios":"levelo://app?vid=e5f470d9-d6c5-41ad-b89b-76c36ef5c658"},"vehicle_type_id":"4","last_reported":1724256679,"current_range_meters":9200,"station_id":"","pricing_plan_id":"cebpf4jnsgd1na2vs0mg"},{"bike_id":"5ca5eafe-791e-4b2c-a65c-9d61ed960e91","system_id":"levelo_inurba_marseille","lat":43.29529,"lon":5.385581,"is_reserved":false,"is_disabled":false,"rental_uris":{"android":"levelo://app?vid=5ca5eafe-791e-4b2c-a65c-9d61ed960e91","ios":"levelo://app?vid=5ca5eafe-791e-4b2c-a65c-9d61ed960e91"},"vehicle_type_id":"4","last_reported":1724256679,"current_range_meters":4400,"station_id":"ce4bgih2rcd13ifvqba0","pricing_plan_id":"cebpf4jnsgd1na2vs0mg"},{"bike_id":"7cc2902e-2498-4e7a-a145-f2ca48cd04dc","system_id":"levelo_inurba_marseille","lat":43.313291,"lon":5.396838,"is_reserved":false,"is_disabled":false,"rental_uris":{"android":"levelo://app?vid=7cc2902e-2498-4e7a-a145-f2ca48cd04dc","ios":"levelo://app?vid=7cc2902e-2498-4e7a-a145-f2ca48cd04dc"},"vehicle_type_id":"4","last_reported":1724256679,"current_range_meters":800,"station_id":"ce4bgvp2rcd13ifvqcu0","pricing_plan_id":"cebpf4jnsgd1na2vs0mg"},{"bike_id":"c0dc66e8-01e6-4f5d-bde5-bc3801d3ffef","system_id":"levelo_inurba_marseille","lat":43.290779,"lon":5.371482,"is_reserved":false,"is_disabled":false,"rental_uris":{"android":"levelo://app?vid=c0dc66e8-01e6-4f5d-bde5-bc3801d3ffef","ios":"levelo://app?vid=c0dc66e8-01e6-4f5d-bde5-bc3801d3ffef"},"vehicle_type_id":"4","last_reported":1724256679,"current_range_meters":22000,"station_id":"ce4bh5p2rcd13ifvqe4g","pricing_plan_id":"cebpf4jnsgd1na2vs0mg"},{"bike_id":"c2abb00f-1a44-4154-bcd0-3ea4e528c4ce","system_id":"levelo_inurba_marseille","lat":43.29078,"lon":5.37167,"is_reserved":false,"is_disabled":false,"rental_uris":{"android":"levelo://app?vid=c2abb00f-1a44-4154-bcd0-3ea4e528c4ce","ios":"levelo://app?vid=c2abb00f-1a44-4154-bcd0-3ea4e528c4ce"},"vehicle_type_id":"4","last_reported":1724256679,"current_range_meters":0,"station_id":"ce4bh5p2rcd13ifvqe4g","pricing_plan_id":"cebpf4jnsgd1na2vs0mg"},{"bike_id":"2457f84e-14c2-45fe-9237-3b80064a08c5","system_id":"levelo_inurba_marseille","lat":43.302008,"lon":5.394694,"is_reserved":false,"is_disabled":false,"rental_uris":{"android":"levelo://app?vid=2457f84e-14c2-45fe-9237-3b80064a08c5","ios":"levelo://app?vid=2457f84e-14c2-45fe-9237-3b80064a08c5"},"vehicle_type_id":"4","last_reported":1724256679,"current_range_meters":3600,"station_id":"ce4bh0p2rcd13ifvqd70","pricing_plan_id":"cebpf4jnsgd1na2vs0mg"},{"bike_id":"9b705488-41fb-4417-99e1-559bcc927e22","system_id":"levelo_inurba_marseille","lat":43.290624,"lon":5.359245,"is_reserved":false,"is_disabled":false,"rental_uris":{"android":"levelo://app?vid=9b705488-41fb-4417-99e1-559bcc927e22","ios":"levelo://app?vid=9b705488-41fb-4417-99e1-559bcc927e22"},"vehicle_type_id":"4","last_reported":1724256679,"current_range_meters":17200,"station_id":"ce4bha92rcd13ifvqeg0","pricing_plan_id":"cebpf4jnsgd1na2vs0mg"},{"bike_id":"ad0ce3d7-9539-42fe-9c56-749bc7923bfd","system_id":"levelo_inurba_marseille","lat":43.290631,"lon":5.359244,"is_reserved":false,"is_disabled":false,"rental_uris":{"android":"levelo://app?vid=ad0ce3d7-9539-42fe-9c56-749bc7923bfd","ios":"levelo://app?vid=ad0ce3d7-9539-42fe-9c56-749bc7923bfd"},"vehicle_type_id":"4","last_reported":1724256679,"current_range_meters":23200,"station_id":"ce4bha92rcd13ifvqeg0","pricing_plan_id":"cebpf4jnsgd1na2vs0mg"},{"bike_id":"944b36bc-11b3-443e-8772-d2f73c3eafa6","system_id":"levelo_inurba_marseille","lat":43.290631,"lon":5.359244,"is_reserved":false,"is_disabled":false,"rental_uris":{"android":"levelo://app?vid=944b36bc-11b3-443e-8772-d2f73c3eafa6","ios":"levelo://app?vid=944b36bc-11b3-443e-8772-d2f73c3eafa6"},"vehicle_type_id":"4","last_reported":1724256679,"current_range_meters":2400,"station_id":"ce4bha92rcd13ifvqeg0","pricing_plan_id":"cebpf4jnsgd1na2vs0mg"},{"bike_id":"09172bb0-c1ff-455a-b818-7fd12c7cb4f7","system_id":"levelo_inurba_marseille","lat":43.294153,"lon":5.386305,"is_reserved":false,"is_disabled":false,"rental_uris":{"android":"levelo://app?vid=09172bb0-c1ff-455a-b818-7fd12c7cb4f7","ios":"levelo://app?vid=09172bb0-c1ff-455a-b818-7fd12c7cb4f7"},"vehicle_type_id":"4","last_reported":1724256679,"current_range_meters":0,"station_id":"ce4bh2h2rcd13ifvqdh0","pricing_plan_id":"cebpf4jnsgd1na2vs0mg"},{"bike_id":"0694bafb-4b8b-42d2-b2f1-4ed64f49976c","system_id":"levelo_inurba_marseille","lat":43.294162,"lon":5.386292,"is_reserved":false,"is_disabled":false,"rental_uris":{"android":"levelo://app?vid=0694bafb-4b8b-42d2-b2f1-4ed64f49976c","ios":"levelo://app?vid=0694bafb-4b8b-42d2-b2f1-4ed64f49976c"},"vehicle_type_id":"4","last_reported":1724256679,"current_range_meters":25600,"station_id":"ce4bh2h2rcd13ifvqdh0","pricing_plan_id":"cebpf4jnsgd1na2vs0mg"},{"bike_id":"66cbb1a9-5733-4d2e-91a9-e4c2ebb9c0f6","system_id":"levelo_inurba_marseille","lat":43.29422,"lon":5.38627,"is_reserved":false,"is_disabled":false,"rental_uris":{"android":"levelo://app?vid=66cbb1a9-5733-4d2e-91a9-e4c2ebb9c0f6","ios":"levelo://app?vid=66cbb1a9-5733-4d2e-91a9-e4c2ebb9c0f6"},"vehicle_type_id":"4","last_reported":1724256679,"current_range_meters":14400,"station_id":"ce4bh2h2rcd13ifvqdh0","pricing_plan_id":"cebpf4jnsgd1na2vs0mg"},{"bike_id":"1fd787c8-0689-4829-9faf-2ae582bcb5a1","system_id":"levelo_inurba_marseille","lat":43.290319,"lon":5.375732,"is_reserved":false,"is_disabled":false,"rental_uris":{"android":"levelo://app?vid=1fd787c8-0689-4829-9faf-2ae582bcb5a1","ios":"levelo://app?vid=1fd787c8-0689-4829-9faf-2ae582bcb5a1"},"vehicle_type_id":"4","last_reported":1724256679,"current_range_meters":26000,"station_id":"ce4bh692rcd13ifvqe90","pricing_plan_id":"cebpf4jnsgd1na2vs0mg"},{"bike_id":"f532fb55-4dad-43a3-9ae5-58c3538c3177","system_id":"levelo_inurba_marseille","lat":43.289184,"lon":5.366408,"is_reserved":false,"is_disabled":false,"rental_uris":{"android":"levelo://app?vid=f532fb55-4dad-43a3-9ae5-58c3538c3177","ios":"levelo://app?vid=f532fb55-4dad-43a3-9ae5-58c3538c3177"},"vehicle_type_id":"4","last_reported":1724256679,"current_range_meters":16800,"station_id":"ce4bhap2rcd13ifvqek0","pricing_plan_id":"cebpf4jnsgd1na2vs0mg"},{"bike_id":"86843bdc-d038-425e-8e1d-08311a46cc6f","system_id":"levelo_inurba_marseille","lat":43.289184,"lon":5.366408,"is_reserved":false,"is_disabled":false,"rental_uris":{"android":"levelo://app?vid=86843bdc-d038-425e-8e1d-08311a46cc6f","ios":"levelo://app?vid=86843bdc-d038-425e-8e1d-08311a46cc6f"},"vehicle_type_id":"4","last_reported":1724256679,"current_range_meters":15200,"station_id":"ce4bhap2rcd13ifvqek0","pricing_plan_id":"cebpf4jnsgd1na2vs0mg"},{"bike_id":"6690dcfe-dd4d-4e5c-9456-86be10bd7668","system_id":"levelo_inurba_marseille","lat":43.289184,"lon":5.366408,"is_reserved":false,"is_disabled":false,"rental_uris":{"android":"levelo://app?vid=6690dcfe-dd4d-4e5c-9456-86be10bd7668","ios":"levelo://app?vid=6690dcfe-dd4d-4e5c-9456-86be10bd7668"},"vehicle_type_id":"4","last_reported":1724256679,"current_range_meters":28800,"station_id":"ce4bhap2rcd13ifvqek0","pricing_plan_id":"cebpf4jnsgd1na2vs0mg"},{"bike_id":"4c40e3d0-c7cb-4993-9485-f46d0b5b74b1","system_id":"levelo_inurba_marseille","lat":43.289184,"lon":5.366408,"is_reserved":false,"is_disabled":false,"rental_uris":{"android":"levelo://app?vid=4c40e3d0-c7cb-4993-9485-f46d0b5b74b1","ios":"levelo://app?vid=4c40e3d0-c7cb-4993-9485-f46d0b5b74b1"},"vehicle_type_id":"4","last_reported":1724256679,"current_range_meters":18800,"station_id":"ce4bhap2rcd13ifvqek0","pricing_plan_id":"cebpf4jnsgd1na2vs0mg"},{"bike_id":"d8d5f992-0868-4433-b0c7-422072c093e6","system_id":"levelo_inurba_marseille","lat":43.289184,"lon":5.366408,"is_reserved":false,"is_disabled":false,"rental_uris":{"android":"levelo://app?vid=d8d5f992-0868-4433-b0c7-422072c093e6","ios":"levelo://app?vid=d8d5f992-0868-4433-b0c7-422072c093e6"},"vehicle_type_id":"4","last_reported":1724256679,"current_range_meters":1200,"station_id":"ce4bhap2rcd13ifvqek0","pricing_plan_id":"cebpf4jnsgd1na2vs0mg"},{"bike_id":"26bc2aab-efb4-4223-9a94-9e98964da3ab","system_id":"levelo_inurba_marseille","lat":43.28935,"lon":5.36636,"is_reserved":false,"is_disabled":false,"rental_uris":{"android":"levelo://app?vid=26bc2aab-efb4-4223-9a94-9e98964da3ab","ios":"levelo://app?vid=26bc2aab-efb4-4223-9a94-9e98964da3ab"},"vehicle_type_id":"4","last_reported":1724256679,"current_range_meters":0,"station_id":"ce4bhap2rcd13ifvqek0","pricing_plan_id":"cebpf4jnsgd1na2vs0mg"},{"bike_id":"6e22e88c-fadc-4459-b079-93f939a17d3b","system_id":"levelo_inurba_marseille","lat":43.289184,"lon":5.366408,"is_reserved":false,"is_disabled":false,"rental_uris":{"android":"levelo://app?vid=6e22e88c-fadc-4459-b079-93f939a17d3b","ios":"levelo://app?vid=6e22e88c-fadc-4459-b079-93f939a17d3b"},"vehicle_type_id":"4","last_reported":1724256679,"current_range_meters":6400,"station_id":"ce4bhap2rcd13ifvqek0","pricing_plan_id":"cebpf4jnsgd1na2vs0mg"},{"bike_id":"f16f6788-6d9e-4c19-942f-0223d0a18cbb","system_id":"levelo_inurba_marseille","lat":43.292644,"lon":5.384257,"is_reserved":false,"is_disabled":false,"rental_uris":{"android":"levelo://app?vid=f16f6788-6d9e-4c19-942f-0223d0a18cbb","ios":"levelo://app?vid=f16f6788-6d9e-4c19-942f-0223d0a18cbb"},"vehicle_type_id":"4","last_reported":1724256679,"current_range_meters":11600,"station_id":"ce4bh692rcd13ifvqea0","pricing_plan_id":"cebpf4jnsgd1na2vs0mg"},{"bike_id":"d0c7a31c-1507-4ed0-9b8f-01d64efc34cc","system_id":"levelo_inurba_marseille","lat":43.292644,"lon":5.384257,"is_reserved":false,"is_disabled":false,"rental_uris":{"android":"levelo://app?vid=d0c7a31c-1507-4ed0-9b8f-01d64efc34cc","ios":"levelo://app?vid=d0c7a31c-1507-4ed0-9b8f-01d64efc34cc"},"vehicle_type_id":"4","last_reported":1724256679,"current_range_meters":0,"station_id":"ce4bh692rcd13ifvqea0","pricing_plan_id":"cebpf4jnsgd1na2vs0mg"},{"bike_id":"b7d348cd-6b9e-4c9a-91af-bb37334de428","system_id":"levelo_inurba_marseille","lat":43.292642,"lon":5.384254,"is_reserved":false,"is_disabled":false,"rental_uris":{"android":"levelo://app?vid=b7d348cd-6b9e-4c9a-91af-bb37334de428","ios":"levelo://app?vid=b7d348cd-6b9e-4c9a-91af-bb37334de428"},"vehicle_type_id":"4","last_reported":1724256679,"current_range_meters":0,"station_id":"ce4bh692rcd13ifvqea0","pricing_plan_id":"cebpf4jnsgd1na2vs0mg"},{"bike_id":"9467bda9-9cf0-45ed-8039-0e6266c82d9f","system_id":"levelo_inurba_marseille","lat":43.292644,"lon":5.384257,"is_reserved":false,"is_disabled":false,"rental_uris":{"android":"levelo://app?vid=9467bda9-9cf0-45ed-8039-0e6266c82d9f","ios":"levelo://app?vid=9467bda9-9cf0-45ed-8039-0e6266c82d9f"},"vehicle_type_id":"4","last_reported":1724256679,"current_range_meters":2800,"station_id":"ce4bh692rcd13ifvqea0","pricing_plan_id":"cebpf4jnsgd1na2vs0mg"},{"bike_id":"b07e2099-9b6b-4786-9af9-20ffab0bb47d","system_id":"levelo_inurba_marseille","lat":43.29265,"lon":5.3843,"is_reserved":false,"is_disabled":false,"rental_uris":{"android":"levelo://app?vid=b07e2099-9b6b-4786-9af9-20ffab0bb47d","ios":"levelo://app?vid=b07e2099-9b6b-4786-9af9-20ffab0bb47d"},"vehicle_type_id":"4","last_reported":1724256679,"current_range_meters":0,"station_id":"ce4bh692rcd13ifvqea0","pricing_plan_id":"cebpf4jnsgd1na2vs0mg"},{"bike_id":"c30e1e22-1639-4fb1-bbae-e45eb642aa7c","system_id":"levelo_inurba_marseille","lat":43.292644,"lon":5.384257,"is_reserved":false,"is_disabled":false,"rental_uris":{"android":"levelo://app?vid=c30e1e22-1639-4fb1-bbae-e45eb642aa7c","ios":"levelo://app?vid=c30e1e22-1639-4fb1-bbae-e45eb642aa7c"},"vehicle_type_id":"4","last_reported":1724256679,"current_range_meters":7200,"station_id":"ce4bh692rcd13ifvqea0","pricing_plan_id":"cebpf4jnsgd1na2vs0mg"},{"bike_id":"3b9763e4-77aa-4b89-b9a8-42992fdcea09","system_id":"levelo_inurba_marseille","lat":43.29264,"lon":5.38436,"is_reserved":false,"is_disabled":false,"rental_uris":{"android":"levelo://app?vid=3b9763e4-77aa-4b89-b9a8-42992fdcea09","ios":"levelo://app?vid=3b9763e4-77aa-4b89-b9a8-42992fdcea09"},"vehicle_type_id":"4","last_reported":1724256679,"current_range_meters":12400,"station_id":"ce4bh692rcd13ifvqea0","pricing_plan_id":"cebpf4jnsgd1na2vs0mg"},{"bike_id":"77878d51-da93-4ef8-aa50-4c69c504a5a9","system_id":"levelo_inurba_marseille","lat":43.29258,"lon":5.38427,"is_reserved":false,"is_disabled":false,"rental_uris":{"android":"levelo://app?vid=77878d51-da93-4ef8-aa50-4c69c504a5a9","ios":"levelo://app?vid=77878d51-da93-4ef8-aa50-4c69c504a5a9"},"vehicle_type_id":"4","last_reported":1724256679,"current_range_meters":0,"station_id":"ce4bh692rcd13ifvqea0","pricing_plan_id":"cebpf4jnsgd1na2vs0mg"},{"bike_id":"481dc58f-e142-41bd-83f8-4924a28c520c","system_id":"levelo_inurba_marseille","lat":43.29262,"lon":5.38441,"is_reserved":false,"is_disabled":false,"rental_uris":{"android":"levelo://app?vid=481dc58f-e142-41bd-83f8-4924a28c520c","ios":"levelo://app?vid=481dc58f-e142-41bd-83f8-4924a28c520c"},"vehicle_type_id":"4","last_reported":1724256679,"current_range_meters":4000,"station_id":"ce4bh692rcd13ifvqea0","pricing_plan_id":"cebpf4jnsgd1na2vs0mg"},{"bike_id":"f0952d3d-ab3c-4d94-a673-0258509596a8","system_id":"levelo_inurba_marseille","lat":43.292644,"lon":5.384257,"is_reserved":false,"is_disabled":false,"rental_uris":{"android":"levelo://app?vid=f0952d3d-ab3c-4d94-a673-0258509596a8","ios":"levelo://app?vid=f0952d3d-ab3c-4d94-a673-0258509596a8"},"vehicle_type_id":"4","last_reported":1724256679,"current_range_meters":0,"station_id":"ce4bh692rcd13ifvqea0","pricing_plan_id":"cebpf4jnsgd1na2vs0mg"},{"bike_id":"4e1c541f-35a3-4823-95b7-62e818363a69","system_id":"levelo_inurba_marseille","lat":43.292644,"lon":5.384257,"is_reserved":false,"is_disabled":false,"rental_uris":{"android":"levelo://app?vid=4e1c541f-35a3-4823-95b7-62e818363a69","ios":"levelo://app?vid=4e1c541f-35a3-4823-95b7-62e818363a69"},"vehicle_type_id":"4","last_reported":1724256679,"current_range_meters":0,"station_id":"ce4bh692rcd13ifvqea0","pricing_plan_id":"cebpf4jnsgd1na2vs0mg"},{"bike_id":"2facb2a1-e732-4f3a-a2bb-70881192d029","system_id":"levelo_inurba_marseille","lat":43.2901,"lon":5.3561,"is_reserved":false,"is_disabled":false,"rental_uris":{"android":"levelo://app?vid=2facb2a1-e732-4f3a-a2bb-70881192d029","ios":"levelo://app?vid=2facb2a1-e732-4f3a-a2bb-70881192d029"},"vehicle_type_id":"4","last_reported":1724256679,"current_range_meters":0,"station_id":"ce4bhb92rcd13ifvqen0","pricing_plan_id":"cebpf4jnsgd1na2vs0mg"},{"bike_id":"35149378-6c86-455f-9f59-d65259dc7117","system_id":"levelo_inurba_marseille","lat":43.290083,"lon":5.35616,"is_reserved":false,"is_disabled":false,"rental_uris":{"android":"levelo://app?vid=35149378-6c86-455f-9f59-d65259dc7117","ios":"levelo://app?vid=35149378-6c86-455f-9f59-d65259dc7117"},"vehicle_type_id":"4","last_reported":1724256679,"current_range_meters":0,"station_id":"ce4bhb92rcd13ifvqen0","pricing_plan_id":"cebpf4jnsgd1na2vs0mg"},{"bike_id":"1f712d5c-e0ea-4262-bd22-50a692ee2b38","system_id":"levelo_inurba_marseille","lat":43.29006,"lon":5.35612,"is_reserved":false,"is_disabled":false,"rental_uris":{"android":"levelo://app?vid=1f712d5c-e0ea-4262-bd22-50a692ee2b38","ios":"levelo://app?vid=1f712d5c-e0ea-4262-bd22-50a692ee2b38"},"vehicle_type_id":"4","last_reported":1724256679,"current_range_meters":0,"station_id":"ce4bhb92rcd13ifvqen0","pricing_plan_id":"cebpf4jnsgd1na2vs0mg"},{"bike_id":"e562c818-c9a3-483c-a958-2f9ad844e895","system_id":"levelo_inurba_marseille","lat":43.290103,"lon":5.356114,"is_reserved":false,"is_disabled":false,"rental_uris":{"android":"levelo://app?vid=e562c818-c9a3-483c-a958-2f9ad844e895","ios":"levelo://app?vid=e562c818-c9a3-483c-a958-2f9ad844e895"},"vehicle_type_id":"4","last_reported":1724256679,"current_range_meters":9600,"station_id":"ce4bhb92rcd13ifvqen0","pricing_plan_id":"cebpf4jnsgd1na2vs0mg"},{"bike_id":"9fb665d9-236d-41f2-b780-2c7128a9dd21","system_id":"levelo_inurba_marseille","lat":43.290103,"lon":5.356114,"is_reserved":false,"is_disabled":false,"rental_uris":{"android":"levelo://app?vid=9fb665d9-236d-41f2-b780-2c7128a9dd21","ios":"levelo://app?vid=9fb665d9-236d-41f2-b780-2c7128a9dd21"},"vehicle_type_id":"4","last_reported":1724256679,"current_range_meters":16000,"station_id":"ce4bhb92rcd13ifvqen0","pricing_plan_id":"cebpf4jnsgd1na2vs0mg"},{"bike_id":"94c8019c-2f1d-4912-9de7-a84bd8c87712","system_id":"levelo_inurba_marseille","lat":43.290103,"lon":5.356114,"is_reserved":false,"is_disabled":false,"rental_uris":{"android":"levelo://app?vid=94c8019c-2f1d-4912-9de7-a84bd8c87712","ios":"levelo://app?vid=94c8019c-2f1d-4912-9de7-a84bd8c87712"},"vehicle_type_id":"4","last_reported":1724256679,"current_range_meters":31600,"station_id":"ce4bhb92rcd13ifvqen0","pricing_plan_id":"cebpf4jnsgd1na2vs0mg"},{"bike_id":"0069b057-e724-471e-8cac-18e8fe163c95","system_id":"levelo_inurba_marseille","lat":43.290103,"lon":5.356114,"is_reserved":false,"is_disabled":false,"rental_uris":{"android":"levelo://app?vid=0069b057-e724-471e-8cac-18e8fe163c95","ios":"levelo://app?vid=0069b057-e724-471e-8cac-18e8fe163c95"},"vehicle_type_id":"4","last_reported":1724256679,"current_range_meters":0,"station_id":"ce4bhb92rcd13ifvqen0","pricing_plan_id":"cebpf4jnsgd1na2vs0mg"},{"bike_id":"eaaa486e-79f4-4225-9576-8ec08301c545","system_id":"levelo_inurba_marseille","lat":43.290103,"lon":5.356114,"is_reserved":false,"is_disabled":false,"rental_uris":{"android":"levelo://app?vid=eaaa486e-79f4-4225-9576-8ec08301c545","ios":"levelo://app?vid=eaaa486e-79f4-4225-9576-8ec08301c545"},"vehicle_type_id":"4","last_reported":1724256679,"current_range_meters":0,"station_id":"ce4bhb92rcd13ifvqen0","pricing_plan_id":"cebpf4jnsgd1na2vs0mg"},{"bike_id":"95969be4-48de-4a2c-a5c7-311ef8bcc5fe","system_id":"levelo_inurba_marseille","lat":43.290103,"lon":5.356114,"is_reserved":false,"is_disabled":false,"rental_uris":{"android":"levelo://app?vid=95969be4-48de-4a2c-a5c7-311ef8bcc5fe","ios":"levelo://app?vid=95969be4-48de-4a2c-a5c7-311ef8bcc5fe"},"vehicle_type_id":"4","last_reported":1724256679,"current_range_meters":13200,"station_id":"ce4bhb92rcd13ifvqen0","pricing_plan_id":"cebpf4jnsgd1na2vs0mg"},{"bike_id":"9b6c7358-60b3-4057-aa77-9c7bbb7e9e26","system_id":"levelo_inurba_marseille","lat":43.290103,"lon":5.356114,"is_reserved":false,"is_disabled":false,"rental_uris":{"android":"levelo://app?vid=9b6c7358-60b3-4057-aa77-9c7bbb7e9e26","ios":"levelo://app?vid=9b6c7358-60b3-4057-aa77-9c7bbb7e9e26"},"vehicle_type_id":"4","last_reported":1724256679,"current_range_meters":16400,"station_id":"ce4bhb92rcd13ifvqen0","pricing_plan_id":"cebpf4jnsgd1na2vs0mg"},{"bike_id":"cd04d78d-183c-4696-8a5b-6d7b522260ee","system_id":"levelo_inurba_marseille","lat":43.29001,"lon":5.3556,"is_reserved":false,"is_disabled":false,"rental_uris":{"android":"levelo://app?vid=cd04d78d-183c-4696-8a5b-6d7b522260ee","ios":"levelo://app?vid=cd04d78d-183c-4696-8a5b-6d7b522260ee"},"vehicle_type_id":"4","last_reported":1724256679,"current_range_meters":3600,"station_id":"ce4bhb92rcd13ifvqen0","pricing_plan_id":"cebpf4jnsgd1na2vs0mg"},{"bike_id":"330d169d-523d-40f0-877a-70aed2752153","system_id":"levelo_inurba_marseille","lat":43.289743,"lon":5.378304,"is_reserved":false,"is_disabled":false,"rental_uris":{"android":"levelo://app?vid=330d169d-523d-40f0-877a-70aed2752153","ios":"levelo://app?vid=330d169d-523d-40f0-877a-70aed2752153"},"vehicle_type_id":"4","last_reported":1724256679,"current_range_meters":16000,"station_id":"ce4bh9p2rcd13ifvqed0","pricing_plan_id":"cebpf4jnsgd1na2vs0mg"},{"bike_id":"a456656f-a8a9-4bf3-9811-3f54974495a4","system_id":"levelo_inurba_marseille","lat":43.330442,"lon":5.389148,"is_reserved":false,"is_disabled":false,"rental_uris":{"android":"levelo://app?vid=a456656f-a8a9-4bf3-9811-3f54974495a4","ios":"levelo://app?vid=a456656f-a8a9-4bf3-9811-3f54974495a4"},"vehicle_type_id":"4","last_reported":1724256679,"current_range_meters":4400,"station_id":"ce4bhr92rcd13ifvqhrg","pricing_plan_id":"cebpf4jnsgd1na2vs0mg"},{"bike_id":"2b8a5dfe-fb18-47d6-86d4-1ca648cbdc01","system_id":"levelo_inurba_marseille","lat":43.289743,"lon":5.378304,"is_reserved":false,"is_disabled":false,"rental_uris":{"android":"levelo://app?vid=2b8a5dfe-fb18-47d6-86d4-1ca648cbdc01","ios":"levelo://app?vid=2b8a5dfe-fb18-47d6-86d4-1ca648cbdc01"},"vehicle_type_id":"4","last_reported":1724256679,"current_range_meters":0,"station_id":"ce4bh9p2rcd13ifvqed0","pricing_plan_id":"cebpf4jnsgd1na2vs0mg"},{"bike_id":"4e5927a4-e293-4f92-bb49-afc78e28bc5a","system_id":"levelo_inurba_marseille","lat":43.330442,"lon":5.389148,"is_reserved":false,"is_disabled":false,"rental_uris":{"android":"levelo://app?vid=4e5927a4-e293-4f92-bb49-afc78e28bc5a","ios":"levelo://app?vid=4e5927a4-e293-4f92-bb49-afc78e28bc5a"},"vehicle_type_id":"4","last_reported":1724256679,"current_range_meters":29200,"station_id":"ce4bhr92rcd13ifvqhrg","pricing_plan_id":"cebpf4jnsgd1na2vs0mg"},{"bike_id":"4d4de5cd-d28f-40f3-80f5-3939ae144ae7","system_id":"levelo_inurba_marseille","lat":43.289743,"lon":5.378304,"is_reserved":false,"is_disabled":false,"rental_uris":{"android":"levelo://app?vid=4d4de5cd-d28f-40f3-80f5-3939ae144ae7","ios":"levelo://app?vid=4d4de5cd-d28f-40f3-80f5-3939ae144ae7"},"vehicle_type_id":"4","last_reported":1724256679,"current_range_meters":6400,"station_id":"ce4bh9p2rcd13ifvqed0","pricing_plan_id":"cebpf4jnsgd1na2vs0mg"},{"bike_id":"5219649c-81bd-44cf-aab4-f71df800429f","system_id":"levelo_inurba_marseille","lat":43.33033,"lon":5.39038,"is_reserved":false,"is_disabled":false,"rental_uris":{"android":"levelo://app?vid=5219649c-81bd-44cf-aab4-f71df800429f","ios":"levelo://app?vid=5219649c-81bd-44cf-aab4-f71df800429f"},"vehicle_type_id":"4","last_reported":1724256679,"current_range_meters":24000,"station_id":"ce4bhr92rcd13ifvqhrg","pricing_plan_id":"cebpf4jnsgd1na2vs0mg"},{"bike_id":"88ef7357-0d79-422b-bf74-3702d2dbd420","system_id":"levelo_inurba_marseille","lat":43.2901,"lon":5.381269,"is_reserved":false,"is_disabled":false,"rental_uris":{"android":"levelo://app?vid=88ef7357-0d79-422b-bf74-3702d2dbd420","ios":"levelo://app?vid=88ef7357-0d79-422b-bf74-3702d2dbd420"},"vehicle_type_id":"4","last_reported":1724256679,"current_range_meters":0,"station_id":"ce4bh4p2rcd13ifvqe1g","pricing_plan_id":"cebpf4jnsgd1na2vs0mg"},{"bike_id":"b4e38c8d-e1ab-49b9-afac-3c943150a6e3","system_id":"levelo_inurba_marseille","lat":43.290103,"lon":5.356114,"is_reserved":false,"is_disabled":false,"rental_uris":{"android":"levelo://app?vid=b4e38c8d-e1ab-49b9-afac-3c943150a6e3","ios":"levelo://app?vid=b4e38c8d-e1ab-49b9-afac-3c943150a6e3"},"vehicle_type_id":"4","last_reported":1724256679,"current_range_meters":7200,"station_id":"ce4bhb92rcd13ifvqen0","pricing_plan_id":"cebpf4jnsgd1na2vs0mg"},{"bike_id":"999b65a1-8e27-4f87-be9e-23e4f9ec3ed8","system_id":"levelo_inurba_marseille","lat":43.28856,"lon":5.358371,"is_reserved":false,"is_disabled":false,"rental_uris":{"android":"levelo://app?vid=999b65a1-8e27-4f87-be9e-23e4f9ec3ed8","ios":"levelo://app?vid=999b65a1-8e27-4f87-be9e-23e4f9ec3ed8"},"vehicle_type_id":"4","last_reported":1724256679,"current_range_meters":16400,"station_id":"ce4bhb12rcd13ifvqem0","pricing_plan_id":"cebpf4jnsgd1na2vs0mg"},{"bike_id":"80cea8da-9757-487e-8e3d-ad8c202a3bc3","system_id":"levelo_inurba_marseille","lat":43.28856,"lon":5.358371,"is_reserved":false,"is_disabled":false,"rental_uris":{"android":"levelo://app?vid=80cea8da-9757-487e-8e3d-ad8c202a3bc3","ios":"levelo://app?vid=80cea8da-9757-487e-8e3d-ad8c202a3bc3"},"vehicle_type_id":"4","last_reported":1724256679,"current_range_meters":26000,"station_id":"ce4bhb12rcd13ifvqem0","pricing_plan_id":"cebpf4jnsgd1na2vs0mg"},{"bike_id":"fb3f684c-302d-4fea-97e6-69515634f8f7","system_id":"levelo_inurba_marseille","lat":43.28856,"lon":5.358371,"is_reserved":false,"is_disabled":false,"rental_uris":{"android":"levelo://app?vid=fb3f684c-302d-4fea-97e6-69515634f8f7","ios":"levelo://app?vid=fb3f684c-302d-4fea-97e6-69515634f8f7"},"vehicle_type_id":"4","last_reported":1724256679,"current_range_meters":24000,"station_id":"ce4bhb12rcd13ifvqem0","pricing_plan_id":"cebpf4jnsgd1na2vs0mg"},{"bike_id":"7c77644f-b556-44c9-b84e-2c49d5b77376","system_id":"levelo_inurba_marseille","lat":43.28856,"lon":5.358371,"is_reserved":false,"is_disabled":false,"rental_uris":{"android":"levelo://app?vid=7c77644f-b556-44c9-b84e-2c49d5b77376","ios":"levelo://app?vid=7c77644f-b556-44c9-b84e-2c49d5b77376"},"vehicle_type_id":"4","last_reported":1724256679,"current_range_meters":6000,"station_id":"ce4bhb12rcd13ifvqem0","pricing_plan_id":"cebpf4jnsgd1na2vs0mg"},{"bike_id":"64f40ad0-dfcb-4def-9e89-826e0e3794bb","system_id":"levelo_inurba_marseille","lat":43.309371,"lon":5.401449,"is_reserved":false,"is_disabled":false,"rental_uris":{"android":"levelo://app?vid=64f40ad0-dfcb-4def-9e89-826e0e3794bb","ios":"levelo://app?vid=64f40ad0-dfcb-4def-9e89-826e0e3794bb"},"vehicle_type_id":"4","last_reported":1724256679,"current_range_meters":5200,"station_id":"ce4bgvp2rcd13ifvqct0","pricing_plan_id":"cebpf4jnsgd1na2vs0mg"},{"bike_id":"f5a6817a-2a81-4d54-b606-54579947d05a","system_id":"levelo_inurba_marseille","lat":43.312609,"lon":5.401662,"is_reserved":false,"is_disabled":false,"rental_uris":{"android":"levelo://app?vid=f5a6817a-2a81-4d54-b606-54579947d05a","ios":"levelo://app?vid=f5a6817a-2a81-4d54-b606-54579947d05a"},"vehicle_type_id":"4","last_reported":1724256679,"current_range_meters":6400,"station_id":"ce4bh092rcd13ifvqd30","pricing_plan_id":"cebpf4jnsgd1na2vs0mg"},{"bike_id":"71d18e26-fa1e-482a-8332-00302850d6df","system_id":"levelo_inurba_marseille","lat":43.337488,"lon":5.374512,"is_reserved":false,"is_disabled":false,"rental_uris":{"android":"levelo://app?vid=71d18e26-fa1e-482a-8332-00302850d6df","ios":"levelo://app?vid=71d18e26-fa1e-482a-8332-00302850d6df"},"vehicle_type_id":"4","last_reported":1724256679,"current_range_meters":28400,"station_id":"","pricing_plan_id":"cebpf4jnsgd1na2vs0mg"},{"bike_id":"f25d8a96-18cc-4cd1-8ed6-84b5fda8154f","system_id":"levelo_inurba_marseille","lat":43.309371,"lon":5.401449,"is_reserved":false,"is_disabled":false,"rental_uris":{"android":"levelo://app?vid=f25d8a96-18cc-4cd1-8ed6-84b5fda8154f","ios":"levelo://app?vid=f25d8a96-18cc-4cd1-8ed6-84b5fda8154f"},"vehicle_type_id":"4","last_reported":1724256679,"current_range_meters":30000,"station_id":"ce4bgvp2rcd13ifvqct0","pricing_plan_id":"cebpf4jnsgd1na2vs0mg"},{"bike_id":"50ff0aaa-6ae8-4804-942b-931a96ddb13c","system_id":"levelo_inurba_marseille","lat":43.33758,"lon":5.37445,"is_reserved":false,"is_disabled":false,"rental_uris":{"android":"levelo://app?vid=50ff0aaa-6ae8-4804-942b-931a96ddb13c","ios":"levelo://app?vid=50ff0aaa-6ae8-4804-942b-931a96ddb13c"},"vehicle_type_id":"4","last_reported":1724256679,"current_range_meters":11200,"station_id":"","pricing_plan_id":"cebpf4jnsgd1na2vs0mg"},{"bike_id":"14696c1e-cdfc-4a45-847b-3be21686cdc3","system_id":"levelo_inurba_marseille","lat":43.33758,"lon":5.374595,"is_reserved":false,"is_disabled":false,"rental_uris":{"android":"levelo://app?vid=14696c1e-cdfc-4a45-847b-3be21686cdc3","ios":"levelo://app?vid=14696c1e-cdfc-4a45-847b-3be21686cdc3"},"vehicle_type_id":"4","last_reported":1724256679,"current_range_meters":18000,"station_id":"","pricing_plan_id":"cebpf4jnsgd1na2vs0mg"},{"bike_id":"71cd5806-f42e-4241-a3bc-b3be66dc4e15","system_id":"levelo_inurba_marseille","lat":43.33769,"lon":5.37426,"is_reserved":false,"is_disabled":false,"rental_uris":{"android":"levelo://app?vid=71cd5806-f42e-4241-a3bc-b3be66dc4e15","ios":"levelo://app?vid=71cd5806-f42e-4241-a3bc-b3be66dc4e15"},"vehicle_type_id":"4","last_reported":1724256679,"current_range_meters":3600,"station_id":"","pricing_plan_id":"cebpf4jnsgd1na2vs0mg"},{"bike_id":"8c540a5f-7a93-4937-9d4a-61fa4a211a2a","system_id":"levelo_inurba_marseille","lat":43.306412,"lon":5.401035,"is_reserved":false,"is_disabled":false,"rental_uris":{"android":"levelo://app?vid=8c540a5f-7a93-4937-9d4a-61fa4a211a2a","ios":"levelo://app?vid=8c540a5f-7a93-4937-9d4a-61fa4a211a2a"},"vehicle_type_id":"4","last_reported":1724256679,"current_range_meters":19200,"station_id":"ce4bh112rcd13ifvqda0","pricing_plan_id":"cebpf4jnsgd1na2vs0mg"},{"bike_id":"c0aa9abe-43f3-4e84-b239-5fb0419d343c","system_id":"levelo_inurba_marseille","lat":43.30642,"lon":5.401031,"is_reserved":false,"is_disabled":false,"rental_uris":{"android":"levelo://app?vid=c0aa9abe-43f3-4e84-b239-5fb0419d343c","ios":"levelo://app?vid=c0aa9abe-43f3-4e84-b239-5fb0419d343c"},"vehicle_type_id":"4","last_reported":1724256679,"current_range_meters":9600,"station_id":"ce4bh112rcd13ifvqda0","pricing_plan_id":"cebpf4jnsgd1na2vs0mg"},{"bike_id":"7b1e5947-d5c4-4f3c-a13b-dcd796d546b1","system_id":"levelo_inurba_marseille","lat":43.301117,"lon":5.398795,"is_reserved":false,"is_disabled":false,"rental_uris":{"android":"levelo://app?vid=7b1e5947-d5c4-4f3c-a13b-dcd796d546b1","ios":"levelo://app?vid=7b1e5947-d5c4-4f3c-a13b-dcd796d546b1"},"vehicle_type_id":"4","last_reported":1724256679,"current_range_meters":0,"station_id":"ce4bh0h2rcd13ifvqd40","pricing_plan_id":"cebpf4jnsgd1na2vs0mg"},{"bike_id":"613ecc40-5075-4d6c-9380-810acf74b1da","system_id":"levelo_inurba_marseille","lat":43.301117,"lon":5.398795,"is_reserved":false,"is_disabled":false,"rental_uris":{"android":"levelo://app?vid=613ecc40-5075-4d6c-9380-810acf74b1da","ios":"levelo://app?vid=613ecc40-5075-4d6c-9380-810acf74b1da"},"vehicle_type_id":"4","last_reported":1724256679,"current_range_meters":14400,"station_id":"ce4bh0h2rcd13ifvqd40","pricing_plan_id":"cebpf4jnsgd1na2vs0mg"},{"bike_id":"f88e1193-221e-4658-9bfc-df224c95d6b2","system_id":"levelo_inurba_marseille","lat":43.28727,"lon":5.36078,"is_reserved":false,"is_disabled":false,"rental_uris":{"android":"levelo://app?vid=f88e1193-221e-4658-9bfc-df224c95d6b2","ios":"levelo://app?vid=f88e1193-221e-4658-9bfc-df224c95d6b2"},"vehicle_type_id":"4","last_reported":1724256679,"current_range_meters":10800,"station_id":"cki0cbj6b192h4jlfktg","pricing_plan_id":"cebpf4jnsgd1na2vs0mg"},{"bike_id":"542560c2-12dd-4153-ab0e-90bb15d258fd","system_id":"levelo_inurba_marseille","lat":43.28695,"lon":5.37392,"is_reserved":false,"is_disabled":false,"rental_uris":{"android":"levelo://app?vid=542560c2-12dd-4153-ab0e-90bb15d258fd","ios":"levelo://app?vid=542560c2-12dd-4153-ab0e-90bb15d258fd"},"vehicle_type_id":"4","last_reported":1724256679,"current_range_meters":22400,"station_id":"ce4bh3p2rcd13ifvqdq0","pricing_plan_id":"cebpf4jnsgd1na2vs0mg"},{"bike_id":"3a10822e-01b9-4f3c-b0ff-01fde45651cd","system_id":"levelo_inurba_marseille","lat":43.290336,"lon":5.386425,"is_reserved":false,"is_disabled":false,"rental_uris":{"android":"levelo://app?vid=3a10822e-01b9-4f3c-b0ff-01fde45651cd","ios":"levelo://app?vid=3a10822e-01b9-4f3c-b0ff-01fde45651cd"},"vehicle_type_id":"4","last_reported":1724256679,"current_range_meters":1600,"station_id":"ce4bh4p2rcd13ifvqe0g","pricing_plan_id":"cebpf4jnsgd1na2vs0mg"},{"bike_id":"a93631f4-b5fe-4615-937f-21c619733517","system_id":"levelo_inurba_marseille","lat":43.289307,"lon":5.38406,"is_reserved":false,"is_disabled":false,"rental_uris":{"android":"levelo://app?vid=a93631f4-b5fe-4615-937f-21c619733517","ios":"levelo://app?vid=a93631f4-b5fe-4615-937f-21c619733517"},"vehicle_type_id":"4","last_reported":1724256679,"current_range_meters":22000,"station_id":"ce4bh612rcd13ifvqe6g","pricing_plan_id":"cebpf4jnsgd1na2vs0mg"},{"bike_id":"efde0aee-2425-4f43-8f47-ee30b6851a76","system_id":"levelo_inurba_marseille","lat":43.289307,"lon":5.38406,"is_reserved":false,"is_disabled":false,"rental_uris":{"android":"levelo://app?vid=efde0aee-2425-4f43-8f47-ee30b6851a76","ios":"levelo://app?vid=efde0aee-2425-4f43-8f47-ee30b6851a76"},"vehicle_type_id":"4","last_reported":1724256679,"current_range_meters":10800,"station_id":"ce4bh612rcd13ifvqe6g","pricing_plan_id":"cebpf4jnsgd1na2vs0mg"},{"bike_id":"ec337588-ccd1-47ab-b38b-4d8eb2dffa48","system_id":"levelo_inurba_marseille","lat":43.290336,"lon":5.386425,"is_reserved":false,"is_disabled":false,"rental_uris":{"android":"levelo://app?vid=ec337588-ccd1-47ab-b38b-4d8eb2dffa48","ios":"levelo://app?vid=ec337588-ccd1-47ab-b38b-4d8eb2dffa48"},"vehicle_type_id":"4","last_reported":1724256679,"current_range_meters":8000,"station_id":"ce4bh4p2rcd13ifvqe0g","pricing_plan_id":"cebpf4jnsgd1na2vs0mg"},{"bike_id":"a255613c-8d81-4fb7-8413-9057d49af3b1","system_id":"levelo_inurba_marseille","lat":43.289307,"lon":5.38406,"is_reserved":false,"is_disabled":false,"rental_uris":{"android":"levelo://app?vid=a255613c-8d81-4fb7-8413-9057d49af3b1","ios":"levelo://app?vid=a255613c-8d81-4fb7-8413-9057d49af3b1"},"vehicle_type_id":"4","last_reported":1724256679,"current_range_meters":23600,"station_id":"ce4bh612rcd13ifvqe6g","pricing_plan_id":"cebpf4jnsgd1na2vs0mg"},{"bike_id":"f9fd5cbb-a82b-4642-95eb-69c9ab8b90d1","system_id":"levelo_inurba_marseille","lat":43.290336,"lon":5.386425,"is_reserved":false,"is_disabled":false,"rental_uris":{"android":"levelo://app?vid=f9fd5cbb-a82b-4642-95eb-69c9ab8b90d1","ios":"levelo://app?vid=f9fd5cbb-a82b-4642-95eb-69c9ab8b90d1"},"vehicle_type_id":"4","last_reported":1724256679,"current_range_meters":2800,"station_id":"ce4bh4p2rcd13ifvqe0g","pricing_plan_id":"cebpf4jnsgd1na2vs0mg"},{"bike_id":"5e1e67d9-3ee9-40e8-829f-0170aefae0bc","system_id":"levelo_inurba_marseille","lat":43.289307,"lon":5.38406,"is_reserved":false,"is_disabled":false,"rental_uris":{"android":"levelo://app?vid=5e1e67d9-3ee9-40e8-829f-0170aefae0bc","ios":"levelo://app?vid=5e1e67d9-3ee9-40e8-829f-0170aefae0bc"},"vehicle_type_id":"4","last_reported":1724256679,"current_range_meters":7600,"station_id":"ce4bh612rcd13ifvqe6g","pricing_plan_id":"cebpf4jnsgd1na2vs0mg"},{"bike_id":"4fcaaf11-2726-4f6a-9ebe-4a50c2bcf176","system_id":"levelo_inurba_marseille","lat":43.2903,"lon":5.38648,"is_reserved":false,"is_disabled":false,"rental_uris":{"android":"levelo://app?vid=4fcaaf11-2726-4f6a-9ebe-4a50c2bcf176","ios":"levelo://app?vid=4fcaaf11-2726-4f6a-9ebe-4a50c2bcf176"},"vehicle_type_id":"4","last_reported":1724256679,"current_range_meters":0,"station_id":"ce4bh4p2rcd13ifvqe0g","pricing_plan_id":"cebpf4jnsgd1na2vs0mg"},{"bike_id":"99f31cf0-dbaf-4891-95a6-474b42cded0a","system_id":"levelo_inurba_marseille","lat":43.290336,"lon":5.386425,"is_reserved":false,"is_disabled":false,"rental_uris":{"android":"levelo://app?vid=99f31cf0-dbaf-4891-95a6-474b42cded0a","ios":"levelo://app?vid=99f31cf0-dbaf-4891-95a6-474b42cded0a"},"vehicle_type_id":"4","last_reported":1724256679,"current_range_meters":2400,"station_id":"ce4bh4p2rcd13ifvqe0g","pricing_plan_id":"cebpf4jnsgd1na2vs0mg"},{"bike_id":"4f817bb6-31fe-4656-b1a4-73b12a250b9d","system_id":"levelo_inurba_marseille","lat":43.290336,"lon":5.386425,"is_reserved":false,"is_disabled":false,"rental_uris":{"android":"levelo://app?vid=4f817bb6-31fe-4656-b1a4-73b12a250b9d","ios":"levelo://app?vid=4f817bb6-31fe-4656-b1a4-73b12a250b9d"},"vehicle_type_id":"4","last_reported":1724256679,"current_range_meters":4000,"station_id":"ce4bh4p2rcd13ifvqe0g","pricing_plan_id":"cebpf4jnsgd1na2vs0mg"},{"bike_id":"76d285da-59b0-4541-825f-3eea90e2a354","system_id":"levelo_inurba_marseille","lat":43.289307,"lon":5.38406,"is_reserved":false,"is_disabled":false,"rental_uris":{"android":"levelo://app?vid=76d285da-59b0-4541-825f-3eea90e2a354","ios":"levelo://app?vid=76d285da-59b0-4541-825f-3eea90e2a354"},"vehicle_type_id":"4","last_reported":1724256679,"current_range_meters":2400,"station_id":"ce4bh612rcd13ifvqe6g","pricing_plan_id":"cebpf4jnsgd1na2vs0mg"},{"bike_id":"6f3103bd-24e1-43e1-8c19-e81e02aa6167","system_id":"levelo_inurba_marseille","lat":43.289307,"lon":5.38406,"is_reserved":false,"is_disabled":false,"rental_uris":{"android":"levelo://app?vid=6f3103bd-24e1-43e1-8c19-e81e02aa6167","ios":"levelo://app?vid=6f3103bd-24e1-43e1-8c19-e81e02aa6167"},"vehicle_type_id":"4","last_reported":1724256679,"current_range_meters":26800,"station_id":"ce4bh612rcd13ifvqe6g","pricing_plan_id":"cebpf4jnsgd1na2vs0mg"},{"bike_id":"26caadb2-6138-4b34-a603-d5127ff1063b","system_id":"levelo_inurba_marseille","lat":43.290336,"lon":5.386425,"is_reserved":false,"is_disabled":false,"rental_uris":{"android":"levelo://app?vid=26caadb2-6138-4b34-a603-d5127ff1063b","ios":"levelo://app?vid=26caadb2-6138-4b34-a603-d5127ff1063b"},"vehicle_type_id":"4","last_reported":1724256679,"current_range_meters":2400,"station_id":"ce4bh4p2rcd13ifvqe0g","pricing_plan_id":"cebpf4jnsgd1na2vs0mg"},{"bike_id":"451c55ed-164a-4501-9072-a51cdab06ffd","system_id":"levelo_inurba_marseille","lat":43.286039,"lon":5.370679,"is_reserved":false,"is_disabled":false,"rental_uris":{"android":"levelo://app?vid=451c55ed-164a-4501-9072-a51cdab06ffd","ios":"levelo://app?vid=451c55ed-164a-4501-9072-a51cdab06ffd"},"vehicle_type_id":"4","last_reported":1724256679,"current_range_meters":6800,"station_id":"ce4bht12rcd13ifvqi60","pricing_plan_id":"cebpf4jnsgd1na2vs0mg"},{"bike_id":"16e8efd3-c176-416f-af4d-eb4c5ebc420d","system_id":"levelo_inurba_marseille","lat":43.286039,"lon":5.370679,"is_reserved":false,"is_disabled":false,"rental_uris":{"android":"levelo://app?vid=16e8efd3-c176-416f-af4d-eb4c5ebc420d","ios":"levelo://app?vid=16e8efd3-c176-416f-af4d-eb4c5ebc420d"},"vehicle_type_id":"4","last_reported":1724256679,"current_range_meters":0,"station_id":"ce4bht12rcd13ifvqi60","pricing_plan_id":"cebpf4jnsgd1na2vs0mg"},{"bike_id":"94b827e1-2204-420f-b361-e872a9549d7a","system_id":"levelo_inurba_marseille","lat":43.302759,"lon":5.400793,"is_reserved":false,"is_disabled":false,"rental_uris":{"android":"levelo://app?vid=94b827e1-2204-420f-b361-e872a9549d7a","ios":"levelo://app?vid=94b827e1-2204-420f-b361-e872a9549d7a"},"vehicle_type_id":"4","last_reported":1724256679,"current_range_meters":4400,"station_id":"ce4bgvh2rcd13ifvqcs0","pricing_plan_id":"cebpf4jnsgd1na2vs0mg"},{"bike_id":"f02c1aaa-5054-45b1-9c41-696b6ea733ec","system_id":"levelo_inurba_marseille","lat":43.291994,"lon":5.392907,"is_reserved":false,"is_disabled":false,"rental_uris":{"android":"levelo://app?vid=f02c1aaa-5054-45b1-9c41-696b6ea733ec","ios":"levelo://app?vid=f02c1aaa-5054-45b1-9c41-696b6ea733ec"},"vehicle_type_id":"4","last_reported":1724256679,"current_range_meters":28400,"station_id":"ce4bh192rcd13ifvqdd0","pricing_plan_id":"cebpf4jnsgd1na2vs0mg"},{"bike_id":"57bbd3f2-4ac8-4465-b30f-95cfe0089f3b","system_id":"levelo_inurba_marseille","lat":43.30121,"lon":5.40282,"is_reserved":false,"is_disabled":false,"rental_uris":{"android":"levelo://app?vid=57bbd3f2-4ac8-4465-b30f-95cfe0089f3b","ios":"levelo://app?vid=57bbd3f2-4ac8-4465-b30f-95cfe0089f3b"},"vehicle_type_id":"4","last_reported":1724256679,"current_range_meters":30000,"station_id":"","pricing_plan_id":"cebpf4jnsgd1na2vs0mg"},{"bike_id":"b9390db5-7bf8-421c-a07b-9625a750614b","system_id":"levelo_inurba_marseille","lat":43.284534,"lon":5.358662,"is_reserved":false,"is_disabled":false,"rental_uris":{"android":"levelo://app?vid=b9390db5-7bf8-421c-a07b-9625a750614b","ios":"levelo://app?vid=b9390db5-7bf8-421c-a07b-9625a750614b"},"vehicle_type_id":"4","last_reported":1724256679,"current_range_meters":30000,"station_id":"ce4bhah2rcd13ifvqei0","pricing_plan_id":"cebpf4jnsgd1na2vs0mg"},{"bike_id":"87fb5c0c-9d02-4f0f-b57b-cdf39d55e161","system_id":"levelo_inurba_marseille","lat":43.284534,"lon":5.358662,"is_reserved":false,"is_disabled":false,"rental_uris":{"android":"levelo://app?vid=87fb5c0c-9d02-4f0f-b57b-cdf39d55e161","ios":"levelo://app?vid=87fb5c0c-9d02-4f0f-b57b-cdf39d55e161"},"vehicle_type_id":"4","last_reported":1724256679,"current_range_meters":27200,"station_id":"ce4bhah2rcd13ifvqei0","pricing_plan_id":"cebpf4jnsgd1na2vs0mg"},{"bike_id":"5263c7b5-06e5-4eee-8ed6-f2943ce07594","system_id":"levelo_inurba_marseille","lat":43.284534,"lon":5.358662,"is_reserved":false,"is_disabled":false,"rental_uris":{"android":"levelo://app?vid=5263c7b5-06e5-4eee-8ed6-f2943ce07594","ios":"levelo://app?vid=5263c7b5-06e5-4eee-8ed6-f2943ce07594"},"vehicle_type_id":"4","last_reported":1724256679,"current_range_meters":20000,"station_id":"ce4bhah2rcd13ifvqei0","pricing_plan_id":"cebpf4jnsgd1na2vs0mg"},{"bike_id":"a5ef8104-4a93-49e3-8f96-54379bd059ba","system_id":"levelo_inurba_marseille","lat":43.284534,"lon":5.358662,"is_reserved":false,"is_disabled":false,"rental_uris":{"android":"levelo://app?vid=a5ef8104-4a93-49e3-8f96-54379bd059ba","ios":"levelo://app?vid=a5ef8104-4a93-49e3-8f96-54379bd059ba"},"vehicle_type_id":"4","last_reported":1724256679,"current_range_meters":21600,"station_id":"ce4bhah2rcd13ifvqei0","pricing_plan_id":"cebpf4jnsgd1na2vs0mg"},{"bike_id":"dc84d803-b02d-4ad9-a41e-644228fabe50","system_id":"levelo_inurba_marseille","lat":43.284534,"lon":5.358662,"is_reserved":false,"is_disabled":false,"rental_uris":{"android":"levelo://app?vid=dc84d803-b02d-4ad9-a41e-644228fabe50","ios":"levelo://app?vid=dc84d803-b02d-4ad9-a41e-644228fabe50"},"vehicle_type_id":"4","last_reported":1724256679,"current_range_meters":31600,"station_id":"ce4bhah2rcd13ifvqei0","pricing_plan_id":"cebpf4jnsgd1na2vs0mg"},{"bike_id":"f1005a83-4419-43d5-9660-12b3d30967cb","system_id":"levelo_inurba_marseille","lat":43.284534,"lon":5.358662,"is_reserved":false,"is_disabled":false,"rental_uris":{"android":"levelo://app?vid=f1005a83-4419-43d5-9660-12b3d30967cb","ios":"levelo://app?vid=f1005a83-4419-43d5-9660-12b3d30967cb"},"vehicle_type_id":"4","last_reported":1724256679,"current_range_meters":22400,"station_id":"ce4bhah2rcd13ifvqei0","pricing_plan_id":"cebpf4jnsgd1na2vs0mg"},{"bike_id":"1e1eabec-eaab-43c2-8358-50d7370fef65","system_id":"levelo_inurba_marseille","lat":43.284534,"lon":5.358662,"is_reserved":false,"is_disabled":false,"rental_uris":{"android":"levelo://app?vid=1e1eabec-eaab-43c2-8358-50d7370fef65","ios":"levelo://app?vid=1e1eabec-eaab-43c2-8358-50d7370fef65"},"vehicle_type_id":"4","last_reported":1724256679,"current_range_meters":12000,"station_id":"ce4bhah2rcd13ifvqei0","pricing_plan_id":"cebpf4jnsgd1na2vs0mg"},{"bike_id":"1e0bb6b6-daed-4e30-b9f7-9bdd0cab7639","system_id":"levelo_inurba_marseille","lat":43.303256,"lon":5.404389,"is_reserved":false,"is_disabled":false,"rental_uris":{"android":"levelo://app?vid=1e0bb6b6-daed-4e30-b9f7-9bdd0cab7639","ios":"levelo://app?vid=1e0bb6b6-daed-4e30-b9f7-9bdd0cab7639"},"vehicle_type_id":"4","last_reported":1724256679,"current_range_meters":22000,"station_id":"ce4bh012rcd13ifvqd10","pricing_plan_id":"cebpf4jnsgd1na2vs0mg"},{"bike_id":"2bead27d-1412-48e1-8777-c1961d363c42","system_id":"levelo_inurba_marseille","lat":43.303256,"lon":5.404389,"is_reserved":false,"is_disabled":false,"rental_uris":{"android":"levelo://app?vid=2bead27d-1412-48e1-8777-c1961d363c42","ios":"levelo://app?vid=2bead27d-1412-48e1-8777-c1961d363c42"},"vehicle_type_id":"4","last_reported":1724256679,"current_range_meters":5200,"station_id":"ce4bh012rcd13ifvqd10","pricing_plan_id":"cebpf4jnsgd1na2vs0mg"},{"bike_id":"2d296c4b-70fd-4072-8486-b9ec303c36a5","system_id":"levelo_inurba_marseille","lat":43.28625,"lon":5.35117,"is_reserved":false,"is_disabled":false,"rental_uris":{"android":"levelo://app?vid=2d296c4b-70fd-4072-8486-b9ec303c36a5","ios":"levelo://app?vid=2d296c4b-70fd-4072-8486-b9ec303c36a5"},"vehicle_type_id":"4","last_reported":1724256679,"current_range_meters":800,"station_id":"ce4bhch2rcd13ifvqeug","pricing_plan_id":"cebpf4jnsgd1na2vs0mg"},{"bike_id":"334d6c1b-8512-4482-bfc2-5c3fbfdafe2c","system_id":"levelo_inurba_marseille","lat":43.28625,"lon":5.35107,"is_reserved":false,"is_disabled":false,"rental_uris":{"android":"levelo://app?vid=334d6c1b-8512-4482-bfc2-5c3fbfdafe2c","ios":"levelo://app?vid=334d6c1b-8512-4482-bfc2-5c3fbfdafe2c"},"vehicle_type_id":"4","last_reported":1724256679,"current_range_meters":9200,"station_id":"ce4bhch2rcd13ifvqeug","pricing_plan_id":"cebpf4jnsgd1na2vs0mg"},{"bike_id":"08ec5423-847b-4c2b-8319-24280fbd3177","system_id":"levelo_inurba_marseille","lat":43.28625,"lon":5.35106,"is_reserved":false,"is_disabled":false,"rental_uris":{"android":"levelo://app?vid=08ec5423-847b-4c2b-8319-24280fbd3177","ios":"levelo://app?vid=08ec5423-847b-4c2b-8319-24280fbd3177"},"vehicle_type_id":"4","last_reported":1724256679,"current_range_meters":8400,"station_id":"ce4bhch2rcd13ifvqeug","pricing_plan_id":"cebpf4jnsgd1na2vs0mg"},{"bike_id":"101bd35a-a4e3-4115-84ae-570fe508b8e4","system_id":"levelo_inurba_marseille","lat":43.28621,"lon":5.35111,"is_reserved":false,"is_disabled":false,"rental_uris":{"android":"levelo://app?vid=101bd35a-a4e3-4115-84ae-570fe508b8e4","ios":"levelo://app?vid=101bd35a-a4e3-4115-84ae-570fe508b8e4"},"vehicle_type_id":"4","last_reported":1724256679,"current_range_meters":24800,"station_id":"ce4bhch2rcd13ifvqeug","pricing_plan_id":"cebpf4jnsgd1na2vs0mg"},{"bike_id":"2574909f-dd88-4474-b3bc-414d5a20cb8a","system_id":"levelo_inurba_marseille","lat":43.28623,"lon":5.35103,"is_reserved":false,"is_disabled":false,"rental_uris":{"android":"levelo://app?vid=2574909f-dd88-4474-b3bc-414d5a20cb8a","ios":"levelo://app?vid=2574909f-dd88-4474-b3bc-414d5a20cb8a"},"vehicle_type_id":"4","last_reported":1724256679,"current_range_meters":21200,"station_id":"ce4bhch2rcd13ifvqeug","pricing_plan_id":"cebpf4jnsgd1na2vs0mg"},{"bike_id":"531bf422-5847-4131-b91f-0d6d86a97965","system_id":"levelo_inurba_marseille","lat":43.2862,"lon":5.3511,"is_reserved":false,"is_disabled":false,"rental_uris":{"android":"levelo://app?vid=531bf422-5847-4131-b91f-0d6d86a97965","ios":"levelo://app?vid=531bf422-5847-4131-b91f-0d6d86a97965"},"vehicle_type_id":"4","last_reported":1724256679,"current_range_meters":8800,"station_id":"ce4bhch2rcd13ifvqeug","pricing_plan_id":"cebpf4jnsgd1na2vs0mg"},{"bike_id":"9716b554-a1e6-4fe1-9172-827a646ed9d5","system_id":"levelo_inurba_marseille","lat":43.28621,"lon":5.35106,"is_reserved":false,"is_disabled":false,"rental_uris":{"android":"levelo://app?vid=9716b554-a1e6-4fe1-9172-827a646ed9d5","ios":"levelo://app?vid=9716b554-a1e6-4fe1-9172-827a646ed9d5"},"vehicle_type_id":"4","last_reported":1724256679,"current_range_meters":21600,"station_id":"ce4bhch2rcd13ifvqeug","pricing_plan_id":"cebpf4jnsgd1na2vs0mg"},{"bike_id":"ff16d069-ef36-43dc-9112-c1dfd7c4efc4","system_id":"levelo_inurba_marseille","lat":43.28619,"lon":5.35112,"is_reserved":false,"is_disabled":false,"rental_uris":{"android":"levelo://app?vid=ff16d069-ef36-43dc-9112-c1dfd7c4efc4","ios":"levelo://app?vid=ff16d069-ef36-43dc-9112-c1dfd7c4efc4"},"vehicle_type_id":"4","last_reported":1724256679,"current_range_meters":13200,"station_id":"ce4bhch2rcd13ifvqeug","pricing_plan_id":"cebpf4jnsgd1na2vs0mg"},{"bike_id":"7be26f62-3132-4cc7-a4d0-6540a291dbcc","system_id":"levelo_inurba_marseille","lat":43.303256,"lon":5.404389,"is_reserved":false,"is_disabled":false,"rental_uris":{"android":"levelo://app?vid=7be26f62-3132-4cc7-a4d0-6540a291dbcc","ios":"levelo://app?vid=7be26f62-3132-4cc7-a4d0-6540a291dbcc"},"vehicle_type_id":"4","last_reported":1724256679,"current_range_meters":4000,"station_id":"ce4bh012rcd13ifvqd10","pricing_plan_id":"cebpf4jnsgd1na2vs0mg"},{"bike_id":"75a502da-d422-4c95-b3c2-d0134d762d46","system_id":"levelo_inurba_marseille","lat":43.2862,"lon":5.35108,"is_reserved":false,"is_disabled":false,"rental_uris":{"android":"levelo://app?vid=75a502da-d422-4c95-b3c2-d0134d762d46","ios":"levelo://app?vid=75a502da-d422-4c95-b3c2-d0134d762d46"},"vehicle_type_id":"4","last_reported":1724256679,"current_range_meters":18800,"station_id":"ce4bhch2rcd13ifvqeug","pricing_plan_id":"cebpf4jnsgd1na2vs0mg"},{"bike_id":"d818cd51-e216-48be-942c-e45bde22d940","system_id":"levelo_inurba_marseille","lat":43.28619,"lon":5.35109,"is_reserved":false,"is_disabled":false,"rental_uris":{"android":"levelo://app?vid=d818cd51-e216-48be-942c-e45bde22d940","ios":"levelo://app?vid=d818cd51-e216-48be-942c-e45bde22d940"},"vehicle_type_id":"4","last_reported":1724256679,"current_range_meters":0,"station_id":"ce4bhch2rcd13ifvqeug","pricing_plan_id":"cebpf4jnsgd1na2vs0mg"},