{"last_updated":1707257179,"ttl":30,"version":"2.2","data":{"bikes":[{"bike_id":"0476199c-62c8-4c5a-8406-a739d312de51","system_id":"levelo_inurba_marseille","lat":43.312239,"lon":5.368562,"is_reserved":false,"is_disabled":false,"rental_uris":{"android":"levelo://app?vid=0476199c-62c8-4c5a-8406-a739d312de51","ios":"levelo://app?vid=0476199c-62c8-4c5a-8406-a739d312de51"},"vehicle_type_id":"4","last_reported":1707257179,"current_range_meters":5200,"station_id":"ce4bgl92rcd13ifvqbq0","pricing_plan_id":"free"},{"bike_id":"fd8b94d8-8a5b-4775-b748-1e3e79d6e4bf","system_id":"levelo_inurba_marseille","lat":43.312239,"lon":5.368562,"is_reserved":false,"is_disabled":false,"rental_uris":{"android":"levelo://app?vid=fd8b94d8-8a5b-4775-b748-1e3e79d6e4bf","ios":"levelo://app?vid=fd8b94d8-8a5b-4775-b748-1e3e79d6e4bf"},"vehicle_type_id":"4","last_reported":1707257179,"current_range_meters":8400,"station_id":"ce4bgl92rcd13ifvqbq0","pricing_plan_id":"free"},{"bike_id":"11bddfe0-946f-4e22-8461-579ec26b50eb","system_id":"levelo_inurba_marseille","lat":43.312239,"lon":5.368562,"is_reserved":false,"is_disabled":false,"rental_uris":{"android":"levelo://app?vid=11bddfe0-946f-4e22-8461-579ec26b50eb","ios":"levelo://app?vid=11bddfe0-946f-4e22-8461-579ec26b50eb"},"vehicle_type_id":"4","last_reported":1707257179,"current_range_meters":10400,"station_id":"ce4bgl92rcd13ifvqbq0","pricing_plan_id":"free"},{"bike_id":"1698a267-a804-4c7e-8afc-8689de5fe72d","system_id":"levelo_inurba_marseille","lat":43.312239,"lon":5.368562,"is_reserved":false,"is_disabled":false,"rental_uris":{"android":"levelo://app?vid=1698a267-a804-4c7e-8afc-8689de5fe72d","ios":"levelo://app?vid=1698a267-a804-4c7e-8afc-8689de5fe72d"},"vehicle_type_id":"4","last_reported":1707257179,"current_range_meters":4800,"station_id":"ce4bgl92rcd13ifvqbq0","pricing_plan_id":"free"},{"bike_id":"b8573189-38f3-48be-bff6-2efa31e9f4c3","system_id":"levelo_inurba_marseille","lat":43.312239,"lon":5.368562,"is_reserved":false,"is_disabled":false,"rental_uris":{"android":"levelo://app?vid=b8573189-38f3-48be-bff6-2efa31e9f4c3","ios":"levelo://app?vid=b8573189-38f3-48be-bff6-2efa31e9f4c3"},"vehicle_type_id":"4","last_reported":1707257179,"current_range_meters":24400,"station_id":"ce4bgl92rcd13ifvqbq0","pricing_plan_id":"free"},{"bike_id":"39709010-cf82-488b-bdf6-34d7b2cf504e","system_id":"levelo_inurba_marseille","lat":43.309076,"lon":5.368465,"is_reserved":false,"is_disabled":false,"rental_uris":{"android":"levelo://app?vid=39709010-cf82-488b-bdf6-34d7b2cf504e","ios":"levelo://app?vid=39709010-cf82-488b-bdf6-34d7b2cf504e"},"vehicle_type_id":"4","last_reported":1707257179,"current_range_meters":30800,"station_id":"ce4bgn92rcd13ifvqbvg","pricing_plan_id":"free"},{"bike_id":"b972ce81-b0cd-46ec-86f6-716f0e0e512e","system_id":"levelo_inurba_marseille","lat":43.309039,"lon":5.371797,"is_reserved":false,"is_disabled":false,"rental_uris":{"android":"levelo://app?vid=b972ce81-b0cd-46ec-86f6-716f0e0e512e","ios":"levelo://app?vid=b972ce81-b0cd-46ec-86f6-716f0e0e512e"},"vehicle_type_id":"4","last_reported":1707257179,"current_range_meters":30800,"station_id":"ce4bguh2rcd13ifvqckg","pricing_plan_id":"free"},{"bike_id":"c1e0ae27-6364-4a66-ac0d-79ccee8429b5","system_id":"levelo_inurba_marseille","lat":43.30549,"lon":5.365517,"is_reserved":false,"is_disabled":false,"rental_uris":{"android":"levelo://app?vid=c1e0ae27-6364-4a66-ac0d-79ccee8429b5","ios":"levelo://app?vid=c1e0ae27-6364-4a66-ac0d-79ccee8429b5"},"vehicle_type_id":"4","last_reported":1707257179,"current_range_meters":15200,"station_id":"ce4bgs12rcd13ifvqcag","pricing_plan_id":"free"},{"bike_id":"5b683ef7-b85e-41d6-8a97-cb3c7b57a2f6","system_id":"levelo_inurba_marseille","lat":43.30537,"lon":5.367345,"is_reserved":false,"is_disabled":false,"rental_uris":{"android":"levelo://app?vid=5b683ef7-b85e-41d6-8a97-cb3c7b57a2f6","ios":"levelo://app?vid=5b683ef7-b85e-41d6-8a97-cb3c7b57a2f6"},"vehicle_type_id":"4","last_reported":1707257179,"current_range_meters":24400,"station_id":"ce4bgrp2rcd13ifvqc9g","pricing_plan_id":"free"},{"bike_id":"70299e31-3020-4172-83d0-763f284ae960","system_id":"levelo_inurba_marseille","lat":43.305368,"lon":5.367343,"is_reserved":false,"is_disabled":false,"rental_uris":{"android":"levelo://app?vid=70299e31-3020-4172-83d0-763f284ae960","ios":"levelo://app?vid=70299e31-3020-4172-83d0-763f284ae960"},"vehicle_type_id":"4","last_reported":1707257179,"current_range_meters":5600,"station_id":"ce4bgrp2rcd13ifvqc9g","pricing_plan_id":"free"},{"bike_id":"67c7febc-2391-4e6e-a811-f92236aafdf5","system_id":"levelo_inurba_marseille","lat":43.305368,"lon":5.367343,"is_reserved":false,"is_disabled":false,"rental_uris":{"android":"levelo://app?vid=67c7febc-2391-4e6e-a811-f92236aafdf5","ios":"levelo://app?vid=67c7febc-2391-4e6e-a811-f92236aafdf5"},"vehicle_type_id":"4","last_reported":1707257179,"current_range_meters":25200,"station_id":"ce4bgrp2rcd13ifvqc9g","pricing_plan_id":"free"},{"bike_id":"6ed2bac0-400d-46bb-8238-2118b37fe54a","system_id":"levelo_inurba_marseille","lat":43.305989,"lon":5.37225,"is_reserved":false,"is_disabled":false,"rental_uris":{"android":"levelo://app?vid=6ed2bac0-400d-46bb-8238-2118b37fe54a","ios":"levelo://app?vid=6ed2bac0-400d-46bb-8238-2118b37fe54a"},"vehicle_type_id":"4","last_reported":1707257179,"current_range_meters":20000,"station_id":"ce4bgqh2rcd13ifvqc4g","pricing_plan_id":"free"},{"bike_id":"06b345a1-f3bf-4b66-bbaa-f846f9354e5b","system_id":"levelo_inurba_marseille","lat":43.305989,"lon":5.37225,"is_reserved":false,"is_disabled":false,"rental_uris":{"android":"levelo://app?vid=06b345a1-f3bf-4b66-bbaa-f846f9354e5b","ios":"levelo://app?vid=06b345a1-f3bf-4b66-bbaa-f846f9354e5b"},"vehicle_type_id":"4","last_reported":1707257179,"current_range_meters":8800,"station_id":"ce4bgqh2rcd13ifvqc4g","pricing_plan_id":"free"},{"bike_id":"122af42f-2b12-4bbb-8345-13e7744a6d6b","system_id":"levelo_inurba_marseille","lat":43.305989,"lon":5.37225,"is_reserved":false,"is_disabled":false,"rental_uris":{"android":"levelo://app?vid=122af42f-2b12-4bbb-8345-13e7744a6d6b","ios":"levelo://app?vid=122af42f-2b12-4bbb-8345-13e7744a6d6b"},"vehicle_type_id":"4","last_reported":1707257179,"current_range_meters":0,"station_id":"ce4bgqh2rcd13ifvqc4g","pricing_plan_id":"free"},{"bike_id":"39f6a757-6bdb-4df0-969a-5bd7f58161e3","system_id":"levelo_inurba_marseille","lat":43.311125,"lon":5.377624,"is_reserved":false,"is_disabled":false,"rental_uris":{"android":"levelo://app?vid=39f6a757-6bdb-4df0-969a-5bd7f58161e3","ios":"levelo://app?vid=39f6a757-6bdb-4df0-969a-5bd7f58161e3"},"vehicle_type_id":"4","last_reported":1707257179,"current_range_meters":0,"station_id":"ce4bgt92rcd13ifvqcg0","pricing_plan_id":"free"},{"bike_id":"d8687bb9-b373-40f4-b59e-ad4daea2cca3","system_id":"levelo_inurba_marseille","lat":43.311131,"lon":5.377651,"is_reserved":false,"is_disabled":false,"rental_uris":{"android":"levelo://app?vid=d8687bb9-b373-40f4-b59e-ad4daea2cca3","ios":"levelo://app?vid=d8687bb9-b373-40f4-b59e-ad4daea2cca3"},"vehicle_type_id":"4","last_reported":1707257179,"current_range_meters":11600,"station_id":"ce4bgt92rcd13ifvqcg0","pricing_plan_id":"free"},{"bike_id":"5abeaf3e-da4a-4986-8ba2-7c5c5a5eb83f","system_id":"levelo_inurba_marseille","lat":43.307945,"lon":5.376487,"is_reserved":false,"is_disabled":false,"rental_uris":{"android":"levelo://app?vid=5abeaf3e-da4a-4986-8ba2-7c5c5a5eb83f","ios":"levelo://app?vid=5abeaf3e-da4a-4986-8ba2-7c5c5a5eb83f"},"vehicle_type_id":"4","last_reported":1707257179,"current_range_meters":27600,"station_id":"ce4bgv92rcd13ifvqcq0","pricing_plan_id":"free"},{"bike_id":"bbfc5f52-17f3-4330-9c28-d0c8b2bcb37d","system_id":"levelo_inurba_marseille","lat":43.317075,"lon":5.377367,"is_reserved":false,"is_disabled":false,"rental_uris":{"android":"levelo://app?vid=bbfc5f52-17f3-4330-9c28-d0c8b2bcb37d","ios":"levelo://app?vid=bbfc5f52-17f3-4330-9c28-d0c8b2bcb37d"},"vehicle_type_id":"4","last_reported":1707257179,"current_range_meters":3600,"station_id":"ce4bgth2rcd13ifvqch0","pricing_plan_id":"free"},{"bike_id":"0c466ccc-d747-4327-be86-c3896d0bbba3","system_id":"levelo_inurba_marseille","lat":43.317075,"lon":5.377367,"is_reserved":false,"is_disabled":false,"rental_uris":{"android":"levelo://app?vid=0c466ccc-d747-4327-be86-c3896d0bbba3","ios":"levelo://app?vid=0c466ccc-d747-4327-be86-c3896d0bbba3"},"vehicle_type_id":"4","last_reported":1707257179,"current_range_meters":31600,"station_id":"ce4bgth2rcd13ifvqch0","pricing_plan_id":"free"},{"bike_id":"44d074c1-d2db-47c6-8e3d-855ef42b92aa","system_id":"levelo_inurba_marseille","lat":43.315293,"lon":5.380349,"is_reserved":false,"is_disabled":false,"rental_uris":{"android":"levelo://app?vid=44d074c1-d2db-47c6-8e3d-855ef42b92aa","ios":"levelo://app?vid=44d074c1-d2db-47c6-8e3d-855ef42b92aa"},"vehicle_type_id":"4","last_reported":1707257179,"current_range_meters":23600,"station_id":"ce4bhsp2rcd13ifvqi50","pricing_plan_id":"free"},{"bike_id":"c3eb0486-c9f1-4610-978a-c48f7af8fd75","system_id":"levelo_inurba_marseille","lat":43.315293,"lon":5.380349,"is_reserved":false,"is_disabled":false,"rental_uris":{"android":"levelo://app?vid=c3eb0486-c9f1-4610-978a-c48f7af8fd75","ios":"levelo://app?vid=c3eb0486-c9f1-4610-978a-c48f7af8fd75"},"vehicle_type_id":"4","last_reported":1707257179,"current_range_meters":11200,"station_id":"ce4bhsp2rcd13ifvqi50","pricing_plan_id":"free"},{"bike_id":"32b3688b-c940-47a5-8354-60d524c82719","system_id":"levelo_inurba_marseille","lat":43.302008,"lon":5.366083,"is_reserved":false,"is_disabled":false,"rental_uris":{"android":"levelo://app?vid=32b3688b-c940-47a5-8354-60d524c82719","ios":"levelo://app?vid=32b3688b-c940-47a5-8354-60d524c82719"},"vehicle_type_id":"4","last_reported":1707257179,"current_range_meters":22000,"station_id":"ce4bgrh2rcd13ifvqc8g","pricing_plan_id":"free"},{"bike_id":"15b34d1c-1460-45a0-b068-48f29b0b7d24","system_id":"levelo_inurba_marseille","lat":43.301975,"lon":5.366128,"is_reserved":false,"is_disabled":false,"rental_uris":{"android":"levelo://app?vid=15b34d1c-1460-45a0-b068-48f29b0b7d24","ios":"levelo://app?vid=15b34d1c-1460-45a0-b068-48f29b0b7d24"},"vehicle_type_id":"4","last_reported":1707257179,"current_range_meters":29600,"station_id":"ce4bgrh2rcd13ifvqc8g","pricing_plan_id":"free"},{"bike_id":"e71d9013-2d08-48fd-b7e2-f101a986b566","system_id":"levelo_inurba_marseille","lat":43.301939,"lon":5.366286,"is_reserved":false,"is_disabled":false,"rental_uris":{"android":"levelo://app?vid=e71d9013-2d08-48fd-b7e2-f101a986b566","ios":"levelo://app?vid=e71d9013-2d08-48fd-b7e2-f101a986b566"},"vehicle_type_id":"4","last_reported":1707257179,"current_range_meters":6800,"station_id":"ce4bgrh2rcd13ifvqc8g","pricing_plan_id":"free"},{"bike_id":"46edaa90-d36e-4266-b3d3-60e1389a96b7","system_id":"levelo_inurba_marseille","lat":43.301939,"lon":5.366286,"is_reserved":false,"is_disabled":false,"rental_uris":{"android":"levelo://app?vid=46edaa90-d36e-4266-b3d3-60e1389a96b7","ios":"levelo://app?vid=46edaa90-d36e-4266-b3d3-60e1389a96b7"},"vehicle_type_id":"4","last_reported":1707257179,"current_range_meters":16800,"station_id":"ce4bgrh2rcd13ifvqc8g","pricing_plan_id":"free"},{"bike_id":"a394aba6-316e-493c-898e-32b69ac36ef0","system_id":"levelo_inurba_marseille","lat":43.308624,"lon":5.381811,"is_reserved":false,"is_disabled":false,"rental_uris":{"android":"levelo://app?vid=a394aba6-316e-493c-898e-32b69ac36ef0","ios":"levelo://app?vid=a394aba6-316e-493c-898e-32b69ac36ef0"},"vehicle_type_id":"4","last_reported":1707257179,"current_range_meters":16800,"station_id":"","pricing_plan_id":"free"},{"bike_id":"675e637c-52df-440b-a124-13c3b55c001f","system_id":"levelo_inurba_marseille","lat":43.308012,"lon":5.381511,"is_reserved":false,"is_disabled":false,"rental_uris":{"android":"levelo://app?vid=675e637c-52df-440b-a124-13c3b55c001f","ios":"levelo://app?vid=675e637c-52df-440b-a124-13c3b55c001f"},"vehicle_type_id":"4","last_reported":1707257179,"current_range_meters":0,"station_id":"ce4bgt12rcd13ifvqce0","pricing_plan_id":"free"},{"bike_id":"86bb28d6-8524-4639-af6f-d6b0f34c19c9","system_id":"levelo_inurba_marseille","lat":43.308012,"lon":5.381511,"is_reserved":false,"is_disabled":false,"rental_uris":{"android":"levelo://app?vid=86bb28d6-8524-4639-af6f-d6b0f34c19c9","ios":"levelo://app?vid=86bb28d6-8524-4639-af6f-d6b0f34c19c9"},"vehicle_type_id":"4","last_reported":1707257179,"current_range_meters":6400,"station_id":"ce4bgt12rcd13ifvqce0","pricing_plan_id":"free"},{"bike_id":"122130f0-5c4d-43a9-9f6c-31fce7e5e289","system_id":"levelo_inurba_marseille","lat":43.308012,"lon":5.381511,"is_reserved":false,"is_disabled":false,"rental_uris":{"android":"levelo://app?vid=122130f0-5c4d-43a9-9f6c-31fce7e5e289","ios":"levelo://app?vid=122130f0-5c4d-43a9-9f6c-31fce7e5e289"},"vehicle_type_id":"4","last_reported":1707257179,"current_range_meters":12800,"station_id":"ce4bgt12rcd13ifvqce0","pricing_plan_id":"free"},{"bike_id":"6359d164-8636-4f66-b78f-4cef13552aa1","system_id":"levelo_inurba_marseille","lat":43.308012,"lon":5.381511,"is_reserved":false,"is_disabled":false,"rental_uris":{"android":"levelo://app?vid=6359d164-8636-4f66-b78f-4cef13552aa1","ios":"levelo://app?vid=6359d164-8636-4f66-b78f-4cef13552aa1"},"vehicle_type_id":"4","last_reported":1707257179,"current_range_meters":12400,"station_id":"ce4bgt12rcd13ifvqce0","pricing_plan_id":"free"},{"bike_id":"ed0f226a-ff53-4560-a625-a3dcb4b6aa39","system_id":"levelo_inurba_marseille","lat":43.30467,"lon":5.37898,"is_reserved":false,"is_disabled":false,"rental_uris":{"android":"levelo://app?vid=ed0f226a-ff53-4560-a625-a3dcb4b6aa39","ios":"levelo://app?vid=ed0f226a-ff53-4560-a625-a3dcb4b6aa39"},"vehicle_type_id":"4","last_reported":1707257179,"current_range_meters":0,"station_id":"ce4bgup2rcd13ifvqcn0","pricing_plan_id":"free"},{"bike_id":"454cf383-afe7-43f4-bb9a-ee917fc42812","system_id":"levelo_inurba_marseille","lat":43.304606,"lon":5.379026,"is_reserved":false,"is_disabled":false,"rental_uris":{"android":"levelo://app?vid=454cf383-afe7-43f4-bb9a-ee917fc42812","ios":"levelo://app?vid=454cf383-afe7-43f4-bb9a-ee917fc42812"},"vehicle_type_id":"4","last_reported":1707257179,"current_range_meters":27600,"station_id":"ce4bgup2rcd13ifvqcn0","pricing_plan_id":"free"},{"bike_id":"5e3f4117-bf71-4295-8fac-b33a9c44e6b6","system_id":"levelo_inurba_marseille","lat":43.324771,"lon":5.36557,"is_reserved":false,"is_disabled":false,"rental_uris":{"android":"levelo://app?vid=5e3f4117-bf71-4295-8fac-b33a9c44e6b6","ios":"levelo://app?vid=5e3f4117-bf71-4295-8fac-b33a9c44e6b6"},"vehicle_type_id":"4","last_reported":1707257179,"current_range_meters":23200,"station_id":"ce4bhs12rcd13ifvqhvg","pricing_plan_id":"free"},{"bike_id":"97f71f75-d414-4d74-9636-20377fab8590","system_id":"levelo_inurba_marseille","lat":43.324771,"lon":5.36557,"is_reserved":false,"is_disabled":false,"rental_uris":{"android":"levelo://app?vid=97f71f75-d414-4d74-9636-20377fab8590","ios":"levelo://app?vid=97f71f75-d414-4d74-9636-20377fab8590"},"vehicle_type_id":"4","last_reported":1707257179,"current_range_meters":30000,"station_id":"ce4bhs12rcd13ifvqhvg","pricing_plan_id":"free"},{"bike_id":"38cd9f06-2496-4cc3-975c-dabe34e3b5eb","system_id":"levelo_inurba_marseille","lat":43.324771,"lon":5.36557,"is_reserved":false,"is_disabled":false,"rental_uris":{"android":"levelo://app?vid=38cd9f06-2496-4cc3-975c-dabe34e3b5eb","ios":"levelo://app?vid=38cd9f06-2496-4cc3-975c-dabe34e3b5eb"},"vehicle_type_id":"4","last_reported":1707257179,"current_range_meters":800,"station_id":"ce4bhs12rcd13ifvqhvg","pricing_plan_id":"free"},{"bike_id":"4f950c7f-7cb5-4f30-9590-a8fdce534a4c","system_id":"levelo_inurba_marseille","lat":43.31069,"lon":5.383486,"is_reserved":false,"is_disabled":false,"rental_uris":{"android":"levelo://app?vid=4f950c7f-7cb5-4f30-9590-a8fdce534a4c","ios":"levelo://app?vid=4f950c7f-7cb5-4f30-9590-a8fdce534a4c"},"vehicle_type_id":"4","last_reported":1707257179,"current_range_meters":17600,"station_id":"ce4bgv92rcd13ifvqcr0","pricing_plan_id":"free"},{"bike_id":"edf45dfe-91d7-407a-b7d3-81c40bcf1454","system_id":"levelo_inurba_marseille","lat":43.310704,"lon":5.383496,"is_reserved":false,"is_disabled":false,"rental_uris":{"android":"levelo://app?vid=edf45dfe-91d7-407a-b7d3-81c40bcf1454","ios":"levelo://app?vid=edf45dfe-91d7-407a-b7d3-81c40bcf1454"},"vehicle_type_id":"4","last_reported":1707257179,"current_range_meters":25600,"station_id":"ce4bgv92rcd13ifvqcr0","pricing_plan_id":"free"},{"bike_id":"b23a88ee-727a-4ee0-ac64-e7e015e2549f","system_id":"levelo_inurba_marseille","lat":43.31073,"lon":5.38353,"is_reserved":false,"is_disabled":false,"rental_uris":{"android":"levelo://app?vid=b23a88ee-727a-4ee0-ac64-e7e015e2549f","ios":"levelo://app?vid=b23a88ee-727a-4ee0-ac64-e7e015e2549f"},"vehicle_type_id":"4","last_reported":1707257179,"current_range_meters":0,"station_id":"ce4bgv92rcd13ifvqcr0","pricing_plan_id":"free"},{"bike_id":"7c20e289-a25a-40af-994e-4d7947cbd0b5","system_id":"levelo_inurba_marseille","lat":43.31069,"lon":5.38354,"is_reserved":false,"is_disabled":false,"rental_uris":{"android":"levelo://app?vid=7c20e289-a25a-40af-994e-4d7947cbd0b5","ios":"levelo://app?vid=7c20e289-a25a-40af-994e-4d7947cbd0b5"},"vehicle_type_id":"4","last_reported":1707257179,"current_range_meters":1600,"station_id":"ce4bgv92rcd13ifvqcr0","pricing_plan_id":"free"},{"bike_id":"5283c74b-358f-4802-9fb8-0203d5d3767e","system_id":"levelo_inurba_marseille","lat":43.30143,"lon":5.37413,"is_reserved":false,"is_disabled":false,"rental_uris":{"android":"levelo://app?vid=5283c74b-358f-4802-9fb8-0203d5d3767e","ios":"levelo://app?vid=5283c74b-358f-4802-9fb8-0203d5d3767e"},"vehicle_type_id":"4","last_reported":1707257179,"current_range_meters":29200,"station_id":"ce4bgs92rcd13ifvqcc0","pricing_plan_id":"free"},{"bike_id":"3c2d55aa-7635-4f7b-a7ed-f56b72b8a6be","system_id":"levelo_inurba_marseille","lat":43.301429,"lon":5.37413,"is_reserved":false,"is_disabled":false,"rental_uris":{"android":"levelo://app?vid=3c2d55aa-7635-4f7b-a7ed-f56b72b8a6be","ios":"levelo://app?vid=3c2d55aa-7635-4f7b-a7ed-f56b72b8a6be"},"vehicle_type_id":"4","last_reported":1707257179,"current_range_meters":16000,"station_id":"ce4bgs92rcd13ifvqcc0","pricing_plan_id":"free"},{"bike_id":"12ce1b51-e513-48d4-8826-d38689553faa","system_id":"levelo_inurba_marseille","lat":43.319935,"lon":5.381699,"is_reserved":false,"is_disabled":false,"rental_uris":{"android":"levelo://app?vid=12ce1b51-e513-48d4-8826-d38689553faa","ios":"levelo://app?vid=12ce1b51-e513-48d4-8826-d38689553faa"},"vehicle_type_id":"4","last_reported":1707257179,"current_range_meters":25600,"station_id":"ce4bhr12rcd13ifvqhpg","pricing_plan_id":"free"},{"bike_id":"ccf2a241-3d64-4fde-891f-1d3d7e7db1c1","system_id":"levelo_inurba_marseille","lat":43.319935,"lon":5.381699,"is_reserved":false,"is_disabled":false,"rental_uris":{"android":"levelo://app?vid=ccf2a241-3d64-4fde-891f-1d3d7e7db1c1","ios":"levelo://app?vid=ccf2a241-3d64-4fde-891f-1d3d7e7db1c1"},"vehicle_type_id":"4","last_reported":1707257179,"current_range_meters":26000,"station_id":"ce4bhr12rcd13ifvqhpg","pricing_plan_id":"free"},{"bike_id":"cd1697dc-c996-412f-9980-2785b058e155","system_id":"levelo_inurba_marseille","lat":43.319935,"lon":5.381699,"is_reserved":false,"is_disabled":false,"rental_uris":{"android":"levelo://app?vid=cd1697dc-c996-412f-9980-2785b058e155","ios":"levelo://app?vid=cd1697dc-c996-412f-9980-2785b058e155"},"vehicle_type_id":"4","last_reported":1707257179,"current_range_meters":17200,"station_id":"ce4bhr12rcd13ifvqhpg","pricing_plan_id":"free"},{"bike_id":"6ec3f119-1396-4f2b-bc37-fafe9f44fa4b","system_id":"levelo_inurba_marseille","lat":43.319935,"lon":5.381699,"is_reserved":false,"is_disabled":false,"rental_uris":{"android":"levelo://app?vid=6ec3f119-1396-4f2b-bc37-fafe9f44fa4b","ios":"levelo://app?vid=6ec3f119-1396-4f2b-bc37-fafe9f44fa4b"},"vehicle_type_id":"4","last_reported":1707257179,"current_range_meters":19600,"station_id":"ce4bhr12rcd13ifvqhpg","pricing_plan_id":"free"},{"bike_id":"4505dd3b-e70e-4db9-b95e-a6d146ab3434","system_id":"levelo_inurba_marseille","lat":43.319935,"lon":5.381699,"is_reserved":false,"is_disabled":false,"rental_uris":{"android":"levelo://app?vid=4505dd3b-e70e-4db9-b95e-a6d146ab3434","ios":"levelo://app?vid=4505dd3b-e70e-4db9-b95e-a6d146ab3434"},"vehicle_type_id":"4","last_reported":1707257179,"current_range_meters":14000,"station_id":"ce4bhr12rcd13ifvqhpg","pricing_plan_id":"free"},{"bike_id":"0abbaad6-12a6-4f04-8257-739b9ff8f24b","system_id":"levelo_inurba_marseille","lat":43.319935,"lon":5.381699,"is_reserved":false,"is_disabled":false,"rental_uris":{"android":"levelo://app?vid=0abbaad6-12a6-4f04-8257-739b9ff8f24b","ios":"levelo://app?vid=0abbaad6-12a6-4f04-8257-739b9ff8f24b"},"vehicle_type_id":"4","last_reported":1707257179,"current_range_meters":9200,"station_id":"ce4bhr12rcd13ifvqhpg","pricing_plan_id":"free"},{"bike_id":"cd930c75-f2d0-49f4-a962-1ba9d506628f","system_id":"levelo_inurba_marseille","lat":43.319935,"lon":5.381699,"is_reserved":false,"is_disabled":false,"rental_uris":{"android":"levelo://app?vid=cd930c75-f2d0-49f4-a962-1ba9d506628f","ios":"levelo://app?vid=cd930c75-f2d0-49f4-a962-1ba9d506628f"},"vehicle_type_id":"4","last_reported":1707257179,"current_range_meters":17200,"station_id":"ce4bhr12rcd13ifvqhpg","pricing_plan_id":"free"},{"bike_id":"1c25a4cd-9cf0-4c3b-88f3-a47ab8939f20","system_id":"levelo_inurba_marseille","lat":43.31992,"lon":5.38168,"is_reserved":false,"is_disabled":false,"rental_uris":{"android":"levelo://app?vid=1c25a4cd-9cf0-4c3b-88f3-a47ab8939f20","ios":"levelo://app?vid=1c25a4cd-9cf0-4c3b-88f3-a47ab8939f20"},"vehicle_type_id":"4","last_reported":1707257179,"current_range_meters":14400,"station_id":"ce4bhr12rcd13ifvqhpg","pricing_plan_id":"free"},{"bike_id":"3b3ba378-a266-417c-9c43-cb829e6481c7","system_id":"levelo_inurba_marseille","lat":43.319935,"lon":5.381699,"is_reserved":false,"is_disabled":false,"rental_uris":{"android":"levelo://app?vid=3b3ba378-a266-417c-9c43-cb829e6481c7","ios":"levelo://app?vid=3b3ba378-a266-417c-9c43-cb829e6481c7"},"vehicle_type_id":"4","last_reported":1707257179,"current_range_meters":5200,"station_id":"ce4bhr12rcd13ifvqhpg","pricing_plan_id":"free"},{"bike_id":"50527666-905e-48d3-b0d9-2780ed491453","system_id":"levelo_inurba_marseille","lat":43.313571,"lon":5.384829,"is_reserved":false,"is_disabled":false,"rental_uris":{"android":"levelo://app?vid=50527666-905e-48d3-b0d9-2780ed491453","ios":"levelo://app?vid=50527666-905e-48d3-b0d9-2780ed491453"},"vehicle_type_id":"4","last_reported":1707257179,"current_range_meters":23600,"station_id":"ce4bgt92rcd13ifvqcf0","pricing_plan_id":"free"},{"bike_id":"efc61b0c-df87-4e70-8118-edca778d83e8","system_id":"levelo_inurba_marseille","lat":43.313571,"lon":5.384829,"is_reserved":false,"is_disabled":false,"rental_uris":{"android":"levelo://app?vid=efc61b0c-df87-4e70-8118-edca778d83e8","ios":"levelo://app?vid=efc61b0c-df87-4e70-8118-edca778d83e8"},"vehicle_type_id":"4","last_reported":1707257179,"current_range_meters":3200,"station_id":"ce4bgt92rcd13ifvqcf0","pricing_plan_id":"free"},{"bike_id":"aa2daeb2-6e2c-44e2-a71a-635c5683cc13","system_id":"levelo_inurba_marseille","lat":43.313571,"lon":5.384829,"is_reserved":false,"is_disabled":false,"rental_uris":{"android":"levelo://app?vid=aa2daeb2-6e2c-44e2-a71a-635c5683cc13","ios":"levelo://app?vid=aa2daeb2-6e2c-44e2-a71a-635c5683cc13"},"vehicle_type_id":"4","last_reported":1707257179,"current_range_meters":18800,"station_id":"ce4bgt92rcd13ifvqcf0","pricing_plan_id":"free"},{"bike_id":"c296969d-2eb2-46f0-8d1c-d054b0c44ad2","system_id":"levelo_inurba_marseille","lat":43.313571,"lon":5.384829,"is_reserved":false,"is_disabled":false,"rental_uris":{"android":"levelo://app?vid=c296969d-2eb2-46f0-8d1c-d054b0c44ad2","ios":"levelo://app?vid=c296969d-2eb2-46f0-8d1c-d054b0c44ad2"},"vehicle_type_id":"4","last_reported":1707257179,"current_range_meters":11200,"station_id":"ce4bgt92rcd13ifvqcf0","pricing_plan_id":"free"},{"bike_id":"a0fdb0de-f985-4692-8e62-3b9211ee337b","system_id":"levelo_inurba_marseille","lat":43.313571,"lon":5.384829,"is_reserved":false,"is_disabled":false,"rental_uris":{"android":"levelo://app?vid=a0fdb0de-f985-4692-8e62-3b9211ee337b","ios":"levelo://app?vid=a0fdb0de-f985-4692-8e62-3b9211ee337b"},"vehicle_type_id":"4","last_reported":1707257179,"current_range_meters":18800,"station_id":"ce4bgt92rcd13ifvqcf0","pricing_plan_id":"free"},{"bike_id":"57bc19a3-b0b1-4484-8bd1-5131c45038fd","system_id":"levelo_inurba_marseille","lat":43.299222,"lon":5.365554,"is_reserved":false,"is_disabled":false,"rental_uris":{"android":"levelo://app?vid=57bc19a3-b0b1-4484-8bd1-5131c45038fd","ios":"levelo://app?vid=57bc19a3-b0b1-4484-8bd1-5131c45038fd"},"vehicle_type_id":"4","last_reported":1707257179,"current_range_meters":30400,"station_id":"ce4bgm92rcd13ifvqbr0","pricing_plan_id":"free"},{"bike_id":"ec007b0f-fc5a-4f17-b09a-1d4055ee2459","system_id":"levelo_inurba_marseille","lat":43.299724,"lon":5.371829,"is_reserved":false,"is_disabled":false,"rental_uris":{"android":"levelo://app?vid=ec007b0f-fc5a-4f17-b09a-1d4055ee2459","ios":"levelo://app?vid=ec007b0f-fc5a-4f17-b09a-1d4055ee2459"},"vehicle_type_id":"4","last_reported":1707257179,"current_range_meters":27200,"station_id":"ce4bgr92rcd13ifvqc7g","pricing_plan_id":"free"},{"bike_id":"d73908e2-2bfd-489b-804e-d4e95fac72d2","system_id":"levelo_inurba_marseille","lat":43.326525,"lon":5.36078,"is_reserved":false,"is_disabled":false,"rental_uris":{"android":"levelo://app?vid=d73908e2-2bfd-489b-804e-d4e95fac72d2","ios":"levelo://app?vid=d73908e2-2bfd-489b-804e-d4e95fac72d2"},"vehicle_type_id":"4","last_reported":1707257179,"current_range_meters":13200,"station_id":"","pricing_plan_id":"free"},{"bike_id":"2b394655-3659-4933-b74a-2fd23773e391","system_id":"levelo_inurba_marseille","lat":43.298433,"lon":5.362774,"is_reserved":false,"is_disabled":false,"rental_uris":{"android":"levelo://app?vid=2b394655-3659-4933-b74a-2fd23773e391","ios":"levelo://app?vid=2b394655-3659-4933-b74a-2fd23773e391"},"vehicle_type_id":"4","last_reported":1707257179,"current_range_meters":27200,"station_id":"ce4bgpp2rcd13ifvqc3g","pricing_plan_id":"free"},{"bike_id":"0a7a6941-c18a-4bb9-a7fc-dd9c9e77b2c4","system_id":"levelo_inurba_marseille","lat":43.311722,"lon":5.387247,"is_reserved":false,"is_disabled":false,"rental_uris":{"android":"levelo://app?vid=0a7a6941-c18a-4bb9-a7fc-dd9c9e77b2c4","ios":"levelo://app?vid=0a7a6941-c18a-4bb9-a7fc-dd9c9e77b2c4"},"vehicle_type_id":"4","last_reported":1707257179,"current_range_meters":12800,"station_id":"ce4bgv12rcd13ifvqcp0","pricing_plan_id":"free"},{"bike_id":"821c419a-c2e6-42b8-9c75-829332e7bae9","system_id":"levelo_inurba_marseille","lat":43.311828,"lon":5.387124,"is_reserved":false,"is_disabled":false,"rental_uris":{"android":"levelo://app?vid=821c419a-c2e6-42b8-9c75-829332e7bae9","ios":"levelo://app?vid=821c419a-c2e6-42b8-9c75-829332e7bae9"},"vehicle_type_id":"4","last_reported":1707257179,"current_range_meters":4400,"station_id":"ce4bgv12rcd13ifvqcp0","pricing_plan_id":"free"},{"bike_id":"d584fdf6-f44f-452e-8a4b-793493cd1ad4","system_id":"levelo_inurba_marseille","lat":43.311722,"lon":5.387247,"is_reserved":false,"is_disabled":false,"rental_uris":{"android":"levelo://app?vid=d584fdf6-f44f-452e-8a4b-793493cd1ad4","ios":"levelo://app?vid=d584fdf6-f44f-452e-8a4b-793493cd1ad4"},"vehicle_type_id":"4","last_reported":1707257179,"current_range_meters":19600,"station_id":"ce4bgv12rcd13ifvqcp0","pricing_plan_id":"free"},{"bike_id":"251db69b-0529-447c-ab49-508126bf452a","system_id":"levelo_inurba_marseille","lat":43.311722,"lon":5.387247,"is_reserved":false,"is_disabled":false,"rental_uris":{"android":"levelo://app?vid=251db69b-0529-447c-ab49-508126bf452a","ios":"levelo://app?vid=251db69b-0529-447c-ab49-508126bf452a"},"vehicle_type_id":"4","last_reported":1707257179,"current_range_meters":16800,"station_id":"ce4bgv12rcd13ifvqcp0","pricing_plan_id":"free"},{"bike_id":"a6be166a-e1f3-4327-ace1-0262da7aa811","system_id":"levelo_inurba_marseille","lat":43.311722,"lon":5.387247,"is_reserved":false,"is_disabled":false,"rental_uris":{"android":"levelo://app?vid=a6be166a-e1f3-4327-ace1-0262da7aa811","ios":"levelo://app?vid=a6be166a-e1f3-4327-ace1-0262da7aa811"},"vehicle_type_id":"4","last_reported":1707257179,"current_range_meters":30000,"station_id":"ce4bgv12rcd13ifvqcp0","pricing_plan_id":"free"},{"bike_id":"8e1c1a13-d05a-46d1-9bf5-f7fd775bdab3","system_id":"levelo_inurba_marseille","lat":43.297794,"lon":5.370888,"is_reserved":false,"is_disabled":false,"rental_uris":{"android":"levelo://app?vid=8e1c1a13-d05a-46d1-9bf5-f7fd775bdab3","ios":"levelo://app?vid=8e1c1a13-d05a-46d1-9bf5-f7fd775bdab3"},"vehicle_type_id":"4","last_reported":1707257179,"current_range_meters":25600,"station_id":"ce4bgop2rcd13ifvqc1g","pricing_plan_id":"free"},{"bike_id":"068825c3-0e30-4039-9991-0f25d2c61d15","system_id":"levelo_inurba_marseille","lat":43.32792,"lon":5.36684,"is_reserved":false,"is_disabled":false,"rental_uris":{"android":"levelo://app?vid=068825c3-0e30-4039-9991-0f25d2c61d15","ios":"levelo://app?vid=068825c3-0e30-4039-9991-0f25d2c61d15"},"vehicle_type_id":"4","last_reported":1707257179,"current_range_meters":14400,"station_id":"","pricing_plan_id":"free"},{"bike_id":"45c64da1-4fa1-42ae-9443-0b54250e784a","system_id":"levelo_inurba_marseille","lat":43.297774,"lon":5.370875,"is_reserved":false,"is_disabled":false,"rental_uris":{"android":"levelo://app?vid=45c64da1-4fa1-42ae-9443-0b54250e784a","ios":"levelo://app?vid=45c64da1-4fa1-42ae-9443-0b54250e784a"},"vehicle_type_id":"4","last_reported":1707257179,"current_range_meters":23200,"station_id":"ce4bgop2rcd13ifvqc1g","pricing_plan_id":"free"},{"bike_id":"cbd7c7be-056b-4602-ab3f-d782aedb9cce","system_id":"levelo_inurba_marseille","lat":43.297794,"lon":5.370888,"is_reserved":false,"is_disabled":false,"rental_uris":{"android":"levelo://app?vid=cbd7c7be-056b-4602-ab3f-d782aedb9cce","ios":"levelo://app?vid=cbd7c7be-056b-4602-ab3f-d782aedb9cce"},"vehicle_type_id":"4","last_reported":1707257179,"current_range_meters":20800,"station_id":"ce4bgop2rcd13ifvqc1g","pricing_plan_id":"free"},{"bike_id":"aeda78ec-de39-407e-8a5b-89262fd5c123","system_id":"levelo_inurba_marseille","lat":43.322872,"lon":5.382756,"is_reserved":false,"is_disabled":false,"rental_uris":{"android":"levelo://app?vid=aeda78ec-de39-407e-8a5b-89262fd5c123","ios":"levelo://app?vid=aeda78ec-de39-407e-8a5b-89262fd5c123"},"vehicle_type_id":"4","last_reported":1707257179,"current_range_meters":29600,"station_id":"ce4bhr12rcd13ifvqhqg","pricing_plan_id":"free"},{"bike_id":"f05ba268-8024-4397-b67e-d5d6848bf3c7","system_id":"levelo_inurba_marseille","lat":43.322872,"lon":5.382756,"is_reserved":false,"is_disabled":false,"rental_uris":{"android":"levelo://app?vid=f05ba268-8024-4397-b67e-d5d6848bf3c7","ios":"levelo://app?vid=f05ba268-8024-4397-b67e-d5d6848bf3c7"},"vehicle_type_id":"4","last_reported":1707257179,"current_range_meters":25200,"station_id":"ce4bhr12rcd13ifvqhqg","pricing_plan_id":"free"},{"bike_id":"2e7d1277-a3ec-4c37-831b-c0b641935959","system_id":"levelo_inurba_marseille","lat":43.32818,"lon":5.36689,"is_reserved":false,"is_disabled":false,"rental_uris":{"android":"levelo://app?vid=2e7d1277-a3ec-4c37-831b-c0b641935959","ios":"levelo://app?vid=2e7d1277-a3ec-4c37-831b-c0b641935959"},"vehicle_type_id":"4","last_reported":1707257179,"current_range_meters":10800,"station_id":"ce4bhs92rcd13ifvqi0g","pricing_plan_id":"free"},{"bike_id":"1900e2ea-9239-49b1-933e-57903fa99707","system_id":"levelo_inurba_marseille","lat":43.32826,"lon":5.36695,"is_reserved":false,"is_disabled":false,"rental_uris":{"android":"levelo://app?vid=1900e2ea-9239-49b1-933e-57903fa99707","ios":"levelo://app?vid=1900e2ea-9239-49b1-933e-57903fa99707"},"vehicle_type_id":"4","last_reported":1707257179,"current_range_meters":2000,"station_id":"ce4bhs92rcd13ifvqi0g","pricing_plan_id":"free"},{"bike_id":"6a5b4a9f-7323-472e-b759-8dae709cba6c","system_id":"levelo_inurba_marseille","lat":43.32826,"lon":5.36685,"is_reserved":false,"is_disabled":false,"rental_uris":{"android":"levelo://app?vid=6a5b4a9f-7323-472e-b759-8dae709cba6c","ios":"levelo://app?vid=6a5b4a9f-7323-472e-b759-8dae709cba6c"},"vehicle_type_id":"4","last_reported":1707257179,"current_range_meters":13600,"station_id":"ce4bhs92rcd13ifvqi0g","pricing_plan_id":"free"},{"bike_id":"6cd6b889-8d57-4573-b2a2-aa0a2c9636a8","system_id":"levelo_inurba_marseille","lat":43.32827,"lon":5.36672,"is_reserved":false,"is_disabled":false,"rental_uris":{"android":"levelo://app?vid=6cd6b889-8d57-4573-b2a2-aa0a2c9636a8","ios":"levelo://app?vid=6cd6b889-8d57-4573-b2a2-aa0a2c9636a8"},"vehicle_type_id":"4","last_reported":1707257179,"current_range_meters":0,"station_id":"ce4bhs92rcd13ifvqi0g","pricing_plan_id":"free"},{"bike_id":"a7f79efb-1544-4a9c-90b1-63c97e52bce2","system_id":"levelo_inurba_marseille","lat":43.32829,"lon":5.36679,"is_reserved":false,"is_disabled":false,"rental_uris":{"android":"levelo://app?vid=a7f79efb-1544-4a9c-90b1-63c97e52bce2","ios":"levelo://app?vid=a7f79efb-1544-4a9c-90b1-63c97e52bce2"},"vehicle_type_id":"4","last_reported":1707257179,"current_range_meters":10000,"station_id":"ce4bhs92rcd13ifvqi0g","pricing_plan_id":"free"},{"bike_id":"46ffd311-8d24-4a9c-a424-d0bccfd813b8","system_id":"levelo_inurba_marseille","lat":43.3283,"lon":5.366836,"is_reserved":false,"is_disabled":false,"rental_uris":{"android":"levelo://app?vid=46ffd311-8d24-4a9c-a424-d0bccfd813b8","ios":"levelo://app?vid=46ffd311-8d24-4a9c-a424-d0bccfd813b8"},"vehicle_type_id":"4","last_reported":1707257179,"current_range_meters":4000,"station_id":"ce4bhs92rcd13ifvqi0g","pricing_plan_id":"free"},{"bike_id":"36243836-0b62-45d5-b00e-078a5c9e3add","system_id":"levelo_inurba_marseille","lat":43.32834,"lon":5.36669,"is_reserved":false,"is_disabled":false,"rental_uris":{"android":"levelo://app?vid=36243836-0b62-45d5-b00e-078a5c9e3add","ios":"levelo://app?vid=36243836-0b62-45d5-b00e-078a5c9e3add"},"vehicle_type_id":"4","last_reported":1707257179,"current_range_meters":5200,"station_id":"ce4bhs92rcd13ifvqi0g","pricing_plan_id":"free"},{"bike_id":"e9931e11-7f7d-405e-b611-f5c0a6974b86","system_id":"levelo_inurba_marseille","lat":43.32835,"lon":5.3668,"is_reserved":false,"is_disabled":false,"rental_uris":{"android":"levelo://app?vid=e9931e11-7f7d-405e-b611-f5c0a6974b86","ios":"levelo://app?vid=e9931e11-7f7d-405e-b611-f5c0a6974b86"},"vehicle_type_id":"4","last_reported":1707257179,"current_range_meters":11600,"station_id":"ce4bhs92rcd13ifvqi0g","pricing_plan_id":"free"},{"bike_id":"655782ea-adc5-4c9e-a8c7-608dca9d4db8","system_id":"levelo_inurba_marseille","lat":43.328371,"lon":5.366912,"is_reserved":false,"is_disabled":false,"rental_uris":{"android":"levelo://app?vid=655782ea-adc5-4c9e-a8c7-608dca9d4db8","ios":"levelo://app?vid=655782ea-adc5-4c9e-a8c7-608dca9d4db8"},"vehicle_type_id":"4","last_reported":1707257179,"current_range_meters":20800,"station_id":"ce4bhs92rcd13ifvqi0g","pricing_plan_id":"free"},{"bike_id":"99589ebc-86e7-4795-864a-66a85845473f","system_id":"levelo_inurba_marseille","lat":43.296902,"lon":5.37287,"is_reserved":false,"is_disabled":false,"rental_uris":{"android":"levelo://app?vid=99589ebc-86e7-4795-864a-66a85845473f","ios":"levelo://app?vid=99589ebc-86e7-4795-864a-66a85845473f"},"vehicle_type_id":"4","last_reported":1707257179,"current_range_meters":21200,"station_id":"ce4bgk12rcd13ifvqbj0","pricing_plan_id":"free"},{"bike_id":"b1725dd9-6949-46e4-a10f-a912b30ad128","system_id":"levelo_inurba_marseille","lat":43.299028,"lon":5.381509,"is_reserved":false,"is_disabled":false,"rental_uris":{"android":"levelo://app?vid=b1725dd9-6949-46e4-a10f-a912b30ad128","ios":"levelo://app?vid=b1725dd9-6949-46e4-a10f-a912b30ad128"},"vehicle_type_id":"4","last_reported":1707257179,"current_range_meters":6800,"station_id":"ce4bgj12rcd13ifvqbc0","pricing_plan_id":"free"},{"bike_id":"98da3645-42a4-4cb8-8e50-45ca833ad6d2","system_id":"levelo_inurba_marseille","lat":43.299028,"lon":5.381509,"is_reserved":false,"is_disabled":false,"rental_uris":{"android":"levelo://app?vid=98da3645-42a4-4cb8-8e50-45ca833ad6d2","ios":"levelo://app?vid=98da3645-42a4-4cb8-8e50-45ca833ad6d2"},"vehicle_type_id":"4","last_reported":1707257179,"current_range_meters":20800,"station_id":"ce4bgj12rcd13ifvqbc0","pricing_plan_id":"free"},{"bike_id":"67ebbab2-e01f-4121-8488-b6419b179932","system_id":"levelo_inurba_marseille","lat":43.309589,"lon":5.390258,"is_reserved":false,"is_disabled":false,"rental_uris":{"android":"levelo://app?vid=67ebbab2-e01f-4121-8488-b6419b179932","ios":"levelo://app?vid=67ebbab2-e01f-4121-8488-b6419b179932"},"vehicle_type_id":"4","last_reported":1707257179,"current_range_meters":400,"station_id":"ce4bgup2rcd13ifvqco0","pricing_plan_id":"free"},{"bike_id":"b393e380-9b9a-4239-8934-e30e3f7bac4e","system_id":"levelo_inurba_marseille","lat":43.31746,"lon":5.38997,"is_reserved":false,"is_disabled":false,"rental_uris":{"android":"levelo://app?vid=b393e380-9b9a-4239-8934-e30e3f7bac4e","ios":"levelo://app?vid=b393e380-9b9a-4239-8934-e30e3f7bac4e"},"vehicle_type_id":"4","last_reported":1707257179,"current_range_meters":14800,"station_id":"ce4bhqp2rcd13ifvqhng","pricing_plan_id":"free"},{"bike_id":"6cad973f-9e99-4e8b-8fca-b29a3c3064fc","system_id":"levelo_inurba_marseille","lat":43.31758,"lon":5.39014,"is_reserved":false,"is_disabled":false,"rental_uris":{"android":"levelo://app?vid=6cad973f-9e99-4e8b-8fca-b29a3c3064fc","ios":"levelo://app?vid=6cad973f-9e99-4e8b-8fca-b29a3c3064fc"},"vehicle_type_id":"4","last_reported":1707257179,"current_range_meters":4400,"station_id":"ce4bhqp2rcd13ifvqhng","pricing_plan_id":"free"},{"bike_id":"3ccd3931-8811-4b7f-a846-c32a0a6915a2","system_id":"levelo_inurba_marseille","lat":43.317557,"lon":5.390173,"is_reserved":false,"is_disabled":false,"rental_uris":{"android":"levelo://app?vid=3ccd3931-8811-4b7f-a846-c32a0a6915a2","ios":"levelo://app?vid=3ccd3931-8811-4b7f-a846-c32a0a6915a2"},"vehicle_type_id":"4","last_reported":1707257179,"current_range_meters":26000,"station_id":"ce4bhqp2rcd13ifvqhng","pricing_plan_id":"free"},{"bike_id":"8236458b-34ca-49b5-ab60-c4f12ac61945","system_id":"levelo_inurba_marseille","lat":43.317555,"lon":5.390165,"is_reserved":false,"is_disabled":false,"rental_uris":{"android":"levelo://app?vid=8236458b-34ca-49b5-ab60-c4f12ac61945","ios":"levelo://app?vid=8236458b-34ca-49b5-ab60-c4f12ac61945"},"vehicle_type_id":"4","last_reported":1707257179,"current_range_meters":15600,"station_id":"ce4bhqp2rcd13ifvqhng","pricing_plan_id":"free"},{"bike_id":"cd483cf2-ddf7-4bc2-8846-13c380942b93","system_id":"levelo_inurba_marseille","lat":43.31758,"lon":5.39016,"is_reserved":false,"is_disabled":false,"rental_uris":{"android":"levelo://app?vid=cd483cf2-ddf7-4bc2-8846-13c380942b93","ios":"levelo://app?vid=cd483cf2-ddf7-4bc2-8846-13c380942b93"},"vehicle_type_id":"4","last_reported":1707257179,"current_range_meters":20400,"station_id":"ce4bhqp2rcd13ifvqhng","pricing_plan_id":"free"},{"bike_id":"9268b101-79ac-4bcb-b66b-b3aa5eb7916b","system_id":"levelo_inurba_marseille","lat":43.317605,"lon":5.390165,"is_reserved":false,"is_disabled":false,"rental_uris":{"android":"levelo://app?vid=9268b101-79ac-4bcb-b66b-b3aa5eb7916b","ios":"levelo://app?vid=9268b101-79ac-4bcb-b66b-b3aa5eb7916b"},"vehicle_type_id":"4","last_reported":1707257179,"current_range_meters":17200,"station_id":"ce4bhqp2rcd13ifvqhng","pricing_plan_id":"free"},{"bike_id":"f9e71f25-83c3-4ad2-95f8-b63267492ced","system_id":"levelo_inurba_marseille","lat":43.317557,"lon":5.390173,"is_reserved":false,"is_disabled":false,"rental_uris":{"android":"levelo://app?vid=f9e71f25-83c3-4ad2-95f8-b63267492ced","ios":"levelo://app?vid=f9e71f25-83c3-4ad2-95f8-b63267492ced"},"vehicle_type_id":"4","last_reported":1707257179,"current_range_meters":22000,"station_id":"ce4bhqp2rcd13ifvqhng","pricing_plan_id":"free"},{"bike_id":"acfb1a76-9d92-4e60-b5a5-bb928051e624","system_id":"levelo_inurba_marseille","lat":43.317557,"lon":5.390173,"is_reserved":false,"is_disabled":false,"rental_uris":{"android":"levelo://app?vid=acfb1a76-9d92-4e60-b5a5-bb928051e624","ios":"levelo://app?vid=acfb1a76-9d92-4e60-b5a5-bb928051e624"},"vehicle_type_id":"4","last_reported":1707257179,"current_range_meters":29600,"station_id":"ce4bhqp2rcd13ifvqhng","pricing_plan_id":"free"},{"bike_id":"cff55c77-7ebe-4284-bc48-2fbd9d0bf89e","system_id":"levelo_inurba_marseille","lat":43.31757,"lon":5.3902,"is_reserved":false,"is_disabled":false,"rental_uris":{"android":"levelo://app?vid=cff55c77-7ebe-4284-bc48-2fbd9d0bf89e","ios":"levelo://app?vid=cff55c77-7ebe-4284-bc48-2fbd9d0bf89e"},"vehicle_type_id":"4","last_reported":1707257179,"current_range_meters":17600,"station_id":"ce4bhqp2rcd13ifvqhng","pricing_plan_id":"free"},{"bike_id":"211f186d-35fc-4407-a75f-a4e75d95c601","system_id":"levelo_inurba_marseille","lat":43.31759,"lon":5.39021,"is_reserved":false,"is_disabled":false,"rental_uris":{"android":"levelo://app?vid=211f186d-35fc-4407-a75f-a4e75d95c601","ios":"levelo://app?vid=211f186d-35fc-4407-a75f-a4e75d95c601"},"vehicle_type_id":"4","last_reported":1707257179,"current_range_meters":1600,"station_id":"ce4bhqp2rcd13ifvqhng","pricing_plan_id":"free"},{"bike_id":"3c453d5b-83dd-4499-9d12-a38d59d5c115","system_id":"levelo_inurba_marseille","lat":43.31755,"lon":5.390228,"is_reserved":false,"is_disabled":false,"rental_uris":{"android":"levelo://app?vid=3c453d5b-83dd-4499-9d12-a38d59d5c115","ios":"levelo://app?vid=3c453d5b-83dd-4499-9d12-a38d59d5c115"},"vehicle_type_id":"4","last_reported":1707257179,"current_range_meters":20800,"station_id":"ce4bhqp2rcd13ifvqhng","pricing_plan_id":"free"},{"bike_id":"353a8076-fe4e-4941-bf3d-10e08d5bd46a","system_id":"levelo_inurba_marseille","lat":43.31754,"lon":5.39029,"is_reserved":false,"is_disabled":false,"rental_uris":{"android":"levelo://app?vid=353a8076-fe4e-4941-bf3d-10e08d5bd46a","ios":"levelo://app?vid=353a8076-fe4e-4941-bf3d-10e08d5bd46a"},"vehicle_type_id":"4","last_reported":1707257179,"current_range_meters":2800,"station_id":"ce4bhqp2rcd13ifvqhng","pricing_plan_id":"free"},{"bike_id":"864db4db-63d5-4d17-a0b5-c446cdc1704d","system_id":"levelo_inurba_marseille","lat":43.298037,"lon":5.381066,"is_reserved":false,"is_disabled":false,"rental_uris":{"android":"levelo://app?vid=864db4db-63d5-4d17-a0b5-c446cdc1704d","ios":"levelo://app?vid=864db4db-63d5-4d17-a0b5-c446cdc1704d"},"vehicle_type_id":"4","last_reported":1707257179,"current_range_meters":2000,"station_id":"ce4bgip2rcd13ifvqbb0","pricing_plan_id":"free"},{"bike_id":"ce00b883-46aa-47d0-95ad-f91b97ffba43","system_id":"levelo_inurba_marseille","lat":43.298037,"lon":5.381066,"is_reserved":false,"is_disabled":false,"rental_uris":{"android":"levelo://app?vid=ce00b883-46aa-47d0-95ad-f91b97ffba43","ios":"levelo://app?vid=ce00b883-46aa-47d0-95ad-f91b97ffba43"},"vehicle_type_id":"4","last_reported":1707257179,"current_range_meters":0,"station_id":"ce4bgip2rcd13ifvqbb0","pricing_plan_id":"free"},{"bike_id":"e0a53e75-ee11-4993-b7c2-910475df8c88","system_id":"levelo_inurba_marseille","lat":43.298037,"lon":5.381066,"is_reserved":false,"is_disabled":false,"rental_uris":{"android":"levelo://app?vid=e0a53e75-ee11-4993-b7c2-910475df8c88","ios":"levelo://app?vid=e0a53e75-ee11-4993-b7c2-910475df8c88"},"vehicle_type_id":"4","last_reported":1707257179,"current_range_meters":26400,"station_id":"ce4bgip2rcd13ifvqbb0","pricing_plan_id":"free"},{"bike_id":"287851a3-484f-4948-a5ef-1434c12c80c3","system_id":"levelo_inurba_marseille","lat":43.304278,"lon":5.388868,"is_reserved":false,"is_disabled":false,"rental_uris":{"android":"levelo://app?vid=287851a3-484f-4948-a5ef-1434c12c80c3","ios":"levelo://app?vid=287851a3-484f-4948-a5ef-1434c12c80c3"},"vehicle_type_id":"4","last_reported":1707257179,"current_range_meters":14400,"station_id":"ce4bgk12rcd13ifvqbi0","pricing_plan_id":"free"},{"bike_id":"2814d420-1be5-44e2-931e-5111ebef9d0a","system_id":"levelo_inurba_marseille","lat":43.304274,"lon":5.388873,"is_reserved":false,"is_disabled":false,"rental_uris":{"android":"levelo://app?vid=2814d420-1be5-44e2-931e-5111ebef9d0a","ios":"levelo://app?vid=2814d420-1be5-44e2-931e-5111ebef9d0a"},"vehicle_type_id":"4","last_reported":1707257179,"current_range_meters":800,"station_id":"ce4bgk12rcd13ifvqbi0","pricing_plan_id":"free"},{"bike_id":"123b8644-5c57-498f-b77f-fad0e84b85e7","system_id":"levelo_inurba_marseille","lat":43.304278,"lon":5.388868,"is_reserved":false,"is_disabled":false,"rental_uris":{"android":"levelo://app?vid=123b8644-5c57-498f-b77f-fad0e84b85e7","ios":"levelo://app?vid=123b8644-5c57-498f-b77f-fad0e84b85e7"},"vehicle_type_id":"4","last_reported":1707257179,"current_range_meters":8000,"station_id":"ce4bgk12rcd13ifvqbi0","pricing_plan_id":"free"},{"bike_id":"ed5d3f68-f6ae-4628-a68b-31e6c4c8b97c","system_id":"levelo_inurba_marseille","lat":43.32358,"lon":5.38878,"is_reserved":false,"is_disabled":false,"rental_uris":{"android":"levelo://app?vid=ed5d3f68-f6ae-4628-a68b-31e6c4c8b97c","ios":"levelo://app?vid=ed5d3f68-f6ae-4628-a68b-31e6c4c8b97c"},"vehicle_type_id":"4","last_reported":1707257179,"current_range_meters":400,"station_id":"ce4bhqp2rcd13ifvqhog","pricing_plan_id":"free"},{"bike_id":"606777c4-4d1f-4822-a9c7-ca190e9d7ac9","system_id":"levelo_inurba_marseille","lat":43.32364,"lon":5.3888,"is_reserved":false,"is_disabled":false,"rental_uris":{"android":"levelo://app?vid=606777c4-4d1f-4822-a9c7-ca190e9d7ac9","ios":"levelo://app?vid=606777c4-4d1f-4822-a9c7-ca190e9d7ac9"},"vehicle_type_id":"4","last_reported":1707257179,"current_range_meters":3200,"station_id":"ce4bhqp2rcd13ifvqhog","pricing_plan_id":"free"},{"bike_id":"b2180001-e57d-42eb-b057-d6791a6c5f13","system_id":"levelo_inurba_marseille","lat":43.323632,"lon":5.38882,"is_reserved":false,"is_disabled":false,"rental_uris":{"android":"levelo://app?vid=b2180001-e57d-42eb-b057-d6791a6c5f13","ios":"levelo://app?vid=b2180001-e57d-42eb-b057-d6791a6c5f13"},"vehicle_type_id":"4","last_reported":1707257179,"current_range_meters":9600,"station_id":"ce4bhqp2rcd13ifvqhog","pricing_plan_id":"free"},{"bike_id":"e46e8ff3-6efb-422c-88bb-36c5e9ce66e4","system_id":"levelo_inurba_marseille","lat":43.32368,"lon":5.3888,"is_reserved":false,"is_disabled":false,"rental_uris":{"android":"levelo://app?vid=e46e8ff3-6efb-422c-88bb-36c5e9ce66e4","ios":"levelo://app?vid=e46e8ff3-6efb-422c-88bb-36c5e9ce66e4"},"vehicle_type_id":"4","last_reported":1707257179,"current_range_meters":12000,"station_id":"ce4bhqp2rcd13ifvqhog","pricing_plan_id":"free"},{"bike_id":"2699b29a-e584-4936-892c-96f311fc0314","system_id":"levelo_inurba_marseille","lat":43.32364,"lon":5.38886,"is_reserved":false,"is_disabled":false,"rental_uris":{"android":"levelo://app?vid=2699b29a-e584-4936-892c-96f311fc0314","ios":"levelo://app?vid=2699b29a-e584-4936-892c-96f311fc0314"},"vehicle_type_id":"4","last_reported":1707257179,"current_range_meters":6400,"station_id":"ce4bhqp2rcd13ifvqhog","pricing_plan_id":"free"},{"bike_id":"27e7d923-81e0-4c18-9a4b-aeb5de43f55c","system_id":"levelo_inurba_marseille","lat":43.32364,"lon":5.38887,"is_reserved":false,"is_disabled":false,"rental_uris":{"android":"levelo://app?vid=27e7d923-81e0-4c18-9a4b-aeb5de43f55c","ios":"levelo://app?vid=27e7d923-81e0-4c18-9a4b-aeb5de43f55c"},"vehicle_type_id":"4","last_reported":1707257179,"current_range_meters":18400,"station_id":"ce4bhqp2rcd13ifvqhog","pricing_plan_id":"free"},{"bike_id":"ff7066c7-aa1b-4d2c-a675-1a72e0d147ce","system_id":"levelo_inurba_marseille","lat":43.32367,"lon":5.38885,"is_reserved":false,"is_disabled":false,"rental_uris":{"android":"levelo://app?vid=ff7066c7-aa1b-4d2c-a675-1a72e0d147ce","ios":"levelo://app?vid=ff7066c7-aa1b-4d2c-a675-1a72e0d147ce"},"vehicle_type_id":"4","last_reported":1707257179,"current_range_meters":7600,"station_id":"ce4bhqp2rcd13ifvqhog","pricing_plan_id":"free"},{"bike_id":"593326ed-2cc1-41f5-9d97-b4674f983682","system_id":"levelo_inurba_marseille","lat":43.32367,"lon":5.388836,"is_reserved":false,"is_disabled":false,"rental_uris":{"android":"levelo://app?vid=593326ed-2cc1-41f5-9d97-b4674f983682","ios":"levelo://app?vid=593326ed-2cc1-41f5-9d97-b4674f983682"},"vehicle_type_id":"4","last_reported":1707257179,"current_range_meters":8400,"station_id":"ce4bhqp2rcd13ifvqhog","pricing_plan_id":"free"},{"bike_id":"873e77fc-fb74-45d0-95e5-818745ab5cb6","system_id":"levelo_inurba_marseille","lat":43.29602,"lon":5.381084,"is_reserved":false,"is_disabled":false,"rental_uris":{"android":"levelo://app?vid=873e77fc-fb74-45d0-95e5-818745ab5cb6","ios":"levelo://app?vid=873e77fc-fb74-45d0-95e5-818745ab5cb6"},"vehicle_type_id":"4","last_reported":1707257179,"current_range_meters":24000,"station_id":"ce4bgl12rcd13ifvqbo0","pricing_plan_id":"free"},{"bike_id":"1933bd0a-6e76-4fea-8b8f-001398bbd572","system_id":"levelo_inurba_marseille","lat":43.293249,"lon":5.371578,"is_reserved":false,"is_disabled":false,"rental_uris":{"android":"levelo://app?vid=1933bd0a-6e76-4fea-8b8f-001398bbd572","ios":"levelo://app?vid=1933bd0a-6e76-4fea-8b8f-001398bbd572"},"vehicle_type_id":"4","last_reported":1707257179,"current_range_meters":6800,"station_id":"ce4bgh92rcd13ifvqb40","pricing_plan_id":"free"},{"bike_id":"d8968fca-a626-40cf-a890-1f81d69efe51","system_id":"levelo_inurba_marseille","lat":43.29308,"lon":5.37183,"is_reserved":false,"is_disabled":false,"rental_uris":{"android":"levelo://app?vid=d8968fca-a626-40cf-a890-1f81d69efe51","ios":"levelo://app?vid=d8968fca-a626-40cf-a890-1f81d69efe51"},"vehicle_type_id":"4","last_reported":1707257179,"current_range_meters":0,"station_id":"ce4bgh92rcd13ifvqb40","pricing_plan_id":"free"},{"bike_id":"7663b673-bdeb-4a27-a025-3ec316b299e9","system_id":"levelo_inurba_marseille","lat":43.27996,"lon":5.416624,"is_reserved":false,"is_disabled":false,"rental_uris":{"android":"levelo://app?vid=7663b673-bdeb-4a27-a025-3ec316b299e9","ios":"levelo://app?vid=7663b673-bdeb-4a27-a025-3ec316b299e9"},"vehicle_type_id":"4","last_reported":1707257179,"current_range_meters":11200,"station_id":"ce4bho12rcd13ifvqh1g","pricing_plan_id":"free"},{"bike_id":"969f5b8c-0771-4fd2-8969-d6a4a2923cb8","system_id":"levelo_inurba_marseille","lat":43.29274,"lon":5.36842,"is_reserved":false,"is_disabled":false,"rental_uris":{"android":"levelo://app?vid=969f5b8c-0771-4fd2-8969-d6a4a2923cb8","ios":"levelo://app?vid=969f5b8c-0771-4fd2-8969-d6a4a2923cb8"},"vehicle_type_id":"4","last_reported":1707257179,"current_range_meters":4400,"station_id":"","pricing_plan_id":"free"},{"bike_id":"58ce6322-a791-48f0-8bcc-95a1314180fc","system_id":"levelo_inurba_marseille","lat":43.29551,"lon":5.381633,"is_reserved":false,"is_disabled":false,"rental_uris":{"android":"levelo://app?vid=58ce6322-a791-48f0-8bcc-95a1314180fc","ios":"levelo://app?vid=58ce6322-a791-48f0-8bcc-95a1314180fc"},"vehicle_type_id":"4","last_reported":1707257179,"current_range_meters":29600,"station_id":"","pricing_plan_id":"free"},{"bike_id":"dc776fb7-b13d-4622-ae3b-14e51fbc321a","system_id":"levelo_inurba_marseille","lat":43.293018,"lon":5.374541,"is_reserved":false,"is_disabled":false,"rental_uris":{"android":"levelo://app?vid=dc776fb7-b13d-4622-ae3b-14e51fbc321a","ios":"levelo://app?vid=dc776fb7-b13d-4622-ae3b-14e51fbc321a"},"vehicle_type_id":"4","last_reported":1707257179,"current_range_meters":0,"station_id":"ce4bgi12rcd13ifvqb70","pricing_plan_id":"free"},{"bike_id":"5b08f849-ad6d-481e-8168-8f7391220200","system_id":"levelo_inurba_marseille","lat":43.2936,"lon":5.37835,"is_reserved":false,"is_disabled":false,"rental_uris":{"android":"levelo://app?vid=5b08f849-ad6d-481e-8168-8f7391220200","ios":"levelo://app?vid=5b08f849-ad6d-481e-8168-8f7391220200"},"vehicle_type_id":"4","last_reported":1707257179,"current_range_meters":12000,"station_id":"ce4bgjh2rcd13ifvqbf0","pricing_plan_id":"free"},{"bike_id":"6c9be7ad-6ff9-4aad-ac53-6a802f19da0d","system_id":"levelo_inurba_marseille","lat":43.300852,"lon":5.390859,"is_reserved":false,"is_disabled":false,"rental_uris":{"android":"levelo://app?vid=6c9be7ad-6ff9-4aad-ac53-6a802f19da0d","ios":"levelo://app?vid=6c9be7ad-6ff9-4aad-ac53-6a802f19da0d"},"vehicle_type_id":"4","last_reported":1707257179,"current_range_meters":0,"station_id":"ce4bh192rcd13ifvqdb0","pricing_plan_id":"free"},{"bike_id":"ef9a195a-2426-4756-a1cd-7077e67863c6","system_id":"levelo_inurba_marseille","lat":43.29266,"lon":5.376234,"is_reserved":false,"is_disabled":false,"rental_uris":{"android":"levelo://app?vid=ef9a195a-2426-4756-a1cd-7077e67863c6","ios":"levelo://app?vid=ef9a195a-2426-4756-a1cd-7077e67863c6"},"vehicle_type_id":"4","last_reported":1707257179,"current_range_meters":0,"station_id":"","pricing_plan_id":"free"},{"bike_id":"16c4cb1e-6c1f-4645-ad94-5c9ceb6ed289","system_id":"levelo_inurba_marseille","lat":43.298764,"lon":5.388973,"is_reserved":false,"is_disabled":false,"rental_uris":{"android":"levelo://app?vid=16c4cb1e-6c1f-4645-ad94-5c9ceb6ed289","ios":"levelo://app?vid=16c4cb1e-6c1f-4645-ad94-5c9ceb6ed289"},"vehicle_type_id":"4","last_reported":1707257179,"current_range_meters":14000,"station_id":"ce4bh392rcd13ifvqdl0","pricing_plan_id":"free"},{"bike_id":"61f8238a-880e-40ce-841d-4f8aa7837b72","system_id":"levelo_inurba_marseille","lat":43.291675,"lon":5.371583,"is_reserved":false,"is_disabled":false,"rental_uris":{"android":"levelo://app?vid=61f8238a-880e-40ce-841d-4f8aa7837b72","ios":"levelo://app?vid=61f8238a-880e-40ce-841d-4f8aa7837b72"},"vehicle_type_id":"4","last_reported":1707257179,"current_range_meters":29600,"station_id":"ce4bha92rcd13ifvqeh0","pricing_plan_id":"free"},{"bike_id":"851bb1f1-7ab5-43b2-b56f-50a9fbe178d0","system_id":"levelo_inurba_marseille","lat":43.298807,"lon":5.389103,"is_reserved":false,"is_disabled":false,"rental_uris":{"android":"levelo://app?vid=851bb1f1-7ab5-43b2-b56f-50a9fbe178d0","ios":"levelo://app?vid=851bb1f1-7ab5-43b2-b56f-50a9fbe178d0"},"vehicle_type_id":"4","last_reported":1707257179,"current_range_meters":6800,"station_id":"ce4bh392rcd13ifvqdl0","pricing_plan_id":"free"},{"bike_id":"f652df6b-3da0-4dcc-a55c-a37f46bed6bf","system_id":"levelo_inurba_marseille","lat":43.291671,"lon":5.371575,"is_reserved":false,"is_disabled":false,"rental_uris":{"android":"levelo://app?vid=f652df6b-3da0-4dcc-a55c-a37f46bed6bf","ios":"levelo://app?vid=f652df6b-3da0-4dcc-a55c-a37f46bed6bf"},"vehicle_type_id":"4","last_reported":1707257179,"current_range_meters":2400,"station_id":"ce4bha92rcd13ifvqeh0","pricing_plan_id":"free"},{"bike_id":"e0dcd070-b172-4bb0-b285-26a55b6353b7","system_id":"levelo_inurba_marseille","lat":43.313291,"lon":5.396838,"is_reserved":false,"is_disabled":false,"rental_uris":{"android":"levelo://app?vid=e0dcd070-b172-4bb0-b285-26a55b6353b7","ios":"levelo://app?vid=e0dcd070-b172-4bb0-b285-26a55b6353b7"},"vehicle_type_id":"4","last_reported":1707257179,"current_range_meters":24000,"station_id":"ce4bgvp2rcd13ifvqcu0","pricing_plan_id":"free"},{"bike_id":"26cdc491-516a-4ad0-ac1f-3e177ebc32aa","system_id":"levelo_inurba_marseille","lat":43.30888,"lon":5.39624,"is_reserved":false,"is_disabled":false,"rental_uris":{"android":"levelo://app?vid=26cdc491-516a-4ad0-ac1f-3e177ebc32aa","ios":"levelo://app?vid=26cdc491-516a-4ad0-ac1f-3e177ebc32aa"},"vehicle_type_id":"4","last_reported":1707257179,"current_range_meters":8800,"station_id":"ce4bh012rcd13ifvqcv0","pricing_plan_id":"free"},{"bike_id":"6380ac98-63bb-4f18-bc74-ef83b4082bd6","system_id":"levelo_inurba_marseille","lat":43.291994,"lon":5.357886,"is_reserved":false,"is_disabled":false,"rental_uris":{"android":"levelo://app?vid=6380ac98-63bb-4f18-bc74-ef83b4082bd6","ios":"levelo://app?vid=6380ac98-63bb-4f18-bc74-ef83b4082bd6"},"vehicle_type_id":"4","last_reported":1707257179,"current_range_meters":19600,"station_id":"ce4bhb12rcd13ifvqel0","pricing_plan_id":"free"},{"bike_id":"7773ee55-e6bb-48c4-9ca2-616d3d2c500d","system_id":"levelo_inurba_marseille","lat":43.3088,"lon":5.39627,"is_reserved":false,"is_disabled":false,"rental_uris":{"android":"levelo://app?vid=7773ee55-e6bb-48c4-9ca2-616d3d2c500d","ios":"levelo://app?vid=7773ee55-e6bb-48c4-9ca2-616d3d2c500d"},"vehicle_type_id":"4","last_reported":1707257179,"current_range_meters":2800,"station_id":"ce4bh012rcd13ifvqcv0","pricing_plan_id":"free"},{"bike_id":"2d2b9665-f7bd-45c2-8e4d-7a05625e05fe","system_id":"levelo_inurba_marseille","lat":43.291994,"lon":5.357886,"is_reserved":false,"is_disabled":false,"rental_uris":{"android":"levelo://app?vid=2d2b9665-f7bd-45c2-8e4d-7a05625e05fe","ios":"levelo://app?vid=2d2b9665-f7bd-45c2-8e4d-7a05625e05fe"},"vehicle_type_id":"4","last_reported":1707257179,"current_range_meters":18800,"station_id":"ce4bhb12rcd13ifvqel0","pricing_plan_id":"free"},{"bike_id":"032546c2-ea62-4fa6-aa9a-7efc3903f8e9","system_id":"levelo_inurba_marseille","lat":43.309047,"lon":5.396551,"is_reserved":false,"is_disabled":false,"rental_uris":{"android":"levelo://app?vid=032546c2-ea62-4fa6-aa9a-7efc3903f8e9","ios":"levelo://app?vid=032546c2-ea62-4fa6-aa9a-7efc3903f8e9"},"vehicle_type_id":"4","last_reported":1707257179,"current_range_meters":4400,"station_id":"ce4bh012rcd13ifvqcv0","pricing_plan_id":"free"},{"bike_id":"23da3993-b5bc-47e8-9bc5-72c2327f71a2","system_id":"levelo_inurba_marseille","lat":43.308902,"lon":5.396372,"is_reserved":false,"is_disabled":false,"rental_uris":{"android":"levelo://app?vid=23da3993-b5bc-47e8-9bc5-72c2327f71a2","ios":"levelo://app?vid=23da3993-b5bc-47e8-9bc5-72c2327f71a2"},"vehicle_type_id":"4","last_reported":1707257179,"current_range_meters":28800,"station_id":"","pricing_plan_id":"free"},{"bike_id":"2756ba24-58d8-4f25-a280-98864d46ccb8","system_id":"levelo_inurba_marseille","lat":43.309047,"lon":5.396551,"is_reserved":false,"is_disabled":false,"rental_uris":{"android":"levelo://app?vid=2756ba24-58d8-4f25-a280-98864d46ccb8","ios":"levelo://app?vid=2756ba24-58d8-4f25-a280-98864d46ccb8"},"vehicle_type_id":"4","last_reported":1707257179,"current_range_meters":9600,"station_id":"ce4bh012rcd13ifvqcv0","pricing_plan_id":"free"},{"bike_id":"6ff4414e-1536-41bd-926d-71c79dfc563e","system_id":"levelo_inurba_marseille","lat":43.31321,"lon":5.39688,"is_reserved":false,"is_disabled":false,"rental_uris":{"android":"levelo://app?vid=6ff4414e-1536-41bd-926d-71c79dfc563e","ios":"levelo://app?vid=6ff4414e-1536-41bd-926d-71c79dfc563e"},"vehicle_type_id":"4","last_reported":1707257179,"current_range_meters":30800,"station_id":"ce4bgvp2rcd13ifvqcu0","pricing_plan_id":"free"},{"bike_id":"d35e5a1f-caa2-40a6-acc0-a0667c5b74de","system_id":"levelo_inurba_marseille","lat":43.313291,"lon":5.396838,"is_reserved":false,"is_disabled":false,"rental_uris":{"android":"levelo://app?vid=d35e5a1f-caa2-40a6-acc0-a0667c5b74de","ios":"levelo://app?vid=d35e5a1f-caa2-40a6-acc0-a0667c5b74de"},"vehicle_type_id":"4","last_reported":1707257179,"current_range_meters":24800,"station_id":"ce4bgvp2rcd13ifvqcu0","pricing_plan_id":"free"},{"bike_id":"fdf4a1ea-89a5-47a7-ba74-e826dbe37e56","system_id":"levelo_inurba_marseille","lat":43.31329,"lon":5.39689,"is_reserved":false,"is_disabled":false,"rental_uris":{"android":"levelo://app?vid=fdf4a1ea-89a5-47a7-ba74-e826dbe37e56","ios":"levelo://app?vid=fdf4a1ea-89a5-47a7-ba74-e826dbe37e56"},"vehicle_type_id":"4","last_reported":1707257179,"current_range_meters":22800,"station_id":"ce4bgvp2rcd13ifvqcu0","pricing_plan_id":"free"},{"bike_id":"82dc8a1e-76da-473e-b690-67166da9b9e5","system_id":"levelo_inurba_marseille","lat":43.31323,"lon":5.3969,"is_reserved":false,"is_disabled":false,"rental_uris":{"android":"levelo://app?vid=82dc8a1e-76da-473e-b690-67166da9b9e5","ios":"levelo://app?vid=82dc8a1e-76da-473e-b690-67166da9b9e5"},"vehicle_type_id":"4","last_reported":1707257179,"current_range_meters":19200,"station_id":"ce4bgvp2rcd13ifvqcu0","pricing_plan_id":"free"},{"bike_id":"f991e405-a4f6-4610-be1c-ad78edc49358","system_id":"levelo_inurba_marseille","lat":43.313291,"lon":5.396838,"is_reserved":false,"is_disabled":false,"rental_uris":{"android":"levelo://app?vid=f991e405-a4f6-4610-be1c-ad78edc49358","ios":"levelo://app?vid=f991e405-a4f6-4610-be1c-ad78edc49358"},"vehicle_type_id":"4","last_reported":1707257179,"current_range_meters":6400,"station_id":"ce4bgvp2rcd13ifvqcu0","pricing_plan_id":"free"},{"bike_id":"8b58acf4-6aab-4148-99f8-f06877ffc913","system_id":"levelo_inurba_marseille","lat":43.313291,"lon":5.396838,"is_reserved":false,"is_disabled":false,"rental_uris":{"android":"levelo://app?vid=8b58acf4-6aab-4148-99f8-f06877ffc913","ios":"levelo://app?vid=8b58acf4-6aab-4148-99f8-f06877ffc913"},"vehicle_type_id":"4","last_reported":1707257179,"current_range_meters":4400,"station_id":"ce4bgvp2rcd13ifvqcu0","pricing_plan_id":"free"},{"bike_id":"37861716-6d5c-4ec8-be0a-fdf775ed8bb1","system_id":"levelo_inurba_marseille","lat":43.313291,"lon":5.396838,"is_reserved":false,"is_disabled":false,"rental_uris":{"android":"levelo://app?vid=37861716-6d5c-4ec8-be0a-fdf775ed8bb1","ios":"levelo://app?vid=37861716-6d5c-4ec8-be0a-fdf775ed8bb1"},"vehicle_type_id":"4","last_reported":1707257179,"current_range_meters":31600,"station_id":"ce4bgvp2rcd13ifvqcu0","pricing_plan_id":"free"},{"bike_id":"c0f3e4d9-3ac1-48a0-8f12-6fe148c7f075","system_id":"levelo_inurba_marseille","lat":43.31319,"lon":5.39691,"is_reserved":false,"is_disabled":false,"rental_uris":{"android":"levelo://app?vid=c0f3e4d9-3ac1-48a0-8f12-6fe148c7f075","ios":"levelo://app?vid=c0f3e4d9-3ac1-48a0-8f12-6fe148c7f075"},"vehicle_type_id":"4","last_reported":1707257179,"current_range_meters":19600,"station_id":"ce4bgvp2rcd13ifvqcu0","pricing_plan_id":"free"},{"bike_id":"21e1d99e-04fb-4052-98a7-8cad8256b144","system_id":"levelo_inurba_marseille","lat":43.30891,"lon":5.39646,"is_reserved":false,"is_disabled":false,"rental_uris":{"android":"levelo://app?vid=21e1d99e-04fb-4052-98a7-8cad8256b144","ios":"levelo://app?vid=21e1d99e-04fb-4052-98a7-8cad8256b144"},"vehicle_type_id":"4","last_reported":1707257179,"current_range_meters":29600,"station_id":"ce4bh012rcd13ifvqcv0","pricing_plan_id":"free"},{"bike_id":"2b593266-fa57-48e1-abe3-84e731e5edd5","system_id":"levelo_inurba_marseille","lat":43.31327,"lon":5.39694,"is_reserved":false,"is_disabled":false,"rental_uris":{"android":"levelo://app?vid=2b593266-fa57-48e1-abe3-84e731e5edd5","ios":"levelo://app?vid=2b593266-fa57-48e1-abe3-84e731e5edd5"},"vehicle_type_id":"4","last_reported":1707257179,"current_range_meters":26000,"station_id":"ce4bgvp2rcd13ifvqcu0","pricing_plan_id":"free"},{"bike_id":"d9b37291-f53f-4731-8d0d-013598d0279a","system_id":"levelo_inurba_marseille","lat":43.313291,"lon":5.396838,"is_reserved":false,"is_disabled":false,"rental_uris":{"android":"levelo://app?vid=d9b37291-f53f-4731-8d0d-013598d0279a","ios":"levelo://app?vid=d9b37291-f53f-4731-8d0d-013598d0279a"},"vehicle_type_id":"4","last_reported":1707257179,"current_range_meters":15600,"station_id":"ce4bgvp2rcd13ifvqcu0","pricing_plan_id":"free"},{"bike_id":"a6509c96-19a6-4859-af4b-1a5ab9e55e3d","system_id":"levelo_inurba_marseille","lat":43.313291,"lon":5.396838,"is_reserved":false,"is_disabled":false,"rental_uris":{"android":"levelo://app?vid=a6509c96-19a6-4859-af4b-1a5ab9e55e3d","ios":"levelo://app?vid=a6509c96-19a6-4859-af4b-1a5ab9e55e3d"},"vehicle_type_id":"4","last_reported":1707257179,"current_range_meters":29600,"station_id":"ce4bgvp2rcd13ifvqcu0","pricing_plan_id":"free"},{"bike_id":"758d2b83-af7f-47ce-bf19-07e89f5993d8","system_id":"levelo_inurba_marseille","lat":43.309038,"lon":5.396546,"is_reserved":false,"is_disabled":false,"rental_uris":{"android":"levelo://app?vid=758d2b83-af7f-47ce-bf19-07e89f5993d8","ios":"levelo://app?vid=758d2b83-af7f-47ce-bf19-07e89f5993d8"},"vehicle_type_id":"4","last_reported":1707257179,"current_range_meters":31200,"station_id":"ce4bh012rcd13ifvqcv0","pricing_plan_id":"free"},{"bike_id":"d121a669-59c1-436a-bdf3-5f745c0bad8a","system_id":"levelo_inurba_marseille","lat":43.313291,"lon":5.396838,"is_reserved":false,"is_disabled":false,"rental_uris":{"android":"levelo://app?vid=d121a669-59c1-436a-bdf3-5f745c0bad8a","ios":"levelo://app?vid=d121a669-59c1-436a-bdf3-5f745c0bad8a"},"vehicle_type_id":"4","last_reported":1707257179,"current_range_meters":12400,"station_id":"ce4bgvp2rcd13ifvqcu0","pricing_plan_id":"free"},{"bike_id":"dd2bb48a-1a28-49e0-a92a-4b79c31be3e4","system_id":"levelo_inurba_marseille","lat":43.313291,"lon":5.396838,"is_reserved":false,"is_disabled":false,"rental_uris":{"android":"levelo://app?vid=dd2bb48a-1a28-49e0-a92a-4b79c31be3e4","ios":"levelo://app?vid=dd2bb48a-1a28-49e0-a92a-4b79c31be3e4"},"vehicle_type_id":"4","last_reported":1707257179,"current_range_meters":1600,"station_id":"ce4bgvp2rcd13ifvqcu0","pricing_plan_id":"free"},{"bike_id":"9a89fdd1-0694-4c19-8e97-3a095dff1c1c","system_id":"levelo_inurba_marseille","lat":43.309047,"lon":5.396551,"is_reserved":false,"is_disabled":false,"rental_uris":{"android":"levelo://app?vid=9a89fdd1-0694-4c19-8e97-3a095dff1c1c","ios":"levelo://app?vid=9a89fdd1-0694-4c19-8e97-3a095dff1c1c"},"vehicle_type_id":"4","last_reported":1707257179,"current_range_meters":28400,"station_id":"ce4bh012rcd13ifvqcv0","pricing_plan_id":"free"},{"bike_id":"5595d1f6-720f-4471-9e3d-e0255729bbee","system_id":"levelo_inurba_marseille","lat":43.313291,"lon":5.396838,"is_reserved":false,"is_disabled":false,"rental_uris":{"android":"levelo://app?vid=5595d1f6-720f-4471-9e3d-e0255729bbee","ios":"levelo://app?vid=5595d1f6-720f-4471-9e3d-e0255729bbee"},"vehicle_type_id":"4","last_reported":1707257179,"current_range_meters":30800,"station_id":"ce4bgvp2rcd13ifvqcu0","pricing_plan_id":"free"},{"bike_id":"ea71deee-398e-4e01-85f0-eaee953bf8cd","system_id":"levelo_inurba_marseille","lat":43.30885,"lon":5.39652,"is_reserved":false,"is_disabled":false,"rental_uris":{"android":"levelo://app?vid=ea71deee-398e-4e01-85f0-eaee953bf8cd","ios":"levelo://app?vid=ea71deee-398e-4e01-85f0-eaee953bf8cd"},"vehicle_type_id":"4","last_reported":1707257179,"current_range_meters":19600,"station_id":"ce4bh012rcd13ifvqcv0","pricing_plan_id":"free"},{"bike_id":"a5694600-38e4-4956-8e0a-9ad71ee47efb","system_id":"levelo_inurba_marseille","lat":43.313276,"lon":5.397005,"is_reserved":false,"is_disabled":false,"rental_uris":{"android":"levelo://app?vid=a5694600-38e4-4956-8e0a-9ad71ee47efb","ios":"levelo://app?vid=a5694600-38e4-4956-8e0a-9ad71ee47efb"},"vehicle_type_id":"4","last_reported":1707257179,"current_range_meters":2400,"station_id":"ce4bgvp2rcd13ifvqcu0","pricing_plan_id":"free"},{"bike_id":"6d436c31-e76c-4d61-9de3-9549ec74cb3f","system_id":"levelo_inurba_marseille","lat":43.31323,"lon":5.39701,"is_reserved":false,"is_disabled":false,"rental_uris":{"android":"levelo://app?vid=6d436c31-e76c-4d61-9de3-9549ec74cb3f","ios":"levelo://app?vid=6d436c31-e76c-4d61-9de3-9549ec74cb3f"},"vehicle_type_id":"4","last_reported":1707257179,"current_range_meters":14000,"station_id":"ce4bgvp2rcd13ifvqcu0","pricing_plan_id":"free"},{"bike_id":"0c7b6894-87eb-443c-9da3-dc9be332ca2d","system_id":"levelo_inurba_marseille","lat":43.313291,"lon":5.396838,"is_reserved":false,"is_disabled":false,"rental_uris":{"android":"levelo://app?vid=0c7b6894-87eb-443c-9da3-dc9be332ca2d","ios":"levelo://app?vid=0c7b6894-87eb-443c-9da3-dc9be332ca2d"},"vehicle_type_id":"4","last_reported":1707257179,"current_range_meters":31600,"station_id":"ce4bgvp2rcd13ifvqcu0","pricing_plan_id":"free"},{"bike_id":"4aa9900e-86d6-40c6-a20c-fde21f146891","system_id":"levelo_inurba_marseille","lat":43.290779,"lon":5.371482,"is_reserved":false,"is_disabled":false,"rental_uris":{"android":"levelo://app?vid=4aa9900e-86d6-40c6-a20c-fde21f146891","ios":"levelo://app?vid=4aa9900e-86d6-40c6-a20c-fde21f146891"},"vehicle_type_id":"4","last_reported":1707257179,"current_range_meters":31200,"station_id":"ce4bh5p2rcd13ifvqe4g","pricing_plan_id":"free"},{"bike_id":"79a58a09-dfa1-4255-8d58-d53efb1f4792","system_id":"levelo_inurba_marseille","lat":43.290779,"lon":5.371482,"is_reserved":false,"is_disabled":false,"rental_uris":{"android":"levelo://app?vid=79a58a09-dfa1-4255-8d58-d53efb1f4792","ios":"levelo://app?vid=79a58a09-dfa1-4255-8d58-d53efb1f4792"},"vehicle_type_id":"4","last_reported":1707257179,"current_range_meters":26400,"station_id":"ce4bh5p2rcd13ifvqe4g","pricing_plan_id":"free"},{"bike_id":"17f9ff87-0b77-4bac-8f46-35880cf4a433","system_id":"levelo_inurba_marseille","lat":43.290779,"lon":5.371482,"is_reserved":false,"is_disabled":false,"rental_uris":{"android":"levelo://app?vid=17f9ff87-0b77-4bac-8f46-35880cf4a433","ios":"levelo://app?vid=17f9ff87-0b77-4bac-8f46-35880cf4a433"},"vehicle_type_id":"4","last_reported":1707257179,"current_range_meters":0,"station_id":"ce4bh5p2rcd13ifvqe4g","pricing_plan_id":"free"},{"bike_id":"77ce7081-1d54-4188-b338-330de4dc4a05","system_id":"levelo_inurba_marseille","lat":43.30228,"lon":5.39474,"is_reserved":false,"is_disabled":false,"rental_uris":{"android":"levelo://app?vid=77ce7081-1d54-4188-b338-330de4dc4a05","ios":"levelo://app?vid=77ce7081-1d54-4188-b338-330de4dc4a05"},"vehicle_type_id":"4","last_reported":1707257179,"current_range_meters":3600,"station_id":"ce4bh0p2rcd13ifvqd70","pricing_plan_id":"free"},{"bike_id":"2e4f832f-df0d-417a-bd61-c9c78b5c5a0a","system_id":"levelo_inurba_marseille","lat":43.302008,"lon":5.394694,"is_reserved":false,"is_disabled":false,"rental_uris":{"android":"levelo://app?vid=2e4f832f-df0d-417a-bd61-c9c78b5c5a0a","ios":"levelo://app?vid=2e4f832f-df0d-417a-bd61-c9c78b5c5a0a"},"vehicle_type_id":"4","last_reported":1707257179,"current_range_meters":800,"station_id":"ce4bh0p2rcd13ifvqd70","pricing_plan_id":"free"},{"bike_id":"5df12e7f-0e4e-416f-8a8a-457d67375289","system_id":"levelo_inurba_marseille","lat":43.290689,"lon":5.375594,"is_reserved":false,"is_disabled":false,"rental_uris":{"android":"levelo://app?vid=5df12e7f-0e4e-416f-8a8a-457d67375289","ios":"levelo://app?vid=5df12e7f-0e4e-416f-8a8a-457d67375289"},"vehicle_type_id":"4","last_reported":1707257179,"current_range_meters":21200,"station_id":"ce4bh692rcd13ifvqe90","pricing_plan_id":"free"},{"bike_id":"bb871016-6b77-4565-adf6-f085aa84d941","system_id":"levelo_inurba_marseille","lat":43.290631,"lon":5.359244,"is_reserved":false,"is_disabled":false,"rental_uris":{"android":"levelo://app?vid=bb871016-6b77-4565-adf6-f085aa84d941","ios":"levelo://app?vid=bb871016-6b77-4565-adf6-f085aa84d941"},"vehicle_type_id":"4","last_reported":1707257179,"current_range_meters":10800,"station_id":"ce4bha92rcd13ifvqeg0","pricing_plan_id":"free"},{"bike_id":"3e54dcf5-1ecd-40fa-8a9d-765b4df05722","system_id":"levelo_inurba_marseille","lat":43.290631,"lon":5.359244,"is_reserved":false,"is_disabled":false,"rental_uris":{"android":"levelo://app?vid=3e54dcf5-1ecd-40fa-8a9d-765b4df05722","ios":"levelo://app?vid=3e54dcf5-1ecd-40fa-8a9d-765b4df05722"},"vehicle_type_id":"4","last_reported":1707257179,"current_range_meters":13600,"station_id":"ce4bha92rcd13ifvqeg0","pricing_plan_id":"free"},{"bike_id":"62c90efe-45cb-41a1-81b0-668d48977b2e","system_id":"levelo_inurba_marseille","lat":43.29422,"lon":5.38618,"is_reserved":false,"is_disabled":false,"rental_uris":{"android":"levelo://app?vid=62c90efe-45cb-41a1-81b0-668d48977b2e","ios":"levelo://app?vid=62c90efe-45cb-41a1-81b0-668d48977b2e"},"vehicle_type_id":"4","last_reported":1707257179,"current_range_meters":22400,"station_id":"ce4bh2h2rcd13ifvqdh0","pricing_plan_id":"free"},{"bike_id":"33c4be8f-4724-47ef-974e-d4fed283aef9","system_id":"levelo_inurba_marseille","lat":43.294153,"lon":5.386305,"is_reserved":false,"is_disabled":false,"rental_uris":{"android":"levelo://app?vid=33c4be8f-4724-47ef-974e-d4fed283aef9","ios":"levelo://app?vid=33c4be8f-4724-47ef-974e-d4fed283aef9"},"vehicle_type_id":"4","last_reported":1707257179,"current_range_meters":1600,"station_id":"ce4bh2h2rcd13ifvqdh0","pricing_plan_id":"free"},{"bike_id":"77f67e0f-add5-4243-b385-895bb0b742ba","system_id":"levelo_inurba_marseille","lat":43.29421,"lon":5.38619,"is_reserved":false,"is_disabled":false,"rental_uris":{"android":"levelo://app?vid=77f67e0f-add5-4243-b385-895bb0b742ba","ios":"levelo://app?vid=77f67e0f-add5-4243-b385-895bb0b742ba"},"vehicle_type_id":"4","last_reported":1707257179,"current_range_meters":22400,"station_id":"ce4bh2h2rcd13ifvqdh0","pricing_plan_id":"free"},{"bike_id":"0e02e6bf-77f8-47e1-ab93-4c1940e7231b","system_id":"levelo_inurba_marseille","lat":43.29421,"lon":5.3862,"is_reserved":false,"is_disabled":false,"rental_uris":{"android":"levelo://app?vid=0e02e6bf-77f8-47e1-ab93-4c1940e7231b","ios":"levelo://app?vid=0e02e6bf-77f8-47e1-ab93-4c1940e7231b"},"vehicle_type_id":"4","last_reported":1707257179,"current_range_meters":8800,"station_id":"ce4bh2h2rcd13ifvqdh0","pricing_plan_id":"free"},{"bike_id":"c8410599-b0b5-4cf8-8f43-935fd0257d36","system_id":"levelo_inurba_marseille","lat":43.294153,"lon":5.386305,"is_reserved":false,"is_disabled":false,"rental_uris":{"android":"levelo://app?vid=c8410599-b0b5-4cf8-8f43-935fd0257d36","ios":"levelo://app?vid=c8410599-b0b5-4cf8-8f43-935fd0257d36"},"vehicle_type_id":"4","last_reported":1707257179,"current_range_meters":28400,"station_id":"ce4bh2h2rcd13ifvqdh0","pricing_plan_id":"free"},{"bike_id":"d48e145d-ce81-495c-9b49-b6202ef4348f","system_id":"levelo_inurba_marseille","lat":43.2942,"lon":5.38626,"is_reserved":false,"is_disabled":false,"rental_uris":{"android":"levelo://app?vid=d48e145d-ce81-495c-9b49-b6202ef4348f","ios":"levelo://app?vid=d48e145d-ce81-495c-9b49-b6202ef4348f"},"vehicle_type_id":"4","last_reported":1707257179,"current_range_meters":24000,"station_id":"ce4bh2h2rcd13ifvqdh0","pricing_plan_id":"free"},{"bike_id":"fc9dec21-10fc-45e4-a2f7-ec71bbf56ca1","system_id":"levelo_inurba_marseille","lat":43.29418,"lon":5.38627,"is_reserved":false,"is_disabled":false,"rental_uris":{"android":"levelo://app?vid=fc9dec21-10fc-45e4-a2f7-ec71bbf56ca1","ios":"levelo://app?vid=fc9dec21-10fc-45e4-a2f7-ec71bbf56ca1"},"vehicle_type_id":"4","last_reported":1707257179,"current_range_meters":20400,"station_id":"ce4bh2h2rcd13ifvqdh0","pricing_plan_id":"free"},{"bike_id":"87e4e996-dcd8-4f5d-b3ef-c9a5217a5234","system_id":"levelo_inurba_marseille","lat":43.28943,"lon":5.36637,"is_reserved":false,"is_disabled":false,"rental_uris":{"android":"levelo://app?vid=87e4e996-dcd8-4f5d-b3ef-c9a5217a5234","ios":"levelo://app?vid=87e4e996-dcd8-4f5d-b3ef-c9a5217a5234"},"vehicle_type_id":"4","last_reported":1707257179,"current_range_meters":0,"station_id":"ce4bhap2rcd13ifvqek0","pricing_plan_id":"free"},{"bike_id":"664bd840-2464-467a-952a-872b346c6767","system_id":"levelo_inurba_marseille","lat":43.289468,"lon":5.363719,"is_reserved":false,"is_disabled":false,"rental_uris":{"android":"levelo://app?vid=664bd840-2464-467a-952a-872b346c6767","ios":"levelo://app?vid=664bd840-2464-467a-952a-872b346c6767"},"vehicle_type_id":"4","last_reported":1707257179,"current_range_meters":28400,"station_id":"ce4bhc92rcd13ifvqetg","pricing_plan_id":"free"},{"bike_id":"8d0617d0-6d1c-48a3-93af-da7c226980e8","system_id":"levelo_inurba_marseille","lat":43.289184,"lon":5.366408,"is_reserved":false,"is_disabled":false,"rental_uris":{"android":"levelo://app?vid=8d0617d0-6d1c-48a3-93af-da7c226980e8","ios":"levelo://app?vid=8d0617d0-6d1c-48a3-93af-da7c226980e8"},"vehicle_type_id":"4","last_reported":1707257179,"current_range_meters":12400,"station_id":"ce4bhap2rcd13ifvqek0","pricing_plan_id":"free"},{"bike_id":"b991dd4f-3201-47e5-80c8-2807f1a68ef3","system_id":"levelo_inurba_marseille","lat":43.289184,"lon":5.366408,"is_reserved":false,"is_disabled":false,"rental_uris":{"android":"levelo://app?vid=b991dd4f-3201-47e5-80c8-2807f1a68ef3","ios":"levelo://app?vid=b991dd4f-3201-47e5-80c8-2807f1a68ef3"},"vehicle_type_id":"4","last_reported":1707257179,"current_range_meters":31200,"station_id":"ce4bhap2rcd13ifvqek0","pricing_plan_id":"free"},{"bike_id":"1b8862f7-e38d-463d-9d00-fc56947d9974","system_id":"levelo_inurba_marseille","lat":43.289448,"lon":5.363994,"is_reserved":false,"is_disabled":false,"rental_uris":{"android":"levelo://app?vid=1b8862f7-e38d-463d-9d00-fc56947d9974","ios":"levelo://app?vid=1b8862f7-e38d-463d-9d00-fc56947d9974"},"vehicle_type_id":"4","last_reported":1707257179,"current_range_meters":4400,"station_id":"ce4bhc92rcd13ifvqetg","pricing_plan_id":"free"},{"bike_id":"d1921a25-4a5c-41ec-8db9-23330f2618d2","system_id":"levelo_inurba_marseille","lat":43.289184,"lon":5.366408,"is_reserved":false,"is_disabled":false,"rental_uris":{"android":"levelo://app?vid=d1921a25-4a5c-41ec-8db9-23330f2618d2","ios":"levelo://app?vid=d1921a25-4a5c-41ec-8db9-23330f2618d2"},"vehicle_type_id":"4","last_reported":1707257179,"current_range_meters":11600,"station_id":"ce4bhap2rcd13ifvqek0","pricing_plan_id":"free"},{"bike_id":"17c9a50d-50dd-4b00-bae5-c7ae9c78fe0a","system_id":"levelo_inurba_marseille","lat":43.289184,"lon":5.366408,"is_reserved":false,"is_disabled":false,"rental_uris":{"android":"levelo://app?vid=17c9a50d-50dd-4b00-bae5-c7ae9c78fe0a","ios":"levelo://app?vid=17c9a50d-50dd-4b00-bae5-c7ae9c78fe0a"},"vehicle_type_id":"4","last_reported":1707257179,"current_range_meters":10400,"station_id":"ce4bhap2rcd13ifvqek0","pricing_plan_id":"free"},{"bike_id":"330b6de0-912e-4d63-a2f7-a1bc1cd922d3","system_id":"levelo_inurba_marseille","lat":43.289184,"lon":5.366408,"is_reserved":false,"is_disabled":false,"rental_uris":{"android":"levelo://app?vid=330b6de0-912e-4d63-a2f7-a1bc1cd922d3","ios":"levelo://app?vid=330b6de0-912e-4d63-a2f7-a1bc1cd922d3"},"vehicle_type_id":"4","last_reported":1707257179,"current_range_meters":24400,"station_id":"ce4bhap2rcd13ifvqek0","pricing_plan_id":"free"},{"bike_id":"f456d5dc-1f32-4ce0-bf68-a528ac033512","system_id":"levelo_inurba_marseille","lat":43.289184,"lon":5.366408,"is_reserved":false,"is_disabled":false,"rental_uris":{"android":"levelo://app?vid=f456d5dc-1f32-4ce0-bf68-a528ac033512","ios":"levelo://app?vid=f456d5dc-1f32-4ce0-bf68-a528ac033512"},"vehicle_type_id":"4","last_reported":1707257179,"current_range_meters":7200,"station_id":"ce4bhap2rcd13ifvqek0","pricing_plan_id":"free"},{"bike_id":"b14f52dc-696e-4cb2-aba4-cc8dfce26b81","system_id":"levelo_inurba_marseille","lat":43.289184,"lon":5.366408,"is_reserved":false,"is_disabled":false,"rental_uris":{"android":"levelo://app?vid=b14f52dc-696e-4cb2-aba4-cc8dfce26b81","ios":"levelo://app?vid=b14f52dc-696e-4cb2-aba4-cc8dfce26b81"},"vehicle_type_id":"4","last_reported":1707257179,"current_range_meters":0,"station_id":"ce4bhap2rcd13ifvqek0","pricing_plan_id":"free"},{"bike_id":"5cc58902-61df-47c5-ab1e-22b22abfff79","system_id":"levelo_inurba_marseille","lat":43.290104,"lon":5.356111,"is_reserved":false,"is_disabled":false,"rental_uris":{"android":"levelo://app?vid=5cc58902-61df-47c5-ab1e-22b22abfff79","ios":"levelo://app?vid=5cc58902-61df-47c5-ab1e-22b22abfff79"},"vehicle_type_id":"4","last_reported":1707257179,"current_range_meters":30000,"station_id":"ce4bhb92rcd13ifvqen0","pricing_plan_id":"free"},{"bike_id":"63a927a1-ddfa-4193-8ff4-a8d4900208d2","system_id":"levelo_inurba_marseille","lat":43.289468,"lon":5.363719,"is_reserved":false,"is_disabled":false,"rental_uris":{"android":"levelo://app?vid=63a927a1-ddfa-4193-8ff4-a8d4900208d2","ios":"levelo://app?vid=63a927a1-ddfa-4193-8ff4-a8d4900208d2"},"vehicle_type_id":"4","last_reported":1707257179,"current_range_meters":16000,"station_id":"ce4bhc92rcd13ifvqetg","pricing_plan_id":"free"},{"bike_id":"94da13b2-c517-4b33-9b30-4c1f491bc55c","system_id":"levelo_inurba_marseille","lat":43.292644,"lon":5.384257,"is_reserved":false,"is_disabled":false,"rental_uris":{"android":"levelo://app?vid=94da13b2-c517-4b33-9b30-4c1f491bc55c","ios":"levelo://app?vid=94da13b2-c517-4b33-9b30-4c1f491bc55c"},"vehicle_type_id":"4","last_reported":1707257179,"current_range_meters":0,"station_id":"ce4bh692rcd13ifvqea0","pricing_plan_id":"free"},{"bike_id":"54ba5300-ea9a-4439-8a50-98b7ff56b6e5","system_id":"levelo_inurba_marseille","lat":43.292642,"lon":5.384254,"is_reserved":false,"is_disabled":false,"rental_uris":{"android":"levelo://app?vid=54ba5300-ea9a-4439-8a50-98b7ff56b6e5","ios":"levelo://app?vid=54ba5300-ea9a-4439-8a50-98b7ff56b6e5"},"vehicle_type_id":"4","last_reported":1707257179,"current_range_meters":8400,"station_id":"ce4bh692rcd13ifvqea0","pricing_plan_id":"free"},{"bike_id":"740dc176-6911-4463-bf90-cf7abb64846c","system_id":"levelo_inurba_marseille","lat":43.292707,"lon":5.384406,"is_reserved":false,"is_disabled":false,"rental_uris":{"android":"levelo://app?vid=740dc176-6911-4463-bf90-cf7abb64846c","ios":"levelo://app?vid=740dc176-6911-4463-bf90-cf7abb64846c"},"vehicle_type_id":"4","last_reported":1707257179,"current_range_meters":21200,"station_id":"ce4bh692rcd13ifvqea0","pricing_plan_id":"free"},{"bike_id":"49398d54-23af-4df4-befc-f440b3829313","system_id":"levelo_inurba_marseille","lat":43.304274,"lon":5.397513,"is_reserved":false,"is_disabled":false,"rental_uris":{"android":"levelo://app?vid=49398d54-23af-4df4-befc-f440b3829313","ios":"levelo://app?vid=49398d54-23af-4df4-befc-f440b3829313"},"vehicle_type_id":"4","last_reported":1707257179,"current_range_meters":28400,"station_id":"ce4bh092rcd13ifvqd20","pricing_plan_id":"free"},{"bike_id":"fe4b5684-8fa3-4fc6-8e1b-d8387c987f06","system_id":"levelo_inurba_marseille","lat":43.30426,"lon":5.39742,"is_reserved":false,"is_disabled":false,"rental_uris":{"android":"levelo://app?vid=fe4b5684-8fa3-4fc6-8e1b-d8387c987f06","ios":"levelo://app?vid=fe4b5684-8fa3-4fc6-8e1b-d8387c987f06"},"vehicle_type_id":"4","last_reported":1707257179,"current_range_meters":21200,"station_id":"ce4bh092rcd13ifvqd20","pricing_plan_id":"free"},{"bike_id":"341b96d5-4993-4c4a-ad16-cf0ed0e9e88b","system_id":"levelo_inurba_marseille","lat":43.304296,"lon":5.397513,"is_reserved":false,"is_disabled":false,"rental_uris":{"android":"levelo://app?vid=341b96d5-4993-4c4a-ad16-cf0ed0e9e88b","ios":"levelo://app?vid=341b96d5-4993-4c4a-ad16-cf0ed0e9e88b"},"vehicle_type_id":"4","last_reported":1707257179,"current_range_meters":400,"station_id":"ce4bh092rcd13ifvqd20","pricing_plan_id":"free"},{"bike_id":"06eff9e9-2bca-42db-ada3-dbd7835d6ef6","system_id":"levelo_inurba_marseille","lat":43.290103,"lon":5.356114,"is_reserved":false,"is_disabled":false,"rental_uris":{"android":"levelo://app?vid=06eff9e9-2bca-42db-ada3-dbd7835d6ef6","ios":"levelo://app?vid=06eff9e9-2bca-42db-ada3-dbd7835d6ef6"},"vehicle_type_id":"4","last_reported":1707257179,"current_range_meters":14000,"station_id":"ce4bhb92rcd13ifvqen0","pricing_plan_id":"free"},{"bike_id":"6a7e6ef3-bf37-467e-bd8b-f62bd961d7e4","system_id":"levelo_inurba_marseille","lat":43.290104,"lon":5.356111,"is_reserved":false,"is_disabled":false,"rental_uris":{"android":"levelo://app?vid=6a7e6ef3-bf37-467e-bd8b-f62bd961d7e4","ios":"levelo://app?vid=6a7e6ef3-bf37-467e-bd8b-f62bd961d7e4"},"vehicle_type_id":"4","last_reported":1707257179,"current_range_meters":14000,"station_id":"ce4bhb92rcd13ifvqen0","pricing_plan_id":"free"},{"bike_id":"0a5b5de9-a118-459e-a39b-9ec121008213","system_id":"levelo_inurba_marseille","lat":43.290103,"lon":5.356114,"is_reserved":false,"is_disabled":false,"rental_uris":{"android":"levelo://app?vid=0a5b5de9-a118-459e-a39b-9ec121008213","ios":"levelo://app?vid=0a5b5de9-a118-459e-a39b-9ec121008213"},"vehicle_type_id":"4","last_reported":1707257179,"current_range_meters":11600,"station_id":"ce4bhb92rcd13ifvqen0","pricing_plan_id":"free"},{"bike_id":"149625dc-744c-4ef5-9abc-9f267f449c83","system_id":"levelo_inurba_marseille","lat":43.290995,"lon":5.381361,"is_reserved":false,"is_disabled":false,"rental_uris":{"android":"levelo://app?vid=149625dc-744c-4ef5-9abc-9f267f449c83","ios":"levelo://app?vid=149625dc-744c-4ef5-9abc-9f267f449c83"},"vehicle_type_id":"4","last_reported":1707257179,"current_range_meters":9600,"station_id":"ce4bh512rcd13ifvqe2g","pricing_plan_id":"free"},{"bike_id":"4c60460b-25ca-4ca1-a1b5-c856e1eec575","system_id":"levelo_inurba_marseille","lat":43.290995,"lon":5.381361,"is_reserved":false,"is_disabled":false,"rental_uris":{"android":"levelo://app?vid=4c60460b-25ca-4ca1-a1b5-c856e1eec575","ios":"levelo://app?vid=4c60460b-25ca-4ca1-a1b5-c856e1eec575"},"vehicle_type_id":"4","last_reported":1707257179,"current_range_meters":6800,"station_id":"ce4bh512rcd13ifvqe2g","pricing_plan_id":"free"},{"bike_id":"e08aba64-2c42-4253-a1bb-4d5ddc44bcaf","system_id":"levelo_inurba_marseille","lat":43.290995,"lon":5.381361,"is_reserved":false,"is_disabled":false,"rental_uris":{"android":"levelo://app?vid=e08aba64-2c42-4253-a1bb-4d5ddc44bcaf","ios":"levelo://app?vid=e08aba64-2c42-4253-a1bb-4d5ddc44bcaf"},"vehicle_type_id":"4","last_reported":1707257179,"current_range_meters":24400,"station_id":"ce4bh512rcd13ifvqe2g","pricing_plan_id":"free"},{"bike_id":"9542efb3-2df3-45d9-bf71-83146880d169","system_id":"levelo_inurba_marseille","lat":43.29796,"lon":5.393373,"is_reserved":false,"is_disabled":false,"rental_uris":{"android":"levelo://app?vid=9542efb3-2df3-45d9-bf71-83146880d169","ios":"levelo://app?vid=9542efb3-2df3-45d9-bf71-83146880d169"},"vehicle_type_id":"4","last_reported":1707257179,"current_range_meters":30800,"station_id":"chh1huq6cuj3fo74tm60","pricing_plan_id":"free"},{"bike_id":"b5c14bc8-0bdf-48a6-9a9f-af1b4756e3aa","system_id":"levelo_inurba_marseille","lat":43.297815,"lon":5.393548,"is_reserved":false,"is_disabled":false,"rental_uris":{"android":"levelo://app?vid=b5c14bc8-0bdf-48a6-9a9f-af1b4756e3aa","ios":"levelo://app?vid=b5c14bc8-0bdf-48a6-9a9f-af1b4756e3aa"},"vehicle_type_id":"4","last_reported":1707257179,"current_range_meters":28800,"station_id":"chh1huq6cuj3fo74tm60","pricing_plan_id":"free"},{"bike_id":"81dc39e5-81b9-470e-b177-4d606af6aac5","system_id":"levelo_inurba_marseille","lat":43.29794,"lon":5.39338,"is_reserved":false,"is_disabled":false,"rental_uris":{"android":"levelo://app?vid=81dc39e5-81b9-470e-b177-4d606af6aac5","ios":"levelo://app?vid=81dc39e5-81b9-470e-b177-4d606af6aac5"},"vehicle_type_id":"4","last_reported":1707257179,"current_range_meters":0,"station_id":"chh1huq6cuj3fo74tm60","pricing_plan_id":"free"},{"bike_id":"739d74b2-4980-439d-8948-2888e3b5de13","system_id":"levelo_inurba_marseille","lat":43.29787,"lon":5.39332,"is_reserved":false,"is_disabled":false,"rental_uris":{"android":"levelo://app?vid=739d74b2-4980-439d-8948-2888e3b5de13","ios":"levelo://app?vid=739d74b2-4980-439d-8948-2888e3b5de13"},"vehicle_type_id":"4","last_reported":1707257179,"current_range_meters":18800,"station_id":"chh1huq6cuj3fo74tm60","pricing_plan_id":"free"},{"bike_id":"ba771297-a93d-41f8-8b63-633913ea0d45","system_id":"levelo_inurba_marseille","lat":43.297903,"lon":5.393367,"is_reserved":false,"is_disabled":false,"rental_uris":{"android":"levelo://app?vid=ba771297-a93d-41f8-8b63-633913ea0d45","ios":"levelo://app?vid=ba771297-a93d-41f8-8b63-633913ea0d45"},"vehicle_type_id":"4","last_reported":1707257179,"current_range_meters":29200,"station_id":"chh1huq6cuj3fo74tm60","pricing_plan_id":"free"},{"bike_id":"4271fc19-3ca2-4525-8b14-c5fe5d02ae8a","system_id":"levelo_inurba_marseille","lat":43.297905,"lon":5.3934,"is_reserved":false,"is_disabled":false,"rental_uris":{"android":"levelo://app?vid=4271fc19-3ca2-4525-8b14-c5fe5d02ae8a","ios":"levelo://app?vid=4271fc19-3ca2-4525-8b14-c5fe5d02ae8a"},"vehicle_type_id":"4","last_reported":1707257179,"current_range_meters":31200,"station_id":"chh1huq6cuj3fo74tm60","pricing_plan_id":"free"},{"bike_id":"28f47d09-9102-4f32-a72f-7594ad9e2229","system_id":"levelo_inurba_marseille","lat":43.29792,"lon":5.39344,"is_reserved":false,"is_disabled":false,"rental_uris":{"android":"levelo://app?vid=28f47d09-9102-4f32-a72f-7594ad9e2229","ios":"levelo://app?vid=28f47d09-9102-4f32-a72f-7594ad9e2229"},"vehicle_type_id":"4","last_reported":1707257179,"current_range_meters":4000,"station_id":"chh1huq6cuj3fo74tm60","pricing_plan_id":"free"},{"bike_id":"e6982b29-0796-4d3c-85c9-154c2d346fda","system_id":"levelo_inurba_marseille","lat":43.297876,"lon":5.393402,"is_reserved":false,"is_disabled":false,"rental_uris":{"android":"levelo://app?vid=e6982b29-0796-4d3c-85c9-154c2d346fda","ios":"levelo://app?vid=e6982b29-0796-4d3c-85c9-154c2d346fda"},"vehicle_type_id":"4","last_reported":1707257179,"current_range_meters":25600,"station_id":"chh1huq6cuj3fo74tm60","pricing_plan_id":"free"},{"bike_id":"e3cdd8db-1a8c-42b0-8a1d-74e27724a81e","system_id":"levelo_inurba_marseille","lat":43.33021,"lon":5.39035,"is_reserved":false,"is_disabled":false,"rental_uris":{"android":"levelo://app?vid=e3cdd8db-1a8c-42b0-8a1d-74e27724a81e","ios":"levelo://app?vid=e3cdd8db-1a8c-42b0-8a1d-74e27724a81e"},"vehicle_type_id":"4","last_reported":1707257179,"current_range_meters":28800,"station_id":"ce4bhr92rcd13ifvqhrg","pricing_plan_id":"free"},{"bike_id":"42a65a4e-b12c-4dda-8f00-bcd7e91b44ab","system_id":"levelo_inurba_marseille","lat":43.297815,"lon":5.393548,"is_reserved":false,"is_disabled":false,"rental_uris":{"android":"levelo://app?vid=42a65a4e-b12c-4dda-8f00-bcd7e91b44ab","ios":"levelo://app?vid=42a65a4e-b12c-4dda-8f00-bcd7e91b44ab"},"vehicle_type_id":"4","last_reported":1707257179,"current_range_meters":24000,"station_id":"chh1huq6cuj3fo74tm60","pricing_plan_id":"free"},{"bike_id":"cf1bf5da-11db-4888-b7d8-0c09bfa50672","system_id":"levelo_inurba_marseille","lat":43.29532,"lon":5.39046,"is_reserved":false,"is_disabled":false,"rental_uris":{"android":"levelo://app?vid=cf1bf5da-11db-4888-b7d8-0c09bfa50672","ios":"levelo://app?vid=cf1bf5da-11db-4888-b7d8-0c09bfa50672"},"vehicle_type_id":"4","last_reported":1707257179,"current_range_meters":31200,"station_id":"ce4bh3p2rcd13ifvqdp0","pricing_plan_id":"free"},{"bike_id":"7d9c88cc-b379-4f7e-afa0-885a9a44585d","system_id":"levelo_inurba_marseille","lat":43.33023,"lon":5.39037,"is_reserved":false,"is_disabled":false,"rental_uris":{"android":"levelo://app?vid=7d9c88cc-b379-4f7e-afa0-885a9a44585d","ios":"levelo://app?vid=7d9c88cc-b379-4f7e-afa0-885a9a44585d"},"vehicle_type_id":"4","last_reported":1707257179,"current_range_meters":18000,"station_id":"ce4bhr92rcd13ifvqhrg","pricing_plan_id":"free"},{"bike_id":"191e5a48-25eb-42b2-aa0f-b63755aec4fc","system_id":"levelo_inurba_marseille","lat":43.33019,"lon":5.39043,"is_reserved":false,"is_disabled":false,"rental_uris":{"android":"levelo://app?vid=191e5a48-25eb-42b2-aa0f-b63755aec4fc","ios":"levelo://app?vid=191e5a48-25eb-42b2-aa0f-b63755aec4fc"},"vehicle_type_id":"4","last_reported":1707257179,"current_range_meters":16000,"station_id":"ce4bhr92rcd13ifvqhrg","pricing_plan_id":"free"},{"bike_id":"9f74ab4e-9d60-4afa-867a-49240bd6e097","system_id":"levelo_inurba_marseille","lat":43.3302,"lon":5.39042,"is_reserved":false,"is_disabled":false,"rental_uris":{"android":"levelo://app?vid=9f74ab4e-9d60-4afa-867a-49240bd6e097","ios":"levelo://app?vid=9f74ab4e-9d60-4afa-867a-49240bd6e097"},"vehicle_type_id":"4","last_reported":1707257179,"current_range_meters":17600,"station_id":"ce4bhr92rcd13ifvqhrg","pricing_plan_id":"free"},{"bike_id":"820e7ff6-eaa1-4288-a4c3-15e718a624b6","system_id":"levelo_inurba_marseille","lat":43.295196,"lon":5.390295,"is_reserved":false,"is_disabled":false,"rental_uris":{"android":"levelo://app?vid=820e7ff6-eaa1-4288-a4c3-15e718a624b6","ios":"levelo://app?vid=820e7ff6-eaa1-4288-a4c3-15e718a624b6"},"vehicle_type_id":"4","last_reported":1707257179,"current_range_meters":0,"station_id":"ce4bh3p2rcd13ifvqdp0","pricing_plan_id":"free"},{"bike_id":"397db575-5859-4e88-b680-c446f72b852d","system_id":"levelo_inurba_marseille","lat":43.330442,"lon":5.389148,"is_reserved":false,"is_disabled":false,"rental_uris":{"android":"levelo://app?vid=397db575-5859-4e88-b680-c446f72b852d","ios":"levelo://app?vid=397db575-5859-4e88-b680-c446f72b852d"},"vehicle_type_id":"4","last_reported":1707257179,"current_range_meters":3200,"station_id":"ce4bhr92rcd13ifvqhrg","pricing_plan_id":"free"},{"bike_id":"62ca35d7-f049-4885-9fd9-beb6af1eb797","system_id":"levelo_inurba_marseille","lat":43.33024,"lon":5.39038,"is_reserved":false,"is_disabled":false,"rental_uris":{"android":"levelo://app?vid=62ca35d7-f049-4885-9fd9-beb6af1eb797","ios":"levelo://app?vid=62ca35d7-f049-4885-9fd9-beb6af1eb797"},"vehicle_type_id":"4","last_reported":1707257179,"current_range_meters":12000,"station_id":"ce4bhr92rcd13ifvqhrg","pricing_plan_id":"free"},{"bike_id":"557d0534-afdc-4b41-a18d-6391e7d73a8a","system_id":"levelo_inurba_marseille","lat":43.33025,"lon":5.39037,"is_reserved":false,"is_disabled":false,"rental_uris":{"android":"levelo://app?vid=557d0534-afdc-4b41-a18d-6391e7d73a8a","ios":"levelo://app?vid=557d0534-afdc-4b41-a18d-6391e7d73a8a"},"vehicle_type_id":"4","last_reported":1707257179,"current_range_meters":12000,"station_id":"ce4bhr92rcd13ifvqhrg","pricing_plan_id":"free"},{"bike_id":"fd72c297-d0df-4a2c-b38e-6177668e633b","system_id":"levelo_inurba_marseille","lat":43.33023,"lon":5.39042,"is_reserved":false,"is_disabled":false,"rental_uris":{"android":"levelo://app?vid=fd72c297-d0df-4a2c-b38e-6177668e633b","ios":"levelo://app?vid=fd72c297-d0df-4a2c-b38e-6177668e633b"},"vehicle_type_id":"4","last_reported":1707257179,"current_range_meters":3600,"station_id":"ce4bhr92rcd13ifvqhrg","pricing_plan_id":"free"},{"bike_id":"6cbd78c5-3ed3-48da-8608-75885f5f5545","system_id":"levelo_inurba_marseille","lat":43.295169,"lon":5.390426,"is_reserved":false,"is_disabled":false,"rental_uris":{"android":"levelo://app?vid=6cbd78c5-3ed3-48da-8608-75885f5f5545","ios":"levelo://app?vid=6cbd78c5-3ed3-48da-8608-75885f5f5545"},"vehicle_type_id":"4","last_reported":1707257179,"current_range_meters":9600,"station_id":"ce4bh3p2rcd13ifvqdp0","pricing_plan_id":"free"},{"bike_id":"9be19af2-00eb-4adf-afc6-6b25dc013c2f","system_id":"levelo_inurba_marseille","lat":43.33023,"lon":5.39046,"is_reserved":false,"is_disabled":false,"rental_uris":{"android":"levelo://app?vid=9be19af2-00eb-4adf-afc6-6b25dc013c2f","ios":"levelo://app?vid=9be19af2-00eb-4adf-afc6-6b25dc013c2f"},"vehicle_type_id":"4","last_reported":1707257179,"current_range_meters":4000,"station_id":"ce4bhr92rcd13ifvqhrg","pricing_plan_id":"free"},{"bike_id":"2e111dff-3c6a-45c9-9e51-8ccb512570b2","system_id":"levelo_inurba_marseille","lat":43.33023,"lon":5.39046,"is_reserved":false,"is_disabled":false,"rental_uris":{"android":"levelo://app?vid=2e111dff-3c6a-45c9-9e51-8ccb512570b2","ios":"levelo://app?vid=2e111dff-3c6a-45c9-9e51-8ccb512570b2"},"vehicle_type_id":"4","last_reported":1707257179,"current_range_meters":30000,"station_id":"ce4bhr92rcd13ifvqhrg","pricing_plan_id":"free"},{"bike_id":"8ca3da1e-5def-4150-85c1-93059ad4ca52","system_id":"levelo_inurba_marseille","lat":43.33021,"lon":5.3905,"is_reserved":false,"is_disabled":false,"rental_uris":{"android":"levelo://app?vid=8ca3da1e-5def-4150-85c1-93059ad4ca52","ios":"levelo://app?vid=8ca3da1e-5def-4150-85c1-93059ad4ca52"},"vehicle_type_id":"4","last_reported":1707257179,"current_range_meters":20800,"station_id":"ce4bhr92rcd13ifvqhrg","pricing_plan_id":"free"},{"bike_id":"ba7895df-fdf0-43d4-b40a-e7e64d29137d","system_id":"levelo_inurba_marseille","lat":43.330442,"lon":5.389148,"is_reserved":false,"is_disabled":false,"rental_uris":{"android":"levelo://app?vid=ba7895df-fdf0-43d4-b40a-e7e64d29137d","ios":"levelo://app?vid=ba7895df-fdf0-43d4-b40a-e7e64d29137d"},"vehicle_type_id":"4","last_reported":1707257179,"current_range_meters":24400,"station_id":"ce4bhr92rcd13ifvqhrg","pricing_plan_id":"free"},{"bike_id":"a8afd995-3a67-4c8d-b0c6-bb99e945716e","system_id":"levelo_inurba_marseille","lat":43.297815,"lon":5.393548,"is_reserved":false,"is_disabled":false,"rental_uris":{"android":"levelo://app?vid=a8afd995-3a67-4c8d-b0c6-bb99e945716e","ios":"levelo://app?vid=a8afd995-3a67-4c8d-b0c6-bb99e945716e"},"vehicle_type_id":"4","last_reported":1707257179,"current_range_meters":26000,"station_id":"chh1huq6cuj3fo74tm60","pricing_plan_id":"free"},{"bike_id":"f70399b3-d72a-4908-bad7-bd4c0d6cddd3","system_id":"levelo_inurba_marseille","lat":43.288604,"lon":5.358588,"is_reserved":false,"is_disabled":false,"rental_uris":{"android":"levelo://app?vid=f70399b3-d72a-4908-bad7-bd4c0d6cddd3","ios":"levelo://app?vid=f70399b3-d72a-4908-bad7-bd4c0d6cddd3"},"vehicle_type_id":"4","last_reported":1707257179,"current_range_meters":20400,"station_id":"ce4bhb12rcd13ifvqem0","pricing_plan_id":"free"},{"bike_id":"46cccd01-deeb-42ea-bed8-44e0859906a8","system_id":"levelo_inurba_marseille","lat":43.288553,"lon":5.358512,"is_reserved":false,"is_disabled":false,"rental_uris":{"android":"levelo://app?vid=46cccd01-deeb-42ea-bed8-44e0859906a8","ios":"levelo://app?vid=46cccd01-deeb-42ea-bed8-44e0859906a8"},"vehicle_type_id":"4","last_reported":1707257179,"current_range_meters":1600,"station_id":"ce4bhb12rcd13ifvqem0","pricing_plan_id":"free"},{"bike_id":"1fc0a9d7-bab0-4068-b59c-8db365c41ad8","system_id":"levelo_inurba_marseille","lat":43.28854,"lon":5.35853,"is_reserved":false,"is_disabled":false,"rental_uris":{"android":"levelo://app?vid=1fc0a9d7-bab0-4068-b59c-8db365c41ad8","ios":"levelo://app?vid=1fc0a9d7-bab0-4068-b59c-8db365c41ad8"},"vehicle_type_id":"4","last_reported":1707257179,"current_range_meters":0,"station_id":"ce4bhb12rcd13ifvqem0","pricing_plan_id":"free"},{"bike_id":"5aea5c0b-6c60-4bd1-ba81-193e83f97619","system_id":"levelo_inurba_marseille","lat":43.288539,"lon":5.358525,"is_reserved":false,"is_disabled":false,"rental_uris":{"android":"levelo://app?vid=5aea5c0b-6c60-4bd1-ba81-193e83f97619","ios":"levelo://app?vid=5aea5c0b-6c60-4bd1-ba81-193e83f97619"},"vehicle_type_id":"4","last_reported":1707257179,"current_range_meters":26800,"station_id":"ce4bhb12rcd13ifvqem0","pricing_plan_id":"free"},{"bike_id":"77281a16-f069-45df-b698-d3275c4145ba","system_id":"levelo_inurba_marseille","lat":43.28856,"lon":5.358371,"is_reserved":false,"is_disabled":false,"rental_uris":{"android":"levelo://app?vid=77281a16-f069-45df-b698-d3275c4145ba","ios":"levelo://app?vid=77281a16-f069-45df-b698-d3275c4145ba"},"vehicle_type_id":"4","last_reported":1707257179,"current_range_meters":4400,"station_id":"ce4bhb12rcd13ifvqem0","pricing_plan_id":"free"},{"bike_id":"d4d9d635-cddc-4b39-aa81-ad9c18aee1a9","system_id":"levelo_inurba_marseille","lat":43.28856,"lon":5.358371,"is_reserved":false,"is_disabled":false,"rental_uris":{"android":"levelo://app?vid=d4d9d635-cddc-4b39-aa81-ad9c18aee1a9","ios":"levelo://app?vid=d4d9d635-cddc-4b39-aa81-ad9c18aee1a9"},"vehicle_type_id":"4","last_reported":1707257179,"current_range_meters":6800,"station_id":"ce4bhb12rcd13ifvqem0","pricing_plan_id":"free"},{"bike_id":"5cf52488-0a4f-45ea-867d-bde7992eca16","system_id":"levelo_inurba_marseille","lat":43.288504,"lon":5.358623,"is_reserved":false,"is_disabled":false,"rental_uris":{"android":"levelo://app?vid=5cf52488-0a4f-45ea-867d-bde7992eca16","ios":"levelo://app?vid=5cf52488-0a4f-45ea-867d-bde7992eca16"},"vehicle_type_id":"4","last_reported":1707257179,"current_range_meters":3200,"station_id":"ce4bhb12rcd13ifvqem0","pricing_plan_id":"free"},{"bike_id":"3bc60c29-f220-44f4-8da6-6672ecf9952f","system_id":"levelo_inurba_marseille","lat":43.288497,"lon":5.358633,"is_reserved":false,"is_disabled":false,"rental_uris":{"android":"levelo://app?vid=3bc60c29-f220-44f4-8da6-6672ecf9952f","ios":"levelo://app?vid=3bc60c29-f220-44f4-8da6-6672ecf9952f"},"vehicle_type_id":"4","last_reported":1707257179,"current_range_meters":12000,"station_id":"ce4bhb12rcd13ifvqem0","pricing_plan_id":"free"},{"bike_id":"1824b3c4-57b4-42af-a716-bb9123674297","system_id":"levelo_inurba_marseille","lat":43.28856,"lon":5.358371,"is_reserved":false,"is_disabled":false,"rental_uris":{"android":"levelo://app?vid=1824b3c4-57b4-42af-a716-bb9123674297","ios":"levelo://app?vid=1824b3c4-57b4-42af-a716-bb9123674297"},"vehicle_type_id":"4","last_reported":1707257179,"current_range_meters":800,"station_id":"ce4bhb12rcd13ifvqem0","pricing_plan_id":"free"},{"bike_id":"8e854bfa-2a78-4d3d-87ab-1c2c4dbc1379","system_id":"levelo_inurba_marseille","lat":43.288412,"lon":5.358474,"is_reserved":false,"is_disabled":false,"rental_uris":{"android":"levelo://app?vid=8e854bfa-2a78-4d3d-87ab-1c2c4dbc1379","ios":"levelo://app?vid=8e854bfa-2a78-4d3d-87ab-1c2c4dbc1379"},"vehicle_type_id":"4","last_reported":1707257179,"current_range_meters":12800,"station_id":"ce4bhb12rcd13ifvqem0","pricing_plan_id":"free"},