{"last_updated":1685293502,"ttl":30,"version":"2.2","data":{"bikes":[{"bike_id":"1c7afe59-1538-49a4-96fa-195a51e53928","system_id":"levelo_inurba_marseille","lat":43.312239,"lon":5.368562,"is_reserved":false,"is_disabled":false,"rental_uris":{"android":"levelo://app?vid=1c7afe59-1538-49a4-96fa-195a51e53928","ios":"levelo://app?vid=1c7afe59-1538-49a4-96fa-195a51e53928"},"vehicle_type_id":"4","last_reported":1685293502,"current_range_meters":6800,"station_id":"ce4bgl92rcd13ifvqbq0","pricing_plan_id":"free"},{"bike_id":"89e1361d-f6e8-46de-9d3b-7b5a800d8447","system_id":"levelo_inurba_marseille","lat":43.305368,"lon":5.367343,"is_reserved":false,"is_disabled":false,"rental_uris":{"android":"levelo://app?vid=89e1361d-f6e8-46de-9d3b-7b5a800d8447","ios":"levelo://app?vid=89e1361d-f6e8-46de-9d3b-7b5a800d8447"},"vehicle_type_id":"4","last_reported":1685293502,"current_range_meters":0,"station_id":"ce4bgrp2rcd13ifvqc9g","pricing_plan_id":"free"},{"bike_id":"03376175-699e-4ad8-8d37-9b94743262fa","system_id":"levelo_inurba_marseille","lat":43.308012,"lon":5.381511,"is_reserved":false,"is_disabled":false,"rental_uris":{"android":"levelo://app?vid=03376175-699e-4ad8-8d37-9b94743262fa","ios":"levelo://app?vid=03376175-699e-4ad8-8d37-9b94743262fa"},"vehicle_type_id":"4","last_reported":1685293502,"current_range_meters":0,"station_id":"ce4bgt12rcd13ifvqce0","pricing_plan_id":"free"},{"bike_id":"0652cbb2-9398-4af5-b63a-52728f65500a","system_id":"levelo_inurba_marseille","lat":43.313571,"lon":5.384829,"is_reserved":false,"is_disabled":false,"rental_uris":{"android":"levelo://app?vid=0652cbb2-9398-4af5-b63a-52728f65500a","ios":"levelo://app?vid=0652cbb2-9398-4af5-b63a-52728f65500a"},"vehicle_type_id":"4","last_reported":1685293502,"current_range_meters":14800,"station_id":"ce4bgt92rcd13ifvqcf0","pricing_plan_id":"free"},{"bike_id":"274737f5-e2fe-478b-9564-079868b1225c","system_id":"levelo_inurba_marseille","lat":43.313571,"lon":5.384829,"is_reserved":false,"is_disabled":false,"rental_uris":{"android":"levelo://app?vid=274737f5-e2fe-478b-9564-079868b1225c","ios":"levelo://app?vid=274737f5-e2fe-478b-9564-079868b1225c"},"vehicle_type_id":"4","last_reported":1685293502,"current_range_meters":13200,"station_id":"ce4bgt92rcd13ifvqcf0","pricing_plan_id":"free"},{"bike_id":"68d8b8ad-f180-44af-9839-ba0e02b8df76","system_id":"levelo_inurba_marseille","lat":43.299222,"lon":5.365554,"is_reserved":false,"is_disabled":false,"rental_uris":{"android":"levelo://app?vid=68d8b8ad-f180-44af-9839-ba0e02b8df76","ios":"levelo://app?vid=68d8b8ad-f180-44af-9839-ba0e02b8df76"},"vehicle_type_id":"4","last_reported":1685293502,"current_range_meters":20400,"station_id":"ce4bgm92rcd13ifvqbr0","pricing_plan_id":"free"},{"bike_id":"9458db4b-f95c-4104-af6c-2057893f8ba7","system_id":"levelo_inurba_marseille","lat":43.311722,"lon":5.387247,"is_reserved":false,"is_disabled":false,"rental_uris":{"android":"levelo://app?vid=9458db4b-f95c-4104-af6c-2057893f8ba7","ios":"levelo://app?vid=9458db4b-f95c-4104-af6c-2057893f8ba7"},"vehicle_type_id":"4","last_reported":1685293502,"current_range_meters":0,"station_id":"ce4bgv12rcd13ifvqcp0","pricing_plan_id":"free"},{"bike_id":"1b064916-ce14-4dd7-8822-0096c3687352","system_id":"levelo_inurba_marseille","lat":43.31183,"lon":5.38713,"is_reserved":false,"is_disabled":false,"rental_uris":{"android":"levelo://app?vid=1b064916-ce14-4dd7-8822-0096c3687352","ios":"levelo://app?vid=1b064916-ce14-4dd7-8822-0096c3687352"},"vehicle_type_id":"4","last_reported":1685293502,"current_range_meters":3600,"station_id":"ce4bgv12rcd13ifvqcp0","pricing_plan_id":"free"},{"bike_id":"29d23244-909c-46a2-b79b-e78e380675e5","system_id":"levelo_inurba_marseille","lat":43.311722,"lon":5.387247,"is_reserved":false,"is_disabled":false,"rental_uris":{"android":"levelo://app?vid=29d23244-909c-46a2-b79b-e78e380675e5","ios":"levelo://app?vid=29d23244-909c-46a2-b79b-e78e380675e5"},"vehicle_type_id":"4","last_reported":1685293502,"current_range_meters":0,"station_id":"ce4bgv12rcd13ifvqcp0","pricing_plan_id":"free"},{"bike_id":"cc831751-ef29-4fd8-a800-d0eb42494f77","system_id":"levelo_inurba_marseille","lat":43.311722,"lon":5.387247,"is_reserved":false,"is_disabled":false,"rental_uris":{"android":"levelo://app?vid=cc831751-ef29-4fd8-a800-d0eb42494f77","ios":"levelo://app?vid=cc831751-ef29-4fd8-a800-d0eb42494f77"},"vehicle_type_id":"4","last_reported":1685293502,"current_range_meters":0,"station_id":"ce4bgv12rcd13ifvqcp0","pricing_plan_id":"free"},{"bike_id":"6aadd20f-ee22-42f7-9c69-f3066c5dfcf1","system_id":"levelo_inurba_marseille","lat":43.328371,"lon":5.366912,"is_reserved":false,"is_disabled":false,"rental_uris":{"android":"levelo://app?vid=6aadd20f-ee22-42f7-9c69-f3066c5dfcf1","ios":"levelo://app?vid=6aadd20f-ee22-42f7-9c69-f3066c5dfcf1"},"vehicle_type_id":"4","last_reported":1685293502,"current_range_meters":10400,"station_id":"ce4bhs92rcd13ifvqi0g","pricing_plan_id":"free"},{"bike_id":"285c145e-777a-4b00-b299-e3b44b9cb422","system_id":"levelo_inurba_marseille","lat":43.32832,"lon":5.36672,"is_reserved":false,"is_disabled":false,"rental_uris":{"android":"levelo://app?vid=285c145e-777a-4b00-b299-e3b44b9cb422","ios":"levelo://app?vid=285c145e-777a-4b00-b299-e3b44b9cb422"},"vehicle_type_id":"4","last_reported":1685293502,"current_range_meters":7200,"station_id":"ce4bhs92rcd13ifvqi0g","pricing_plan_id":"free"},{"bike_id":"bb1e0ad9-df4b-41de-bdd5-bce01dd60691","system_id":"levelo_inurba_marseille","lat":43.328371,"lon":5.366909,"is_reserved":false,"is_disabled":false,"rental_uris":{"android":"levelo://app?vid=bb1e0ad9-df4b-41de-bdd5-bce01dd60691","ios":"levelo://app?vid=bb1e0ad9-df4b-41de-bdd5-bce01dd60691"},"vehicle_type_id":"4","last_reported":1685293502,"current_range_meters":28800,"station_id":"ce4bhs92rcd13ifvqi0g","pricing_plan_id":"free"},{"bike_id":"43d041a6-cdcf-4897-8665-6ed61b2c409c","system_id":"levelo_inurba_marseille","lat":43.32834,"lon":5.36678,"is_reserved":false,"is_disabled":false,"rental_uris":{"android":"levelo://app?vid=43d041a6-cdcf-4897-8665-6ed61b2c409c","ios":"levelo://app?vid=43d041a6-cdcf-4897-8665-6ed61b2c409c"},"vehicle_type_id":"4","last_reported":1685293502,"current_range_meters":29200,"station_id":"ce4bhs92rcd13ifvqi0g","pricing_plan_id":"free"},{"bike_id":"383aa7a2-3538-4d7d-9ca2-1fbba8b52814","system_id":"levelo_inurba_marseille","lat":43.29733,"lon":5.35966,"is_reserved":false,"is_disabled":false,"rental_uris":{"android":"levelo://app?vid=383aa7a2-3538-4d7d-9ca2-1fbba8b52814","ios":"levelo://app?vid=383aa7a2-3538-4d7d-9ca2-1fbba8b52814"},"vehicle_type_id":"4","last_reported":1685293502,"current_range_meters":26400,"station_id":"","pricing_plan_id":"free"},{"bike_id":"5407ba84-d318-49c2-9d0b-ed94001aacf5","system_id":"levelo_inurba_marseille","lat":43.309589,"lon":5.390258,"is_reserved":false,"is_disabled":false,"rental_uris":{"android":"levelo://app?vid=5407ba84-d318-49c2-9d0b-ed94001aacf5","ios":"levelo://app?vid=5407ba84-d318-49c2-9d0b-ed94001aacf5"},"vehicle_type_id":"4","last_reported":1685293502,"current_range_meters":8800,"station_id":"ce4bgup2rcd13ifvqco0","pricing_plan_id":"free"},{"bike_id":"a0b099e7-f605-4307-b797-dd7a65d617f1","system_id":"levelo_inurba_marseille","lat":43.309589,"lon":5.390258,"is_reserved":false,"is_disabled":false,"rental_uris":{"android":"levelo://app?vid=a0b099e7-f605-4307-b797-dd7a65d617f1","ios":"levelo://app?vid=a0b099e7-f605-4307-b797-dd7a65d617f1"},"vehicle_type_id":"4","last_reported":1685293502,"current_range_meters":3200,"station_id":"ce4bgup2rcd13ifvqco0","pricing_plan_id":"free"},{"bike_id":"1de6ffb0-281d-4d0c-8188-481312608ed1","system_id":"levelo_inurba_marseille","lat":43.309589,"lon":5.390258,"is_reserved":false,"is_disabled":false,"rental_uris":{"android":"levelo://app?vid=1de6ffb0-281d-4d0c-8188-481312608ed1","ios":"levelo://app?vid=1de6ffb0-281d-4d0c-8188-481312608ed1"},"vehicle_type_id":"4","last_reported":1685293502,"current_range_meters":10000,"station_id":"ce4bgup2rcd13ifvqco0","pricing_plan_id":"free"},{"bike_id":"28419cd0-4947-4707-b8e4-f0e564e6715d","system_id":"levelo_inurba_marseille","lat":43.30954,"lon":5.39047,"is_reserved":false,"is_disabled":false,"rental_uris":{"android":"levelo://app?vid=28419cd0-4947-4707-b8e4-f0e564e6715d","ios":"levelo://app?vid=28419cd0-4947-4707-b8e4-f0e564e6715d"},"vehicle_type_id":"4","last_reported":1685293502,"current_range_meters":5200,"station_id":"ce4bgup2rcd13ifvqco0","pricing_plan_id":"free"},{"bike_id":"e5c9f48f-3330-4019-8c1e-4b1ece2117d7","system_id":"levelo_inurba_marseille","lat":43.298037,"lon":5.381066,"is_reserved":false,"is_disabled":false,"rental_uris":{"android":"levelo://app?vid=e5c9f48f-3330-4019-8c1e-4b1ece2117d7","ios":"levelo://app?vid=e5c9f48f-3330-4019-8c1e-4b1ece2117d7"},"vehicle_type_id":"4","last_reported":1685293502,"current_range_meters":2400,"station_id":"ce4bgip2rcd13ifvqbb0","pricing_plan_id":"free"},{"bike_id":"645d168b-2fed-4976-a9d9-93da5d9d5ea4","system_id":"levelo_inurba_marseille","lat":43.29602,"lon":5.381084,"is_reserved":false,"is_disabled":false,"rental_uris":{"android":"levelo://app?vid=645d168b-2fed-4976-a9d9-93da5d9d5ea4","ios":"levelo://app?vid=645d168b-2fed-4976-a9d9-93da5d9d5ea4"},"vehicle_type_id":"4","last_reported":1685293502,"current_range_meters":2000,"station_id":"ce4bgl12rcd13ifvqbo0","pricing_plan_id":"free"},{"bike_id":"1ddcc1e3-064a-45fe-8548-c3fa9200518e","system_id":"levelo_inurba_marseille","lat":43.29405,"lon":5.37707,"is_reserved":false,"is_disabled":false,"rental_uris":{"android":"levelo://app?vid=1ddcc1e3-064a-45fe-8548-c3fa9200518e","ios":"levelo://app?vid=1ddcc1e3-064a-45fe-8548-c3fa9200518e"},"vehicle_type_id":"4","last_reported":1685293502,"current_range_meters":0,"station_id":"","pricing_plan_id":"free"},{"bike_id":"f1403224-c1d5-42a9-8ff3-be7b8ef6ad27","system_id":"levelo_inurba_marseille","lat":43.293009,"lon":5.374584,"is_reserved":false,"is_disabled":false,"rental_uris":{"android":"levelo://app?vid=f1403224-c1d5-42a9-8ff3-be7b8ef6ad27","ios":"levelo://app?vid=f1403224-c1d5-42a9-8ff3-be7b8ef6ad27"},"vehicle_type_id":"4","last_reported":1685293502,"current_range_meters":12800,"station_id":"ce4bgi12rcd13ifvqb70","pricing_plan_id":"free"},{"bike_id":"b54b7e16-dfb8-45a1-a547-f2243db6ba9a","system_id":"levelo_inurba_marseille","lat":43.2936,"lon":5.37835,"is_reserved":false,"is_disabled":false,"rental_uris":{"android":"levelo://app?vid=b54b7e16-dfb8-45a1-a547-f2243db6ba9a","ios":"levelo://app?vid=b54b7e16-dfb8-45a1-a547-f2243db6ba9a"},"vehicle_type_id":"4","last_reported":1685293502,"current_range_meters":3600,"station_id":"ce4bgjh2rcd13ifvqbf0","pricing_plan_id":"free"},{"bike_id":"e73e4f71-e9f6-4027-b97b-b7960f989a25","system_id":"levelo_inurba_marseille","lat":43.31325,"lon":5.39689,"is_reserved":false,"is_disabled":false,"rental_uris":{"android":"levelo://app?vid=e73e4f71-e9f6-4027-b97b-b7960f989a25","ios":"levelo://app?vid=e73e4f71-e9f6-4027-b97b-b7960f989a25"},"vehicle_type_id":"4","last_reported":1685293502,"current_range_meters":0,"station_id":"ce4bgvp2rcd13ifvqcu0","pricing_plan_id":"free"},{"bike_id":"a2770716-9d50-4f01-8035-28ea80029e01","system_id":"levelo_inurba_marseille","lat":43.309038,"lon":5.396546,"is_reserved":false,"is_disabled":false,"rental_uris":{"android":"levelo://app?vid=a2770716-9d50-4f01-8035-28ea80029e01","ios":"levelo://app?vid=a2770716-9d50-4f01-8035-28ea80029e01"},"vehicle_type_id":"4","last_reported":1685293502,"current_range_meters":400,"station_id":"ce4bh012rcd13ifvqcv0","pricing_plan_id":"free"},{"bike_id":"5686c2ef-752c-4623-ac45-74f872dd5027","system_id":"levelo_inurba_marseille","lat":43.309038,"lon":5.396546,"is_reserved":false,"is_disabled":false,"rental_uris":{"android":"levelo://app?vid=5686c2ef-752c-4623-ac45-74f872dd5027","ios":"levelo://app?vid=5686c2ef-752c-4623-ac45-74f872dd5027"},"vehicle_type_id":"4","last_reported":1685293502,"current_range_meters":5200,"station_id":"ce4bh012rcd13ifvqcv0","pricing_plan_id":"free"},{"bike_id":"381df5d9-d9fe-4852-b52c-5bafda3f99dd","system_id":"levelo_inurba_marseille","lat":43.309038,"lon":5.396546,"is_reserved":false,"is_disabled":false,"rental_uris":{"android":"levelo://app?vid=381df5d9-d9fe-4852-b52c-5bafda3f99dd","ios":"levelo://app?vid=381df5d9-d9fe-4852-b52c-5bafda3f99dd"},"vehicle_type_id":"4","last_reported":1685293502,"current_range_meters":2000,"station_id":"ce4bh012rcd13ifvqcv0","pricing_plan_id":"free"},{"bike_id":"067f83a6-7114-4595-a7d0-c03d91a1ab3d","system_id":"levelo_inurba_marseille","lat":43.309038,"lon":5.396546,"is_reserved":false,"is_disabled":false,"rental_uris":{"android":"levelo://app?vid=067f83a6-7114-4595-a7d0-c03d91a1ab3d","ios":"levelo://app?vid=067f83a6-7114-4595-a7d0-c03d91a1ab3d"},"vehicle_type_id":"4","last_reported":1685293502,"current_range_meters":7600,"station_id":"ce4bh012rcd13ifvqcv0","pricing_plan_id":"free"},{"bike_id":"87db5075-c41f-4c1a-ba00-a056dd8308f6","system_id":"levelo_inurba_marseille","lat":43.294153,"lon":5.386305,"is_reserved":false,"is_disabled":false,"rental_uris":{"android":"levelo://app?vid=87db5075-c41f-4c1a-ba00-a056dd8308f6","ios":"levelo://app?vid=87db5075-c41f-4c1a-ba00-a056dd8308f6"},"vehicle_type_id":"4","last_reported":1685293502,"current_range_meters":800,"station_id":"ce4bh2h2rcd13ifvqdh0","pricing_plan_id":"free"},{"bike_id":"e039ce21-06a1-43ce-ad6f-bc1e11a1eb5d","system_id":"levelo_inurba_marseille","lat":43.290327,"lon":5.375711,"is_reserved":false,"is_disabled":false,"rental_uris":{"android":"levelo://app?vid=e039ce21-06a1-43ce-ad6f-bc1e11a1eb5d","ios":"levelo://app?vid=e039ce21-06a1-43ce-ad6f-bc1e11a1eb5d"},"vehicle_type_id":"4","last_reported":1685293502,"current_range_meters":9200,"station_id":"ce4bh692rcd13ifvqe90","pricing_plan_id":"free"},{"bike_id":"5dc8bb90-bb96-4e4e-95fa-2d6a3a68bc24","system_id":"levelo_inurba_marseille","lat":43.290327,"lon":5.375711,"is_reserved":false,"is_disabled":false,"rental_uris":{"android":"levelo://app?vid=5dc8bb90-bb96-4e4e-95fa-2d6a3a68bc24","ios":"levelo://app?vid=5dc8bb90-bb96-4e4e-95fa-2d6a3a68bc24"},"vehicle_type_id":"4","last_reported":1685293502,"current_range_meters":4400,"station_id":"ce4bh692rcd13ifvqe90","pricing_plan_id":"free"},{"bike_id":"f80378c8-9387-4d66-aa44-b209d91fe4e1","system_id":"levelo_inurba_marseille","lat":43.294153,"lon":5.386305,"is_reserved":false,"is_disabled":false,"rental_uris":{"android":"levelo://app?vid=f80378c8-9387-4d66-aa44-b209d91fe4e1","ios":"levelo://app?vid=f80378c8-9387-4d66-aa44-b209d91fe4e1"},"vehicle_type_id":"4","last_reported":1685293502,"current_range_meters":5200,"station_id":"ce4bh2h2rcd13ifvqdh0","pricing_plan_id":"free"},{"bike_id":"69b7e13d-53b9-45dc-b84b-2bbd584ba829","system_id":"levelo_inurba_marseille","lat":43.289468,"lon":5.363719,"is_reserved":false,"is_disabled":false,"rental_uris":{"android":"levelo://app?vid=69b7e13d-53b9-45dc-b84b-2bbd584ba829","ios":"levelo://app?vid=69b7e13d-53b9-45dc-b84b-2bbd584ba829"},"vehicle_type_id":"4","last_reported":1685293502,"current_range_meters":0,"station_id":"ce4bhc92rcd13ifvqetg","pricing_plan_id":"free"},{"bike_id":"00e3116a-39f5-4aa8-a0a3-efa6601a1f6e","system_id":"levelo_inurba_marseille","lat":43.290327,"lon":5.375711,"is_reserved":false,"is_disabled":false,"rental_uris":{"android":"levelo://app?vid=00e3116a-39f5-4aa8-a0a3-efa6601a1f6e","ios":"levelo://app?vid=00e3116a-39f5-4aa8-a0a3-efa6601a1f6e"},"vehicle_type_id":"4","last_reported":1685293502,"current_range_meters":400,"station_id":"ce4bh692rcd13ifvqe90","pricing_plan_id":"free"},{"bike_id":"d9d53539-7548-4cca-8e1b-3dc82f415b04","system_id":"levelo_inurba_marseille","lat":43.289184,"lon":5.366408,"is_reserved":false,"is_disabled":false,"rental_uris":{"android":"levelo://app?vid=d9d53539-7548-4cca-8e1b-3dc82f415b04","ios":"levelo://app?vid=d9d53539-7548-4cca-8e1b-3dc82f415b04"},"vehicle_type_id":"4","last_reported":1685293502,"current_range_meters":17200,"station_id":"ce4bhap2rcd13ifvqek0","pricing_plan_id":"free"},{"bike_id":"4fe8a911-a792-4e57-870f-9292c7a9abf5","system_id":"levelo_inurba_marseille","lat":43.289184,"lon":5.366408,"is_reserved":false,"is_disabled":false,"rental_uris":{"android":"levelo://app?vid=4fe8a911-a792-4e57-870f-9292c7a9abf5","ios":"levelo://app?vid=4fe8a911-a792-4e57-870f-9292c7a9abf5"},"vehicle_type_id":"4","last_reported":1685293502,"current_range_meters":3200,"station_id":"ce4bhap2rcd13ifvqek0","pricing_plan_id":"free"},{"bike_id":"8c390fca-2b78-4e15-bbda-fbd98b64624b","system_id":"levelo_inurba_marseille","lat":43.304274,"lon":5.397513,"is_reserved":false,"is_disabled":false,"rental_uris":{"android":"levelo://app?vid=8c390fca-2b78-4e15-bbda-fbd98b64624b","ios":"levelo://app?vid=8c390fca-2b78-4e15-bbda-fbd98b64624b"},"vehicle_type_id":"4","last_reported":1685293502,"current_range_meters":0,"station_id":"ce4bh092rcd13ifvqd20","pricing_plan_id":"free"},{"bike_id":"9d10140c-3a48-4bb3-b44a-8a8e3a8b5efc","system_id":"levelo_inurba_marseille","lat":43.30918,"lon":5.39915,"is_reserved":false,"is_disabled":false,"rental_uris":{"android":"levelo://app?vid=9d10140c-3a48-4bb3-b44a-8a8e3a8b5efc","ios":"levelo://app?vid=9d10140c-3a48-4bb3-b44a-8a8e3a8b5efc"},"vehicle_type_id":"4","last_reported":1685293502,"current_range_meters":3600,"station_id":"","pricing_plan_id":"free"},{"bike_id":"e1d03063-f6ca-4d1b-b6a3-018b40b2fb3d","system_id":"levelo_inurba_marseille","lat":43.292644,"lon":5.384257,"is_reserved":false,"is_disabled":false,"rental_uris":{"android":"levelo://app?vid=e1d03063-f6ca-4d1b-b6a3-018b40b2fb3d","ios":"levelo://app?vid=e1d03063-f6ca-4d1b-b6a3-018b40b2fb3d"},"vehicle_type_id":"4","last_reported":1685293502,"current_range_meters":0,"station_id":"ce4bh692rcd13ifvqea0","pricing_plan_id":"free"},{"bike_id":"717d1166-be83-4ee9-b6f5-8e4d4ba80cbb","system_id":"levelo_inurba_marseille","lat":43.290995,"lon":5.381361,"is_reserved":false,"is_disabled":false,"rental_uris":{"android":"levelo://app?vid=717d1166-be83-4ee9-b6f5-8e4d4ba80cbb","ios":"levelo://app?vid=717d1166-be83-4ee9-b6f5-8e4d4ba80cbb"},"vehicle_type_id":"4","last_reported":1685293502,"current_range_meters":0,"station_id":"ce4bh512rcd13ifvqe2g","pricing_plan_id":"free"},{"bike_id":"ca20dbfb-60a6-48da-a5e0-b9aeedd2d49b","system_id":"levelo_inurba_marseille","lat":43.295169,"lon":5.390426,"is_reserved":false,"is_disabled":false,"rental_uris":{"android":"levelo://app?vid=ca20dbfb-60a6-48da-a5e0-b9aeedd2d49b","ios":"levelo://app?vid=ca20dbfb-60a6-48da-a5e0-b9aeedd2d49b"},"vehicle_type_id":"4","last_reported":1685293502,"current_range_meters":1200,"station_id":"ce4bh3p2rcd13ifvqdp0","pricing_plan_id":"free"},{"bike_id":"142ef817-aa0e-4819-a2f1-4ca21e83c953","system_id":"levelo_inurba_marseille","lat":43.2901,"lon":5.381269,"is_reserved":false,"is_disabled":false,"rental_uris":{"android":"levelo://app?vid=142ef817-aa0e-4819-a2f1-4ca21e83c953","ios":"levelo://app?vid=142ef817-aa0e-4819-a2f1-4ca21e83c953"},"vehicle_type_id":"4","last_reported":1685293502,"current_range_meters":1600,"station_id":"ce4bh4p2rcd13ifvqe1g","pricing_plan_id":"free"},{"bike_id":"141c14ea-594b-43ee-894e-8c44af1dcd73","system_id":"levelo_inurba_marseille","lat":43.33735,"lon":5.37447,"is_reserved":false,"is_disabled":false,"rental_uris":{"android":"levelo://app?vid=141c14ea-594b-43ee-894e-8c44af1dcd73","ios":"levelo://app?vid=141c14ea-594b-43ee-894e-8c44af1dcd73"},"vehicle_type_id":"4","last_reported":1685293502,"current_range_meters":31200,"station_id":"","pricing_plan_id":"free"},{"bike_id":"915a1d5d-0a9c-4982-bd00-ae384a29cdde","system_id":"levelo_inurba_marseille","lat":43.33744,"lon":5.37439,"is_reserved":false,"is_disabled":false,"rental_uris":{"android":"levelo://app?vid=915a1d5d-0a9c-4982-bd00-ae384a29cdde","ios":"levelo://app?vid=915a1d5d-0a9c-4982-bd00-ae384a29cdde"},"vehicle_type_id":"4","last_reported":1685293502,"current_range_meters":30000,"station_id":"","pricing_plan_id":"free"},{"bike_id":"4d395139-b839-4ab0-8519-abb908308d08","system_id":"levelo_inurba_marseille","lat":43.33746,"lon":5.37435,"is_reserved":false,"is_disabled":false,"rental_uris":{"android":"levelo://app?vid=4d395139-b839-4ab0-8519-abb908308d08","ios":"levelo://app?vid=4d395139-b839-4ab0-8519-abb908308d08"},"vehicle_type_id":"4","last_reported":1685293502,"current_range_meters":28800,"station_id":"","pricing_plan_id":"free"},{"bike_id":"493860ce-e063-4684-ab33-c360eaf64153","system_id":"levelo_inurba_marseille","lat":43.33744,"lon":5.37451,"is_reserved":false,"is_disabled":false,"rental_uris":{"android":"levelo://app?vid=493860ce-e063-4684-ab33-c360eaf64153","ios":"levelo://app?vid=493860ce-e063-4684-ab33-c360eaf64153"},"vehicle_type_id":"4","last_reported":1685293502,"current_range_meters":17600,"station_id":"","pricing_plan_id":"free"},{"bike_id":"c67b547c-3fcb-4384-8614-e15f558fec55","system_id":"levelo_inurba_marseille","lat":43.33744,"lon":5.37451,"is_reserved":false,"is_disabled":false,"rental_uris":{"android":"levelo://app?vid=c67b547c-3fcb-4384-8614-e15f558fec55","ios":"levelo://app?vid=c67b547c-3fcb-4384-8614-e15f558fec55"},"vehicle_type_id":"4","last_reported":1685293502,"current_range_meters":26800,"station_id":"","pricing_plan_id":"free"},{"bike_id":"556c6db1-2600-4c2b-9521-aae8453517c1","system_id":"levelo_inurba_marseille","lat":43.33758,"lon":5.3744,"is_reserved":false,"is_disabled":false,"rental_uris":{"android":"levelo://app?vid=556c6db1-2600-4c2b-9521-aae8453517c1","ios":"levelo://app?vid=556c6db1-2600-4c2b-9521-aae8453517c1"},"vehicle_type_id":"4","last_reported":1685293502,"current_range_meters":13600,"station_id":"","pricing_plan_id":"free"},{"bike_id":"5aaf445f-f097-4041-99e9-0b2edc8a39b1","system_id":"levelo_inurba_marseille","lat":43.33758,"lon":5.37462,"is_reserved":false,"is_disabled":false,"rental_uris":{"android":"levelo://app?vid=5aaf445f-f097-4041-99e9-0b2edc8a39b1","ios":"levelo://app?vid=5aaf445f-f097-4041-99e9-0b2edc8a39b1"},"vehicle_type_id":"4","last_reported":1685293502,"current_range_meters":28000,"station_id":"","pricing_plan_id":"free"},{"bike_id":"0a3e1ca5-d3c9-4616-9f15-41f9c7537283","system_id":"levelo_inurba_marseille","lat":43.30435,"lon":5.40093,"is_reserved":false,"is_disabled":false,"rental_uris":{"android":"levelo://app?vid=0a3e1ca5-d3c9-4616-9f15-41f9c7537283","ios":"levelo://app?vid=0a3e1ca5-d3c9-4616-9f15-41f9c7537283"},"vehicle_type_id":"4","last_reported":1685293502,"current_range_meters":6400,"station_id":"","pricing_plan_id":"free"},{"bike_id":"a947e871-f64c-4bdb-a823-22b78e0f70c3","system_id":"levelo_inurba_marseille","lat":43.30431,"lon":5.40093,"is_reserved":false,"is_disabled":false,"rental_uris":{"android":"levelo://app?vid=a947e871-f64c-4bdb-a823-22b78e0f70c3","ios":"levelo://app?vid=a947e871-f64c-4bdb-a823-22b78e0f70c3"},"vehicle_type_id":"4","last_reported":1685293502,"current_range_meters":0,"station_id":"","pricing_plan_id":"free"},{"bike_id":"5cf2c73b-c495-4bce-a903-85d6c7c05a47","system_id":"levelo_inurba_marseille","lat":43.2861,"lon":5.37054,"is_reserved":false,"is_disabled":false,"rental_uris":{"android":"levelo://app?vid=5cf2c73b-c495-4bce-a903-85d6c7c05a47","ios":"levelo://app?vid=5cf2c73b-c495-4bce-a903-85d6c7c05a47"},"vehicle_type_id":"4","last_reported":1685293502,"current_range_meters":0,"station_id":"ce4bht12rcd13ifvqi60","pricing_plan_id":"free"},{"bike_id":"8cb59b8e-0e0e-443e-9cab-82b6134bee85","system_id":"levelo_inurba_marseille","lat":43.286039,"lon":5.370681,"is_reserved":false,"is_disabled":false,"rental_uris":{"android":"levelo://app?vid=8cb59b8e-0e0e-443e-9cab-82b6134bee85","ios":"levelo://app?vid=8cb59b8e-0e0e-443e-9cab-82b6134bee85"},"vehicle_type_id":"4","last_reported":1685293502,"current_range_meters":7200,"station_id":"ce4bht12rcd13ifvqi60","pricing_plan_id":"free"},{"bike_id":"654c04dd-26da-47d8-89a4-26a28bad75cd","system_id":"levelo_inurba_marseille","lat":43.316517,"lon":5.404375,"is_reserved":false,"is_disabled":false,"rental_uris":{"android":"levelo://app?vid=654c04dd-26da-47d8-89a4-26a28bad75cd","ios":"levelo://app?vid=654c04dd-26da-47d8-89a4-26a28bad75cd"},"vehicle_type_id":"4","last_reported":1685293502,"current_range_meters":7200,"station_id":"ce4bh012rcd13ifvqd00","pricing_plan_id":"free"},{"bike_id":"368a97f7-03ba-4f8c-9127-c5e67b0f090c","system_id":"levelo_inurba_marseille","lat":43.28616,"lon":5.35093,"is_reserved":false,"is_disabled":false,"rental_uris":{"android":"levelo://app?vid=368a97f7-03ba-4f8c-9127-c5e67b0f090c","ios":"levelo://app?vid=368a97f7-03ba-4f8c-9127-c5e67b0f090c"},"vehicle_type_id":"4","last_reported":1685293502,"current_range_meters":4400,"station_id":"","pricing_plan_id":"free"},{"bike_id":"e13ca343-6718-42dc-a4b4-6f832bcc6304","system_id":"levelo_inurba_marseille","lat":43.286595,"lon":5.386795,"is_reserved":false,"is_disabled":false,"rental_uris":{"android":"levelo://app?vid=e13ca343-6718-42dc-a4b4-6f832bcc6304","ios":"levelo://app?vid=e13ca343-6718-42dc-a4b4-6f832bcc6304"},"vehicle_type_id":"4","last_reported":1685293502,"current_range_meters":28400,"station_id":"ce4bh492rcd13ifvqdug","pricing_plan_id":"free"},{"bike_id":"00d208d0-88bb-45ef-99bd-750a0e7fbd3c","system_id":"levelo_inurba_marseille","lat":43.288501,"lon":5.393087,"is_reserved":false,"is_disabled":false,"rental_uris":{"android":"levelo://app?vid=00d208d0-88bb-45ef-99bd-750a0e7fbd3c","ios":"levelo://app?vid=00d208d0-88bb-45ef-99bd-750a0e7fbd3c"},"vehicle_type_id":"4","last_reported":1685293502,"current_range_meters":0,"station_id":"ce4bh2p2rcd13ifvqdi0","pricing_plan_id":"free"},{"bike_id":"39f76f59-ebef-4261-8253-aa87f8be65bd","system_id":"levelo_inurba_marseille","lat":43.288501,"lon":5.393087,"is_reserved":false,"is_disabled":false,"rental_uris":{"android":"levelo://app?vid=39f76f59-ebef-4261-8253-aa87f8be65bd","ios":"levelo://app?vid=39f76f59-ebef-4261-8253-aa87f8be65bd"},"vehicle_type_id":"4","last_reported":1685293502,"current_range_meters":16000,"station_id":"ce4bh2p2rcd13ifvqdi0","pricing_plan_id":"free"},{"bike_id":"d49c69e5-9f08-4a25-af00-9ce9d6b2cb6c","system_id":"levelo_inurba_marseille","lat":43.284217,"lon":5.349697,"is_reserved":false,"is_disabled":false,"rental_uris":{"android":"levelo://app?vid=d49c69e5-9f08-4a25-af00-9ce9d6b2cb6c","ios":"levelo://app?vid=d49c69e5-9f08-4a25-af00-9ce9d6b2cb6c"},"vehicle_type_id":"4","last_reported":1685293502,"current_range_meters":0,"station_id":"ce4bhbh2rcd13ifvqepg","pricing_plan_id":"free"},{"bike_id":"137711d3-1824-42f8-9799-d39bf7fa652c","system_id":"levelo_inurba_marseille","lat":43.289363,"lon":5.396322,"is_reserved":false,"is_disabled":false,"rental_uris":{"android":"levelo://app?vid=137711d3-1824-42f8-9799-d39bf7fa652c","ios":"levelo://app?vid=137711d3-1824-42f8-9799-d39bf7fa652c"},"vehicle_type_id":"4","last_reported":1685293502,"current_range_meters":0,"station_id":"ce4bh3h2rcd13ifvqdn0","pricing_plan_id":"free"},{"bike_id":"c7d24484-d03b-4644-8f3b-f60713d7afb2","system_id":"levelo_inurba_marseille","lat":43.292724,"lon":5.401131,"is_reserved":false,"is_disabled":false,"rental_uris":{"android":"levelo://app?vid=c7d24484-d03b-4644-8f3b-f60713d7afb2","ios":"levelo://app?vid=c7d24484-d03b-4644-8f3b-f60713d7afb2"},"vehicle_type_id":"4","last_reported":1685293502,"current_range_meters":0,"station_id":"ce4bh312rcd13ifvqdk0","pricing_plan_id":"free"},{"bike_id":"2a1769d8-0cd5-4652-8ace-e4b4697c95df","system_id":"levelo_inurba_marseille","lat":43.292724,"lon":5.401131,"is_reserved":false,"is_disabled":false,"rental_uris":{"android":"levelo://app?vid=2a1769d8-0cd5-4652-8ace-e4b4697c95df","ios":"levelo://app?vid=2a1769d8-0cd5-4652-8ace-e4b4697c95df"},"vehicle_type_id":"4","last_reported":1685293502,"current_range_meters":400,"station_id":"ce4bh312rcd13ifvqdk0","pricing_plan_id":"free"},{"bike_id":"8aa2227d-3306-44a2-a504-9a1e0ccc5a8b","system_id":"levelo_inurba_marseille","lat":43.292724,"lon":5.401131,"is_reserved":false,"is_disabled":false,"rental_uris":{"android":"levelo://app?vid=8aa2227d-3306-44a2-a504-9a1e0ccc5a8b","ios":"levelo://app?vid=8aa2227d-3306-44a2-a504-9a1e0ccc5a8b"},"vehicle_type_id":"4","last_reported":1685293502,"current_range_meters":8400,"station_id":"ce4bh312rcd13ifvqdk0","pricing_plan_id":"free"},{"bike_id":"4d2ddf16-48e5-426b-9f49-7a83729058bc","system_id":"levelo_inurba_marseille","lat":43.283096,"lon":5.350401,"is_reserved":false,"is_disabled":false,"rental_uris":{"android":"levelo://app?vid=4d2ddf16-48e5-426b-9f49-7a83729058bc","ios":"levelo://app?vid=4d2ddf16-48e5-426b-9f49-7a83729058bc"},"vehicle_type_id":"4","last_reported":1685293502,"current_range_meters":3200,"station_id":"ce4bhgp2rcd13ifvqfc0","pricing_plan_id":"free"},{"bike_id":"bc82f012-d65f-4d2c-ae91-c96153b11208","system_id":"levelo_inurba_marseille","lat":43.283502,"lon":5.386471,"is_reserved":false,"is_disabled":false,"rental_uris":{"android":"levelo://app?vid=bc82f012-d65f-4d2c-ae91-c96153b11208","ios":"levelo://app?vid=bc82f012-d65f-4d2c-ae91-c96153b11208"},"vehicle_type_id":"4","last_reported":1685293502,"current_range_meters":2800,"station_id":"ce4bh492rcd13ifvqdvg","pricing_plan_id":"free"},{"bike_id":"a2f4f77f-646b-4e8f-a625-a76b7d58d5bc","system_id":"levelo_inurba_marseille","lat":43.28094,"lon":5.37855,"is_reserved":false,"is_disabled":false,"rental_uris":{"android":"levelo://app?vid=a2f4f77f-646b-4e8f-a625-a76b7d58d5bc","ios":"levelo://app?vid=a2f4f77f-646b-4e8f-a625-a76b7d58d5bc"},"vehicle_type_id":"4","last_reported":1685293502,"current_range_meters":0,"station_id":"ce4bha12rcd13ifvqee0","pricing_plan_id":"free"},{"bike_id":"60ffa9a7-6051-44aa-a27d-473017ea0d58","system_id":"levelo_inurba_marseille","lat":43.287154,"lon":5.399979,"is_reserved":false,"is_disabled":false,"rental_uris":{"android":"levelo://app?vid=60ffa9a7-6051-44aa-a27d-473017ea0d58","ios":"levelo://app?vid=60ffa9a7-6051-44aa-a27d-473017ea0d58"},"vehicle_type_id":"4","last_reported":1685293502,"current_range_meters":5200,"station_id":"ce4bho92rcd13ifvqh3g","pricing_plan_id":"free"},{"bike_id":"58f351f6-a795-4c00-9ff5-8fb6df24493e","system_id":"levelo_inurba_marseille","lat":43.287154,"lon":5.399979,"is_reserved":false,"is_disabled":false,"rental_uris":{"android":"levelo://app?vid=58f351f6-a795-4c00-9ff5-8fb6df24493e","ios":"levelo://app?vid=58f351f6-a795-4c00-9ff5-8fb6df24493e"},"vehicle_type_id":"4","last_reported":1685293502,"current_range_meters":800,"station_id":"ce4bho92rcd13ifvqh3g","pricing_plan_id":"free"},{"bike_id":"f52fe5b7-07b5-499b-846d-faf57791264c","system_id":"levelo_inurba_marseille","lat":43.325233,"lon":5.414318,"is_reserved":false,"is_disabled":false,"rental_uris":{"android":"levelo://app?vid=f52fe5b7-07b5-499b-846d-faf57791264c","ios":"levelo://app?vid=f52fe5b7-07b5-499b-846d-faf57791264c"},"vehicle_type_id":"4","last_reported":1685293502,"current_range_meters":0,"station_id":"ce4bhq12rcd13ifvqhhg","pricing_plan_id":"free"},{"bike_id":"cb92eb6d-a4c4-46d2-a1a2-a3c2eca0d4e1","system_id":"levelo_inurba_marseille","lat":43.292569,"lon":5.409107,"is_reserved":false,"is_disabled":false,"rental_uris":{"android":"levelo://app?vid=cb92eb6d-a4c4-46d2-a1a2-a3c2eca0d4e1","ios":"levelo://app?vid=cb92eb6d-a4c4-46d2-a1a2-a3c2eca0d4e1"},"vehicle_type_id":"4","last_reported":1685293502,"current_range_meters":3600,"station_id":"ce4bh192rcd13ifvqdc0","pricing_plan_id":"free"},{"bike_id":"de7516fc-db65-4564-a053-6401c2af25fb","system_id":"levelo_inurba_marseille","lat":43.32544,"lon":5.4143,"is_reserved":false,"is_disabled":false,"rental_uris":{"android":"levelo://app?vid=de7516fc-db65-4564-a053-6401c2af25fb","ios":"levelo://app?vid=de7516fc-db65-4564-a053-6401c2af25fb"},"vehicle_type_id":"4","last_reported":1685293502,"current_range_meters":5200,"station_id":"ce4bhq12rcd13ifvqhhg","pricing_plan_id":"free"},{"bike_id":"286258f5-ac0b-4a30-a6cc-cd45e1cdecf2","system_id":"levelo_inurba_marseille","lat":43.32535,"lon":5.41437,"is_reserved":false,"is_disabled":false,"rental_uris":{"android":"levelo://app?vid=286258f5-ac0b-4a30-a6cc-cd45e1cdecf2","ios":"levelo://app?vid=286258f5-ac0b-4a30-a6cc-cd45e1cdecf2"},"vehicle_type_id":"4","last_reported":1685293502,"current_range_meters":31200,"station_id":"ce4bhq12rcd13ifvqhhg","pricing_plan_id":"free"},{"bike_id":"2d07d6fd-a3bd-4bcf-9b03-54b1487c9558","system_id":"levelo_inurba_marseille","lat":43.303837,"lon":5.418724,"is_reserved":false,"is_disabled":false,"rental_uris":{"android":"levelo://app?vid=2d07d6fd-a3bd-4bcf-9b03-54b1487c9558","ios":"levelo://app?vid=2d07d6fd-a3bd-4bcf-9b03-54b1487c9558"},"vehicle_type_id":"4","last_reported":1685293502,"current_range_meters":15600,"station_id":"ce4bhop2rcd13ifvqh7g","pricing_plan_id":"free"},{"bike_id":"09666214-8d74-4d02-b590-fedff9c9c459","system_id":"levelo_inurba_marseille","lat":43.303837,"lon":5.418724,"is_reserved":false,"is_disabled":false,"rental_uris":{"android":"levelo://app?vid=09666214-8d74-4d02-b590-fedff9c9c459","ios":"levelo://app?vid=09666214-8d74-4d02-b590-fedff9c9c459"},"vehicle_type_id":"4","last_reported":1685293502,"current_range_meters":0,"station_id":"ce4bhop2rcd13ifvqh7g","pricing_plan_id":"free"},{"bike_id":"58b00bf2-a752-4133-9b5b-5fe9282dd0e4","system_id":"levelo_inurba_marseille","lat":43.33606,"lon":5.41028,"is_reserved":false,"is_disabled":false,"rental_uris":{"android":"levelo://app?vid=58b00bf2-a752-4133-9b5b-5fe9282dd0e4","ios":"levelo://app?vid=58b00bf2-a752-4133-9b5b-5fe9282dd0e4"},"vehicle_type_id":"4","last_reported":1685293502,"current_range_meters":22000,"station_id":"ce4bhqh2rcd13ifvqhmg","pricing_plan_id":"free"},{"bike_id":"0201a4f7-76a5-4adb-ad0c-3ceac7ffc421","system_id":"levelo_inurba_marseille","lat":43.276769,"lon":5.388787,"is_reserved":false,"is_disabled":false,"rental_uris":{"android":"levelo://app?vid=0201a4f7-76a5-4adb-ad0c-3ceac7ffc421","ios":"levelo://app?vid=0201a4f7-76a5-4adb-ad0c-3ceac7ffc421"},"vehicle_type_id":"4","last_reported":1685293502,"current_range_meters":0,"station_id":"ce4bhi12rcd13ifvqfo0","pricing_plan_id":"free"},{"bike_id":"91b49189-18df-431a-bbbf-f0b2350181de","system_id":"levelo_inurba_marseille","lat":43.28423,"lon":5.40788,"is_reserved":false,"is_disabled":false,"rental_uris":{"android":"levelo://app?vid=91b49189-18df-431a-bbbf-f0b2350181de","ios":"levelo://app?vid=91b49189-18df-431a-bbbf-f0b2350181de"},"vehicle_type_id":"4","last_reported":1685293502,"current_range_meters":6400,"station_id":"","pricing_plan_id":"free"},{"bike_id":"a6dea544-0b06-4814-94f6-ad6e697b7c31","system_id":"levelo_inurba_marseille","lat":43.317121,"lon":5.423936,"is_reserved":false,"is_disabled":false,"rental_uris":{"android":"levelo://app?vid=a6dea544-0b06-4814-94f6-ad6e697b7c31","ios":"levelo://app?vid=a6dea544-0b06-4814-94f6-ad6e697b7c31"},"vehicle_type_id":"4","last_reported":1685293502,"current_range_meters":4800,"station_id":"ce4bhp92rcd13ifvqhbg","pricing_plan_id":"free"},{"bike_id":"9016c9f8-c7f0-4c2c-ad9e-356489ac849b","system_id":"levelo_inurba_marseille","lat":43.310785,"lon":5.424305,"is_reserved":false,"is_disabled":false,"rental_uris":{"android":"levelo://app?vid=9016c9f8-c7f0-4c2c-ad9e-356489ac849b","ios":"levelo://app?vid=9016c9f8-c7f0-4c2c-ad9e-356489ac849b"},"vehicle_type_id":"4","last_reported":1685293502,"current_range_meters":21600,"station_id":"ce4bhp92rcd13ifvqhag","pricing_plan_id":"free"},{"bike_id":"df96987b-d6c7-494b-8902-aa3d74e14797","system_id":"levelo_inurba_marseille","lat":43.310785,"lon":5.424305,"is_reserved":false,"is_disabled":false,"rental_uris":{"android":"levelo://app?vid=df96987b-d6c7-494b-8902-aa3d74e14797","ios":"levelo://app?vid=df96987b-d6c7-494b-8902-aa3d74e14797"},"vehicle_type_id":"4","last_reported":1685293502,"current_range_meters":14000,"station_id":"ce4bhp92rcd13ifvqhag","pricing_plan_id":"free"},{"bike_id":"de88f9bd-fcfb-40fa-8f4f-0c4afdfd2242","system_id":"levelo_inurba_marseille","lat":43.27777,"lon":5.3993,"is_reserved":false,"is_disabled":false,"rental_uris":{"android":"levelo://app?vid=de88f9bd-fcfb-40fa-8f4f-0c4afdfd2242","ios":"levelo://app?vid=de88f9bd-fcfb-40fa-8f4f-0c4afdfd2242"},"vehicle_type_id":"4","last_reported":1685293502,"current_range_meters":400,"station_id":"","pricing_plan_id":"free"},{"bike_id":"61975327-2901-4c46-99c0-45dcaddab9b1","system_id":"levelo_inurba_marseille","lat":43.27309,"lon":5.39083,"is_reserved":false,"is_disabled":false,"rental_uris":{"android":"levelo://app?vid=61975327-2901-4c46-99c0-45dcaddab9b1","ios":"levelo://app?vid=61975327-2901-4c46-99c0-45dcaddab9b1"},"vehicle_type_id":"4","last_reported":1685293502,"current_range_meters":0,"station_id":"ce4bhgp2rcd13ifvqfe0","pricing_plan_id":"free"},{"bike_id":"e3eec7ac-4523-408b-8fd2-c023c6d3f026","system_id":"levelo_inurba_marseille","lat":43.304096,"lon":5.425385,"is_reserved":false,"is_disabled":false,"rental_uris":{"android":"levelo://app?vid=e3eec7ac-4523-408b-8fd2-c023c6d3f026","ios":"levelo://app?vid=e3eec7ac-4523-408b-8fd2-c023c6d3f026"},"vehicle_type_id":"4","last_reported":1685293502,"current_range_meters":0,"station_id":"ce4bhoh2rcd13ifvqh6g","pricing_plan_id":"free"},{"bike_id":"f58105b1-887f-440a-ba19-55ff1fad4612","system_id":"levelo_inurba_marseille","lat":43.27034,"lon":5.38812,"is_reserved":false,"is_disabled":false,"rental_uris":{"android":"levelo://app?vid=f58105b1-887f-440a-ba19-55ff1fad4612","ios":"levelo://app?vid=f58105b1-887f-440a-ba19-55ff1fad4612"},"vehicle_type_id":"4","last_reported":1685293502,"current_range_meters":18800,"station_id":"","pricing_plan_id":"free"},{"bike_id":"3c28018f-d886-4a5c-92e6-4e082612e63d","system_id":"levelo_inurba_marseille","lat":43.278128,"lon":5.407195,"is_reserved":false,"is_disabled":false,"rental_uris":{"android":"levelo://app?vid=3c28018f-d886-4a5c-92e6-4e082612e63d","ios":"levelo://app?vid=3c28018f-d886-4a5c-92e6-4e082612e63d"},"vehicle_type_id":"4","last_reported":1685293502,"current_range_meters":4000,"station_id":"ce4bhnh2rcd13ifvqgtg","pricing_plan_id":"free"},{"bike_id":"8ae95309-87c1-4c12-ae68-52ad2004fe08","system_id":"levelo_inurba_marseille","lat":43.278128,"lon":5.407195,"is_reserved":false,"is_disabled":false,"rental_uris":{"android":"levelo://app?vid=8ae95309-87c1-4c12-ae68-52ad2004fe08","ios":"levelo://app?vid=8ae95309-87c1-4c12-ae68-52ad2004fe08"},"vehicle_type_id":"4","last_reported":1685293502,"current_range_meters":14800,"station_id":"ce4bhnh2rcd13ifvqgtg","pricing_plan_id":"free"},{"bike_id":"5c182fee-ff40-466f-8e40-165789243154","system_id":"levelo_inurba_marseille","lat":43.26681,"lon":5.382694,"is_reserved":false,"is_disabled":false,"rental_uris":{"android":"levelo://app?vid=5c182fee-ff40-466f-8e40-165789243154","ios":"levelo://app?vid=5c182fee-ff40-466f-8e40-165789243154"},"vehicle_type_id":"4","last_reported":1685293502,"current_range_meters":400,"station_id":"ce4bhg92rcd13ifvqf90","pricing_plan_id":"free"},{"bike_id":"97f92444-dc7f-4ac8-885e-43ac50454dc0","system_id":"levelo_inurba_marseille","lat":43.31687,"lon":5.4331,"is_reserved":false,"is_disabled":false,"rental_uris":{"android":"levelo://app?vid=97f92444-dc7f-4ac8-885e-43ac50454dc0","ios":"levelo://app?vid=97f92444-dc7f-4ac8-885e-43ac50454dc0"},"vehicle_type_id":"4","last_reported":1685293502,"current_range_meters":0,"station_id":"","pricing_plan_id":"free"},{"bike_id":"e065ceaf-3d4c-4df5-ab28-155e7ac2b139","system_id":"levelo_inurba_marseille","lat":43.27994,"lon":5.41653,"is_reserved":false,"is_disabled":false,"rental_uris":{"android":"levelo://app?vid=e065ceaf-3d4c-4df5-ab28-155e7ac2b139","ios":"levelo://app?vid=e065ceaf-3d4c-4df5-ab28-155e7ac2b139"},"vehicle_type_id":"4","last_reported":1685293502,"current_range_meters":0,"station_id":"ce4bho12rcd13ifvqh1g","pricing_plan_id":"free"},{"bike_id":"60b41f7c-4c95-4755-9437-7a8f84060523","system_id":"levelo_inurba_marseille","lat":43.26784,"lon":5.39413,"is_reserved":false,"is_disabled":false,"rental_uris":{"android":"levelo://app?vid=60b41f7c-4c95-4755-9437-7a8f84060523","ios":"levelo://app?vid=60b41f7c-4c95-4755-9437-7a8f84060523"},"vehicle_type_id":"4","last_reported":1685293502,"current_range_meters":0,"station_id":"ce4bhh12rcd13ifvqfg0","pricing_plan_id":"free"},{"bike_id":"b8e07922-f074-4378-9c0d-0a256de36fe0","system_id":"levelo_inurba_marseille","lat":43.30803,"lon":5.43522,"is_reserved":false,"is_disabled":false,"rental_uris":{"android":"levelo://app?vid=b8e07922-f074-4378-9c0d-0a256de36fe0","ios":"levelo://app?vid=b8e07922-f074-4378-9c0d-0a256de36fe0"},"vehicle_type_id":"4","last_reported":1685293502,"current_range_meters":13600,"station_id":"","pricing_plan_id":"free"},{"bike_id":"2c45440e-1828-4603-b51e-78bb9b02645f","system_id":"levelo_inurba_marseille","lat":43.30426,"lon":5.43479,"is_reserved":false,"is_disabled":false,"rental_uris":{"android":"levelo://app?vid=2c45440e-1828-4603-b51e-78bb9b02645f","ios":"levelo://app?vid=2c45440e-1828-4603-b51e-78bb9b02645f"},"vehicle_type_id":"4","last_reported":1685293502,"current_range_meters":2000,"station_id":"","pricing_plan_id":"free"},{"bike_id":"bed9b73e-e3b4-4d36-a8a7-4568b1d99dc7","system_id":"levelo_inurba_marseille","lat":43.2619,"lon":5.3744,"is_reserved":false,"is_disabled":false,"rental_uris":{"android":"levelo://app?vid=bed9b73e-e3b4-4d36-a8a7-4568b1d99dc7","ios":"levelo://app?vid=bed9b73e-e3b4-4d36-a8a7-4568b1d99dc7"},"vehicle_type_id":"4","last_reported":1685293502,"current_range_meters":0,"station_id":"ce4bhgp2rcd13ifvqfc0","pricing_plan_id":"free"},{"bike_id":"933f42be-453b-4f51-8fc5-139da5459b29","system_id":"levelo_inurba_marseille","lat":43.28096,"lon":5.4221,"is_reserved":false,"is_disabled":false,"rental_uris":{"android":"levelo://app?vid=933f42be-453b-4f51-8fc5-139da5459b29","ios":"levelo://app?vid=933f42be-453b-4f51-8fc5-139da5459b29"},"vehicle_type_id":"4","last_reported":1685293502,"current_range_meters":4400,"station_id":"","pricing_plan_id":"free"},{"bike_id":"2949f918-7ff9-4b44-8a9b-f907a0cd637f","system_id":"levelo_inurba_marseille","lat":43.317104,"lon":5.436818,"is_reserved":false,"is_disabled":false,"rental_uris":{"android":"levelo://app?vid=2949f918-7ff9-4b44-8a9b-f907a0cd637f","ios":"levelo://app?vid=2949f918-7ff9-4b44-8a9b-f907a0cd637f"},"vehicle_type_id":"4","last_reported":1685293502,"current_range_meters":8000,"station_id":"ce4bhp92rcd13ifvqhcg","pricing_plan_id":"free"},{"bike_id":"fad39617-3766-4c99-885a-5459107aa3c5","system_id":"levelo_inurba_marseille","lat":43.262012,"lon":5.379307,"is_reserved":false,"is_disabled":false,"rental_uris":{"android":"levelo://app?vid=fad39617-3766-4c99-885a-5459107aa3c5","ios":"levelo://app?vid=fad39617-3766-4c99-885a-5459107aa3c5"},"vehicle_type_id":"4","last_reported":1685293502,"current_range_meters":12800,"station_id":"ce4bhjp2rcd13ifvqg90","pricing_plan_id":"free"},{"bike_id":"760bfc38-e96f-40b9-8091-70e7d4460480","system_id":"levelo_inurba_marseille","lat":43.26204,"lon":5.37927,"is_reserved":false,"is_disabled":false,"rental_uris":{"android":"levelo://app?vid=760bfc38-e96f-40b9-8091-70e7d4460480","ios":"levelo://app?vid=760bfc38-e96f-40b9-8091-70e7d4460480"},"vehicle_type_id":"4","last_reported":1685293502,"current_range_meters":0,"station_id":"ce4bhjp2rcd13ifvqg90","pricing_plan_id":"free"},{"bike_id":"9d2bf9db-dc5e-4b9f-8897-73b538985e98","system_id":"levelo_inurba_marseille","lat":43.267959,"lon":5.402687,"is_reserved":false,"is_disabled":false,"rental_uris":{"android":"levelo://app?vid=9d2bf9db-dc5e-4b9f-8897-73b538985e98","ios":"levelo://app?vid=9d2bf9db-dc5e-4b9f-8897-73b538985e98"},"vehicle_type_id":"4","last_reported":1685293502,"current_range_meters":13600,"station_id":"ce501612rcd8frsf0b60","pricing_plan_id":"free"},{"bike_id":"a05d9e7e-4e6d-42c2-821c-0f496f0711e6","system_id":"levelo_inurba_marseille","lat":43.260219,"lon":5.37546,"is_reserved":false,"is_disabled":false,"rental_uris":{"android":"levelo://app?vid=a05d9e7e-4e6d-42c2-821c-0f496f0711e6","ios":"levelo://app?vid=a05d9e7e-4e6d-42c2-821c-0f496f0711e6"},"vehicle_type_id":"4","last_reported":1685293502,"current_range_meters":4400,"station_id":"ce4bhgh2rcd13ifvqfa0","pricing_plan_id":"free"},{"bike_id":"4dc96a25-ded0-4b4b-8d44-a280a80fe3f8","system_id":"levelo_inurba_marseille","lat":43.260225,"lon":5.375455,"is_reserved":false,"is_disabled":false,"rental_uris":{"android":"levelo://app?vid=4dc96a25-ded0-4b4b-8d44-a280a80fe3f8","ios":"levelo://app?vid=4dc96a25-ded0-4b4b-8d44-a280a80fe3f8"},"vehicle_type_id":"4","last_reported":1685293502,"current_range_meters":0,"station_id":"ce4bhgh2rcd13ifvqfa0","pricing_plan_id":"free"},{"bike_id":"577f121c-ab95-43c3-b11c-f791b4af4a9e","system_id":"levelo_inurba_marseille","lat":43.260225,"lon":5.375455,"is_reserved":false,"is_disabled":false,"rental_uris":{"android":"levelo://app?vid=577f121c-ab95-43c3-b11c-f791b4af4a9e","ios":"levelo://app?vid=577f121c-ab95-43c3-b11c-f791b4af4a9e"},"vehicle_type_id":"4","last_reported":1685293502,"current_range_meters":1200,"station_id":"ce4bhgh2rcd13ifvqfa0","pricing_plan_id":"free"},{"bike_id":"6b404443-757b-4b8d-9a78-a03ca59013fb","system_id":"levelo_inurba_marseille","lat":43.2592,"lon":5.37283,"is_reserved":false,"is_disabled":false,"rental_uris":{"android":"levelo://app?vid=6b404443-757b-4b8d-9a78-a03ca59013fb","ios":"levelo://app?vid=6b404443-757b-4b8d-9a78-a03ca59013fb"},"vehicle_type_id":"4","last_reported":1685293502,"current_range_meters":9600,"station_id":"","pricing_plan_id":"free"},{"bike_id":"bfe381d2-c20f-4688-bc54-8afbc59896f6","system_id":"levelo_inurba_marseille","lat":43.2607,"lon":5.393983,"is_reserved":false,"is_disabled":false,"rental_uris":{"android":"levelo://app?vid=bfe381d2-c20f-4688-bc54-8afbc59896f6","ios":"levelo://app?vid=bfe381d2-c20f-4688-bc54-8afbc59896f6"},"vehicle_type_id":"4","last_reported":1685293502,"current_range_meters":31200,"station_id":"ce4bhh92rcd13ifvqfj0","pricing_plan_id":"free"},{"bike_id":"e4bd78c0-3f4f-4aad-aa65-8898c6cf7275","system_id":"levelo_inurba_marseille","lat":43.26084,"lon":5.39769,"is_reserved":false,"is_disabled":false,"rental_uris":{"android":"levelo://app?vid=e4bd78c0-3f4f-4aad-aa65-8898c6cf7275","ios":"levelo://app?vid=e4bd78c0-3f4f-4aad-aa65-8898c6cf7275"},"vehicle_type_id":"4","last_reported":1685293502,"current_range_meters":0,"station_id":"ce4bhi12rcd13ifvqfq0","pricing_plan_id":"free"},{"bike_id":"de4042a6-10d9-4e46-a695-b693fac076a6","system_id":"levelo_inurba_marseille","lat":43.255756,"lon":5.382303,"is_reserved":false,"is_disabled":false,"rental_uris":{"android":"levelo://app?vid=de4042a6-10d9-4e46-a695-b693fac076a6","ios":"levelo://app?vid=de4042a6-10d9-4e46-a695-b693fac076a6"},"vehicle_type_id":"4","last_reported":1685293502,"current_range_meters":0,"station_id":"ce4bhih2rcd13ifvqfs0","pricing_plan_id":"free"},{"bike_id":"21a94e83-2bcf-4902-8a6a-85407ac0d3c9","system_id":"levelo_inurba_marseille","lat":43.254952,"lon":5.376471,"is_reserved":false,"is_disabled":false,"rental_uris":{"android":"levelo://app?vid=21a94e83-2bcf-4902-8a6a-85407ac0d3c9","ios":"levelo://app?vid=21a94e83-2bcf-4902-8a6a-85407ac0d3c9"},"vehicle_type_id":"4","last_reported":1685293502,"current_range_meters":0,"station_id":"","pricing_plan_id":"free"},{"bike_id":"84a82688-4941-4c8a-9903-d5edd67c212f","system_id":"levelo_inurba_marseille","lat":43.254947,"lon":5.376454,"is_reserved":false,"is_disabled":false,"rental_uris":{"android":"levelo://app?vid=84a82688-4941-4c8a-9903-d5edd67c212f","ios":"levelo://app?vid=84a82688-4941-4c8a-9903-d5edd67c212f"},"vehicle_type_id":"4","last_reported":1685293502,"current_range_meters":0,"station_id":"ce4bhh12rcd13ifvqff0","pricing_plan_id":"free"},{"bike_id":"4873ba56-859a-4e9b-ae93-29507fd5a555","system_id":"levelo_inurba_marseille","lat":43.27066,"lon":5.42279,"is_reserved":false,"is_disabled":false,"rental_uris":{"android":"levelo://app?vid=4873ba56-859a-4e9b-ae93-29507fd5a555","ios":"levelo://app?vid=4873ba56-859a-4e9b-ae93-29507fd5a555"},"vehicle_type_id":"4","last_reported":1685293502,"current_range_meters":2000,"station_id":"ce4bhk92rcd13ifvqgb0","pricing_plan_id":"free"},{"bike_id":"d8e98011-2455-40c0-aa05-c24e05f3b134","system_id":"levelo_inurba_marseille","lat":43.259,"lon":5.39903,"is_reserved":false,"is_disabled":false,"rental_uris":{"android":"levelo://app?vid=d8e98011-2455-40c0-aa05-c24e05f3b134","ios":"levelo://app?vid=d8e98011-2455-40c0-aa05-c24e05f3b134"},"vehicle_type_id":"4","last_reported":1685293502,"current_range_meters":28000,"station_id":"","pricing_plan_id":"free"},{"bike_id":"472952ca-4dc3-468a-be7a-011944c9c326","system_id":"levelo_inurba_marseille","lat":43.250009,"lon":5.389195,"is_reserved":false,"is_disabled":false,"rental_uris":{"android":"levelo://app?vid=472952ca-4dc3-468a-be7a-011944c9c326","ios":"levelo://app?vid=472952ca-4dc3-468a-be7a-011944c9c326"},"vehicle_type_id":"4","last_reported":1685293502,"current_range_meters":18400,"station_id":"ce4bhgp2rcd13ifvqfd0","pricing_plan_id":"free"},{"bike_id":"605049df-f972-4cec-b27e-8bad8dc58747","system_id":"levelo_inurba_marseille","lat":43.250009,"lon":5.389195,"is_reserved":false,"is_disabled":false,"rental_uris":{"android":"levelo://app?vid=605049df-f972-4cec-b27e-8bad8dc58747","ios":"levelo://app?vid=605049df-f972-4cec-b27e-8bad8dc58747"},"vehicle_type_id":"4","last_reported":1685293502,"current_range_meters":6800,"station_id":"ce4bhgp2rcd13ifvqfd0","pricing_plan_id":"free"},{"bike_id":"5694635a-17f5-4202-a3dd-185477a66e65","system_id":"levelo_inurba_marseille","lat":43.248072,"lon":5.374607,"is_reserved":false,"is_disabled":false,"rental_uris":{"android":"levelo://app?vid=5694635a-17f5-4202-a3dd-185477a66e65","ios":"levelo://app?vid=5694635a-17f5-4202-a3dd-185477a66e65"},"vehicle_type_id":"4","last_reported":1685293502,"current_range_meters":6800,"station_id":"","pricing_plan_id":"free"},{"bike_id":"c18762bd-07a7-44aa-9fc6-fcdf34612163","system_id":"levelo_inurba_marseille","lat":43.2479,"lon":5.374457,"is_reserved":false,"is_disabled":false,"rental_uris":{"android":"levelo://app?vid=c18762bd-07a7-44aa-9fc6-fcdf34612163","ios":"levelo://app?vid=c18762bd-07a7-44aa-9fc6-fcdf34612163"},"vehicle_type_id":"4","last_reported":1685293502,"current_range_meters":400,"station_id":"ce4bhgh2rcd13ifvqfb0","pricing_plan_id":"free"},{"bike_id":"08e3c551-05ba-4d38-bf64-97d941eadf8e","system_id":"levelo_inurba_marseille","lat":43.24667,"lon":5.38171,"is_reserved":false,"is_disabled":false,"rental_uris":{"android":"levelo://app?vid=08e3c551-05ba-4d38-bf64-97d941eadf8e","ios":"levelo://app?vid=08e3c551-05ba-4d38-bf64-97d941eadf8e"},"vehicle_type_id":"4","last_reported":1685293502,"current_range_meters":1200,"station_id":"","pricing_plan_id":"free"},{"bike_id":"ce7bfa08-ed5d-4fbd-810f-f32fddf7ac1b","system_id":"levelo_inurba_marseille","lat":43.24693,"lon":5.382096,"is_reserved":false,"is_disabled":false,"rental_uris":{"android":"levelo://app?vid=ce7bfa08-ed5d-4fbd-810f-f32fddf7ac1b","ios":"levelo://app?vid=ce7bfa08-ed5d-4fbd-810f-f32fddf7ac1b"},"vehicle_type_id":"4","last_reported":1685293502,"current_range_meters":800,"station_id":"ce4bhih2rcd13ifvqfr0","pricing_plan_id":"free"},{"bike_id":"8d3adf1a-0336-4469-955f-123c9cb49235","system_id":"levelo_inurba_marseille","lat":43.24693,"lon":5.382096,"is_reserved":false,"is_disabled":false,"rental_uris":{"android":"levelo://app?vid=8d3adf1a-0336-4469-955f-123c9cb49235","ios":"levelo://app?vid=8d3adf1a-0336-4469-955f-123c9cb49235"},"vehicle_type_id":"4","last_reported":1685293502,"current_range_meters":0,"station_id":"ce4bhih2rcd13ifvqfr0","pricing_plan_id":"free"},{"bike_id":"c72559f0-3c60-4b9c-9ce3-24158e720fdb","system_id":"levelo_inurba_marseille","lat":43.24693,"lon":5.382096,"is_reserved":false,"is_disabled":false,"rental_uris":{"android":"levelo://app?vid=c72559f0-3c60-4b9c-9ce3-24158e720fdb","ios":"levelo://app?vid=c72559f0-3c60-4b9c-9ce3-24158e720fdb"},"vehicle_type_id":"4","last_reported":1685293502,"current_range_meters":13200,"station_id":"ce4bhih2rcd13ifvqfr0","pricing_plan_id":"free"},{"bike_id":"216ef057-daa1-4797-b69c-69285db9eb92","system_id":"levelo_inurba_marseille","lat":43.246467,"lon":5.388984,"is_reserved":false,"is_disabled":false,"rental_uris":{"android":"levelo://app?vid=216ef057-daa1-4797-b69c-69285db9eb92","ios":"levelo://app?vid=216ef057-daa1-4797-b69c-69285db9eb92"},"vehicle_type_id":"4","last_reported":1685293502,"current_range_meters":29200,"station_id":"ce4bhg12rcd13ifvqf60","pricing_plan_id":"free"},{"bike_id":"bbebff27-67cb-4ea9-8d53-d13caa684bc5","system_id":"levelo_inurba_marseille","lat":43.243884,"lon":5.370737,"is_reserved":false,"is_disabled":false,"rental_uris":{"android":"levelo://app?vid=bbebff27-67cb-4ea9-8d53-d13caa684bc5","ios":"levelo://app?vid=bbebff27-67cb-4ea9-8d53-d13caa684bc5"},"vehicle_type_id":"4","last_reported":1685293502,"current_range_meters":24800,"station_id":"ce4bhhh2rcd13ifvqfk0","pricing_plan_id":"free"},{"bike_id":"24fb4b69-2e63-47ee-bf98-1a9a16683dcc","system_id":"levelo_inurba_marseille","lat":43.24085,"lon":5.37752,"is_reserved":false,"is_disabled":false,"rental_uris":{"android":"levelo://app?vid=24fb4b69-2e63-47ee-bf98-1a9a16683dcc","ios":"levelo://app?vid=24fb4b69-2e63-47ee-bf98-1a9a16683dcc"},"vehicle_type_id":"4","last_reported":1685293502,"current_range_meters":27600,"station_id":"","pricing_plan_id":"free"},{"bike_id":"3c0fb543-7d5f-4ba2-a741-510a465558d5","system_id":"levelo_inurba_marseille","lat":43.24084,"lon":5.37751,"is_reserved":false,"is_disabled":false,"rental_uris":{"android":"levelo://app?vid=3c0fb543-7d5f-4ba2-a741-510a465558d5","ios":"levelo://app?vid=3c0fb543-7d5f-4ba2-a741-510a465558d5"},"vehicle_type_id":"4","last_reported":1685293502,"current_range_meters":29600,"station_id":"","pricing_plan_id":"free"},{"bike_id":"3f0a9dc9-0509-4c14-9cde-4da06b6fe1a3","system_id":"levelo_inurba_marseille","lat":43.24082,"lon":5.37747,"is_reserved":false,"is_disabled":false,"rental_uris":{"android":"levelo://app?vid=3f0a9dc9-0509-4c14-9cde-4da06b6fe1a3","ios":"levelo://app?vid=3f0a9dc9-0509-4c14-9cde-4da06b6fe1a3"},"vehicle_type_id":"4","last_reported":1685293502,"current_range_meters":11600,"station_id":"","pricing_plan_id":"free"},{"bike_id":"936357a5-48fc-44ea-a059-3fbf2761c020","system_id":"levelo_inurba_marseille","lat":43.24082,"lon":5.37751,"is_reserved":false,"is_disabled":false,"rental_uris":{"android":"levelo://app?vid=936357a5-48fc-44ea-a059-3fbf2761c020","ios":"levelo://app?vid=936357a5-48fc-44ea-a059-3fbf2761c020"},"vehicle_type_id":"4","last_reported":1685293502,"current_range_meters":28800,"station_id":"","pricing_plan_id":"free"},{"bike_id":"cbbd08c5-0253-46f1-872a-15def88c8d47","system_id":"levelo_inurba_marseille","lat":43.24082,"lon":5.37756,"is_reserved":false,"is_disabled":false,"rental_uris":{"android":"levelo://app?vid=cbbd08c5-0253-46f1-872a-15def88c8d47","ios":"levelo://app?vid=cbbd08c5-0253-46f1-872a-15def88c8d47"},"vehicle_type_id":"4","last_reported":1685293502,"current_range_meters":20800,"station_id":"","pricing_plan_id":"free"},{"bike_id":"e0f8d820-f6b0-4427-91e6-b251bd50dfb6","system_id":"levelo_inurba_marseille","lat":43.24081,"lon":5.37755,"is_reserved":false,"is_disabled":false,"rental_uris":{"android":"levelo://app?vid=e0f8d820-f6b0-4427-91e6-b251bd50dfb6","ios":"levelo://app?vid=e0f8d820-f6b0-4427-91e6-b251bd50dfb6"},"vehicle_type_id":"4","last_reported":1685293502,"current_range_meters":18400,"station_id":"","pricing_plan_id":"free"},{"bike_id":"908866b9-48fb-4177-9987-965f50f35b3e","system_id":"levelo_inurba_marseille","lat":43.2408,"lon":5.37745,"is_reserved":false,"is_disabled":false,"rental_uris":{"android":"levelo://app?vid=908866b9-48fb-4177-9987-965f50f35b3e","ios":"levelo://app?vid=908866b9-48fb-4177-9987-965f50f35b3e"},"vehicle_type_id":"4","last_reported":1685293502,"current_range_meters":16400,"station_id":"","pricing_plan_id":"free"},{"bike_id":"ceca2ac0-fad6-49a0-803a-c9d0b85268fd","system_id":"levelo_inurba_marseille","lat":43.24078,"lon":5.37755,"is_reserved":false,"is_disabled":false,"rental_uris":{"android":"levelo://app?vid=ceca2ac0-fad6-49a0-803a-c9d0b85268fd","ios":"levelo://app?vid=ceca2ac0-fad6-49a0-803a-c9d0b85268fd"},"vehicle_type_id":"4","last_reported":1685293502,"current_range_meters":30000,"station_id":"","pricing_plan_id":"free"},{"bike_id":"9e2be43e-190b-4cc5-8721-cc57121f2777","system_id":"levelo_inurba_marseille","lat":43.24078,"lon":5.37755,"is_reserved":false,"is_disabled":false,"rental_uris":{"android":"levelo://app?vid=9e2be43e-190b-4cc5-8721-cc57121f2777","ios":"levelo://app?vid=9e2be43e-190b-4cc5-8721-cc57121f2777"},"vehicle_type_id":"4","last_reported":1685293502,"current_range_meters":28800,"station_id":"","pricing_plan_id":"free"},{"bike_id":"e0cac369-51b5-425a-8b21-340f204eca36","system_id":"levelo_inurba_marseille","lat":43.24077,"lon":5.37746,"is_reserved":false,"is_disabled":false,"rental_uris":{"android":"levelo://app?vid=e0cac369-51b5-425a-8b21-340f204eca36","ios":"levelo://app?vid=e0cac369-51b5-425a-8b21-340f204eca36"},"vehicle_type_id":"4","last_reported":1685293502,"current_range_meters":24000,"station_id":"","pricing_plan_id":"free"},{"bike_id":"375bea00-7535-40cf-9db3-726053b2716a","system_id":"levelo_inurba_marseille","lat":43.24077,"lon":5.37748,"is_reserved":false,"is_disabled":false,"rental_uris":{"android":"levelo://app?vid=375bea00-7535-40cf-9db3-726053b2716a","ios":"levelo://app?vid=375bea00-7535-40cf-9db3-726053b2716a"},"vehicle_type_id":"4","last_reported":1685293502,"current_range_meters":28000,"station_id":"","pricing_plan_id":"free"},{"bike_id":"390dd92b-1f46-4e43-bd1b-3682ea0b00ca","system_id":"levelo_inurba_marseille","lat":43.24076,"lon":5.37749,"is_reserved":false,"is_disabled":false,"rental_uris":{"android":"levelo://app?vid=390dd92b-1f46-4e43-bd1b-3682ea0b00ca","ios":"levelo://app?vid=390dd92b-1f46-4e43-bd1b-3682ea0b00ca"},"vehicle_type_id":"4","last_reported":1685293502,"current_range_meters":10400,"station_id":"","pricing_plan_id":"free"},{"bike_id":"a7496784-6a6e-438b-982b-361a84d337d6","system_id":"levelo_inurba_marseille","lat":43.24075,"lon":5.37756,"is_reserved":false,"is_disabled":false,"rental_uris":{"android":"levelo://app?vid=a7496784-6a6e-438b-982b-361a84d337d6","ios":"levelo://app?vid=a7496784-6a6e-438b-982b-361a84d337d6"},"vehicle_type_id":"4","last_reported":1685293502,"current_range_meters":28800,"station_id":"","pricing_plan_id":"free"},{"bike_id":"44f6fd65-a504-4e1b-9913-ed133ddf6348","system_id":"levelo_inurba_marseille","lat":43.239588,"lon":5.366238,"is_reserved":false,"is_disabled":false,"rental_uris":{"android":"levelo://app?vid=44f6fd65-a504-4e1b-9913-ed133ddf6348","ios":"levelo://app?vid=44f6fd65-a504-4e1b-9913-ed133ddf6348"},"vehicle_type_id":"4","last_reported":1685293502,"current_range_meters":18800,"station_id":"ce4bhi12rcd13ifvqfp0","pricing_plan_id":"free"},{"bike_id":"d9755e99-0820-4959-a2cc-43ed5fadef72","system_id":"levelo_inurba_marseille","lat":43.239588,"lon":5.366238,"is_reserved":false,"is_disabled":false,"rental_uris":{"android":"levelo://app?vid=d9755e99-0820-4959-a2cc-43ed5fadef72","ios":"levelo://app?vid=d9755e99-0820-4959-a2cc-43ed5fadef72"},"vehicle_type_id":"4","last_reported":1685293502,"current_range_meters":8800,"station_id":"ce4bhi12rcd13ifvqfp0","pricing_plan_id":"free"},{"bike_id":"12733177-5a87-470b-b4de-5e7bd8df20e2","system_id":"levelo_inurba_marseille","lat":43.239588,"lon":5.366238,"is_reserved":false,"is_disabled":false,"rental_uris":{"android":"levelo://app?vid=12733177-5a87-470b-b4de-5e7bd8df20e2","ios":"levelo://app?vid=12733177-5a87-470b-b4de-5e7bd8df20e2"},"vehicle_type_id":"4","last_reported":1685293502,"current_range_meters":5200,"station_id":"ce4bhi12rcd13ifvqfp0","pricing_plan_id":"free"},{"bike_id":"5bed3870-337e-4b2d-9c4b-77d2e0ef04d3","system_id":"levelo_inurba_marseille","lat":43.23846,"lon":5.36495,"is_reserved":false,"is_disabled":false,"rental_uris":{"android":"levelo://app?vid=5bed3870-337e-4b2d-9c4b-77d2e0ef04d3","ios":"levelo://app?vid=5bed3870-337e-4b2d-9c4b-77d2e0ef04d3"},"vehicle_type_id":"4","last_reported":1685293502,"current_range_meters":13200,"station_id":"","pricing_plan_id":"free"},{"bike_id":"621982c5-7b25-400f-aa65-4fe7485cff67","system_id":"levelo_inurba_marseille","lat":43.3041,"lon":5.4743,"is_reserved":false,"is_disabled":false,"rental_uris":{"android":"levelo://app?vid=621982c5-7b25-400f-aa65-4fe7485cff67","ios":"levelo://app?vid=621982c5-7b25-400f-aa65-4fe7485cff67"},"vehicle_type_id":"4","last_reported":1685293502,"current_range_meters":29200,"station_id":"","pricing_plan_id":"free"},{"bike_id":"99d346d3-a1f6-4e1a-b65f-d649fa239985","system_id":"levelo_inurba_marseille","lat":43.23257,"lon":5.35611,"is_reserved":false,"is_disabled":false,"rental_uris":{"android":"levelo://app?vid=99d346d3-a1f6-4e1a-b65f-d649fa239985","ios":"levelo://app?vid=99d346d3-a1f6-4e1a-b65f-d649fa239985"},"vehicle_type_id":"4","last_reported":1685293502,"current_range_meters":16000,"station_id":"","pricing_plan_id":"free"},{"bike_id":"b8c897f1-845f-4f0c-9153-2ab42e9d99d1","system_id":"levelo_inurba_marseille","lat":43.232,"lon":5.35547,"is_reserved":false,"is_disabled":false,"rental_uris":{"android":"levelo://app?vid=b8c897f1-845f-4f0c-9153-2ab42e9d99d1","ios":"levelo://app?vid=b8c897f1-845f-4f0c-9153-2ab42e9d99d1"},"vehicle_type_id":"4","last_reported":1685293502,"current_range_meters":5200,"station_id":"ce4bhu92rcd13ifvqi70","pricing_plan_id":"free"},{"bike_id":"86f6aa98-31ed-47e9-8124-438330d674f0","system_id":"levelo_inurba_marseille","lat":43.23197,"lon":5.35552,"is_reserved":false,"is_disabled":false,"rental_uris":{"android":"levelo://app?vid=86f6aa98-31ed-47e9-8124-438330d674f0","ios":"levelo://app?vid=86f6aa98-31ed-47e9-8124-438330d674f0"},"vehicle_type_id":"4","last_reported":1685293502,"current_range_meters":14000,"station_id":"ce4bhu92rcd13ifvqi70","pricing_plan_id":"free"},{"bike_id":"1c22e45d-4df5-4fe3-8ca3-f25da55dfabc","system_id":"levelo_inurba_marseille","lat":43.23195,"lon":5.35553,"is_reserved":false,"is_disabled":false,"rental_uris":{"android":"levelo://app?vid=1c22e45d-4df5-4fe3-8ca3-f25da55dfabc","ios":"levelo://app?vid=1c22e45d-4df5-4fe3-8ca3-f25da55dfabc"},"vehicle_type_id":"4","last_reported":1685293502,"current_range_meters":4400,"station_id":"ce4bhu92rcd13ifvqi70","pricing_plan_id":"free"},{"bike_id":"cb73c821-3799-42da-b67c-c00ac8a9dd80","system_id":"levelo_inurba_marseille","lat":43.23194,"lon":5.35552,"is_reserved":false,"is_disabled":false,"rental_uris":{"android":"levelo://app?vid=cb73c821-3799-42da-b67c-c00ac8a9dd80","ios":"levelo://app?vid=cb73c821-3799-42da-b67c-c00ac8a9dd80"},"vehicle_type_id":"4","last_reported":1685293502,"current_range_meters":24000,"station_id":"ce4bhu92rcd13ifvqi70","pricing_plan_id":"free"},{"bike_id":"1cc08091-3387-4c34-998c-75b368201774","system_id":"levelo_inurba_marseille","lat":43.23193,"lon":5.35549,"is_reserved":false,"is_disabled":false,"rental_uris":{"android":"levelo://app?vid=1cc08091-3387-4c34-998c-75b368201774","ios":"levelo://app?vid=1cc08091-3387-4c34-998c-75b368201774"},"vehicle_type_id":"4","last_reported":1685293502,"current_range_meters":21600,"station_id":"ce4bhu92rcd13ifvqi70","pricing_plan_id":"free"},{"bike_id":"7013f55a-2614-44c5-843d-58a1171a3818","system_id":"levelo_inurba_marseille","lat":43.231923,"lon":5.355545,"is_reserved":false,"is_disabled":false,"rental_uris":{"android":"levelo://app?vid=7013f55a-2614-44c5-843d-58a1171a3818","ios":"levelo://app?vid=7013f55a-2614-44c5-843d-58a1171a3818"},"vehicle_type_id":"4","last_reported":1685293502,"current_range_meters":2400,"station_id":"ce4bhu92rcd13ifvqi70","pricing_plan_id":"free"},{"bike_id":"9f1ff2ea-3d4c-495e-89ac-a4b1fc323eb1","system_id":"levelo_inurba_marseille","lat":43.23192,"lon":5.35548,"is_reserved":false,"is_disabled":false,"rental_uris":{"android":"levelo://app?vid=9f1ff2ea-3d4c-495e-89ac-a4b1fc323eb1","ios":"levelo://app?vid=9f1ff2ea-3d4c-495e-89ac-a4b1fc323eb1"},"vehicle_type_id":"4","last_reported":1685293502,"current_range_meters":7200,"station_id":"ce4bhu92rcd13ifvqi70","pricing_plan_id":"free"},{"bike_id":"6fbfd314-c9ed-4877-ac71-b03824d2eb66","system_id":"levelo_inurba_marseille","lat":43.23191,"lon":5.35551,"is_reserved":false,"is_disabled":false,"rental_uris":{"android":"levelo://app?vid=6fbfd314-c9ed-4877-ac71-b03824d2eb66","ios":"levelo://app?vid=6fbfd314-c9ed-4877-ac71-b03824d2eb66"},"vehicle_type_id":"4","last_reported":1685293502,"current_range_meters":14000,"station_id":"ce4bhu92rcd13ifvqi70","pricing_plan_id":"free"},{"bike_id":"22422e04-5bb4-4b7e-9a82-d7dd628a4062","system_id":"levelo_inurba_marseille","lat":43.23191,"lon":5.35536,"is_reserved":false,"is_disabled":false,"rental_uris":{"android":"levelo://app?vid=22422e04-5bb4-4b7e-9a82-d7dd628a4062","ios":"levelo://app?vid=22422e04-5bb4-4b7e-9a82-d7dd628a4062"},"vehicle_type_id":"4","last_reported":1685293502,"current_range_meters":10800,"station_id":"ce4bhu92rcd13ifvqi70","pricing_plan_id":"free"},{"bike_id":"d0b52e7f-623a-4470-b0bc-03da6c1e273a","system_id":"levelo_inurba_marseille","lat":43.23196,"lon":5.39977,"is_reserved":false,"is_disabled":false,"rental_uris":{"android":"levelo://app?vid=d0b52e7f-623a-4470-b0bc-03da6c1e273a","ios":"levelo://app?vid=d0b52e7f-623a-4470-b0bc-03da6c1e273a"},"vehicle_type_id":"4","last_reported":1685293502,"current_range_meters":15200,"station_id":"ce4bhn12rcd13ifvqgqg","pricing_plan_id":"free"},{"bike_id":"b35c0da7-330d-4e9e-bd1e-9d0408c664b3","system_id":"levelo_inurba_marseille","lat":43.231793,"lon":5.400044,"is_reserved":false,"is_disabled":false,"rental_uris":{"android":"levelo://app?vid=b35c0da7-330d-4e9e-bd1e-9d0408c664b3","ios":"levelo://app?vid=b35c0da7-330d-4e9e-bd1e-9d0408c664b3"},"vehicle_type_id":"4","last_reported":1685293502,"current_range_meters":31200,"station_id":"ce4bhn12rcd13ifvqgqg","pricing_plan_id":"free"},{"bike_id":"9b868617-b176-4e5b-bbf3-d168630e1c9d","system_id":"levelo_inurba_marseille","lat":43.231793,"lon":5.400044,"is_reserved":false,"is_disabled":false,"rental_uris":{"android":"levelo://app?vid=9b868617-b176-4e5b-bbf3-d168630e1c9d","ios":"levelo://app?vid=9b868617-b176-4e5b-bbf3-d168630e1c9d"},"vehicle_type_id":"4","last_reported":1685293502,"current_range_meters":31600,"station_id":"ce4bhn12rcd13ifvqgqg","pricing_plan_id":"free"},{"bike_id":"56230511-dc5b-4d08-9a00-988f627fae27","system_id":"levelo_inurba_marseille","lat":43.231793,"lon":5.400044,"is_reserved":false,"is_disabled":false,"rental_uris":{"android":"levelo://app?vid=56230511-dc5b-4d08-9a00-988f627fae27","ios":"levelo://app?vid=56230511-dc5b-4d08-9a00-988f627fae27"},"vehicle_type_id":"4","last_reported":1685293502,"current_range_meters":31600,"station_id":"ce4bhn12rcd13ifvqgqg","pricing_plan_id":"free"},{"bike_id":"19780742-7429-46d5-8a21-489604e7e458","system_id":"levelo_inurba_marseille","lat":43.231793,"lon":5.400044,"is_reserved":false,"is_disabled":false,"rental_uris":{"android":"levelo://app?vid=19780742-7429-46d5-8a21-489604e7e458","ios":"levelo://app?vid=19780742-7429-46d5-8a21-489604e7e458"},"vehicle_type_id":"4","last_reported":1685293502,"current_range_meters":31200,"station_id":"ce4bhn12rcd13ifvqgqg","pricing_plan_id":"free"},{"bike_id":"67b77559-a903-49c5-9f37-4b2143617b52","system_id":"levelo_inurba_marseille","lat":43.23189,"lon":5.39978,"is_reserved":false,"is_disabled":false,"rental_uris":{"android":"levelo://app?vid=67b77559-a903-49c5-9f37-4b2143617b52","ios":"levelo://app?vid=67b77559-a903-49c5-9f37-4b2143617b52"},"vehicle_type_id":"4","last_reported":1685293502,"current_range_meters":31200,"station_id":"ce4bhn12rcd13ifvqgqg","pricing_plan_id":"free"},{"bike_id":"46f10739-9f76-433c-8bb0-3129a524ce7d","system_id":"levelo_inurba_marseille","lat":43.23189,"lon":5.39979,"is_reserved":false,"is_disabled":false,"rental_uris":{"android":"levelo://app?vid=46f10739-9f76-433c-8bb0-3129a524ce7d","ios":"levelo://app?vid=46f10739-9f76-433c-8bb0-3129a524ce7d"},"vehicle_type_id":"4","last_reported":1685293502,"current_range_meters":0,"station_id":"ce4bhn12rcd13ifvqgqg","pricing_plan_id":"free"},{"bike_id":"ae1dde4d-2bf3-4075-a27d-5c93c15f8c70","system_id":"levelo_inurba_marseille","lat":43.231793,"lon":5.400044,"is_reserved":false,"is_disabled":false,"rental_uris":{"android":"levelo://app?vid=ae1dde4d-2bf3-4075-a27d-5c93c15f8c70","ios":"levelo://app?vid=ae1dde4d-2bf3-4075-a27d-5c93c15f8c70"},"vehicle_type_id":"4","last_reported":1685293502,"current_range_meters":26000,"station_id":"ce4bhn12rcd13ifvqgqg","pricing_plan_id":"free"},{"bike_id":"ddeb217c-c36f-4d9f-a6b7-591bb633c619","system_id":"levelo_inurba_marseille","lat":43.23188,"lon":5.39983,"is_reserved":false,"is_disabled":false,"rental_uris":{"android":"levelo://app?vid=ddeb217c-c36f-4d9f-a6b7-591bb633c619","ios":"levelo://app?vid=ddeb217c-c36f-4d9f-a6b7-591bb633c619"},"vehicle_type_id":"4","last_reported":1685293502,"current_range_meters":31200,"station_id":"ce4bhn12rcd13ifvqgqg","pricing_plan_id":"free"},{"bike_id":"700995c9-64d7-4eb0-bd79-b8f656c3c801","system_id":"levelo_inurba_marseille","lat":43.231793,"lon":5.400044,"is_reserved":false,"is_disabled":false,"rental_uris":{"android":"levelo://app?vid=700995c9-64d7-4eb0-bd79-b8f656c3c801","ios":"levelo://app?vid=700995c9-64d7-4eb0-bd79-b8f656c3c801"},"vehicle_type_id":"4","last_reported":1685293502,"current_range_meters":0,"station_id":"ce4bhn12rcd13ifvqgqg","pricing_plan_id":"free"},{"bike_id":"31dd697e-cbbe-4915-a925-b463fdb47aab","system_id":"levelo_inurba_marseille","lat":43.231793,"lon":5.400044,"is_reserved":false,"is_disabled":false,"rental_uris":{"android":"levelo://app?vid=31dd697e-cbbe-4915-a925-b463fdb47aab","ios":"levelo://app?vid=31dd697e-cbbe-4915-a925-b463fdb47aab"},"vehicle_type_id":"4","last_reported":1685293502,"current_range_meters":31600,"station_id":"ce4bhn12rcd13ifvqgqg","pricing_plan_id":"free"},{"bike_id":"95832486-4dae-4689-9c6a-056a60f31c53","system_id":"levelo_inurba_marseille","lat":43.231793,"lon":5.400044,"is_reserved":false,"is_disabled":false,"rental_uris":{"android":"levelo://app?vid=95832486-4dae-4689-9c6a-056a60f31c53","ios":"levelo://app?vid=95832486-4dae-4689-9c6a-056a60f31c53"},"vehicle_type_id":"4","last_reported":1685293502,"current_range_meters":31600,"station_id":"ce4bhn12rcd13ifvqgqg","pricing_plan_id":"free"},{"bike_id":"56bd3043-7e29-4296-8959-d554eb37b8ae","system_id":"levelo_inurba_marseille","lat":43.23186,"lon":5.39986,"is_reserved":false,"is_disabled":false,"rental_uris":{"android":"levelo://app?vid=56bd3043-7e29-4296-8959-d554eb37b8ae","ios":"levelo://app?vid=56bd3043-7e29-4296-8959-d554eb37b8ae"},"vehicle_type_id":"4","last_reported":1685293502,"current_range_meters":0,"station_id":"ce4bhn12rcd13ifvqgqg","pricing_plan_id":"free"},{"bike_id":"a7fbfb05-3a72-4dea-b5c9-12ad7997a8ad","system_id":"levelo_inurba_marseille","lat":43.23186,"lon":5.39986,"is_reserved":false,"is_disabled":false,"rental_uris":{"android":"levelo://app?vid=a7fbfb05-3a72-4dea-b5c9-12ad7997a8ad","ios":"levelo://app?vid=a7fbfb05-3a72-4dea-b5c9-12ad7997a8ad"},"vehicle_type_id":"4","last_reported":1685293502,"current_range_meters":29600,"station_id":"ce4bhn12rcd13ifvqgqg","pricing_plan_id":"free"},{"bike_id":"a82a398c-10cf-4cab-8a31-75967c850db7","system_id":"levelo_inurba_marseille","lat":43.23185,"lon":5.39982,"is_reserved":false,"is_disabled":false,"rental_uris":{"android":"levelo://app?vid=a82a398c-10cf-4cab-8a31-75967c850db7","ios":"levelo://app?vid=a82a398c-10cf-4cab-8a31-75967c850db7"},"vehicle_type_id":"4","last_reported":1685293502,"current_range_meters":30400,"station_id":"ce4bhn12rcd13ifvqgqg","pricing_plan_id":"free"},{"bike_id":"523054a1-6a41-4d05-9039-d135dd68ad8d","system_id":"levelo_inurba_marseille","lat":43.23182,"lon":5.39983,"is_reserved":false,"is_disabled":false,"rental_uris":{"android":"levelo://app?vid=523054a1-6a41-4d05-9039-d135dd68ad8d","ios":"levelo://app?vid=523054a1-6a41-4d05-9039-d135dd68ad8d"},"vehicle_type_id":"4","last_reported":1685293502,"current_range_meters":31200,"station_id":"ce4bhn12rcd13ifvqgqg","pricing_plan_id":"free"},{"bike_id":"dbf4b31c-ea3a-440c-bc88-220c0a7097e6","system_id":"levelo_inurba_marseille","lat":43.231793,"lon":5.400044,"is_reserved":false,"is_disabled":false,"rental_uris":{"android":"levelo://app?vid=dbf4b31c-ea3a-440c-bc88-220c0a7097e6","ios":"levelo://app?vid=dbf4b31c-ea3a-440c-bc88-220c0a7097e6"},"vehicle_type_id":"4","last_reported":1685293502,"current_range_meters":24400,"station_id":"ce4bhn12rcd13ifvqgqg","pricing_plan_id":"free"},{"bike_id":"98d8fcaf-8158-45b6-9414-bec24d0fce39","system_id":"levelo_inurba_marseille","lat":43.23179,"lon":5.39985,"is_reserved":false,"is_disabled":false,"rental_uris":{"android":"levelo://app?vid=98d8fcaf-8158-45b6-9414-bec24d0fce39","ios":"levelo://app?vid=98d8fcaf-8158-45b6-9414-bec24d0fce39"},"vehicle_type_id":"4","last_reported":1685293502,"current_range_meters":19600,"station_id":"ce4bhn12rcd13ifvqgqg","pricing_plan_id":"free"},{"bike_id":"6ca85e10-642c-4f5b-b953-c390810f9dc5","system_id":"levelo_inurba_marseille","lat":43.22794,"lon":5.34989,"is_reserved":false,"is_disabled":false,"rental_uris":{"android":"levelo://app?vid=6ca85e10-642c-4f5b-b953-c390810f9dc5","ios":"levelo://app?vid=6ca85e10-642c-4f5b-b953-c390810f9dc5"},"vehicle_type_id":"4","last_reported":1685293502,"current_range_meters":6400,"station_id":"","pricing_plan_id":"free"},{"bike_id":"7db62880-35f0-43ad-8ed7-14044c6b2062","system_id":"levelo_inurba_marseille","lat":43.22506,"lon":5.34842,"is_reserved":false,"is_disabled":false,"rental_uris":{"android":"levelo://app?vid=7db62880-35f0-43ad-8ed7-14044c6b2062","ios":"levelo://app?vid=7db62880-35f0-43ad-8ed7-14044c6b2062"},"vehicle_type_id":"4","last_reported":1685293502,"current_range_meters":5600,"station_id":"","pricing_plan_id":"free"}]}}