{"last_updated":1708200387,"ttl":30,"version":"2.2","data":{"bikes":[{"bike_id":"733c2819-e3dd-4905-9ce7-3056d47b1a25","system_id":"levelo_inurba_marseille","lat":43.31345,"lon":5.36735,"is_reserved":false,"is_disabled":false,"rental_uris":{"android":"levelo://app?vid=733c2819-e3dd-4905-9ce7-3056d47b1a25","ios":"levelo://app?vid=733c2819-e3dd-4905-9ce7-3056d47b1a25"},"vehicle_type_id":"4","last_reported":1708200387,"current_range_meters":0,"station_id":"ce4bgr92rcd13ifvqc6g","pricing_plan_id":"cebpf4jnsgd1na2vs0mg"},{"bike_id":"82da3a10-90d6-4f03-80d3-b8a2c4c7662c","system_id":"levelo_inurba_marseille","lat":43.31341,"lon":5.367098,"is_reserved":false,"is_disabled":false,"rental_uris":{"android":"levelo://app?vid=82da3a10-90d6-4f03-80d3-b8a2c4c7662c","ios":"levelo://app?vid=82da3a10-90d6-4f03-80d3-b8a2c4c7662c"},"vehicle_type_id":"4","last_reported":1708200387,"current_range_meters":27600,"station_id":"ce4bgr92rcd13ifvqc6g","pricing_plan_id":"cebpf4jnsgd1na2vs0mg"},{"bike_id":"51a231d4-dfda-4017-b76c-0512859621b0","system_id":"levelo_inurba_marseille","lat":43.312223,"lon":5.368723,"is_reserved":false,"is_disabled":false,"rental_uris":{"android":"levelo://app?vid=51a231d4-dfda-4017-b76c-0512859621b0","ios":"levelo://app?vid=51a231d4-dfda-4017-b76c-0512859621b0"},"vehicle_type_id":"4","last_reported":1708200387,"current_range_meters":0,"station_id":"ce4bgl92rcd13ifvqbq0","pricing_plan_id":"cebpf4jnsgd1na2vs0mg"},{"bike_id":"aee23680-9a1c-43e5-9289-eacf0f5c7c2c","system_id":"levelo_inurba_marseille","lat":43.309076,"lon":5.368465,"is_reserved":false,"is_disabled":false,"rental_uris":{"android":"levelo://app?vid=aee23680-9a1c-43e5-9289-eacf0f5c7c2c","ios":"levelo://app?vid=aee23680-9a1c-43e5-9289-eacf0f5c7c2c"},"vehicle_type_id":"4","last_reported":1708200387,"current_range_meters":6000,"station_id":"ce4bgn92rcd13ifvqbvg","pricing_plan_id":"cebpf4jnsgd1na2vs0mg"},{"bike_id":"8e31f5f6-e242-46f7-bdb1-ee39a8cbe85f","system_id":"levelo_inurba_marseille","lat":43.309076,"lon":5.368465,"is_reserved":false,"is_disabled":false,"rental_uris":{"android":"levelo://app?vid=8e31f5f6-e242-46f7-bdb1-ee39a8cbe85f","ios":"levelo://app?vid=8e31f5f6-e242-46f7-bdb1-ee39a8cbe85f"},"vehicle_type_id":"4","last_reported":1708200387,"current_range_meters":6400,"station_id":"ce4bgn92rcd13ifvqbvg","pricing_plan_id":"cebpf4jnsgd1na2vs0mg"},{"bike_id":"fa086aa4-8327-43fc-8dbc-1a86388edc14","system_id":"levelo_inurba_marseille","lat":43.309076,"lon":5.368465,"is_reserved":false,"is_disabled":false,"rental_uris":{"android":"levelo://app?vid=fa086aa4-8327-43fc-8dbc-1a86388edc14","ios":"levelo://app?vid=fa086aa4-8327-43fc-8dbc-1a86388edc14"},"vehicle_type_id":"4","last_reported":1708200387,"current_range_meters":24000,"station_id":"ce4bgn92rcd13ifvqbvg","pricing_plan_id":"cebpf4jnsgd1na2vs0mg"},{"bike_id":"bc607da6-b789-422f-8ee9-bb241b36b06d","system_id":"levelo_inurba_marseille","lat":43.309076,"lon":5.368465,"is_reserved":false,"is_disabled":false,"rental_uris":{"android":"levelo://app?vid=bc607da6-b789-422f-8ee9-bb241b36b06d","ios":"levelo://app?vid=bc607da6-b789-422f-8ee9-bb241b36b06d"},"vehicle_type_id":"4","last_reported":1708200387,"current_range_meters":20400,"station_id":"ce4bgn92rcd13ifvqbvg","pricing_plan_id":"cebpf4jnsgd1na2vs0mg"},{"bike_id":"c6ef5152-57e2-4576-8010-a4c84e4968d6","system_id":"levelo_inurba_marseille","lat":43.314824,"lon":5.373135,"is_reserved":false,"is_disabled":false,"rental_uris":{"android":"levelo://app?vid=c6ef5152-57e2-4576-8010-a4c84e4968d6","ios":"levelo://app?vid=c6ef5152-57e2-4576-8010-a4c84e4968d6"},"vehicle_type_id":"4","last_reported":1708200387,"current_range_meters":8000,"station_id":"","pricing_plan_id":"cebpf4jnsgd1na2vs0mg"},{"bike_id":"734c338e-d285-458e-b34a-b566f384b2ea","system_id":"levelo_inurba_marseille","lat":43.309034,"lon":5.371783,"is_reserved":false,"is_disabled":false,"rental_uris":{"android":"levelo://app?vid=734c338e-d285-458e-b34a-b566f384b2ea","ios":"levelo://app?vid=734c338e-d285-458e-b34a-b566f384b2ea"},"vehicle_type_id":"4","last_reported":1708200387,"current_range_meters":12000,"station_id":"ce4bguh2rcd13ifvqckg","pricing_plan_id":"cebpf4jnsgd1na2vs0mg"},{"bike_id":"7aedc51d-185e-4a2b-b6fe-be4f590ec8b4","system_id":"levelo_inurba_marseille","lat":43.30537,"lon":5.367345,"is_reserved":false,"is_disabled":false,"rental_uris":{"android":"levelo://app?vid=7aedc51d-185e-4a2b-b6fe-be4f590ec8b4","ios":"levelo://app?vid=7aedc51d-185e-4a2b-b6fe-be4f590ec8b4"},"vehicle_type_id":"4","last_reported":1708200387,"current_range_meters":20400,"station_id":"ce4bgrp2rcd13ifvqc9g","pricing_plan_id":"cebpf4jnsgd1na2vs0mg"},{"bike_id":"3486c5e9-a82a-459a-9d3d-1fbc5823dd99","system_id":"levelo_inurba_marseille","lat":43.29602,"lon":5.381084,"is_reserved":false,"is_disabled":false,"rental_uris":{"android":"levelo://app?vid=3486c5e9-a82a-459a-9d3d-1fbc5823dd99","ios":"levelo://app?vid=3486c5e9-a82a-459a-9d3d-1fbc5823dd99"},"vehicle_type_id":"4","last_reported":1708200387,"current_range_meters":3600,"station_id":"ce4bgl12rcd13ifvqbo0","pricing_plan_id":"cebpf4jnsgd1na2vs0mg"},{"bike_id":"b82e9e04-7619-41c5-a45d-12eddda98feb","system_id":"levelo_inurba_marseille","lat":43.30551,"lon":5.36695,"is_reserved":false,"is_disabled":false,"rental_uris":{"android":"levelo://app?vid=b82e9e04-7619-41c5-a45d-12eddda98feb","ios":"levelo://app?vid=b82e9e04-7619-41c5-a45d-12eddda98feb"},"vehicle_type_id":"4","last_reported":1708200387,"current_range_meters":30000,"station_id":"","pricing_plan_id":"cebpf4jnsgd1na2vs0mg"},{"bike_id":"c27275ab-db3e-44dd-ad6c-42746637dc6a","system_id":"levelo_inurba_marseille","lat":43.305368,"lon":5.367343,"is_reserved":false,"is_disabled":false,"rental_uris":{"android":"levelo://app?vid=c27275ab-db3e-44dd-ad6c-42746637dc6a","ios":"levelo://app?vid=c27275ab-db3e-44dd-ad6c-42746637dc6a"},"vehicle_type_id":"4","last_reported":1708200387,"current_range_meters":29200,"station_id":"ce4bgrp2rcd13ifvqc9g","pricing_plan_id":"cebpf4jnsgd1na2vs0mg"},{"bike_id":"72664c16-e438-4daa-9d39-6994860c9a07","system_id":"levelo_inurba_marseille","lat":43.30608,"lon":5.3722,"is_reserved":false,"is_disabled":false,"rental_uris":{"android":"levelo://app?vid=72664c16-e438-4daa-9d39-6994860c9a07","ios":"levelo://app?vid=72664c16-e438-4daa-9d39-6994860c9a07"},"vehicle_type_id":"4","last_reported":1708200387,"current_range_meters":16000,"station_id":"ce4bgqh2rcd13ifvqc4g","pricing_plan_id":"cebpf4jnsgd1na2vs0mg"},{"bike_id":"7fe83e2c-d4c6-4abb-b65b-3ca4705d2471","system_id":"levelo_inurba_marseille","lat":43.305989,"lon":5.37225,"is_reserved":false,"is_disabled":false,"rental_uris":{"android":"levelo://app?vid=7fe83e2c-d4c6-4abb-b65b-3ca4705d2471","ios":"levelo://app?vid=7fe83e2c-d4c6-4abb-b65b-3ca4705d2471"},"vehicle_type_id":"4","last_reported":1708200387,"current_range_meters":10400,"station_id":"ce4bgqh2rcd13ifvqc4g","pricing_plan_id":"cebpf4jnsgd1na2vs0mg"},{"bike_id":"cad8b10b-5f9b-4a74-a29c-f5ab30ba76a7","system_id":"levelo_inurba_marseille","lat":43.31123,"lon":5.37764,"is_reserved":false,"is_disabled":false,"rental_uris":{"android":"levelo://app?vid=cad8b10b-5f9b-4a74-a29c-f5ab30ba76a7","ios":"levelo://app?vid=cad8b10b-5f9b-4a74-a29c-f5ab30ba76a7"},"vehicle_type_id":"4","last_reported":1708200387,"current_range_meters":15600,"station_id":"ce4bgt92rcd13ifvqcg0","pricing_plan_id":"cebpf4jnsgd1na2vs0mg"},{"bike_id":"7c810e53-7850-481b-b4c1-61cd639680c7","system_id":"levelo_inurba_marseille","lat":43.31115,"lon":5.37762,"is_reserved":false,"is_disabled":false,"rental_uris":{"android":"levelo://app?vid=7c810e53-7850-481b-b4c1-61cd639680c7","ios":"levelo://app?vid=7c810e53-7850-481b-b4c1-61cd639680c7"},"vehicle_type_id":"4","last_reported":1708200387,"current_range_meters":9600,"station_id":"ce4bgt92rcd13ifvqcg0","pricing_plan_id":"cebpf4jnsgd1na2vs0mg"},{"bike_id":"607839eb-39cf-4fda-857b-b06fc78d422f","system_id":"levelo_inurba_marseille","lat":43.307945,"lon":5.376487,"is_reserved":false,"is_disabled":false,"rental_uris":{"android":"levelo://app?vid=607839eb-39cf-4fda-857b-b06fc78d422f","ios":"levelo://app?vid=607839eb-39cf-4fda-857b-b06fc78d422f"},"vehicle_type_id":"4","last_reported":1708200387,"current_range_meters":12800,"station_id":"ce4bgv92rcd13ifvqcq0","pricing_plan_id":"cebpf4jnsgd1na2vs0mg"},{"bike_id":"6093169a-88ed-4ffa-bcd3-15119749356c","system_id":"levelo_inurba_marseille","lat":43.307945,"lon":5.376487,"is_reserved":false,"is_disabled":false,"rental_uris":{"android":"levelo://app?vid=6093169a-88ed-4ffa-bcd3-15119749356c","ios":"levelo://app?vid=6093169a-88ed-4ffa-bcd3-15119749356c"},"vehicle_type_id":"4","last_reported":1708200387,"current_range_meters":25200,"station_id":"ce4bgv92rcd13ifvqcq0","pricing_plan_id":"cebpf4jnsgd1na2vs0mg"},{"bike_id":"506cae87-02c6-442b-97d3-0542cfe17fc1","system_id":"levelo_inurba_marseille","lat":43.317075,"lon":5.377367,"is_reserved":false,"is_disabled":false,"rental_uris":{"android":"levelo://app?vid=506cae87-02c6-442b-97d3-0542cfe17fc1","ios":"levelo://app?vid=506cae87-02c6-442b-97d3-0542cfe17fc1"},"vehicle_type_id":"4","last_reported":1708200387,"current_range_meters":30000,"station_id":"ce4bgth2rcd13ifvqch0","pricing_plan_id":"cebpf4jnsgd1na2vs0mg"},{"bike_id":"5d7196d7-a09a-47e5-9701-4fb8016f2bed","system_id":"levelo_inurba_marseille","lat":43.317075,"lon":5.377367,"is_reserved":false,"is_disabled":false,"rental_uris":{"android":"levelo://app?vid=5d7196d7-a09a-47e5-9701-4fb8016f2bed","ios":"levelo://app?vid=5d7196d7-a09a-47e5-9701-4fb8016f2bed"},"vehicle_type_id":"4","last_reported":1708200387,"current_range_meters":20000,"station_id":"ce4bgth2rcd13ifvqch0","pricing_plan_id":"cebpf4jnsgd1na2vs0mg"},{"bike_id":"8c3ff194-3e2a-46dc-828c-8b2b3a56e9af","system_id":"levelo_inurba_marseille","lat":43.303046,"lon":5.368981,"is_reserved":false,"is_disabled":false,"rental_uris":{"android":"levelo://app?vid=8c3ff194-3e2a-46dc-828c-8b2b3a56e9af","ios":"levelo://app?vid=8c3ff194-3e2a-46dc-828c-8b2b3a56e9af"},"vehicle_type_id":"4","last_reported":1708200387,"current_range_meters":11200,"station_id":"ce4bgqh2rcd13ifvqc5g","pricing_plan_id":"cebpf4jnsgd1na2vs0mg"},{"bike_id":"aaaebe57-b6af-4d34-9e93-10373bc8855d","system_id":"levelo_inurba_marseille","lat":43.30304,"lon":5.368987,"is_reserved":false,"is_disabled":false,"rental_uris":{"android":"levelo://app?vid=aaaebe57-b6af-4d34-9e93-10373bc8855d","ios":"levelo://app?vid=aaaebe57-b6af-4d34-9e93-10373bc8855d"},"vehicle_type_id":"4","last_reported":1708200387,"current_range_meters":24800,"station_id":"ce4bgqh2rcd13ifvqc5g","pricing_plan_id":"cebpf4jnsgd1na2vs0mg"},{"bike_id":"04ec0f51-d648-4d8c-8836-ea57eb4b9ac3","system_id":"levelo_inurba_marseille","lat":43.301939,"lon":5.366286,"is_reserved":false,"is_disabled":false,"rental_uris":{"android":"levelo://app?vid=04ec0f51-d648-4d8c-8836-ea57eb4b9ac3","ios":"levelo://app?vid=04ec0f51-d648-4d8c-8836-ea57eb4b9ac3"},"vehicle_type_id":"4","last_reported":1708200387,"current_range_meters":8400,"station_id":"ce4bgrh2rcd13ifvqc8g","pricing_plan_id":"cebpf4jnsgd1na2vs0mg"},{"bike_id":"2269013e-0e28-4305-bbdc-5b206303c4af","system_id":"levelo_inurba_marseille","lat":43.30796,"lon":5.3814,"is_reserved":false,"is_disabled":false,"rental_uris":{"android":"levelo://app?vid=2269013e-0e28-4305-bbdc-5b206303c4af","ios":"levelo://app?vid=2269013e-0e28-4305-bbdc-5b206303c4af"},"vehicle_type_id":"4","last_reported":1708200387,"current_range_meters":7600,"station_id":"ce4bgt12rcd13ifvqce0","pricing_plan_id":"cebpf4jnsgd1na2vs0mg"},{"bike_id":"4b06259d-e1d8-4fd6-abf4-3a99eec7eeb9","system_id":"levelo_inurba_marseille","lat":43.30805,"lon":5.381557,"is_reserved":false,"is_disabled":false,"rental_uris":{"android":"levelo://app?vid=4b06259d-e1d8-4fd6-abf4-3a99eec7eeb9","ios":"levelo://app?vid=4b06259d-e1d8-4fd6-abf4-3a99eec7eeb9"},"vehicle_type_id":"4","last_reported":1708200387,"current_range_meters":0,"station_id":"ce4bgt12rcd13ifvqce0","pricing_plan_id":"cebpf4jnsgd1na2vs0mg"},{"bike_id":"e6525287-62fc-4631-b0b6-6e47ed451cac","system_id":"levelo_inurba_marseille","lat":43.304606,"lon":5.379026,"is_reserved":false,"is_disabled":false,"rental_uris":{"android":"levelo://app?vid=e6525287-62fc-4631-b0b6-6e47ed451cac","ios":"levelo://app?vid=e6525287-62fc-4631-b0b6-6e47ed451cac"},"vehicle_type_id":"4","last_reported":1708200387,"current_range_meters":18400,"station_id":"ce4bgup2rcd13ifvqcn0","pricing_plan_id":"cebpf4jnsgd1na2vs0mg"},{"bike_id":"52c7d0c2-438e-4f7d-9db4-ea70d4682f97","system_id":"levelo_inurba_marseille","lat":43.324771,"lon":5.36557,"is_reserved":false,"is_disabled":false,"rental_uris":{"android":"levelo://app?vid=52c7d0c2-438e-4f7d-9db4-ea70d4682f97","ios":"levelo://app?vid=52c7d0c2-438e-4f7d-9db4-ea70d4682f97"},"vehicle_type_id":"4","last_reported":1708200387,"current_range_meters":11200,"station_id":"ce4bhs12rcd13ifvqhvg","pricing_plan_id":"cebpf4jnsgd1na2vs0mg"},{"bike_id":"66c512bf-acab-4702-ba43-f4af8a53fc57","system_id":"levelo_inurba_marseille","lat":43.324771,"lon":5.36557,"is_reserved":false,"is_disabled":false,"rental_uris":{"android":"levelo://app?vid=66c512bf-acab-4702-ba43-f4af8a53fc57","ios":"levelo://app?vid=66c512bf-acab-4702-ba43-f4af8a53fc57"},"vehicle_type_id":"4","last_reported":1708200387,"current_range_meters":2000,"station_id":"ce4bhs12rcd13ifvqhvg","pricing_plan_id":"cebpf4jnsgd1na2vs0mg"},{"bike_id":"b58f9322-e72c-44cb-875a-8a661b34e40e","system_id":"levelo_inurba_marseille","lat":43.310804,"lon":5.38359,"is_reserved":false,"is_disabled":false,"rental_uris":{"android":"levelo://app?vid=b58f9322-e72c-44cb-875a-8a661b34e40e","ios":"levelo://app?vid=b58f9322-e72c-44cb-875a-8a661b34e40e"},"vehicle_type_id":"4","last_reported":1708200387,"current_range_meters":0,"station_id":"ce4bgv92rcd13ifvqcr0","pricing_plan_id":"cebpf4jnsgd1na2vs0mg"},{"bike_id":"656ce055-6266-458a-a40f-2da750d61dfa","system_id":"levelo_inurba_marseille","lat":43.310804,"lon":5.38359,"is_reserved":false,"is_disabled":false,"rental_uris":{"android":"levelo://app?vid=656ce055-6266-458a-a40f-2da750d61dfa","ios":"levelo://app?vid=656ce055-6266-458a-a40f-2da750d61dfa"},"vehicle_type_id":"4","last_reported":1708200387,"current_range_meters":5200,"station_id":"ce4bgv92rcd13ifvqcr0","pricing_plan_id":"cebpf4jnsgd1na2vs0mg"},{"bike_id":"ae6d477f-cfc3-48d6-a4b4-33959153e5fc","system_id":"levelo_inurba_marseille","lat":43.310804,"lon":5.38359,"is_reserved":false,"is_disabled":false,"rental_uris":{"android":"levelo://app?vid=ae6d477f-cfc3-48d6-a4b4-33959153e5fc","ios":"levelo://app?vid=ae6d477f-cfc3-48d6-a4b4-33959153e5fc"},"vehicle_type_id":"4","last_reported":1708200387,"current_range_meters":2000,"station_id":"ce4bgv92rcd13ifvqcr0","pricing_plan_id":"cebpf4jnsgd1na2vs0mg"},{"bike_id":"90887cf3-8994-40eb-bb84-31916e54ab66","system_id":"levelo_inurba_marseille","lat":43.30143,"lon":5.37413,"is_reserved":false,"is_disabled":false,"rental_uris":{"android":"levelo://app?vid=90887cf3-8994-40eb-bb84-31916e54ab66","ios":"levelo://app?vid=90887cf3-8994-40eb-bb84-31916e54ab66"},"vehicle_type_id":"4","last_reported":1708200387,"current_range_meters":0,"station_id":"ce4bgs92rcd13ifvqcc0","pricing_plan_id":"cebpf4jnsgd1na2vs0mg"},{"bike_id":"b966d316-a40f-4dd3-8e43-9f85576511d6","system_id":"levelo_inurba_marseille","lat":43.319935,"lon":5.381699,"is_reserved":false,"is_disabled":false,"rental_uris":{"android":"levelo://app?vid=b966d316-a40f-4dd3-8e43-9f85576511d6","ios":"levelo://app?vid=b966d316-a40f-4dd3-8e43-9f85576511d6"},"vehicle_type_id":"4","last_reported":1708200387,"current_range_meters":5600,"station_id":"ce4bhr12rcd13ifvqhpg","pricing_plan_id":"cebpf4jnsgd1na2vs0mg"},{"bike_id":"53e9dce0-56a0-47f5-8d9b-4ea34e0572a6","system_id":"levelo_inurba_marseille","lat":43.32015,"lon":5.38139,"is_reserved":false,"is_disabled":false,"rental_uris":{"android":"levelo://app?vid=53e9dce0-56a0-47f5-8d9b-4ea34e0572a6","ios":"levelo://app?vid=53e9dce0-56a0-47f5-8d9b-4ea34e0572a6"},"vehicle_type_id":"4","last_reported":1708200387,"current_range_meters":5200,"station_id":"ce4bhr12rcd13ifvqhpg","pricing_plan_id":"cebpf4jnsgd1na2vs0mg"},{"bike_id":"11298de3-ca59-4aa4-a005-860ac338509b","system_id":"levelo_inurba_marseille","lat":43.313571,"lon":5.384829,"is_reserved":false,"is_disabled":false,"rental_uris":{"android":"levelo://app?vid=11298de3-ca59-4aa4-a005-860ac338509b","ios":"levelo://app?vid=11298de3-ca59-4aa4-a005-860ac338509b"},"vehicle_type_id":"4","last_reported":1708200387,"current_range_meters":13600,"station_id":"ce4bgt92rcd13ifvqcf0","pricing_plan_id":"cebpf4jnsgd1na2vs0mg"},{"bike_id":"7351b036-da5e-4ccc-94e6-533e1af4474b","system_id":"levelo_inurba_marseille","lat":43.31362,"lon":5.38488,"is_reserved":false,"is_disabled":false,"rental_uris":{"android":"levelo://app?vid=7351b036-da5e-4ccc-94e6-533e1af4474b","ios":"levelo://app?vid=7351b036-da5e-4ccc-94e6-533e1af4474b"},"vehicle_type_id":"4","last_reported":1708200387,"current_range_meters":400,"station_id":"ce4bgt92rcd13ifvqcf0","pricing_plan_id":"cebpf4jnsgd1na2vs0mg"},{"bike_id":"d7122a35-34e0-4200-8fdb-176c8fed4439","system_id":"levelo_inurba_marseille","lat":43.31363,"lon":5.38488,"is_reserved":false,"is_disabled":false,"rental_uris":{"android":"levelo://app?vid=d7122a35-34e0-4200-8fdb-176c8fed4439","ios":"levelo://app?vid=d7122a35-34e0-4200-8fdb-176c8fed4439"},"vehicle_type_id":"4","last_reported":1708200387,"current_range_meters":30400,"station_id":"ce4bgt92rcd13ifvqcf0","pricing_plan_id":"cebpf4jnsgd1na2vs0mg"},{"bike_id":"470c7419-98e3-4059-adc8-fb445c6e4847","system_id":"levelo_inurba_marseille","lat":43.31362,"lon":5.38489,"is_reserved":false,"is_disabled":false,"rental_uris":{"android":"levelo://app?vid=470c7419-98e3-4059-adc8-fb445c6e4847","ios":"levelo://app?vid=470c7419-98e3-4059-adc8-fb445c6e4847"},"vehicle_type_id":"4","last_reported":1708200387,"current_range_meters":0,"station_id":"ce4bgt92rcd13ifvqcf0","pricing_plan_id":"cebpf4jnsgd1na2vs0mg"},{"bike_id":"8ad2f7eb-9f56-42cc-ae45-c63959f806f0","system_id":"levelo_inurba_marseille","lat":43.31364,"lon":5.3849,"is_reserved":false,"is_disabled":false,"rental_uris":{"android":"levelo://app?vid=8ad2f7eb-9f56-42cc-ae45-c63959f806f0","ios":"levelo://app?vid=8ad2f7eb-9f56-42cc-ae45-c63959f806f0"},"vehicle_type_id":"4","last_reported":1708200387,"current_range_meters":20000,"station_id":"ce4bgt92rcd13ifvqcf0","pricing_plan_id":"cebpf4jnsgd1na2vs0mg"},{"bike_id":"04491044-92bf-4325-b3a1-6f8fab8c5b25","system_id":"levelo_inurba_marseille","lat":43.313708,"lon":5.384903,"is_reserved":false,"is_disabled":false,"rental_uris":{"android":"levelo://app?vid=04491044-92bf-4325-b3a1-6f8fab8c5b25","ios":"levelo://app?vid=04491044-92bf-4325-b3a1-6f8fab8c5b25"},"vehicle_type_id":"4","last_reported":1708200387,"current_range_meters":21200,"station_id":"ce4bgt92rcd13ifvqcf0","pricing_plan_id":"cebpf4jnsgd1na2vs0mg"},{"bike_id":"c4b45808-8f51-4481-a9ed-6ce508005c9f","system_id":"levelo_inurba_marseille","lat":43.313571,"lon":5.384829,"is_reserved":false,"is_disabled":false,"rental_uris":{"android":"levelo://app?vid=c4b45808-8f51-4481-a9ed-6ce508005c9f","ios":"levelo://app?vid=c4b45808-8f51-4481-a9ed-6ce508005c9f"},"vehicle_type_id":"4","last_reported":1708200387,"current_range_meters":17200,"station_id":"ce4bgt92rcd13ifvqcf0","pricing_plan_id":"cebpf4jnsgd1na2vs0mg"},{"bike_id":"1dac90cc-342b-4092-8352-c42a71902b45","system_id":"levelo_inurba_marseille","lat":43.313571,"lon":5.384829,"is_reserved":false,"is_disabled":false,"rental_uris":{"android":"levelo://app?vid=1dac90cc-342b-4092-8352-c42a71902b45","ios":"levelo://app?vid=1dac90cc-342b-4092-8352-c42a71902b45"},"vehicle_type_id":"4","last_reported":1708200387,"current_range_meters":17600,"station_id":"ce4bgt92rcd13ifvqcf0","pricing_plan_id":"cebpf4jnsgd1na2vs0mg"},{"bike_id":"bd4b7dd6-7470-4274-90a8-c4363f149003","system_id":"levelo_inurba_marseille","lat":43.313571,"lon":5.384829,"is_reserved":false,"is_disabled":false,"rental_uris":{"android":"levelo://app?vid=bd4b7dd6-7470-4274-90a8-c4363f149003","ios":"levelo://app?vid=bd4b7dd6-7470-4274-90a8-c4363f149003"},"vehicle_type_id":"4","last_reported":1708200387,"current_range_meters":15200,"station_id":"ce4bgt92rcd13ifvqcf0","pricing_plan_id":"cebpf4jnsgd1na2vs0mg"},{"bike_id":"59e2cf64-f519-404e-b615-b29e9f6c4419","system_id":"levelo_inurba_marseille","lat":43.313571,"lon":5.384829,"is_reserved":false,"is_disabled":false,"rental_uris":{"android":"levelo://app?vid=59e2cf64-f519-404e-b615-b29e9f6c4419","ios":"levelo://app?vid=59e2cf64-f519-404e-b615-b29e9f6c4419"},"vehicle_type_id":"4","last_reported":1708200387,"current_range_meters":18000,"station_id":"ce4bgt92rcd13ifvqcf0","pricing_plan_id":"cebpf4jnsgd1na2vs0mg"},{"bike_id":"622e0355-0f36-4512-9aa4-3384b16bfea4","system_id":"levelo_inurba_marseille","lat":43.313571,"lon":5.384829,"is_reserved":false,"is_disabled":false,"rental_uris":{"android":"levelo://app?vid=622e0355-0f36-4512-9aa4-3384b16bfea4","ios":"levelo://app?vid=622e0355-0f36-4512-9aa4-3384b16bfea4"},"vehicle_type_id":"4","last_reported":1708200387,"current_range_meters":29600,"station_id":"ce4bgt92rcd13ifvqcf0","pricing_plan_id":"cebpf4jnsgd1na2vs0mg"},{"bike_id":"53e4047d-712b-4a44-ab66-44b573669b53","system_id":"levelo_inurba_marseille","lat":43.299222,"lon":5.365554,"is_reserved":false,"is_disabled":false,"rental_uris":{"android":"levelo://app?vid=53e4047d-712b-4a44-ab66-44b573669b53","ios":"levelo://app?vid=53e4047d-712b-4a44-ab66-44b573669b53"},"vehicle_type_id":"4","last_reported":1708200387,"current_range_meters":12000,"station_id":"ce4bgm92rcd13ifvqbr0","pricing_plan_id":"cebpf4jnsgd1na2vs0mg"},{"bike_id":"a16d2286-bc8e-42e6-8df9-92df60386e50","system_id":"levelo_inurba_marseille","lat":43.299222,"lon":5.365554,"is_reserved":false,"is_disabled":false,"rental_uris":{"android":"levelo://app?vid=a16d2286-bc8e-42e6-8df9-92df60386e50","ios":"levelo://app?vid=a16d2286-bc8e-42e6-8df9-92df60386e50"},"vehicle_type_id":"4","last_reported":1708200387,"current_range_meters":25600,"station_id":"ce4bgm92rcd13ifvqbr0","pricing_plan_id":"cebpf4jnsgd1na2vs0mg"},{"bike_id":"a31cf9d5-4eac-48fc-bea9-fc72e6914ed6","system_id":"levelo_inurba_marseille","lat":43.298433,"lon":5.362774,"is_reserved":false,"is_disabled":false,"rental_uris":{"android":"levelo://app?vid=a31cf9d5-4eac-48fc-bea9-fc72e6914ed6","ios":"levelo://app?vid=a31cf9d5-4eac-48fc-bea9-fc72e6914ed6"},"vehicle_type_id":"4","last_reported":1708200387,"current_range_meters":23600,"station_id":"ce4bgpp2rcd13ifvqc3g","pricing_plan_id":"cebpf4jnsgd1na2vs0mg"},{"bike_id":"282b8259-c8a4-4f74-a56f-553fe4c13d02","system_id":"levelo_inurba_marseille","lat":43.298433,"lon":5.362774,"is_reserved":false,"is_disabled":false,"rental_uris":{"android":"levelo://app?vid=282b8259-c8a4-4f74-a56f-553fe4c13d02","ios":"levelo://app?vid=282b8259-c8a4-4f74-a56f-553fe4c13d02"},"vehicle_type_id":"4","last_reported":1708200387,"current_range_meters":11600,"station_id":"ce4bgpp2rcd13ifvqc3g","pricing_plan_id":"cebpf4jnsgd1na2vs0mg"},{"bike_id":"0a813527-71a7-42dd-9a2e-e197bf1949a5","system_id":"levelo_inurba_marseille","lat":43.305364,"lon":5.384119,"is_reserved":false,"is_disabled":false,"rental_uris":{"android":"levelo://app?vid=0a813527-71a7-42dd-9a2e-e197bf1949a5","ios":"levelo://app?vid=0a813527-71a7-42dd-9a2e-e197bf1949a5"},"vehicle_type_id":"4","last_reported":1708200387,"current_range_meters":21600,"station_id":"ce4bgg92rcd13ifvqb30","pricing_plan_id":"cebpf4jnsgd1na2vs0mg"},{"bike_id":"91f3c86e-a5b1-4c7a-bf11-2c336d0e5a69","system_id":"levelo_inurba_marseille","lat":43.305364,"lon":5.384119,"is_reserved":false,"is_disabled":false,"rental_uris":{"android":"levelo://app?vid=91f3c86e-a5b1-4c7a-bf11-2c336d0e5a69","ios":"levelo://app?vid=91f3c86e-a5b1-4c7a-bf11-2c336d0e5a69"},"vehicle_type_id":"4","last_reported":1708200387,"current_range_meters":16800,"station_id":"ce4bgg92rcd13ifvqb30","pricing_plan_id":"cebpf4jnsgd1na2vs0mg"},{"bike_id":"d10e38aa-d58d-438b-b57f-61fa1d53ecd2","system_id":"levelo_inurba_marseille","lat":43.299243,"lon":5.37481,"is_reserved":false,"is_disabled":false,"rental_uris":{"android":"levelo://app?vid=d10e38aa-d58d-438b-b57f-61fa1d53ecd2","ios":"levelo://app?vid=d10e38aa-d58d-438b-b57f-61fa1d53ecd2"},"vehicle_type_id":"4","last_reported":1708200387,"current_range_meters":26400,"station_id":"ce4bgjh2rcd13ifvqbg0","pricing_plan_id":"cebpf4jnsgd1na2vs0mg"},{"bike_id":"7ede54d3-f745-44d4-b849-c72c0ce2e28a","system_id":"levelo_inurba_marseille","lat":43.305364,"lon":5.384119,"is_reserved":false,"is_disabled":false,"rental_uris":{"android":"levelo://app?vid=7ede54d3-f745-44d4-b849-c72c0ce2e28a","ios":"levelo://app?vid=7ede54d3-f745-44d4-b849-c72c0ce2e28a"},"vehicle_type_id":"4","last_reported":1708200387,"current_range_meters":28000,"station_id":"ce4bgg92rcd13ifvqb30","pricing_plan_id":"cebpf4jnsgd1na2vs0mg"},{"bike_id":"e2ec84d6-bdd6-4091-8870-b8a8eaf92850","system_id":"levelo_inurba_marseille","lat":43.305364,"lon":5.384119,"is_reserved":false,"is_disabled":false,"rental_uris":{"android":"levelo://app?vid=e2ec84d6-bdd6-4091-8870-b8a8eaf92850","ios":"levelo://app?vid=e2ec84d6-bdd6-4091-8870-b8a8eaf92850"},"vehicle_type_id":"4","last_reported":1708200387,"current_range_meters":1600,"station_id":"ce4bgg92rcd13ifvqb30","pricing_plan_id":"cebpf4jnsgd1na2vs0mg"},{"bike_id":"fe69fb1b-96ab-4ee8-af38-796df9fc8373","system_id":"levelo_inurba_marseille","lat":43.305364,"lon":5.384119,"is_reserved":false,"is_disabled":false,"rental_uris":{"android":"levelo://app?vid=fe69fb1b-96ab-4ee8-af38-796df9fc8373","ios":"levelo://app?vid=fe69fb1b-96ab-4ee8-af38-796df9fc8373"},"vehicle_type_id":"4","last_reported":1708200387,"current_range_meters":3600,"station_id":"ce4bgg92rcd13ifvqb30","pricing_plan_id":"cebpf4jnsgd1na2vs0mg"},{"bike_id":"608bf93d-680f-4f32-8ff4-ae87d681cb36","system_id":"levelo_inurba_marseille","lat":43.298433,"lon":5.362774,"is_reserved":false,"is_disabled":false,"rental_uris":{"android":"levelo://app?vid=608bf93d-680f-4f32-8ff4-ae87d681cb36","ios":"levelo://app?vid=608bf93d-680f-4f32-8ff4-ae87d681cb36"},"vehicle_type_id":"4","last_reported":1708200387,"current_range_meters":30400,"station_id":"ce4bgpp2rcd13ifvqc3g","pricing_plan_id":"cebpf4jnsgd1na2vs0mg"},{"bike_id":"01335930-d90f-4c46-83cd-e8191c0a49c7","system_id":"levelo_inurba_marseille","lat":43.298433,"lon":5.362774,"is_reserved":false,"is_disabled":false,"rental_uris":{"android":"levelo://app?vid=01335930-d90f-4c46-83cd-e8191c0a49c7","ios":"levelo://app?vid=01335930-d90f-4c46-83cd-e8191c0a49c7"},"vehicle_type_id":"4","last_reported":1708200387,"current_range_meters":0,"station_id":"ce4bgpp2rcd13ifvqc3g","pricing_plan_id":"cebpf4jnsgd1na2vs0mg"},{"bike_id":"47aff497-2976-46d5-9334-781e1964bb51","system_id":"levelo_inurba_marseille","lat":43.298433,"lon":5.362774,"is_reserved":false,"is_disabled":false,"rental_uris":{"android":"levelo://app?vid=47aff497-2976-46d5-9334-781e1964bb51","ios":"levelo://app?vid=47aff497-2976-46d5-9334-781e1964bb51"},"vehicle_type_id":"4","last_reported":1708200387,"current_range_meters":29600,"station_id":"ce4bgpp2rcd13ifvqc3g","pricing_plan_id":"cebpf4jnsgd1na2vs0mg"},{"bike_id":"f4405a88-fa91-4d49-b5c2-bdecd97b0592","system_id":"levelo_inurba_marseille","lat":43.299243,"lon":5.374807,"is_reserved":false,"is_disabled":false,"rental_uris":{"android":"levelo://app?vid=f4405a88-fa91-4d49-b5c2-bdecd97b0592","ios":"levelo://app?vid=f4405a88-fa91-4d49-b5c2-bdecd97b0592"},"vehicle_type_id":"4","last_reported":1708200387,"current_range_meters":2400,"station_id":"ce4bgjh2rcd13ifvqbg0","pricing_plan_id":"cebpf4jnsgd1na2vs0mg"},{"bike_id":"49590f4d-0f82-43db-a260-1f532892cecc","system_id":"levelo_inurba_marseille","lat":43.299243,"lon":5.374807,"is_reserved":false,"is_disabled":false,"rental_uris":{"android":"levelo://app?vid=49590f4d-0f82-43db-a260-1f532892cecc","ios":"levelo://app?vid=49590f4d-0f82-43db-a260-1f532892cecc"},"vehicle_type_id":"4","last_reported":1708200387,"current_range_meters":26800,"station_id":"ce4bgjh2rcd13ifvqbg0","pricing_plan_id":"cebpf4jnsgd1na2vs0mg"},{"bike_id":"f0b9db72-cbcb-4593-ba5d-ba121c44e88d","system_id":"levelo_inurba_marseille","lat":43.311722,"lon":5.387247,"is_reserved":false,"is_disabled":false,"rental_uris":{"android":"levelo://app?vid=f0b9db72-cbcb-4593-ba5d-ba121c44e88d","ios":"levelo://app?vid=f0b9db72-cbcb-4593-ba5d-ba121c44e88d"},"vehicle_type_id":"4","last_reported":1708200387,"current_range_meters":7600,"station_id":"ce4bgv12rcd13ifvqcp0","pricing_plan_id":"cebpf4jnsgd1na2vs0mg"},{"bike_id":"0ef7fe19-dbbc-4f48-b296-6750e1ac354d","system_id":"levelo_inurba_marseille","lat":43.311722,"lon":5.387247,"is_reserved":false,"is_disabled":false,"rental_uris":{"android":"levelo://app?vid=0ef7fe19-dbbc-4f48-b296-6750e1ac354d","ios":"levelo://app?vid=0ef7fe19-dbbc-4f48-b296-6750e1ac354d"},"vehicle_type_id":"4","last_reported":1708200387,"current_range_meters":21600,"station_id":"ce4bgv12rcd13ifvqcp0","pricing_plan_id":"cebpf4jnsgd1na2vs0mg"},{"bike_id":"a59473b5-b2c0-4621-84fb-8a0de26cf1c0","system_id":"levelo_inurba_marseille","lat":43.297774,"lon":5.370875,"is_reserved":false,"is_disabled":false,"rental_uris":{"android":"levelo://app?vid=a59473b5-b2c0-4621-84fb-8a0de26cf1c0","ios":"levelo://app?vid=a59473b5-b2c0-4621-84fb-8a0de26cf1c0"},"vehicle_type_id":"4","last_reported":1708200387,"current_range_meters":27600,"station_id":"ce4bgop2rcd13ifvqc1g","pricing_plan_id":"cebpf4jnsgd1na2vs0mg"},{"bike_id":"72dbeac5-8c98-4d3a-9fb5-5a1e6d9bd8dc","system_id":"levelo_inurba_marseille","lat":43.296131,"lon":5.370773,"is_reserved":false,"is_disabled":false,"rental_uris":{"android":"levelo://app?vid=72dbeac5-8c98-4d3a-9fb5-5a1e6d9bd8dc","ios":"levelo://app?vid=72dbeac5-8c98-4d3a-9fb5-5a1e6d9bd8dc"},"vehicle_type_id":"4","last_reported":1708200387,"current_range_meters":27200,"station_id":"ce4bgnh2rcd13ifvqc0g","pricing_plan_id":"cebpf4jnsgd1na2vs0mg"},{"bike_id":"f5f4a3bc-46ac-4584-9107-86a2356bbdeb","system_id":"levelo_inurba_marseille","lat":43.297774,"lon":5.370875,"is_reserved":false,"is_disabled":false,"rental_uris":{"android":"levelo://app?vid=f5f4a3bc-46ac-4584-9107-86a2356bbdeb","ios":"levelo://app?vid=f5f4a3bc-46ac-4584-9107-86a2356bbdeb"},"vehicle_type_id":"4","last_reported":1708200387,"current_range_meters":0,"station_id":"ce4bgop2rcd13ifvqc1g","pricing_plan_id":"cebpf4jnsgd1na2vs0mg"},{"bike_id":"70fe7047-25f5-4921-82cd-938fed021886","system_id":"levelo_inurba_marseille","lat":43.322872,"lon":5.382756,"is_reserved":false,"is_disabled":false,"rental_uris":{"android":"levelo://app?vid=70fe7047-25f5-4921-82cd-938fed021886","ios":"levelo://app?vid=70fe7047-25f5-4921-82cd-938fed021886"},"vehicle_type_id":"4","last_reported":1708200387,"current_range_meters":20400,"station_id":"ce4bhr12rcd13ifvqhqg","pricing_plan_id":"cebpf4jnsgd1na2vs0mg"},{"bike_id":"9af28949-3abe-4ee4-a57a-c236655c3362","system_id":"levelo_inurba_marseille","lat":43.322872,"lon":5.382756,"is_reserved":false,"is_disabled":false,"rental_uris":{"android":"levelo://app?vid=9af28949-3abe-4ee4-a57a-c236655c3362","ios":"levelo://app?vid=9af28949-3abe-4ee4-a57a-c236655c3362"},"vehicle_type_id":"4","last_reported":1708200387,"current_range_meters":31200,"station_id":"ce4bhr12rcd13ifvqhqg","pricing_plan_id":"cebpf4jnsgd1na2vs0mg"},{"bike_id":"e0606aea-3406-47f5-a2d9-daa525d9e5df","system_id":"levelo_inurba_marseille","lat":43.297774,"lon":5.370875,"is_reserved":false,"is_disabled":false,"rental_uris":{"android":"levelo://app?vid=e0606aea-3406-47f5-a2d9-daa525d9e5df","ios":"levelo://app?vid=e0606aea-3406-47f5-a2d9-daa525d9e5df"},"vehicle_type_id":"4","last_reported":1708200387,"current_range_meters":16400,"station_id":"ce4bgop2rcd13ifvqc1g","pricing_plan_id":"cebpf4jnsgd1na2vs0mg"},{"bike_id":"15f37670-1584-4d1a-8082-554ee13ad03b","system_id":"levelo_inurba_marseille","lat":43.322872,"lon":5.382756,"is_reserved":false,"is_disabled":false,"rental_uris":{"android":"levelo://app?vid=15f37670-1584-4d1a-8082-554ee13ad03b","ios":"levelo://app?vid=15f37670-1584-4d1a-8082-554ee13ad03b"},"vehicle_type_id":"4","last_reported":1708200387,"current_range_meters":13600,"station_id":"ce4bhr12rcd13ifvqhqg","pricing_plan_id":"cebpf4jnsgd1na2vs0mg"},{"bike_id":"410a532b-f4d9-44b0-bece-5fd8115e2fc4","system_id":"levelo_inurba_marseille","lat":43.322872,"lon":5.382756,"is_reserved":false,"is_disabled":false,"rental_uris":{"android":"levelo://app?vid=410a532b-f4d9-44b0-bece-5fd8115e2fc4","ios":"levelo://app?vid=410a532b-f4d9-44b0-bece-5fd8115e2fc4"},"vehicle_type_id":"4","last_reported":1708200387,"current_range_meters":23200,"station_id":"ce4bhr12rcd13ifvqhqg","pricing_plan_id":"cebpf4jnsgd1na2vs0mg"},{"bike_id":"b9ff7b9a-104a-4540-8290-f8fad157eb56","system_id":"levelo_inurba_marseille","lat":43.30208,"lon":5.38212,"is_reserved":false,"is_disabled":false,"rental_uris":{"android":"levelo://app?vid=b9ff7b9a-104a-4540-8290-f8fad157eb56","ios":"levelo://app?vid=b9ff7b9a-104a-4540-8290-f8fad157eb56"},"vehicle_type_id":"4","last_reported":1708200387,"current_range_meters":800,"station_id":"","pricing_plan_id":"cebpf4jnsgd1na2vs0mg"},{"bike_id":"2459963a-9a41-477a-9f46-310730d184fe","system_id":"levelo_inurba_marseille","lat":43.3282,"lon":5.3668,"is_reserved":false,"is_disabled":false,"rental_uris":{"android":"levelo://app?vid=2459963a-9a41-477a-9f46-310730d184fe","ios":"levelo://app?vid=2459963a-9a41-477a-9f46-310730d184fe"},"vehicle_type_id":"4","last_reported":1708200387,"current_range_meters":17200,"station_id":"ce4bhs92rcd13ifvqi0g","pricing_plan_id":"cebpf4jnsgd1na2vs0mg"},{"bike_id":"798e1c77-cdb6-49fb-b2e4-2a646e449b0a","system_id":"levelo_inurba_marseille","lat":43.328371,"lon":5.366909,"is_reserved":false,"is_disabled":false,"rental_uris":{"android":"levelo://app?vid=798e1c77-cdb6-49fb-b2e4-2a646e449b0a","ios":"levelo://app?vid=798e1c77-cdb6-49fb-b2e4-2a646e449b0a"},"vehicle_type_id":"4","last_reported":1708200387,"current_range_meters":5200,"station_id":"ce4bhs92rcd13ifvqi0g","pricing_plan_id":"cebpf4jnsgd1na2vs0mg"},{"bike_id":"aadfba98-88f5-4230-8488-f6b7556adf88","system_id":"levelo_inurba_marseille","lat":43.328226,"lon":5.366689,"is_reserved":false,"is_disabled":false,"rental_uris":{"android":"levelo://app?vid=aadfba98-88f5-4230-8488-f6b7556adf88","ios":"levelo://app?vid=aadfba98-88f5-4230-8488-f6b7556adf88"},"vehicle_type_id":"4","last_reported":1708200387,"current_range_meters":0,"station_id":"ce4bhs92rcd13ifvqi0g","pricing_plan_id":"cebpf4jnsgd1na2vs0mg"},{"bike_id":"d125619a-6ae6-4def-8c67-f1352fae5a27","system_id":"levelo_inurba_marseille","lat":43.32824,"lon":5.36681,"is_reserved":false,"is_disabled":false,"rental_uris":{"android":"levelo://app?vid=d125619a-6ae6-4def-8c67-f1352fae5a27","ios":"levelo://app?vid=d125619a-6ae6-4def-8c67-f1352fae5a27"},"vehicle_type_id":"4","last_reported":1708200387,"current_range_meters":18000,"station_id":"ce4bhs92rcd13ifvqi0g","pricing_plan_id":"cebpf4jnsgd1na2vs0mg"},{"bike_id":"cc924a54-60e4-4421-b12c-5aa0bb659927","system_id":"levelo_inurba_marseille","lat":43.32824,"lon":5.36679,"is_reserved":false,"is_disabled":false,"rental_uris":{"android":"levelo://app?vid=cc924a54-60e4-4421-b12c-5aa0bb659927","ios":"levelo://app?vid=cc924a54-60e4-4421-b12c-5aa0bb659927"},"vehicle_type_id":"4","last_reported":1708200387,"current_range_meters":1600,"station_id":"ce4bhs92rcd13ifvqi0g","pricing_plan_id":"cebpf4jnsgd1na2vs0mg"},{"bike_id":"ec21c626-faeb-41e5-9192-4d2bef3ee4d3","system_id":"levelo_inurba_marseille","lat":43.32824,"lon":5.36673,"is_reserved":false,"is_disabled":false,"rental_uris":{"android":"levelo://app?vid=ec21c626-faeb-41e5-9192-4d2bef3ee4d3","ios":"levelo://app?vid=ec21c626-faeb-41e5-9192-4d2bef3ee4d3"},"vehicle_type_id":"4","last_reported":1708200387,"current_range_meters":0,"station_id":"ce4bhs92rcd13ifvqi0g","pricing_plan_id":"cebpf4jnsgd1na2vs0mg"},{"bike_id":"4858fa03-d21d-48b2-a63e-a5500b96c079","system_id":"levelo_inurba_marseille","lat":43.32825,"lon":5.36677,"is_reserved":false,"is_disabled":false,"rental_uris":{"android":"levelo://app?vid=4858fa03-d21d-48b2-a63e-a5500b96c079","ios":"levelo://app?vid=4858fa03-d21d-48b2-a63e-a5500b96c079"},"vehicle_type_id":"4","last_reported":1708200387,"current_range_meters":1200,"station_id":"ce4bhs92rcd13ifvqi0g","pricing_plan_id":"cebpf4jnsgd1na2vs0mg"},{"bike_id":"45fe6c6c-2569-4aee-9c18-3f3586004f23","system_id":"levelo_inurba_marseille","lat":43.32825,"lon":5.36677,"is_reserved":false,"is_disabled":false,"rental_uris":{"android":"levelo://app?vid=45fe6c6c-2569-4aee-9c18-3f3586004f23","ios":"levelo://app?vid=45fe6c6c-2569-4aee-9c18-3f3586004f23"},"vehicle_type_id":"4","last_reported":1708200387,"current_range_meters":21600,"station_id":"ce4bhs92rcd13ifvqi0g","pricing_plan_id":"cebpf4jnsgd1na2vs0mg"},{"bike_id":"b354d40e-f748-45df-b8a4-085ee0f39b31","system_id":"levelo_inurba_marseille","lat":43.32825,"lon":5.36674,"is_reserved":false,"is_disabled":false,"rental_uris":{"android":"levelo://app?vid=b354d40e-f748-45df-b8a4-085ee0f39b31","ios":"levelo://app?vid=b354d40e-f748-45df-b8a4-085ee0f39b31"},"vehicle_type_id":"4","last_reported":1708200387,"current_range_meters":10800,"station_id":"ce4bhs92rcd13ifvqi0g","pricing_plan_id":"cebpf4jnsgd1na2vs0mg"},{"bike_id":"5195dc94-0b55-41c8-9198-580992dd67c5","system_id":"levelo_inurba_marseille","lat":43.32827,"lon":5.36678,"is_reserved":false,"is_disabled":false,"rental_uris":{"android":"levelo://app?vid=5195dc94-0b55-41c8-9198-580992dd67c5","ios":"levelo://app?vid=5195dc94-0b55-41c8-9198-580992dd67c5"},"vehicle_type_id":"4","last_reported":1708200387,"current_range_meters":20400,"station_id":"ce4bhs92rcd13ifvqi0g","pricing_plan_id":"cebpf4jnsgd1na2vs0mg"},{"bike_id":"0469dfd7-7b4f-460c-bf4d-cbd9ae2f827a","system_id":"levelo_inurba_marseille","lat":43.32828,"lon":5.36687,"is_reserved":false,"is_disabled":false,"rental_uris":{"android":"levelo://app?vid=0469dfd7-7b4f-460c-bf4d-cbd9ae2f827a","ios":"levelo://app?vid=0469dfd7-7b4f-460c-bf4d-cbd9ae2f827a"},"vehicle_type_id":"4","last_reported":1708200387,"current_range_meters":6400,"station_id":"ce4bhs92rcd13ifvqi0g","pricing_plan_id":"cebpf4jnsgd1na2vs0mg"},{"bike_id":"c9ca704a-95d9-467c-ad5a-5403d53c76ed","system_id":"levelo_inurba_marseille","lat":43.328299,"lon":5.366776,"is_reserved":false,"is_disabled":false,"rental_uris":{"android":"levelo://app?vid=c9ca704a-95d9-467c-ad5a-5403d53c76ed","ios":"levelo://app?vid=c9ca704a-95d9-467c-ad5a-5403d53c76ed"},"vehicle_type_id":"4","last_reported":1708200387,"current_range_meters":6800,"station_id":"ce4bhs92rcd13ifvqi0g","pricing_plan_id":"cebpf4jnsgd1na2vs0mg"},{"bike_id":"6a4afac0-6bf5-49e1-bc28-a2022e672910","system_id":"levelo_inurba_marseille","lat":43.32831,"lon":5.36685,"is_reserved":false,"is_disabled":false,"rental_uris":{"android":"levelo://app?vid=6a4afac0-6bf5-49e1-bc28-a2022e672910","ios":"levelo://app?vid=6a4afac0-6bf5-49e1-bc28-a2022e672910"},"vehicle_type_id":"4","last_reported":1708200387,"current_range_meters":25600,"station_id":"ce4bhs92rcd13ifvqi0g","pricing_plan_id":"cebpf4jnsgd1na2vs0mg"},{"bike_id":"fcbb72e3-aeee-4031-b1db-dc05c41736e9","system_id":"levelo_inurba_marseille","lat":43.32831,"lon":5.36681,"is_reserved":false,"is_disabled":false,"rental_uris":{"android":"levelo://app?vid=fcbb72e3-aeee-4031-b1db-dc05c41736e9","ios":"levelo://app?vid=fcbb72e3-aeee-4031-b1db-dc05c41736e9"},"vehicle_type_id":"4","last_reported":1708200387,"current_range_meters":13200,"station_id":"ce4bhs92rcd13ifvqi0g","pricing_plan_id":"cebpf4jnsgd1na2vs0mg"},{"bike_id":"3ce3bf05-0e26-4ba4-9a11-4781ff3d0eb6","system_id":"levelo_inurba_marseille","lat":43.32831,"lon":5.3668,"is_reserved":false,"is_disabled":false,"rental_uris":{"android":"levelo://app?vid=3ce3bf05-0e26-4ba4-9a11-4781ff3d0eb6","ios":"levelo://app?vid=3ce3bf05-0e26-4ba4-9a11-4781ff3d0eb6"},"vehicle_type_id":"4","last_reported":1708200387,"current_range_meters":2800,"station_id":"ce4bhs92rcd13ifvqi0g","pricing_plan_id":"cebpf4jnsgd1na2vs0mg"},{"bike_id":"45a7a14e-9b1e-4a1b-ad54-93a32f013a67","system_id":"levelo_inurba_marseille","lat":43.32831,"lon":5.36676,"is_reserved":false,"is_disabled":false,"rental_uris":{"android":"levelo://app?vid=45a7a14e-9b1e-4a1b-ad54-93a32f013a67","ios":"levelo://app?vid=45a7a14e-9b1e-4a1b-ad54-93a32f013a67"},"vehicle_type_id":"4","last_reported":1708200387,"current_range_meters":11200,"station_id":"ce4bhs92rcd13ifvqi0g","pricing_plan_id":"cebpf4jnsgd1na2vs0mg"},{"bike_id":"d059372d-713e-4306-a0dc-ef5b2b5ad059","system_id":"levelo_inurba_marseille","lat":43.328319,"lon":5.366774,"is_reserved":false,"is_disabled":false,"rental_uris":{"android":"levelo://app?vid=d059372d-713e-4306-a0dc-ef5b2b5ad059","ios":"levelo://app?vid=d059372d-713e-4306-a0dc-ef5b2b5ad059"},"vehicle_type_id":"4","last_reported":1708200387,"current_range_meters":21600,"station_id":"ce4bhs92rcd13ifvqi0g","pricing_plan_id":"cebpf4jnsgd1na2vs0mg"},{"bike_id":"b1a6d03f-e2ff-45bb-b890-788276a09a82","system_id":"levelo_inurba_marseille","lat":43.328327,"lon":5.366837,"is_reserved":false,"is_disabled":false,"rental_uris":{"android":"levelo://app?vid=b1a6d03f-e2ff-45bb-b890-788276a09a82","ios":"levelo://app?vid=b1a6d03f-e2ff-45bb-b890-788276a09a82"},"vehicle_type_id":"4","last_reported":1708200387,"current_range_meters":28400,"station_id":"ce4bhs92rcd13ifvqi0g","pricing_plan_id":"cebpf4jnsgd1na2vs0mg"},{"bike_id":"3833ec15-b081-4b20-84c5-72daf8aa7006","system_id":"levelo_inurba_marseille","lat":43.328331,"lon":5.366774,"is_reserved":false,"is_disabled":false,"rental_uris":{"android":"levelo://app?vid=3833ec15-b081-4b20-84c5-72daf8aa7006","ios":"levelo://app?vid=3833ec15-b081-4b20-84c5-72daf8aa7006"},"vehicle_type_id":"4","last_reported":1708200387,"current_range_meters":21200,"station_id":"ce4bhs92rcd13ifvqi0g","pricing_plan_id":"cebpf4jnsgd1na2vs0mg"},{"bike_id":"9a9df145-9e54-4492-8621-de0756e6d559","system_id":"levelo_inurba_marseille","lat":43.32836,"lon":5.36688,"is_reserved":false,"is_disabled":false,"rental_uris":{"android":"levelo://app?vid=9a9df145-9e54-4492-8621-de0756e6d559","ios":"levelo://app?vid=9a9df145-9e54-4492-8621-de0756e6d559"},"vehicle_type_id":"4","last_reported":1708200387,"current_range_meters":0,"station_id":"ce4bhs92rcd13ifvqi0g","pricing_plan_id":"cebpf4jnsgd1na2vs0mg"},{"bike_id":"d051659d-139b-42fb-a827-3455c1579f3f","system_id":"levelo_inurba_marseille","lat":43.297163,"lon":5.365866,"is_reserved":false,"is_disabled":false,"rental_uris":{"android":"levelo://app?vid=d051659d-139b-42fb-a827-3455c1579f3f","ios":"levelo://app?vid=d051659d-139b-42fb-a827-3455c1579f3f"},"vehicle_type_id":"4","last_reported":1708200387,"current_range_meters":16400,"station_id":"ce4bgn12rcd13ifvqbt0","pricing_plan_id":"cebpf4jnsgd1na2vs0mg"},{"bike_id":"b3742c49-8f7f-4944-bac2-af23368c017e","system_id":"levelo_inurba_marseille","lat":43.307945,"lon":5.376487,"is_reserved":false,"is_disabled":false,"rental_uris":{"android":"levelo://app?vid=b3742c49-8f7f-4944-bac2-af23368c017e","ios":"levelo://app?vid=b3742c49-8f7f-4944-bac2-af23368c017e"},"vehicle_type_id":"4","last_reported":1708200387,"current_range_meters":11600,"station_id":"ce4bgv92rcd13ifvqcq0","pricing_plan_id":"cebpf4jnsgd1na2vs0mg"},{"bike_id":"fe5511fa-5f29-4db3-b9e0-8a7e7e91b9ab","system_id":"levelo_inurba_marseille","lat":43.296129,"lon":5.370777,"is_reserved":false,"is_disabled":false,"rental_uris":{"android":"levelo://app?vid=fe5511fa-5f29-4db3-b9e0-8a7e7e91b9ab","ios":"levelo://app?vid=fe5511fa-5f29-4db3-b9e0-8a7e7e91b9ab"},"vehicle_type_id":"4","last_reported":1708200387,"current_range_meters":16800,"station_id":"ce4bgnh2rcd13ifvqc0g","pricing_plan_id":"cebpf4jnsgd1na2vs0mg"},{"bike_id":"3fa7e92a-25db-4177-8f54-bcf7d2f959b1","system_id":"levelo_inurba_marseille","lat":43.309491,"lon":5.390166,"is_reserved":false,"is_disabled":false,"rental_uris":{"android":"levelo://app?vid=3fa7e92a-25db-4177-8f54-bcf7d2f959b1","ios":"levelo://app?vid=3fa7e92a-25db-4177-8f54-bcf7d2f959b1"},"vehicle_type_id":"4","last_reported":1708200387,"current_range_meters":0,"station_id":"ce4bgup2rcd13ifvqco0","pricing_plan_id":"cebpf4jnsgd1na2vs0mg"},{"bike_id":"5bc996a8-5301-477b-8694-91904f8fd679","system_id":"levelo_inurba_marseille","lat":43.296935,"lon":5.376544,"is_reserved":false,"is_disabled":false,"rental_uris":{"android":"levelo://app?vid=5bc996a8-5301-477b-8694-91904f8fd679","ios":"levelo://app?vid=5bc996a8-5301-477b-8694-91904f8fd679"},"vehicle_type_id":"4","last_reported":1708200387,"current_range_meters":10000,"station_id":"ce4bgkh2rcd13ifvqbl0","pricing_plan_id":"cebpf4jnsgd1na2vs0mg"},{"bike_id":"7717ecd9-a919-409e-a001-76c7bf0ac151","system_id":"levelo_inurba_marseille","lat":43.296935,"lon":5.376544,"is_reserved":false,"is_disabled":false,"rental_uris":{"android":"levelo://app?vid=7717ecd9-a919-409e-a001-76c7bf0ac151","ios":"levelo://app?vid=7717ecd9-a919-409e-a001-76c7bf0ac151"},"vehicle_type_id":"4","last_reported":1708200387,"current_range_meters":2800,"station_id":"ce4bgkh2rcd13ifvqbl0","pricing_plan_id":"cebpf4jnsgd1na2vs0mg"},{"bike_id":"0a21c250-30c7-4df0-9ecc-96036d59b4e8","system_id":"levelo_inurba_marseille","lat":43.296935,"lon":5.376544,"is_reserved":false,"is_disabled":false,"rental_uris":{"android":"levelo://app?vid=0a21c250-30c7-4df0-9ecc-96036d59b4e8","ios":"levelo://app?vid=0a21c250-30c7-4df0-9ecc-96036d59b4e8"},"vehicle_type_id":"4","last_reported":1708200387,"current_range_meters":14400,"station_id":"ce4bgkh2rcd13ifvqbl0","pricing_plan_id":"cebpf4jnsgd1na2vs0mg"},{"bike_id":"29a01ad2-d193-4e72-a260-c70c53824056","system_id":"levelo_inurba_marseille","lat":43.299028,"lon":5.381509,"is_reserved":false,"is_disabled":false,"rental_uris":{"android":"levelo://app?vid=29a01ad2-d193-4e72-a260-c70c53824056","ios":"levelo://app?vid=29a01ad2-d193-4e72-a260-c70c53824056"},"vehicle_type_id":"4","last_reported":1708200387,"current_range_meters":18400,"station_id":"ce4bgj12rcd13ifvqbc0","pricing_plan_id":"cebpf4jnsgd1na2vs0mg"},{"bike_id":"5702dd76-87dd-44d3-859f-fc54af45f71b","system_id":"levelo_inurba_marseille","lat":43.299028,"lon":5.381509,"is_reserved":false,"is_disabled":false,"rental_uris":{"android":"levelo://app?vid=5702dd76-87dd-44d3-859f-fc54af45f71b","ios":"levelo://app?vid=5702dd76-87dd-44d3-859f-fc54af45f71b"},"vehicle_type_id":"4","last_reported":1708200387,"current_range_meters":20400,"station_id":"ce4bgj12rcd13ifvqbc0","pricing_plan_id":"cebpf4jnsgd1na2vs0mg"},{"bike_id":"5b44c17d-833c-4a11-9efd-67b9709fb169","system_id":"levelo_inurba_marseille","lat":43.299028,"lon":5.381509,"is_reserved":false,"is_disabled":false,"rental_uris":{"android":"levelo://app?vid=5b44c17d-833c-4a11-9efd-67b9709fb169","ios":"levelo://app?vid=5b44c17d-833c-4a11-9efd-67b9709fb169"},"vehicle_type_id":"4","last_reported":1708200387,"current_range_meters":17200,"station_id":"ce4bgj12rcd13ifvqbc0","pricing_plan_id":"cebpf4jnsgd1na2vs0mg"},{"bike_id":"4ee24540-8aa3-401c-a6d2-06dbb701cd0d","system_id":"levelo_inurba_marseille","lat":43.309589,"lon":5.390258,"is_reserved":false,"is_disabled":false,"rental_uris":{"android":"levelo://app?vid=4ee24540-8aa3-401c-a6d2-06dbb701cd0d","ios":"levelo://app?vid=4ee24540-8aa3-401c-a6d2-06dbb701cd0d"},"vehicle_type_id":"4","last_reported":1708200387,"current_range_meters":26800,"station_id":"ce4bgup2rcd13ifvqco0","pricing_plan_id":"cebpf4jnsgd1na2vs0mg"},{"bike_id":"e1f96121-78a4-472e-b021-f2ce14bbbf23","system_id":"levelo_inurba_marseille","lat":43.297067,"lon":5.377076,"is_reserved":false,"is_disabled":false,"rental_uris":{"android":"levelo://app?vid=e1f96121-78a4-472e-b021-f2ce14bbbf23","ios":"levelo://app?vid=e1f96121-78a4-472e-b021-f2ce14bbbf23"},"vehicle_type_id":"4","last_reported":1708200387,"current_range_meters":30800,"station_id":"ce4bgkh2rcd13ifvqbl0","pricing_plan_id":"cebpf4jnsgd1na2vs0mg"},{"bike_id":"67749e1b-b021-486e-b7dc-b13d847197f5","system_id":"levelo_inurba_marseille","lat":43.309589,"lon":5.390258,"is_reserved":false,"is_disabled":false,"rental_uris":{"android":"levelo://app?vid=67749e1b-b021-486e-b7dc-b13d847197f5","ios":"levelo://app?vid=67749e1b-b021-486e-b7dc-b13d847197f5"},"vehicle_type_id":"4","last_reported":1708200387,"current_range_meters":1600,"station_id":"ce4bgup2rcd13ifvqco0","pricing_plan_id":"cebpf4jnsgd1na2vs0mg"},{"bike_id":"f1dd2931-1bfb-45a7-ad5f-500f1f944458","system_id":"levelo_inurba_marseille","lat":43.309589,"lon":5.390258,"is_reserved":false,"is_disabled":false,"rental_uris":{"android":"levelo://app?vid=f1dd2931-1bfb-45a7-ad5f-500f1f944458","ios":"levelo://app?vid=f1dd2931-1bfb-45a7-ad5f-500f1f944458"},"vehicle_type_id":"4","last_reported":1708200387,"current_range_meters":19600,"station_id":"ce4bgup2rcd13ifvqco0","pricing_plan_id":"cebpf4jnsgd1na2vs0mg"},{"bike_id":"c8873a98-cb72-42cd-9141-bbc28ddfcac7","system_id":"levelo_inurba_marseille","lat":43.309589,"lon":5.390258,"is_reserved":false,"is_disabled":false,"rental_uris":{"android":"levelo://app?vid=c8873a98-cb72-42cd-9141-bbc28ddfcac7","ios":"levelo://app?vid=c8873a98-cb72-42cd-9141-bbc28ddfcac7"},"vehicle_type_id":"4","last_reported":1708200387,"current_range_meters":9200,"station_id":"ce4bgup2rcd13ifvqco0","pricing_plan_id":"cebpf4jnsgd1na2vs0mg"},{"bike_id":"efd7d638-0e09-486f-91a0-b70f1c3d4f0d","system_id":"levelo_inurba_marseille","lat":43.299028,"lon":5.381509,"is_reserved":false,"is_disabled":false,"rental_uris":{"android":"levelo://app?vid=efd7d638-0e09-486f-91a0-b70f1c3d4f0d","ios":"levelo://app?vid=efd7d638-0e09-486f-91a0-b70f1c3d4f0d"},"vehicle_type_id":"4","last_reported":1708200387,"current_range_meters":30000,"station_id":"ce4bgj12rcd13ifvqbc0","pricing_plan_id":"cebpf4jnsgd1na2vs0mg"},{"bike_id":"ec94bc0c-a98e-4824-8b4f-8ba49850853c","system_id":"levelo_inurba_marseille","lat":43.30417,"lon":5.38776,"is_reserved":false,"is_disabled":false,"rental_uris":{"android":"levelo://app?vid=ec94bc0c-a98e-4824-8b4f-8ba49850853c","ios":"levelo://app?vid=ec94bc0c-a98e-4824-8b4f-8ba49850853c"},"vehicle_type_id":"4","last_reported":1708200387,"current_range_meters":16000,"station_id":"ce4bgk12rcd13ifvqbi0","pricing_plan_id":"cebpf4jnsgd1na2vs0mg"},{"bike_id":"ed87d69f-71e3-4a80-a6a0-6a1355afd957","system_id":"levelo_inurba_marseille","lat":43.31759,"lon":5.39014,"is_reserved":false,"is_disabled":false,"rental_uris":{"android":"levelo://app?vid=ed87d69f-71e3-4a80-a6a0-6a1355afd957","ios":"levelo://app?vid=ed87d69f-71e3-4a80-a6a0-6a1355afd957"},"vehicle_type_id":"4","last_reported":1708200387,"current_range_meters":10400,"station_id":"ce4bhqp2rcd13ifvqhng","pricing_plan_id":"cebpf4jnsgd1na2vs0mg"},{"bike_id":"b3dcb9ba-bf07-48c1-aada-2fbdb761a352","system_id":"levelo_inurba_marseille","lat":43.317557,"lon":5.390173,"is_reserved":false,"is_disabled":false,"rental_uris":{"android":"levelo://app?vid=b3dcb9ba-bf07-48c1-aada-2fbdb761a352","ios":"levelo://app?vid=b3dcb9ba-bf07-48c1-aada-2fbdb761a352"},"vehicle_type_id":"4","last_reported":1708200387,"current_range_meters":31600,"station_id":"ce4bhqp2rcd13ifvqhng","pricing_plan_id":"cebpf4jnsgd1na2vs0mg"},{"bike_id":"600d0150-1635-4556-806d-0085d6f1da6c","system_id":"levelo_inurba_marseille","lat":43.317557,"lon":5.390173,"is_reserved":false,"is_disabled":false,"rental_uris":{"android":"levelo://app?vid=600d0150-1635-4556-806d-0085d6f1da6c","ios":"levelo://app?vid=600d0150-1635-4556-806d-0085d6f1da6c"},"vehicle_type_id":"4","last_reported":1708200387,"current_range_meters":18400,"station_id":"ce4bhqp2rcd13ifvqhng","pricing_plan_id":"cebpf4jnsgd1na2vs0mg"},{"bike_id":"e71aad95-e785-4fac-9d74-e2b56468f77a","system_id":"levelo_inurba_marseille","lat":43.317557,"lon":5.390173,"is_reserved":false,"is_disabled":false,"rental_uris":{"android":"levelo://app?vid=e71aad95-e785-4fac-9d74-e2b56468f77a","ios":"levelo://app?vid=e71aad95-e785-4fac-9d74-e2b56468f77a"},"vehicle_type_id":"4","last_reported":1708200387,"current_range_meters":27200,"station_id":"ce4bhqp2rcd13ifvqhng","pricing_plan_id":"cebpf4jnsgd1na2vs0mg"},{"bike_id":"91b23a31-bcef-44da-b6df-15e47c1d7b61","system_id":"levelo_inurba_marseille","lat":43.309589,"lon":5.390258,"is_reserved":false,"is_disabled":false,"rental_uris":{"android":"levelo://app?vid=91b23a31-bcef-44da-b6df-15e47c1d7b61","ios":"levelo://app?vid=91b23a31-bcef-44da-b6df-15e47c1d7b61"},"vehicle_type_id":"4","last_reported":1708200387,"current_range_meters":3600,"station_id":"ce4bgup2rcd13ifvqco0","pricing_plan_id":"cebpf4jnsgd1na2vs0mg"},{"bike_id":"06be6cc4-3693-490c-9623-d8ce0acc1976","system_id":"levelo_inurba_marseille","lat":43.298037,"lon":5.381066,"is_reserved":false,"is_disabled":false,"rental_uris":{"android":"levelo://app?vid=06be6cc4-3693-490c-9623-d8ce0acc1976","ios":"levelo://app?vid=06be6cc4-3693-490c-9623-d8ce0acc1976"},"vehicle_type_id":"4","last_reported":1708200387,"current_range_meters":29600,"station_id":"ce4bgip2rcd13ifvqbb0","pricing_plan_id":"cebpf4jnsgd1na2vs0mg"},{"bike_id":"9e60da26-f24c-467f-98f1-fb8d7f2d5f4b","system_id":"levelo_inurba_marseille","lat":43.3045,"lon":5.3889,"is_reserved":false,"is_disabled":false,"rental_uris":{"android":"levelo://app?vid=9e60da26-f24c-467f-98f1-fb8d7f2d5f4b","ios":"levelo://app?vid=9e60da26-f24c-467f-98f1-fb8d7f2d5f4b"},"vehicle_type_id":"4","last_reported":1708200387,"current_range_meters":1600,"station_id":"ce4bgk12rcd13ifvqbi0","pricing_plan_id":"cebpf4jnsgd1na2vs0mg"},{"bike_id":"ba218857-884c-417c-a22f-649dd993d974","system_id":"levelo_inurba_marseille","lat":43.3044,"lon":5.38883,"is_reserved":false,"is_disabled":false,"rental_uris":{"android":"levelo://app?vid=ba218857-884c-417c-a22f-649dd993d974","ios":"levelo://app?vid=ba218857-884c-417c-a22f-649dd993d974"},"vehicle_type_id":"4","last_reported":1708200387,"current_range_meters":16000,"station_id":"ce4bgk12rcd13ifvqbi0","pricing_plan_id":"cebpf4jnsgd1na2vs0mg"},{"bike_id":"734e63aa-7304-4d02-a2bc-59244c4ad0ae","system_id":"levelo_inurba_marseille","lat":43.298037,"lon":5.381066,"is_reserved":false,"is_disabled":false,"rental_uris":{"android":"levelo://app?vid=734e63aa-7304-4d02-a2bc-59244c4ad0ae","ios":"levelo://app?vid=734e63aa-7304-4d02-a2bc-59244c4ad0ae"},"vehicle_type_id":"4","last_reported":1708200387,"current_range_meters":21600,"station_id":"ce4bgip2rcd13ifvqbb0","pricing_plan_id":"cebpf4jnsgd1na2vs0mg"},{"bike_id":"a7738896-ddec-491d-8072-e701901114ec","system_id":"levelo_inurba_marseille","lat":43.304376,"lon":5.388827,"is_reserved":false,"is_disabled":false,"rental_uris":{"android":"levelo://app?vid=a7738896-ddec-491d-8072-e701901114ec","ios":"levelo://app?vid=a7738896-ddec-491d-8072-e701901114ec"},"vehicle_type_id":"4","last_reported":1708200387,"current_range_meters":18800,"station_id":"ce4bgk12rcd13ifvqbi0","pricing_plan_id":"cebpf4jnsgd1na2vs0mg"},{"bike_id":"70364fd0-4f5e-43ff-8333-13ae716fdd53","system_id":"levelo_inurba_marseille","lat":43.30437,"lon":5.388825,"is_reserved":false,"is_disabled":false,"rental_uris":{"android":"levelo://app?vid=70364fd0-4f5e-43ff-8333-13ae716fdd53","ios":"levelo://app?vid=70364fd0-4f5e-43ff-8333-13ae716fdd53"},"vehicle_type_id":"4","last_reported":1708200387,"current_range_meters":8800,"station_id":"ce4bgk12rcd13ifvqbi0","pricing_plan_id":"cebpf4jnsgd1na2vs0mg"},{"bike_id":"4dc776dc-fa17-498d-8d98-29758f2f39a5","system_id":"levelo_inurba_marseille","lat":43.297914,"lon":5.380974,"is_reserved":false,"is_disabled":false,"rental_uris":{"android":"levelo://app?vid=4dc776dc-fa17-498d-8d98-29758f2f39a5","ios":"levelo://app?vid=4dc776dc-fa17-498d-8d98-29758f2f39a5"},"vehicle_type_id":"4","last_reported":1708200387,"current_range_meters":31200,"station_id":"ce4bgip2rcd13ifvqbb0","pricing_plan_id":"cebpf4jnsgd1na2vs0mg"},{"bike_id":"e04527cf-767c-4431-adcd-f57c359f1190","system_id":"levelo_inurba_marseille","lat":43.29792,"lon":5.38101,"is_reserved":false,"is_disabled":false,"rental_uris":{"android":"levelo://app?vid=e04527cf-767c-4431-adcd-f57c359f1190","ios":"levelo://app?vid=e04527cf-767c-4431-adcd-f57c359f1190"},"vehicle_type_id":"4","last_reported":1708200387,"current_range_meters":5200,"station_id":"ce4bgip2rcd13ifvqbb0","pricing_plan_id":"cebpf4jnsgd1na2vs0mg"},{"bike_id":"f81596de-199d-4dcf-a8f8-b1ac60f2a782","system_id":"levelo_inurba_marseille","lat":43.297917,"lon":5.38101,"is_reserved":false,"is_disabled":false,"rental_uris":{"android":"levelo://app?vid=f81596de-199d-4dcf-a8f8-b1ac60f2a782","ios":"levelo://app?vid=f81596de-199d-4dcf-a8f8-b1ac60f2a782"},"vehicle_type_id":"4","last_reported":1708200387,"current_range_meters":800,"station_id":"ce4bgip2rcd13ifvqbb0","pricing_plan_id":"cebpf4jnsgd1na2vs0mg"},{"bike_id":"13434f51-5bba-4797-868d-9b534d415b62","system_id":"levelo_inurba_marseille","lat":43.295748,"lon":5.37522,"is_reserved":false,"is_disabled":false,"rental_uris":{"android":"levelo://app?vid=13434f51-5bba-4797-868d-9b534d415b62","ios":"levelo://app?vid=13434f51-5bba-4797-868d-9b534d415b62"},"vehicle_type_id":"4","last_reported":1708200387,"current_range_meters":6800,"station_id":"ce4bgh92rcd13ifvqb50","pricing_plan_id":"cebpf4jnsgd1na2vs0mg"},{"bike_id":"be9fb8ce-7ff8-4182-88cd-7c6bbaddc7cd","system_id":"levelo_inurba_marseille","lat":43.295748,"lon":5.37522,"is_reserved":false,"is_disabled":false,"rental_uris":{"android":"levelo://app?vid=be9fb8ce-7ff8-4182-88cd-7c6bbaddc7cd","ios":"levelo://app?vid=be9fb8ce-7ff8-4182-88cd-7c6bbaddc7cd"},"vehicle_type_id":"4","last_reported":1708200387,"current_range_meters":17200,"station_id":"ce4bgh92rcd13ifvqb50","pricing_plan_id":"cebpf4jnsgd1na2vs0mg"},{"bike_id":"4f539381-a669-4113-97c1-ae336b946123","system_id":"levelo_inurba_marseille","lat":43.304278,"lon":5.388868,"is_reserved":false,"is_disabled":false,"rental_uris":{"android":"levelo://app?vid=4f539381-a669-4113-97c1-ae336b946123","ios":"levelo://app?vid=4f539381-a669-4113-97c1-ae336b946123"},"vehicle_type_id":"4","last_reported":1708200387,"current_range_meters":4400,"station_id":"ce4bgk12rcd13ifvqbi0","pricing_plan_id":"cebpf4jnsgd1na2vs0mg"},{"bike_id":"5dd237aa-b5e1-4bcf-a904-09adbeaaaccb","system_id":"levelo_inurba_marseille","lat":43.304278,"lon":5.388868,"is_reserved":false,"is_disabled":false,"rental_uris":{"android":"levelo://app?vid=5dd237aa-b5e1-4bcf-a904-09adbeaaaccb","ios":"levelo://app?vid=5dd237aa-b5e1-4bcf-a904-09adbeaaaccb"},"vehicle_type_id":"4","last_reported":1708200387,"current_range_meters":4000,"station_id":"ce4bgk12rcd13ifvqbi0","pricing_plan_id":"cebpf4jnsgd1na2vs0mg"},{"bike_id":"275e3b6a-34a0-4db9-a4be-c87df08b7046","system_id":"levelo_inurba_marseille","lat":43.297912,"lon":5.381097,"is_reserved":false,"is_disabled":false,"rental_uris":{"android":"levelo://app?vid=275e3b6a-34a0-4db9-a4be-c87df08b7046","ios":"levelo://app?vid=275e3b6a-34a0-4db9-a4be-c87df08b7046"},"vehicle_type_id":"4","last_reported":1708200387,"current_range_meters":8800,"station_id":"ce4bgip2rcd13ifvqbb0","pricing_plan_id":"cebpf4jnsgd1na2vs0mg"},{"bike_id":"28b8e481-b150-44c6-9d21-8a58b5997ea7","system_id":"levelo_inurba_marseille","lat":43.304349,"lon":5.38891,"is_reserved":false,"is_disabled":false,"rental_uris":{"android":"levelo://app?vid=28b8e481-b150-44c6-9d21-8a58b5997ea7","ios":"levelo://app?vid=28b8e481-b150-44c6-9d21-8a58b5997ea7"},"vehicle_type_id":"4","last_reported":1708200387,"current_range_meters":16800,"station_id":"ce4bgk12rcd13ifvqbi0","pricing_plan_id":"cebpf4jnsgd1na2vs0mg"},{"bike_id":"68319549-4edd-4cab-a0fe-5314868a0616","system_id":"levelo_inurba_marseille","lat":43.304278,"lon":5.388868,"is_reserved":false,"is_disabled":false,"rental_uris":{"android":"levelo://app?vid=68319549-4edd-4cab-a0fe-5314868a0616","ios":"levelo://app?vid=68319549-4edd-4cab-a0fe-5314868a0616"},"vehicle_type_id":"4","last_reported":1708200387,"current_range_meters":6400,"station_id":"ce4bgk12rcd13ifvqbi0","pricing_plan_id":"cebpf4jnsgd1na2vs0mg"},{"bike_id":"18b17c2f-77dc-40f6-b2b1-c949ed70e8d2","system_id":"levelo_inurba_marseille","lat":43.2979,"lon":5.3811,"is_reserved":false,"is_disabled":false,"rental_uris":{"android":"levelo://app?vid=18b17c2f-77dc-40f6-b2b1-c949ed70e8d2","ios":"levelo://app?vid=18b17c2f-77dc-40f6-b2b1-c949ed70e8d2"},"vehicle_type_id":"4","last_reported":1708200387,"current_range_meters":0,"station_id":"ce4bgip2rcd13ifvqbb0","pricing_plan_id":"cebpf4jnsgd1na2vs0mg"},{"bike_id":"5ba8b571-e42f-4855-9568-4082d3d986d3","system_id":"levelo_inurba_marseille","lat":43.29786,"lon":5.381079,"is_reserved":false,"is_disabled":false,"rental_uris":{"android":"levelo://app?vid=5ba8b571-e42f-4855-9568-4082d3d986d3","ios":"levelo://app?vid=5ba8b571-e42f-4855-9568-4082d3d986d3"},"vehicle_type_id":"4","last_reported":1708200387,"current_range_meters":31200,"station_id":"ce4bgip2rcd13ifvqbb0","pricing_plan_id":"cebpf4jnsgd1na2vs0mg"},{"bike_id":"c54dbb7b-5153-4a69-9f1c-205b1a4bccaf","system_id":"levelo_inurba_marseille","lat":43.304278,"lon":5.388868,"is_reserved":false,"is_disabled":false,"rental_uris":{"android":"levelo://app?vid=c54dbb7b-5153-4a69-9f1c-205b1a4bccaf","ios":"levelo://app?vid=c54dbb7b-5153-4a69-9f1c-205b1a4bccaf"},"vehicle_type_id":"4","last_reported":1708200387,"current_range_meters":6000,"station_id":"ce4bgk12rcd13ifvqbi0","pricing_plan_id":"cebpf4jnsgd1na2vs0mg"},{"bike_id":"cae0998b-7542-49c9-85fe-421506bd7592","system_id":"levelo_inurba_marseille","lat":43.295748,"lon":5.37522,"is_reserved":false,"is_disabled":false,"rental_uris":{"android":"levelo://app?vid=cae0998b-7542-49c9-85fe-421506bd7592","ios":"levelo://app?vid=cae0998b-7542-49c9-85fe-421506bd7592"},"vehicle_type_id":"4","last_reported":1708200387,"current_range_meters":27200,"station_id":"ce4bgh92rcd13ifvqb50","pricing_plan_id":"cebpf4jnsgd1na2vs0mg"},{"bike_id":"30feaa37-fe7a-45ff-af3e-89f688174a28","system_id":"levelo_inurba_marseille","lat":43.30432,"lon":5.38897,"is_reserved":false,"is_disabled":false,"rental_uris":{"android":"levelo://app?vid=30feaa37-fe7a-45ff-af3e-89f688174a28","ios":"levelo://app?vid=30feaa37-fe7a-45ff-af3e-89f688174a28"},"vehicle_type_id":"4","last_reported":1708200387,"current_range_meters":0,"station_id":"ce4bgk12rcd13ifvqbi0","pricing_plan_id":"cebpf4jnsgd1na2vs0mg"},{"bike_id":"0d381389-8617-4d71-9462-946323cff404","system_id":"levelo_inurba_marseille","lat":43.30441,"lon":5.38904,"is_reserved":false,"is_disabled":false,"rental_uris":{"android":"levelo://app?vid=0d381389-8617-4d71-9462-946323cff404","ios":"levelo://app?vid=0d381389-8617-4d71-9462-946323cff404"},"vehicle_type_id":"4","last_reported":1708200387,"current_range_meters":18000,"station_id":"","pricing_plan_id":"cebpf4jnsgd1na2vs0mg"},{"bike_id":"e22dedf5-7f37-4cf0-87cf-dbe96afc87e0","system_id":"levelo_inurba_marseille","lat":43.295748,"lon":5.37522,"is_reserved":false,"is_disabled":false,"rental_uris":{"android":"levelo://app?vid=e22dedf5-7f37-4cf0-87cf-dbe96afc87e0","ios":"levelo://app?vid=e22dedf5-7f37-4cf0-87cf-dbe96afc87e0"},"vehicle_type_id":"4","last_reported":1708200387,"current_range_meters":11200,"station_id":"ce4bgh92rcd13ifvqb50","pricing_plan_id":"cebpf4jnsgd1na2vs0mg"},{"bike_id":"fc9c8770-e05a-4506-83da-3b108b883a84","system_id":"levelo_inurba_marseille","lat":43.304278,"lon":5.388868,"is_reserved":false,"is_disabled":false,"rental_uris":{"android":"levelo://app?vid=fc9c8770-e05a-4506-83da-3b108b883a84","ios":"levelo://app?vid=fc9c8770-e05a-4506-83da-3b108b883a84"},"vehicle_type_id":"4","last_reported":1708200387,"current_range_meters":7600,"station_id":"ce4bgk12rcd13ifvqbi0","pricing_plan_id":"cebpf4jnsgd1na2vs0mg"},{"bike_id":"c031f3b7-3c39-404f-a479-6ec584e72e37","system_id":"levelo_inurba_marseille","lat":43.29788,"lon":5.38134,"is_reserved":false,"is_disabled":false,"rental_uris":{"android":"levelo://app?vid=c031f3b7-3c39-404f-a479-6ec584e72e37","ios":"levelo://app?vid=c031f3b7-3c39-404f-a479-6ec584e72e37"},"vehicle_type_id":"4","last_reported":1708200387,"current_range_meters":31200,"station_id":"ce4bgip2rcd13ifvqbb0","pricing_plan_id":"cebpf4jnsgd1na2vs0mg"},{"bike_id":"806bd4b1-ca76-44ec-9c83-96a5da0302a2","system_id":"levelo_inurba_marseille","lat":43.296263,"lon":5.377094,"is_reserved":false,"is_disabled":false,"rental_uris":{"android":"levelo://app?vid=806bd4b1-ca76-44ec-9c83-96a5da0302a2","ios":"levelo://app?vid=806bd4b1-ca76-44ec-9c83-96a5da0302a2"},"vehicle_type_id":"4","last_reported":1708200387,"current_range_meters":0,"station_id":"ce4bgi92rcd13ifvqb90","pricing_plan_id":"cebpf4jnsgd1na2vs0mg"},{"bike_id":"6c808f24-c849-4308-bf69-804be04eb79c","system_id":"levelo_inurba_marseille","lat":43.296263,"lon":5.377094,"is_reserved":false,"is_disabled":false,"rental_uris":{"android":"levelo://app?vid=6c808f24-c849-4308-bf69-804be04eb79c","ios":"levelo://app?vid=6c808f24-c849-4308-bf69-804be04eb79c"},"vehicle_type_id":"4","last_reported":1708200387,"current_range_meters":4800,"station_id":"ce4bgi92rcd13ifvqb90","pricing_plan_id":"cebpf4jnsgd1na2vs0mg"},{"bike_id":"ad93f34b-b60d-4d52-a324-e22ac58cfff1","system_id":"levelo_inurba_marseille","lat":43.295279,"lon":5.375048,"is_reserved":false,"is_disabled":false,"rental_uris":{"android":"levelo://app?vid=ad93f34b-b60d-4d52-a324-e22ac58cfff1","ios":"levelo://app?vid=ad93f34b-b60d-4d52-a324-e22ac58cfff1"},"vehicle_type_id":"4","last_reported":1708200387,"current_range_meters":400,"station_id":"ce4bgkp2rcd13ifvqbmg","pricing_plan_id":"cebpf4jnsgd1na2vs0mg"},{"bike_id":"ff461b1a-a1fd-40bb-b020-3d876a0a6521","system_id":"levelo_inurba_marseille","lat":43.295279,"lon":5.375048,"is_reserved":false,"is_disabled":false,"rental_uris":{"android":"levelo://app?vid=ff461b1a-a1fd-40bb-b020-3d876a0a6521","ios":"levelo://app?vid=ff461b1a-a1fd-40bb-b020-3d876a0a6521"},"vehicle_type_id":"4","last_reported":1708200387,"current_range_meters":4000,"station_id":"ce4bgkp2rcd13ifvqbmg","pricing_plan_id":"cebpf4jnsgd1na2vs0mg"},{"bike_id":"05394b98-fad3-400b-8d23-1ec24c1dd69e","system_id":"levelo_inurba_marseille","lat":43.295279,"lon":5.375048,"is_reserved":false,"is_disabled":false,"rental_uris":{"android":"levelo://app?vid=05394b98-fad3-400b-8d23-1ec24c1dd69e","ios":"levelo://app?vid=05394b98-fad3-400b-8d23-1ec24c1dd69e"},"vehicle_type_id":"4","last_reported":1708200387,"current_range_meters":3600,"station_id":"ce4bgkp2rcd13ifvqbmg","pricing_plan_id":"cebpf4jnsgd1na2vs0mg"},{"bike_id":"c4e05019-0fcc-42af-813d-190e6fb1cb3d","system_id":"levelo_inurba_marseille","lat":43.29978,"lon":5.38483,"is_reserved":false,"is_disabled":false,"rental_uris":{"android":"levelo://app?vid=c4e05019-0fcc-42af-813d-190e6fb1cb3d","ios":"levelo://app?vid=c4e05019-0fcc-42af-813d-190e6fb1cb3d"},"vehicle_type_id":"4","last_reported":1708200387,"current_range_meters":2000,"station_id":"ce4bgj92rcd13ifvqbd0","pricing_plan_id":"cebpf4jnsgd1na2vs0mg"},{"bike_id":"c48c3236-7075-4471-b719-1f2556e14698","system_id":"levelo_inurba_marseille","lat":43.295279,"lon":5.375048,"is_reserved":false,"is_disabled":false,"rental_uris":{"android":"levelo://app?vid=c48c3236-7075-4471-b719-1f2556e14698","ios":"levelo://app?vid=c48c3236-7075-4471-b719-1f2556e14698"},"vehicle_type_id":"4","last_reported":1708200387,"current_range_meters":4800,"station_id":"ce4bgkp2rcd13ifvqbmg","pricing_plan_id":"cebpf4jnsgd1na2vs0mg"},{"bike_id":"a38a76e4-fe81-4c40-92b5-c970e6264375","system_id":"levelo_inurba_marseille","lat":43.299759,"lon":5.384826,"is_reserved":false,"is_disabled":false,"rental_uris":{"android":"levelo://app?vid=a38a76e4-fe81-4c40-92b5-c970e6264375","ios":"levelo://app?vid=a38a76e4-fe81-4c40-92b5-c970e6264375"},"vehicle_type_id":"4","last_reported":1708200387,"current_range_meters":11600,"station_id":"ce4bgj92rcd13ifvqbd0","pricing_plan_id":"cebpf4jnsgd1na2vs0mg"},{"bike_id":"57bb01fd-8940-402f-bae1-921e74fa3ebd","system_id":"levelo_inurba_marseille","lat":43.29531,"lon":5.37499,"is_reserved":false,"is_disabled":false,"rental_uris":{"android":"levelo://app?vid=57bb01fd-8940-402f-bae1-921e74fa3ebd","ios":"levelo://app?vid=57bb01fd-8940-402f-bae1-921e74fa3ebd"},"vehicle_type_id":"4","last_reported":1708200387,"current_range_meters":28800,"station_id":"ce4bgkp2rcd13ifvqbmg","pricing_plan_id":"cebpf4jnsgd1na2vs0mg"},{"bike_id":"4fbe66ae-ea58-4559-a992-bfdf3b1b90df","system_id":"levelo_inurba_marseille","lat":43.299756,"lon":5.384843,"is_reserved":false,"is_disabled":false,"rental_uris":{"android":"levelo://app?vid=4fbe66ae-ea58-4559-a992-bfdf3b1b90df","ios":"levelo://app?vid=4fbe66ae-ea58-4559-a992-bfdf3b1b90df"},"vehicle_type_id":"4","last_reported":1708200387,"current_range_meters":1600,"station_id":"ce4bgj92rcd13ifvqbd0","pricing_plan_id":"cebpf4jnsgd1na2vs0mg"},{"bike_id":"efd09c1b-868e-4d14-a60f-4c49f3e4e4c9","system_id":"levelo_inurba_marseille","lat":43.29977,"lon":5.38489,"is_reserved":false,"is_disabled":false,"rental_uris":{"android":"levelo://app?vid=efd09c1b-868e-4d14-a60f-4c49f3e4e4c9","ios":"levelo://app?vid=efd09c1b-868e-4d14-a60f-4c49f3e4e4c9"},"vehicle_type_id":"4","last_reported":1708200387,"current_range_meters":30800,"station_id":"ce4bgj92rcd13ifvqbd0","pricing_plan_id":"cebpf4jnsgd1na2vs0mg"},{"bike_id":"f56fffd9-8003-4072-96e2-da6d25b9fc1e","system_id":"levelo_inurba_marseille","lat":43.29977,"lon":5.38491,"is_reserved":false,"is_disabled":false,"rental_uris":{"android":"levelo://app?vid=f56fffd9-8003-4072-96e2-da6d25b9fc1e","ios":"levelo://app?vid=f56fffd9-8003-4072-96e2-da6d25b9fc1e"},"vehicle_type_id":"4","last_reported":1708200387,"current_range_meters":16800,"station_id":"ce4bgj92rcd13ifvqbd0","pricing_plan_id":"cebpf4jnsgd1na2vs0mg"},{"bike_id":"83902803-4c8f-4713-8c60-49e354bd1fcf","system_id":"levelo_inurba_marseille","lat":43.299707,"lon":5.384859,"is_reserved":false,"is_disabled":false,"rental_uris":{"android":"levelo://app?vid=83902803-4c8f-4713-8c60-49e354bd1fcf","ios":"levelo://app?vid=83902803-4c8f-4713-8c60-49e354bd1fcf"},"vehicle_type_id":"4","last_reported":1708200387,"current_range_meters":14000,"station_id":"ce4bgj92rcd13ifvqbd0","pricing_plan_id":"cebpf4jnsgd1na2vs0mg"},{"bike_id":"c952d4b9-4c29-4572-a8ff-df2c6ac2f1e8","system_id":"levelo_inurba_marseille","lat":43.299717,"lon":5.384845,"is_reserved":false,"is_disabled":false,"rental_uris":{"android":"levelo://app?vid=c952d4b9-4c29-4572-a8ff-df2c6ac2f1e8","ios":"levelo://app?vid=c952d4b9-4c29-4572-a8ff-df2c6ac2f1e8"},"vehicle_type_id":"4","last_reported":1708200387,"current_range_meters":26400,"station_id":"ce4bgj92rcd13ifvqbd0","pricing_plan_id":"cebpf4jnsgd1na2vs0mg"},{"bike_id":"4551c293-7c2b-4c69-93e4-5074e17f7e82","system_id":"levelo_inurba_marseille","lat":43.29981,"lon":5.38499,"is_reserved":false,"is_disabled":false,"rental_uris":{"android":"levelo://app?vid=4551c293-7c2b-4c69-93e4-5074e17f7e82","ios":"levelo://app?vid=4551c293-7c2b-4c69-93e4-5074e17f7e82"},"vehicle_type_id":"4","last_reported":1708200387,"current_range_meters":4800,"station_id":"ce4bgj92rcd13ifvqbd0","pricing_plan_id":"cebpf4jnsgd1na2vs0mg"},{"bike_id":"8871bf84-23f1-454e-85de-c8ded78bc254","system_id":"levelo_inurba_marseille","lat":43.29972,"lon":5.38488,"is_reserved":false,"is_disabled":false,"rental_uris":{"android":"levelo://app?vid=8871bf84-23f1-454e-85de-c8ded78bc254","ios":"levelo://app?vid=8871bf84-23f1-454e-85de-c8ded78bc254"},"vehicle_type_id":"4","last_reported":1708200387,"current_range_meters":28800,"station_id":"ce4bgj92rcd13ifvqbd0","pricing_plan_id":"cebpf4jnsgd1na2vs0mg"},{"bike_id":"bf0a5ef4-7762-484e-8fc0-19bd0ed68a25","system_id":"levelo_inurba_marseille","lat":43.299717,"lon":5.384845,"is_reserved":false,"is_disabled":false,"rental_uris":{"android":"levelo://app?vid=bf0a5ef4-7762-484e-8fc0-19bd0ed68a25","ios":"levelo://app?vid=bf0a5ef4-7762-484e-8fc0-19bd0ed68a25"},"vehicle_type_id":"4","last_reported":1708200387,"current_range_meters":15200,"station_id":"ce4bgj92rcd13ifvqbd0","pricing_plan_id":"cebpf4jnsgd1na2vs0mg"},{"bike_id":"3c10812e-8a8b-468f-ab34-8f19d1f5cdf2","system_id":"levelo_inurba_marseille","lat":43.29973,"lon":5.3849,"is_reserved":false,"is_disabled":false,"rental_uris":{"android":"levelo://app?vid=3c10812e-8a8b-468f-ab34-8f19d1f5cdf2","ios":"levelo://app?vid=3c10812e-8a8b-468f-ab34-8f19d1f5cdf2"},"vehicle_type_id":"4","last_reported":1708200387,"current_range_meters":10000,"station_id":"ce4bgj92rcd13ifvqbd0","pricing_plan_id":"cebpf4jnsgd1na2vs0mg"},{"bike_id":"c46d2697-082f-4565-a244-c01a162f19f5","system_id":"levelo_inurba_marseille","lat":43.29971,"lon":5.38489,"is_reserved":false,"is_disabled":false,"rental_uris":{"android":"levelo://app?vid=c46d2697-082f-4565-a244-c01a162f19f5","ios":"levelo://app?vid=c46d2697-082f-4565-a244-c01a162f19f5"},"vehicle_type_id":"4","last_reported":1708200387,"current_range_meters":11600,"station_id":"ce4bgj92rcd13ifvqbd0","pricing_plan_id":"cebpf4jnsgd1na2vs0mg"},{"bike_id":"ae2e4a8a-03b2-497d-af43-bf620b8dc3e6","system_id":"levelo_inurba_marseille","lat":43.299717,"lon":5.384845,"is_reserved":false,"is_disabled":false,"rental_uris":{"android":"levelo://app?vid=ae2e4a8a-03b2-497d-af43-bf620b8dc3e6","ios":"levelo://app?vid=ae2e4a8a-03b2-497d-af43-bf620b8dc3e6"},"vehicle_type_id":"4","last_reported":1708200387,"current_range_meters":1200,"station_id":"ce4bgj92rcd13ifvqbd0","pricing_plan_id":"cebpf4jnsgd1na2vs0mg"},{"bike_id":"d1f0129c-641f-4367-a65f-46ab88c1e51b","system_id":"levelo_inurba_marseille","lat":43.299717,"lon":5.384845,"is_reserved":false,"is_disabled":false,"rental_uris":{"android":"levelo://app?vid=d1f0129c-641f-4367-a65f-46ab88c1e51b","ios":"levelo://app?vid=d1f0129c-641f-4367-a65f-46ab88c1e51b"},"vehicle_type_id":"4","last_reported":1708200387,"current_range_meters":9200,"station_id":"ce4bgj92rcd13ifvqbd0","pricing_plan_id":"cebpf4jnsgd1na2vs0mg"},{"bike_id":"7c65a84e-8aee-4302-854f-34ab5ac914ee","system_id":"levelo_inurba_marseille","lat":43.299717,"lon":5.384845,"is_reserved":false,"is_disabled":false,"rental_uris":{"android":"levelo://app?vid=7c65a84e-8aee-4302-854f-34ab5ac914ee","ios":"levelo://app?vid=7c65a84e-8aee-4302-854f-34ab5ac914ee"},"vehicle_type_id":"4","last_reported":1708200387,"current_range_meters":12000,"station_id":"ce4bgj92rcd13ifvqbd0","pricing_plan_id":"cebpf4jnsgd1na2vs0mg"},{"bike_id":"3d21b83e-c288-44dc-8854-e001b2626baf","system_id":"levelo_inurba_marseille","lat":43.299717,"lon":5.384845,"is_reserved":false,"is_disabled":false,"rental_uris":{"android":"levelo://app?vid=3d21b83e-c288-44dc-8854-e001b2626baf","ios":"levelo://app?vid=3d21b83e-c288-44dc-8854-e001b2626baf"},"vehicle_type_id":"4","last_reported":1708200387,"current_range_meters":27600,"station_id":"ce4bgj92rcd13ifvqbd0","pricing_plan_id":"cebpf4jnsgd1na2vs0mg"},{"bike_id":"bce11c57-cfab-42b0-bc9d-2fc10417daa3","system_id":"levelo_inurba_marseille","lat":43.299717,"lon":5.384845,"is_reserved":false,"is_disabled":false,"rental_uris":{"android":"levelo://app?vid=bce11c57-cfab-42b0-bc9d-2fc10417daa3","ios":"levelo://app?vid=bce11c57-cfab-42b0-bc9d-2fc10417daa3"},"vehicle_type_id":"4","last_reported":1708200387,"current_range_meters":14400,"station_id":"ce4bgj92rcd13ifvqbd0","pricing_plan_id":"cebpf4jnsgd1na2vs0mg"},{"bike_id":"822791dd-a87e-48d9-8182-b0cf3da46db9","system_id":"levelo_inurba_marseille","lat":43.299717,"lon":5.384845,"is_reserved":false,"is_disabled":false,"rental_uris":{"android":"levelo://app?vid=822791dd-a87e-48d9-8182-b0cf3da46db9","ios":"levelo://app?vid=822791dd-a87e-48d9-8182-b0cf3da46db9"},"vehicle_type_id":"4","last_reported":1708200387,"current_range_meters":22400,"station_id":"ce4bgj92rcd13ifvqbd0","pricing_plan_id":"cebpf4jnsgd1na2vs0mg"},{"bike_id":"04bef4fc-f501-41bd-9104-a149c6db62aa","system_id":"levelo_inurba_marseille","lat":43.32365,"lon":5.38874,"is_reserved":false,"is_disabled":false,"rental_uris":{"android":"levelo://app?vid=04bef4fc-f501-41bd-9104-a149c6db62aa","ios":"levelo://app?vid=04bef4fc-f501-41bd-9104-a149c6db62aa"},"vehicle_type_id":"4","last_reported":1708200387,"current_range_meters":10000,"station_id":"ce4bhqp2rcd13ifvqhog","pricing_plan_id":"cebpf4jnsgd1na2vs0mg"},{"bike_id":"9d993f1a-927d-4286-879b-ac09dc01bad2","system_id":"levelo_inurba_marseille","lat":43.32367,"lon":5.388836,"is_reserved":false,"is_disabled":false,"rental_uris":{"android":"levelo://app?vid=9d993f1a-927d-4286-879b-ac09dc01bad2","ios":"levelo://app?vid=9d993f1a-927d-4286-879b-ac09dc01bad2"},"vehicle_type_id":"4","last_reported":1708200387,"current_range_meters":3600,"station_id":"ce4bhqp2rcd13ifvqhog","pricing_plan_id":"cebpf4jnsgd1na2vs0mg"},{"bike_id":"e9fb838e-b288-41f7-8b95-04552e228ee4","system_id":"levelo_inurba_marseille","lat":43.32362,"lon":5.38885,"is_reserved":false,"is_disabled":false,"rental_uris":{"android":"levelo://app?vid=e9fb838e-b288-41f7-8b95-04552e228ee4","ios":"levelo://app?vid=e9fb838e-b288-41f7-8b95-04552e228ee4"},"vehicle_type_id":"4","last_reported":1708200387,"current_range_meters":1200,"station_id":"ce4bhqp2rcd13ifvqhog","pricing_plan_id":"cebpf4jnsgd1na2vs0mg"},{"bike_id":"11f16d73-52cf-4b59-8120-4e257d4d363b","system_id":"levelo_inurba_marseille","lat":43.32367,"lon":5.388836,"is_reserved":false,"is_disabled":false,"rental_uris":{"android":"levelo://app?vid=11f16d73-52cf-4b59-8120-4e257d4d363b","ios":"levelo://app?vid=11f16d73-52cf-4b59-8120-4e257d4d363b"},"vehicle_type_id":"4","last_reported":1708200387,"current_range_meters":7200,"station_id":"ce4bhqp2rcd13ifvqhog","pricing_plan_id":"cebpf4jnsgd1na2vs0mg"},{"bike_id":"85b7d3f5-0fa2-43f3-a410-8e41ce1cabfc","system_id":"levelo_inurba_marseille","lat":43.3237,"lon":5.38884,"is_reserved":false,"is_disabled":false,"rental_uris":{"android":"levelo://app?vid=85b7d3f5-0fa2-43f3-a410-8e41ce1cabfc","ios":"levelo://app?vid=85b7d3f5-0fa2-43f3-a410-8e41ce1cabfc"},"vehicle_type_id":"4","last_reported":1708200387,"current_range_meters":7200,"station_id":"ce4bhqp2rcd13ifvqhog","pricing_plan_id":"cebpf4jnsgd1na2vs0mg"},{"bike_id":"0098d705-b974-41dc-a726-5e5b8f8af6cf","system_id":"levelo_inurba_marseille","lat":43.32367,"lon":5.388836,"is_reserved":false,"is_disabled":false,"rental_uris":{"android":"levelo://app?vid=0098d705-b974-41dc-a726-5e5b8f8af6cf","ios":"levelo://app?vid=0098d705-b974-41dc-a726-5e5b8f8af6cf"},"vehicle_type_id":"4","last_reported":1708200387,"current_range_meters":16000,"station_id":"ce4bhqp2rcd13ifvqhog","pricing_plan_id":"cebpf4jnsgd1na2vs0mg"},{"bike_id":"097fbc68-0e12-4cda-a32c-f9f7e74ee0ed","system_id":"levelo_inurba_marseille","lat":43.3237,"lon":5.38886,"is_reserved":false,"is_disabled":false,"rental_uris":{"android":"levelo://app?vid=097fbc68-0e12-4cda-a32c-f9f7e74ee0ed","ios":"levelo://app?vid=097fbc68-0e12-4cda-a32c-f9f7e74ee0ed"},"vehicle_type_id":"4","last_reported":1708200387,"current_range_meters":5600,"station_id":"ce4bhqp2rcd13ifvqhog","pricing_plan_id":"cebpf4jnsgd1na2vs0mg"},{"bike_id":"6af73b7c-3333-47f9-9c52-fb4e2c063bc2","system_id":"levelo_inurba_marseille","lat":43.32367,"lon":5.388836,"is_reserved":false,"is_disabled":false,"rental_uris":{"android":"levelo://app?vid=6af73b7c-3333-47f9-9c52-fb4e2c063bc2","ios":"levelo://app?vid=6af73b7c-3333-47f9-9c52-fb4e2c063bc2"},"vehicle_type_id":"4","last_reported":1708200387,"current_range_meters":10400,"station_id":"ce4bhqp2rcd13ifvqhog","pricing_plan_id":"cebpf4jnsgd1na2vs0mg"},{"bike_id":"9d871f50-0327-4348-a9da-d10b72178825","system_id":"levelo_inurba_marseille","lat":43.323687,"lon":5.388898,"is_reserved":false,"is_disabled":false,"rental_uris":{"android":"levelo://app?vid=9d871f50-0327-4348-a9da-d10b72178825","ios":"levelo://app?vid=9d871f50-0327-4348-a9da-d10b72178825"},"vehicle_type_id":"4","last_reported":1708200387,"current_range_meters":22800,"station_id":"ce4bhqp2rcd13ifvqhog","pricing_plan_id":"cebpf4jnsgd1na2vs0mg"},{"bike_id":"f724a652-ed59-47dc-bf4e-118734890076","system_id":"levelo_inurba_marseille","lat":43.29602,"lon":5.381084,"is_reserved":false,"is_disabled":false,"rental_uris":{"android":"levelo://app?vid=f724a652-ed59-47dc-bf4e-118734890076","ios":"levelo://app?vid=f724a652-ed59-47dc-bf4e-118734890076"},"vehicle_type_id":"4","last_reported":1708200387,"current_range_meters":7200,"station_id":"ce4bgl12rcd13ifvqbo0","pricing_plan_id":"cebpf4jnsgd1na2vs0mg"},{"bike_id":"4fc62dd6-58a0-426e-a230-ca4ed6a44e1f","system_id":"levelo_inurba_marseille","lat":43.29602,"lon":5.381084,"is_reserved":false,"is_disabled":false,"rental_uris":{"android":"levelo://app?vid=4fc62dd6-58a0-426e-a230-ca4ed6a44e1f","ios":"levelo://app?vid=4fc62dd6-58a0-426e-a230-ca4ed6a44e1f"},"vehicle_type_id":"4","last_reported":1708200387,"current_range_meters":0,"station_id":"ce4bgl12rcd13ifvqbo0","pricing_plan_id":"cebpf4jnsgd1na2vs0mg"},{"bike_id":"e3633733-c4eb-42f9-8eee-9833c39b5588","system_id":"levelo_inurba_marseille","lat":43.29602,"lon":5.381084,"is_reserved":false,"is_disabled":false,"rental_uris":{"android":"levelo://app?vid=e3633733-c4eb-42f9-8eee-9833c39b5588","ios":"levelo://app?vid=e3633733-c4eb-42f9-8eee-9833c39b5588"},"vehicle_type_id":"4","last_reported":1708200387,"current_range_meters":4800,"station_id":"ce4bgl12rcd13ifvqbo0","pricing_plan_id":"cebpf4jnsgd1na2vs0mg"},{"bike_id":"c3bd6795-9f65-4068-a069-3238261fa124","system_id":"levelo_inurba_marseille","lat":43.29602,"lon":5.381084,"is_reserved":false,"is_disabled":false,"rental_uris":{"android":"levelo://app?vid=c3bd6795-9f65-4068-a069-3238261fa124","ios":"levelo://app?vid=c3bd6795-9f65-4068-a069-3238261fa124"},"vehicle_type_id":"4","last_reported":1708200387,"current_range_meters":31200,"station_id":"ce4bgl12rcd13ifvqbo0","pricing_plan_id":"cebpf4jnsgd1na2vs0mg"},{"bike_id":"3178fdb1-821c-48a6-90ea-d596191c36be","system_id":"levelo_inurba_marseille","lat":43.29602,"lon":5.381084,"is_reserved":false,"is_disabled":false,"rental_uris":{"android":"levelo://app?vid=3178fdb1-821c-48a6-90ea-d596191c36be","ios":"levelo://app?vid=3178fdb1-821c-48a6-90ea-d596191c36be"},"vehicle_type_id":"4","last_reported":1708200387,"current_range_meters":0,"station_id":"ce4bgl12rcd13ifvqbo0","pricing_plan_id":"cebpf4jnsgd1na2vs0mg"},{"bike_id":"c17dd290-50a4-4282-89ac-f4f18e805a0e","system_id":"levelo_inurba_marseille","lat":43.29602,"lon":5.381084,"is_reserved":false,"is_disabled":false,"rental_uris":{"android":"levelo://app?vid=c17dd290-50a4-4282-89ac-f4f18e805a0e","ios":"levelo://app?vid=c17dd290-50a4-4282-89ac-f4f18e805a0e"},"vehicle_type_id":"4","last_reported":1708200387,"current_range_meters":15200,"station_id":"ce4bgl12rcd13ifvqbo0","pricing_plan_id":"cebpf4jnsgd1na2vs0mg"},{"bike_id":"2856c6ed-e762-44e3-9884-fb02d1a70f40","system_id":"levelo_inurba_marseille","lat":43.29602,"lon":5.381084,"is_reserved":false,"is_disabled":false,"rental_uris":{"android":"levelo://app?vid=2856c6ed-e762-44e3-9884-fb02d1a70f40","ios":"levelo://app?vid=2856c6ed-e762-44e3-9884-fb02d1a70f40"},"vehicle_type_id":"4","last_reported":1708200387,"current_range_meters":23600,"station_id":"ce4bgl12rcd13ifvqbo0","pricing_plan_id":"cebpf4jnsgd1na2vs0mg"},{"bike_id":"73f03607-57eb-453f-b85d-72a20a984f8c","system_id":"levelo_inurba_marseille","lat":43.29602,"lon":5.381084,"is_reserved":false,"is_disabled":false,"rental_uris":{"android":"levelo://app?vid=73f03607-57eb-453f-b85d-72a20a984f8c","ios":"levelo://app?vid=73f03607-57eb-453f-b85d-72a20a984f8c"},"vehicle_type_id":"4","last_reported":1708200387,"current_range_meters":7600,"station_id":"ce4bgl12rcd13ifvqbo0","pricing_plan_id":"cebpf4jnsgd1na2vs0mg"},{"bike_id":"dae7c9d4-6fc7-4147-956b-be12210d993a","system_id":"levelo_inurba_marseille","lat":43.29602,"lon":5.381084,"is_reserved":false,"is_disabled":false,"rental_uris":{"android":"levelo://app?vid=dae7c9d4-6fc7-4147-956b-be12210d993a","ios":"levelo://app?vid=dae7c9d4-6fc7-4147-956b-be12210d993a"},"vehicle_type_id":"4","last_reported":1708200387,"current_range_meters":28800,"station_id":"ce4bgl12rcd13ifvqbo0","pricing_plan_id":"cebpf4jnsgd1na2vs0mg"},{"bike_id":"4ef093c4-eb50-4133-b0de-a03ac9618958","system_id":"levelo_inurba_marseille","lat":43.29602,"lon":5.381084,"is_reserved":false,"is_disabled":false,"rental_uris":{"android":"levelo://app?vid=4ef093c4-eb50-4133-b0de-a03ac9618958","ios":"levelo://app?vid=4ef093c4-eb50-4133-b0de-a03ac9618958"},"vehicle_type_id":"4","last_reported":1708200387,"current_range_meters":31200,"station_id":"ce4bgl12rcd13ifvqbo0","pricing_plan_id":"cebpf4jnsgd1na2vs0mg"},{"bike_id":"ec1683b1-2001-4251-8b6d-ba38801a68d2","system_id":"levelo_inurba_marseille","lat":43.29273,"lon":5.3684,"is_reserved":false,"is_disabled":false,"rental_uris":{"android":"levelo://app?vid=ec1683b1-2001-4251-8b6d-ba38801a68d2","ios":"levelo://app?vid=ec1683b1-2001-4251-8b6d-ba38801a68d2"},"vehicle_type_id":"4","last_reported":1708200387,"current_range_meters":6400,"station_id":"ce4bhbp2rcd13ifvqesg","pricing_plan_id":"cebpf4jnsgd1na2vs0mg"},{"bike_id":"faa981c6-4ca2-457c-babd-2880310db4ae","system_id":"levelo_inurba_marseille","lat":43.29273,"lon":5.3684,"is_reserved":false,"is_disabled":false,"rental_uris":{"android":"levelo://app?vid=faa981c6-4ca2-457c-babd-2880310db4ae","ios":"levelo://app?vid=faa981c6-4ca2-457c-babd-2880310db4ae"},"vehicle_type_id":"4","last_reported":1708200387,"current_range_meters":0,"station_id":"ce4bhbp2rcd13ifvqesg","pricing_plan_id":"cebpf4jnsgd1na2vs0mg"},{"bike_id":"493fe92a-3825-4ec7-9979-49c36f740ead","system_id":"levelo_inurba_marseille","lat":43.29297,"lon":5.37159,"is_reserved":false,"is_disabled":false,"rental_uris":{"android":"levelo://app?vid=493fe92a-3825-4ec7-9979-49c36f740ead","ios":"levelo://app?vid=493fe92a-3825-4ec7-9979-49c36f740ead"},"vehicle_type_id":"4","last_reported":1708200387,"current_range_meters":16400,"station_id":"ce4bgh92rcd13ifvqb40","pricing_plan_id":"cebpf4jnsgd1na2vs0mg"},{"bike_id":"86b1cae5-7faf-4c12-9c39-e17d6a0730ed","system_id":"levelo_inurba_marseille","lat":43.293259,"lon":5.371586,"is_reserved":false,"is_disabled":false,"rental_uris":{"android":"levelo://app?vid=86b1cae5-7faf-4c12-9c39-e17d6a0730ed","ios":"levelo://app?vid=86b1cae5-7faf-4c12-9c39-e17d6a0730ed"},"vehicle_type_id":"4","last_reported":1708200387,"current_range_meters":1200,"station_id":"ce4bgh92rcd13ifvqb40","pricing_plan_id":"cebpf4jnsgd1na2vs0mg"},{"bike_id":"ad3c279b-ecd3-4cfc-80ad-582aadb60dbe","system_id":"levelo_inurba_marseille","lat":43.29293,"lon":5.37168,"is_reserved":false,"is_disabled":false,"rental_uris":{"android":"levelo://app?vid=ad3c279b-ecd3-4cfc-80ad-582aadb60dbe","ios":"levelo://app?vid=ad3c279b-ecd3-4cfc-80ad-582aadb60dbe"},"vehicle_type_id":"4","last_reported":1708200387,"current_range_meters":25600,"station_id":"ce4bgh92rcd13ifvqb40","pricing_plan_id":"cebpf4jnsgd1na2vs0mg"},{"bike_id":"dae9a895-e1c7-42de-809e-aa7941a40398","system_id":"levelo_inurba_marseille","lat":43.29259,"lon":5.36681,"is_reserved":false,"is_disabled":false,"rental_uris":{"android":"levelo://app?vid=dae9a895-e1c7-42de-809e-aa7941a40398","ios":"levelo://app?vid=dae9a895-e1c7-42de-809e-aa7941a40398"},"vehicle_type_id":"4","last_reported":1708200387,"current_range_meters":0,"station_id":"","pricing_plan_id":"cebpf4jnsgd1na2vs0mg"},{"bike_id":"6b0d9ed6-eda8-498d-b24b-84b894f28630","system_id":"levelo_inurba_marseille","lat":43.29288,"lon":5.37169,"is_reserved":false,"is_disabled":false,"rental_uris":{"android":"levelo://app?vid=6b0d9ed6-eda8-498d-b24b-84b894f28630","ios":"levelo://app?vid=6b0d9ed6-eda8-498d-b24b-84b894f28630"},"vehicle_type_id":"4","last_reported":1708200387,"current_range_meters":0,"station_id":"ce4bgh92rcd13ifvqb40","pricing_plan_id":"cebpf4jnsgd1na2vs0mg"},{"bike_id":"df66b784-01b8-4939-90d9-4aa5bd327719","system_id":"levelo_inurba_marseille","lat":43.293009,"lon":5.374584,"is_reserved":false,"is_disabled":false,"rental_uris":{"android":"levelo://app?vid=df66b784-01b8-4939-90d9-4aa5bd327719","ios":"levelo://app?vid=df66b784-01b8-4939-90d9-4aa5bd327719"},"vehicle_type_id":"4","last_reported":1708200387,"current_range_meters":24000,"station_id":"ce4bgi12rcd13ifvqb70","pricing_plan_id":"cebpf4jnsgd1na2vs0mg"},{"bike_id":"acf81d2a-e7c1-4ae3-9670-a73733ab2b7c","system_id":"levelo_inurba_marseille","lat":43.305994,"lon":5.393687,"is_reserved":false,"is_disabled":false,"rental_uris":{"android":"levelo://app?vid=acf81d2a-e7c1-4ae3-9670-a73733ab2b7c","ios":"levelo://app?vid=acf81d2a-e7c1-4ae3-9670-a73733ab2b7c"},"vehicle_type_id":"4","last_reported":1708200387,"current_range_meters":14400,"station_id":"ce4bh0p2rcd13ifvqd80","pricing_plan_id":"cebpf4jnsgd1na2vs0mg"},{"bike_id":"1f18b881-49bc-4b8a-a807-17fc7b0956cd","system_id":"levelo_inurba_marseille","lat":43.293009,"lon":5.374584,"is_reserved":false,"is_disabled":false,"rental_uris":{"android":"levelo://app?vid=1f18b881-49bc-4b8a-a807-17fc7b0956cd","ios":"levelo://app?vid=1f18b881-49bc-4b8a-a807-17fc7b0956cd"},"vehicle_type_id":"4","last_reported":1708200387,"current_range_meters":16800,"station_id":"ce4bgi12rcd13ifvqb70","pricing_plan_id":"cebpf4jnsgd1na2vs0mg"},{"bike_id":"a25df67e-6d71-4ba0-bc9c-8cc59aff685a","system_id":"levelo_inurba_marseille","lat":43.30592,"lon":5.39347,"is_reserved":false,"is_disabled":false,"rental_uris":{"android":"levelo://app?vid=a25df67e-6d71-4ba0-bc9c-8cc59aff685a","ios":"levelo://app?vid=a25df67e-6d71-4ba0-bc9c-8cc59aff685a"},"vehicle_type_id":"4","last_reported":1708200387,"current_range_meters":14400,"station_id":"ce4bh0p2rcd13ifvqd80","pricing_plan_id":"cebpf4jnsgd1na2vs0mg"},{"bike_id":"b91706a7-23ba-4dae-a4b6-e928c4284810","system_id":"levelo_inurba_marseille","lat":43.293009,"lon":5.374584,"is_reserved":false,"is_disabled":false,"rental_uris":{"android":"levelo://app?vid=b91706a7-23ba-4dae-a4b6-e928c4284810","ios":"levelo://app?vid=b91706a7-23ba-4dae-a4b6-e928c4284810"},"vehicle_type_id":"4","last_reported":1708200387,"current_range_meters":3600,"station_id":"ce4bgi12rcd13ifvqb70","pricing_plan_id":"cebpf4jnsgd1na2vs0mg"},{"bike_id":"94e30adc-57da-4d35-afe3-3afb0a028bc8","system_id":"levelo_inurba_marseille","lat":43.29302,"lon":5.37461,"is_reserved":false,"is_disabled":false,"rental_uris":{"android":"levelo://app?vid=94e30adc-57da-4d35-afe3-3afb0a028bc8","ios":"levelo://app?vid=94e30adc-57da-4d35-afe3-3afb0a028bc8"},"vehicle_type_id":"4","last_reported":1708200387,"current_range_meters":9200,"station_id":"ce4bgi12rcd13ifvqb70","pricing_plan_id":"cebpf4jnsgd1na2vs0mg"},{"bike_id":"dd0445f5-201b-4f8a-aad0-202b41e9dcbc","system_id":"levelo_inurba_marseille","lat":43.293,"lon":5.37455,"is_reserved":false,"is_disabled":false,"rental_uris":{"android":"levelo://app?vid=dd0445f5-201b-4f8a-aad0-202b41e9dcbc","ios":"levelo://app?vid=dd0445f5-201b-4f8a-aad0-202b41e9dcbc"},"vehicle_type_id":"4","last_reported":1708200387,"current_range_meters":0,"station_id":"ce4bgi12rcd13ifvqb70","pricing_plan_id":"cebpf4jnsgd1na2vs0mg"},{"bike_id":"b0e704b6-0bc3-4d8a-ab19-cf437ec4a0c8","system_id":"levelo_inurba_marseille","lat":43.305994,"lon":5.393687,"is_reserved":false,"is_disabled":false,"rental_uris":{"android":"levelo://app?vid=b0e704b6-0bc3-4d8a-ab19-cf437ec4a0c8","ios":"levelo://app?vid=b0e704b6-0bc3-4d8a-ab19-cf437ec4a0c8"},"vehicle_type_id":"4","last_reported":1708200387,"current_range_meters":0,"station_id":"ce4bh0p2rcd13ifvqd80","pricing_plan_id":"cebpf4jnsgd1na2vs0mg"},{"bike_id":"f3e957d4-791a-4f9c-9113-c1514d4bf3aa","system_id":"levelo_inurba_marseille","lat":43.305994,"lon":5.393687,"is_reserved":false,"is_disabled":false,"rental_uris":{"android":"levelo://app?vid=f3e957d4-791a-4f9c-9113-c1514d4bf3aa","ios":"levelo://app?vid=f3e957d4-791a-4f9c-9113-c1514d4bf3aa"},"vehicle_type_id":"4","last_reported":1708200387,"current_range_meters":14400,"station_id":"ce4bh0p2rcd13ifvqd80","pricing_plan_id":"cebpf4jnsgd1na2vs0mg"},{"bike_id":"70832d58-17eb-4906-98aa-7655db3f5883","system_id":"levelo_inurba_marseille","lat":43.292893,"lon":5.374558,"is_reserved":false,"is_disabled":false,"rental_uris":{"android":"levelo://app?vid=70832d58-17eb-4906-98aa-7655db3f5883","ios":"levelo://app?vid=70832d58-17eb-4906-98aa-7655db3f5883"},"vehicle_type_id":"4","last_reported":1708200387,"current_range_meters":8000,"station_id":"ce4bgi12rcd13ifvqb70","pricing_plan_id":"cebpf4jnsgd1na2vs0mg"},{"bike_id":"f6ff8be2-e0d4-4efc-92df-c7dba1a41060","system_id":"levelo_inurba_marseille","lat":43.29285,"lon":5.37449,"is_reserved":false,"is_disabled":false,"rental_uris":{"android":"levelo://app?vid=f6ff8be2-e0d4-4efc-92df-c7dba1a41060","ios":"levelo://app?vid=f6ff8be2-e0d4-4efc-92df-c7dba1a41060"},"vehicle_type_id":"4","last_reported":1708200387,"current_range_meters":15600,"station_id":"ce4bgi12rcd13ifvqb70","pricing_plan_id":"cebpf4jnsgd1na2vs0mg"},{"bike_id":"2a8d259e-c0bc-4f77-b782-a57598c7b5ea","system_id":"levelo_inurba_marseille","lat":43.292822,"lon":5.374456,"is_reserved":false,"is_disabled":false,"rental_uris":{"android":"levelo://app?vid=2a8d259e-c0bc-4f77-b782-a57598c7b5ea","ios":"levelo://app?vid=2a8d259e-c0bc-4f77-b782-a57598c7b5ea"},"vehicle_type_id":"4","last_reported":1708200387,"current_range_meters":0,"station_id":"","pricing_plan_id":"cebpf4jnsgd1na2vs0mg"},{"bike_id":"c9973e01-da45-4aab-921f-f3dcc5174069","system_id":"levelo_inurba_marseille","lat":43.29294,"lon":5.375226,"is_reserved":false,"is_disabled":false,"rental_uris":{"android":"levelo://app?vid=c9973e01-da45-4aab-921f-f3dcc5174069","ios":"levelo://app?vid=c9973e01-da45-4aab-921f-f3dcc5174069"},"vehicle_type_id":"4","last_reported":1708200387,"current_range_meters":1200,"station_id":"ce4bgi12rcd13ifvqb70","pricing_plan_id":"cebpf4jnsgd1na2vs0mg"},{"bike_id":"b9c11113-8151-4f83-93d1-5571347b54ba","system_id":"levelo_inurba_marseille","lat":43.2936,"lon":5.37835,"is_reserved":false,"is_disabled":false,"rental_uris":{"android":"levelo://app?vid=b9c11113-8151-4f83-93d1-5571347b54ba","ios":"levelo://app?vid=b9c11113-8151-4f83-93d1-5571347b54ba"},"vehicle_type_id":"4","last_reported":1708200387,"current_range_meters":8000,"station_id":"ce4bgjh2rcd13ifvqbf0","pricing_plan_id":"cebpf4jnsgd1na2vs0mg"},{"bike_id":"f8dc5e12-98dc-4622-bec7-e4df7eaa293f","system_id":"levelo_inurba_marseille","lat":43.2936,"lon":5.37835,"is_reserved":false,"is_disabled":false,"rental_uris":{"android":"levelo://app?vid=f8dc5e12-98dc-4622-bec7-e4df7eaa293f","ios":"levelo://app?vid=f8dc5e12-98dc-4622-bec7-e4df7eaa293f"},"vehicle_type_id":"4","last_reported":1708200387,"current_range_meters":0,"station_id":"ce4bgjh2rcd13ifvqbf0","pricing_plan_id":"cebpf4jnsgd1na2vs0mg"},{"bike_id":"d53fc62c-f3a3-4f88-8bcd-eb587e32f8a7","system_id":"levelo_inurba_marseille","lat":43.2936,"lon":5.37835,"is_reserved":false,"is_disabled":false,"rental_uris":{"android":"levelo://app?vid=d53fc62c-f3a3-4f88-8bcd-eb587e32f8a7","ios":"levelo://app?vid=d53fc62c-f3a3-4f88-8bcd-eb587e32f8a7"},"vehicle_type_id":"4","last_reported":1708200387,"current_range_meters":26000,"station_id":"ce4bgjh2rcd13ifvqbf0","pricing_plan_id":"cebpf4jnsgd1na2vs0mg"},{"bike_id":"0b795398-ebda-4d94-90fa-c3592280e963","system_id":"levelo_inurba_marseille","lat":43.300852,"lon":5.390859,"is_reserved":false,"is_disabled":false,"rental_uris":{"android":"levelo://app?vid=0b795398-ebda-4d94-90fa-c3592280e963","ios":"levelo://app?vid=0b795398-ebda-4d94-90fa-c3592280e963"},"vehicle_type_id":"4","last_reported":1708200387,"current_range_meters":7200,"station_id":"ce4bh192rcd13ifvqdb0","pricing_plan_id":"cebpf4jnsgd1na2vs0mg"},{"bike_id":"df971d0c-afc9-405b-8678-866365656548","system_id":"levelo_inurba_marseille","lat":43.29217,"lon":5.36043,"is_reserved":false,"is_disabled":false,"rental_uris":{"android":"levelo://app?vid=df971d0c-afc9-405b-8678-866365656548","ios":"levelo://app?vid=df971d0c-afc9-405b-8678-866365656548"},"vehicle_type_id":"4","last_reported":1708200387,"current_range_meters":22000,"station_id":"ce4bhbh2rcd13ifvqeqg","pricing_plan_id":"cebpf4jnsgd1na2vs0mg"},{"bike_id":"e25d342b-b360-44d3-904b-6b7897d5e8a3","system_id":"levelo_inurba_marseille","lat":43.293804,"lon":5.379779,"is_reserved":false,"is_disabled":false,"rental_uris":{"android":"levelo://app?vid=e25d342b-b360-44d3-904b-6b7897d5e8a3","ios":"levelo://app?vid=e25d342b-b360-44d3-904b-6b7897d5e8a3"},"vehicle_type_id":"4","last_reported":1708200387,"current_range_meters":18800,"station_id":"","pricing_plan_id":"cebpf4jnsgd1na2vs0mg"},{"bike_id":"d4a339c5-9511-4121-a60f-ecb6447a7f9e","system_id":"levelo_inurba_marseille","lat":43.298764,"lon":5.388973,"is_reserved":false,"is_disabled":false,"rental_uris":{"android":"levelo://app?vid=d4a339c5-9511-4121-a60f-ecb6447a7f9e","ios":"levelo://app?vid=d4a339c5-9511-4121-a60f-ecb6447a7f9e"},"vehicle_type_id":"4","last_reported":1708200387,"current_range_meters":17200,"station_id":"ce4bh392rcd13ifvqdl0","pricing_plan_id":"cebpf4jnsgd1na2vs0mg"},{"bike_id":"62272959-a2e3-4fe6-a94f-e791e3bd2a9d","system_id":"levelo_inurba_marseille","lat":43.293009,"lon":5.374584,"is_reserved":false,"is_disabled":false,"rental_uris":{"android":"levelo://app?vid=62272959-a2e3-4fe6-a94f-e791e3bd2a9d","ios":"levelo://app?vid=62272959-a2e3-4fe6-a94f-e791e3bd2a9d"},"vehicle_type_id":"4","last_reported":1708200387,"current_range_meters":4400,"station_id":"ce4bgi12rcd13ifvqb70","pricing_plan_id":"cebpf4jnsgd1na2vs0mg"},{"bike_id":"7a1fe05b-92b2-49ad-98df-d65323cdab62","system_id":"levelo_inurba_marseille","lat":43.295279,"lon":5.375048,"is_reserved":false,"is_disabled":false,"rental_uris":{"android":"levelo://app?vid=7a1fe05b-92b2-49ad-98df-d65323cdab62","ios":"levelo://app?vid=7a1fe05b-92b2-49ad-98df-d65323cdab62"},"vehicle_type_id":"4","last_reported":1708200387,"current_range_meters":20400,"station_id":"ce4bgkp2rcd13ifvqbmg","pricing_plan_id":"cebpf4jnsgd1na2vs0mg"},{"bike_id":"5891ac4e-1b61-4f05-bccb-975361ac5ee4","system_id":"levelo_inurba_marseille","lat":43.293009,"lon":5.374584,"is_reserved":false,"is_disabled":false,"rental_uris":{"android":"levelo://app?vid=5891ac4e-1b61-4f05-bccb-975361ac5ee4","ios":"levelo://app?vid=5891ac4e-1b61-4f05-bccb-975361ac5ee4"},"vehicle_type_id":"4","last_reported":1708200387,"current_range_meters":1600,"station_id":"ce4bgi12rcd13ifvqb70","pricing_plan_id":"cebpf4jnsgd1na2vs0mg"},{"bike_id":"f420248c-c20e-496c-8102-6d6b2bd021fc","system_id":"levelo_inurba_marseille","lat":43.298764,"lon":5.388973,"is_reserved":false,"is_disabled":false,"rental_uris":{"android":"levelo://app?vid=f420248c-c20e-496c-8102-6d6b2bd021fc","ios":"levelo://app?vid=f420248c-c20e-496c-8102-6d6b2bd021fc"},"vehicle_type_id":"4","last_reported":1708200387,"current_range_meters":0,"station_id":"ce4bh392rcd13ifvqdl0","pricing_plan_id":"cebpf4jnsgd1na2vs0mg"},{"bike_id":"ffbaed72-285c-4777-9939-631b27265aef","system_id":"levelo_inurba_marseille","lat":43.298764,"lon":5.388973,"is_reserved":false,"is_disabled":false,"rental_uris":{"android":"levelo://app?vid=ffbaed72-285c-4777-9939-631b27265aef","ios":"levelo://app?vid=ffbaed72-285c-4777-9939-631b27265aef"},"vehicle_type_id":"4","last_reported":1708200387,"current_range_meters":1200,"station_id":"ce4bh392rcd13ifvqdl0","pricing_plan_id":"cebpf4jnsgd1na2vs0mg"},{"bike_id":"8395fe91-78ff-48cd-829e-5d1a46673473","system_id":"levelo_inurba_marseille","lat":43.298764,"lon":5.388973,"is_reserved":false,"is_disabled":false,"rental_uris":{"android":"levelo://app?vid=8395fe91-78ff-48cd-829e-5d1a46673473","ios":"levelo://app?vid=8395fe91-78ff-48cd-829e-5d1a46673473"},"vehicle_type_id":"4","last_reported":1708200387,"current_range_meters":19600,"station_id":"ce4bh392rcd13ifvqdl0","pricing_plan_id":"cebpf4jnsgd1na2vs0mg"},{"bike_id":"674c286a-4c67-4548-bd37-bad9822d0b71","system_id":"levelo_inurba_marseille","lat":43.291671,"lon":5.371575,"is_reserved":false,"is_disabled":false,"rental_uris":{"android":"levelo://app?vid=674c286a-4c67-4548-bd37-bad9822d0b71","ios":"levelo://app?vid=674c286a-4c67-4548-bd37-bad9822d0b71"},"vehicle_type_id":"4","last_reported":1708200387,"current_range_meters":3600,"station_id":"ce4bha92rcd13ifvqeh0","pricing_plan_id":"cebpf4jnsgd1na2vs0mg"},{"bike_id":"1b626dec-7a22-45e3-8d17-c07ccb853cd9","system_id":"levelo_inurba_marseille","lat":43.29883,"lon":5.38903,"is_reserved":false,"is_disabled":false,"rental_uris":{"android":"levelo://app?vid=1b626dec-7a22-45e3-8d17-c07ccb853cd9","ios":"levelo://app?vid=1b626dec-7a22-45e3-8d17-c07ccb853cd9"},"vehicle_type_id":"4","last_reported":1708200387,"current_range_meters":2000,"station_id":"ce4bh392rcd13ifvqdl0","pricing_plan_id":"cebpf4jnsgd1na2vs0mg"},{"bike_id":"1952a293-1e33-4edd-af32-b7c4e40df587","system_id":"levelo_inurba_marseille","lat":43.298764,"lon":5.388973,"is_reserved":false,"is_disabled":false,"rental_uris":{"android":"levelo://app?vid=1952a293-1e33-4edd-af32-b7c4e40df587","ios":"levelo://app?vid=1952a293-1e33-4edd-af32-b7c4e40df587"},