{"last_updated":1685264859,"ttl":30,"version":"2.2","data":{"bikes":[{"bike_id":"8fd2e0c8-bac6-4eee-b8d6-2d8c07e07c02","system_id":"levelo_inurba_marseille","lat":43.313391,"lon":5.36706,"is_reserved":false,"is_disabled":false,"rental_uris":{"android":"levelo://app?vid=8fd2e0c8-bac6-4eee-b8d6-2d8c07e07c02","ios":"levelo://app?vid=8fd2e0c8-bac6-4eee-b8d6-2d8c07e07c02"},"vehicle_type_id":"4","last_reported":1685264859,"current_range_meters":31200,"station_id":"ce4bgr92rcd13ifvqc6g","pricing_plan_id":"free"},{"bike_id":"3a42e916-6d64-42c0-aa63-1e21abc55533","system_id":"levelo_inurba_marseille","lat":43.313391,"lon":5.36706,"is_reserved":false,"is_disabled":false,"rental_uris":{"android":"levelo://app?vid=3a42e916-6d64-42c0-aa63-1e21abc55533","ios":"levelo://app?vid=3a42e916-6d64-42c0-aa63-1e21abc55533"},"vehicle_type_id":"4","last_reported":1685264859,"current_range_meters":31200,"station_id":"ce4bgr92rcd13ifvqc6g","pricing_plan_id":"free"},{"bike_id":"bc3d2cd1-b381-45fb-8699-8e46e0c0e7f2","system_id":"levelo_inurba_marseille","lat":43.312239,"lon":5.368562,"is_reserved":false,"is_disabled":false,"rental_uris":{"android":"levelo://app?vid=bc3d2cd1-b381-45fb-8699-8e46e0c0e7f2","ios":"levelo://app?vid=bc3d2cd1-b381-45fb-8699-8e46e0c0e7f2"},"vehicle_type_id":"4","last_reported":1685264859,"current_range_meters":22000,"station_id":"ce4bgl92rcd13ifvqbq0","pricing_plan_id":"free"},{"bike_id":"075b303d-fd8a-40fa-acf3-935ff42905b9","system_id":"levelo_inurba_marseille","lat":43.312239,"lon":5.368562,"is_reserved":false,"is_disabled":false,"rental_uris":{"android":"levelo://app?vid=075b303d-fd8a-40fa-acf3-935ff42905b9","ios":"levelo://app?vid=075b303d-fd8a-40fa-acf3-935ff42905b9"},"vehicle_type_id":"4","last_reported":1685264859,"current_range_meters":23600,"station_id":"ce4bgl92rcd13ifvqbq0","pricing_plan_id":"free"},{"bike_id":"03599b92-07a4-4470-ae7d-d44cbdcad97f","system_id":"levelo_inurba_marseille","lat":43.312239,"lon":5.368562,"is_reserved":false,"is_disabled":false,"rental_uris":{"android":"levelo://app?vid=03599b92-07a4-4470-ae7d-d44cbdcad97f","ios":"levelo://app?vid=03599b92-07a4-4470-ae7d-d44cbdcad97f"},"vehicle_type_id":"4","last_reported":1685264859,"current_range_meters":28400,"station_id":"ce4bgl92rcd13ifvqbq0","pricing_plan_id":"free"},{"bike_id":"12e8f98e-800e-495b-ab80-51a570493864","system_id":"levelo_inurba_marseille","lat":43.312239,"lon":5.368562,"is_reserved":false,"is_disabled":false,"rental_uris":{"android":"levelo://app?vid=12e8f98e-800e-495b-ab80-51a570493864","ios":"levelo://app?vid=12e8f98e-800e-495b-ab80-51a570493864"},"vehicle_type_id":"4","last_reported":1685264859,"current_range_meters":23600,"station_id":"ce4bgl92rcd13ifvqbq0","pricing_plan_id":"free"},{"bike_id":"ee110a6c-389b-482b-88f3-0c275c83727e","system_id":"levelo_inurba_marseille","lat":43.312239,"lon":5.368562,"is_reserved":false,"is_disabled":false,"rental_uris":{"android":"levelo://app?vid=ee110a6c-389b-482b-88f3-0c275c83727e","ios":"levelo://app?vid=ee110a6c-389b-482b-88f3-0c275c83727e"},"vehicle_type_id":"4","last_reported":1685264859,"current_range_meters":30800,"station_id":"ce4bgl92rcd13ifvqbq0","pricing_plan_id":"free"},{"bike_id":"79e42267-e5f2-44c4-97a2-1ea50a3ad8ac","system_id":"levelo_inurba_marseille","lat":43.312239,"lon":5.368562,"is_reserved":false,"is_disabled":false,"rental_uris":{"android":"levelo://app?vid=79e42267-e5f2-44c4-97a2-1ea50a3ad8ac","ios":"levelo://app?vid=79e42267-e5f2-44c4-97a2-1ea50a3ad8ac"},"vehicle_type_id":"4","last_reported":1685264859,"current_range_meters":29600,"station_id":"ce4bgl92rcd13ifvqbq0","pricing_plan_id":"free"},{"bike_id":"acf08d59-ec52-4e8f-9a37-896a500fdcb4","system_id":"levelo_inurba_marseille","lat":43.312239,"lon":5.368562,"is_reserved":false,"is_disabled":false,"rental_uris":{"android":"levelo://app?vid=acf08d59-ec52-4e8f-9a37-896a500fdcb4","ios":"levelo://app?vid=acf08d59-ec52-4e8f-9a37-896a500fdcb4"},"vehicle_type_id":"4","last_reported":1685264859,"current_range_meters":27600,"station_id":"ce4bgl92rcd13ifvqbq0","pricing_plan_id":"free"},{"bike_id":"00279c37-e4ed-4a2c-86e4-dad1f9515497","system_id":"levelo_inurba_marseille","lat":43.3124,"lon":5.36881,"is_reserved":false,"is_disabled":false,"rental_uris":{"android":"levelo://app?vid=00279c37-e4ed-4a2c-86e4-dad1f9515497","ios":"levelo://app?vid=00279c37-e4ed-4a2c-86e4-dad1f9515497"},"vehicle_type_id":"4","last_reported":1685264859,"current_range_meters":30800,"station_id":"ce4bgl92rcd13ifvqbq0","pricing_plan_id":"free"},{"bike_id":"57469489-9058-4306-86b2-d63d9adfce16","system_id":"levelo_inurba_marseille","lat":43.312239,"lon":5.368562,"is_reserved":false,"is_disabled":false,"rental_uris":{"android":"levelo://app?vid=57469489-9058-4306-86b2-d63d9adfce16","ios":"levelo://app?vid=57469489-9058-4306-86b2-d63d9adfce16"},"vehicle_type_id":"4","last_reported":1685264859,"current_range_meters":26000,"station_id":"ce4bgl92rcd13ifvqbq0","pricing_plan_id":"free"},{"bike_id":"ac96d340-fc84-4129-ae15-0c846c036780","system_id":"levelo_inurba_marseille","lat":43.309076,"lon":5.368465,"is_reserved":false,"is_disabled":false,"rental_uris":{"android":"levelo://app?vid=ac96d340-fc84-4129-ae15-0c846c036780","ios":"levelo://app?vid=ac96d340-fc84-4129-ae15-0c846c036780"},"vehicle_type_id":"4","last_reported":1685264859,"current_range_meters":26800,"station_id":"ce4bgn92rcd13ifvqbvg","pricing_plan_id":"free"},{"bike_id":"594b9698-900e-4ba2-8017-a1cf3c470403","system_id":"levelo_inurba_marseille","lat":43.309076,"lon":5.368465,"is_reserved":false,"is_disabled":false,"rental_uris":{"android":"levelo://app?vid=594b9698-900e-4ba2-8017-a1cf3c470403","ios":"levelo://app?vid=594b9698-900e-4ba2-8017-a1cf3c470403"},"vehicle_type_id":"4","last_reported":1685264859,"current_range_meters":31200,"station_id":"ce4bgn92rcd13ifvqbvg","pricing_plan_id":"free"},{"bike_id":"2523bc1a-9416-45ae-9fe6-3a337585560f","system_id":"levelo_inurba_marseille","lat":43.309076,"lon":5.368465,"is_reserved":false,"is_disabled":false,"rental_uris":{"android":"levelo://app?vid=2523bc1a-9416-45ae-9fe6-3a337585560f","ios":"levelo://app?vid=2523bc1a-9416-45ae-9fe6-3a337585560f"},"vehicle_type_id":"4","last_reported":1685264859,"current_range_meters":31600,"station_id":"ce4bgn92rcd13ifvqbvg","pricing_plan_id":"free"},{"bike_id":"e3fabb24-d743-4faf-bb5b-b02090238067","system_id":"levelo_inurba_marseille","lat":43.309076,"lon":5.368465,"is_reserved":false,"is_disabled":false,"rental_uris":{"android":"levelo://app?vid=e3fabb24-d743-4faf-bb5b-b02090238067","ios":"levelo://app?vid=e3fabb24-d743-4faf-bb5b-b02090238067"},"vehicle_type_id":"4","last_reported":1685264859,"current_range_meters":31200,"station_id":"ce4bgn92rcd13ifvqbvg","pricing_plan_id":"free"},{"bike_id":"e6842105-a32c-4fd4-9540-2750cbcf8664","system_id":"levelo_inurba_marseille","lat":43.309076,"lon":5.368465,"is_reserved":false,"is_disabled":false,"rental_uris":{"android":"levelo://app?vid=e6842105-a32c-4fd4-9540-2750cbcf8664","ios":"levelo://app?vid=e6842105-a32c-4fd4-9540-2750cbcf8664"},"vehicle_type_id":"4","last_reported":1685264859,"current_range_meters":24800,"station_id":"ce4bgn92rcd13ifvqbvg","pricing_plan_id":"free"},{"bike_id":"e92d85fa-f8ed-444a-9e60-1cd2c225ffb4","system_id":"levelo_inurba_marseille","lat":43.309076,"lon":5.368465,"is_reserved":false,"is_disabled":false,"rental_uris":{"android":"levelo://app?vid=e92d85fa-f8ed-444a-9e60-1cd2c225ffb4","ios":"levelo://app?vid=e92d85fa-f8ed-444a-9e60-1cd2c225ffb4"},"vehicle_type_id":"4","last_reported":1685264859,"current_range_meters":29600,"station_id":"ce4bgn92rcd13ifvqbvg","pricing_plan_id":"free"},{"bike_id":"e680bf56-b64a-4786-8372-afccdc34e682","system_id":"levelo_inurba_marseille","lat":43.309076,"lon":5.368465,"is_reserved":false,"is_disabled":false,"rental_uris":{"android":"levelo://app?vid=e680bf56-b64a-4786-8372-afccdc34e682","ios":"levelo://app?vid=e680bf56-b64a-4786-8372-afccdc34e682"},"vehicle_type_id":"4","last_reported":1685264859,"current_range_meters":27600,"station_id":"ce4bgn92rcd13ifvqbvg","pricing_plan_id":"free"},{"bike_id":"da9b5fb7-02d1-4c70-aa59-dc762e1092cd","system_id":"levelo_inurba_marseille","lat":43.309076,"lon":5.368465,"is_reserved":false,"is_disabled":false,"rental_uris":{"android":"levelo://app?vid=da9b5fb7-02d1-4c70-aa59-dc762e1092cd","ios":"levelo://app?vid=da9b5fb7-02d1-4c70-aa59-dc762e1092cd"},"vehicle_type_id":"4","last_reported":1685264859,"current_range_meters":31200,"station_id":"ce4bgn92rcd13ifvqbvg","pricing_plan_id":"free"},{"bike_id":"6739ba48-5e9b-4fb6-b01a-4e386f144d0b","system_id":"levelo_inurba_marseille","lat":43.309076,"lon":5.368465,"is_reserved":false,"is_disabled":false,"rental_uris":{"android":"levelo://app?vid=6739ba48-5e9b-4fb6-b01a-4e386f144d0b","ios":"levelo://app?vid=6739ba48-5e9b-4fb6-b01a-4e386f144d0b"},"vehicle_type_id":"4","last_reported":1685264859,"current_range_meters":31200,"station_id":"ce4bgn92rcd13ifvqbvg","pricing_plan_id":"free"},{"bike_id":"e3f02855-95c9-4cf1-abe4-71e44c25bffd","system_id":"levelo_inurba_marseille","lat":43.309076,"lon":5.368465,"is_reserved":false,"is_disabled":false,"rental_uris":{"android":"levelo://app?vid=e3f02855-95c9-4cf1-abe4-71e44c25bffd","ios":"levelo://app?vid=e3f02855-95c9-4cf1-abe4-71e44c25bffd"},"vehicle_type_id":"4","last_reported":1685264859,"current_range_meters":31600,"station_id":"ce4bgn92rcd13ifvqbvg","pricing_plan_id":"free"},{"bike_id":"3e9021a9-d90d-4642-8e3f-6881d791c35d","system_id":"levelo_inurba_marseille","lat":43.31493,"lon":5.37301,"is_reserved":false,"is_disabled":false,"rental_uris":{"android":"levelo://app?vid=3e9021a9-d90d-4642-8e3f-6881d791c35d","ios":"levelo://app?vid=3e9021a9-d90d-4642-8e3f-6881d791c35d"},"vehicle_type_id":"4","last_reported":1685264859,"current_range_meters":30400,"station_id":"ce4bgt12rcd13ifvqcd0","pricing_plan_id":"free"},{"bike_id":"15a79423-842c-4cc9-92fc-54b57333bb87","system_id":"levelo_inurba_marseille","lat":43.308614,"lon":5.372098,"is_reserved":false,"is_disabled":false,"rental_uris":{"android":"levelo://app?vid=15a79423-842c-4cc9-92fc-54b57333bb87","ios":"levelo://app?vid=15a79423-842c-4cc9-92fc-54b57333bb87"},"vehicle_type_id":"4","last_reported":1685264859,"current_range_meters":18000,"station_id":"ce4bguh2rcd13ifvqckg","pricing_plan_id":"free"},{"bike_id":"373e2da3-bc01-4d0c-9722-05692234d5eb","system_id":"levelo_inurba_marseille","lat":43.305368,"lon":5.367343,"is_reserved":false,"is_disabled":false,"rental_uris":{"android":"levelo://app?vid=373e2da3-bc01-4d0c-9722-05692234d5eb","ios":"levelo://app?vid=373e2da3-bc01-4d0c-9722-05692234d5eb"},"vehicle_type_id":"4","last_reported":1685264859,"current_range_meters":30000,"station_id":"ce4bgrp2rcd13ifvqc9g","pricing_plan_id":"free"},{"bike_id":"b00be30c-cf5c-4dc7-a808-8bf636598040","system_id":"levelo_inurba_marseille","lat":43.305368,"lon":5.367343,"is_reserved":false,"is_disabled":false,"rental_uris":{"android":"levelo://app?vid=b00be30c-cf5c-4dc7-a808-8bf636598040","ios":"levelo://app?vid=b00be30c-cf5c-4dc7-a808-8bf636598040"},"vehicle_type_id":"4","last_reported":1685264859,"current_range_meters":18000,"station_id":"ce4bgrp2rcd13ifvqc9g","pricing_plan_id":"free"},{"bike_id":"114f35ce-8084-454d-aec5-d7d8d462e23e","system_id":"levelo_inurba_marseille","lat":43.305714,"lon":5.365633,"is_reserved":false,"is_disabled":false,"rental_uris":{"android":"levelo://app?vid=114f35ce-8084-454d-aec5-d7d8d462e23e","ios":"levelo://app?vid=114f35ce-8084-454d-aec5-d7d8d462e23e"},"vehicle_type_id":"4","last_reported":1685264859,"current_range_meters":21200,"station_id":"ce4bgs12rcd13ifvqcag","pricing_plan_id":"free"},{"bike_id":"2f365b22-33c8-4311-a296-56ef4a89cc8b","system_id":"levelo_inurba_marseille","lat":43.305368,"lon":5.367343,"is_reserved":false,"is_disabled":false,"rental_uris":{"android":"levelo://app?vid=2f365b22-33c8-4311-a296-56ef4a89cc8b","ios":"levelo://app?vid=2f365b22-33c8-4311-a296-56ef4a89cc8b"},"vehicle_type_id":"4","last_reported":1685264859,"current_range_meters":29200,"station_id":"ce4bgrp2rcd13ifvqc9g","pricing_plan_id":"free"},{"bike_id":"a26e5215-39d7-42f0-b27c-faba7c7c0020","system_id":"levelo_inurba_marseille","lat":43.305368,"lon":5.367343,"is_reserved":false,"is_disabled":false,"rental_uris":{"android":"levelo://app?vid=a26e5215-39d7-42f0-b27c-faba7c7c0020","ios":"levelo://app?vid=a26e5215-39d7-42f0-b27c-faba7c7c0020"},"vehicle_type_id":"4","last_reported":1685264859,"current_range_meters":29200,"station_id":"ce4bgrp2rcd13ifvqc9g","pricing_plan_id":"free"},{"bike_id":"86373a87-cbe8-4a18-86ad-f35b273d0a6a","system_id":"levelo_inurba_marseille","lat":43.30544,"lon":5.36529,"is_reserved":false,"is_disabled":false,"rental_uris":{"android":"levelo://app?vid=86373a87-cbe8-4a18-86ad-f35b273d0a6a","ios":"levelo://app?vid=86373a87-cbe8-4a18-86ad-f35b273d0a6a"},"vehicle_type_id":"4","last_reported":1685264859,"current_range_meters":15200,"station_id":"","pricing_plan_id":"free"},{"bike_id":"ca37f1f9-9656-468d-96ab-b9885d02e13e","system_id":"levelo_inurba_marseille","lat":43.305714,"lon":5.365633,"is_reserved":false,"is_disabled":false,"rental_uris":{"android":"levelo://app?vid=ca37f1f9-9656-468d-96ab-b9885d02e13e","ios":"levelo://app?vid=ca37f1f9-9656-468d-96ab-b9885d02e13e"},"vehicle_type_id":"4","last_reported":1685264859,"current_range_meters":28800,"station_id":"ce4bgs12rcd13ifvqcag","pricing_plan_id":"free"},{"bike_id":"67a4cae0-035d-4108-92c3-9c2edb7ebbaa","system_id":"levelo_inurba_marseille","lat":43.30542,"lon":5.3652,"is_reserved":false,"is_disabled":false,"rental_uris":{"android":"levelo://app?vid=67a4cae0-035d-4108-92c3-9c2edb7ebbaa","ios":"levelo://app?vid=67a4cae0-035d-4108-92c3-9c2edb7ebbaa"},"vehicle_type_id":"4","last_reported":1685264859,"current_range_meters":24400,"station_id":"","pricing_plan_id":"free"},{"bike_id":"aeccf571-7491-4002-81dc-733e197dc878","system_id":"levelo_inurba_marseille","lat":43.305714,"lon":5.365633,"is_reserved":false,"is_disabled":false,"rental_uris":{"android":"levelo://app?vid=aeccf571-7491-4002-81dc-733e197dc878","ios":"levelo://app?vid=aeccf571-7491-4002-81dc-733e197dc878"},"vehicle_type_id":"4","last_reported":1685264859,"current_range_meters":3600,"station_id":"ce4bgs12rcd13ifvqcag","pricing_plan_id":"free"},{"bike_id":"a310c86d-e81f-4930-ac7b-a22979aff4c1","system_id":"levelo_inurba_marseille","lat":43.305714,"lon":5.365633,"is_reserved":false,"is_disabled":false,"rental_uris":{"android":"levelo://app?vid=a310c86d-e81f-4930-ac7b-a22979aff4c1","ios":"levelo://app?vid=a310c86d-e81f-4930-ac7b-a22979aff4c1"},"vehicle_type_id":"4","last_reported":1685264859,"current_range_meters":31200,"station_id":"ce4bgs12rcd13ifvqcag","pricing_plan_id":"free"},{"bike_id":"7bdfd563-5159-4bff-8301-885e118c08d4","system_id":"levelo_inurba_marseille","lat":43.305989,"lon":5.37225,"is_reserved":false,"is_disabled":false,"rental_uris":{"android":"levelo://app?vid=7bdfd563-5159-4bff-8301-885e118c08d4","ios":"levelo://app?vid=7bdfd563-5159-4bff-8301-885e118c08d4"},"vehicle_type_id":"4","last_reported":1685264859,"current_range_meters":31200,"station_id":"ce4bgqh2rcd13ifvqc4g","pricing_plan_id":"free"},{"bike_id":"64c78913-55e2-42a4-916f-9024a69e741f","system_id":"levelo_inurba_marseille","lat":43.305989,"lon":5.37225,"is_reserved":false,"is_disabled":false,"rental_uris":{"android":"levelo://app?vid=64c78913-55e2-42a4-916f-9024a69e741f","ios":"levelo://app?vid=64c78913-55e2-42a4-916f-9024a69e741f"},"vehicle_type_id":"4","last_reported":1685264859,"current_range_meters":31200,"station_id":"ce4bgqh2rcd13ifvqc4g","pricing_plan_id":"free"},{"bike_id":"35cfb00c-9604-473d-ba9d-991c0e0e8cad","system_id":"levelo_inurba_marseille","lat":43.305989,"lon":5.37225,"is_reserved":false,"is_disabled":false,"rental_uris":{"android":"levelo://app?vid=35cfb00c-9604-473d-ba9d-991c0e0e8cad","ios":"levelo://app?vid=35cfb00c-9604-473d-ba9d-991c0e0e8cad"},"vehicle_type_id":"4","last_reported":1685264859,"current_range_meters":31200,"station_id":"ce4bgqh2rcd13ifvqc4g","pricing_plan_id":"free"},{"bike_id":"93af254d-e288-4071-9c07-3fa64c43c324","system_id":"levelo_inurba_marseille","lat":43.305989,"lon":5.37225,"is_reserved":false,"is_disabled":false,"rental_uris":{"android":"levelo://app?vid=93af254d-e288-4071-9c07-3fa64c43c324","ios":"levelo://app?vid=93af254d-e288-4071-9c07-3fa64c43c324"},"vehicle_type_id":"4","last_reported":1685264859,"current_range_meters":24000,"station_id":"ce4bgqh2rcd13ifvqc4g","pricing_plan_id":"free"},{"bike_id":"7987626b-f5ae-4735-a51a-6e451c0d92af","system_id":"levelo_inurba_marseille","lat":43.31108,"lon":5.37767,"is_reserved":false,"is_disabled":false,"rental_uris":{"android":"levelo://app?vid=7987626b-f5ae-4735-a51a-6e451c0d92af","ios":"levelo://app?vid=7987626b-f5ae-4735-a51a-6e451c0d92af"},"vehicle_type_id":"4","last_reported":1685264859,"current_range_meters":29200,"station_id":"ce4bgt92rcd13ifvqcg0","pricing_plan_id":"free"},{"bike_id":"794f0de2-ca9c-47ee-a77a-3f1b232a3e18","system_id":"levelo_inurba_marseille","lat":43.32056,"lon":5.37112,"is_reserved":false,"is_disabled":false,"rental_uris":{"android":"levelo://app?vid=794f0de2-ca9c-47ee-a77a-3f1b232a3e18","ios":"levelo://app?vid=794f0de2-ca9c-47ee-a77a-3f1b232a3e18"},"vehicle_type_id":"4","last_reported":1685264859,"current_range_meters":15200,"station_id":"","pricing_plan_id":"free"},{"bike_id":"4ace2def-a190-4280-89f4-90f3d4ef9b1d","system_id":"levelo_inurba_marseille","lat":43.317075,"lon":5.377367,"is_reserved":false,"is_disabled":false,"rental_uris":{"android":"levelo://app?vid=4ace2def-a190-4280-89f4-90f3d4ef9b1d","ios":"levelo://app?vid=4ace2def-a190-4280-89f4-90f3d4ef9b1d"},"vehicle_type_id":"4","last_reported":1685264859,"current_range_meters":23600,"station_id":"ce4bgth2rcd13ifvqch0","pricing_plan_id":"free"},{"bike_id":"fdf10776-3174-4866-9b02-95c7a06d0e47","system_id":"levelo_inurba_marseille","lat":43.317075,"lon":5.377367,"is_reserved":false,"is_disabled":false,"rental_uris":{"android":"levelo://app?vid=fdf10776-3174-4866-9b02-95c7a06d0e47","ios":"levelo://app?vid=fdf10776-3174-4866-9b02-95c7a06d0e47"},"vehicle_type_id":"4","last_reported":1685264859,"current_range_meters":31200,"station_id":"ce4bgth2rcd13ifvqch0","pricing_plan_id":"free"},{"bike_id":"c0f63d33-872a-4649-b7a0-a72a5be32f13","system_id":"levelo_inurba_marseille","lat":43.31702,"lon":5.37752,"is_reserved":false,"is_disabled":false,"rental_uris":{"android":"levelo://app?vid=c0f63d33-872a-4649-b7a0-a72a5be32f13","ios":"levelo://app?vid=c0f63d33-872a-4649-b7a0-a72a5be32f13"},"vehicle_type_id":"4","last_reported":1685264859,"current_range_meters":16000,"station_id":"ce4bgth2rcd13ifvqch0","pricing_plan_id":"free"},{"bike_id":"f34a9356-b305-4ff4-97a2-86abb0aebcbb","system_id":"levelo_inurba_marseille","lat":43.317075,"lon":5.377367,"is_reserved":false,"is_disabled":false,"rental_uris":{"android":"levelo://app?vid=f34a9356-b305-4ff4-97a2-86abb0aebcbb","ios":"levelo://app?vid=f34a9356-b305-4ff4-97a2-86abb0aebcbb"},"vehicle_type_id":"4","last_reported":1685264859,"current_range_meters":13600,"station_id":"ce4bgth2rcd13ifvqch0","pricing_plan_id":"free"},{"bike_id":"6817980d-8d43-4171-b0a2-3e96908e7a30","system_id":"levelo_inurba_marseille","lat":43.317075,"lon":5.377367,"is_reserved":false,"is_disabled":false,"rental_uris":{"android":"levelo://app?vid=6817980d-8d43-4171-b0a2-3e96908e7a30","ios":"levelo://app?vid=6817980d-8d43-4171-b0a2-3e96908e7a30"},"vehicle_type_id":"4","last_reported":1685264859,"current_range_meters":28000,"station_id":"ce4bgth2rcd13ifvqch0","pricing_plan_id":"free"},{"bike_id":"997d1c34-75d3-4866-8b58-6d310d0ef290","system_id":"levelo_inurba_marseille","lat":43.31006,"lon":5.37942,"is_reserved":false,"is_disabled":false,"rental_uris":{"android":"levelo://app?vid=997d1c34-75d3-4866-8b58-6d310d0ef290","ios":"levelo://app?vid=997d1c34-75d3-4866-8b58-6d310d0ef290"},"vehicle_type_id":"4","last_reported":1685264859,"current_range_meters":10000,"station_id":"","pricing_plan_id":"free"},{"bike_id":"d263d742-31db-4505-9202-ae487b69ab00","system_id":"levelo_inurba_marseille","lat":43.3031,"lon":5.3688,"is_reserved":false,"is_disabled":false,"rental_uris":{"android":"levelo://app?vid=d263d742-31db-4505-9202-ae487b69ab00","ios":"levelo://app?vid=d263d742-31db-4505-9202-ae487b69ab00"},"vehicle_type_id":"4","last_reported":1685264859,"current_range_meters":26400,"station_id":"ce4bgqh2rcd13ifvqc5g","pricing_plan_id":"free"},{"bike_id":"9a917b3d-985d-4f71-9230-b4e943f52f53","system_id":"levelo_inurba_marseille","lat":43.315293,"lon":5.380349,"is_reserved":false,"is_disabled":false,"rental_uris":{"android":"levelo://app?vid=9a917b3d-985d-4f71-9230-b4e943f52f53","ios":"levelo://app?vid=9a917b3d-985d-4f71-9230-b4e943f52f53"},"vehicle_type_id":"4","last_reported":1685264859,"current_range_meters":21600,"station_id":"ce4bhsp2rcd13ifvqi50","pricing_plan_id":"free"},{"bike_id":"187ccbc1-41f3-4acd-b633-6e8c828d1e0d","system_id":"levelo_inurba_marseille","lat":43.315293,"lon":5.380349,"is_reserved":false,"is_disabled":false,"rental_uris":{"android":"levelo://app?vid=187ccbc1-41f3-4acd-b633-6e8c828d1e0d","ios":"levelo://app?vid=187ccbc1-41f3-4acd-b633-6e8c828d1e0d"},"vehicle_type_id":"4","last_reported":1685264859,"current_range_meters":19600,"station_id":"ce4bhsp2rcd13ifvqi50","pricing_plan_id":"free"},{"bike_id":"7730aa58-a86c-43f7-9caa-0047b46311fc","system_id":"levelo_inurba_marseille","lat":43.315293,"lon":5.380349,"is_reserved":false,"is_disabled":false,"rental_uris":{"android":"levelo://app?vid=7730aa58-a86c-43f7-9caa-0047b46311fc","ios":"levelo://app?vid=7730aa58-a86c-43f7-9caa-0047b46311fc"},"vehicle_type_id":"4","last_reported":1685264859,"current_range_meters":20000,"station_id":"ce4bhsp2rcd13ifvqi50","pricing_plan_id":"free"},{"bike_id":"0b5a6169-5f3e-42b0-b781-de827ca95c32","system_id":"levelo_inurba_marseille","lat":43.315293,"lon":5.380349,"is_reserved":false,"is_disabled":false,"rental_uris":{"android":"levelo://app?vid=0b5a6169-5f3e-42b0-b781-de827ca95c32","ios":"levelo://app?vid=0b5a6169-5f3e-42b0-b781-de827ca95c32"},"vehicle_type_id":"4","last_reported":1685264859,"current_range_meters":8400,"station_id":"ce4bhsp2rcd13ifvqi50","pricing_plan_id":"free"},{"bike_id":"e79ea672-6f51-46b6-8de8-6d7952ad92d2","system_id":"levelo_inurba_marseille","lat":43.301939,"lon":5.366286,"is_reserved":false,"is_disabled":false,"rental_uris":{"android":"levelo://app?vid=e79ea672-6f51-46b6-8de8-6d7952ad92d2","ios":"levelo://app?vid=e79ea672-6f51-46b6-8de8-6d7952ad92d2"},"vehicle_type_id":"4","last_reported":1685264859,"current_range_meters":13600,"station_id":"ce4bgrh2rcd13ifvqc8g","pricing_plan_id":"free"},{"bike_id":"1c512b28-8e9c-459f-9122-ae86249f9e53","system_id":"levelo_inurba_marseille","lat":43.301939,"lon":5.366286,"is_reserved":false,"is_disabled":false,"rental_uris":{"android":"levelo://app?vid=1c512b28-8e9c-459f-9122-ae86249f9e53","ios":"levelo://app?vid=1c512b28-8e9c-459f-9122-ae86249f9e53"},"vehicle_type_id":"4","last_reported":1685264859,"current_range_meters":24000,"station_id":"ce4bgrh2rcd13ifvqc8g","pricing_plan_id":"free"},{"bike_id":"7df315e0-67e2-488b-a6a8-bef3f59730c0","system_id":"levelo_inurba_marseille","lat":43.301939,"lon":5.366286,"is_reserved":false,"is_disabled":false,"rental_uris":{"android":"levelo://app?vid=7df315e0-67e2-488b-a6a8-bef3f59730c0","ios":"levelo://app?vid=7df315e0-67e2-488b-a6a8-bef3f59730c0"},"vehicle_type_id":"4","last_reported":1685264859,"current_range_meters":31600,"station_id":"ce4bgrh2rcd13ifvqc8g","pricing_plan_id":"free"},{"bike_id":"a68e5e19-4f40-488f-aa92-4dca284cc4e2","system_id":"levelo_inurba_marseille","lat":43.308012,"lon":5.381511,"is_reserved":false,"is_disabled":false,"rental_uris":{"android":"levelo://app?vid=a68e5e19-4f40-488f-aa92-4dca284cc4e2","ios":"levelo://app?vid=a68e5e19-4f40-488f-aa92-4dca284cc4e2"},"vehicle_type_id":"4","last_reported":1685264859,"current_range_meters":5600,"station_id":"ce4bgt12rcd13ifvqce0","pricing_plan_id":"free"},{"bike_id":"6c4bccde-dfa2-4cdc-b9bc-3f907b7c4092","system_id":"levelo_inurba_marseille","lat":43.304606,"lon":5.379026,"is_reserved":false,"is_disabled":false,"rental_uris":{"android":"levelo://app?vid=6c4bccde-dfa2-4cdc-b9bc-3f907b7c4092","ios":"levelo://app?vid=6c4bccde-dfa2-4cdc-b9bc-3f907b7c4092"},"vehicle_type_id":"4","last_reported":1685264859,"current_range_meters":31200,"station_id":"ce4bgup2rcd13ifvqcn0","pricing_plan_id":"free"},{"bike_id":"c4c1876f-2578-499f-a9c9-7e18fa4b7595","system_id":"levelo_inurba_marseille","lat":43.304606,"lon":5.379026,"is_reserved":false,"is_disabled":false,"rental_uris":{"android":"levelo://app?vid=c4c1876f-2578-499f-a9c9-7e18fa4b7595","ios":"levelo://app?vid=c4c1876f-2578-499f-a9c9-7e18fa4b7595"},"vehicle_type_id":"4","last_reported":1685264859,"current_range_meters":31200,"station_id":"ce4bgup2rcd13ifvqcn0","pricing_plan_id":"free"},{"bike_id":"9ae1cbc1-0195-4ad5-b518-e69320f83758","system_id":"levelo_inurba_marseille","lat":43.30472,"lon":5.37909,"is_reserved":false,"is_disabled":false,"rental_uris":{"android":"levelo://app?vid=9ae1cbc1-0195-4ad5-b518-e69320f83758","ios":"levelo://app?vid=9ae1cbc1-0195-4ad5-b518-e69320f83758"},"vehicle_type_id":"4","last_reported":1685264859,"current_range_meters":22800,"station_id":"ce4bgup2rcd13ifvqcn0","pricing_plan_id":"free"},{"bike_id":"9c4e59d9-b3ab-40b2-b6b3-1420085d4207","system_id":"levelo_inurba_marseille","lat":43.30475,"lon":5.37915,"is_reserved":false,"is_disabled":false,"rental_uris":{"android":"levelo://app?vid=9c4e59d9-b3ab-40b2-b6b3-1420085d4207","ios":"levelo://app?vid=9c4e59d9-b3ab-40b2-b6b3-1420085d4207"},"vehicle_type_id":"4","last_reported":1685264859,"current_range_meters":30800,"station_id":"ce4bgup2rcd13ifvqcn0","pricing_plan_id":"free"},{"bike_id":"53507e77-0a34-4507-929f-d3a83a336fdc","system_id":"levelo_inurba_marseille","lat":43.30466,"lon":5.37904,"is_reserved":false,"is_disabled":false,"rental_uris":{"android":"levelo://app?vid=53507e77-0a34-4507-929f-d3a83a336fdc","ios":"levelo://app?vid=53507e77-0a34-4507-929f-d3a83a336fdc"},"vehicle_type_id":"4","last_reported":1685264859,"current_range_meters":30000,"station_id":"ce4bgup2rcd13ifvqcn0","pricing_plan_id":"free"},{"bike_id":"eecde960-ea43-45ba-8a0b-7f276bf8788e","system_id":"levelo_inurba_marseille","lat":43.30468,"lon":5.37913,"is_reserved":false,"is_disabled":false,"rental_uris":{"android":"levelo://app?vid=eecde960-ea43-45ba-8a0b-7f276bf8788e","ios":"levelo://app?vid=eecde960-ea43-45ba-8a0b-7f276bf8788e"},"vehicle_type_id":"4","last_reported":1685264859,"current_range_meters":23200,"station_id":"ce4bgup2rcd13ifvqcn0","pricing_plan_id":"free"},{"bike_id":"fafb392d-710d-42d1-8c4c-067b4f07b911","system_id":"levelo_inurba_marseille","lat":43.304606,"lon":5.379026,"is_reserved":false,"is_disabled":false,"rental_uris":{"android":"levelo://app?vid=fafb392d-710d-42d1-8c4c-067b4f07b911","ios":"levelo://app?vid=fafb392d-710d-42d1-8c4c-067b4f07b911"},"vehicle_type_id":"4","last_reported":1685264859,"current_range_meters":31200,"station_id":"ce4bgup2rcd13ifvqcn0","pricing_plan_id":"free"},{"bike_id":"76fdaf39-f9cb-40ec-957f-288badb084b1","system_id":"levelo_inurba_marseille","lat":43.304606,"lon":5.379026,"is_reserved":false,"is_disabled":false,"rental_uris":{"android":"levelo://app?vid=76fdaf39-f9cb-40ec-957f-288badb084b1","ios":"levelo://app?vid=76fdaf39-f9cb-40ec-957f-288badb084b1"},"vehicle_type_id":"4","last_reported":1685264859,"current_range_meters":31200,"station_id":"ce4bgup2rcd13ifvqcn0","pricing_plan_id":"free"},{"bike_id":"cb58d36b-0416-4733-95d4-9f87e588b978","system_id":"levelo_inurba_marseille","lat":43.304606,"lon":5.379026,"is_reserved":false,"is_disabled":false,"rental_uris":{"android":"levelo://app?vid=cb58d36b-0416-4733-95d4-9f87e588b978","ios":"levelo://app?vid=cb58d36b-0416-4733-95d4-9f87e588b978"},"vehicle_type_id":"4","last_reported":1685264859,"current_range_meters":31200,"station_id":"ce4bgup2rcd13ifvqcn0","pricing_plan_id":"free"},{"bike_id":"da158da4-7aca-4c4d-ab34-1f3f2e0f0be6","system_id":"levelo_inurba_marseille","lat":43.30454,"lon":5.37914,"is_reserved":false,"is_disabled":false,"rental_uris":{"android":"levelo://app?vid=da158da4-7aca-4c4d-ab34-1f3f2e0f0be6","ios":"levelo://app?vid=da158da4-7aca-4c4d-ab34-1f3f2e0f0be6"},"vehicle_type_id":"4","last_reported":1685264859,"current_range_meters":29600,"station_id":"ce4bgup2rcd13ifvqcn0","pricing_plan_id":"free"},{"bike_id":"3832be86-32c7-4d0d-b1d4-82a7d3ae83c7","system_id":"levelo_inurba_marseille","lat":43.30141,"lon":5.37414,"is_reserved":false,"is_disabled":false,"rental_uris":{"android":"levelo://app?vid=3832be86-32c7-4d0d-b1d4-82a7d3ae83c7","ios":"levelo://app?vid=3832be86-32c7-4d0d-b1d4-82a7d3ae83c7"},"vehicle_type_id":"4","last_reported":1685264859,"current_range_meters":31200,"station_id":"","pricing_plan_id":"free"},{"bike_id":"b4ae314a-ac57-4d54-9c43-4605a49da5fa","system_id":"levelo_inurba_marseille","lat":43.30134,"lon":5.37422,"is_reserved":false,"is_disabled":false,"rental_uris":{"android":"levelo://app?vid=b4ae314a-ac57-4d54-9c43-4605a49da5fa","ios":"levelo://app?vid=b4ae314a-ac57-4d54-9c43-4605a49da5fa"},"vehicle_type_id":"4","last_reported":1685264859,"current_range_meters":29200,"station_id":"","pricing_plan_id":"free"},{"bike_id":"aff952cd-e115-4b09-9279-740f16e8750c","system_id":"levelo_inurba_marseille","lat":43.30134,"lon":5.37427,"is_reserved":false,"is_disabled":false,"rental_uris":{"android":"levelo://app?vid=aff952cd-e115-4b09-9279-740f16e8750c","ios":"levelo://app?vid=aff952cd-e115-4b09-9279-740f16e8750c"},"vehicle_type_id":"4","last_reported":1685264859,"current_range_meters":31200,"station_id":"","pricing_plan_id":"free"},{"bike_id":"6bee5066-104b-471d-aa34-e3cd488a62e0","system_id":"levelo_inurba_marseille","lat":43.31989,"lon":5.38137,"is_reserved":false,"is_disabled":false,"rental_uris":{"android":"levelo://app?vid=6bee5066-104b-471d-aa34-e3cd488a62e0","ios":"levelo://app?vid=6bee5066-104b-471d-aa34-e3cd488a62e0"},"vehicle_type_id":"4","last_reported":1685264859,"current_range_meters":10800,"station_id":"ce4bhr12rcd13ifvqhpg","pricing_plan_id":"free"},{"bike_id":"043b8837-d974-4e8a-824b-87c48710aa6e","system_id":"levelo_inurba_marseille","lat":43.31993,"lon":5.38146,"is_reserved":false,"is_disabled":false,"rental_uris":{"android":"levelo://app?vid=043b8837-d974-4e8a-824b-87c48710aa6e","ios":"levelo://app?vid=043b8837-d974-4e8a-824b-87c48710aa6e"},"vehicle_type_id":"4","last_reported":1685264859,"current_range_meters":8000,"station_id":"ce4bhr12rcd13ifvqhpg","pricing_plan_id":"free"},{"bike_id":"4b37d111-689a-4e70-88d7-724ffa0dc8f0","system_id":"levelo_inurba_marseille","lat":43.31957,"lon":5.38249,"is_reserved":false,"is_disabled":false,"rental_uris":{"android":"levelo://app?vid=4b37d111-689a-4e70-88d7-724ffa0dc8f0","ios":"levelo://app?vid=4b37d111-689a-4e70-88d7-724ffa0dc8f0"},"vehicle_type_id":"4","last_reported":1685264859,"current_range_meters":19600,"station_id":"","pricing_plan_id":"free"},{"bike_id":"bc70ca99-30b5-438e-80ed-33859601a611","system_id":"levelo_inurba_marseille","lat":43.299222,"lon":5.365554,"is_reserved":false,"is_disabled":false,"rental_uris":{"android":"levelo://app?vid=bc70ca99-30b5-438e-80ed-33859601a611","ios":"levelo://app?vid=bc70ca99-30b5-438e-80ed-33859601a611"},"vehicle_type_id":"4","last_reported":1685264859,"current_range_meters":4400,"station_id":"ce4bgm92rcd13ifvqbr0","pricing_plan_id":"free"},{"bike_id":"3178d40e-a91b-4acb-9bb4-2ca22d805468","system_id":"levelo_inurba_marseille","lat":43.299222,"lon":5.365554,"is_reserved":false,"is_disabled":false,"rental_uris":{"android":"levelo://app?vid=3178d40e-a91b-4acb-9bb4-2ca22d805468","ios":"levelo://app?vid=3178d40e-a91b-4acb-9bb4-2ca22d805468"},"vehicle_type_id":"4","last_reported":1685264859,"current_range_meters":20400,"station_id":"ce4bgm92rcd13ifvqbr0","pricing_plan_id":"free"},{"bike_id":"d267853b-8e21-4e75-bff3-7e358af9b26d","system_id":"levelo_inurba_marseille","lat":43.299222,"lon":5.365554,"is_reserved":false,"is_disabled":false,"rental_uris":{"android":"levelo://app?vid=d267853b-8e21-4e75-bff3-7e358af9b26d","ios":"levelo://app?vid=d267853b-8e21-4e75-bff3-7e358af9b26d"},"vehicle_type_id":"4","last_reported":1685264859,"current_range_meters":16400,"station_id":"ce4bgm92rcd13ifvqbr0","pricing_plan_id":"free"},{"bike_id":"14e7d2f4-01c8-40d8-a83d-5ff7a25c1e19","system_id":"levelo_inurba_marseille","lat":43.299222,"lon":5.365554,"is_reserved":false,"is_disabled":false,"rental_uris":{"android":"levelo://app?vid=14e7d2f4-01c8-40d8-a83d-5ff7a25c1e19","ios":"levelo://app?vid=14e7d2f4-01c8-40d8-a83d-5ff7a25c1e19"},"vehicle_type_id":"4","last_reported":1685264859,"current_range_meters":10800,"station_id":"ce4bgm92rcd13ifvqbr0","pricing_plan_id":"free"},{"bike_id":"86b0109f-0092-411e-8e7a-fceca297f702","system_id":"levelo_inurba_marseille","lat":43.299222,"lon":5.365554,"is_reserved":false,"is_disabled":false,"rental_uris":{"android":"levelo://app?vid=86b0109f-0092-411e-8e7a-fceca297f702","ios":"levelo://app?vid=86b0109f-0092-411e-8e7a-fceca297f702"},"vehicle_type_id":"4","last_reported":1685264859,"current_range_meters":20000,"station_id":"ce4bgm92rcd13ifvqbr0","pricing_plan_id":"free"},{"bike_id":"4a2092ad-9482-4aae-98ab-606d5785d4ea","system_id":"levelo_inurba_marseille","lat":43.299222,"lon":5.365554,"is_reserved":false,"is_disabled":false,"rental_uris":{"android":"levelo://app?vid=4a2092ad-9482-4aae-98ab-606d5785d4ea","ios":"levelo://app?vid=4a2092ad-9482-4aae-98ab-606d5785d4ea"},"vehicle_type_id":"4","last_reported":1685264859,"current_range_meters":18800,"station_id":"ce4bgm92rcd13ifvqbr0","pricing_plan_id":"free"},{"bike_id":"b0d21c5b-ded1-4826-a49d-1c325436d9c7","system_id":"levelo_inurba_marseille","lat":43.298433,"lon":5.362774,"is_reserved":false,"is_disabled":false,"rental_uris":{"android":"levelo://app?vid=b0d21c5b-ded1-4826-a49d-1c325436d9c7","ios":"levelo://app?vid=b0d21c5b-ded1-4826-a49d-1c325436d9c7"},"vehicle_type_id":"4","last_reported":1685264859,"current_range_meters":27200,"station_id":"ce4bgpp2rcd13ifvqc3g","pricing_plan_id":"free"},{"bike_id":"80ec8054-5496-4c74-8424-1270df0783b3","system_id":"levelo_inurba_marseille","lat":43.298433,"lon":5.362774,"is_reserved":false,"is_disabled":false,"rental_uris":{"android":"levelo://app?vid=80ec8054-5496-4c74-8424-1270df0783b3","ios":"levelo://app?vid=80ec8054-5496-4c74-8424-1270df0783b3"},"vehicle_type_id":"4","last_reported":1685264859,"current_range_meters":30400,"station_id":"ce4bgpp2rcd13ifvqc3g","pricing_plan_id":"free"},{"bike_id":"fe628fde-d1b2-464d-a481-0e925cdb1e05","system_id":"levelo_inurba_marseille","lat":43.298433,"lon":5.362774,"is_reserved":false,"is_disabled":false,"rental_uris":{"android":"levelo://app?vid=fe628fde-d1b2-464d-a481-0e925cdb1e05","ios":"levelo://app?vid=fe628fde-d1b2-464d-a481-0e925cdb1e05"},"vehicle_type_id":"4","last_reported":1685264859,"current_range_meters":31200,"station_id":"ce4bgpp2rcd13ifvqc3g","pricing_plan_id":"free"},{"bike_id":"79bda29d-baef-4be7-9b5d-2abdf1819c7a","system_id":"levelo_inurba_marseille","lat":43.298433,"lon":5.362774,"is_reserved":false,"is_disabled":false,"rental_uris":{"android":"levelo://app?vid=79bda29d-baef-4be7-9b5d-2abdf1819c7a","ios":"levelo://app?vid=79bda29d-baef-4be7-9b5d-2abdf1819c7a"},"vehicle_type_id":"4","last_reported":1685264859,"current_range_meters":31200,"station_id":"ce4bgpp2rcd13ifvqc3g","pricing_plan_id":"free"},{"bike_id":"bb7b4270-55dd-4cf1-996b-d78c43e6c22f","system_id":"levelo_inurba_marseille","lat":43.298433,"lon":5.362774,"is_reserved":false,"is_disabled":false,"rental_uris":{"android":"levelo://app?vid=bb7b4270-55dd-4cf1-996b-d78c43e6c22f","ios":"levelo://app?vid=bb7b4270-55dd-4cf1-996b-d78c43e6c22f"},"vehicle_type_id":"4","last_reported":1685264859,"current_range_meters":31200,"station_id":"ce4bgpp2rcd13ifvqc3g","pricing_plan_id":"free"},{"bike_id":"5b32d6f7-d663-4c3e-bb63-85c1cb309fcd","system_id":"levelo_inurba_marseille","lat":43.298433,"lon":5.362774,"is_reserved":false,"is_disabled":false,"rental_uris":{"android":"levelo://app?vid=5b32d6f7-d663-4c3e-bb63-85c1cb309fcd","ios":"levelo://app?vid=5b32d6f7-d663-4c3e-bb63-85c1cb309fcd"},"vehicle_type_id":"4","last_reported":1685264859,"current_range_meters":28400,"station_id":"ce4bgpp2rcd13ifvqc3g","pricing_plan_id":"free"},{"bike_id":"b23513c3-5ba9-44f9-9b84-ca847339dc99","system_id":"levelo_inurba_marseille","lat":43.29847,"lon":5.36285,"is_reserved":false,"is_disabled":false,"rental_uris":{"android":"levelo://app?vid=b23513c3-5ba9-44f9-9b84-ca847339dc99","ios":"levelo://app?vid=b23513c3-5ba9-44f9-9b84-ca847339dc99"},"vehicle_type_id":"4","last_reported":1685264859,"current_range_meters":28400,"station_id":"ce4bgpp2rcd13ifvqc3g","pricing_plan_id":"free"},{"bike_id":"8eb5ec49-0ad9-4d92-85e8-d8884d3b20bb","system_id":"levelo_inurba_marseille","lat":43.298433,"lon":5.362774,"is_reserved":false,"is_disabled":false,"rental_uris":{"android":"levelo://app?vid=8eb5ec49-0ad9-4d92-85e8-d8884d3b20bb","ios":"levelo://app?vid=8eb5ec49-0ad9-4d92-85e8-d8884d3b20bb"},"vehicle_type_id":"4","last_reported":1685264859,"current_range_meters":31600,"station_id":"ce4bgpp2rcd13ifvqc3g","pricing_plan_id":"free"},{"bike_id":"37f21cb0-39fc-4ce8-b246-24326c14cbb3","system_id":"levelo_inurba_marseille","lat":43.298433,"lon":5.362774,"is_reserved":false,"is_disabled":false,"rental_uris":{"android":"levelo://app?vid=37f21cb0-39fc-4ce8-b246-24326c14cbb3","ios":"levelo://app?vid=37f21cb0-39fc-4ce8-b246-24326c14cbb3"},"vehicle_type_id":"4","last_reported":1685264859,"current_range_meters":31200,"station_id":"ce4bgpp2rcd13ifvqc3g","pricing_plan_id":"free"},{"bike_id":"13f5f52f-0300-4806-9a4b-4da5a5b41579","system_id":"levelo_inurba_marseille","lat":43.305364,"lon":5.384119,"is_reserved":false,"is_disabled":false,"rental_uris":{"android":"levelo://app?vid=13f5f52f-0300-4806-9a4b-4da5a5b41579","ios":"levelo://app?vid=13f5f52f-0300-4806-9a4b-4da5a5b41579"},"vehicle_type_id":"4","last_reported":1685264859,"current_range_meters":29200,"station_id":"ce4bgg92rcd13ifvqb30","pricing_plan_id":"free"},{"bike_id":"fc059127-7f86-4df3-b3b7-ded0ca7f9c30","system_id":"levelo_inurba_marseille","lat":43.305364,"lon":5.384119,"is_reserved":false,"is_disabled":false,"rental_uris":{"android":"levelo://app?vid=fc059127-7f86-4df3-b3b7-ded0ca7f9c30","ios":"levelo://app?vid=fc059127-7f86-4df3-b3b7-ded0ca7f9c30"},"vehicle_type_id":"4","last_reported":1685264859,"current_range_meters":31200,"station_id":"ce4bgg92rcd13ifvqb30","pricing_plan_id":"free"},{"bike_id":"d6588420-9e5a-40fd-badd-11a8d5fd245f","system_id":"levelo_inurba_marseille","lat":43.305364,"lon":5.384119,"is_reserved":false,"is_disabled":false,"rental_uris":{"android":"levelo://app?vid=d6588420-9e5a-40fd-badd-11a8d5fd245f","ios":"levelo://app?vid=d6588420-9e5a-40fd-badd-11a8d5fd245f"},"vehicle_type_id":"4","last_reported":1685264859,"current_range_meters":31200,"station_id":"ce4bgg92rcd13ifvqb30","pricing_plan_id":"free"},{"bike_id":"acb19ed7-871f-4d59-9a76-b0259a68d1f9","system_id":"levelo_inurba_marseille","lat":43.298433,"lon":5.362774,"is_reserved":false,"is_disabled":false,"rental_uris":{"android":"levelo://app?vid=acb19ed7-871f-4d59-9a76-b0259a68d1f9","ios":"levelo://app?vid=acb19ed7-871f-4d59-9a76-b0259a68d1f9"},"vehicle_type_id":"4","last_reported":1685264859,"current_range_meters":6800,"station_id":"ce4bgpp2rcd13ifvqc3g","pricing_plan_id":"free"},{"bike_id":"ce3eecdb-7717-4016-b5af-ef5dfc151bc3","system_id":"levelo_inurba_marseille","lat":43.298433,"lon":5.362774,"is_reserved":false,"is_disabled":false,"rental_uris":{"android":"levelo://app?vid=ce3eecdb-7717-4016-b5af-ef5dfc151bc3","ios":"levelo://app?vid=ce3eecdb-7717-4016-b5af-ef5dfc151bc3"},"vehicle_type_id":"4","last_reported":1685264859,"current_range_meters":31200,"station_id":"ce4bgpp2rcd13ifvqc3g","pricing_plan_id":"free"},{"bike_id":"383aa7a2-3538-4d7d-9ca2-1fbba8b52814","system_id":"levelo_inurba_marseille","lat":43.29843,"lon":5.3627,"is_reserved":false,"is_disabled":false,"rental_uris":{"android":"levelo://app?vid=383aa7a2-3538-4d7d-9ca2-1fbba8b52814","ios":"levelo://app?vid=383aa7a2-3538-4d7d-9ca2-1fbba8b52814"},"vehicle_type_id":"4","last_reported":1685264859,"current_range_meters":27600,"station_id":"ce4bgpp2rcd13ifvqc3g","pricing_plan_id":"free"},{"bike_id":"08d99550-a1f3-47a6-bf1b-421b9e8e2c98","system_id":"levelo_inurba_marseille","lat":43.298433,"lon":5.362774,"is_reserved":false,"is_disabled":false,"rental_uris":{"android":"levelo://app?vid=08d99550-a1f3-47a6-bf1b-421b9e8e2c98","ios":"levelo://app?vid=08d99550-a1f3-47a6-bf1b-421b9e8e2c98"},"vehicle_type_id":"4","last_reported":1685264859,"current_range_meters":31600,"station_id":"ce4bgpp2rcd13ifvqc3g","pricing_plan_id":"free"},{"bike_id":"32ff8edd-ff33-46c0-b0a9-d904f6d0a49b","system_id":"levelo_inurba_marseille","lat":43.298433,"lon":5.362774,"is_reserved":false,"is_disabled":false,"rental_uris":{"android":"levelo://app?vid=32ff8edd-ff33-46c0-b0a9-d904f6d0a49b","ios":"levelo://app?vid=32ff8edd-ff33-46c0-b0a9-d904f6d0a49b"},"vehicle_type_id":"4","last_reported":1685264859,"current_range_meters":31200,"station_id":"ce4bgpp2rcd13ifvqc3g","pricing_plan_id":"free"},{"bike_id":"c4ca60ac-744e-4cbd-a3ed-f9dd7a30c1a8","system_id":"levelo_inurba_marseille","lat":43.298433,"lon":5.362774,"is_reserved":false,"is_disabled":false,"rental_uris":{"android":"levelo://app?vid=c4ca60ac-744e-4cbd-a3ed-f9dd7a30c1a8","ios":"levelo://app?vid=c4ca60ac-744e-4cbd-a3ed-f9dd7a30c1a8"},"vehicle_type_id":"4","last_reported":1685264859,"current_range_meters":31200,"station_id":"ce4bgpp2rcd13ifvqc3g","pricing_plan_id":"free"},{"bike_id":"271f2730-7b0b-484c-a2e4-4fd3b1016786","system_id":"levelo_inurba_marseille","lat":43.298433,"lon":5.362774,"is_reserved":false,"is_disabled":false,"rental_uris":{"android":"levelo://app?vid=271f2730-7b0b-484c-a2e4-4fd3b1016786","ios":"levelo://app?vid=271f2730-7b0b-484c-a2e4-4fd3b1016786"},"vehicle_type_id":"4","last_reported":1685264859,"current_range_meters":26000,"station_id":"ce4bgpp2rcd13ifvqc3g","pricing_plan_id":"free"},{"bike_id":"af1ab587-2410-4900-879f-6951fffebc04","system_id":"levelo_inurba_marseille","lat":43.298433,"lon":5.362774,"is_reserved":false,"is_disabled":false,"rental_uris":{"android":"levelo://app?vid=af1ab587-2410-4900-879f-6951fffebc04","ios":"levelo://app?vid=af1ab587-2410-4900-879f-6951fffebc04"},"vehicle_type_id":"4","last_reported":1685264859,"current_range_meters":30400,"station_id":"ce4bgpp2rcd13ifvqc3g","pricing_plan_id":"free"},{"bike_id":"2e35995e-9628-4f87-ab45-edf7ed2ebdd5","system_id":"levelo_inurba_marseille","lat":43.297794,"lon":5.370888,"is_reserved":false,"is_disabled":false,"rental_uris":{"android":"levelo://app?vid=2e35995e-9628-4f87-ab45-edf7ed2ebdd5","ios":"levelo://app?vid=2e35995e-9628-4f87-ab45-edf7ed2ebdd5"},"vehicle_type_id":"4","last_reported":1685264859,"current_range_meters":31200,"station_id":"ce4bgop2rcd13ifvqc1g","pricing_plan_id":"free"},{"bike_id":"5480afb8-112a-47f7-a636-0608be8550f0","system_id":"levelo_inurba_marseille","lat":43.30117,"lon":5.38048,"is_reserved":false,"is_disabled":false,"rental_uris":{"android":"levelo://app?vid=5480afb8-112a-47f7-a636-0608be8550f0","ios":"levelo://app?vid=5480afb8-112a-47f7-a636-0608be8550f0"},"vehicle_type_id":"4","last_reported":1685264859,"current_range_meters":20000,"station_id":"","pricing_plan_id":"free"},{"bike_id":"a668cd52-9532-4529-9077-8df80093bf4c","system_id":"levelo_inurba_marseille","lat":43.297794,"lon":5.370888,"is_reserved":false,"is_disabled":false,"rental_uris":{"android":"levelo://app?vid=a668cd52-9532-4529-9077-8df80093bf4c","ios":"levelo://app?vid=a668cd52-9532-4529-9077-8df80093bf4c"},"vehicle_type_id":"4","last_reported":1685264859,"current_range_meters":28800,"station_id":"ce4bgop2rcd13ifvqc1g","pricing_plan_id":"free"},{"bike_id":"22dcd50a-59cc-4165-a763-3e75b18812bb","system_id":"levelo_inurba_marseille","lat":43.297794,"lon":5.370888,"is_reserved":false,"is_disabled":false,"rental_uris":{"android":"levelo://app?vid=22dcd50a-59cc-4165-a763-3e75b18812bb","ios":"levelo://app?vid=22dcd50a-59cc-4165-a763-3e75b18812bb"},"vehicle_type_id":"4","last_reported":1685264859,"current_range_meters":30800,"station_id":"ce4bgop2rcd13ifvqc1g","pricing_plan_id":"free"},{"bike_id":"2d165828-f4f9-4b7a-929b-68f0ddf751d9","system_id":"levelo_inurba_marseille","lat":43.297794,"lon":5.370888,"is_reserved":false,"is_disabled":false,"rental_uris":{"android":"levelo://app?vid=2d165828-f4f9-4b7a-929b-68f0ddf751d9","ios":"levelo://app?vid=2d165828-f4f9-4b7a-929b-68f0ddf751d9"},"vehicle_type_id":"4","last_reported":1685264859,"current_range_meters":29600,"station_id":"ce4bgop2rcd13ifvqc1g","pricing_plan_id":"free"},{"bike_id":"5f1a042d-3885-401e-93f4-dbe3cbdf9f54","system_id":"levelo_inurba_marseille","lat":43.297794,"lon":5.370888,"is_reserved":false,"is_disabled":false,"rental_uris":{"android":"levelo://app?vid=5f1a042d-3885-401e-93f4-dbe3cbdf9f54","ios":"levelo://app?vid=5f1a042d-3885-401e-93f4-dbe3cbdf9f54"},"vehicle_type_id":"4","last_reported":1685264859,"current_range_meters":28000,"station_id":"ce4bgop2rcd13ifvqc1g","pricing_plan_id":"free"},{"bike_id":"43d041a6-cdcf-4897-8665-6ed61b2c409c","system_id":"levelo_inurba_marseille","lat":43.3282,"lon":5.36671,"is_reserved":false,"is_disabled":false,"rental_uris":{"android":"levelo://app?vid=43d041a6-cdcf-4897-8665-6ed61b2c409c","ios":"levelo://app?vid=43d041a6-cdcf-4897-8665-6ed61b2c409c"},"vehicle_type_id":"4","last_reported":1685264859,"current_range_meters":30400,"station_id":"ce4bhs92rcd13ifvqi0g","pricing_plan_id":"free"},{"bike_id":"001e0f06-c851-4eae-a731-61f6f96f7bd6","system_id":"levelo_inurba_marseille","lat":43.328371,"lon":5.366909,"is_reserved":false,"is_disabled":false,"rental_uris":{"android":"levelo://app?vid=001e0f06-c851-4eae-a731-61f6f96f7bd6","ios":"levelo://app?vid=001e0f06-c851-4eae-a731-61f6f96f7bd6"},"vehicle_type_id":"4","last_reported":1685264859,"current_range_meters":23600,"station_id":"ce4bhs92rcd13ifvqi0g","pricing_plan_id":"free"},{"bike_id":"b509cb09-fad7-474b-8839-3794109ab722","system_id":"levelo_inurba_marseille","lat":43.328371,"lon":5.366909,"is_reserved":false,"is_disabled":false,"rental_uris":{"android":"levelo://app?vid=b509cb09-fad7-474b-8839-3794109ab722","ios":"levelo://app?vid=b509cb09-fad7-474b-8839-3794109ab722"},"vehicle_type_id":"4","last_reported":1685264859,"current_range_meters":3600,"station_id":"ce4bhs92rcd13ifvqi0g","pricing_plan_id":"free"},{"bike_id":"6aadd20f-ee22-42f7-9c69-f3066c5dfcf1","system_id":"levelo_inurba_marseille","lat":43.328371,"lon":5.366912,"is_reserved":false,"is_disabled":false,"rental_uris":{"android":"levelo://app?vid=6aadd20f-ee22-42f7-9c69-f3066c5dfcf1","ios":"levelo://app?vid=6aadd20f-ee22-42f7-9c69-f3066c5dfcf1"},"vehicle_type_id":"4","last_reported":1685264859,"current_range_meters":12000,"station_id":"ce4bhs92rcd13ifvqi0g","pricing_plan_id":"free"},{"bike_id":"1b766b2c-f66d-4aab-b59b-7d1be603a12e","system_id":"levelo_inurba_marseille","lat":43.328371,"lon":5.366909,"is_reserved":false,"is_disabled":false,"rental_uris":{"android":"levelo://app?vid=1b766b2c-f66d-4aab-b59b-7d1be603a12e","ios":"levelo://app?vid=1b766b2c-f66d-4aab-b59b-7d1be603a12e"},"vehicle_type_id":"4","last_reported":1685264859,"current_range_meters":23200,"station_id":"ce4bhs92rcd13ifvqi0g","pricing_plan_id":"free"},{"bike_id":"fcbed497-d2a8-482c-92d1-ee59547f63b3","system_id":"levelo_inurba_marseille","lat":43.32829,"lon":5.36683,"is_reserved":false,"is_disabled":false,"rental_uris":{"android":"levelo://app?vid=fcbed497-d2a8-482c-92d1-ee59547f63b3","ios":"levelo://app?vid=fcbed497-d2a8-482c-92d1-ee59547f63b3"},"vehicle_type_id":"4","last_reported":1685264859,"current_range_meters":30400,"station_id":"ce4bhs92rcd13ifvqi0g","pricing_plan_id":"free"},{"bike_id":"55aa7b21-46c5-4b9d-a1a8-7543435cff2f","system_id":"levelo_inurba_marseille","lat":43.328297,"lon":5.366883,"is_reserved":false,"is_disabled":false,"rental_uris":{"android":"levelo://app?vid=55aa7b21-46c5-4b9d-a1a8-7543435cff2f","ios":"levelo://app?vid=55aa7b21-46c5-4b9d-a1a8-7543435cff2f"},"vehicle_type_id":"4","last_reported":1685264859,"current_range_meters":3200,"station_id":"ce4bhs92rcd13ifvqi0g","pricing_plan_id":"free"},{"bike_id":"dab2b1e0-69f1-46ca-9d03-a17ab901dd41","system_id":"levelo_inurba_marseille","lat":43.3283,"lon":5.3669,"is_reserved":false,"is_disabled":false,"rental_uris":{"android":"levelo://app?vid=dab2b1e0-69f1-46ca-9d03-a17ab901dd41","ios":"levelo://app?vid=dab2b1e0-69f1-46ca-9d03-a17ab901dd41"},"vehicle_type_id":"4","last_reported":1685264859,"current_range_meters":26800,"station_id":"ce4bhs92rcd13ifvqi0g","pricing_plan_id":"free"},{"bike_id":"97d4e402-74ff-4cf4-bfbe-24f821c93b41","system_id":"levelo_inurba_marseille","lat":43.328371,"lon":5.366909,"is_reserved":false,"is_disabled":false,"rental_uris":{"android":"levelo://app?vid=97d4e402-74ff-4cf4-bfbe-24f821c93b41","ios":"levelo://app?vid=97d4e402-74ff-4cf4-bfbe-24f821c93b41"},"vehicle_type_id":"4","last_reported":1685264859,"current_range_meters":21600,"station_id":"ce4bhs92rcd13ifvqi0g","pricing_plan_id":"free"},{"bike_id":"bb1e0ad9-df4b-41de-bdd5-bce01dd60691","system_id":"levelo_inurba_marseille","lat":43.328371,"lon":5.366909,"is_reserved":false,"is_disabled":false,"rental_uris":{"android":"levelo://app?vid=bb1e0ad9-df4b-41de-bdd5-bce01dd60691","ios":"levelo://app?vid=bb1e0ad9-df4b-41de-bdd5-bce01dd60691"},"vehicle_type_id":"4","last_reported":1685264859,"current_range_meters":30400,"station_id":"ce4bhs92rcd13ifvqi0g","pricing_plan_id":"free"},{"bike_id":"e80d7b18-9c5b-40f4-bae5-9045a00d6380","system_id":"levelo_inurba_marseille","lat":43.29707,"lon":5.3661,"is_reserved":false,"is_disabled":false,"rental_uris":{"android":"levelo://app?vid=e80d7b18-9c5b-40f4-bae5-9045a00d6380","ios":"levelo://app?vid=e80d7b18-9c5b-40f4-bae5-9045a00d6380"},"vehicle_type_id":"4","last_reported":1685264859,"current_range_meters":23600,"station_id":"","pricing_plan_id":"free"},{"bike_id":"8103aa47-d6da-4c6e-aac1-ec73662f6ed8","system_id":"levelo_inurba_marseille","lat":43.2983,"lon":5.37662,"is_reserved":false,"is_disabled":false,"rental_uris":{"android":"levelo://app?vid=8103aa47-d6da-4c6e-aac1-ec73662f6ed8","ios":"levelo://app?vid=8103aa47-d6da-4c6e-aac1-ec73662f6ed8"},"vehicle_type_id":"4","last_reported":1685264859,"current_range_meters":25200,"station_id":"","pricing_plan_id":"free"},{"bike_id":"7916ffbc-9832-4539-a760-44070c8ec57e","system_id":"levelo_inurba_marseille","lat":43.29986,"lon":5.38066,"is_reserved":false,"is_disabled":false,"rental_uris":{"android":"levelo://app?vid=7916ffbc-9832-4539-a760-44070c8ec57e","ios":"levelo://app?vid=7916ffbc-9832-4539-a760-44070c8ec57e"},"vehicle_type_id":"4","last_reported":1685264859,"current_range_meters":18400,"station_id":"","pricing_plan_id":"free"},{"bike_id":"06f43d6e-c05c-4e86-b0f6-aec7b3bc9e46","system_id":"levelo_inurba_marseille","lat":43.296129,"lon":5.370777,"is_reserved":false,"is_disabled":false,"rental_uris":{"android":"levelo://app?vid=06f43d6e-c05c-4e86-b0f6-aec7b3bc9e46","ios":"levelo://app?vid=06f43d6e-c05c-4e86-b0f6-aec7b3bc9e46"},"vehicle_type_id":"4","last_reported":1685264859,"current_range_meters":26000,"station_id":"ce4bgnh2rcd13ifvqc0g","pricing_plan_id":"free"},{"bike_id":"01406dfb-1736-43a6-ab9a-1c8a6da00b1b","system_id":"levelo_inurba_marseille","lat":43.29573,"lon":5.367355,"is_reserved":false,"is_disabled":false,"rental_uris":{"android":"levelo://app?vid=01406dfb-1736-43a6-ab9a-1c8a6da00b1b","ios":"levelo://app?vid=01406dfb-1736-43a6-ab9a-1c8a6da00b1b"},"vehicle_type_id":"4","last_reported":1685264859,"current_range_meters":22400,"station_id":"ce4bgph2rcd13ifvqc2g","pricing_plan_id":"free"},{"bike_id":"66ce9715-6e4f-44ea-ae0e-1fe54de318f1","system_id":"levelo_inurba_marseille","lat":43.29573,"lon":5.367355,"is_reserved":false,"is_disabled":false,"rental_uris":{"android":"levelo://app?vid=66ce9715-6e4f-44ea-ae0e-1fe54de318f1","ios":"levelo://app?vid=66ce9715-6e4f-44ea-ae0e-1fe54de318f1"},"vehicle_type_id":"4","last_reported":1685264859,"current_range_meters":7600,"station_id":"ce4bgph2rcd13ifvqc2g","pricing_plan_id":"free"},{"bike_id":"724f5968-2c8a-41f6-b832-d8327f2f45d4","system_id":"levelo_inurba_marseille","lat":43.299028,"lon":5.381509,"is_reserved":false,"is_disabled":false,"rental_uris":{"android":"levelo://app?vid=724f5968-2c8a-41f6-b832-d8327f2f45d4","ios":"levelo://app?vid=724f5968-2c8a-41f6-b832-d8327f2f45d4"},"vehicle_type_id":"4","last_reported":1685264859,"current_range_meters":14000,"station_id":"ce4bgj12rcd13ifvqbc0","pricing_plan_id":"free"},{"bike_id":"b705ad2a-0f73-43e9-be58-9e982f9c87d7","system_id":"levelo_inurba_marseille","lat":43.3002,"lon":5.38341,"is_reserved":false,"is_disabled":false,"rental_uris":{"android":"levelo://app?vid=b705ad2a-0f73-43e9-be58-9e982f9c87d7","ios":"levelo://app?vid=b705ad2a-0f73-43e9-be58-9e982f9c87d7"},"vehicle_type_id":"4","last_reported":1685264859,"current_range_meters":24400,"station_id":"","pricing_plan_id":"free"},{"bike_id":"c7b85c1d-a9c3-45b0-9765-f7c724ab54ad","system_id":"levelo_inurba_marseille","lat":43.29777,"lon":5.3792,"is_reserved":false,"is_disabled":false,"rental_uris":{"android":"levelo://app?vid=c7b85c1d-a9c3-45b0-9765-f7c724ab54ad","ios":"levelo://app?vid=c7b85c1d-a9c3-45b0-9765-f7c724ab54ad"},"vehicle_type_id":"4","last_reported":1685264859,"current_range_meters":18000,"station_id":"","pricing_plan_id":"free"},{"bike_id":"9a190795-f5be-424d-8d88-4775051b9a13","system_id":"levelo_inurba_marseille","lat":43.317557,"lon":5.390173,"is_reserved":false,"is_disabled":false,"rental_uris":{"android":"levelo://app?vid=9a190795-f5be-424d-8d88-4775051b9a13","ios":"levelo://app?vid=9a190795-f5be-424d-8d88-4775051b9a13"},"vehicle_type_id":"4","last_reported":1685264859,"current_range_meters":28800,"station_id":"ce4bhqp2rcd13ifvqhng","pricing_plan_id":"free"},{"bike_id":"07d39223-bfef-4427-a58e-1dee2604ead2","system_id":"levelo_inurba_marseille","lat":43.295748,"lon":5.37522,"is_reserved":false,"is_disabled":false,"rental_uris":{"android":"levelo://app?vid=07d39223-bfef-4427-a58e-1dee2604ead2","ios":"levelo://app?vid=07d39223-bfef-4427-a58e-1dee2604ead2"},"vehicle_type_id":"4","last_reported":1685264859,"current_range_meters":5200,"station_id":"ce4bgh92rcd13ifvqb50","pricing_plan_id":"free"},{"bike_id":"9f2b89f8-2282-4914-9695-d4f063ef2d74","system_id":"levelo_inurba_marseille","lat":43.297846,"lon":5.380947,"is_reserved":false,"is_disabled":false,"rental_uris":{"android":"levelo://app?vid=9f2b89f8-2282-4914-9695-d4f063ef2d74","ios":"levelo://app?vid=9f2b89f8-2282-4914-9695-d4f063ef2d74"},"vehicle_type_id":"4","last_reported":1685264859,"current_range_meters":15600,"station_id":"","pricing_plan_id":"free"},{"bike_id":"d551fb24-203b-4f79-bb90-99646e685e77","system_id":"levelo_inurba_marseille","lat":43.29515,"lon":5.37491,"is_reserved":false,"is_disabled":false,"rental_uris":{"android":"levelo://app?vid=d551fb24-203b-4f79-bb90-99646e685e77","ios":"levelo://app?vid=d551fb24-203b-4f79-bb90-99646e685e77"},"vehicle_type_id":"4","last_reported":1685264859,"current_range_meters":14400,"station_id":"ce4bgkp2rcd13ifvqbmg","pricing_plan_id":"free"},{"bike_id":"f95c4173-c39b-4e8b-8e49-e0b5693b0874","system_id":"levelo_inurba_marseille","lat":43.295279,"lon":5.375048,"is_reserved":false,"is_disabled":false,"rental_uris":{"android":"levelo://app?vid=f95c4173-c39b-4e8b-8e49-e0b5693b0874","ios":"levelo://app?vid=f95c4173-c39b-4e8b-8e49-e0b5693b0874"},"vehicle_type_id":"4","last_reported":1685264859,"current_range_meters":21600,"station_id":"ce4bgkp2rcd13ifvqbmg","pricing_plan_id":"free"},{"bike_id":"e3a8fce7-8b0c-4dfb-906f-45703cc11779","system_id":"levelo_inurba_marseille","lat":43.29308,"lon":5.37158,"is_reserved":false,"is_disabled":false,"rental_uris":{"android":"levelo://app?vid=e3a8fce7-8b0c-4dfb-906f-45703cc11779","ios":"levelo://app?vid=e3a8fce7-8b0c-4dfb-906f-45703cc11779"},"vehicle_type_id":"4","last_reported":1685264859,"current_range_meters":28400,"station_id":"ce4bgh92rcd13ifvqb40","pricing_plan_id":"free"},{"bike_id":"b9167796-bda2-4b18-95c1-1f8d7ad554b2","system_id":"levelo_inurba_marseille","lat":43.29304,"lon":5.37182,"is_reserved":false,"is_disabled":false,"rental_uris":{"android":"levelo://app?vid=b9167796-bda2-4b18-95c1-1f8d7ad554b2","ios":"levelo://app?vid=b9167796-bda2-4b18-95c1-1f8d7ad554b2"},"vehicle_type_id":"4","last_reported":1685264859,"current_range_meters":18400,"station_id":"","pricing_plan_id":"free"},{"bike_id":"cb290b33-141f-4706-81da-8b850256ee20","system_id":"levelo_inurba_marseille","lat":43.292749,"lon":5.368398,"is_reserved":false,"is_disabled":false,"rental_uris":{"android":"levelo://app?vid=cb290b33-141f-4706-81da-8b850256ee20","ios":"levelo://app?vid=cb290b33-141f-4706-81da-8b850256ee20"},"vehicle_type_id":"4","last_reported":1685264859,"current_range_meters":26400,"station_id":"ce4bhbp2rcd13ifvqesg","pricing_plan_id":"free"},{"bike_id":"9dea2b4d-9975-4359-9ca7-f4bbbd85b63f","system_id":"levelo_inurba_marseille","lat":43.29273,"lon":5.36848,"is_reserved":false,"is_disabled":false,"rental_uris":{"android":"levelo://app?vid=9dea2b4d-9975-4359-9ca7-f4bbbd85b63f","ios":"levelo://app?vid=9dea2b4d-9975-4359-9ca7-f4bbbd85b63f"},"vehicle_type_id":"4","last_reported":1685264859,"current_range_meters":24000,"station_id":"ce4bhbp2rcd13ifvqesg","pricing_plan_id":"free"},{"bike_id":"04870c0d-a538-413f-b2af-6729ec9d421e","system_id":"levelo_inurba_marseille","lat":43.292749,"lon":5.368402,"is_reserved":false,"is_disabled":false,"rental_uris":{"android":"levelo://app?vid=04870c0d-a538-413f-b2af-6729ec9d421e","ios":"levelo://app?vid=04870c0d-a538-413f-b2af-6729ec9d421e"},"vehicle_type_id":"4","last_reported":1685264859,"current_range_meters":5200,"station_id":"ce4bhbp2rcd13ifvqesg","pricing_plan_id":"free"},{"bike_id":"df03c25b-6a68-40b3-8aa6-90000e98e512","system_id":"levelo_inurba_marseille","lat":43.305792,"lon":5.393162,"is_reserved":false,"is_disabled":false,"rental_uris":{"android":"levelo://app?vid=df03c25b-6a68-40b3-8aa6-90000e98e512","ios":"levelo://app?vid=df03c25b-6a68-40b3-8aa6-90000e98e512"},"vehicle_type_id":"4","last_reported":1685264859,"current_range_meters":5600,"station_id":"ce4bhap2rcd13ifvqek0","pricing_plan_id":"free"},{"bike_id":"d34fe5b6-ccf0-4263-8428-35feee484d35","system_id":"levelo_inurba_marseille","lat":43.292311,"lon":5.360731,"is_reserved":false,"is_disabled":false,"rental_uris":{"android":"levelo://app?vid=d34fe5b6-ccf0-4263-8428-35feee484d35","ios":"levelo://app?vid=d34fe5b6-ccf0-4263-8428-35feee484d35"},"vehicle_type_id":"4","last_reported":1685264859,"current_range_meters":22400,"station_id":"ce4bhbh2rcd13ifvqeqg","pricing_plan_id":"free"},{"bike_id":"0aa1f2e9-942d-453d-ba51-4edf1990b49d","system_id":"levelo_inurba_marseille","lat":43.292311,"lon":5.360731,"is_reserved":false,"is_disabled":false,"rental_uris":{"android":"levelo://app?vid=0aa1f2e9-942d-453d-ba51-4edf1990b49d","ios":"levelo://app?vid=0aa1f2e9-942d-453d-ba51-4edf1990b49d"},"vehicle_type_id":"4","last_reported":1685264859,"current_range_meters":27600,"station_id":"ce4bhbh2rcd13ifvqeqg","pricing_plan_id":"free"},{"bike_id":"3bf80789-96b3-4f92-9957-85aa522b32b2","system_id":"levelo_inurba_marseille","lat":43.298764,"lon":5.388973,"is_reserved":false,"is_disabled":false,"rental_uris":{"android":"levelo://app?vid=3bf80789-96b3-4f92-9957-85aa522b32b2","ios":"levelo://app?vid=3bf80789-96b3-4f92-9957-85aa522b32b2"},"vehicle_type_id":"4","last_reported":1685264859,"current_range_meters":0,"station_id":"ce4bh392rcd13ifvqdl0","pricing_plan_id":"free"},{"bike_id":"605dd0ba-0ebd-4a93-9b66-76347f625faf","system_id":"levelo_inurba_marseille","lat":43.291994,"lon":5.357886,"is_reserved":false,"is_disabled":false,"rental_uris":{"android":"levelo://app?vid=605dd0ba-0ebd-4a93-9b66-76347f625faf","ios":"levelo://app?vid=605dd0ba-0ebd-4a93-9b66-76347f625faf"},"vehicle_type_id":"4","last_reported":1685264859,"current_range_meters":30800,"station_id":"ce4bhb12rcd13ifvqel0","pricing_plan_id":"free"},{"bike_id":"628a22af-8b24-4c9b-8e44-894a9afb70a3","system_id":"levelo_inurba_marseille","lat":43.291994,"lon":5.357886,"is_reserved":false,"is_disabled":false,"rental_uris":{"android":"levelo://app?vid=628a22af-8b24-4c9b-8e44-894a9afb70a3","ios":"levelo://app?vid=628a22af-8b24-4c9b-8e44-894a9afb70a3"},"vehicle_type_id":"4","last_reported":1685264859,"current_range_meters":20000,"station_id":"ce4bhb12rcd13ifvqel0","pricing_plan_id":"free"},{"bike_id":"e50de379-ba55-481a-937b-8e057d132f69","system_id":"levelo_inurba_marseille","lat":43.291947,"lon":5.357839,"is_reserved":false,"is_disabled":false,"rental_uris":{"android":"levelo://app?vid=e50de379-ba55-481a-937b-8e057d132f69","ios":"levelo://app?vid=e50de379-ba55-481a-937b-8e057d132f69"},"vehicle_type_id":"4","last_reported":1685264859,"current_range_meters":14800,"station_id":"ce4bh9p2rcd13ifvqec0","pricing_plan_id":"free"},{"bike_id":"c5bd5c16-86f6-4d4f-bd1a-cf24ef82ec57","system_id":"levelo_inurba_marseille","lat":43.291994,"lon":5.357886,"is_reserved":false,"is_disabled":false,"rental_uris":{"android":"levelo://app?vid=c5bd5c16-86f6-4d4f-bd1a-cf24ef82ec57","ios":"levelo://app?vid=c5bd5c16-86f6-4d4f-bd1a-cf24ef82ec57"},"vehicle_type_id":"4","last_reported":1685264859,"current_range_meters":26800,"station_id":"ce4bhb12rcd13ifvqel0","pricing_plan_id":"free"},{"bike_id":"acc27b2a-602e-4194-8faf-b46172d47f55","system_id":"levelo_inurba_marseille","lat":43.309038,"lon":5.396546,"is_reserved":false,"is_disabled":false,"rental_uris":{"android":"levelo://app?vid=acc27b2a-602e-4194-8faf-b46172d47f55","ios":"levelo://app?vid=acc27b2a-602e-4194-8faf-b46172d47f55"},"vehicle_type_id":"4","last_reported":1685264859,"current_range_meters":10000,"station_id":"ce4bh012rcd13ifvqcv0","pricing_plan_id":"free"},{"bike_id":"7b0c7c7e-e0f3-4ee9-9dad-ee5e99380c9a","system_id":"levelo_inurba_marseille","lat":43.309038,"lon":5.396546,"is_reserved":false,"is_disabled":false,"rental_uris":{"android":"levelo://app?vid=7b0c7c7e-e0f3-4ee9-9dad-ee5e99380c9a","ios":"levelo://app?vid=7b0c7c7e-e0f3-4ee9-9dad-ee5e99380c9a"},"vehicle_type_id":"4","last_reported":1685264859,"current_range_meters":7200,"station_id":"ce4bh012rcd13ifvqcv0","pricing_plan_id":"free"},{"bike_id":"3d4f3e62-609d-4631-9ec7-3f0cc7eca0d0","system_id":"levelo_inurba_marseille","lat":43.313291,"lon":5.396838,"is_reserved":false,"is_disabled":false,"rental_uris":{"android":"levelo://app?vid=3d4f3e62-609d-4631-9ec7-3f0cc7eca0d0","ios":"levelo://app?vid=3d4f3e62-609d-4631-9ec7-3f0cc7eca0d0"},"vehicle_type_id":"4","last_reported":1685264859,"current_range_meters":29600,"station_id":"ce4bgvp2rcd13ifvqcu0","pricing_plan_id":"free"},{"bike_id":"21ae9f28-a7ed-4d67-98bb-b843cfbc0c99","system_id":"levelo_inurba_marseille","lat":43.309038,"lon":5.396546,"is_reserved":false,"is_disabled":false,"rental_uris":{"android":"levelo://app?vid=21ae9f28-a7ed-4d67-98bb-b843cfbc0c99","ios":"levelo://app?vid=21ae9f28-a7ed-4d67-98bb-b843cfbc0c99"},"vehicle_type_id":"4","last_reported":1685264859,"current_range_meters":24000,"station_id":"ce4bh012rcd13ifvqcv0","pricing_plan_id":"free"},{"bike_id":"3c4ff0cb-9967-4dee-95aa-bc28a56dcb01","system_id":"levelo_inurba_marseille","lat":43.309038,"lon":5.396546,"is_reserved":false,"is_disabled":false,"rental_uris":{"android":"levelo://app?vid=3c4ff0cb-9967-4dee-95aa-bc28a56dcb01","ios":"levelo://app?vid=3c4ff0cb-9967-4dee-95aa-bc28a56dcb01"},"vehicle_type_id":"4","last_reported":1685264859,"current_range_meters":22800,"station_id":"ce4bh012rcd13ifvqcv0","pricing_plan_id":"free"},{"bike_id":"a8138d14-3b9c-4074-ba41-eb93d95ab4c2","system_id":"levelo_inurba_marseille","lat":43.289184,"lon":5.366408,"is_reserved":false,"is_disabled":false,"rental_uris":{"android":"levelo://app?vid=a8138d14-3b9c-4074-ba41-eb93d95ab4c2","ios":"levelo://app?vid=a8138d14-3b9c-4074-ba41-eb93d95ab4c2"},"vehicle_type_id":"4","last_reported":1685264859,"current_range_meters":26000,"station_id":"ce4bhap2rcd13ifvqek0","pricing_plan_id":"free"},{"bike_id":"17c5c9c0-732c-4401-bb2e-c3ad2c0feb96","system_id":"levelo_inurba_marseille","lat":43.289184,"lon":5.366408,"is_reserved":false,"is_disabled":false,"rental_uris":{"android":"levelo://app?vid=17c5c9c0-732c-4401-bb2e-c3ad2c0feb96","ios":"levelo://app?vid=17c5c9c0-732c-4401-bb2e-c3ad2c0feb96"},"vehicle_type_id":"4","last_reported":1685264859,"current_range_meters":4000,"station_id":"ce4bhap2rcd13ifvqek0","pricing_plan_id":"free"},{"bike_id":"d08c8f20-2b77-4287-8a57-fba1c67fb3e4","system_id":"levelo_inurba_marseille","lat":43.289184,"lon":5.366408,"is_reserved":false,"is_disabled":false,"rental_uris":{"android":"levelo://app?vid=d08c8f20-2b77-4287-8a57-fba1c67fb3e4","ios":"levelo://app?vid=d08c8f20-2b77-4287-8a57-fba1c67fb3e4"},"vehicle_type_id":"4","last_reported":1685264859,"current_range_meters":28400,"station_id":"ce4bhap2rcd13ifvqek0","pricing_plan_id":"free"},{"bike_id":"3fcf14dc-edfb-48e6-af5e-5b1190c085a0","system_id":"levelo_inurba_marseille","lat":43.289468,"lon":5.363719,"is_reserved":false,"is_disabled":false,"rental_uris":{"android":"levelo://app?vid=3fcf14dc-edfb-48e6-af5e-5b1190c085a0","ios":"levelo://app?vid=3fcf14dc-edfb-48e6-af5e-5b1190c085a0"},"vehicle_type_id":"4","last_reported":1685264859,"current_range_meters":31200,"station_id":"ce4bhc92rcd13ifvqetg","pricing_plan_id":"free"},{"bike_id":"b39117d2-dee5-4098-a056-b7b9644629bc","system_id":"levelo_inurba_marseille","lat":43.290103,"lon":5.356114,"is_reserved":false,"is_disabled":false,"rental_uris":{"android":"levelo://app?vid=b39117d2-dee5-4098-a056-b7b9644629bc","ios":"levelo://app?vid=b39117d2-dee5-4098-a056-b7b9644629bc"},"vehicle_type_id":"4","last_reported":1685264859,"current_range_meters":30400,"station_id":"ce4bhb92rcd13ifvqen0","pricing_plan_id":"free"},{"bike_id":"9d10140c-3a48-4bb3-b44a-8a8e3a8b5efc","system_id":"levelo_inurba_marseille","lat":43.30908,"lon":5.39921,"is_reserved":false,"is_disabled":false,"rental_uris":{"android":"levelo://app?vid=9d10140c-3a48-4bb3-b44a-8a8e3a8b5efc","ios":"levelo://app?vid=9d10140c-3a48-4bb3-b44a-8a8e3a8b5efc"},"vehicle_type_id":"4","last_reported":1685264859,"current_range_meters":4800,"station_id":"","pricing_plan_id":"free"},{"bike_id":"e7e4ba52-f11e-4f66-9f72-b9634939c652","system_id":"levelo_inurba_marseille","lat":43.33045,"lon":5.38913,"is_reserved":false,"is_disabled":false,"rental_uris":{"android":"levelo://app?vid=e7e4ba52-f11e-4f66-9f72-b9634939c652","ios":"levelo://app?vid=e7e4ba52-f11e-4f66-9f72-b9634939c652"},"vehicle_type_id":"4","last_reported":1685264859,"current_range_meters":26800,"station_id":"ce4bhr92rcd13ifvqhrg","pricing_plan_id":"free"},{"bike_id":"9066f51d-658c-4b8b-958e-67612e466076","system_id":"levelo_inurba_marseille","lat":43.33044,"lon":5.38916,"is_reserved":false,"is_disabled":false,"rental_uris":{"android":"levelo://app?vid=9066f51d-658c-4b8b-958e-67612e466076","ios":"levelo://app?vid=9066f51d-658c-4b8b-958e-67612e466076"},"vehicle_type_id":"4","last_reported":1685264859,"current_range_meters":18800,"station_id":"ce4bhr92rcd13ifvqhrg","pricing_plan_id":"free"},{"bike_id":"10e2dbdc-ed04-416a-a105-004dda4fdcc6","system_id":"levelo_inurba_marseille","lat":43.33046,"lon":5.38913,"is_reserved":false,"is_disabled":false,"rental_uris":{"android":"levelo://app?vid=10e2dbdc-ed04-416a-a105-004dda4fdcc6","ios":"levelo://app?vid=10e2dbdc-ed04-416a-a105-004dda4fdcc6"},"vehicle_type_id":"4","last_reported":1685264859,"current_range_meters":4800,"station_id":"ce4bhr92rcd13ifvqhrg","pricing_plan_id":"free"},{"bike_id":"8a768727-8717-4f3d-939e-e8d176eb05d5","system_id":"levelo_inurba_marseille","lat":43.290103,"lon":5.356114,"is_reserved":false,"is_disabled":false,"rental_uris":{"android":"levelo://app?vid=8a768727-8717-4f3d-939e-e8d176eb05d5","ios":"levelo://app?vid=8a768727-8717-4f3d-939e-e8d176eb05d5"},"vehicle_type_id":"4","last_reported":1685264859,"current_range_meters":22400,"station_id":"ce4bhb92rcd13ifvqen0","pricing_plan_id":"free"},{"bike_id":"2d759238-5a21-4e82-8654-0cc832487615","system_id":"levelo_inurba_marseille","lat":43.290104,"lon":5.356111,"is_reserved":false,"is_disabled":false,"rental_uris":{"android":"levelo://app?vid=2d759238-5a21-4e82-8654-0cc832487615","ios":"levelo://app?vid=2d759238-5a21-4e82-8654-0cc832487615"},"vehicle_type_id":"4","last_reported":1685264859,"current_range_meters":30400,"station_id":"ce4bhb92rcd13ifvqen0","pricing_plan_id":"free"},{"bike_id":"2a5ae49f-eb89-4f9c-a2a8-66cb87438e34","system_id":"levelo_inurba_marseille","lat":43.29005,"lon":5.35609,"is_reserved":false,"is_disabled":false,"rental_uris":{"android":"levelo://app?vid=2a5ae49f-eb89-4f9c-a2a8-66cb87438e34","ios":"levelo://app?vid=2a5ae49f-eb89-4f9c-a2a8-66cb87438e34"},"vehicle_type_id":"4","last_reported":1685264859,"current_range_meters":30000,"station_id":"ce4bhb92rcd13ifvqen0","pricing_plan_id":"free"},{"bike_id":"a5b872a2-848c-48c8-bebb-236626597d7f","system_id":"levelo_inurba_marseille","lat":43.33055,"lon":5.38909,"is_reserved":false,"is_disabled":false,"rental_uris":{"android":"levelo://app?vid=a5b872a2-848c-48c8-bebb-236626597d7f","ios":"levelo://app?vid=a5b872a2-848c-48c8-bebb-236626597d7f"},"vehicle_type_id":"4","last_reported":1685264859,"current_range_meters":0,"station_id":"ce4bhr92rcd13ifvqhrg","pricing_plan_id":"free"},{"bike_id":"1a10dc17-b616-4bbf-a273-dd1fd9f98233","system_id":"levelo_inurba_marseille","lat":43.29006,"lon":5.35601,"is_reserved":false,"is_disabled":false,"rental_uris":{"android":"levelo://app?vid=1a10dc17-b616-4bbf-a273-dd1fd9f98233","ios":"levelo://app?vid=1a10dc17-b616-4bbf-a273-dd1fd9f98233"},"vehicle_type_id":"4","last_reported":1685264859,"current_range_meters":23600,"station_id":"ce4bhb92rcd13ifvqen0","pricing_plan_id":"free"},{"bike_id":"8dff21f2-1a4b-44e4-b147-8eb898ffcd0f","system_id":"levelo_inurba_marseille","lat":43.290104,"lon":5.356111,"is_reserved":false,"is_disabled":false,"rental_uris":{"android":"levelo://app?vid=8dff21f2-1a4b-44e4-b147-8eb898ffcd0f","ios":"levelo://app?vid=8dff21f2-1a4b-44e4-b147-8eb898ffcd0f"},"vehicle_type_id":"4","last_reported":1685264859,"current_range_meters":27600,"station_id":"ce4bhb92rcd13ifvqen0","pricing_plan_id":"free"},{"bike_id":"c33dc78d-713d-45c8-98c0-10452768e466","system_id":"levelo_inurba_marseille","lat":43.290104,"lon":5.356111,"is_reserved":false,"is_disabled":false,"rental_uris":{"android":"levelo://app?vid=c33dc78d-713d-45c8-98c0-10452768e466","ios":"levelo://app?vid=c33dc78d-713d-45c8-98c0-10452768e466"},"vehicle_type_id":"4","last_reported":1685264859,"current_range_meters":31600,"station_id":"ce4bhb92rcd13ifvqen0","pricing_plan_id":"free"},{"bike_id":"db4d7cc8-6d2f-4e11-9b70-ddbe55020cc2","system_id":"levelo_inurba_marseille","lat":43.29001,"lon":5.35598,"is_reserved":false,"is_disabled":false,"rental_uris":{"android":"levelo://app?vid=db4d7cc8-6d2f-4e11-9b70-ddbe55020cc2","ios":"levelo://app?vid=db4d7cc8-6d2f-4e11-9b70-ddbe55020cc2"},"vehicle_type_id":"4","last_reported":1685264859,"current_range_meters":31200,"station_id":"ce4bhb92rcd13ifvqen0","pricing_plan_id":"free"},{"bike_id":"7c3ab663-4dd0-40c3-8e28-f5767c02ba13","system_id":"levelo_inurba_marseille","lat":43.290103,"lon":5.356114,"is_reserved":false,"is_disabled":false,"rental_uris":{"android":"levelo://app?vid=7c3ab663-4dd0-40c3-8e28-f5767c02ba13","ios":"levelo://app?vid=7c3ab663-4dd0-40c3-8e28-f5767c02ba13"},"vehicle_type_id":"4","last_reported":1685264859,"current_range_meters":31200,"station_id":"ce4bhb92rcd13ifvqen0","pricing_plan_id":"free"},{"bike_id":"4d5f94e9-ec95-4c97-baa6-ec2890691057","system_id":"levelo_inurba_marseille","lat":43.28897,"lon":5.37623,"is_reserved":false,"is_disabled":false,"rental_uris":{"android":"levelo://app?vid=4d5f94e9-ec95-4c97-baa6-ec2890691057","ios":"levelo://app?vid=4d5f94e9-ec95-4c97-baa6-ec2890691057"},"vehicle_type_id":"4","last_reported":1685264859,"current_range_meters":0,"station_id":"","pricing_plan_id":"free"},{"bike_id":"a0c5d13c-ccf3-4129-8937-a0819f7f5de5","system_id":"levelo_inurba_marseille","lat":43.2901,"lon":5.381269,"is_reserved":false,"is_disabled":false,"rental_uris":{"android":"levelo://app?vid=a0c5d13c-ccf3-4129-8937-a0819f7f5de5","ios":"levelo://app?vid=a0c5d13c-ccf3-4129-8937-a0819f7f5de5"},"vehicle_type_id":"4","last_reported":1685264859,"current_range_meters":30400,"station_id":"ce4bh4p2rcd13ifvqe1g","pricing_plan_id":"free"},{"bike_id":"f5d9054c-c165-4cc3-aae0-d46dcf9a22d8","system_id":"levelo_inurba_marseille","lat":43.28856,"lon":5.358371,"is_reserved":false,"is_disabled":false,"rental_uris":{"android":"levelo://app?vid=f5d9054c-c165-4cc3-aae0-d46dcf9a22d8","ios":"levelo://app?vid=f5d9054c-c165-4cc3-aae0-d46dcf9a22d8"},"vehicle_type_id":"4","last_reported":1685264859,"current_range_meters":31200,"station_id":"ce4bhb12rcd13ifvqem0","pricing_plan_id":"free"},{"bike_id":"4d395139-b839-4ab0-8519-abb908308d08","system_id":"levelo_inurba_marseille","lat":43.33737,"lon":5.37449,"is_reserved":false,"is_disabled":false,"rental_uris":{"android":"levelo://app?vid=4d395139-b839-4ab0-8519-abb908308d08","ios":"levelo://app?vid=4d395139-b839-4ab0-8519-abb908308d08"},"vehicle_type_id":"4","last_reported":1685264859,"current_range_meters":30400,"station_id":"","pricing_plan_id":"free"},{"bike_id":"c67b547c-3fcb-4384-8614-e15f558fec55","system_id":"levelo_inurba_marseille","lat":43.33744,"lon":5.37451,"is_reserved":false,"is_disabled":false,"rental_uris":{"android":"levelo://app?vid=c67b547c-3fcb-4384-8614-e15f558fec55","ios":"levelo://app?vid=c67b547c-3fcb-4384-8614-e15f558fec55"},"vehicle_type_id":"4","last_reported":1685264859,"current_range_meters":28000,"station_id":"","pricing_plan_id":"free"},{"bike_id":"493860ce-e063-4684-ab33-c360eaf64153","system_id":"levelo_inurba_marseille","lat":43.33744,"lon":5.37451,"is_reserved":false,"is_disabled":false,"rental_uris":{"android":"levelo://app?vid=493860ce-e063-4684-ab33-c360eaf64153","ios":"levelo://app?vid=493860ce-e063-4684-ab33-c360eaf64153"},"vehicle_type_id":"4","last_reported":1685264859,"current_range_meters":18800,"station_id":"","pricing_plan_id":"free"},{"bike_id":"556c6db1-2600-4c2b-9521-aae8453517c1","system_id":"levelo_inurba_marseille","lat":43.3375,"lon":5.37431,"is_reserved":false,"is_disabled":false,"rental_uris":{"android":"levelo://app?vid=556c6db1-2600-4c2b-9521-aae8453517c1","ios":"levelo://app?vid=556c6db1-2600-4c2b-9521-aae8453517c1"},"vehicle_type_id":"4","last_reported":1685264859,"current_range_meters":14800,"station_id":"","pricing_plan_id":"free"},{"bike_id":"21bebb90-bd37-4351-9ead-f26273aea005","system_id":"levelo_inurba_marseille","lat":43.33751,"lon":5.3743,"is_reserved":false,"is_disabled":false,"rental_uris":{"android":"levelo://app?vid=21bebb90-bd37-4351-9ead-f26273aea005","ios":"levelo://app?vid=21bebb90-bd37-4351-9ead-f26273aea005"},"vehicle_type_id":"4","last_reported":1685264859,"current_range_meters":12000,"station_id":"","pricing_plan_id":"free"},{"bike_id":"141c14ea-594b-43ee-894e-8c44af1dcd73","system_id":"levelo_inurba_marseille","lat":43.3375,"lon":5.37451,"is_reserved":false,"is_disabled":false,"rental_uris":{"android":"levelo://app?vid=141c14ea-594b-43ee-894e-8c44af1dcd73","ios":"levelo://app?vid=141c14ea-594b-43ee-894e-8c44af1dcd73"},"vehicle_type_id":"4","last_reported":1685264859,"current_range_meters":8400,"station_id":"","pricing_plan_id":"free"},{"bike_id":"3737be90-e0be-4506-9329-96f37b2e7d6e","system_id":"levelo_inurba_marseille","lat":43.337492,"lon":5.374824,"is_reserved":false,"is_disabled":false,"rental_uris":{"android":"levelo://app?vid=3737be90-e0be-4506-9329-96f37b2e7d6e","ios":"levelo://app?vid=3737be90-e0be-4506-9329-96f37b2e7d6e"},"vehicle_type_id":"4","last_reported":1685264859,"current_range_meters":22800,"station_id":"","pricing_plan_id":"free"},{"bike_id":"5aaf445f-f097-4041-99e9-0b2edc8a39b1","system_id":"levelo_inurba_marseille","lat":43.33758,"lon":5.37435,"is_reserved":false,"is_disabled":false,"rental_uris":{"android":"levelo://app?vid=5aaf445f-f097-4041-99e9-0b2edc8a39b1","ios":"levelo://app?vid=5aaf445f-f097-4041-99e9-0b2edc8a39b1"},"vehicle_type_id":"4","last_reported":1685264859,"current_range_meters":21600,"station_id":"","pricing_plan_id":"free"},{"bike_id":"915a1d5d-0a9c-4982-bd00-ae384a29cdde","system_id":"levelo_inurba_marseille","lat":43.33759,"lon":5.37449,"is_reserved":false,"is_disabled":false,"rental_uris":{"android":"levelo://app?vid=915a1d5d-0a9c-4982-bd00-ae384a29cdde","ios":"levelo://app?vid=915a1d5d-0a9c-4982-bd00-ae384a29cdde"},"vehicle_type_id":"4","last_reported":1685264859,"current_range_meters":31200,"station_id":"","pricing_plan_id":"free"},{"bike_id":"bb3c90e7-cf93-4d15-8128-febdcb13bbd5","system_id":"levelo_inurba_marseille","lat":43.30653,"lon":5.40101,"is_reserved":false,"is_disabled":false,"rental_uris":{"android":"levelo://app?vid=bb3c90e7-cf93-4d15-8128-febdcb13bbd5","ios":"levelo://app?vid=bb3c90e7-cf93-4d15-8128-febdcb13bbd5"},"vehicle_type_id":"4","last_reported":1685264859,"current_range_meters":16800,"station_id":"ce4bh112rcd13ifvqda0","pricing_plan_id":"free"},{"bike_id":"b94d0407-017d-4568-a563-f07b6b2c5ce8","system_id":"levelo_inurba_marseille","lat":43.301117,"lon":5.398795,"is_reserved":false,"is_disabled":false,"rental_uris":{"android":"levelo://app?vid=b94d0407-017d-4568-a563-f07b6b2c5ce8","ios":"levelo://app?vid=b94d0407-017d-4568-a563-f07b6b2c5ce8"},"vehicle_type_id":"4","last_reported":1685264859,"current_range_meters":28000,"station_id":"ce4bh0h2rcd13ifvqd40","pricing_plan_id":"free"},{"bike_id":"331d647d-e48c-49a0-8d18-fb4a48782499","system_id":"levelo_inurba_marseille","lat":43.301117,"lon":5.398795,"is_reserved":false,"is_disabled":false,"rental_uris":{"android":"levelo://app?vid=331d647d-e48c-49a0-8d18-fb4a48782499","ios":"levelo://app?vid=331d647d-e48c-49a0-8d18-fb4a48782499"},"vehicle_type_id":"4","last_reported":1685264859,"current_range_meters":31200,"station_id":"ce4bh0h2rcd13ifvqd40","pricing_plan_id":"free"},{"bike_id":"1e3621d2-1134-4803-8244-fda98c680c67","system_id":"levelo_inurba_marseille","lat":43.298681,"lon":5.397225,"is_reserved":false,"is_disabled":false,"rental_uris":{"android":"levelo://app?vid=1e3621d2-1134-4803-8244-fda98c680c67","ios":"levelo://app?vid=1e3621d2-1134-4803-8244-fda98c680c67"},"vehicle_type_id":"4","last_reported":1685264859,"current_range_meters":26000,"station_id":"ce4bh0h2rcd13ifvqd50","pricing_plan_id":"free"},{"bike_id":"f266a68b-2eb0-47f4-ad19-76ef46a53fd7","system_id":"levelo_inurba_marseille","lat":43.298681,"lon":5.397225,"is_reserved":false,"is_disabled":false,"rental_uris":{"android":"levelo://app?vid=f266a68b-2eb0-47f4-ad19-76ef46a53fd7","ios":"levelo://app?vid=f266a68b-2eb0-47f4-ad19-76ef46a53fd7"},"vehicle_type_id":"4","last_reported":1685264859,"current_range_meters":23600,"station_id":"ce4bh0h2rcd13ifvqd50","pricing_plan_id":"free"},{"bike_id":"b7114cc8-3f26-4435-ad54-ada03d1abf99","system_id":"levelo_inurba_marseille","lat":43.302759,"lon":5.400793,"is_reserved":false,"is_disabled":false,"rental_uris":{"android":"levelo://app?vid=b7114cc8-3f26-4435-ad54-ada03d1abf99","ios":"levelo://app?vid=b7114cc8-3f26-4435-ad54-ada03d1abf99"},"vehicle_type_id":"4","last_reported":1685264859,"current_range_meters":22000,"station_id":"ce4bgvh2rcd13ifvqcs0","pricing_plan_id":"free"},{"bike_id":"11a83a28-ae84-4dae-8f25-2b3bbaf8349c","system_id":"levelo_inurba_marseille","lat":43.302759,"lon":5.400793,"is_reserved":false,"is_disabled":false,"rental_uris":{"android":"levelo://app?vid=11a83a28-ae84-4dae-8f25-2b3bbaf8349c","ios":"levelo://app?vid=11a83a28-ae84-4dae-8f25-2b3bbaf8349c"},"vehicle_type_id":"4","last_reported":1685264859,"current_range_meters":31200,"station_id":"ce4bgvh2rcd13ifvqcs0","pricing_plan_id":"free"},{"bike_id":"80847d62-6b6f-4f9b-87c5-4bfb2d0895a2","system_id":"levelo_inurba_marseille","lat":43.302759,"lon":5.400793,"is_reserved":false,"is_disabled":false,"rental_uris":{"android":"levelo://app?vid=80847d62-6b6f-4f9b-87c5-4bfb2d0895a2","ios":"levelo://app?vid=80847d62-6b6f-4f9b-87c5-4bfb2d0895a2"},"vehicle_type_id":"4","last_reported":1685264859,"current_range_meters":24800,"station_id":"ce4bgvh2rcd13ifvqcs0","pricing_plan_id":"free"},{"bike_id":"28935a0c-7cbe-4191-b090-b97d4ea72511","system_id":"levelo_inurba_marseille","lat":43.302759,"lon":5.400793,"is_reserved":false,"is_disabled":false,"rental_uris":{"android":"levelo://app?vid=28935a0c-7cbe-4191-b090-b97d4ea72511","ios":"levelo://app?vid=28935a0c-7cbe-4191-b090-b97d4ea72511"},"vehicle_type_id":"4","last_reported":1685264859,"current_range_meters":31200,"station_id":"ce4bgvh2rcd13ifvqcs0","pricing_plan_id":"free"},{"bike_id":"3e65b725-0120-49a9-bb8b-9589d3b76754","system_id":"levelo_inurba_marseille","lat":43.2903,"lon":5.38637,"is_reserved":false,"is_disabled":false,"rental_uris":{"android":"levelo://app?vid=3e65b725-0120-49a9-bb8b-9589d3b76754","ios":"levelo://app?vid=3e65b725-0120-49a9-bb8b-9589d3b76754"},"vehicle_type_id":"4","last_reported":1685264859,"current_range_meters":0,"station_id":"ce4bh4p2rcd13ifvqe0g","pricing_plan_id":"free"},{"bike_id":"88578dee-e979-49f9-9041-d4442ea75560","system_id":"levelo_inurba_marseille","lat":43.302759,"lon":5.400793,"is_reserved":false,"is_disabled":false,"rental_uris":{"android":"levelo://app?vid=88578dee-e979-49f9-9041-d4442ea75560","ios":"levelo://app?vid=88578dee-e979-49f9-9041-d4442ea75560"},"vehicle_type_id":"4","last_reported":1685264859,"current_range_meters":29200,"station_id":"ce4bgvh2rcd13ifvqcs0","pricing_plan_id":"free"},{"bike_id":"887f4121-9c32-4a20-b65c-a86286346e36","system_id":"levelo_inurba_marseille","lat":43.302759,"lon":5.400793,"is_reserved":false,"is_disabled":false,"rental_uris":{"android":"levelo://app?vid=887f4121-9c32-4a20-b65c-a86286346e36","ios":"levelo://app?vid=887f4121-9c32-4a20-b65c-a86286346e36"},"vehicle_type_id":"4","last_reported":1685264859,"current_range_meters":31200,"station_id":"ce4bgvh2rcd13ifvqcs0","pricing_plan_id":"free"},{"bike_id":"fc2ae944-ecc7-4775-8b08-ebf8a0f1978f","system_id":"levelo_inurba_marseille","lat":43.286039,"lon":5.370681,"is_reserved":false,"is_disabled":false,"rental_uris":{"android":"levelo://app?vid=fc2ae944-ecc7-4775-8b08-ebf8a0f1978f","ios":"levelo://app?vid=fc2ae944-ecc7-4775-8b08-ebf8a0f1978f"},"vehicle_type_id":"4","last_reported":1685264859,"current_range_meters":4000,"station_id":"ce4bht12rcd13ifvqi60","pricing_plan_id":"free"},{"bike_id":"0a0d08dc-2010-4c1c-b6ac-faac4edef7cb","system_id":"levelo_inurba_marseille","lat":43.28609,"lon":5.3706,"is_reserved":false,"is_disabled":false,"rental_uris":{"android":"levelo://app?vid=0a0d08dc-2010-4c1c-b6ac-faac4edef7cb","ios":"levelo://app?vid=0a0d08dc-2010-4c1c-b6ac-faac4edef7cb"},"vehicle_type_id":"4","last_reported":1685264859,"current_range_meters":0,"station_id":"ce4bht12rcd13ifvqi60","pricing_plan_id":"free"},{"bike_id":"1e19ed3c-62c6-4b7a-8418-ebedbd4a7eda","system_id":"levelo_inurba_marseille","lat":43.286039,"lon":5.370681,"is_reserved":false,"is_disabled":false,"rental_uris":{"android":"levelo://app?vid=1e19ed3c-62c6-4b7a-8418-ebedbd4a7eda","ios":"levelo://app?vid=1e19ed3c-62c6-4b7a-8418-ebedbd4a7eda"},"vehicle_type_id":"4","last_reported":1685264859,"current_range_meters":10000,"station_id":"ce4bht12rcd13ifvqi60","pricing_plan_id":"free"},{"bike_id":"653cf66f-9421-4f79-80bb-e6e190b92d7e","system_id":"levelo_inurba_marseille","lat":43.286039,"lon":5.370681,"is_reserved":false,"is_disabled":false,"rental_uris":{"android":"levelo://app?vid=653cf66f-9421-4f79-80bb-e6e190b92d7e","ios":"levelo://app?vid=653cf66f-9421-4f79-80bb-e6e190b92d7e"},"vehicle_type_id":"4","last_reported":1685264859,"current_range_meters":10400,"station_id":"ce4bht12rcd13ifvqi60","pricing_plan_id":"free"},{"bike_id":"f8888cef-5ea6-4b7f-a70d-df038debc7d5","system_id":"levelo_inurba_marseille","lat":43.316517,"lon":5.404375,"is_reserved":false,"is_disabled":false,"rental_uris":{"android":"levelo://app?vid=f8888cef-5ea6-4b7f-a70d-df038debc7d5","ios":"levelo://app?vid=f8888cef-5ea6-4b7f-a70d-df038debc7d5"},"vehicle_type_id":"4","last_reported":1685264859,"current_range_meters":28400,"station_id":"ce4bh012rcd13ifvqd00","pricing_plan_id":"free"},{"bike_id":"a77ff3c6-0e7b-4c50-bd1a-3f3fcd1660a3","system_id":"levelo_inurba_marseille","lat":43.316517,"lon":5.404375,"is_reserved":false,"is_disabled":false,"rental_uris":{"android":"levelo://app?vid=a77ff3c6-0e7b-4c50-bd1a-3f3fcd1660a3","ios":"levelo://app?vid=a77ff3c6-0e7b-4c50-bd1a-3f3fcd1660a3"},"vehicle_type_id":"4","last_reported":1685264859,"current_range_meters":30800,"station_id":"ce4bh012rcd13ifvqd00","pricing_plan_id":"free"},{"bike_id":"5678685e-0842-4c3d-a7da-c497d036454f","system_id":"levelo_inurba_marseille","lat":43.316517,"lon":5.404375,"is_reserved":false,"is_disabled":false,"rental_uris":{"android":"levelo://app?vid=5678685e-0842-4c3d-a7da-c497d036454f","ios":"levelo://app?vid=5678685e-0842-4c3d-a7da-c497d036454f"},"vehicle_type_id":"4","last_reported":1685264859,"current_range_meters":30000,"station_id":"ce4bh012rcd13ifvqd00","pricing_plan_id":"free"},{"bike_id":"caa37214-e65e-4b21-87d1-283a386dabe4","system_id":"levelo_inurba_marseille","lat":43.316517,"lon":5.404375,"is_reserved":false,"is_disabled":false,"rental_uris":{"android":"levelo://app?vid=caa37214-e65e-4b21-87d1-283a386dabe4","ios":"levelo://app?vid=caa37214-e65e-4b21-87d1-283a386dabe4"},"vehicle_type_id":"4","last_reported":1685264859,"current_range_meters":27600,"station_id":"ce4bh012rcd13ifvqd00","pricing_plan_id":"free"},{"bike_id":"8c0a4fd9-221e-41a4-aef4-c00d2755dbd5","system_id":"levelo_inurba_marseille","lat":43.316517,"lon":5.404375,"is_reserved":false,"is_disabled":false,"rental_uris":{"android":"levelo://app?vid=8c0a4fd9-221e-41a4-aef4-c00d2755dbd5","ios":"levelo://app?vid=8c0a4fd9-221e-41a4-aef4-c00d2755dbd5"},"vehicle_type_id":"4","last_reported":1685264859,"current_range_meters":22800,"station_id":"ce4bh012rcd13ifvqd00","pricing_plan_id":"free"},{"bike_id":"f328450f-45bb-4721-b6c2-754c052aa922","system_id":"levelo_inurba_marseille","lat":43.316517,"lon":5.404375,"is_reserved":false,"is_disabled":false,"rental_uris":{"android":"levelo://app?vid=f328450f-45bb-4721-b6c2-754c052aa922","ios":"levelo://app?vid=f328450f-45bb-4721-b6c2-754c052aa922"},"vehicle_type_id":"4","last_reported":1685264859,"current_range_meters":22000,"station_id":"ce4bh012rcd13ifvqd00","pricing_plan_id":"free"},{"bike_id":"c7f25802-3253-4f76-bd28-a6a9ceba766f","system_id":"levelo_inurba_marseille","lat":43.316517,"lon":5.404375,"is_reserved":false,"is_disabled":false,"rental_uris":{"android":"levelo://app?vid=c7f25802-3253-4f76-bd28-a6a9ceba766f","ios":"levelo://app?vid=c7f25802-3253-4f76-bd28-a6a9ceba766f"},"vehicle_type_id":"4","last_reported":1685264859,"current_range_meters":8800,"station_id":"ce4bh012rcd13ifvqd00","pricing_plan_id":"free"},{"bike_id":"dd886b41-a1d8-44cc-b341-b9d112e56519","system_id":"levelo_inurba_marseille","lat":43.30025,"lon":5.40062,"is_reserved":false,"is_disabled":false,"rental_uris":{"android":"levelo://app?vid=dd886b41-a1d8-44cc-b341-b9d112e56519","ios":"levelo://app?vid=dd886b41-a1d8-44cc-b341-b9d112e56519"},"vehicle_type_id":"4","last_reported":1685264859,"current_range_meters":5200,"station_id":"","pricing_plan_id":"free"},{"bike_id":"65b95b17-7a80-45ab-9291-7b61086dc9f1","system_id":"levelo_inurba_marseille","lat":43.316517,"lon":5.404375,"is_reserved":false,"is_disabled":false,"rental_uris":{"android":"levelo://app?vid=65b95b17-7a80-45ab-9291-7b61086dc9f1","ios":"levelo://app?vid=65b95b17-7a80-45ab-9291-7b61086dc9f1"},"vehicle_type_id":"4","last_reported":1685264859,"current_range_meters":20000,"station_id":"ce4bh012rcd13ifvqd00","pricing_plan_id":"free"},{"bike_id":"bae91ff6-a9a0-4525-bf74-10c5625ee080","system_id":"levelo_inurba_marseille","lat":43.316517,"lon":5.404375,"is_reserved":false,"is_disabled":false,"rental_uris":{"android":"levelo://app?vid=bae91ff6-a9a0-4525-bf74-10c5625ee080","ios":"levelo://app?vid=bae91ff6-a9a0-4525-bf74-10c5625ee080"},"vehicle_type_id":"4","last_reported":1685264859,"current_range_meters":31200,"station_id":"ce4bh012rcd13ifvqd00","pricing_plan_id":"free"},{"bike_id":"f0e6f1b5-21a6-4d68-8927-ef6e85bb93cc","system_id":"levelo_inurba_marseille","lat":43.316517,"lon":5.404375,"is_reserved":false,"is_disabled":false,"rental_uris":{"android":"levelo://app?vid=f0e6f1b5-21a6-4d68-8927-ef6e85bb93cc","ios":"levelo://app?vid=f0e6f1b5-21a6-4d68-8927-ef6e85bb93cc"},"vehicle_type_id":"4","last_reported":1685264859,"current_range_meters":28000,"station_id":"ce4bh012rcd13ifvqd00","pricing_plan_id":"free"},{"bike_id":"fbe03687-5c48-40f0-8632-9572dd51010c","system_id":"levelo_inurba_marseille","lat":43.28618,"lon":5.35105,"is_reserved":false,"is_disabled":false,"rental_uris":{"android":"levelo://app?vid=fbe03687-5c48-40f0-8632-9572dd51010c","ios":"levelo://app?vid=fbe03687-5c48-40f0-8632-9572dd51010c"},"vehicle_type_id":"4","last_reported":1685264859,"current_range_meters":23600,"station_id":"","pricing_plan_id":"free"},{"bike_id":"679fe3cf-4074-4ec2-86d6-88705f769e82","system_id":"levelo_inurba_marseille","lat":43.28616,"lon":5.35109,"is_reserved":false,"is_disabled":false,"rental_uris":{"android":"levelo://app?vid=679fe3cf-4074-4ec2-86d6-88705f769e82","ios":"levelo://app?vid=679fe3cf-4074-4ec2-86d6-88705f769e82"},"vehicle_type_id":"4","last_reported":1685264859,"current_range_meters":25600,"station_id":"","pricing_plan_id":"free"},{"bike_id":"4a8e8456-12cf-4fbb-b5d6-6056439362aa","system_id":"levelo_inurba_marseille","lat":43.285856,"lon":5.350771,"is_reserved":false,"is_disabled":false,"rental_uris":{"android":"levelo://app?vid=4a8e8456-12cf-4fbb-b5d6-6056439362aa","ios":"levelo://app?vid=4a8e8456-12cf-4fbb-b5d6-6056439362aa"},"vehicle_type_id":"4","last_reported":1685264859,"current_range_meters":22800,"station_id":"ce4bhch2rcd13ifvqeug","pricing_plan_id":"free"},{"bike_id":"fbaf840e-2e11-4c6d-b6e6-4604889eddb6","system_id":"levelo_inurba_marseille","lat":43.295713,"lon":5.399639,"is_reserved":false,"is_disabled":false,"rental_uris":{"android":"levelo://app?vid=fbaf840e-2e11-4c6d-b6e6-4604889eddb6","ios":"levelo://app?vid=fbaf840e-2e11-4c6d-b6e6-4604889eddb6"},"vehicle_type_id":"4","last_reported":1685264859,"current_range_meters":16000,"station_id":"ce4bh312rcd13ifvqdj0","pricing_plan_id":"free"},{"bike_id":"621982c5-7b25-400f-aa65-4fe7485cff67","system_id":"levelo_inurba_marseille","lat":43.2995,"lon":5.40282,"is_reserved":false,"is_disabled":false,"rental_uris":{"android":"levelo://app?vid=621982c5-7b25-400f-aa65-4fe7485cff67","ios":"levelo://app?vid=621982c5-7b25-400f-aa65-4fe7485cff67"},"vehicle_type_id":"4","last_reported":1685264859,"current_range_meters":30400,"station_id":"","pricing_plan_id":"free"},{"bike_id":"7ced7ceb-a866-41c4-9cdc-4a70f6b0d095","system_id":"levelo_inurba_marseille","lat":43.33691,"lon":5.39218,"is_reserved":false,"is_disabled":false,"rental_uris":{"android":"levelo://app?vid=7ced7ceb-a866-41c4-9cdc-4a70f6b0d095","ios":"levelo://app?vid=7ced7ceb-a866-41c4-9cdc-4a70f6b0d095"},"vehicle_type_id":"4","last_reported":1685264859,"current_range_meters":400,"station_id":"","pricing_plan_id":"free"},{"bike_id":"3536cf83-0e98-42dd-9c85-f71208271694","system_id":"levelo_inurba_marseille","lat":43.323464,"lon":5.406297,"is_reserved":false,"is_disabled":false,"rental_uris":{"android":"levelo://app?vid=3536cf83-0e98-42dd-9c85-f71208271694","ios":"levelo://app?vid=3536cf83-0e98-42dd-9c85-f71208271694"},"vehicle_type_id":"4","last_reported":1685264859,"current_range_meters":26000,"station_id":"ce4bhq92rcd13ifvqhjg","pricing_plan_id":"free"},{"bike_id":"576b8e19-4dd9-4c05-9bf2-2b27cf8d4172","system_id":"levelo_inurba_marseille","lat":43.3234,"lon":5.40622,"is_reserved":false,"is_disabled":false,"rental_uris":{"android":"levelo://app?vid=576b8e19-4dd9-4c05-9bf2-2b27cf8d4172","ios":"levelo://app?vid=576b8e19-4dd9-4c05-9bf2-2b27cf8d4172"},"vehicle_type_id":"4","last_reported":1685264859,"current_range_meters":17600,"station_id":"ce4bhq92rcd13ifvqhjg","pricing_plan_id":"free"},{"bike_id":"12b97231-b334-4083-9232-cac67a3556bb","system_id":"levelo_inurba_marseille","lat":43.32346,"lon":5.40625,"is_reserved":false,"is_disabled":false,"rental_uris":{"android":"levelo://app?vid=12b97231-b334-4083-9232-cac67a3556bb","ios":"levelo://app?vid=12b97231-b334-4083-9232-cac67a3556bb"},"vehicle_type_id":"4","last_reported":1685264859,"current_range_meters":12400,"station_id":"ce4bhq92rcd13ifvqhjg","pricing_plan_id":"free"},{"bike_id":"6d3d1d24-5a2d-4e74-bb5a-16d22a2db813","system_id":"levelo_inurba_marseille","lat":43.284217,"lon":5.349697,"is_reserved":false,"is_disabled":false,"rental_uris":{"android":"levelo://app?vid=6d3d1d24-5a2d-4e74-bb5a-16d22a2db813","ios":"levelo://app?vid=6d3d1d24-5a2d-4e74-bb5a-16d22a2db813"},"vehicle_type_id":"4","last_reported":1685264859,"current_range_meters":13600,"station_id":"ce4bhbh2rcd13ifvqepg","pricing_plan_id":"free"},{"bike_id":"65329696-0ef2-4838-abd4-1903eba4b344","system_id":"levelo_inurba_marseille","lat":43.28424,"lon":5.34976,"is_reserved":false,"is_disabled":false,"rental_uris":{"android":"levelo://app?vid=65329696-0ef2-4838-abd4-1903eba4b344","ios":"levelo://app?vid=65329696-0ef2-4838-abd4-1903eba4b344"},"vehicle_type_id":"4","last_reported":1685264859,"current_range_meters":19600,"station_id":"ce4bhbh2rcd13ifvqepg","pricing_plan_id":"free"},{"bike_id":"7e926570-46d7-4481-8961-00337861cffa","system_id":"levelo_inurba_marseille","lat":43.284219,"lon":5.3497,"is_reserved":false,"is_disabled":false,"rental_uris":{"android":"levelo://app?vid=7e926570-46d7-4481-8961-00337861cffa","ios":"levelo://app?vid=7e926570-46d7-4481-8961-00337861cffa"},"vehicle_type_id":"4","last_reported":1685264859,"current_range_meters":26800,"station_id":"ce4bhbh2rcd13ifvqepg","pricing_plan_id":"free"},{"bike_id":"37cad73e-a925-41bd-a616-83f35ad9a15d","system_id":"levelo_inurba_marseille","lat":43.284219,"lon":5.3497,"is_reserved":false,"is_disabled":false,"rental_uris":{"android":"levelo://app?vid=37cad73e-a925-41bd-a616-83f35ad9a15d","ios":"levelo://app?vid=37cad73e-a925-41bd-a616-83f35ad9a15d"},"vehicle_type_id":"4","last_reported":1685264859,"current_range_meters":12400,"station_id":"ce4bhbh2rcd13ifvqepg","pricing_plan_id":"free"},{"bike_id":"ba30215b-d6cb-4fe4-9504-80ce7f5713bc","system_id":"levelo_inurba_marseille","lat":43.284217,"lon":5.349697,"is_reserved":false,"is_disabled":false,"rental_uris":{"android":"levelo://app?vid=ba30215b-d6cb-4fe4-9504-80ce7f5713bc","ios":"levelo://app?vid=ba30215b-d6cb-4fe4-9504-80ce7f5713bc"},"vehicle_type_id":"4","last_reported":1685264859,"current_range_meters":21200,"station_id":"ce4bhbh2rcd13ifvqepg","pricing_plan_id":"free"},{"bike_id":"2ab49d2c-b486-4dbd-a11b-50cb9794617b","system_id":"levelo_inurba_marseille","lat":43.284219,"lon":5.3497,"is_reserved":false,"is_disabled":false,"rental_uris":{"android":"levelo://app?vid=2ab49d2c-b486-4dbd-a11b-50cb9794617b","ios":"levelo://app?vid=2ab49d2c-b486-4dbd-a11b-50cb9794617b"},"vehicle_type_id":"4","last_reported":1685264859,"current_range_meters":27600,"station_id":"ce4bhbh2rcd13ifvqepg","pricing_plan_id":"free"},{"bike_id":"a1b0677b-5335-4721-8b89-b942cb3ee591","system_id":"levelo_inurba_marseille","lat":43.284219,"lon":5.3497,"is_reserved":false,"is_disabled":false,"rental_uris":{"android":"levelo://app?vid=a1b0677b-5335-4721-8b89-b942cb3ee591","ios":"levelo://app?vid=a1b0677b-5335-4721-8b89-b942cb3ee591"},"vehicle_type_id":"4","last_reported":1685264859,"current_range_meters":28800,"station_id":"ce4bhbh2rcd13ifvqepg","pricing_plan_id":"free"},{"bike_id":"688a46c1-21a0-44dd-95b2-4bb915702d2a","system_id":"levelo_inurba_marseille","lat":43.292724,"lon":5.401131,"is_reserved":false,"is_disabled":false,"rental_uris":{"android":"levelo://app?vid=688a46c1-21a0-44dd-95b2-4bb915702d2a","ios":"levelo://app?vid=688a46c1-21a0-44dd-95b2-4bb915702d2a"},"vehicle_type_id":"4","last_reported":1685264859,"current_range_meters":14000,"station_id":"ce4bh312rcd13ifvqdk0","pricing_plan_id":"free"},{"bike_id":"e53c3ef8-1bd4-437e-a546-b0eb73db5c1e","system_id":"levelo_inurba_marseille","lat":43.28291,"lon":5.35082,"is_reserved":false,"is_disabled":false,"rental_uris":{"android":"levelo://app?vid=e53c3ef8-1bd4-437e-a546-b0eb73db5c1e","ios":"levelo://app?vid=e53c3ef8-1bd4-437e-a546-b0eb73db5c1e"},"vehicle_type_id":"4","last_reported":1685264859,"current_range_meters":24800,"station_id":"ce4bhbp2rcd13ifvqerg","pricing_plan_id":"free"},{"bike_id":"ed6597a8-6ad9-4bdd-9a48-f3ba66850e30","system_id":"levelo_inurba_marseille","lat":43.28287,"lon":5.35095,"is_reserved":false,"is_disabled":false,"rental_uris":{"android":"levelo://app?vid=ed6597a8-6ad9-4bdd-9a48-f3ba66850e30","ios":"levelo://app?vid=ed6597a8-6ad9-4bdd-9a48-f3ba66850e30"},"vehicle_type_id":"4","last_reported":1685264859,"current_range_meters":18000,"station_id":"ce4bhbp2rcd13ifvqerg","pricing_plan_id":"free"},{"bike_id":"287fdc37-5a67-41e3-9fb3-cd6c7d360bba","system_id":"levelo_inurba_marseille","lat":43.28286,"lon":5.35096,"is_reserved":false,"is_disabled":false,"rental_uris":{"android":"levelo://app?vid=287fdc37-5a67-41e3-9fb3-cd6c7d360bba","ios":"levelo://app?vid=287fdc37-5a67-41e3-9fb3-cd6c7d360bba"},"vehicle_type_id":"4","last_reported":1685264859,"current_range_meters":24400,"station_id":"ce4bhbp2rcd13ifvqerg","pricing_plan_id":"free"},{"bike_id":"1eff8acb-f19f-4054-a340-00db2545b01c","system_id":"levelo_inurba_marseille","lat":43.28283,"lon":5.35086,"is_reserved":false,"is_disabled":false,"rental_uris":{"android":"levelo://app?vid=1eff8acb-f19f-4054-a340-00db2545b01c","ios":"levelo://app?vid=1eff8acb-f19f-4054-a340-00db2545b01c"},"vehicle_type_id":"4","last_reported":1685264859,"current_range_meters":22400,"station_id":"ce4bhbp2rcd13ifvqerg","pricing_plan_id":"free"},{"bike_id":"95ed3262-05f1-4cd0-91d5-bc46f1eb8bb2","system_id":"levelo_inurba_marseille","lat":43.282754,"lon":5.350519,"is_reserved":false,"is_disabled":false,"rental_uris":{"android":"levelo://app?vid=95ed3262-05f1-4cd0-91d5-bc46f1eb8bb2","ios":"levelo://app?vid=95ed3262-05f1-4cd0-91d5-bc46f1eb8bb2"},"vehicle_type_id":"4","last_reported":1685264859,"current_range_meters":31200,"station_id":"ce4bhbp2rcd13ifvqerg","pricing_plan_id":"free"},{"bike_id":"0742f3b1-8acb-4b72-9ecb-a4ea7ec4e0c9","system_id":"levelo_inurba_marseille","lat":43.28275,"lon":5.35081,"is_reserved":false,"is_disabled":false,"rental_uris":{"android":"levelo://app?vid=0742f3b1-8acb-4b72-9ecb-a4ea7ec4e0c9","ios":"levelo://app?vid=0742f3b1-8acb-4b72-9ecb-a4ea7ec4e0c9"},"vehicle_type_id":"4","last_reported":1685264859,"current_range_meters":5600,"station_id":"ce4bhbp2rcd13ifvqerg","pricing_plan_id":"free"},{"bike_id":"350edb93-7cb3-40ee-b75b-bb5213b5efdd","system_id":"levelo_inurba_marseille","lat":43.28273,"lon":5.35078,"is_reserved":false,"is_disabled":false,"rental_uris":{"android":"levelo://app?vid=350edb93-7cb3-40ee-b75b-bb5213b5efdd","ios":"levelo://app?vid=350edb93-7cb3-40ee-b75b-bb5213b5efdd"},"vehicle_type_id":"4","last_reported":1685264859,"current_range_meters":31200,"station_id":"ce4bhbp2rcd13ifvqerg","pricing_plan_id":"free"},{"bike_id":"84494a7c-f0a5-4e41-88fa-2d1d5b2786e9","system_id":"levelo_inurba_marseille","lat":43.282754,"lon":5.350519,"is_reserved":false,"is_disabled":false,"rental_uris":{"android":"levelo://app?vid=84494a7c-f0a5-4e41-88fa-2d1d5b2786e9","ios":"levelo://app?vid=84494a7c-f0a5-4e41-88fa-2d1d5b2786e9"},"vehicle_type_id":"4","last_reported":1685264859,"current_range_meters":29200,"station_id":"ce4bhbp2rcd13ifvqerg","pricing_plan_id":"free"},{"bike_id":"2a3c723a-f075-4d2f-8fef-04e4e6677691","system_id":"levelo_inurba_marseille","lat":43.28272,"lon":5.35069,"is_reserved":false,"is_disabled":false,"rental_uris":{"android":"levelo://app?vid=2a3c723a-f075-4d2f-8fef-04e4e6677691","ios":"levelo://app?vid=2a3c723a-f075-4d2f-8fef-04e4e6677691"},"vehicle_type_id":"4","last_reported":1685264859,"current_range_meters":15200,"station_id":"","pricing_plan_id":"free"},