{"last_updated":1708535183,"ttl":30,"version":"2.2","data":{"bikes":[{"bike_id":"91c9e792-c774-4857-983d-d44fcf8dd035","system_id":"levelo_inurba_marseille","lat":43.312239,"lon":5.368562,"is_reserved":false,"is_disabled":false,"rental_uris":{"android":"levelo://app?vid=91c9e792-c774-4857-983d-d44fcf8dd035","ios":"levelo://app?vid=91c9e792-c774-4857-983d-d44fcf8dd035"},"vehicle_type_id":"4","last_reported":1708535183,"current_range_meters":3600,"station_id":"ce4bgl92rcd13ifvqbq0","pricing_plan_id":"cebpf4jnsgd1na2vs0mg"},{"bike_id":"3a636075-4dc6-4f7f-85ea-5b02a79a3ebf","system_id":"levelo_inurba_marseille","lat":43.312239,"lon":5.368562,"is_reserved":false,"is_disabled":false,"rental_uris":{"android":"levelo://app?vid=3a636075-4dc6-4f7f-85ea-5b02a79a3ebf","ios":"levelo://app?vid=3a636075-4dc6-4f7f-85ea-5b02a79a3ebf"},"vehicle_type_id":"4","last_reported":1708535183,"current_range_meters":18000,"station_id":"ce4bgl92rcd13ifvqbq0","pricing_plan_id":"cebpf4jnsgd1na2vs0mg"},{"bike_id":"9eac1900-d54c-443c-8ca9-4e887d1aaab3","system_id":"levelo_inurba_marseille","lat":43.312223,"lon":5.368565,"is_reserved":false,"is_disabled":false,"rental_uris":{"android":"levelo://app?vid=9eac1900-d54c-443c-8ca9-4e887d1aaab3","ios":"levelo://app?vid=9eac1900-d54c-443c-8ca9-4e887d1aaab3"},"vehicle_type_id":"4","last_reported":1708535183,"current_range_meters":0,"station_id":"ce4bgl92rcd13ifvqbq0","pricing_plan_id":"cebpf4jnsgd1na2vs0mg"},{"bike_id":"a3ec0fda-62a3-4578-871b-aabac3c09072","system_id":"levelo_inurba_marseille","lat":43.31223,"lon":5.36868,"is_reserved":false,"is_disabled":false,"rental_uris":{"android":"levelo://app?vid=a3ec0fda-62a3-4578-871b-aabac3c09072","ios":"levelo://app?vid=a3ec0fda-62a3-4578-871b-aabac3c09072"},"vehicle_type_id":"4","last_reported":1708535183,"current_range_meters":13200,"station_id":"","pricing_plan_id":"cebpf4jnsgd1na2vs0mg"},{"bike_id":"c7196108-29e6-4e5d-87fe-b257fd8c8381","system_id":"levelo_inurba_marseille","lat":43.312239,"lon":5.368562,"is_reserved":false,"is_disabled":false,"rental_uris":{"android":"levelo://app?vid=c7196108-29e6-4e5d-87fe-b257fd8c8381","ios":"levelo://app?vid=c7196108-29e6-4e5d-87fe-b257fd8c8381"},"vehicle_type_id":"4","last_reported":1708535183,"current_range_meters":6000,"station_id":"ce4bgl92rcd13ifvqbq0","pricing_plan_id":"cebpf4jnsgd1na2vs0mg"},{"bike_id":"a4f541af-93e3-4a82-a864-242685eb2fe9","system_id":"levelo_inurba_marseille","lat":43.31097,"lon":5.36922,"is_reserved":false,"is_disabled":false,"rental_uris":{"android":"levelo://app?vid=a4f541af-93e3-4a82-a864-242685eb2fe9","ios":"levelo://app?vid=a4f541af-93e3-4a82-a864-242685eb2fe9"},"vehicle_type_id":"4","last_reported":1708535183,"current_range_meters":27600,"station_id":"","pricing_plan_id":"cebpf4jnsgd1na2vs0mg"},{"bike_id":"84fc1116-6253-4464-abe8-b2c9627ea155","system_id":"levelo_inurba_marseille","lat":43.31617,"lon":5.36719,"is_reserved":false,"is_disabled":false,"rental_uris":{"android":"levelo://app?vid=84fc1116-6253-4464-abe8-b2c9627ea155","ios":"levelo://app?vid=84fc1116-6253-4464-abe8-b2c9627ea155"},"vehicle_type_id":"4","last_reported":1708535183,"current_range_meters":12800,"station_id":"","pricing_plan_id":"cebpf4jnsgd1na2vs0mg"},{"bike_id":"28b24a55-362f-4212-a003-8d2ed4590f16","system_id":"levelo_inurba_marseille","lat":43.31472,"lon":5.3729,"is_reserved":false,"is_disabled":false,"rental_uris":{"android":"levelo://app?vid=28b24a55-362f-4212-a003-8d2ed4590f16","ios":"levelo://app?vid=28b24a55-362f-4212-a003-8d2ed4590f16"},"vehicle_type_id":"4","last_reported":1708535183,"current_range_meters":15600,"station_id":"","pricing_plan_id":"cebpf4jnsgd1na2vs0mg"},{"bike_id":"341de37f-4f3b-41d7-b688-b335a71385f9","system_id":"levelo_inurba_marseille","lat":43.314811,"lon":5.373104,"is_reserved":false,"is_disabled":false,"rental_uris":{"android":"levelo://app?vid=341de37f-4f3b-41d7-b688-b335a71385f9","ios":"levelo://app?vid=341de37f-4f3b-41d7-b688-b335a71385f9"},"vehicle_type_id":"4","last_reported":1708535183,"current_range_meters":0,"station_id":"ce4bgt12rcd13ifvqcd0","pricing_plan_id":"cebpf4jnsgd1na2vs0mg"},{"bike_id":"1b48a061-1358-4c6f-9dc8-a285c3d52434","system_id":"levelo_inurba_marseille","lat":43.314811,"lon":5.373103,"is_reserved":false,"is_disabled":false,"rental_uris":{"android":"levelo://app?vid=1b48a061-1358-4c6f-9dc8-a285c3d52434","ios":"levelo://app?vid=1b48a061-1358-4c6f-9dc8-a285c3d52434"},"vehicle_type_id":"4","last_reported":1708535183,"current_range_meters":20400,"station_id":"ce4bgt12rcd13ifvqcd0","pricing_plan_id":"cebpf4jnsgd1na2vs0mg"},{"bike_id":"d3fcf416-dbfd-4cab-8452-68b953b1307b","system_id":"levelo_inurba_marseille","lat":43.31487,"lon":5.37306,"is_reserved":false,"is_disabled":false,"rental_uris":{"android":"levelo://app?vid=d3fcf416-dbfd-4cab-8452-68b953b1307b","ios":"levelo://app?vid=d3fcf416-dbfd-4cab-8452-68b953b1307b"},"vehicle_type_id":"4","last_reported":1708535183,"current_range_meters":8000,"station_id":"ce4bgt12rcd13ifvqcd0","pricing_plan_id":"cebpf4jnsgd1na2vs0mg"},{"bike_id":"a03d7b24-01b4-4da4-945e-fb8925357642","system_id":"levelo_inurba_marseille","lat":43.30548,"lon":5.36699,"is_reserved":false,"is_disabled":false,"rental_uris":{"android":"levelo://app?vid=a03d7b24-01b4-4da4-945e-fb8925357642","ios":"levelo://app?vid=a03d7b24-01b4-4da4-945e-fb8925357642"},"vehicle_type_id":"4","last_reported":1708535183,"current_range_meters":10800,"station_id":"ce4bgrp2rcd13ifvqc9g","pricing_plan_id":"cebpf4jnsgd1na2vs0mg"},{"bike_id":"73702446-da1c-45d7-8fa0-69eddf904fe7","system_id":"levelo_inurba_marseille","lat":43.30497,"lon":5.36784,"is_reserved":false,"is_disabled":false,"rental_uris":{"android":"levelo://app?vid=73702446-da1c-45d7-8fa0-69eddf904fe7","ios":"levelo://app?vid=73702446-da1c-45d7-8fa0-69eddf904fe7"},"vehicle_type_id":"4","last_reported":1708535183,"current_range_meters":23600,"station_id":"","pricing_plan_id":"cebpf4jnsgd1na2vs0mg"},{"bike_id":"6005869a-c31e-4794-adb7-49efd0616cfd","system_id":"levelo_inurba_marseille","lat":43.311131,"lon":5.377651,"is_reserved":false,"is_disabled":false,"rental_uris":{"android":"levelo://app?vid=6005869a-c31e-4794-adb7-49efd0616cfd","ios":"levelo://app?vid=6005869a-c31e-4794-adb7-49efd0616cfd"},"vehicle_type_id":"4","last_reported":1708535183,"current_range_meters":4400,"station_id":"ce4bgt92rcd13ifvqcg0","pricing_plan_id":"cebpf4jnsgd1na2vs0mg"},{"bike_id":"a9449d0c-01c7-47f9-8acf-8d4bae8004e9","system_id":"levelo_inurba_marseille","lat":43.31124,"lon":5.37773,"is_reserved":false,"is_disabled":false,"rental_uris":{"android":"levelo://app?vid=a9449d0c-01c7-47f9-8acf-8d4bae8004e9","ios":"levelo://app?vid=a9449d0c-01c7-47f9-8acf-8d4bae8004e9"},"vehicle_type_id":"4","last_reported":1708535183,"current_range_meters":22400,"station_id":"","pricing_plan_id":"cebpf4jnsgd1na2vs0mg"},{"bike_id":"dc22c28f-522a-4fb4-b7ab-c6251b90de82","system_id":"levelo_inurba_marseille","lat":43.31654,"lon":5.37675,"is_reserved":false,"is_disabled":false,"rental_uris":{"android":"levelo://app?vid=dc22c28f-522a-4fb4-b7ab-c6251b90de82","ios":"levelo://app?vid=dc22c28f-522a-4fb4-b7ab-c6251b90de82"},"vehicle_type_id":"4","last_reported":1708535183,"current_range_meters":26800,"station_id":"","pricing_plan_id":"cebpf4jnsgd1na2vs0mg"},{"bike_id":"6356d138-f96c-4ece-b202-d8da273c62ab","system_id":"levelo_inurba_marseille","lat":43.316582,"lon":5.376807,"is_reserved":false,"is_disabled":false,"rental_uris":{"android":"levelo://app?vid=6356d138-f96c-4ece-b202-d8da273c62ab","ios":"levelo://app?vid=6356d138-f96c-4ece-b202-d8da273c62ab"},"vehicle_type_id":"4","last_reported":1708535183,"current_range_meters":11600,"station_id":"","pricing_plan_id":"cebpf4jnsgd1na2vs0mg"},{"bike_id":"51772969-1fa9-40f4-9431-5066679a30a8","system_id":"levelo_inurba_marseille","lat":43.307945,"lon":5.376487,"is_reserved":false,"is_disabled":false,"rental_uris":{"android":"levelo://app?vid=51772969-1fa9-40f4-9431-5066679a30a8","ios":"levelo://app?vid=51772969-1fa9-40f4-9431-5066679a30a8"},"vehicle_type_id":"4","last_reported":1708535183,"current_range_meters":8400,"station_id":"ce4bgv92rcd13ifvqcq0","pricing_plan_id":"cebpf4jnsgd1na2vs0mg"},{"bike_id":"e924fdc0-4af9-454f-88ef-85e128fae928","system_id":"levelo_inurba_marseille","lat":43.307945,"lon":5.376487,"is_reserved":false,"is_disabled":false,"rental_uris":{"android":"levelo://app?vid=e924fdc0-4af9-454f-88ef-85e128fae928","ios":"levelo://app?vid=e924fdc0-4af9-454f-88ef-85e128fae928"},"vehicle_type_id":"4","last_reported":1708535183,"current_range_meters":10400,"station_id":"ce4bgv92rcd13ifvqcq0","pricing_plan_id":"cebpf4jnsgd1na2vs0mg"},{"bike_id":"e9ca0df7-9d12-4d6a-95d0-ceeb7d710869","system_id":"levelo_inurba_marseille","lat":43.307945,"lon":5.376487,"is_reserved":false,"is_disabled":false,"rental_uris":{"android":"levelo://app?vid=e9ca0df7-9d12-4d6a-95d0-ceeb7d710869","ios":"levelo://app?vid=e9ca0df7-9d12-4d6a-95d0-ceeb7d710869"},"vehicle_type_id":"4","last_reported":1708535183,"current_range_meters":26000,"station_id":"ce4bgv92rcd13ifvqcq0","pricing_plan_id":"cebpf4jnsgd1na2vs0mg"},{"bike_id":"1f8ce3df-d832-40be-a14d-2642058d7db2","system_id":"levelo_inurba_marseille","lat":43.317075,"lon":5.377367,"is_reserved":false,"is_disabled":false,"rental_uris":{"android":"levelo://app?vid=1f8ce3df-d832-40be-a14d-2642058d7db2","ios":"levelo://app?vid=1f8ce3df-d832-40be-a14d-2642058d7db2"},"vehicle_type_id":"4","last_reported":1708535183,"current_range_meters":8000,"station_id":"ce4bgth2rcd13ifvqch0","pricing_plan_id":"cebpf4jnsgd1na2vs0mg"},{"bike_id":"a9107724-bf94-4625-9505-de67816d6f9c","system_id":"levelo_inurba_marseille","lat":43.317075,"lon":5.377367,"is_reserved":false,"is_disabled":false,"rental_uris":{"android":"levelo://app?vid=a9107724-bf94-4625-9505-de67816d6f9c","ios":"levelo://app?vid=a9107724-bf94-4625-9505-de67816d6f9c"},"vehicle_type_id":"4","last_reported":1708535183,"current_range_meters":21200,"station_id":"ce4bgth2rcd13ifvqch0","pricing_plan_id":"cebpf4jnsgd1na2vs0mg"},{"bike_id":"0f6f6541-413e-4380-9493-8d25b6d3d332","system_id":"levelo_inurba_marseille","lat":43.317075,"lon":5.377367,"is_reserved":false,"is_disabled":false,"rental_uris":{"android":"levelo://app?vid=0f6f6541-413e-4380-9493-8d25b6d3d332","ios":"levelo://app?vid=0f6f6541-413e-4380-9493-8d25b6d3d332"},"vehicle_type_id":"4","last_reported":1708535183,"current_range_meters":12400,"station_id":"ce4bgth2rcd13ifvqch0","pricing_plan_id":"cebpf4jnsgd1na2vs0mg"},{"bike_id":"c640a8c1-4269-45c5-af59-6df7e4f3324e","system_id":"levelo_inurba_marseille","lat":43.317075,"lon":5.377367,"is_reserved":false,"is_disabled":false,"rental_uris":{"android":"levelo://app?vid=c640a8c1-4269-45c5-af59-6df7e4f3324e","ios":"levelo://app?vid=c640a8c1-4269-45c5-af59-6df7e4f3324e"},"vehicle_type_id":"4","last_reported":1708535183,"current_range_meters":21200,"station_id":"ce4bgth2rcd13ifvqch0","pricing_plan_id":"cebpf4jnsgd1na2vs0mg"},{"bike_id":"8ff27116-61cb-4a49-9243-af905e081afb","system_id":"levelo_inurba_marseille","lat":43.317075,"lon":5.377367,"is_reserved":false,"is_disabled":false,"rental_uris":{"android":"levelo://app?vid=8ff27116-61cb-4a49-9243-af905e081afb","ios":"levelo://app?vid=8ff27116-61cb-4a49-9243-af905e081afb"},"vehicle_type_id":"4","last_reported":1708535183,"current_range_meters":21200,"station_id":"ce4bgth2rcd13ifvqch0","pricing_plan_id":"cebpf4jnsgd1na2vs0mg"},{"bike_id":"7393460d-2519-40d7-a2df-6584324fdb1b","system_id":"levelo_inurba_marseille","lat":43.31017,"lon":5.37919,"is_reserved":false,"is_disabled":false,"rental_uris":{"android":"levelo://app?vid=7393460d-2519-40d7-a2df-6584324fdb1b","ios":"levelo://app?vid=7393460d-2519-40d7-a2df-6584324fdb1b"},"vehicle_type_id":"4","last_reported":1708535183,"current_range_meters":4000,"station_id":"","pricing_plan_id":"cebpf4jnsgd1na2vs0mg"},{"bike_id":"b85c6fd5-9222-417e-9365-46a863bbd79d","system_id":"levelo_inurba_marseille","lat":43.303046,"lon":5.368981,"is_reserved":false,"is_disabled":false,"rental_uris":{"android":"levelo://app?vid=b85c6fd5-9222-417e-9365-46a863bbd79d","ios":"levelo://app?vid=b85c6fd5-9222-417e-9365-46a863bbd79d"},"vehicle_type_id":"4","last_reported":1708535183,"current_range_meters":31200,"station_id":"ce4bgqh2rcd13ifvqc5g","pricing_plan_id":"cebpf4jnsgd1na2vs0mg"},{"bike_id":"1d370225-264f-439b-a446-e0bff6a77ce1","system_id":"levelo_inurba_marseille","lat":43.30304,"lon":5.368987,"is_reserved":false,"is_disabled":false,"rental_uris":{"android":"levelo://app?vid=1d370225-264f-439b-a446-e0bff6a77ce1","ios":"levelo://app?vid=1d370225-264f-439b-a446-e0bff6a77ce1"},"vehicle_type_id":"4","last_reported":1708535183,"current_range_meters":19600,"station_id":"ce4bgqh2rcd13ifvqc5g","pricing_plan_id":"cebpf4jnsgd1na2vs0mg"},{"bike_id":"f5c01f50-7f97-43ba-9b38-f2ff74e6ed2d","system_id":"levelo_inurba_marseille","lat":43.315293,"lon":5.380349,"is_reserved":false,"is_disabled":false,"rental_uris":{"android":"levelo://app?vid=f5c01f50-7f97-43ba-9b38-f2ff74e6ed2d","ios":"levelo://app?vid=f5c01f50-7f97-43ba-9b38-f2ff74e6ed2d"},"vehicle_type_id":"4","last_reported":1708535183,"current_range_meters":25200,"station_id":"ce4bhsp2rcd13ifvqi50","pricing_plan_id":"cebpf4jnsgd1na2vs0mg"},{"bike_id":"2ff75d78-81a6-46bd-9093-15b9a1c0e8e5","system_id":"levelo_inurba_marseille","lat":43.30191,"lon":5.36634,"is_reserved":false,"is_disabled":false,"rental_uris":{"android":"levelo://app?vid=2ff75d78-81a6-46bd-9093-15b9a1c0e8e5","ios":"levelo://app?vid=2ff75d78-81a6-46bd-9093-15b9a1c0e8e5"},"vehicle_type_id":"4","last_reported":1708535183,"current_range_meters":26800,"station_id":"ce4bgrh2rcd13ifvqc8g","pricing_plan_id":"cebpf4jnsgd1na2vs0mg"},{"bike_id":"03a418b5-4b17-4fc3-81bd-a1621fd52aeb","system_id":"levelo_inurba_marseille","lat":43.301939,"lon":5.366286,"is_reserved":false,"is_disabled":false,"rental_uris":{"android":"levelo://app?vid=03a418b5-4b17-4fc3-81bd-a1621fd52aeb","ios":"levelo://app?vid=03a418b5-4b17-4fc3-81bd-a1621fd52aeb"},"vehicle_type_id":"4","last_reported":1708535183,"current_range_meters":22400,"station_id":"ce4bgrh2rcd13ifvqc8g","pricing_plan_id":"cebpf4jnsgd1na2vs0mg"},{"bike_id":"2be2a2c9-1bc3-465f-a985-70ff6c00f50a","system_id":"levelo_inurba_marseille","lat":43.301939,"lon":5.366286,"is_reserved":false,"is_disabled":false,"rental_uris":{"android":"levelo://app?vid=2be2a2c9-1bc3-465f-a985-70ff6c00f50a","ios":"levelo://app?vid=2be2a2c9-1bc3-465f-a985-70ff6c00f50a"},"vehicle_type_id":"4","last_reported":1708535183,"current_range_meters":24000,"station_id":"ce4bgrh2rcd13ifvqc8g","pricing_plan_id":"cebpf4jnsgd1na2vs0mg"},{"bike_id":"bf6d78ca-c364-4d82-9e4e-2ba8b710df77","system_id":"levelo_inurba_marseille","lat":43.301939,"lon":5.366286,"is_reserved":false,"is_disabled":false,"rental_uris":{"android":"levelo://app?vid=bf6d78ca-c364-4d82-9e4e-2ba8b710df77","ios":"levelo://app?vid=bf6d78ca-c364-4d82-9e4e-2ba8b710df77"},"vehicle_type_id":"4","last_reported":1708535183,"current_range_meters":2800,"station_id":"ce4bgrh2rcd13ifvqc8g","pricing_plan_id":"cebpf4jnsgd1na2vs0mg"},{"bike_id":"907086b7-f56d-4040-a9e6-fd17f7a69d6d","system_id":"levelo_inurba_marseille","lat":43.308012,"lon":5.381511,"is_reserved":false,"is_disabled":false,"rental_uris":{"android":"levelo://app?vid=907086b7-f56d-4040-a9e6-fd17f7a69d6d","ios":"levelo://app?vid=907086b7-f56d-4040-a9e6-fd17f7a69d6d"},"vehicle_type_id":"4","last_reported":1708535183,"current_range_meters":15600,"station_id":"ce4bgt12rcd13ifvqce0","pricing_plan_id":"cebpf4jnsgd1na2vs0mg"},{"bike_id":"cc1be3d6-7445-41d0-bc4d-0246dc91be24","system_id":"levelo_inurba_marseille","lat":43.308012,"lon":5.381511,"is_reserved":false,"is_disabled":false,"rental_uris":{"android":"levelo://app?vid=cc1be3d6-7445-41d0-bc4d-0246dc91be24","ios":"levelo://app?vid=cc1be3d6-7445-41d0-bc4d-0246dc91be24"},"vehicle_type_id":"4","last_reported":1708535183,"current_range_meters":26400,"station_id":"ce4bgt12rcd13ifvqce0","pricing_plan_id":"cebpf4jnsgd1na2vs0mg"},{"bike_id":"24a41815-2139-49f1-b041-e75401f077bc","system_id":"levelo_inurba_marseille","lat":43.30212,"lon":5.37434,"is_reserved":false,"is_disabled":false,"rental_uris":{"android":"levelo://app?vid=24a41815-2139-49f1-b041-e75401f077bc","ios":"levelo://app?vid=24a41815-2139-49f1-b041-e75401f077bc"},"vehicle_type_id":"4","last_reported":1708535183,"current_range_meters":22400,"station_id":"","pricing_plan_id":"cebpf4jnsgd1na2vs0mg"},{"bike_id":"92927c1e-0073-4f65-b048-a7b6887f0cd1","system_id":"levelo_inurba_marseille","lat":43.304606,"lon":5.379026,"is_reserved":false,"is_disabled":false,"rental_uris":{"android":"levelo://app?vid=92927c1e-0073-4f65-b048-a7b6887f0cd1","ios":"levelo://app?vid=92927c1e-0073-4f65-b048-a7b6887f0cd1"},"vehicle_type_id":"4","last_reported":1708535183,"current_range_meters":14800,"station_id":"ce4bgup2rcd13ifvqcn0","pricing_plan_id":"cebpf4jnsgd1na2vs0mg"},{"bike_id":"827c4f9e-9bac-4ee6-ae36-c3b69a54556b","system_id":"levelo_inurba_marseille","lat":43.304606,"lon":5.379026,"is_reserved":false,"is_disabled":false,"rental_uris":{"android":"levelo://app?vid=827c4f9e-9bac-4ee6-ae36-c3b69a54556b","ios":"levelo://app?vid=827c4f9e-9bac-4ee6-ae36-c3b69a54556b"},"vehicle_type_id":"4","last_reported":1708535183,"current_range_meters":7200,"station_id":"ce4bgup2rcd13ifvqcn0","pricing_plan_id":"cebpf4jnsgd1na2vs0mg"},{"bike_id":"a783e96a-fbb6-4d8f-81f0-e999d0f57505","system_id":"levelo_inurba_marseille","lat":43.304606,"lon":5.379026,"is_reserved":false,"is_disabled":false,"rental_uris":{"android":"levelo://app?vid=a783e96a-fbb6-4d8f-81f0-e999d0f57505","ios":"levelo://app?vid=a783e96a-fbb6-4d8f-81f0-e999d0f57505"},"vehicle_type_id":"4","last_reported":1708535183,"current_range_meters":4800,"station_id":"ce4bgup2rcd13ifvqcn0","pricing_plan_id":"cebpf4jnsgd1na2vs0mg"},{"bike_id":"8cbd7733-f2a6-4418-a287-99dbaac3c38d","system_id":"levelo_inurba_marseille","lat":43.304606,"lon":5.379026,"is_reserved":false,"is_disabled":false,"rental_uris":{"android":"levelo://app?vid=8cbd7733-f2a6-4418-a287-99dbaac3c38d","ios":"levelo://app?vid=8cbd7733-f2a6-4418-a287-99dbaac3c38d"},"vehicle_type_id":"4","last_reported":1708535183,"current_range_meters":22800,"station_id":"ce4bgup2rcd13ifvqcn0","pricing_plan_id":"cebpf4jnsgd1na2vs0mg"},{"bike_id":"59bcf326-1756-46b3-9d86-04f5a98afe6c","system_id":"levelo_inurba_marseille","lat":43.304606,"lon":5.379026,"is_reserved":false,"is_disabled":false,"rental_uris":{"android":"levelo://app?vid=59bcf326-1756-46b3-9d86-04f5a98afe6c","ios":"levelo://app?vid=59bcf326-1756-46b3-9d86-04f5a98afe6c"},"vehicle_type_id":"4","last_reported":1708535183,"current_range_meters":20800,"station_id":"ce4bgup2rcd13ifvqcn0","pricing_plan_id":"cebpf4jnsgd1na2vs0mg"},{"bike_id":"5a17f091-5ab7-417f-9aca-569e67340d7f","system_id":"levelo_inurba_marseille","lat":43.304606,"lon":5.379026,"is_reserved":false,"is_disabled":false,"rental_uris":{"android":"levelo://app?vid=5a17f091-5ab7-417f-9aca-569e67340d7f","ios":"levelo://app?vid=5a17f091-5ab7-417f-9aca-569e67340d7f"},"vehicle_type_id":"4","last_reported":1708535183,"current_range_meters":7600,"station_id":"ce4bgup2rcd13ifvqcn0","pricing_plan_id":"cebpf4jnsgd1na2vs0mg"},{"bike_id":"6c581da6-d340-44bb-8dcf-2d6491d8b2b7","system_id":"levelo_inurba_marseille","lat":43.324771,"lon":5.36557,"is_reserved":false,"is_disabled":false,"rental_uris":{"android":"levelo://app?vid=6c581da6-d340-44bb-8dcf-2d6491d8b2b7","ios":"levelo://app?vid=6c581da6-d340-44bb-8dcf-2d6491d8b2b7"},"vehicle_type_id":"4","last_reported":1708535183,"current_range_meters":22800,"station_id":"ce4bhs12rcd13ifvqhvg","pricing_plan_id":"cebpf4jnsgd1na2vs0mg"},{"bike_id":"caa0d8ac-fc6e-4e93-91c9-9766fb980ce4","system_id":"levelo_inurba_marseille","lat":43.324771,"lon":5.36557,"is_reserved":false,"is_disabled":false,"rental_uris":{"android":"levelo://app?vid=caa0d8ac-fc6e-4e93-91c9-9766fb980ce4","ios":"levelo://app?vid=caa0d8ac-fc6e-4e93-91c9-9766fb980ce4"},"vehicle_type_id":"4","last_reported":1708535183,"current_range_meters":17200,"station_id":"ce4bhs12rcd13ifvqhvg","pricing_plan_id":"cebpf4jnsgd1na2vs0mg"},{"bike_id":"2b8647a8-0869-4719-9173-7e6204bdc002","system_id":"levelo_inurba_marseille","lat":43.324771,"lon":5.36557,"is_reserved":false,"is_disabled":false,"rental_uris":{"android":"levelo://app?vid=2b8647a8-0869-4719-9173-7e6204bdc002","ios":"levelo://app?vid=2b8647a8-0869-4719-9173-7e6204bdc002"},"vehicle_type_id":"4","last_reported":1708535183,"current_range_meters":12400,"station_id":"ce4bhs12rcd13ifvqhvg","pricing_plan_id":"cebpf4jnsgd1na2vs0mg"},{"bike_id":"f2cff5d1-a87e-43e1-8ace-015f611533e5","system_id":"levelo_inurba_marseille","lat":43.324771,"lon":5.36557,"is_reserved":false,"is_disabled":false,"rental_uris":{"android":"levelo://app?vid=f2cff5d1-a87e-43e1-8ace-015f611533e5","ios":"levelo://app?vid=f2cff5d1-a87e-43e1-8ace-015f611533e5"},"vehicle_type_id":"4","last_reported":1708535183,"current_range_meters":10000,"station_id":"ce4bhs12rcd13ifvqhvg","pricing_plan_id":"cebpf4jnsgd1na2vs0mg"},{"bike_id":"caaf26f8-fbed-445b-be7b-3ecf625cc521","system_id":"levelo_inurba_marseille","lat":43.324771,"lon":5.36557,"is_reserved":false,"is_disabled":false,"rental_uris":{"android":"levelo://app?vid=caaf26f8-fbed-445b-be7b-3ecf625cc521","ios":"levelo://app?vid=caaf26f8-fbed-445b-be7b-3ecf625cc521"},"vehicle_type_id":"4","last_reported":1708535183,"current_range_meters":25200,"station_id":"ce4bhs12rcd13ifvqhvg","pricing_plan_id":"cebpf4jnsgd1na2vs0mg"},{"bike_id":"70e7fea4-afdc-4b24-974a-e30d682b1311","system_id":"levelo_inurba_marseille","lat":43.324771,"lon":5.36557,"is_reserved":false,"is_disabled":false,"rental_uris":{"android":"levelo://app?vid=70e7fea4-afdc-4b24-974a-e30d682b1311","ios":"levelo://app?vid=70e7fea4-afdc-4b24-974a-e30d682b1311"},"vehicle_type_id":"4","last_reported":1708535183,"current_range_meters":10000,"station_id":"ce4bhs12rcd13ifvqhvg","pricing_plan_id":"cebpf4jnsgd1na2vs0mg"},{"bike_id":"4cd60cd3-101b-4a05-9703-76840434a255","system_id":"levelo_inurba_marseille","lat":43.324771,"lon":5.36557,"is_reserved":false,"is_disabled":false,"rental_uris":{"android":"levelo://app?vid=4cd60cd3-101b-4a05-9703-76840434a255","ios":"levelo://app?vid=4cd60cd3-101b-4a05-9703-76840434a255"},"vehicle_type_id":"4","last_reported":1708535183,"current_range_meters":19600,"station_id":"ce4bhs12rcd13ifvqhvg","pricing_plan_id":"cebpf4jnsgd1na2vs0mg"},{"bike_id":"14e5b803-a2c0-423b-97e5-611460aba1c1","system_id":"levelo_inurba_marseille","lat":43.310804,"lon":5.38359,"is_reserved":false,"is_disabled":false,"rental_uris":{"android":"levelo://app?vid=14e5b803-a2c0-423b-97e5-611460aba1c1","ios":"levelo://app?vid=14e5b803-a2c0-423b-97e5-611460aba1c1"},"vehicle_type_id":"4","last_reported":1708535183,"current_range_meters":6000,"station_id":"ce4bgv92rcd13ifvqcr0","pricing_plan_id":"cebpf4jnsgd1na2vs0mg"},{"bike_id":"59262dd9-d701-40a0-8799-0aa618bee905","system_id":"levelo_inurba_marseille","lat":43.310804,"lon":5.38359,"is_reserved":false,"is_disabled":false,"rental_uris":{"android":"levelo://app?vid=59262dd9-d701-40a0-8799-0aa618bee905","ios":"levelo://app?vid=59262dd9-d701-40a0-8799-0aa618bee905"},"vehicle_type_id":"4","last_reported":1708535183,"current_range_meters":5600,"station_id":"ce4bgv92rcd13ifvqcr0","pricing_plan_id":"cebpf4jnsgd1na2vs0mg"},{"bike_id":"6f031ed2-5bfe-44a0-b498-ac5723b48d41","system_id":"levelo_inurba_marseille","lat":43.305364,"lon":5.384119,"is_reserved":false,"is_disabled":false,"rental_uris":{"android":"levelo://app?vid=6f031ed2-5bfe-44a0-b498-ac5723b48d41","ios":"levelo://app?vid=6f031ed2-5bfe-44a0-b498-ac5723b48d41"},"vehicle_type_id":"4","last_reported":1708535183,"current_range_meters":2000,"station_id":"ce4bgg92rcd13ifvqb30","pricing_plan_id":"cebpf4jnsgd1na2vs0mg"},{"bike_id":"4b2bcba9-397d-4553-b10e-3cf05a54ea7c","system_id":"levelo_inurba_marseille","lat":43.30279,"lon":5.37701,"is_reserved":false,"is_disabled":false,"rental_uris":{"android":"levelo://app?vid=4b2bcba9-397d-4553-b10e-3cf05a54ea7c","ios":"levelo://app?vid=4b2bcba9-397d-4553-b10e-3cf05a54ea7c"},"vehicle_type_id":"4","last_reported":1708535183,"current_range_meters":22400,"station_id":"ce4bguh2rcd13ifvqcj0","pricing_plan_id":"cebpf4jnsgd1na2vs0mg"},{"bike_id":"76cb3c24-5e51-42a4-8fa3-c5cd762ab669","system_id":"levelo_inurba_marseille","lat":43.30657,"lon":5.38213,"is_reserved":false,"is_disabled":false,"rental_uris":{"android":"levelo://app?vid=76cb3c24-5e51-42a4-8fa3-c5cd762ab669","ios":"levelo://app?vid=76cb3c24-5e51-42a4-8fa3-c5cd762ab669"},"vehicle_type_id":"4","last_reported":1708535183,"current_range_meters":23600,"station_id":"","pricing_plan_id":"cebpf4jnsgd1na2vs0mg"},{"bike_id":"d3aeb068-bd7b-49e8-816f-c6030cda4afc","system_id":"levelo_inurba_marseille","lat":43.319935,"lon":5.381699,"is_reserved":false,"is_disabled":false,"rental_uris":{"android":"levelo://app?vid=d3aeb068-bd7b-49e8-816f-c6030cda4afc","ios":"levelo://app?vid=d3aeb068-bd7b-49e8-816f-c6030cda4afc"},"vehicle_type_id":"4","last_reported":1708535183,"current_range_meters":28400,"station_id":"ce4bhr12rcd13ifvqhpg","pricing_plan_id":"cebpf4jnsgd1na2vs0mg"},{"bike_id":"bd6dd9e9-9b0d-4e67-8a52-ee9abfc17e25","system_id":"levelo_inurba_marseille","lat":43.319935,"lon":5.381699,"is_reserved":false,"is_disabled":false,"rental_uris":{"android":"levelo://app?vid=bd6dd9e9-9b0d-4e67-8a52-ee9abfc17e25","ios":"levelo://app?vid=bd6dd9e9-9b0d-4e67-8a52-ee9abfc17e25"},"vehicle_type_id":"4","last_reported":1708535183,"current_range_meters":6000,"station_id":"ce4bhr12rcd13ifvqhpg","pricing_plan_id":"cebpf4jnsgd1na2vs0mg"},{"bike_id":"e3d81f4d-1244-4218-9509-b50348471846","system_id":"levelo_inurba_marseille","lat":43.313571,"lon":5.384829,"is_reserved":false,"is_disabled":false,"rental_uris":{"android":"levelo://app?vid=e3d81f4d-1244-4218-9509-b50348471846","ios":"levelo://app?vid=e3d81f4d-1244-4218-9509-b50348471846"},"vehicle_type_id":"4","last_reported":1708535183,"current_range_meters":28400,"station_id":"ce4bgt92rcd13ifvqcf0","pricing_plan_id":"cebpf4jnsgd1na2vs0mg"},{"bike_id":"89ac5123-84d7-4c85-9b9d-39807bdf9630","system_id":"levelo_inurba_marseille","lat":43.31366,"lon":5.38503,"is_reserved":false,"is_disabled":false,"rental_uris":{"android":"levelo://app?vid=89ac5123-84d7-4c85-9b9d-39807bdf9630","ios":"levelo://app?vid=89ac5123-84d7-4c85-9b9d-39807bdf9630"},"vehicle_type_id":"4","last_reported":1708535183,"current_range_meters":16800,"station_id":"ce4bgt92rcd13ifvqcf0","pricing_plan_id":"cebpf4jnsgd1na2vs0mg"},{"bike_id":"7b45b4a2-acbe-4511-9b63-cf7ab0972f3c","system_id":"levelo_inurba_marseille","lat":43.29935,"lon":5.3656,"is_reserved":false,"is_disabled":false,"rental_uris":{"android":"levelo://app?vid=7b45b4a2-acbe-4511-9b63-cf7ab0972f3c","ios":"levelo://app?vid=7b45b4a2-acbe-4511-9b63-cf7ab0972f3c"},"vehicle_type_id":"4","last_reported":1708535183,"current_range_meters":4000,"station_id":"","pricing_plan_id":"cebpf4jnsgd1na2vs0mg"},{"bike_id":"a4986d63-97e7-418f-b25d-2da3e505056b","system_id":"levelo_inurba_marseille","lat":43.299222,"lon":5.365554,"is_reserved":false,"is_disabled":false,"rental_uris":{"android":"levelo://app?vid=a4986d63-97e7-418f-b25d-2da3e505056b","ios":"levelo://app?vid=a4986d63-97e7-418f-b25d-2da3e505056b"},"vehicle_type_id":"4","last_reported":1708535183,"current_range_meters":27600,"station_id":"ce4bgm92rcd13ifvqbr0","pricing_plan_id":"cebpf4jnsgd1na2vs0mg"},{"bike_id":"7066dc0e-af6b-4b86-87a8-9232c374db2a","system_id":"levelo_inurba_marseille","lat":43.299222,"lon":5.365554,"is_reserved":false,"is_disabled":false,"rental_uris":{"android":"levelo://app?vid=7066dc0e-af6b-4b86-87a8-9232c374db2a","ios":"levelo://app?vid=7066dc0e-af6b-4b86-87a8-9232c374db2a"},"vehicle_type_id":"4","last_reported":1708535183,"current_range_meters":1200,"station_id":"ce4bgm92rcd13ifvqbr0","pricing_plan_id":"cebpf4jnsgd1na2vs0mg"},{"bike_id":"a88e631f-9ad3-4e3a-b1ce-d7828b6ae959","system_id":"levelo_inurba_marseille","lat":43.305714,"lon":5.365633,"is_reserved":false,"is_disabled":false,"rental_uris":{"android":"levelo://app?vid=a88e631f-9ad3-4e3a-b1ce-d7828b6ae959","ios":"levelo://app?vid=a88e631f-9ad3-4e3a-b1ce-d7828b6ae959"},"vehicle_type_id":"4","last_reported":1708535183,"current_range_meters":6800,"station_id":"ce4bgs12rcd13ifvqcag","pricing_plan_id":"cebpf4jnsgd1na2vs0mg"},{"bike_id":"c263ddc2-c641-4b9d-be29-24276f82ac05","system_id":"levelo_inurba_marseille","lat":43.31359,"lon":5.38642,"is_reserved":false,"is_disabled":false,"rental_uris":{"android":"levelo://app?vid=c263ddc2-c641-4b9d-be29-24276f82ac05","ios":"levelo://app?vid=c263ddc2-c641-4b9d-be29-24276f82ac05"},"vehicle_type_id":"4","last_reported":1708535183,"current_range_meters":25200,"station_id":"","pricing_plan_id":"cebpf4jnsgd1na2vs0mg"},{"bike_id":"a2a70f3f-19d8-4afc-a98b-fb2a2d08fe52","system_id":"levelo_inurba_marseille","lat":43.298433,"lon":5.362774,"is_reserved":false,"is_disabled":false,"rental_uris":{"android":"levelo://app?vid=a2a70f3f-19d8-4afc-a98b-fb2a2d08fe52","ios":"levelo://app?vid=a2a70f3f-19d8-4afc-a98b-fb2a2d08fe52"},"vehicle_type_id":"4","last_reported":1708535183,"current_range_meters":0,"station_id":"ce4bgpp2rcd13ifvqc3g","pricing_plan_id":"cebpf4jnsgd1na2vs0mg"},{"bike_id":"cf39b3dd-fa74-474c-a610-a3a48c376ac9","system_id":"levelo_inurba_marseille","lat":43.298433,"lon":5.362774,"is_reserved":false,"is_disabled":false,"rental_uris":{"android":"levelo://app?vid=cf39b3dd-fa74-474c-a610-a3a48c376ac9","ios":"levelo://app?vid=cf39b3dd-fa74-474c-a610-a3a48c376ac9"},"vehicle_type_id":"4","last_reported":1708535183,"current_range_meters":24800,"station_id":"ce4bgpp2rcd13ifvqc3g","pricing_plan_id":"cebpf4jnsgd1na2vs0mg"},{"bike_id":"b69d737c-054e-4d8d-b47d-6765343a7377","system_id":"levelo_inurba_marseille","lat":43.298433,"lon":5.362774,"is_reserved":false,"is_disabled":false,"rental_uris":{"android":"levelo://app?vid=b69d737c-054e-4d8d-b47d-6765343a7377","ios":"levelo://app?vid=b69d737c-054e-4d8d-b47d-6765343a7377"},"vehicle_type_id":"4","last_reported":1708535183,"current_range_meters":18800,"station_id":"ce4bgpp2rcd13ifvqc3g","pricing_plan_id":"cebpf4jnsgd1na2vs0mg"},{"bike_id":"eb6fc4c4-b120-4de5-97e0-a6ea01719e40","system_id":"levelo_inurba_marseille","lat":43.31186,"lon":5.38715,"is_reserved":false,"is_disabled":false,"rental_uris":{"android":"levelo://app?vid=eb6fc4c4-b120-4de5-97e0-a6ea01719e40","ios":"levelo://app?vid=eb6fc4c4-b120-4de5-97e0-a6ea01719e40"},"vehicle_type_id":"4","last_reported":1708535183,"current_range_meters":10000,"station_id":"ce4bgv12rcd13ifvqcp0","pricing_plan_id":"cebpf4jnsgd1na2vs0mg"},{"bike_id":"df5a6eb2-1b7f-4304-ac95-253666425a35","system_id":"levelo_inurba_marseille","lat":43.311722,"lon":5.387247,"is_reserved":false,"is_disabled":false,"rental_uris":{"android":"levelo://app?vid=df5a6eb2-1b7f-4304-ac95-253666425a35","ios":"levelo://app?vid=df5a6eb2-1b7f-4304-ac95-253666425a35"},"vehicle_type_id":"4","last_reported":1708535183,"current_range_meters":25600,"station_id":"ce4bgv12rcd13ifvqcp0","pricing_plan_id":"cebpf4jnsgd1na2vs0mg"},{"bike_id":"74c6402e-8a32-45e8-9648-c378a7553707","system_id":"levelo_inurba_marseille","lat":43.297794,"lon":5.370888,"is_reserved":false,"is_disabled":false,"rental_uris":{"android":"levelo://app?vid=74c6402e-8a32-45e8-9648-c378a7553707","ios":"levelo://app?vid=74c6402e-8a32-45e8-9648-c378a7553707"},"vehicle_type_id":"4","last_reported":1708535183,"current_range_meters":2800,"station_id":"ce4bgop2rcd13ifvqc1g","pricing_plan_id":"cebpf4jnsgd1na2vs0mg"},{"bike_id":"bf6412ad-6197-4192-ad23-76195c1c8b3b","system_id":"levelo_inurba_marseille","lat":43.297794,"lon":5.370888,"is_reserved":false,"is_disabled":false,"rental_uris":{"android":"levelo://app?vid=bf6412ad-6197-4192-ad23-76195c1c8b3b","ios":"levelo://app?vid=bf6412ad-6197-4192-ad23-76195c1c8b3b"},"vehicle_type_id":"4","last_reported":1708535183,"current_range_meters":27600,"station_id":"ce4bgop2rcd13ifvqc1g","pricing_plan_id":"cebpf4jnsgd1na2vs0mg"},{"bike_id":"c0781288-5bf6-4adb-8423-f7529ea96616","system_id":"levelo_inurba_marseille","lat":43.297794,"lon":5.370888,"is_reserved":false,"is_disabled":false,"rental_uris":{"android":"levelo://app?vid=c0781288-5bf6-4adb-8423-f7529ea96616","ios":"levelo://app?vid=c0781288-5bf6-4adb-8423-f7529ea96616"},"vehicle_type_id":"4","last_reported":1708535183,"current_range_meters":5200,"station_id":"ce4bgop2rcd13ifvqc1g","pricing_plan_id":"cebpf4jnsgd1na2vs0mg"},{"bike_id":"8c38fcf2-2074-4863-b8d6-e4d0562d5ae9","system_id":"levelo_inurba_marseille","lat":43.322872,"lon":5.382756,"is_reserved":false,"is_disabled":false,"rental_uris":{"android":"levelo://app?vid=8c38fcf2-2074-4863-b8d6-e4d0562d5ae9","ios":"levelo://app?vid=8c38fcf2-2074-4863-b8d6-e4d0562d5ae9"},"vehicle_type_id":"4","last_reported":1708535183,"current_range_meters":18000,"station_id":"ce4bhr12rcd13ifvqhqg","pricing_plan_id":"cebpf4jnsgd1na2vs0mg"},{"bike_id":"61248135-3921-4c2f-9143-7eea53fb4e60","system_id":"levelo_inurba_marseille","lat":43.297794,"lon":5.370888,"is_reserved":false,"is_disabled":false,"rental_uris":{"android":"levelo://app?vid=61248135-3921-4c2f-9143-7eea53fb4e60","ios":"levelo://app?vid=61248135-3921-4c2f-9143-7eea53fb4e60"},"vehicle_type_id":"4","last_reported":1708535183,"current_range_meters":31200,"station_id":"ce4bgop2rcd13ifvqc1g","pricing_plan_id":"cebpf4jnsgd1na2vs0mg"},{"bike_id":"f05683d3-1f6a-42ea-8ef9-845fbe8c8389","system_id":"levelo_inurba_marseille","lat":43.297163,"lon":5.365866,"is_reserved":false,"is_disabled":false,"rental_uris":{"android":"levelo://app?vid=f05683d3-1f6a-42ea-8ef9-845fbe8c8389","ios":"levelo://app?vid=f05683d3-1f6a-42ea-8ef9-845fbe8c8389"},"vehicle_type_id":"4","last_reported":1708535183,"current_range_meters":6000,"station_id":"ce4bgn12rcd13ifvqbt0","pricing_plan_id":"cebpf4jnsgd1na2vs0mg"},{"bike_id":"5556a95a-f0a1-421f-8c8c-d661b51f7976","system_id":"levelo_inurba_marseille","lat":43.29711,"lon":5.366047,"is_reserved":false,"is_disabled":false,"rental_uris":{"android":"levelo://app?vid=5556a95a-f0a1-421f-8c8c-d661b51f7976","ios":"levelo://app?vid=5556a95a-f0a1-421f-8c8c-d661b51f7976"},"vehicle_type_id":"4","last_reported":1708535183,"current_range_meters":7600,"station_id":"","pricing_plan_id":"cebpf4jnsgd1na2vs0mg"},{"bike_id":"aee9d5f2-c295-4ac9-b725-225e78bbb180","system_id":"levelo_inurba_marseille","lat":43.297163,"lon":5.365866,"is_reserved":false,"is_disabled":false,"rental_uris":{"android":"levelo://app?vid=aee9d5f2-c295-4ac9-b725-225e78bbb180","ios":"levelo://app?vid=aee9d5f2-c295-4ac9-b725-225e78bbb180"},"vehicle_type_id":"4","last_reported":1708535183,"current_range_meters":30400,"station_id":"ce4bgn12rcd13ifvqbt0","pricing_plan_id":"cebpf4jnsgd1na2vs0mg"},{"bike_id":"3e3fa6a8-9b9d-40e0-84d7-99d3367fe715","system_id":"levelo_inurba_marseille","lat":43.297163,"lon":5.365866,"is_reserved":false,"is_disabled":false,"rental_uris":{"android":"levelo://app?vid=3e3fa6a8-9b9d-40e0-84d7-99d3367fe715","ios":"levelo://app?vid=3e3fa6a8-9b9d-40e0-84d7-99d3367fe715"},"vehicle_type_id":"4","last_reported":1708535183,"current_range_meters":15200,"station_id":"ce4bgn12rcd13ifvqbt0","pricing_plan_id":"cebpf4jnsgd1na2vs0mg"},{"bike_id":"85a4d11c-289d-4628-8388-5671fa361a18","system_id":"levelo_inurba_marseille","lat":43.29707,"lon":5.36612,"is_reserved":false,"is_disabled":false,"rental_uris":{"android":"levelo://app?vid=85a4d11c-289d-4628-8388-5671fa361a18","ios":"levelo://app?vid=85a4d11c-289d-4628-8388-5671fa361a18"},"vehicle_type_id":"4","last_reported":1708535183,"current_range_meters":28800,"station_id":"ce4bgn12rcd13ifvqbt0","pricing_plan_id":"cebpf4jnsgd1na2vs0mg"},{"bike_id":"d5afeb7d-bbb8-4177-b13a-fd97ca5a4353","system_id":"levelo_inurba_marseille","lat":43.29706,"lon":5.36605,"is_reserved":false,"is_disabled":false,"rental_uris":{"android":"levelo://app?vid=d5afeb7d-bbb8-4177-b13a-fd97ca5a4353","ios":"levelo://app?vid=d5afeb7d-bbb8-4177-b13a-fd97ca5a4353"},"vehicle_type_id":"4","last_reported":1708535183,"current_range_meters":12000,"station_id":"ce4bgn12rcd13ifvqbt0","pricing_plan_id":"cebpf4jnsgd1na2vs0mg"},{"bike_id":"582f99f4-6790-4850-9fdb-a48b4c5856f9","system_id":"levelo_inurba_marseille","lat":43.29705,"lon":5.36613,"is_reserved":false,"is_disabled":false,"rental_uris":{"android":"levelo://app?vid=582f99f4-6790-4850-9fdb-a48b4c5856f9","ios":"levelo://app?vid=582f99f4-6790-4850-9fdb-a48b4c5856f9"},"vehicle_type_id":"4","last_reported":1708535183,"current_range_meters":28400,"station_id":"","pricing_plan_id":"cebpf4jnsgd1na2vs0mg"},{"bike_id":"c83da2a8-5ce3-4a69-9f7d-e3d4848ba952","system_id":"levelo_inurba_marseille","lat":43.30242,"lon":5.38366,"is_reserved":false,"is_disabled":false,"rental_uris":{"android":"levelo://app?vid=c83da2a8-5ce3-4a69-9f7d-e3d4848ba952","ios":"levelo://app?vid=c83da2a8-5ce3-4a69-9f7d-e3d4848ba952"},"vehicle_type_id":"4","last_reported":1708535183,"current_range_meters":14400,"station_id":"","pricing_plan_id":"cebpf4jnsgd1na2vs0mg"},{"bike_id":"21c90758-546b-43ea-9a12-4ec2a17f946b","system_id":"levelo_inurba_marseille","lat":43.2968,"lon":5.37291,"is_reserved":false,"is_disabled":false,"rental_uris":{"android":"levelo://app?vid=21c90758-546b-43ea-9a12-4ec2a17f946b","ios":"levelo://app?vid=21c90758-546b-43ea-9a12-4ec2a17f946b"},"vehicle_type_id":"4","last_reported":1708535183,"current_range_meters":28000,"station_id":"ce4bgk12rcd13ifvqbj0","pricing_plan_id":"cebpf4jnsgd1na2vs0mg"},{"bike_id":"9f135397-9e0b-49dd-910e-af09121a3e79","system_id":"levelo_inurba_marseille","lat":43.296131,"lon":5.370791,"is_reserved":false,"is_disabled":false,"rental_uris":{"android":"levelo://app?vid=9f135397-9e0b-49dd-910e-af09121a3e79","ios":"levelo://app?vid=9f135397-9e0b-49dd-910e-af09121a3e79"},"vehicle_type_id":"4","last_reported":1708535183,"current_range_meters":22400,"station_id":"ce4bgnh2rcd13ifvqc0g","pricing_plan_id":"cebpf4jnsgd1na2vs0mg"},{"bike_id":"170695a7-a0c0-4852-8135-585a0a5a1fa4","system_id":"levelo_inurba_marseille","lat":43.296131,"lon":5.370773,"is_reserved":false,"is_disabled":false,"rental_uris":{"android":"levelo://app?vid=170695a7-a0c0-4852-8135-585a0a5a1fa4","ios":"levelo://app?vid=170695a7-a0c0-4852-8135-585a0a5a1fa4"},"vehicle_type_id":"4","last_reported":1708535183,"current_range_meters":2800,"station_id":"ce4bgnh2rcd13ifvqc0g","pricing_plan_id":"cebpf4jnsgd1na2vs0mg"},{"bike_id":"642207e6-8bdf-4c18-8bf1-d344eda6b1a9","system_id":"levelo_inurba_marseille","lat":43.29584,"lon":5.36747,"is_reserved":false,"is_disabled":false,"rental_uris":{"android":"levelo://app?vid=642207e6-8bdf-4c18-8bf1-d344eda6b1a9","ios":"levelo://app?vid=642207e6-8bdf-4c18-8bf1-d344eda6b1a9"},"vehicle_type_id":"4","last_reported":1708535183,"current_range_meters":5600,"station_id":"","pricing_plan_id":"cebpf4jnsgd1na2vs0mg"},{"bike_id":"5f14e08c-652b-4362-a161-d830707dbc60","system_id":"levelo_inurba_marseille","lat":43.29573,"lon":5.367355,"is_reserved":false,"is_disabled":false,"rental_uris":{"android":"levelo://app?vid=5f14e08c-652b-4362-a161-d830707dbc60","ios":"levelo://app?vid=5f14e08c-652b-4362-a161-d830707dbc60"},"vehicle_type_id":"4","last_reported":1708535183,"current_range_meters":22400,"station_id":"ce4bgph2rcd13ifvqc2g","pricing_plan_id":"cebpf4jnsgd1na2vs0mg"},{"bike_id":"5aa29162-9081-43d1-9bd0-f3407286a398","system_id":"levelo_inurba_marseille","lat":43.29573,"lon":5.367355,"is_reserved":false,"is_disabled":false,"rental_uris":{"android":"levelo://app?vid=5aa29162-9081-43d1-9bd0-f3407286a398","ios":"levelo://app?vid=5aa29162-9081-43d1-9bd0-f3407286a398"},"vehicle_type_id":"4","last_reported":1708535183,"current_range_meters":20800,"station_id":"ce4bgph2rcd13ifvqc2g","pricing_plan_id":"cebpf4jnsgd1na2vs0mg"},{"bike_id":"ad70b3c3-5041-4076-b736-c6e42107d2e3","system_id":"levelo_inurba_marseille","lat":43.299028,"lon":5.381509,"is_reserved":false,"is_disabled":false,"rental_uris":{"android":"levelo://app?vid=ad70b3c3-5041-4076-b736-c6e42107d2e3","ios":"levelo://app?vid=ad70b3c3-5041-4076-b736-c6e42107d2e3"},"vehicle_type_id":"4","last_reported":1708535183,"current_range_meters":0,"station_id":"ce4bgj12rcd13ifvqbc0","pricing_plan_id":"cebpf4jnsgd1na2vs0mg"},{"bike_id":"9f2c266c-9db9-45f6-b576-4806187ef900","system_id":"levelo_inurba_marseille","lat":43.299028,"lon":5.381509,"is_reserved":false,"is_disabled":false,"rental_uris":{"android":"levelo://app?vid=9f2c266c-9db9-45f6-b576-4806187ef900","ios":"levelo://app?vid=9f2c266c-9db9-45f6-b576-4806187ef900"},"vehicle_type_id":"4","last_reported":1708535183,"current_range_meters":26400,"station_id":"ce4bgj12rcd13ifvqbc0","pricing_plan_id":"cebpf4jnsgd1na2vs0mg"},{"bike_id":"eeb0e1e3-3de3-4948-b61b-46c0af147d85","system_id":"levelo_inurba_marseille","lat":43.29905,"lon":5.38138,"is_reserved":false,"is_disabled":false,"rental_uris":{"android":"levelo://app?vid=eeb0e1e3-3de3-4948-b61b-46c0af147d85","ios":"levelo://app?vid=eeb0e1e3-3de3-4948-b61b-46c0af147d85"},"vehicle_type_id":"4","last_reported":1708535183,"current_range_meters":28400,"station_id":"ce4bgj12rcd13ifvqbc0","pricing_plan_id":"cebpf4jnsgd1na2vs0mg"},{"bike_id":"629b4fc2-4295-48c7-af57-679ad042db7e","system_id":"levelo_inurba_marseille","lat":43.309589,"lon":5.390258,"is_reserved":false,"is_disabled":false,"rental_uris":{"android":"levelo://app?vid=629b4fc2-4295-48c7-af57-679ad042db7e","ios":"levelo://app?vid=629b4fc2-4295-48c7-af57-679ad042db7e"},"vehicle_type_id":"4","last_reported":1708535183,"current_range_meters":26000,"station_id":"ce4bgup2rcd13ifvqco0","pricing_plan_id":"cebpf4jnsgd1na2vs0mg"},{"bike_id":"361d47fd-ddf0-4353-af24-c7851310c929","system_id":"levelo_inurba_marseille","lat":43.299028,"lon":5.381509,"is_reserved":false,"is_disabled":false,"rental_uris":{"android":"levelo://app?vid=361d47fd-ddf0-4353-af24-c7851310c929","ios":"levelo://app?vid=361d47fd-ddf0-4353-af24-c7851310c929"},"vehicle_type_id":"4","last_reported":1708535183,"current_range_meters":24400,"station_id":"ce4bgj12rcd13ifvqbc0","pricing_plan_id":"cebpf4jnsgd1na2vs0mg"},{"bike_id":"2552f2c8-82d6-4cdd-9008-17507c71e146","system_id":"levelo_inurba_marseille","lat":43.299028,"lon":5.381509,"is_reserved":false,"is_disabled":false,"rental_uris":{"android":"levelo://app?vid=2552f2c8-82d6-4cdd-9008-17507c71e146","ios":"levelo://app?vid=2552f2c8-82d6-4cdd-9008-17507c71e146"},"vehicle_type_id":"4","last_reported":1708535183,"current_range_meters":4800,"station_id":"ce4bgj12rcd13ifvqbc0","pricing_plan_id":"cebpf4jnsgd1na2vs0mg"},{"bike_id":"1529fd0b-5ab7-4a8c-835d-fa31203d6bd7","system_id":"levelo_inurba_marseille","lat":43.309589,"lon":5.390258,"is_reserved":false,"is_disabled":false,"rental_uris":{"android":"levelo://app?vid=1529fd0b-5ab7-4a8c-835d-fa31203d6bd7","ios":"levelo://app?vid=1529fd0b-5ab7-4a8c-835d-fa31203d6bd7"},"vehicle_type_id":"4","last_reported":1708535183,"current_range_meters":24000,"station_id":"ce4bgup2rcd13ifvqco0","pricing_plan_id":"cebpf4jnsgd1na2vs0mg"},{"bike_id":"1291e8dc-6084-4372-9f40-665cfba84039","system_id":"levelo_inurba_marseille","lat":43.30947,"lon":5.39036,"is_reserved":false,"is_disabled":false,"rental_uris":{"android":"levelo://app?vid=1291e8dc-6084-4372-9f40-665cfba84039","ios":"levelo://app?vid=1291e8dc-6084-4372-9f40-665cfba84039"},"vehicle_type_id":"4","last_reported":1708535183,"current_range_meters":20000,"station_id":"","pricing_plan_id":"cebpf4jnsgd1na2vs0mg"},{"bike_id":"d843ce7f-836b-4ca9-92bc-d74beb2532a3","system_id":"levelo_inurba_marseille","lat":43.29534,"lon":5.36512,"is_reserved":false,"is_disabled":false,"rental_uris":{"android":"levelo://app?vid=d843ce7f-836b-4ca9-92bc-d74beb2532a3","ios":"levelo://app?vid=d843ce7f-836b-4ca9-92bc-d74beb2532a3"},"vehicle_type_id":"4","last_reported":1708535183,"current_range_meters":19200,"station_id":"","pricing_plan_id":"cebpf4jnsgd1na2vs0mg"},{"bike_id":"af98aa79-ba76-4c29-bd18-486951aaabe0","system_id":"levelo_inurba_marseille","lat":43.298037,"lon":5.381066,"is_reserved":false,"is_disabled":false,"rental_uris":{"android":"levelo://app?vid=af98aa79-ba76-4c29-bd18-486951aaabe0","ios":"levelo://app?vid=af98aa79-ba76-4c29-bd18-486951aaabe0"},"vehicle_type_id":"4","last_reported":1708535183,"current_range_meters":10000,"station_id":"ce4bgip2rcd13ifvqbb0","pricing_plan_id":"cebpf4jnsgd1na2vs0mg"},{"bike_id":"caaf093c-00c6-420b-bff5-7fb650034258","system_id":"levelo_inurba_marseille","lat":43.297967,"lon":5.380952,"is_reserved":false,"is_disabled":false,"rental_uris":{"android":"levelo://app?vid=caaf093c-00c6-420b-bff5-7fb650034258","ios":"levelo://app?vid=caaf093c-00c6-420b-bff5-7fb650034258"},"vehicle_type_id":"4","last_reported":1708535183,"current_range_meters":4400,"station_id":"","pricing_plan_id":"cebpf4jnsgd1na2vs0mg"},{"bike_id":"ca70754a-0b12-4897-b55d-e25f5b265155","system_id":"levelo_inurba_marseille","lat":43.298037,"lon":5.381066,"is_reserved":false,"is_disabled":false,"rental_uris":{"android":"levelo://app?vid=ca70754a-0b12-4897-b55d-e25f5b265155","ios":"levelo://app?vid=ca70754a-0b12-4897-b55d-e25f5b265155"},"vehicle_type_id":"4","last_reported":1708535183,"current_range_meters":25600,"station_id":"ce4bgip2rcd13ifvqbb0","pricing_plan_id":"cebpf4jnsgd1na2vs0mg"},{"bike_id":"cd46f18e-5343-4074-94cb-273651da4f4a","system_id":"levelo_inurba_marseille","lat":43.29573,"lon":5.37518,"is_reserved":false,"is_disabled":false,"rental_uris":{"android":"levelo://app?vid=cd46f18e-5343-4074-94cb-273651da4f4a","ios":"levelo://app?vid=cd46f18e-5343-4074-94cb-273651da4f4a"},"vehicle_type_id":"4","last_reported":1708535183,"current_range_meters":14400,"station_id":"ce4bgh92rcd13ifvqb50","pricing_plan_id":"cebpf4jnsgd1na2vs0mg"},{"bike_id":"ab4af1be-ae52-49c3-b2b7-3af51b1903ab","system_id":"levelo_inurba_marseille","lat":43.29783,"lon":5.3809,"is_reserved":false,"is_disabled":false,"rental_uris":{"android":"levelo://app?vid=ab4af1be-ae52-49c3-b2b7-3af51b1903ab","ios":"levelo://app?vid=ab4af1be-ae52-49c3-b2b7-3af51b1903ab"},"vehicle_type_id":"4","last_reported":1708535183,"current_range_meters":2000,"station_id":"ce4bgip2rcd13ifvqbb0","pricing_plan_id":"cebpf4jnsgd1na2vs0mg"},{"bike_id":"ddfd68ea-10c7-46f9-8d08-cec734d9eb2d","system_id":"levelo_inurba_marseille","lat":43.304274,"lon":5.388873,"is_reserved":false,"is_disabled":false,"rental_uris":{"android":"levelo://app?vid=ddfd68ea-10c7-46f9-8d08-cec734d9eb2d","ios":"levelo://app?vid=ddfd68ea-10c7-46f9-8d08-cec734d9eb2d"},"vehicle_type_id":"4","last_reported":1708535183,"current_range_meters":26000,"station_id":"ce4bgk12rcd13ifvqbi0","pricing_plan_id":"cebpf4jnsgd1na2vs0mg"},{"bike_id":"ebd8299b-b11e-4f9a-87f6-c0a059133f38","system_id":"levelo_inurba_marseille","lat":43.30435,"lon":5.38891,"is_reserved":false,"is_disabled":false,"rental_uris":{"android":"levelo://app?vid=ebd8299b-b11e-4f9a-87f6-c0a059133f38","ios":"levelo://app?vid=ebd8299b-b11e-4f9a-87f6-c0a059133f38"},"vehicle_type_id":"4","last_reported":1708535183,"current_range_meters":14000,"station_id":"","pricing_plan_id":"cebpf4jnsgd1na2vs0mg"},{"bike_id":"a39127e7-5e82-4b7f-85d9-65d935232c7a","system_id":"levelo_inurba_marseille","lat":43.304278,"lon":5.388868,"is_reserved":false,"is_disabled":false,"rental_uris":{"android":"levelo://app?vid=a39127e7-5e82-4b7f-85d9-65d935232c7a","ios":"levelo://app?vid=a39127e7-5e82-4b7f-85d9-65d935232c7a"},"vehicle_type_id":"4","last_reported":1708535183,"current_range_meters":0,"station_id":"ce4bgk12rcd13ifvqbi0","pricing_plan_id":"cebpf4jnsgd1na2vs0mg"},{"bike_id":"d86035d1-fedf-4787-adab-5a6e38bbb5dc","system_id":"levelo_inurba_marseille","lat":43.296263,"lon":5.377094,"is_reserved":false,"is_disabled":false,"rental_uris":{"android":"levelo://app?vid=d86035d1-fedf-4787-adab-5a6e38bbb5dc","ios":"levelo://app?vid=d86035d1-fedf-4787-adab-5a6e38bbb5dc"},"vehicle_type_id":"4","last_reported":1708535183,"current_range_meters":2400,"station_id":"ce4bgi92rcd13ifvqb90","pricing_plan_id":"cebpf4jnsgd1na2vs0mg"},{"bike_id":"9799f1f7-72c2-4b91-a4fa-4d0d5ff85cf3","system_id":"levelo_inurba_marseille","lat":43.29561,"lon":5.37528,"is_reserved":false,"is_disabled":false,"rental_uris":{"android":"levelo://app?vid=9799f1f7-72c2-4b91-a4fa-4d0d5ff85cf3","ios":"levelo://app?vid=9799f1f7-72c2-4b91-a4fa-4d0d5ff85cf3"},"vehicle_type_id":"4","last_reported":1708535183,"current_range_meters":19200,"station_id":"","pricing_plan_id":"cebpf4jnsgd1na2vs0mg"},{"bike_id":"e049ba00-1fc6-43a8-9343-154a33622fa7","system_id":"levelo_inurba_marseille","lat":43.296263,"lon":5.377094,"is_reserved":false,"is_disabled":false,"rental_uris":{"android":"levelo://app?vid=e049ba00-1fc6-43a8-9343-154a33622fa7","ios":"levelo://app?vid=e049ba00-1fc6-43a8-9343-154a33622fa7"},"vehicle_type_id":"4","last_reported":1708535183,"current_range_meters":30800,"station_id":"ce4bgi92rcd13ifvqb90","pricing_plan_id":"cebpf4jnsgd1na2vs0mg"},{"bike_id":"a4e8b23e-6f0b-465b-a4c8-b18573ce4cac","system_id":"levelo_inurba_marseille","lat":43.29539,"lon":5.37439,"is_reserved":false,"is_disabled":false,"rental_uris":{"android":"levelo://app?vid=a4e8b23e-6f0b-465b-a4c8-b18573ce4cac","ios":"levelo://app?vid=a4e8b23e-6f0b-465b-a4c8-b18573ce4cac"},"vehicle_type_id":"4","last_reported":1708535183,"current_range_meters":0,"station_id":"","pricing_plan_id":"cebpf4jnsgd1na2vs0mg"},{"bike_id":"4270d0b1-5b87-4204-bc1e-d863e1e32da8","system_id":"levelo_inurba_marseille","lat":43.299707,"lon":5.384859,"is_reserved":false,"is_disabled":false,"rental_uris":{"android":"levelo://app?vid=4270d0b1-5b87-4204-bc1e-d863e1e32da8","ios":"levelo://app?vid=4270d0b1-5b87-4204-bc1e-d863e1e32da8"},"vehicle_type_id":"4","last_reported":1708535183,"current_range_meters":26000,"station_id":"ce4bgj92rcd13ifvqbd0","pricing_plan_id":"cebpf4jnsgd1na2vs0mg"},{"bike_id":"acf02ca7-5ecf-4439-851c-e2b9c791866a","system_id":"levelo_inurba_marseille","lat":43.299707,"lon":5.384859,"is_reserved":false,"is_disabled":false,"rental_uris":{"android":"levelo://app?vid=acf02ca7-5ecf-4439-851c-e2b9c791866a","ios":"levelo://app?vid=acf02ca7-5ecf-4439-851c-e2b9c791866a"},"vehicle_type_id":"4","last_reported":1708535183,"current_range_meters":19600,"station_id":"ce4bgj92rcd13ifvqbd0","pricing_plan_id":"cebpf4jnsgd1na2vs0mg"},{"bike_id":"40c16a7f-f53d-4d62-9455-a3b46cb849dc","system_id":"levelo_inurba_marseille","lat":43.29973,"lon":5.38494,"is_reserved":false,"is_disabled":false,"rental_uris":{"android":"levelo://app?vid=40c16a7f-f53d-4d62-9455-a3b46cb849dc","ios":"levelo://app?vid=40c16a7f-f53d-4d62-9455-a3b46cb849dc"},"vehicle_type_id":"4","last_reported":1708535183,"current_range_meters":28800,"station_id":"ce4bgj92rcd13ifvqbd0","pricing_plan_id":"cebpf4jnsgd1na2vs0mg"},{"bike_id":"b7f5f7f9-e763-46fb-a347-d16940d1390c","system_id":"levelo_inurba_marseille","lat":43.29974,"lon":5.38503,"is_reserved":false,"is_disabled":false,"rental_uris":{"android":"levelo://app?vid=b7f5f7f9-e763-46fb-a347-d16940d1390c","ios":"levelo://app?vid=b7f5f7f9-e763-46fb-a347-d16940d1390c"},"vehicle_type_id":"4","last_reported":1708535183,"current_range_meters":0,"station_id":"ce4bgj92rcd13ifvqbd0","pricing_plan_id":"cebpf4jnsgd1na2vs0mg"},{"bike_id":"e7d80559-2f80-47ec-becb-0fa45039fc40","system_id":"levelo_inurba_marseille","lat":43.29967,"lon":5.38503,"is_reserved":false,"is_disabled":false,"rental_uris":{"android":"levelo://app?vid=e7d80559-2f80-47ec-becb-0fa45039fc40","ios":"levelo://app?vid=e7d80559-2f80-47ec-becb-0fa45039fc40"},"vehicle_type_id":"4","last_reported":1708535183,"current_range_meters":1600,"station_id":"ce4bgj92rcd13ifvqbd0","pricing_plan_id":"cebpf4jnsgd1na2vs0mg"},{"bike_id":"ec32a3e0-f064-492f-affb-5e9010861bcc","system_id":"levelo_inurba_marseille","lat":43.299724,"lon":5.384848,"is_reserved":false,"is_disabled":false,"rental_uris":{"android":"levelo://app?vid=ec32a3e0-f064-492f-affb-5e9010861bcc","ios":"levelo://app?vid=ec32a3e0-f064-492f-affb-5e9010861bcc"},"vehicle_type_id":"4","last_reported":1708535183,"current_range_meters":4000,"station_id":"ce4bgj92rcd13ifvqbd0","pricing_plan_id":"cebpf4jnsgd1na2vs0mg"},{"bike_id":"14bf9683-89f0-404d-909c-e8d9100e3401","system_id":"levelo_inurba_marseille","lat":43.32365,"lon":5.38881,"is_reserved":false,"is_disabled":false,"rental_uris":{"android":"levelo://app?vid=14bf9683-89f0-404d-909c-e8d9100e3401","ios":"levelo://app?vid=14bf9683-89f0-404d-909c-e8d9100e3401"},"vehicle_type_id":"4","last_reported":1708535183,"current_range_meters":6000,"station_id":"ce4bhqp2rcd13ifvqhog","pricing_plan_id":"cebpf4jnsgd1na2vs0mg"},{"bike_id":"f6d70e1a-28a8-4fd6-82cd-ab78aeaef9da","system_id":"levelo_inurba_marseille","lat":43.32367,"lon":5.388836,"is_reserved":false,"is_disabled":false,"rental_uris":{"android":"levelo://app?vid=f6d70e1a-28a8-4fd6-82cd-ab78aeaef9da","ios":"levelo://app?vid=f6d70e1a-28a8-4fd6-82cd-ab78aeaef9da"},"vehicle_type_id":"4","last_reported":1708535183,"current_range_meters":23200,"station_id":"ce4bhqp2rcd13ifvqhog","pricing_plan_id":"cebpf4jnsgd1na2vs0mg"},{"bike_id":"f81f99fa-1975-4938-b2cd-60174445bc9d","system_id":"levelo_inurba_marseille","lat":43.32367,"lon":5.388836,"is_reserved":false,"is_disabled":false,"rental_uris":{"android":"levelo://app?vid=f81f99fa-1975-4938-b2cd-60174445bc9d","ios":"levelo://app?vid=f81f99fa-1975-4938-b2cd-60174445bc9d"},"vehicle_type_id":"4","last_reported":1708535183,"current_range_meters":4800,"station_id":"ce4bhqp2rcd13ifvqhog","pricing_plan_id":"cebpf4jnsgd1na2vs0mg"},{"bike_id":"d320dca6-e9c7-4c76-9bec-1e7867507694","system_id":"levelo_inurba_marseille","lat":43.29512,"lon":5.37854,"is_reserved":false,"is_disabled":false,"rental_uris":{"android":"levelo://app?vid=d320dca6-e9c7-4c76-9bec-1e7867507694","ios":"levelo://app?vid=d320dca6-e9c7-4c76-9bec-1e7867507694"},"vehicle_type_id":"4","last_reported":1708535183,"current_range_meters":10400,"station_id":"","pricing_plan_id":"cebpf4jnsgd1na2vs0mg"},{"bike_id":"803f9f80-7289-49f5-9161-c7de9833dbf8","system_id":"levelo_inurba_marseille","lat":43.2956,"lon":5.38057,"is_reserved":false,"is_disabled":false,"rental_uris":{"android":"levelo://app?vid=803f9f80-7289-49f5-9161-c7de9833dbf8","ios":"levelo://app?vid=803f9f80-7289-49f5-9161-c7de9833dbf8"},"vehicle_type_id":"4","last_reported":1708535183,"current_range_meters":6000,"station_id":"ce4bgl12rcd13ifvqbo0","pricing_plan_id":"cebpf4jnsgd1na2vs0mg"},{"bike_id":"81cd3f36-43e5-48b8-8249-5a4fb2d1d23a","system_id":"levelo_inurba_marseille","lat":43.292749,"lon":5.368402,"is_reserved":false,"is_disabled":false,"rental_uris":{"android":"levelo://app?vid=81cd3f36-43e5-48b8-8249-5a4fb2d1d23a","ios":"levelo://app?vid=81cd3f36-43e5-48b8-8249-5a4fb2d1d23a"},"vehicle_type_id":"4","last_reported":1708535183,"current_range_meters":11600,"station_id":"ce4bhbp2rcd13ifvqesg","pricing_plan_id":"cebpf4jnsgd1na2vs0mg"},{"bike_id":"d54ce9fb-eaa3-4304-9fcb-fa34554c419d","system_id":"levelo_inurba_marseille","lat":43.292749,"lon":5.368402,"is_reserved":false,"is_disabled":false,"rental_uris":{"android":"levelo://app?vid=d54ce9fb-eaa3-4304-9fcb-fa34554c419d","ios":"levelo://app?vid=d54ce9fb-eaa3-4304-9fcb-fa34554c419d"},"vehicle_type_id":"4","last_reported":1708535183,"current_range_meters":6400,"station_id":"ce4bhbp2rcd13ifvqesg","pricing_plan_id":"cebpf4jnsgd1na2vs0mg"},{"bike_id":"783ba3db-fe34-4d46-828f-f0aedd57a65e","system_id":"levelo_inurba_marseille","lat":43.29304,"lon":5.37164,"is_reserved":false,"is_disabled":false,"rental_uris":{"android":"levelo://app?vid=783ba3db-fe34-4d46-828f-f0aedd57a65e","ios":"levelo://app?vid=783ba3db-fe34-4d46-828f-f0aedd57a65e"},"vehicle_type_id":"4","last_reported":1708535183,"current_range_meters":28400,"station_id":"","pricing_plan_id":"cebpf4jnsgd1na2vs0mg"},{"bike_id":"35193c64-0b8c-4431-b0eb-4eacfe48e106","system_id":"levelo_inurba_marseille","lat":43.29275,"lon":5.36843,"is_reserved":false,"is_disabled":false,"rental_uris":{"android":"levelo://app?vid=35193c64-0b8c-4431-b0eb-4eacfe48e106","ios":"levelo://app?vid=35193c64-0b8c-4431-b0eb-4eacfe48e106"},"vehicle_type_id":"4","last_reported":1708535183,"current_range_meters":0,"station_id":"ce4bhbp2rcd13ifvqesg","pricing_plan_id":"cebpf4jnsgd1na2vs0mg"},{"bike_id":"23d5ff37-2db9-4397-8287-dfbf855a543e","system_id":"levelo_inurba_marseille","lat":43.292749,"lon":5.368402,"is_reserved":false,"is_disabled":false,"rental_uris":{"android":"levelo://app?vid=23d5ff37-2db9-4397-8287-dfbf855a543e","ios":"levelo://app?vid=23d5ff37-2db9-4397-8287-dfbf855a543e"},"vehicle_type_id":"4","last_reported":1708535183,"current_range_meters":4000,"station_id":"ce4bhbp2rcd13ifvqesg","pricing_plan_id":"cebpf4jnsgd1na2vs0mg"},{"bike_id":"cd5be424-aab6-410d-a429-60f858863858","system_id":"levelo_inurba_marseille","lat":43.2927,"lon":5.36845,"is_reserved":false,"is_disabled":false,"rental_uris":{"android":"levelo://app?vid=cd5be424-aab6-410d-a429-60f858863858","ios":"levelo://app?vid=cd5be424-aab6-410d-a429-60f858863858"},"vehicle_type_id":"4","last_reported":1708535183,"current_range_meters":0,"station_id":"ce4bhbp2rcd13ifvqesg","pricing_plan_id":"cebpf4jnsgd1na2vs0mg"},{"bike_id":"32709ba0-668c-4fe1-97c3-a6fff5079efd","system_id":"levelo_inurba_marseille","lat":43.30031,"lon":5.38906,"is_reserved":false,"is_disabled":false,"rental_uris":{"android":"levelo://app?vid=32709ba0-668c-4fe1-97c3-a6fff5079efd","ios":"levelo://app?vid=32709ba0-668c-4fe1-97c3-a6fff5079efd"},"vehicle_type_id":"4","last_reported":1708535183,"current_range_meters":0,"station_id":"","pricing_plan_id":"cebpf4jnsgd1na2vs0mg"},{"bike_id":"1886a418-b8e7-4278-b64f-c80c0682b9f4","system_id":"levelo_inurba_marseille","lat":43.29304,"lon":5.37444,"is_reserved":false,"is_disabled":false,"rental_uris":{"android":"levelo://app?vid=1886a418-b8e7-4278-b64f-c80c0682b9f4","ios":"levelo://app?vid=1886a418-b8e7-4278-b64f-c80c0682b9f4"},"vehicle_type_id":"4","last_reported":1708535183,"current_range_meters":18400,"station_id":"ce4bgi12rcd13ifvqb70","pricing_plan_id":"cebpf4jnsgd1na2vs0mg"},{"bike_id":"320997cd-930f-474c-a496-51b27d914129","system_id":"levelo_inurba_marseille","lat":43.293009,"lon":5.374584,"is_reserved":false,"is_disabled":false,"rental_uris":{"android":"levelo://app?vid=320997cd-930f-474c-a496-51b27d914129","ios":"levelo://app?vid=320997cd-930f-474c-a496-51b27d914129"},"vehicle_type_id":"4","last_reported":1708535183,"current_range_meters":14800,"station_id":"ce4bgi12rcd13ifvqb70","pricing_plan_id":"cebpf4jnsgd1na2vs0mg"},{"bike_id":"215ee4ed-f610-44dd-96f2-9b17a05e9bd1","system_id":"levelo_inurba_marseille","lat":43.293009,"lon":5.374584,"is_reserved":false,"is_disabled":false,"rental_uris":{"android":"levelo://app?vid=215ee4ed-f610-44dd-96f2-9b17a05e9bd1","ios":"levelo://app?vid=215ee4ed-f610-44dd-96f2-9b17a05e9bd1"},"vehicle_type_id":"4","last_reported":1708535183,"current_range_meters":12400,"station_id":"ce4bgi12rcd13ifvqb70","pricing_plan_id":"cebpf4jnsgd1na2vs0mg"},{"bike_id":"6a349eeb-2f2b-43cd-94c3-1fd8549b7d78","system_id":"levelo_inurba_marseille","lat":43.293009,"lon":5.374584,"is_reserved":false,"is_disabled":false,"rental_uris":{"android":"levelo://app?vid=6a349eeb-2f2b-43cd-94c3-1fd8549b7d78","ios":"levelo://app?vid=6a349eeb-2f2b-43cd-94c3-1fd8549b7d78"},"vehicle_type_id":"4","last_reported":1708535183,"current_range_meters":20400,"station_id":"ce4bgi12rcd13ifvqb70","pricing_plan_id":"cebpf4jnsgd1na2vs0mg"},{"bike_id":"05db221e-dab6-43fa-ba96-4ee8aa7621c1","system_id":"levelo_inurba_marseille","lat":43.293009,"lon":5.374584,"is_reserved":false,"is_disabled":false,"rental_uris":{"android":"levelo://app?vid=05db221e-dab6-43fa-ba96-4ee8aa7621c1","ios":"levelo://app?vid=05db221e-dab6-43fa-ba96-4ee8aa7621c1"},"vehicle_type_id":"4","last_reported":1708535183,"current_range_meters":17200,"station_id":"ce4bgi12rcd13ifvqb70","pricing_plan_id":"cebpf4jnsgd1na2vs0mg"},{"bike_id":"6598de8e-457a-4a09-8296-cd38c3febe7a","system_id":"levelo_inurba_marseille","lat":43.30307,"lon":5.39209,"is_reserved":false,"is_disabled":false,"rental_uris":{"android":"levelo://app?vid=6598de8e-457a-4a09-8296-cd38c3febe7a","ios":"levelo://app?vid=6598de8e-457a-4a09-8296-cd38c3febe7a"},"vehicle_type_id":"4","last_reported":1708535183,"current_range_meters":14400,"station_id":"ce4bgkh2rcd13ifvqbk0","pricing_plan_id":"cebpf4jnsgd1na2vs0mg"},{"bike_id":"4e73fd02-12b6-4a31-93d4-05a722fe7d01","system_id":"levelo_inurba_marseille","lat":43.302992,"lon":5.392136,"is_reserved":false,"is_disabled":false,"rental_uris":{"android":"levelo://app?vid=4e73fd02-12b6-4a31-93d4-05a722fe7d01","ios":"levelo://app?vid=4e73fd02-12b6-4a31-93d4-05a722fe7d01"},"vehicle_type_id":"4","last_reported":1708535183,"current_range_meters":5600,"station_id":"ce4bgkh2rcd13ifvqbk0","pricing_plan_id":"cebpf4jnsgd1na2vs0mg"},{"bike_id":"9b0fce20-eb09-4df3-bdc3-c6c2b337dc86","system_id":"levelo_inurba_marseille","lat":43.29226,"lon":5.36241,"is_reserved":false,"is_disabled":false,"rental_uris":{"android":"levelo://app?vid=9b0fce20-eb09-4df3-bdc3-c6c2b337dc86","ios":"levelo://app?vid=9b0fce20-eb09-4df3-bdc3-c6c2b337dc86"},"vehicle_type_id":"4","last_reported":1708535183,"current_range_meters":25600,"station_id":"","pricing_plan_id":"cebpf4jnsgd1na2vs0mg"},{"bike_id":"bd5ad9a3-7f8e-48c8-ac1d-a6b8f76ee307","system_id":"levelo_inurba_marseille","lat":43.2938,"lon":5.37862,"is_reserved":false,"is_disabled":false,"rental_uris":{"android":"levelo://app?vid=bd5ad9a3-7f8e-48c8-ac1d-a6b8f76ee307","ios":"levelo://app?vid=bd5ad9a3-7f8e-48c8-ac1d-a6b8f76ee307"},"vehicle_type_id":"4","last_reported":1708535183,"current_range_meters":0,"station_id":"ce4bgjh2rcd13ifvqbf0","pricing_plan_id":"cebpf4jnsgd1na2vs0mg"},{"bike_id":"720157e0-242c-4278-8719-8b1880df2f49","system_id":"levelo_inurba_marseille","lat":43.298764,"lon":5.388973,"is_reserved":false,"is_disabled":false,"rental_uris":{"android":"levelo://app?vid=720157e0-242c-4278-8719-8b1880df2f49","ios":"levelo://app?vid=720157e0-242c-4278-8719-8b1880df2f49"},"vehicle_type_id":"4","last_reported":1708535183,"current_range_meters":13200,"station_id":"ce4bh392rcd13ifvqdl0","pricing_plan_id":"cebpf4jnsgd1na2vs0mg"},{"bike_id":"af2f4fd6-392c-46f5-bf45-193b641a4f55","system_id":"levelo_inurba_marseille","lat":43.302881,"lon":5.392268,"is_reserved":false,"is_disabled":false,"rental_uris":{"android":"levelo://app?vid=af2f4fd6-392c-46f5-bf45-193b641a4f55","ios":"levelo://app?vid=af2f4fd6-392c-46f5-bf45-193b641a4f55"},"vehicle_type_id":"4","last_reported":1708535183,"current_range_meters":31200,"station_id":"ce4bgkh2rcd13ifvqbk0","pricing_plan_id":"cebpf4jnsgd1na2vs0mg"},{"bike_id":"82823806-6c5c-41bb-95f4-0a4dbf99e80a","system_id":"levelo_inurba_marseille","lat":43.30085,"lon":5.390856,"is_reserved":false,"is_disabled":false,"rental_uris":{"android":"levelo://app?vid=82823806-6c5c-41bb-95f4-0a4dbf99e80a","ios":"levelo://app?vid=82823806-6c5c-41bb-95f4-0a4dbf99e80a"},"vehicle_type_id":"4","last_reported":1708535183,"current_range_meters":8000,"station_id":"ce4bh192rcd13ifvqdb0","pricing_plan_id":"cebpf4jnsgd1na2vs0mg"},{"bike_id":"b93f5232-ad58-45a8-a17d-2475670dd6d6","system_id":"levelo_inurba_marseille","lat":43.300932,"lon":5.390766,"is_reserved":false,"is_disabled":false,"rental_uris":{"android":"levelo://app?vid=b93f5232-ad58-45a8-a17d-2475670dd6d6","ios":"levelo://app?vid=b93f5232-ad58-45a8-a17d-2475670dd6d6"},"vehicle_type_id":"4","last_reported":1708535183,"current_range_meters":0,"station_id":"ce4bh192rcd13ifvqdb0","pricing_plan_id":"cebpf4jnsgd1na2vs0mg"},{"bike_id":"b3d12e31-bb95-417c-9be8-232c2026a232","system_id":"levelo_inurba_marseille","lat":43.298764,"lon":5.388973,"is_reserved":false,"is_disabled":false,"rental_uris":{"android":"levelo://app?vid=b3d12e31-bb95-417c-9be8-232c2026a232","ios":"levelo://app?vid=b3d12e31-bb95-417c-9be8-232c2026a232"},"vehicle_type_id":"4","last_reported":1708535183,"current_range_meters":1600,"station_id":"ce4bh392rcd13ifvqdl0","pricing_plan_id":"cebpf4jnsgd1na2vs0mg"},{"bike_id":"3f82473f-cb29-415c-9be9-e4f29dbe6929","system_id":"levelo_inurba_marseille","lat":43.292311,"lon":5.360731,"is_reserved":false,"is_disabled":false,"rental_uris":{"android":"levelo://app?vid=3f82473f-cb29-415c-9be9-e4f29dbe6929","ios":"levelo://app?vid=3f82473f-cb29-415c-9be9-e4f29dbe6929"},"vehicle_type_id":"4","last_reported":1708535183,"current_range_meters":0,"station_id":"ce4bhbh2rcd13ifvqeqg","pricing_plan_id":"cebpf4jnsgd1na2vs0mg"},{"bike_id":"61f705f1-8e93-4b99-9ab0-6f286ee2cd40","system_id":"levelo_inurba_marseille","lat":43.300852,"lon":5.390859,"is_reserved":false,"is_disabled":false,"rental_uris":{"android":"levelo://app?vid=61f705f1-8e93-4b99-9ab0-6f286ee2cd40","ios":"levelo://app?vid=61f705f1-8e93-4b99-9ab0-6f286ee2cd40"},"vehicle_type_id":"4","last_reported":1708535183,"current_range_meters":6800,"station_id":"ce4bh192rcd13ifvqdb0","pricing_plan_id":"cebpf4jnsgd1na2vs0mg"},{"bike_id":"de97b85f-d8c1-4ca0-bf4f-6316dd415b04","system_id":"levelo_inurba_marseille","lat":43.298764,"lon":5.388973,"is_reserved":false,"is_disabled":false,"rental_uris":{"android":"levelo://app?vid=de97b85f-d8c1-4ca0-bf4f-6316dd415b04","ios":"levelo://app?vid=de97b85f-d8c1-4ca0-bf4f-6316dd415b04"},"vehicle_type_id":"4","last_reported":1708535183,"current_range_meters":0,"station_id":"ce4bh392rcd13ifvqdl0","pricing_plan_id":"cebpf4jnsgd1na2vs0mg"},{"bike_id":"de727bfb-96dd-4293-bcd2-321e7bd22637","system_id":"levelo_inurba_marseille","lat":43.258658,"lon":5.398935,"is_reserved":false,"is_disabled":false,"rental_uris":{"android":"levelo://app?vid=de727bfb-96dd-4293-bcd2-321e7bd22637","ios":"levelo://app?vid=de727bfb-96dd-4293-bcd2-321e7bd22637"},"vehicle_type_id":"4","last_reported":1708535183,"current_range_meters":18000,"station_id":"ce4bhl92rcd13ifvqghg","pricing_plan_id":"cebpf4jnsgd1na2vs0mg"},{"bike_id":"90a27d11-f4c6-41f0-a73a-7480d057ed6d","system_id":"levelo_inurba_marseille","lat":43.298764,"lon":5.388973,"is_reserved":false,"is_disabled":false,"rental_uris":{"android":"levelo://app?vid=90a27d11-f4c6-41f0-a73a-7480d057ed6d","ios":"levelo://app?vid=90a27d11-f4c6-41f0-a73a-7480d057ed6d"},"vehicle_type_id":"4","last_reported":1708535183,"current_range_meters":5200,"station_id":"ce4bh392rcd13ifvqdl0","pricing_plan_id":"cebpf4jnsgd1na2vs0mg"},{"bike_id":"bab5fc03-439e-4a1e-a080-c3b864c0e77a","system_id":"levelo_inurba_marseille","lat":43.298764,"lon":5.388973,"is_reserved":false,"is_disabled":false,"rental_uris":{"android":"levelo://app?vid=bab5fc03-439e-4a1e-a080-c3b864c0e77a","ios":"levelo://app?vid=bab5fc03-439e-4a1e-a080-c3b864c0e77a"},"vehicle_type_id":"4","last_reported":1708535183,"current_range_meters":16000,"station_id":"ce4bh392rcd13ifvqdl0","pricing_plan_id":"cebpf4jnsgd1na2vs0mg"},{"bike_id":"f6141864-943f-417e-87cc-0a955ab58a54","system_id":"levelo_inurba_marseille","lat":43.291675,"lon":5.371583,"is_reserved":false,"is_disabled":false,"rental_uris":{"android":"levelo://app?vid=f6141864-943f-417e-87cc-0a955ab58a54","ios":"levelo://app?vid=f6141864-943f-417e-87cc-0a955ab58a54"},"vehicle_type_id":"4","last_reported":1708535183,"current_range_meters":22000,"station_id":"ce4bha92rcd13ifvqeh0","pricing_plan_id":"cebpf4jnsgd1na2vs0mg"},{"bike_id":"df0eb767-509e-4ca3-be51-66ee167fd2f1","system_id":"levelo_inurba_marseille","lat":43.291671,"lon":5.371575,"is_reserved":false,"is_disabled":false,"rental_uris":{"android":"levelo://app?vid=df0eb767-509e-4ca3-be51-66ee167fd2f1","ios":"levelo://app?vid=df0eb767-509e-4ca3-be51-66ee167fd2f1"},"vehicle_type_id":"4","last_reported":1708535183,"current_range_meters":0,"station_id":"ce4bha92rcd13ifvqeh0","pricing_plan_id":"cebpf4jnsgd1na2vs0mg"},{"bike_id":"c05a95d5-f6cf-4307-8b42-916b00e1df5d","system_id":"levelo_inurba_marseille","lat":43.298764,"lon":5.388973,"is_reserved":false,"is_disabled":false,"rental_uris":{"android":"levelo://app?vid=c05a95d5-f6cf-4307-8b42-916b00e1df5d","ios":"levelo://app?vid=c05a95d5-f6cf-4307-8b42-916b00e1df5d"},"vehicle_type_id":"4","last_reported":1708535183,"current_range_meters":22800,"station_id":"ce4bh392rcd13ifvqdl0","pricing_plan_id":"cebpf4jnsgd1na2vs0mg"},{"bike_id":"9194e192-72ad-4090-b532-443cb0553bea","system_id":"levelo_inurba_marseille","lat":43.291994,"lon":5.357886,"is_reserved":false,"is_disabled":false,"rental_uris":{"android":"levelo://app?vid=9194e192-72ad-4090-b532-443cb0553bea","ios":"levelo://app?vid=9194e192-72ad-4090-b532-443cb0553bea"},"vehicle_type_id":"4","last_reported":1708535183,"current_range_meters":22400,"station_id":"ce4bhb12rcd13ifvqel0","pricing_plan_id":"cebpf4jnsgd1na2vs0mg"},{"bike_id":"6351fd86-ed18-4808-8e93-28488343644d","system_id":"levelo_inurba_marseille","lat":43.291994,"lon":5.357886,"is_reserved":false,"is_disabled":false,"rental_uris":{"android":"levelo://app?vid=6351fd86-ed18-4808-8e93-28488343644d","ios":"levelo://app?vid=6351fd86-ed18-4808-8e93-28488343644d"},"vehicle_type_id":"4","last_reported":1708535183,"current_range_meters":8800,"station_id":"ce4bhb12rcd13ifvqel0","pricing_plan_id":"cebpf4jnsgd1na2vs0mg"},{"bike_id":"4c79dbf3-648e-4b04-a815-6ea8b27e9798","system_id":"levelo_inurba_marseille","lat":43.313291,"lon":5.396838,"is_reserved":false,"is_disabled":false,"rental_uris":{"android":"levelo://app?vid=4c79dbf3-648e-4b04-a815-6ea8b27e9798","ios":"levelo://app?vid=4c79dbf3-648e-4b04-a815-6ea8b27e9798"},"vehicle_type_id":"4","last_reported":1708535183,"current_range_meters":10400,"station_id":"ce4bgvp2rcd13ifvqcu0","pricing_plan_id":"cebpf4jnsgd1na2vs0mg"},{"bike_id":"87abdab6-7da7-4ccb-9aaa-7bdd755929cb","system_id":"levelo_inurba_marseille","lat":43.30881,"lon":5.39641,"is_reserved":false,"is_disabled":false,"rental_uris":{"android":"levelo://app?vid=87abdab6-7da7-4ccb-9aaa-7bdd755929cb","ios":"levelo://app?vid=87abdab6-7da7-4ccb-9aaa-7bdd755929cb"},"vehicle_type_id":"4","last_reported":1708535183,"current_range_meters":6000,"station_id":"ce4bh012rcd13ifvqcv0","pricing_plan_id":"cebpf4jnsgd1na2vs0mg"},{"bike_id":"d3f70d8f-59af-42e1-b9e4-d38e2ba7de64","system_id":"levelo_inurba_marseille","lat":43.313291,"lon":5.396838,"is_reserved":false,"is_disabled":false,"rental_uris":{"android":"levelo://app?vid=d3f70d8f-59af-42e1-b9e4-d38e2ba7de64","ios":"levelo://app?vid=d3f70d8f-59af-42e1-b9e4-d38e2ba7de64"},"vehicle_type_id":"4","last_reported":1708535183,"current_range_meters":20000,"station_id":"ce4bgvp2rcd13ifvqcu0","pricing_plan_id":"cebpf4jnsgd1na2vs0mg"},{"bike_id":"18e04193-abd3-47c1-9848-44b84cc6951e","system_id":"levelo_inurba_marseille","lat":43.313291,"lon":5.396838,"is_reserved":false,"is_disabled":false,"rental_uris":{"android":"levelo://app?vid=18e04193-abd3-47c1-9848-44b84cc6951e","ios":"levelo://app?vid=18e04193-abd3-47c1-9848-44b84cc6951e"},"vehicle_type_id":"4","last_reported":1708535183,"current_range_meters":3200,"station_id":"ce4bgvp2rcd13ifvqcu0","pricing_plan_id":"cebpf4jnsgd1na2vs0mg"},{"bike_id":"ba635cc5-691d-485a-9dc4-b566ce35d73b","system_id":"levelo_inurba_marseille","lat":43.313291,"lon":5.396838,"is_reserved":false,"is_disabled":false,"rental_uris":{"android":"levelo://app?vid=ba635cc5-691d-485a-9dc4-b566ce35d73b","ios":"levelo://app?vid=ba635cc5-691d-485a-9dc4-b566ce35d73b"},"vehicle_type_id":"4","last_reported":1708535183,"current_range_meters":2400,"station_id":"ce4bgvp2rcd13ifvqcu0","pricing_plan_id":"cebpf4jnsgd1na2vs0mg"},{"bike_id":"c4c2e3f8-daa0-4b94-9882-6f8dc15a6f13","system_id":"levelo_inurba_marseille","lat":43.31334,"lon":5.39696,"is_reserved":false,"is_disabled":false,"rental_uris":{"android":"levelo://app?vid=c4c2e3f8-daa0-4b94-9882-6f8dc15a6f13","ios":"levelo://app?vid=c4c2e3f8-daa0-4b94-9882-6f8dc15a6f13"},"vehicle_type_id":"4","last_reported":1708535183,"current_range_meters":26800,"station_id":"ce4bgvp2rcd13ifvqcu0","pricing_plan_id":"cebpf4jnsgd1na2vs0mg"},{"bike_id":"28073a83-2659-4277-a15a-5ae8ae705e9f","system_id":"levelo_inurba_marseille","lat":43.309038,"lon":5.396546,"is_reserved":false,"is_disabled":false,"rental_uris":{"android":"levelo://app?vid=28073a83-2659-4277-a15a-5ae8ae705e9f","ios":"levelo://app?vid=28073a83-2659-4277-a15a-5ae8ae705e9f"},"vehicle_type_id":"4","last_reported":1708535183,"current_range_meters":2400,"station_id":"ce4bh012rcd13ifvqcv0","pricing_plan_id":"cebpf4jnsgd1na2vs0mg"},{"bike_id":"2f484a49-92c2-4dcc-b58d-788c7591dca7","system_id":"levelo_inurba_marseille","lat":43.309047,"lon":5.396551,"is_reserved":false,"is_disabled":false,"rental_uris":{"android":"levelo://app?vid=2f484a49-92c2-4dcc-b58d-788c7591dca7","ios":"levelo://app?vid=2f484a49-92c2-4dcc-b58d-788c7591dca7"},"vehicle_type_id":"4","last_reported":1708535183,"current_range_meters":0,"station_id":"ce4bh012rcd13ifvqcv0","pricing_plan_id":"cebpf4jnsgd1na2vs0mg"},{"bike_id":"c4e55e9f-ec12-4de4-831c-fe776254f6e8","system_id":"levelo_inurba_marseille","lat":43.309038,"lon":5.396546,"is_reserved":false,"is_disabled":false,"rental_uris":{"android":"levelo://app?vid=c4e55e9f-ec12-4de4-831c-fe776254f6e8","ios":"levelo://app?vid=c4e55e9f-ec12-4de4-831c-fe776254f6e8"},"vehicle_type_id":"4","last_reported":1708535183,"current_range_meters":1200,"station_id":"ce4bh012rcd13ifvqcv0","pricing_plan_id":"cebpf4jnsgd1na2vs0mg"},{"bike_id":"478558e3-8969-4cfe-9822-c1f33e17a8d4","system_id":"levelo_inurba_marseille","lat":43.29529,"lon":5.385581,"is_reserved":false,"is_disabled":false,"rental_uris":{"android":"levelo://app?vid=478558e3-8969-4cfe-9822-c1f33e17a8d4","ios":"levelo://app?vid=478558e3-8969-4cfe-9822-c1f33e17a8d4"},"vehicle_type_id":"4","last_reported":1708535183,"current_range_meters":12800,"station_id":"ce4bgih2rcd13ifvqba0","pricing_plan_id":"cebpf4jnsgd1na2vs0mg"},{"bike_id":"383fd09c-fcb4-4298-9940-1defb8f7f35b","system_id":"levelo_inurba_marseille","lat":43.29529,"lon":5.385581,"is_reserved":false,"is_disabled":false,"rental_uris":{"android":"levelo://app?vid=383fd09c-fcb4-4298-9940-1defb8f7f35b","ios":"levelo://app?vid=383fd09c-fcb4-4298-9940-1defb8f7f35b"},"vehicle_type_id":"4","last_reported":1708535183,"current_range_meters":23200,"station_id":"ce4bgih2rcd13ifvqba0","pricing_plan_id":"cebpf4jnsgd1na2vs0mg"},{"bike_id":"622e5060-b5a6-47d5-b4ad-3984038bb5b8","system_id":"levelo_inurba_marseille","lat":43.290779,"lon":5.371482,"is_reserved":false,"is_disabled":false,"rental_uris":{"android":"levelo://app?vid=622e5060-b5a6-47d5-b4ad-3984038bb5b8","ios":"levelo://app?vid=622e5060-b5a6-47d5-b4ad-3984038bb5b8"},"vehicle_type_id":"4","last_reported":1708535183,"current_range_meters":16400,"station_id":"ce4bh5p2rcd13ifvqe4g","pricing_plan_id":"cebpf4jnsgd1na2vs0mg"},{"bike_id":"a73c3474-5a33-4d46-9629-7df86dfdcbee","system_id":"levelo_inurba_marseille","lat":43.290779,"lon":5.371482,"is_reserved":false,"is_disabled":false,"rental_uris":{"android":"levelo://app?vid=a73c3474-5a33-4d46-9629-7df86dfdcbee","ios":"levelo://app?vid=a73c3474-5a33-4d46-9629-7df86dfdcbee"},"vehicle_type_id":"4","last_reported":1708535183,"current_range_meters":9600,"station_id":"ce4bh5p2rcd13ifvqe4g","pricing_plan_id":"cebpf4jnsgd1na2vs0mg"},{"bike_id":"cd02afac-31a9-4283-bc40-8ef66806b87d","system_id":"levelo_inurba_marseille","lat":43.302008,"lon":5.394694,"is_reserved":false,"is_disabled":false,"rental_uris":{"android":"levelo://app?vid=cd02afac-31a9-4283-bc40-8ef66806b87d","ios":"levelo://app?vid=cd02afac-31a9-4283-bc40-8ef66806b87d"},"vehicle_type_id":"4","last_reported":1708535183,"current_range_meters":16800,"station_id":"ce4bh0p2rcd13ifvqd70","pricing_plan_id":"cebpf4jnsgd1na2vs0mg"},{"bike_id":"065937b6-7dc7-4db3-953b-d20769afc279","system_id":"levelo_inurba_marseille","lat":43.302008,"lon":5.394694,"is_reserved":false,"is_disabled":false,"rental_uris":{"android":"levelo://app?vid=065937b6-7dc7-4db3-953b-d20769afc279","ios":"levelo://app?vid=065937b6-7dc7-4db3-953b-d20769afc279"},"vehicle_type_id":"4","last_reported":1708535183,"current_range_meters":17200,"station_id":"ce4bh0p2rcd13ifvqd70","pricing_plan_id":"cebpf4jnsgd1na2vs0mg"},{"bike_id":"15aa425c-c9b2-4666-bc07-e3f3304c110b","system_id":"levelo_inurba_marseille","lat":43.290624,"lon":5.359245,"is_reserved":false,"is_disabled":false,"rental_uris":{"android":"levelo://app?vid=15aa425c-c9b2-4666-bc07-e3f3304c110b","ios":"levelo://app?vid=15aa425c-c9b2-4666-bc07-e3f3304c110b"},"vehicle_type_id":"4","last_reported":1708535183,"current_range_meters":18400,"station_id":"ce4bha92rcd13ifvqeg0","pricing_plan_id":"cebpf4jnsgd1na2vs0mg"},{"bike_id":"331964a6-c250-4d11-80dd-979889558901","system_id":"levelo_inurba_marseille","lat":43.290631,"lon":5.359244,"is_reserved":false,"is_disabled":false,"rental_uris":{"android":"levelo://app?vid=331964a6-c250-4d11-80dd-979889558901","ios":"levelo://app?vid=331964a6-c250-4d11-80dd-979889558901"},"vehicle_type_id":"4","last_reported":1708535183,"current_range_meters":0,"station_id":"ce4bha92rcd13ifvqeg0","pricing_plan_id":"cebpf4jnsgd1na2vs0mg"},{"bike_id":"f5c1eba7-c14d-438a-89cb-7c1e1cdbe592","system_id":"levelo_inurba_marseille","lat":43.294153,"lon":5.386305,"is_reserved":false,"is_disabled":false,"rental_uris":{"android":"levelo://app?vid=f5c1eba7-c14d-438a-89cb-7c1e1cdbe592","ios":"levelo://app?vid=f5c1eba7-c14d-438a-89cb-7c1e1cdbe592"},"vehicle_type_id":"4","last_reported":1708535183,"current_range_meters":12400,"station_id":"ce4bh2h2rcd13ifvqdh0","pricing_plan_id":"cebpf4jnsgd1na2vs0mg"},{"bike_id":"872419e2-f61d-4381-8f5b-724a2253d813","system_id":"levelo_inurba_marseille","lat":43.294153,"lon":5.386305,"is_reserved":false,"is_disabled":false,"rental_uris":{"android":"levelo://app?vid=872419e2-f61d-4381-8f5b-724a2253d813","ios":"levelo://app?vid=872419e2-f61d-4381-8f5b-724a2253d813"},"vehicle_type_id":"4","last_reported":1708535183,"current_range_meters":21600,"station_id":"ce4bh2h2rcd13ifvqdh0","pricing_plan_id":"cebpf4jnsgd1na2vs0mg"},{"bike_id":"fd7e996b-2292-4719-ace9-898ce8439688","system_id":"levelo_inurba_marseille","lat":43.294165,"lon":5.386193,"is_reserved":false,"is_disabled":false,"rental_uris":{"android":"levelo://app?vid=fd7e996b-2292-4719-ace9-898ce8439688","ios":"levelo://app?vid=fd7e996b-2292-4719-ace9-898ce8439688"},"vehicle_type_id":"4","last_reported":1708535183,"current_range_meters":12000,"station_id":"ce4bh2h2rcd13ifvqdh0","pricing_plan_id":"cebpf4jnsgd1na2vs0mg"},{"bike_id":"9ad80903-edd6-46ae-8968-caae09d2d403","system_id":"levelo_inurba_marseille","lat":43.294153,"lon":5.386305,"is_reserved":false,"is_disabled":false,"rental_uris":{"android":"levelo://app?vid=9ad80903-edd6-46ae-8968-caae09d2d403","ios":"levelo://app?vid=9ad80903-edd6-46ae-8968-caae09d2d403"},"vehicle_type_id":"4","last_reported":1708535183,"current_range_meters":0,"station_id":"ce4bh2h2rcd13ifvqdh0","pricing_plan_id":"cebpf4jnsgd1na2vs0mg"},{"bike_id":"5ff5d36a-0455-4d98-8f44-ab248161f1b3","system_id":"levelo_inurba_marseille","lat":43.29417,"lon":5.38623,"is_reserved":false,"is_disabled":false,"rental_uris":{"android":"levelo://app?vid=5ff5d36a-0455-4d98-8f44-ab248161f1b3","ios":"levelo://app?vid=5ff5d36a-0455-4d98-8f44-ab248161f1b3"},"vehicle_type_id":"4","last_reported":1708535183,"current_range_meters":17200,"station_id":"ce4bh2h2rcd13ifvqdh0","pricing_plan_id":"cebpf4jnsgd1na2vs0mg"},{"bike_id":"849c97f9-3c5b-4c98-a34c-790acfa19727","system_id":"levelo_inurba_marseille","lat":43.289184,"lon":5.366408,"is_reserved":false,"is_disabled":false,"rental_uris":{"android":"levelo://app?vid=849c97f9-3c5b-4c98-a34c-790acfa19727","ios":"levelo://app?vid=849c97f9-3c5b-4c98-a34c-790acfa19727"},"vehicle_type_id":"4","last_reported":1708535183,"current_range_meters":400,"station_id":"ce4bhap2rcd13ifvqek0","pricing_plan_id":"cebpf4jnsgd1na2vs0mg"},{"bike_id":"aa01ea58-44fd-4850-a93b-f35c2a911af9","system_id":"levelo_inurba_marseille","lat":43.289447,"lon":5.366267,"is_reserved":false,"is_disabled":false,"rental_uris":{"android":"levelo://app?vid=aa01ea58-44fd-4850-a93b-f35c2a911af9","ios":"levelo://app?vid=aa01ea58-44fd-4850-a93b-f35c2a911af9"},"vehicle_type_id":"4","last_reported":1708535183,"current_range_meters":16000,"station_id":"ce4bhap2rcd13ifvqek0","pricing_plan_id":"cebpf4jnsgd1na2vs0mg"},{"bike_id":"ef6cd128-a7a7-4341-b036-09fd58a5f5a2","system_id":"levelo_inurba_marseille","lat":43.294162,"lon":5.386292,"is_reserved":false,"is_disabled":false,"rental_uris":{"android":"levelo://app?vid=ef6cd128-a7a7-4341-b036-09fd58a5f5a2","ios":"levelo://app?vid=ef6cd128-a7a7-4341-b036-09fd58a5f5a2"},"vehicle_type_id":"4","last_reported":1708535183,"current_range_meters":19200,"station_id":"ce4bh2h2rcd13ifvqdh0","pricing_plan_id":"cebpf4jnsgd1na2vs0mg"},{"bike_id":"67d8278f-1a49-4e5c-aa01-58faf7b7f256","system_id":"levelo_inurba_marseille","lat":43.294162,"lon":5.386292,"is_reserved":false,"is_disabled":false,"rental_uris":{"android":"levelo://app?vid=67d8278f-1a49-4e5c-aa01-58faf7b7f256","ios":"levelo://app?vid=67d8278f-1a49-4e5c-aa01-58faf7b7f256"},"vehicle_type_id":"4","last_reported":1708535183,"current_range_meters":0,"station_id":"ce4bh2h2rcd13ifvqdh0","pricing_plan_id":"cebpf4jnsgd1na2vs0mg"},{"bike_id":"9e3f645b-8d6f-4b54-8251-4c94893559f7","system_id":"levelo_inurba_marseille","lat":43.289184,"lon":5.366408,"is_reserved":false,"is_disabled":false,"rental_uris":{"android":"levelo://app?vid=9e3f645b-8d6f-4b54-8251-4c94893559f7","ios":"levelo://app?vid=9e3f645b-8d6f-4b54-8251-4c94893559f7"},"vehicle_type_id":"4","last_reported":1708535183,"current_range_meters":6800,"station_id":"ce4bhap2rcd13ifvqek0","pricing_plan_id":"cebpf4jnsgd1na2vs0mg"},{"bike_id":"75428144-78e3-4896-885a-195289784092","system_id":"levelo_inurba_marseille","lat":43.289184,"lon":5.366408,"is_reserved":false,"is_disabled":false,"rental_uris":{"android":"levelo://app?vid=75428144-78e3-4896-885a-195289784092","ios":"levelo://app?vid=75428144-78e3-4896-885a-195289784092"},"vehicle_type_id":"4","last_reported":1708535183,"current_range_meters":11200,"station_id":"ce4bhap2rcd13ifvqek0","pricing_plan_id":"cebpf4jnsgd1na2vs0mg"},{"bike_id":"2d1d8d36-b4ce-4ab2-8384-7f2b6eac51ee","system_id":"levelo_inurba_marseille","lat":43.289184,"lon":5.366408,"is_reserved":false,"is_disabled":false,"rental_uris":{"android":"levelo://app?vid=2d1d8d36-b4ce-4ab2-8384-7f2b6eac51ee","ios":"levelo://app?vid=2d1d8d36-b4ce-4ab2-8384-7f2b6eac51ee"},"vehicle_type_id":"4","last_reported":1708535183,"current_range_meters":16800,"station_id":"ce4bhap2rcd13ifvqek0","pricing_plan_id":"cebpf4jnsgd1na2vs0mg"},{"bike_id":"58d612fb-8aa9-4aa1-adea-b2ff6f4cdfd6","system_id":"levelo_inurba_marseille","lat":43.289184,"lon":5.366408,"is_reserved":false,"is_disabled":false,"rental_uris":{"android":"levelo://app?vid=58d612fb-8aa9-4aa1-adea-b2ff6f4cdfd6","ios":"levelo://app?vid=58d612fb-8aa9-4aa1-adea-b2ff6f4cdfd6"},"vehicle_type_id":"4","last_reported":1708535183,"current_range_meters":4400,"station_id":"ce4bhap2rcd13ifvqek0","pricing_plan_id":"cebpf4jnsgd1na2vs0mg"},{"bike_id":"3078ac0b-8f37-45f0-8ace-13c971a7a54a","system_id":"levelo_inurba_marseille","lat":43.289184,"lon":5.366408,"is_reserved":false,"is_disabled":false,"rental_uris":{"android":"levelo://app?vid=3078ac0b-8f37-45f0-8ace-13c971a7a54a","ios":"levelo://app?vid=3078ac0b-8f37-45f0-8ace-13c971a7a54a"},"vehicle_type_id":"4","last_reported":1708535183,"current_range_meters":13200,"station_id":"ce4bhap2rcd13ifvqek0","pricing_plan_id":"cebpf4jnsgd1na2vs0mg"},{"bike_id":"7b2027ba-4691-4a5e-ae87-1a967e3ca04d","system_id":"levelo_inurba_marseille","lat":43.289184,"lon":5.366408,"is_reserved":false,"is_disabled":false,"rental_uris":{"android":"levelo://app?vid=7b2027ba-4691-4a5e-ae87-1a967e3ca04d","ios":"levelo://app?vid=7b2027ba-4691-4a5e-ae87-1a967e3ca04d"},"vehicle_type_id":"4","last_reported":1708535183,"current_range_meters":21600,"station_id":"ce4bhap2rcd13ifvqek0","pricing_plan_id":"cebpf4jnsgd1na2vs0mg"},{"bike_id":"526ae2b9-206d-4efe-a253-34cc4ebee654","system_id":"levelo_inurba_marseille","lat":43.28933,"lon":5.36638,"is_reserved":false,"is_disabled":false,"rental_uris":{"android":"levelo://app?vid=526ae2b9-206d-4efe-a253-34cc4ebee654","ios":"levelo://app?vid=526ae2b9-206d-4efe-a253-34cc4ebee654"},"vehicle_type_id":"4","last_reported":1708535183,"current_range_meters":0,"station_id":"ce4bhah2rcd13ifvqei0","pricing_plan_id":"cebpf4jnsgd1na2vs0mg"},{"bike_id":"b8bd9faa-bce3-4e48-af6f-49b59cf81dc7","system_id":"levelo_inurba_marseille","lat":43.289184,"lon":5.366408,"is_reserved":false,"is_disabled":false,"rental_uris":{"android":"levelo://app?vid=b8bd9faa-bce3-4e48-af6f-49b59cf81dc7","ios":"levelo://app?vid=b8bd9faa-bce3-4e48-af6f-49b59cf81dc7"},"vehicle_type_id":"4","last_reported":1708535183,"current_range_meters":20000,"station_id":"ce4bhap2rcd13ifvqek0","pricing_plan_id":"cebpf4jnsgd1na2vs0mg"},{"bike_id":"26faf585-9b00-4b0d-af1b-2b360c79d826","system_id":"levelo_inurba_marseille","lat":43.289184,"lon":5.366408,"is_reserved":false,"is_disabled":false,"rental_uris":{"android":"levelo://app?vid=26faf585-9b00-4b0d-af1b-2b360c79d826","ios":"levelo://app?vid=26faf585-9b00-4b0d-af1b-2b360c79d826"},"vehicle_type_id":"4","last_reported":1708535183,"current_range_meters":9600,"station_id":"ce4bhap2rcd13ifvqek0","pricing_plan_id":"cebpf4jnsgd1na2vs0mg"},{"bike_id":"dcb60a87-1dd1-4e87-9888-70c75e65c1d3","system_id":"levelo_inurba_marseille","lat":43.330442,"lon":5.389148,"is_reserved":false,"is_disabled":false,"rental_uris":{"android":"levelo://app?vid=dcb60a87-1dd1-4e87-9888-70c75e65c1d3","ios":"levelo://app?vid=dcb60a87-1dd1-4e87-9888-70c75e65c1d3"},"vehicle_type_id":"4","last_reported":1708535183,"current_range_meters":6400,"station_id":"ce4bhr92rcd13ifvqhrg","pricing_plan_id":"cebpf4jnsgd1na2vs0mg"},{"bike_id":"ea9f2ce9-f7b1-4309-ac40-13521cdc5c26","system_id":"levelo_inurba_marseille","lat":43.292642,"lon":5.384254,"is_reserved":false,"is_disabled":false,"rental_uris":{"android":"levelo://app?vid=ea9f2ce9-f7b1-4309-ac40-13521cdc5c26","ios":"levelo://app?vid=ea9f2ce9-f7b1-4309-ac40-13521cdc5c26"},"vehicle_type_id":"4","last_reported":1708535183,"current_range_meters":1200,"station_id":"ce4bh692rcd13ifvqea0","pricing_plan_id":"cebpf4jnsgd1na2vs0mg"},{"bike_id":"a18e9d63-29bf-4de0-995f-f95f36919160","system_id":"levelo_inurba_marseille","lat":43.292644,"lon":5.384257,"is_reserved":false,"is_disabled":false,"rental_uris":{"android":"levelo://app?vid=a18e9d63-29bf-4de0-995f-f95f36919160","ios":"levelo://app?vid=a18e9d63-29bf-4de0-995f-f95f36919160"},"vehicle_type_id":"4","last_reported":1708535183,"current_range_meters":1200,"station_id":"ce4bh692rcd13ifvqea0","pricing_plan_id":"cebpf4jnsgd1na2vs0mg"},{"bike_id":"2a2c1475-c454-4905-b86a-16ae63c9a5c0","system_id":"levelo_inurba_marseille","lat":43.292642,"lon":5.384254,"is_reserved":false,"is_disabled":false,"rental_uris":{"android":"levelo://app?vid=2a2c1475-c454-4905-b86a-16ae63c9a5c0","ios":"levelo://app?vid=2a2c1475-c454-4905-b86a-16ae63c9a5c0"},"vehicle_type_id":"4","last_reported":1708535183,"current_range_meters":18800,"station_id":"ce4bh692rcd13ifvqea0","pricing_plan_id":"cebpf4jnsgd1na2vs0mg"},{"bike_id":"64c8a977-e817-4529-bbbf-d54830de4873","system_id":"levelo_inurba_marseille","lat":43.29103,"lon":5.38085,"is_reserved":false,"is_disabled":false,"rental_uris":{"android":"levelo://app?vid=64c8a977-e817-4529-bbbf-d54830de4873","ios":"levelo://app?vid=64c8a977-e817-4529-bbbf-d54830de4873"},"vehicle_type_id":"4","last_reported":1708535183,"current_range_meters":8800,"station_id":"","pricing_plan_id":"cebpf4jnsgd1na2vs0mg"},{"bike_id":"7b47049e-e3be-4023-871c-41d3e5e184d6","system_id":"levelo_inurba_marseille","lat":43.29005,"lon":5.35627,"is_reserved":false,"is_disabled":false,"rental_uris":{"android":"levelo://app?vid=7b47049e-e3be-4023-871c-41d3e5e184d6","ios":"levelo://app?vid=7b47049e-e3be-4023-871c-41d3e5e184d6"},"vehicle_type_id":"4","last_reported":1708535183,"current_range_meters":0,"station_id":"ce4bhb92rcd13ifvqen0","pricing_plan_id":"cebpf4jnsgd1na2vs0mg"},{"bike_id":"71556200-2f05-46c5-9ddf-b7da2a10ea3d","system_id":"levelo_inurba_marseille","lat":43.290104,"lon":5.356111,"is_reserved":false,"is_disabled":false,"rental_uris":{"android":"levelo://app?vid=71556200-2f05-46c5-9ddf-b7da2a10ea3d","ios":"levelo://app?vid=71556200-2f05-46c5-9ddf-b7da2a10ea3d"},"vehicle_type_id":"4","last_reported":1708535183,"current_range_meters":2400,"station_id":"ce4bhb92rcd13ifvqen0","pricing_plan_id":"cebpf4jnsgd1na2vs0mg"},{"bike_id":"0a09543b-c232-404c-9d50-f88a2ccfa87c","system_id":"levelo_inurba_marseille","lat":43.290104,"lon":5.356111,"is_reserved":false,"is_disabled":false,"rental_uris":{"android":"levelo://app?vid=0a09543b-c232-404c-9d50-f88a2ccfa87c","ios":"levelo://app?vid=0a09543b-c232-404c-9d50-f88a2ccfa87c"},"vehicle_type_id":"4","last_reported":1708535183,"current_range_meters":22000,"station_id":"ce4bhb92rcd13ifvqen0","pricing_plan_id":"cebpf4jnsgd1na2vs0mg"},{"bike_id":"ff9dd875-28ac-4f3b-9456-c971ddef9688","system_id":"levelo_inurba_marseille","lat":43.29005,"lon":5.35617,"is_reserved":false,"is_disabled":false,"rental_uris":{"android":"levelo://app?vid=ff9dd875-28ac-4f3b-9456-c971ddef9688","ios":"levelo://app?vid=ff9dd875-28ac-4f3b-9456-c971ddef9688"},"vehicle_type_id":"4","last_reported":1708535183,"current_range_meters":3600,"station_id":"ce4bhb92rcd13ifvqen0","pricing_plan_id":"cebpf4jnsgd1na2vs0mg"},{"bike_id":"0f7352af-47c7-4cae-ba70-68b4c93cb724","system_id":"levelo_inurba_marseille","lat":43.290104,"lon":5.356111,"is_reserved":false,"is_disabled":false,"rental_uris":{"android":"levelo://app?vid=0f7352af-47c7-4cae-ba70-68b4c93cb724","ios":"levelo://app?vid=0f7352af-47c7-4cae-ba70-68b4c93cb724"},"vehicle_type_id":"4","last_reported":1708535183,"current_range_meters":14400,"station_id":"ce4bhb92rcd13ifvqen0","pricing_plan_id":"cebpf4jnsgd1na2vs0mg"},{"bike_id":"820792c6-3bcd-4e7b-9c90-2658f733be56","system_id":"levelo_inurba_marseille","lat":43.290104,"lon":5.356111,"is_reserved":false,"is_disabled":false,"rental_uris":{"android":"levelo://app?vid=820792c6-3bcd-4e7b-9c90-2658f733be56","ios":"levelo://app?vid=820792c6-3bcd-4e7b-9c90-2658f733be56"},"vehicle_type_id":"4","last_reported":1708535183,"current_range_meters":18400,"station_id":"ce4bhb92rcd13ifvqen0","pricing_plan_id":"cebpf4jnsgd1na2vs0mg"},{"bike_id":"9f3ff485-26bb-4861-bf63-4f1525266c54","system_id":"levelo_inurba_marseille","lat":43.290995,"lon":5.381361,"is_reserved":false,"is_disabled":false,"rental_uris":{"android":"levelo://app?vid=9f3ff485-26bb-4861-bf63-4f1525266c54","ios":"levelo://app?vid=9f3ff485-26bb-4861-bf63-4f1525266c54"},"vehicle_type_id":"4","last_reported":1708535183,"current_range_meters":11600,"station_id":"ce4bh512rcd13ifvqe2g","pricing_plan_id":"cebpf4jnsgd1na2vs0mg"},{"bike_id":"ef4ff2db-ade2-4616-ae8f-e49a85be0dcb","system_id":"levelo_inurba_marseille","lat":43.290995,"lon":5.381361,"is_reserved":false,"is_disabled":false,"rental_uris":{"android":"levelo://app?vid=ef4ff2db-ade2-4616-ae8f-e49a85be0dcb","ios":"levelo://app?vid=ef4ff2db-ade2-4616-ae8f-e49a85be0dcb"},"vehicle_type_id":"4","last_reported":1708535183,"current_range_meters":10800,"station_id":"ce4bh512rcd13ifvqe2g","pricing_plan_id":"cebpf4jnsgd1na2vs0mg"},{"bike_id":"4092f27d-46b0-4ac2-8e51-6f432faf44ea","system_id":"levelo_inurba_marseille","lat":43.290995,"lon":5.381361,"is_reserved":false,"is_disabled":false,"rental_uris":{"android":"levelo://app?vid=4092f27d-46b0-4ac2-8e51-6f432faf44ea","ios":"levelo://app?vid=4092f27d-46b0-4ac2-8e51-6f432faf44ea"},"vehicle_type_id":"4","last_reported":1708535183,"current_range_meters":19200,"station_id":"ce4bh512rcd13ifvqe2g","pricing_plan_id":"cebpf4jnsgd1na2vs0mg"},{"bike_id":"daec5af8-0b8f-4ad3-af0d-a61c5dcfd2d3","system_id":"levelo_inurba_marseille","lat":43.330442,"lon":5.389148,"is_reserved":false,"is_disabled":false,"rental_uris":{"android":"levelo://app?vid=daec5af8-0b8f-4ad3-af0d-a61c5dcfd2d3","ios":"levelo://app?vid=daec5af8-0b8f-4ad3-af0d-a61c5dcfd2d3"},"vehicle_type_id":"4","last_reported":1708535183,"current_range_meters":29200,"station_id":"ce4bhr92rcd13ifvqhrg","pricing_plan_id":"cebpf4jnsgd1na2vs0mg"},{"bike_id":"a8c23d81-ed49-426e-ba77-e3cb0990ddde","system_id":"levelo_inurba_marseille","lat":43.297815,"lon":5.393548,"is_reserved":false,"is_disabled":false,"rental_uris":{"android":"levelo://app?vid=a8c23d81-ed49-426e-ba77-e3cb0990ddde","ios":"levelo://app?vid=a8c23d81-ed49-426e-ba77-e3cb0990ddde"},"vehicle_type_id":"4","last_reported":1708535183,"current_range_meters":15600,"station_id":"chh1huq6cuj3fo74tm60","pricing_plan_id":"cebpf4jnsgd1na2vs0mg"},{"bike_id":"082b5112-391d-425e-b074-bb78378a48a5","system_id":"levelo_inurba_marseille","lat":43.2978,"lon":5.39344,"is_reserved":false,"is_disabled":false,"rental_uris":{"android":"levelo://app?vid=082b5112-391d-425e-b074-bb78378a48a5","ios":"levelo://app?vid=082b5112-391d-425e-b074-bb78378a48a5"},"vehicle_type_id":"4","last_reported":1708535183,"current_range_meters":7600,"station_id":"chh1huq6cuj3fo74tm60","pricing_plan_id":"cebpf4jnsgd1na2vs0mg"},{"bike_id":"37631add-5ad3-4623-b6d5-12319b93bceb","system_id":"levelo_inurba_marseille","lat":43.29524,"lon":5.3903,"is_reserved":false,"is_disabled":false,"rental_uris":{"android":"levelo://app?vid=37631add-5ad3-4623-b6d5-12319b93bceb","ios":"levelo://app?vid=37631add-5ad3-4623-b6d5-12319b93bceb"},"vehicle_type_id":"4","last_reported":1708535183,"current_range_meters":0,"station_id":"ce4bh3p2rcd13ifvqdp0","pricing_plan_id":"cebpf4jnsgd1na2vs0mg"},{"bike_id":"503eca56-cbb5-4517-9892-67d3ed97a693","system_id":"levelo_inurba_marseille","lat":43.330442,"lon":5.389148,"is_reserved":false,"is_disabled":false,"rental_uris":{"android":"levelo://app?vid=503eca56-cbb5-4517-9892-67d3ed97a693","ios":"levelo://app?vid=503eca56-cbb5-4517-9892-67d3ed97a693"},"vehicle_type_id":"4","last_reported":1708535183,"current_range_meters":26800,"station_id":"ce4bhr92rcd13ifvqhrg","pricing_plan_id":"cebpf4jnsgd1na2vs0mg"},{"bike_id":"71e117c1-32d7-4a56-b604-62d802fcf6c2","system_id":"levelo_inurba_marseille","lat":43.330442,"lon":5.389148,"is_reserved":false,"is_disabled":false,"rental_uris":{"android":"levelo://app?vid=71e117c1-32d7-4a56-b604-62d802fcf6c2","ios":"levelo://app?vid=71e117c1-32d7-4a56-b604-62d802fcf6c2"},"vehicle_type_id":"4","last_reported":1708535183,"current_range_meters":18000,"station_id":"ce4bhr92rcd13ifvqhrg","pricing_plan_id":"cebpf4jnsgd1na2vs0mg"},{"bike_id":"17785732-c063-45de-b27a-94043a766a29","system_id":"levelo_inurba_marseille","lat":43.295169,"lon":5.390426,"is_reserved":false,"is_disabled":false,"rental_uris":{"android":"levelo://app?vid=17785732-c063-45de-b27a-94043a766a29","ios":"levelo://app?vid=17785732-c063-45de-b27a-94043a766a29"},"vehicle_type_id":"4","last_reported":1708535183,"current_range_meters":14800,"station_id":"ce4bh3p2rcd13ifvqdp0","pricing_plan_id":"cebpf4jnsgd1na2vs0mg"},{"bike_id":"c34b0074-579d-4acf-ad10-38ae73a87165","system_id":"levelo_inurba_marseille","lat":43.2901,"lon":5.381269,"is_reserved":false,"is_disabled":false,"rental_uris":{"android":"levelo://app?vid=c34b0074-579d-4acf-ad10-38ae73a87165","ios":"levelo://app?vid=c34b0074-579d-4acf-ad10-38ae73a87165"},"vehicle_type_id":"4","last_reported":1708535183,"current_range_meters":0,"station_id":"ce4bh4p2rcd13ifvqe1g","pricing_plan_id":"cebpf4jnsgd1na2vs0mg"},{"bike_id":"ed9264fa-c074-45ce-84c9-5401af534eff","system_id":"levelo_inurba_marseille","lat":43.28856,"lon":5.358371,"is_reserved":false,"is_disabled":false,"rental_uris":{"android":"levelo://app?vid=ed9264fa-c074-45ce-84c9-5401af534eff","ios":"levelo://app?vid=ed9264fa-c074-45ce-84c9-5401af534eff"},"vehicle_type_id":"4","last_reported":1708535183,"current_range_meters":0,"station_id":"ce4bhb12rcd13ifvqem0","pricing_plan_id":"cebpf4jnsgd1na2vs0mg"},{"bike_id":"9270a413-10aa-4ce0-8fdf-d0ca0b0ec20a","system_id":"levelo_inurba_marseille","lat":43.28856,"lon":5.358371,"is_reserved":false,"is_disabled":false,"rental_uris":{"android":"levelo://app?vid=9270a413-10aa-4ce0-8fdf-d0ca0b0ec20a","ios":"levelo://app?vid=9270a413-10aa-4ce0-8fdf-d0ca0b0ec20a"},"vehicle_type_id":"4","last_reported":1708535183,"current_range_meters":18400,"station_id":"ce4bhb12rcd13ifvqem0","pricing_plan_id":"cebpf4jnsgd1na2vs0mg"},{"bike_id":"ef42b397-f829-40db-928f-37a36e48df96","system_id":"levelo_inurba_marseille","lat":43.290094,"lon":5.381264,"is_reserved":false,"is_disabled":false,"rental_uris":{"android":"levelo://app?vid=ef42b397-f829-40db-928f-37a36e48df96","ios":"levelo://app?vid=ef42b397-f829-40db-928f-37a36e48df96"},"vehicle_type_id":"4","last_reported":1708535183,"current_range_meters":22000,"station_id":"ce4bh4p2rcd13ifvqe1g","pricing_plan_id":"cebpf4jnsgd1na2vs0mg"},{"bike_id":"7ca780a1-5a60-44a1-9f5a-0ff24f07eeda","system_id":"levelo_inurba_marseille","lat":43.29018,"lon":5.38139,"is_reserved":false,"is_disabled":false,"rental_uris":{"android":"levelo://app?vid=7ca780a1-5a60-44a1-9f5a-0ff24f07eeda","ios":"levelo://app?vid=7ca780a1-5a60-44a1-9f5a-0ff24f07eeda"},"vehicle_type_id":"4","last_reported":1708535183,"current_range_meters":7600,"station_id":"ce4bh4p2rcd13ifvqe1g","pricing_plan_id":"cebpf4jnsgd1na2vs0mg"},{"bike_id":"78f55481-4526-4f79-b46d-7387ad792d32","system_id":"levelo_inurba_marseille","lat":43.28856,"lon":5.358371,"is_reserved":false,"is_disabled":false,"rental_uris":{"android":"levelo://app?vid=78f55481-4526-4f79-b46d-7387ad792d32","ios":"levelo://app?vid=78f55481-4526-4f79-b46d-7387ad792d32"},"vehicle_type_id":"4","last_reported":1708535183,"current_range_meters":22400,"station_id":"ce4bhb12rcd13ifvqem0","pricing_plan_id":"cebpf4jnsgd1na2vs0mg"},{"bike_id":"f92cad1b-57be-4627-8f0e-0c7fe3471380","system_id":"levelo_inurba_marseille","lat":43.28856,"lon":5.358371,"is_reserved":false,"is_disabled":false,"rental_uris":{"android":"levelo://app?vid=f92cad1b-57be-4627-8f0e-0c7fe3471380","ios":"levelo://app?vid=f92cad1b-57be-4627-8f0e-0c7fe3471380"},"vehicle_type_id":"4","last_reported":1708535183,"current_range_meters":28400,"station_id":"ce4bhb12rcd13ifvqem0","pricing_plan_id":"cebpf4jnsgd1na2vs0mg"},{"bike_id":"9cd23261-ff77-4fff-86ce-659013350e68","system_id":"levelo_inurba_marseille","lat":43.312609,"lon":5.401662,"is_reserved":false,"is_disabled":false,"rental_uris":{"android":"levelo://app?vid=9cd23261-ff77-4fff-86ce-659013350e68","ios":"levelo://app?vid=9cd23261-ff77-4fff-86ce-659013350e68"},"vehicle_type_id":"4","last_reported":1708535183,"current_range_meters":5600,"station_id":"ce4bh092rcd13ifvqd30","pricing_plan_id":"cebpf4jnsgd1na2vs0mg"},{"bike_id":"cd4b1b93-b1e3-41e1-93fb-1be4d93ade50","system_id":"levelo_inurba_marseille","lat":43.312609,"lon":5.401662,"is_reserved":false,"is_disabled":false,"rental_uris":{"android":"levelo://app?vid=cd4b1b93-b1e3-41e1-93fb-1be4d93ade50","ios":"levelo://app?vid=cd4b1b93-b1e3-41e1-93fb-1be4d93ade50"},"vehicle_type_id":"4","last_reported":1708535183,"current_range_meters":26000,"station_id":"ce4bh092rcd13ifvqd30","pricing_plan_id":"cebpf4jnsgd1na2vs0mg"},{"bike_id":"e2bbbbd8-403d-463f-9c95-a23e3d607897","system_id":"levelo_inurba_marseille","lat":43.337444,"lon":5.374475,"is_reserved":false,"is_disabled":false,"rental_uris":{"android":"levelo://app?vid=e2bbbbd8-403d-463f-9c95-a23e3d607897","ios":"levelo://app?vid=e2bbbbd8-403d-463f-9c95-a23e3d607897"},"vehicle_type_id":"4","last_reported":1708535183,"current_range_meters":23200,"station_id":"","pricing_plan_id":"cebpf4jnsgd1na2vs0mg"},{"bike_id":"745396e2-9bbf-4396-b580-94e80529f20c","system_id":"levelo_inurba_marseille","lat":43.312609,"lon":5.401662,"is_reserved":false,"is_disabled":false,"rental_uris":{"android":"levelo://app?vid=745396e2-9bbf-4396-b580-94e80529f20c","ios":"levelo://app?vid=745396e2-9bbf-4396-b580-94e80529f20c"},"vehicle_type_id":"4","last_reported":1708535183,"current_range_meters":10800,"station_id":"ce4bh092rcd13ifvqd30","pricing_plan_id":"cebpf4jnsgd1na2vs0mg"},{"bike_id":"ac4681f2-dae3-40ed-9266-e70b1729738e","system_id":"levelo_inurba_marseille","lat":43.33744,"lon":5.37473,"is_reserved":false,"is_disabled":false,"rental_uris":{"android":"levelo://app?vid=ac4681f2-dae3-40ed-9266-e70b1729738e","ios":"levelo://app?vid=ac4681f2-dae3-40ed-9266-e70b1729738e"},"vehicle_type_id":"4","last_reported":1708535183,"current_range_meters":13600,"station_id":"","pricing_plan_id":"cebpf4jnsgd1na2vs0mg"},{"bike_id":"ee6c72a7-7bdc-4828-94b6-dacd826ad897","system_id":"levelo_inurba_marseille","lat":43.309371,"lon":5.401449,"is_reserved":false,"is_disabled":false,"rental_uris":{"android":"levelo://app?vid=ee6c72a7-7bdc-4828-94b6-dacd826ad897","ios":"levelo://app?vid=ee6c72a7-7bdc-4828-94b6-dacd826ad897"},