{"last_updated":1720984051,"ttl":30,"version":"2.2","data":{"bikes":[{"bike_id":"025da3f2-8ded-46d4-ba3e-6d3a59259976","system_id":"levelo_inurba_marseille","lat":43.309076,"lon":5.368465,"is_reserved":false,"is_disabled":false,"rental_uris":{"android":"levelo://app?vid=025da3f2-8ded-46d4-ba3e-6d3a59259976","ios":"levelo://app?vid=025da3f2-8ded-46d4-ba3e-6d3a59259976"},"vehicle_type_id":"4","last_reported":1720984051,"current_range_meters":28000,"station_id":"ce4bgn92rcd13ifvqbvg","pricing_plan_id":"cebpf4jnsgd1na2vs0mg"},{"bike_id":"2665e495-3bd1-4ac8-b9d0-5fffeb819eee","system_id":"levelo_inurba_marseille","lat":43.30789,"lon":5.36714,"is_reserved":false,"is_disabled":false,"rental_uris":{"android":"levelo://app?vid=2665e495-3bd1-4ac8-b9d0-5fffeb819eee","ios":"levelo://app?vid=2665e495-3bd1-4ac8-b9d0-5fffeb819eee"},"vehicle_type_id":"4","last_reported":1720984051,"current_range_meters":0,"station_id":"","pricing_plan_id":"cebpf4jnsgd1na2vs0mg"},{"bike_id":"c569701d-554a-4004-8a58-2b77ffcb81c8","system_id":"levelo_inurba_marseille","lat":43.31486,"lon":5.37307,"is_reserved":false,"is_disabled":false,"rental_uris":{"android":"levelo://app?vid=c569701d-554a-4004-8a58-2b77ffcb81c8","ios":"levelo://app?vid=c569701d-554a-4004-8a58-2b77ffcb81c8"},"vehicle_type_id":"4","last_reported":1720984051,"current_range_meters":29200,"station_id":"ce4bgt12rcd13ifvqcd0","pricing_plan_id":"cebpf4jnsgd1na2vs0mg"},{"bike_id":"3ec2f6d4-a6e4-4aa4-9407-2730438c4a0f","system_id":"levelo_inurba_marseille","lat":43.30887,"lon":5.37193,"is_reserved":false,"is_disabled":false,"rental_uris":{"android":"levelo://app?vid=3ec2f6d4-a6e4-4aa4-9407-2730438c4a0f","ios":"levelo://app?vid=3ec2f6d4-a6e4-4aa4-9407-2730438c4a0f"},"vehicle_type_id":"4","last_reported":1720984051,"current_range_meters":1600,"station_id":"","pricing_plan_id":"cebpf4jnsgd1na2vs0mg"},{"bike_id":"05dec6de-8015-4f20-a967-eade4077722d","system_id":"levelo_inurba_marseille","lat":43.309034,"lon":5.371783,"is_reserved":false,"is_disabled":false,"rental_uris":{"android":"levelo://app?vid=05dec6de-8015-4f20-a967-eade4077722d","ios":"levelo://app?vid=05dec6de-8015-4f20-a967-eade4077722d"},"vehicle_type_id":"4","last_reported":1720984051,"current_range_meters":22400,"station_id":"ce4bguh2rcd13ifvqckg","pricing_plan_id":"cebpf4jnsgd1na2vs0mg"},{"bike_id":"7cde1fb3-95ba-498e-8323-6867d8730ceb","system_id":"levelo_inurba_marseille","lat":43.31672,"lon":5.37292,"is_reserved":false,"is_disabled":false,"rental_uris":{"android":"levelo://app?vid=7cde1fb3-95ba-498e-8323-6867d8730ceb","ios":"levelo://app?vid=7cde1fb3-95ba-498e-8323-6867d8730ceb"},"vehicle_type_id":"4","last_reported":1720984051,"current_range_meters":5600,"station_id":"","pricing_plan_id":"cebpf4jnsgd1na2vs0mg"},{"bike_id":"b0db1719-c281-4136-8aa7-de04e294bceb","system_id":"levelo_inurba_marseille","lat":43.30542,"lon":5.36646,"is_reserved":false,"is_disabled":false,"rental_uris":{"android":"levelo://app?vid=b0db1719-c281-4136-8aa7-de04e294bceb","ios":"levelo://app?vid=b0db1719-c281-4136-8aa7-de04e294bceb"},"vehicle_type_id":"4","last_reported":1720984051,"current_range_meters":0,"station_id":"","pricing_plan_id":"cebpf4jnsgd1na2vs0mg"},{"bike_id":"f917eac2-c2aa-4983-95c4-9193543dca1a","system_id":"levelo_inurba_marseille","lat":43.305989,"lon":5.37225,"is_reserved":false,"is_disabled":false,"rental_uris":{"android":"levelo://app?vid=f917eac2-c2aa-4983-95c4-9193543dca1a","ios":"levelo://app?vid=f917eac2-c2aa-4983-95c4-9193543dca1a"},"vehicle_type_id":"4","last_reported":1720984051,"current_range_meters":24800,"station_id":"ce4bgqh2rcd13ifvqc4g","pricing_plan_id":"cebpf4jnsgd1na2vs0mg"},{"bike_id":"82794076-bc24-49d7-bcf6-4165ca155cee","system_id":"levelo_inurba_marseille","lat":43.311849,"lon":5.377553,"is_reserved":false,"is_disabled":false,"rental_uris":{"android":"levelo://app?vid=82794076-bc24-49d7-bcf6-4165ca155cee","ios":"levelo://app?vid=82794076-bc24-49d7-bcf6-4165ca155cee"},"vehicle_type_id":"4","last_reported":1720984051,"current_range_meters":22000,"station_id":"","pricing_plan_id":"cebpf4jnsgd1na2vs0mg"},{"bike_id":"3e0f79b6-ea40-4841-9881-f6ce467a7725","system_id":"levelo_inurba_marseille","lat":43.303046,"lon":5.368981,"is_reserved":false,"is_disabled":false,"rental_uris":{"android":"levelo://app?vid=3e0f79b6-ea40-4841-9881-f6ce467a7725","ios":"levelo://app?vid=3e0f79b6-ea40-4841-9881-f6ce467a7725"},"vehicle_type_id":"4","last_reported":1720984051,"current_range_meters":29600,"station_id":"ce4bgqh2rcd13ifvqc5g","pricing_plan_id":"cebpf4jnsgd1na2vs0mg"},{"bike_id":"ee67ec3e-0122-403c-bd1e-467613510dfc","system_id":"levelo_inurba_marseille","lat":43.303046,"lon":5.368981,"is_reserved":false,"is_disabled":false,"rental_uris":{"android":"levelo://app?vid=ee67ec3e-0122-403c-bd1e-467613510dfc","ios":"levelo://app?vid=ee67ec3e-0122-403c-bd1e-467613510dfc"},"vehicle_type_id":"4","last_reported":1720984051,"current_range_meters":28800,"station_id":"ce4bgqh2rcd13ifvqc5g","pricing_plan_id":"cebpf4jnsgd1na2vs0mg"},{"bike_id":"5b183922-2b29-4c1f-8f4b-4dfdc656b297","system_id":"levelo_inurba_marseille","lat":43.315289,"lon":5.380349,"is_reserved":false,"is_disabled":false,"rental_uris":{"android":"levelo://app?vid=5b183922-2b29-4c1f-8f4b-4dfdc656b297","ios":"levelo://app?vid=5b183922-2b29-4c1f-8f4b-4dfdc656b297"},"vehicle_type_id":"4","last_reported":1720984051,"current_range_meters":19600,"station_id":"ce4bhsp2rcd13ifvqi50","pricing_plan_id":"cebpf4jnsgd1na2vs0mg"},{"bike_id":"7ac61520-e79d-4351-8a1a-4d52c6ef83b7","system_id":"levelo_inurba_marseille","lat":43.315289,"lon":5.380349,"is_reserved":false,"is_disabled":false,"rental_uris":{"android":"levelo://app?vid=7ac61520-e79d-4351-8a1a-4d52c6ef83b7","ios":"levelo://app?vid=7ac61520-e79d-4351-8a1a-4d52c6ef83b7"},"vehicle_type_id":"4","last_reported":1720984051,"current_range_meters":0,"station_id":"ce4bhsp2rcd13ifvqi50","pricing_plan_id":"cebpf4jnsgd1na2vs0mg"},{"bike_id":"487408f4-1ae1-4613-9bd4-eaf9661e9b28","system_id":"levelo_inurba_marseille","lat":43.30925,"lon":5.38045,"is_reserved":false,"is_disabled":false,"rental_uris":{"android":"levelo://app?vid=487408f4-1ae1-4613-9bd4-eaf9661e9b28","ios":"levelo://app?vid=487408f4-1ae1-4613-9bd4-eaf9661e9b28"},"vehicle_type_id":"4","last_reported":1720984051,"current_range_meters":11600,"station_id":"","pricing_plan_id":"cebpf4jnsgd1na2vs0mg"},{"bike_id":"feb0b27e-1fb1-41d5-a6be-5edb24df9eeb","system_id":"levelo_inurba_marseille","lat":43.301939,"lon":5.366286,"is_reserved":false,"is_disabled":false,"rental_uris":{"android":"levelo://app?vid=feb0b27e-1fb1-41d5-a6be-5edb24df9eeb","ios":"levelo://app?vid=feb0b27e-1fb1-41d5-a6be-5edb24df9eeb"},"vehicle_type_id":"4","last_reported":1720984051,"current_range_meters":5200,"station_id":"ce4bgrh2rcd13ifvqc8g","pricing_plan_id":"cebpf4jnsgd1na2vs0mg"},{"bike_id":"2cbd5c7e-0ed7-4af3-a145-9bf45f620bb5","system_id":"levelo_inurba_marseille","lat":43.308039,"lon":5.381509,"is_reserved":false,"is_disabled":false,"rental_uris":{"android":"levelo://app?vid=2cbd5c7e-0ed7-4af3-a145-9bf45f620bb5","ios":"levelo://app?vid=2cbd5c7e-0ed7-4af3-a145-9bf45f620bb5"},"vehicle_type_id":"4","last_reported":1720984051,"current_range_meters":12800,"station_id":"ce4bgt12rcd13ifvqce0","pricing_plan_id":"cebpf4jnsgd1na2vs0mg"},{"bike_id":"45e1ba58-c084-45de-8509-c3a9c352616b","system_id":"levelo_inurba_marseille","lat":43.32303,"lon":5.37434,"is_reserved":false,"is_disabled":false,"rental_uris":{"android":"levelo://app?vid=45e1ba58-c084-45de-8509-c3a9c352616b","ios":"levelo://app?vid=45e1ba58-c084-45de-8509-c3a9c352616b"},"vehicle_type_id":"4","last_reported":1720984051,"current_range_meters":4400,"station_id":"","pricing_plan_id":"cebpf4jnsgd1na2vs0mg"},{"bike_id":"581d87f4-6138-4995-a6b4-7d31d9c65916","system_id":"levelo_inurba_marseille","lat":43.307954,"lon":5.38165,"is_reserved":false,"is_disabled":false,"rental_uris":{"android":"levelo://app?vid=581d87f4-6138-4995-a6b4-7d31d9c65916","ios":"levelo://app?vid=581d87f4-6138-4995-a6b4-7d31d9c65916"},"vehicle_type_id":"4","last_reported":1720984051,"current_range_meters":23200,"station_id":"ce4bgt12rcd13ifvqce0","pricing_plan_id":"cebpf4jnsgd1na2vs0mg"},{"bike_id":"2ba507f6-0b05-4252-8abb-b7601d049ae3","system_id":"levelo_inurba_marseille","lat":43.324771,"lon":5.36557,"is_reserved":false,"is_disabled":false,"rental_uris":{"android":"levelo://app?vid=2ba507f6-0b05-4252-8abb-b7601d049ae3","ios":"levelo://app?vid=2ba507f6-0b05-4252-8abb-b7601d049ae3"},"vehicle_type_id":"4","last_reported":1720984051,"current_range_meters":25600,"station_id":"ce4bhs12rcd13ifvqhvg","pricing_plan_id":"cebpf4jnsgd1na2vs0mg"},{"bike_id":"7e73aa4c-ea94-4d4e-ba2d-81421c5f4cb3","system_id":"levelo_inurba_marseille","lat":43.32479,"lon":5.36567,"is_reserved":false,"is_disabled":false,"rental_uris":{"android":"levelo://app?vid=7e73aa4c-ea94-4d4e-ba2d-81421c5f4cb3","ios":"levelo://app?vid=7e73aa4c-ea94-4d4e-ba2d-81421c5f4cb3"},"vehicle_type_id":"4","last_reported":1720984051,"current_range_meters":18000,"station_id":"","pricing_plan_id":"cebpf4jnsgd1na2vs0mg"},{"bike_id":"dda3811c-3e32-4e51-ac1e-8f90a33e6dce","system_id":"levelo_inurba_marseille","lat":43.31374,"lon":5.38385,"is_reserved":false,"is_disabled":false,"rental_uris":{"android":"levelo://app?vid=dda3811c-3e32-4e51-ac1e-8f90a33e6dce","ios":"levelo://app?vid=dda3811c-3e32-4e51-ac1e-8f90a33e6dce"},"vehicle_type_id":"4","last_reported":1720984051,"current_range_meters":18800,"station_id":"","pricing_plan_id":"cebpf4jnsgd1na2vs0mg"},{"bike_id":"33dcfcbc-43ee-4b56-9c3e-667799c9fe65","system_id":"levelo_inurba_marseille","lat":43.302784,"lon":5.377158,"is_reserved":false,"is_disabled":false,"rental_uris":{"android":"levelo://app?vid=33dcfcbc-43ee-4b56-9c3e-667799c9fe65","ios":"levelo://app?vid=33dcfcbc-43ee-4b56-9c3e-667799c9fe65"},"vehicle_type_id":"4","last_reported":1720984051,"current_range_meters":20000,"station_id":"ce4bguh2rcd13ifvqcj0","pricing_plan_id":"cebpf4jnsgd1na2vs0mg"},{"bike_id":"f421c68d-96af-4d4b-b3a4-8d2458482aa6","system_id":"levelo_inurba_marseille","lat":43.319935,"lon":5.381699,"is_reserved":false,"is_disabled":false,"rental_uris":{"android":"levelo://app?vid=f421c68d-96af-4d4b-b3a4-8d2458482aa6","ios":"levelo://app?vid=f421c68d-96af-4d4b-b3a4-8d2458482aa6"},"vehicle_type_id":"4","last_reported":1720984051,"current_range_meters":31200,"station_id":"ce4bhr12rcd13ifvqhpg","pricing_plan_id":"cebpf4jnsgd1na2vs0mg"},{"bike_id":"956d3c99-94c0-4ccd-a0d6-9af4e2079d59","system_id":"levelo_inurba_marseille","lat":43.301429,"lon":5.37413,"is_reserved":false,"is_disabled":false,"rental_uris":{"android":"levelo://app?vid=956d3c99-94c0-4ccd-a0d6-9af4e2079d59","ios":"levelo://app?vid=956d3c99-94c0-4ccd-a0d6-9af4e2079d59"},"vehicle_type_id":"4","last_reported":1720984051,"current_range_meters":24800,"station_id":"ce4bgs92rcd13ifvqcc0","pricing_plan_id":"cebpf4jnsgd1na2vs0mg"},{"bike_id":"e5920fb0-ea6d-4898-aa5b-e248010be4eb","system_id":"levelo_inurba_marseille","lat":43.313571,"lon":5.384829,"is_reserved":false,"is_disabled":false,"rental_uris":{"android":"levelo://app?vid=e5920fb0-ea6d-4898-aa5b-e248010be4eb","ios":"levelo://app?vid=e5920fb0-ea6d-4898-aa5b-e248010be4eb"},"vehicle_type_id":"4","last_reported":1720984051,"current_range_meters":2800,"station_id":"ce4bgt92rcd13ifvqcf0","pricing_plan_id":"cebpf4jnsgd1na2vs0mg"},{"bike_id":"5861e167-80a1-47eb-af75-15dc6be01175","system_id":"levelo_inurba_marseille","lat":43.313571,"lon":5.384829,"is_reserved":false,"is_disabled":false,"rental_uris":{"android":"levelo://app?vid=5861e167-80a1-47eb-af75-15dc6be01175","ios":"levelo://app?vid=5861e167-80a1-47eb-af75-15dc6be01175"},"vehicle_type_id":"4","last_reported":1720984051,"current_range_meters":2400,"station_id":"ce4bgt92rcd13ifvqcf0","pricing_plan_id":"cebpf4jnsgd1na2vs0mg"},{"bike_id":"82fe6651-a9ec-4582-a825-27bcd29c5fc6","system_id":"levelo_inurba_marseille","lat":43.299222,"lon":5.365554,"is_reserved":false,"is_disabled":false,"rental_uris":{"android":"levelo://app?vid=82fe6651-a9ec-4582-a825-27bcd29c5fc6","ios":"levelo://app?vid=82fe6651-a9ec-4582-a825-27bcd29c5fc6"},"vehicle_type_id":"4","last_reported":1720984051,"current_range_meters":18400,"station_id":"ce4bgm92rcd13ifvqbr0","pricing_plan_id":"cebpf4jnsgd1na2vs0mg"},{"bike_id":"cbf07106-7fe5-47e2-9ccc-7343aa7c7e98","system_id":"levelo_inurba_marseille","lat":43.299222,"lon":5.365554,"is_reserved":false,"is_disabled":false,"rental_uris":{"android":"levelo://app?vid=cbf07106-7fe5-47e2-9ccc-7343aa7c7e98","ios":"levelo://app?vid=cbf07106-7fe5-47e2-9ccc-7343aa7c7e98"},"vehicle_type_id":"4","last_reported":1720984051,"current_range_meters":23600,"station_id":"ce4bgm92rcd13ifvqbr0","pricing_plan_id":"cebpf4jnsgd1na2vs0mg"},{"bike_id":"04c58b08-4395-44ff-9277-190070a1193b","system_id":"levelo_inurba_marseille","lat":43.299222,"lon":5.365554,"is_reserved":false,"is_disabled":false,"rental_uris":{"android":"levelo://app?vid=04c58b08-4395-44ff-9277-190070a1193b","ios":"levelo://app?vid=04c58b08-4395-44ff-9277-190070a1193b"},"vehicle_type_id":"4","last_reported":1720984051,"current_range_meters":31200,"station_id":"ce4bgm92rcd13ifvqbr0","pricing_plan_id":"cebpf4jnsgd1na2vs0mg"},{"bike_id":"1306b56e-52e7-4436-8f42-6a9379016de3","system_id":"levelo_inurba_marseille","lat":43.29934,"lon":5.36548,"is_reserved":false,"is_disabled":false,"rental_uris":{"android":"levelo://app?vid=1306b56e-52e7-4436-8f42-6a9379016de3","ios":"levelo://app?vid=1306b56e-52e7-4436-8f42-6a9379016de3"},"vehicle_type_id":"4","last_reported":1720984051,"current_range_meters":26400,"station_id":"ce4bgm92rcd13ifvqbr0","pricing_plan_id":"cebpf4jnsgd1na2vs0mg"},{"bike_id":"67e8fc5e-563e-4099-b7f4-49cfdd0a185a","system_id":"levelo_inurba_marseille","lat":43.29934,"lon":5.36539,"is_reserved":false,"is_disabled":false,"rental_uris":{"android":"levelo://app?vid=67e8fc5e-563e-4099-b7f4-49cfdd0a185a","ios":"levelo://app?vid=67e8fc5e-563e-4099-b7f4-49cfdd0a185a"},"vehicle_type_id":"4","last_reported":1720984051,"current_range_meters":31200,"station_id":"ce4bgm92rcd13ifvqbr0","pricing_plan_id":"cebpf4jnsgd1na2vs0mg"},{"bike_id":"54c2ca6c-a662-4a53-b9e5-6c46328808dd","system_id":"levelo_inurba_marseille","lat":43.299222,"lon":5.365554,"is_reserved":false,"is_disabled":false,"rental_uris":{"android":"levelo://app?vid=54c2ca6c-a662-4a53-b9e5-6c46328808dd","ios":"levelo://app?vid=54c2ca6c-a662-4a53-b9e5-6c46328808dd"},"vehicle_type_id":"4","last_reported":1720984051,"current_range_meters":25600,"station_id":"ce4bgm92rcd13ifvqbr0","pricing_plan_id":"cebpf4jnsgd1na2vs0mg"},{"bike_id":"0dbbedd4-5b0d-4ec8-b732-579877890be4","system_id":"levelo_inurba_marseille","lat":43.29851,"lon":5.36288,"is_reserved":false,"is_disabled":false,"rental_uris":{"android":"levelo://app?vid=0dbbedd4-5b0d-4ec8-b732-579877890be4","ios":"levelo://app?vid=0dbbedd4-5b0d-4ec8-b732-579877890be4"},"vehicle_type_id":"4","last_reported":1720984051,"current_range_meters":31200,"station_id":"ce4bgpp2rcd13ifvqc3g","pricing_plan_id":"cebpf4jnsgd1na2vs0mg"},{"bike_id":"b0efb9f4-6fd2-44ca-8a26-9d55cada4f40","system_id":"levelo_inurba_marseille","lat":43.29925,"lon":5.37466,"is_reserved":false,"is_disabled":false,"rental_uris":{"android":"levelo://app?vid=b0efb9f4-6fd2-44ca-8a26-9d55cada4f40","ios":"levelo://app?vid=b0efb9f4-6fd2-44ca-8a26-9d55cada4f40"},"vehicle_type_id":"4","last_reported":1720984051,"current_range_meters":24000,"station_id":"ce4bgjh2rcd13ifvqbg0","pricing_plan_id":"cebpf4jnsgd1na2vs0mg"},{"bike_id":"d08f2513-4814-4422-b279-f16069dba6c5","system_id":"levelo_inurba_marseille","lat":43.299242,"lon":5.374714,"is_reserved":false,"is_disabled":false,"rental_uris":{"android":"levelo://app?vid=d08f2513-4814-4422-b279-f16069dba6c5","ios":"levelo://app?vid=d08f2513-4814-4422-b279-f16069dba6c5"},"vehicle_type_id":"4","last_reported":1720984051,"current_range_meters":31200,"station_id":"ce4bgjh2rcd13ifvqbg0","pricing_plan_id":"cebpf4jnsgd1na2vs0mg"},{"bike_id":"a4ea6a92-f841-48fa-ab12-c59ceef05585","system_id":"levelo_inurba_marseille","lat":43.298433,"lon":5.362774,"is_reserved":false,"is_disabled":false,"rental_uris":{"android":"levelo://app?vid=a4ea6a92-f841-48fa-ab12-c59ceef05585","ios":"levelo://app?vid=a4ea6a92-f841-48fa-ab12-c59ceef05585"},"vehicle_type_id":"4","last_reported":1720984051,"current_range_meters":25600,"station_id":"ce4bgpp2rcd13ifvqc3g","pricing_plan_id":"cebpf4jnsgd1na2vs0mg"},{"bike_id":"798cf872-6bb3-457e-9b45-5d8036a6a8db","system_id":"levelo_inurba_marseille","lat":43.299243,"lon":5.37481,"is_reserved":false,"is_disabled":false,"rental_uris":{"android":"levelo://app?vid=798cf872-6bb3-457e-9b45-5d8036a6a8db","ios":"levelo://app?vid=798cf872-6bb3-457e-9b45-5d8036a6a8db"},"vehicle_type_id":"4","last_reported":1720984051,"current_range_meters":0,"station_id":"ce4bgjh2rcd13ifvqbg0","pricing_plan_id":"cebpf4jnsgd1na2vs0mg"},{"bike_id":"62c62508-d7da-4eb3-9eaf-f43d02fe3337","system_id":"levelo_inurba_marseille","lat":43.311722,"lon":5.387247,"is_reserved":false,"is_disabled":false,"rental_uris":{"android":"levelo://app?vid=62c62508-d7da-4eb3-9eaf-f43d02fe3337","ios":"levelo://app?vid=62c62508-d7da-4eb3-9eaf-f43d02fe3337"},"vehicle_type_id":"4","last_reported":1720984051,"current_range_meters":24400,"station_id":"ce4bgv12rcd13ifvqcp0","pricing_plan_id":"cebpf4jnsgd1na2vs0mg"},{"bike_id":"1fb87c66-317c-46bc-8c3c-2c6011e7fae2","system_id":"levelo_inurba_marseille","lat":43.311722,"lon":5.387247,"is_reserved":false,"is_disabled":false,"rental_uris":{"android":"levelo://app?vid=1fb87c66-317c-46bc-8c3c-2c6011e7fae2","ios":"levelo://app?vid=1fb87c66-317c-46bc-8c3c-2c6011e7fae2"},"vehicle_type_id":"4","last_reported":1720984051,"current_range_meters":2000,"station_id":"ce4bgv12rcd13ifvqcp0","pricing_plan_id":"cebpf4jnsgd1na2vs0mg"},{"bike_id":"5348c4f5-dd75-4d69-8462-f1ac3aea59bb","system_id":"levelo_inurba_marseille","lat":43.297794,"lon":5.370888,"is_reserved":false,"is_disabled":false,"rental_uris":{"android":"levelo://app?vid=5348c4f5-dd75-4d69-8462-f1ac3aea59bb","ios":"levelo://app?vid=5348c4f5-dd75-4d69-8462-f1ac3aea59bb"},"vehicle_type_id":"4","last_reported":1720984051,"current_range_meters":27200,"station_id":"ce4bgop2rcd13ifvqc1g","pricing_plan_id":"cebpf4jnsgd1na2vs0mg"},{"bike_id":"8f5650cc-6f08-47b8-8c5a-8d26cbd123fe","system_id":"levelo_inurba_marseille","lat":43.297774,"lon":5.370875,"is_reserved":false,"is_disabled":false,"rental_uris":{"android":"levelo://app?vid=8f5650cc-6f08-47b8-8c5a-8d26cbd123fe","ios":"levelo://app?vid=8f5650cc-6f08-47b8-8c5a-8d26cbd123fe"},"vehicle_type_id":"4","last_reported":1720984051,"current_range_meters":29200,"station_id":"ce4bgop2rcd13ifvqc1g","pricing_plan_id":"cebpf4jnsgd1na2vs0mg"},{"bike_id":"729c2a8a-b899-4d67-ac44-060e04cca798","system_id":"levelo_inurba_marseille","lat":43.32288,"lon":5.3826,"is_reserved":false,"is_disabled":false,"rental_uris":{"android":"levelo://app?vid=729c2a8a-b899-4d67-ac44-060e04cca798","ios":"levelo://app?vid=729c2a8a-b899-4d67-ac44-060e04cca798"},"vehicle_type_id":"4","last_reported":1720984051,"current_range_meters":4800,"station_id":"ce4bhr12rcd13ifvqhqg","pricing_plan_id":"cebpf4jnsgd1na2vs0mg"},{"bike_id":"bdae7246-1abe-4922-a253-565042e3e457","system_id":"levelo_inurba_marseille","lat":43.297774,"lon":5.370875,"is_reserved":false,"is_disabled":false,"rental_uris":{"android":"levelo://app?vid=bdae7246-1abe-4922-a253-565042e3e457","ios":"levelo://app?vid=bdae7246-1abe-4922-a253-565042e3e457"},"vehicle_type_id":"4","last_reported":1720984051,"current_range_meters":16000,"station_id":"ce4bgop2rcd13ifvqc1g","pricing_plan_id":"cebpf4jnsgd1na2vs0mg"},{"bike_id":"621a1240-dcf9-4073-bd49-41934f332358","system_id":"levelo_inurba_marseille","lat":43.32292,"lon":5.38264,"is_reserved":false,"is_disabled":false,"rental_uris":{"android":"levelo://app?vid=621a1240-dcf9-4073-bd49-41934f332358","ios":"levelo://app?vid=621a1240-dcf9-4073-bd49-41934f332358"},"vehicle_type_id":"4","last_reported":1720984051,"current_range_meters":20400,"station_id":"","pricing_plan_id":"cebpf4jnsgd1na2vs0mg"},{"bike_id":"41377564-e9a6-4003-9c4f-b82ddff6591b","system_id":"levelo_inurba_marseille","lat":43.29778,"lon":5.37208,"is_reserved":false,"is_disabled":false,"rental_uris":{"android":"levelo://app?vid=41377564-e9a6-4003-9c4f-b82ddff6591b","ios":"levelo://app?vid=41377564-e9a6-4003-9c4f-b82ddff6591b"},"vehicle_type_id":"4","last_reported":1720984051,"current_range_meters":0,"station_id":"","pricing_plan_id":"cebpf4jnsgd1na2vs0mg"},{"bike_id":"75eb61a7-e0d0-4ba0-94a1-3baf27e31c6a","system_id":"levelo_inurba_marseille","lat":43.297163,"lon":5.365866,"is_reserved":false,"is_disabled":false,"rental_uris":{"android":"levelo://app?vid=75eb61a7-e0d0-4ba0-94a1-3baf27e31c6a","ios":"levelo://app?vid=75eb61a7-e0d0-4ba0-94a1-3baf27e31c6a"},"vehicle_type_id":"4","last_reported":1720984051,"current_range_meters":30400,"station_id":"ce4bgn12rcd13ifvqbt0","pricing_plan_id":"cebpf4jnsgd1na2vs0mg"},{"bike_id":"3732916a-bb41-454c-941c-94a5664a3758","system_id":"levelo_inurba_marseille","lat":43.29713,"lon":5.36609,"is_reserved":false,"is_disabled":false,"rental_uris":{"android":"levelo://app?vid=3732916a-bb41-454c-941c-94a5664a3758","ios":"levelo://app?vid=3732916a-bb41-454c-941c-94a5664a3758"},"vehicle_type_id":"4","last_reported":1720984051,"current_range_meters":16000,"station_id":"ce4bgn12rcd13ifvqbt0","pricing_plan_id":"cebpf4jnsgd1na2vs0mg"},{"bike_id":"8f0f7876-7668-4b21-8e78-904486270f1b","system_id":"levelo_inurba_marseille","lat":43.297163,"lon":5.365866,"is_reserved":false,"is_disabled":false,"rental_uris":{"android":"levelo://app?vid=8f0f7876-7668-4b21-8e78-904486270f1b","ios":"levelo://app?vid=8f0f7876-7668-4b21-8e78-904486270f1b"},"vehicle_type_id":"4","last_reported":1720984051,"current_range_meters":3200,"station_id":"ce4bgn12rcd13ifvqbt0","pricing_plan_id":"cebpf4jnsgd1na2vs0mg"},{"bike_id":"3526a520-bb8d-4bc0-9e4a-ec4ab9a3f1ec","system_id":"levelo_inurba_marseille","lat":43.297163,"lon":5.365866,"is_reserved":false,"is_disabled":false,"rental_uris":{"android":"levelo://app?vid=3526a520-bb8d-4bc0-9e4a-ec4ab9a3f1ec","ios":"levelo://app?vid=3526a520-bb8d-4bc0-9e4a-ec4ab9a3f1ec"},"vehicle_type_id":"4","last_reported":1720984051,"current_range_meters":5600,"station_id":"ce4bgn12rcd13ifvqbt0","pricing_plan_id":"cebpf4jnsgd1na2vs0mg"},{"bike_id":"d4d4b456-abda-45c3-86ca-9c7b290b5312","system_id":"levelo_inurba_marseille","lat":43.2971,"lon":5.36606,"is_reserved":false,"is_disabled":false,"rental_uris":{"android":"levelo://app?vid=d4d4b456-abda-45c3-86ca-9c7b290b5312","ios":"levelo://app?vid=d4d4b456-abda-45c3-86ca-9c7b290b5312"},"vehicle_type_id":"4","last_reported":1720984051,"current_range_meters":28800,"station_id":"ce4bgn12rcd13ifvqbt0","pricing_plan_id":"cebpf4jnsgd1na2vs0mg"},{"bike_id":"05c3d572-00d7-470d-881d-622ef7a8e53f","system_id":"levelo_inurba_marseille","lat":43.297163,"lon":5.365866,"is_reserved":false,"is_disabled":false,"rental_uris":{"android":"levelo://app?vid=05c3d572-00d7-470d-881d-622ef7a8e53f","ios":"levelo://app?vid=05c3d572-00d7-470d-881d-622ef7a8e53f"},"vehicle_type_id":"4","last_reported":1720984051,"current_range_meters":14000,"station_id":"ce4bgn12rcd13ifvqbt0","pricing_plan_id":"cebpf4jnsgd1na2vs0mg"},{"bike_id":"32b54169-4109-42af-854f-f981e3aff7ad","system_id":"levelo_inurba_marseille","lat":43.297163,"lon":5.365866,"is_reserved":false,"is_disabled":false,"rental_uris":{"android":"levelo://app?vid=32b54169-4109-42af-854f-f981e3aff7ad","ios":"levelo://app?vid=32b54169-4109-42af-854f-f981e3aff7ad"},"vehicle_type_id":"4","last_reported":1720984051,"current_range_meters":24800,"station_id":"ce4bgn12rcd13ifvqbt0","pricing_plan_id":"cebpf4jnsgd1na2vs0mg"},{"bike_id":"ce15e117-9f32-4a70-a02c-d753a75a362f","system_id":"levelo_inurba_marseille","lat":43.297163,"lon":5.365866,"is_reserved":false,"is_disabled":false,"rental_uris":{"android":"levelo://app?vid=ce15e117-9f32-4a70-a02c-d753a75a362f","ios":"levelo://app?vid=ce15e117-9f32-4a70-a02c-d753a75a362f"},"vehicle_type_id":"4","last_reported":1720984051,"current_range_meters":24400,"station_id":"ce4bgn12rcd13ifvqbt0","pricing_plan_id":"cebpf4jnsgd1na2vs0mg"},{"bike_id":"d62ba0a7-d245-43b9-babe-9366ed16ae57","system_id":"levelo_inurba_marseille","lat":43.297163,"lon":5.365866,"is_reserved":false,"is_disabled":false,"rental_uris":{"android":"levelo://app?vid=d62ba0a7-d245-43b9-babe-9366ed16ae57","ios":"levelo://app?vid=d62ba0a7-d245-43b9-babe-9366ed16ae57"},"vehicle_type_id":"4","last_reported":1720984051,"current_range_meters":31200,"station_id":"ce4bgn12rcd13ifvqbt0","pricing_plan_id":"cebpf4jnsgd1na2vs0mg"},{"bike_id":"74b633e7-fc09-4268-b8b8-6781ec4d11a8","system_id":"levelo_inurba_marseille","lat":43.2968,"lon":5.37291,"is_reserved":false,"is_disabled":false,"rental_uris":{"android":"levelo://app?vid=74b633e7-fc09-4268-b8b8-6781ec4d11a8","ios":"levelo://app?vid=74b633e7-fc09-4268-b8b8-6781ec4d11a8"},"vehicle_type_id":"4","last_reported":1720984051,"current_range_meters":12000,"station_id":"ce4bgk12rcd13ifvqbj0","pricing_plan_id":"cebpf4jnsgd1na2vs0mg"},{"bike_id":"c6a4ee23-0022-423d-9a9b-dc2c7d694865","system_id":"levelo_inurba_marseille","lat":43.2968,"lon":5.37291,"is_reserved":false,"is_disabled":false,"rental_uris":{"android":"levelo://app?vid=c6a4ee23-0022-423d-9a9b-dc2c7d694865","ios":"levelo://app?vid=c6a4ee23-0022-423d-9a9b-dc2c7d694865"},"vehicle_type_id":"4","last_reported":1720984051,"current_range_meters":28000,"station_id":"ce4bgk12rcd13ifvqbj0","pricing_plan_id":"cebpf4jnsgd1na2vs0mg"},{"bike_id":"d169d819-f50b-47df-8f16-ad62d0ff00d0","system_id":"levelo_inurba_marseille","lat":43.296921,"lon":5.376579,"is_reserved":false,"is_disabled":false,"rental_uris":{"android":"levelo://app?vid=d169d819-f50b-47df-8f16-ad62d0ff00d0","ios":"levelo://app?vid=d169d819-f50b-47df-8f16-ad62d0ff00d0"},"vehicle_type_id":"4","last_reported":1720984051,"current_range_meters":13200,"station_id":"ce4bgkh2rcd13ifvqbl0","pricing_plan_id":"cebpf4jnsgd1na2vs0mg"},{"bike_id":"a003a785-5774-4eb2-bb5c-68c736f2fc03","system_id":"levelo_inurba_marseille","lat":43.296921,"lon":5.376579,"is_reserved":false,"is_disabled":false,"rental_uris":{"android":"levelo://app?vid=a003a785-5774-4eb2-bb5c-68c736f2fc03","ios":"levelo://app?vid=a003a785-5774-4eb2-bb5c-68c736f2fc03"},"vehicle_type_id":"4","last_reported":1720984051,"current_range_meters":800,"station_id":"ce4bgkh2rcd13ifvqbl0","pricing_plan_id":"cebpf4jnsgd1na2vs0mg"},{"bike_id":"12a89c83-e6de-4eab-88d4-1dfbf7bf8fdc","system_id":"levelo_inurba_marseille","lat":43.296935,"lon":5.376544,"is_reserved":false,"is_disabled":false,"rental_uris":{"android":"levelo://app?vid=12a89c83-e6de-4eab-88d4-1dfbf7bf8fdc","ios":"levelo://app?vid=12a89c83-e6de-4eab-88d4-1dfbf7bf8fdc"},"vehicle_type_id":"4","last_reported":1720984051,"current_range_meters":0,"station_id":"ce4bgkh2rcd13ifvqbl0","pricing_plan_id":"cebpf4jnsgd1na2vs0mg"},{"bike_id":"9298e009-f2c0-4d07-be78-2d8155dc3515","system_id":"levelo_inurba_marseille","lat":43.309589,"lon":5.390258,"is_reserved":false,"is_disabled":false,"rental_uris":{"android":"levelo://app?vid=9298e009-f2c0-4d07-be78-2d8155dc3515","ios":"levelo://app?vid=9298e009-f2c0-4d07-be78-2d8155dc3515"},"vehicle_type_id":"4","last_reported":1720984051,"current_range_meters":29200,"station_id":"ce4bgup2rcd13ifvqco0","pricing_plan_id":"cebpf4jnsgd1na2vs0mg"},{"bike_id":"bd01994e-788c-4f57-935e-69a25f66c2bd","system_id":"levelo_inurba_marseille","lat":43.296935,"lon":5.376544,"is_reserved":false,"is_disabled":false,"rental_uris":{"android":"levelo://app?vid=bd01994e-788c-4f57-935e-69a25f66c2bd","ios":"levelo://app?vid=bd01994e-788c-4f57-935e-69a25f66c2bd"},"vehicle_type_id":"4","last_reported":1720984051,"current_range_meters":13600,"station_id":"ce4bgkh2rcd13ifvqbl0","pricing_plan_id":"cebpf4jnsgd1na2vs0mg"},{"bike_id":"e51636a9-c0e8-4b28-8590-86d034d69589","system_id":"levelo_inurba_marseille","lat":43.295748,"lon":5.37522,"is_reserved":false,"is_disabled":false,"rental_uris":{"android":"levelo://app?vid=e51636a9-c0e8-4b28-8590-86d034d69589","ios":"levelo://app?vid=e51636a9-c0e8-4b28-8590-86d034d69589"},"vehicle_type_id":"4","last_reported":1720984051,"current_range_meters":28800,"station_id":"ce4bgh92rcd13ifvqb50","pricing_plan_id":"cebpf4jnsgd1na2vs0mg"},{"bike_id":"ffd90f70-93dc-43ff-b45c-313c26b02eac","system_id":"levelo_inurba_marseille","lat":43.317557,"lon":5.390173,"is_reserved":false,"is_disabled":false,"rental_uris":{"android":"levelo://app?vid=ffd90f70-93dc-43ff-b45c-313c26b02eac","ios":"levelo://app?vid=ffd90f70-93dc-43ff-b45c-313c26b02eac"},"vehicle_type_id":"4","last_reported":1720984051,"current_range_meters":17200,"station_id":"ce4bhqp2rcd13ifvqhng","pricing_plan_id":"cebpf4jnsgd1na2vs0mg"},{"bike_id":"d81315a2-52fc-4243-9768-73f7f413ac3d","system_id":"levelo_inurba_marseille","lat":43.317557,"lon":5.390173,"is_reserved":false,"is_disabled":false,"rental_uris":{"android":"levelo://app?vid=d81315a2-52fc-4243-9768-73f7f413ac3d","ios":"levelo://app?vid=d81315a2-52fc-4243-9768-73f7f413ac3d"},"vehicle_type_id":"4","last_reported":1720984051,"current_range_meters":13200,"station_id":"ce4bhqp2rcd13ifvqhng","pricing_plan_id":"cebpf4jnsgd1na2vs0mg"},{"bike_id":"9044b758-e176-4b08-9818-c647391e7d0a","system_id":"levelo_inurba_marseille","lat":43.304278,"lon":5.388868,"is_reserved":false,"is_disabled":false,"rental_uris":{"android":"levelo://app?vid=9044b758-e176-4b08-9818-c647391e7d0a","ios":"levelo://app?vid=9044b758-e176-4b08-9818-c647391e7d0a"},"vehicle_type_id":"4","last_reported":1720984051,"current_range_meters":8800,"station_id":"ce4bgk12rcd13ifvqbi0","pricing_plan_id":"cebpf4jnsgd1na2vs0mg"},{"bike_id":"29e36498-b4ba-4120-8ffe-667d8f771efc","system_id":"levelo_inurba_marseille","lat":43.2958,"lon":5.3751,"is_reserved":false,"is_disabled":false,"rental_uris":{"android":"levelo://app?vid=29e36498-b4ba-4120-8ffe-667d8f771efc","ios":"levelo://app?vid=29e36498-b4ba-4120-8ffe-667d8f771efc"},"vehicle_type_id":"4","last_reported":1720984051,"current_range_meters":0,"station_id":"ce4bgh92rcd13ifvqb50","pricing_plan_id":"cebpf4jnsgd1na2vs0mg"},{"bike_id":"8aa370fb-2cb1-46cd-b436-fe27604437c5","system_id":"levelo_inurba_marseille","lat":43.29576,"lon":5.37508,"is_reserved":false,"is_disabled":false,"rental_uris":{"android":"levelo://app?vid=8aa370fb-2cb1-46cd-b436-fe27604437c5","ios":"levelo://app?vid=8aa370fb-2cb1-46cd-b436-fe27604437c5"},"vehicle_type_id":"4","last_reported":1720984051,"current_range_meters":26000,"station_id":"ce4bgh92rcd13ifvqb50","pricing_plan_id":"cebpf4jnsgd1na2vs0mg"},{"bike_id":"ba58602d-21b4-4c8b-b7df-b4bf2c326140","system_id":"levelo_inurba_marseille","lat":43.2958,"lon":5.37543,"is_reserved":false,"is_disabled":false,"rental_uris":{"android":"levelo://app?vid=ba58602d-21b4-4c8b-b7df-b4bf2c326140","ios":"levelo://app?vid=ba58602d-21b4-4c8b-b7df-b4bf2c326140"},"vehicle_type_id":"4","last_reported":1720984051,"current_range_meters":7200,"station_id":"","pricing_plan_id":"cebpf4jnsgd1na2vs0mg"},{"bike_id":"061941c2-2307-477d-8c89-3a618453af0b","system_id":"levelo_inurba_marseille","lat":43.296263,"lon":5.377094,"is_reserved":false,"is_disabled":false,"rental_uris":{"android":"levelo://app?vid=061941c2-2307-477d-8c89-3a618453af0b","ios":"levelo://app?vid=061941c2-2307-477d-8c89-3a618453af0b"},"vehicle_type_id":"4","last_reported":1720984051,"current_range_meters":0,"station_id":"ce4bgi92rcd13ifvqb90","pricing_plan_id":"cebpf4jnsgd1na2vs0mg"},{"bike_id":"ddc0a18a-051b-4f81-b4ef-596fb509395f","system_id":"levelo_inurba_marseille","lat":43.2979,"lon":5.38176,"is_reserved":false,"is_disabled":false,"rental_uris":{"android":"levelo://app?vid=ddc0a18a-051b-4f81-b4ef-596fb509395f","ios":"levelo://app?vid=ddc0a18a-051b-4f81-b4ef-596fb509395f"},"vehicle_type_id":"4","last_reported":1720984051,"current_range_meters":26800,"station_id":"","pricing_plan_id":"cebpf4jnsgd1na2vs0mg"},{"bike_id":"43180199-01a0-466b-bbee-ad98c9816d2e","system_id":"levelo_inurba_marseille","lat":43.295279,"lon":5.375048,"is_reserved":false,"is_disabled":false,"rental_uris":{"android":"levelo://app?vid=43180199-01a0-466b-bbee-ad98c9816d2e","ios":"levelo://app?vid=43180199-01a0-466b-bbee-ad98c9816d2e"},"vehicle_type_id":"4","last_reported":1720984051,"current_range_meters":6000,"station_id":"ce4bgkp2rcd13ifvqbmg","pricing_plan_id":"cebpf4jnsgd1na2vs0mg"},{"bike_id":"8bb068f8-6c9c-4189-a722-71eefe92ce8c","system_id":"levelo_inurba_marseille","lat":43.295279,"lon":5.375048,"is_reserved":false,"is_disabled":false,"rental_uris":{"android":"levelo://app?vid=8bb068f8-6c9c-4189-a722-71eefe92ce8c","ios":"levelo://app?vid=8bb068f8-6c9c-4189-a722-71eefe92ce8c"},"vehicle_type_id":"4","last_reported":1720984051,"current_range_meters":16000,"station_id":"ce4bgkp2rcd13ifvqbmg","pricing_plan_id":"cebpf4jnsgd1na2vs0mg"},{"bike_id":"b67ff668-6f59-47f1-9daa-8d9b85739fe8","system_id":"levelo_inurba_marseille","lat":43.299717,"lon":5.384845,"is_reserved":false,"is_disabled":false,"rental_uris":{"android":"levelo://app?vid=b67ff668-6f59-47f1-9daa-8d9b85739fe8","ios":"levelo://app?vid=b67ff668-6f59-47f1-9daa-8d9b85739fe8"},"vehicle_type_id":"4","last_reported":1720984051,"current_range_meters":0,"station_id":"ce4bgj92rcd13ifvqbd0","pricing_plan_id":"cebpf4jnsgd1na2vs0mg"},{"bike_id":"a4e83561-6b22-4542-8443-ec6c9990c0a6","system_id":"levelo_inurba_marseille","lat":43.299724,"lon":5.384848,"is_reserved":false,"is_disabled":false,"rental_uris":{"android":"levelo://app?vid=a4e83561-6b22-4542-8443-ec6c9990c0a6","ios":"levelo://app?vid=a4e83561-6b22-4542-8443-ec6c9990c0a6"},"vehicle_type_id":"4","last_reported":1720984051,"current_range_meters":9600,"station_id":"ce4bgj92rcd13ifvqbd0","pricing_plan_id":"cebpf4jnsgd1na2vs0mg"},{"bike_id":"1cbaa625-9b6b-4e2a-afc5-3874bfac63dd","system_id":"levelo_inurba_marseille","lat":43.295032,"lon":5.374367,"is_reserved":false,"is_disabled":false,"rental_uris":{"android":"levelo://app?vid=1cbaa625-9b6b-4e2a-afc5-3874bfac63dd","ios":"levelo://app?vid=1cbaa625-9b6b-4e2a-afc5-3874bfac63dd"},"vehicle_type_id":"4","last_reported":1720984051,"current_range_meters":0,"station_id":"","pricing_plan_id":"cebpf4jnsgd1na2vs0mg"},{"bike_id":"beb9d77a-9d5e-44d7-b833-b76b01c140ee","system_id":"levelo_inurba_marseille","lat":43.295279,"lon":5.375048,"is_reserved":false,"is_disabled":false,"rental_uris":{"android":"levelo://app?vid=beb9d77a-9d5e-44d7-b833-b76b01c140ee","ios":"levelo://app?vid=beb9d77a-9d5e-44d7-b833-b76b01c140ee"},"vehicle_type_id":"4","last_reported":1720984051,"current_range_meters":2800,"station_id":"ce4bgkp2rcd13ifvqbmg","pricing_plan_id":"cebpf4jnsgd1na2vs0mg"},{"bike_id":"bbba5de6-f8ba-43c3-aa8d-72a11c784b22","system_id":"levelo_inurba_marseille","lat":43.295279,"lon":5.375048,"is_reserved":false,"is_disabled":false,"rental_uris":{"android":"levelo://app?vid=bbba5de6-f8ba-43c3-aa8d-72a11c784b22","ios":"levelo://app?vid=bbba5de6-f8ba-43c3-aa8d-72a11c784b22"},"vehicle_type_id":"4","last_reported":1720984051,"current_range_meters":17200,"station_id":"ce4bgkp2rcd13ifvqbmg","pricing_plan_id":"cebpf4jnsgd1na2vs0mg"},{"bike_id":"a51d0944-c33d-47c8-868f-1a7253e73770","system_id":"levelo_inurba_marseille","lat":43.29553,"lon":5.37723,"is_reserved":false,"is_disabled":false,"rental_uris":{"android":"levelo://app?vid=a51d0944-c33d-47c8-868f-1a7253e73770","ios":"levelo://app?vid=a51d0944-c33d-47c8-868f-1a7253e73770"},"vehicle_type_id":"4","last_reported":1720984051,"current_range_meters":14000,"station_id":"","pricing_plan_id":"cebpf4jnsgd1na2vs0mg"},{"bike_id":"f4151ee4-3325-4a54-b209-35301800f3a2","system_id":"levelo_inurba_marseille","lat":43.301117,"lon":5.398795,"is_reserved":false,"is_disabled":false,"rental_uris":{"android":"levelo://app?vid=f4151ee4-3325-4a54-b209-35301800f3a2","ios":"levelo://app?vid=f4151ee4-3325-4a54-b209-35301800f3a2"},"vehicle_type_id":"4","last_reported":1720984051,"current_range_meters":24800,"station_id":"ce4bh0h2rcd13ifvqd40","pricing_plan_id":"cebpf4jnsgd1na2vs0mg"},{"bike_id":"5b067c4e-155e-4dde-8ba5-ab13545b0a35","system_id":"levelo_inurba_marseille","lat":43.32367,"lon":5.388836,"is_reserved":false,"is_disabled":false,"rental_uris":{"android":"levelo://app?vid=5b067c4e-155e-4dde-8ba5-ab13545b0a35","ios":"levelo://app?vid=5b067c4e-155e-4dde-8ba5-ab13545b0a35"},"vehicle_type_id":"4","last_reported":1720984051,"current_range_meters":13600,"station_id":"ce4bhqp2rcd13ifvqhog","pricing_plan_id":"cebpf4jnsgd1na2vs0mg"},{"bike_id":"6a71a23c-6448-463a-b8f4-0e4083b8ea3d","system_id":"levelo_inurba_marseille","lat":43.29405,"lon":5.37341,"is_reserved":false,"is_disabled":false,"rental_uris":{"android":"levelo://app?vid=6a71a23c-6448-463a-b8f4-0e4083b8ea3d","ios":"levelo://app?vid=6a71a23c-6448-463a-b8f4-0e4083b8ea3d"},"vehicle_type_id":"4","last_reported":1720984051,"current_range_meters":6400,"station_id":"","pricing_plan_id":"cebpf4jnsgd1na2vs0mg"},{"bike_id":"b44e57b1-53c6-4800-9d43-e2c2e2a8ffa3","system_id":"levelo_inurba_marseille","lat":43.32367,"lon":5.388836,"is_reserved":false,"is_disabled":false,"rental_uris":{"android":"levelo://app?vid=b44e57b1-53c6-4800-9d43-e2c2e2a8ffa3","ios":"levelo://app?vid=b44e57b1-53c6-4800-9d43-e2c2e2a8ffa3"},"vehicle_type_id":"4","last_reported":1720984051,"current_range_meters":17600,"station_id":"ce4bhqp2rcd13ifvqhog","pricing_plan_id":"cebpf4jnsgd1na2vs0mg"},{"bike_id":"5595522d-7bc6-41c7-b885-541209b7b9cd","system_id":"levelo_inurba_marseille","lat":43.32367,"lon":5.388836,"is_reserved":false,"is_disabled":false,"rental_uris":{"android":"levelo://app?vid=5595522d-7bc6-41c7-b885-541209b7b9cd","ios":"levelo://app?vid=5595522d-7bc6-41c7-b885-541209b7b9cd"},"vehicle_type_id":"4","last_reported":1720984051,"current_range_meters":1200,"station_id":"ce4bhqp2rcd13ifvqhog","pricing_plan_id":"cebpf4jnsgd1na2vs0mg"},{"bike_id":"21d253a8-ad90-418c-be52-36517cb23096","system_id":"levelo_inurba_marseille","lat":43.293259,"lon":5.371586,"is_reserved":false,"is_disabled":false,"rental_uris":{"android":"levelo://app?vid=21d253a8-ad90-418c-be52-36517cb23096","ios":"levelo://app?vid=21d253a8-ad90-418c-be52-36517cb23096"},"vehicle_type_id":"4","last_reported":1720984051,"current_range_meters":2000,"station_id":"ce4bgh92rcd13ifvqb40","pricing_plan_id":"cebpf4jnsgd1na2vs0mg"},{"bike_id":"a3161c1b-7dcd-4587-917d-a7d3d25c4961","system_id":"levelo_inurba_marseille","lat":43.29309,"lon":5.37162,"is_reserved":false,"is_disabled":false,"rental_uris":{"android":"levelo://app?vid=a3161c1b-7dcd-4587-917d-a7d3d25c4961","ios":"levelo://app?vid=a3161c1b-7dcd-4587-917d-a7d3d25c4961"},"vehicle_type_id":"4","last_reported":1720984051,"current_range_meters":0,"station_id":"ce4bgh92rcd13ifvqb40","pricing_plan_id":"cebpf4jnsgd1na2vs0mg"},{"bike_id":"4cffaf19-77f5-4a35-b4c4-b40737eefa5a","system_id":"levelo_inurba_marseille","lat":43.293249,"lon":5.371578,"is_reserved":false,"is_disabled":false,"rental_uris":{"android":"levelo://app?vid=4cffaf19-77f5-4a35-b4c4-b40737eefa5a","ios":"levelo://app?vid=4cffaf19-77f5-4a35-b4c4-b40737eefa5a"},"vehicle_type_id":"4","last_reported":1720984051,"current_range_meters":27200,"station_id":"ce4bgh92rcd13ifvqb40","pricing_plan_id":"cebpf4jnsgd1na2vs0mg"},{"bike_id":"a8f14ee1-558a-417d-833d-a95f76ca4eef","system_id":"levelo_inurba_marseille","lat":43.293249,"lon":5.371578,"is_reserved":false,"is_disabled":false,"rental_uris":{"android":"levelo://app?vid=a8f14ee1-558a-417d-833d-a95f76ca4eef","ios":"levelo://app?vid=a8f14ee1-558a-417d-833d-a95f76ca4eef"},"vehicle_type_id":"4","last_reported":1720984051,"current_range_meters":16000,"station_id":"ce4bgh92rcd13ifvqb40","pricing_plan_id":"cebpf4jnsgd1na2vs0mg"},{"bike_id":"4d393765-5365-452b-80ab-68dc9cbc546c","system_id":"levelo_inurba_marseille","lat":43.29307,"lon":5.3717,"is_reserved":false,"is_disabled":false,"rental_uris":{"android":"levelo://app?vid=4d393765-5365-452b-80ab-68dc9cbc546c","ios":"levelo://app?vid=4d393765-5365-452b-80ab-68dc9cbc546c"},"vehicle_type_id":"4","last_reported":1720984051,"current_range_meters":800,"station_id":"ce4bgh92rcd13ifvqb40","pricing_plan_id":"cebpf4jnsgd1na2vs0mg"},{"bike_id":"ceb79db1-e11a-453e-bf45-455fba4ae8d3","system_id":"levelo_inurba_marseille","lat":43.29306,"lon":5.37169,"is_reserved":false,"is_disabled":false,"rental_uris":{"android":"levelo://app?vid=ceb79db1-e11a-453e-bf45-455fba4ae8d3","ios":"levelo://app?vid=ceb79db1-e11a-453e-bf45-455fba4ae8d3"},"vehicle_type_id":"4","last_reported":1720984051,"current_range_meters":28000,"station_id":"ce4bgh92rcd13ifvqb40","pricing_plan_id":"cebpf4jnsgd1na2vs0mg"},{"bike_id":"bd9bd79b-0c44-42f4-9a64-3b45e2aefbb8","system_id":"levelo_inurba_marseille","lat":43.29302,"lon":5.37174,"is_reserved":false,"is_disabled":false,"rental_uris":{"android":"levelo://app?vid=bd9bd79b-0c44-42f4-9a64-3b45e2aefbb8","ios":"levelo://app?vid=bd9bd79b-0c44-42f4-9a64-3b45e2aefbb8"},"vehicle_type_id":"4","last_reported":1720984051,"current_range_meters":5600,"station_id":"ce4bgh92rcd13ifvqb40","pricing_plan_id":"cebpf4jnsgd1na2vs0mg"},{"bike_id":"74105faf-b71b-4518-821a-e4704aa2d84c","system_id":"levelo_inurba_marseille","lat":43.293,"lon":5.37171,"is_reserved":false,"is_disabled":false,"rental_uris":{"android":"levelo://app?vid=74105faf-b71b-4518-821a-e4704aa2d84c","ios":"levelo://app?vid=74105faf-b71b-4518-821a-e4704aa2d84c"},"vehicle_type_id":"4","last_reported":1720984051,"current_range_meters":7600,"station_id":"ce4bgh92rcd13ifvqb40","pricing_plan_id":"cebpf4jnsgd1na2vs0mg"},{"bike_id":"04c3f3e0-f6cb-4d1a-8fe6-7016f6f4123e","system_id":"levelo_inurba_marseille","lat":43.29295,"lon":5.37166,"is_reserved":false,"is_disabled":false,"rental_uris":{"android":"levelo://app?vid=04c3f3e0-f6cb-4d1a-8fe6-7016f6f4123e","ios":"levelo://app?vid=04c3f3e0-f6cb-4d1a-8fe6-7016f6f4123e"},"vehicle_type_id":"4","last_reported":1720984051,"current_range_meters":4400,"station_id":"ce4bgh92rcd13ifvqb40","pricing_plan_id":"cebpf4jnsgd1na2vs0mg"},{"bike_id":"04ffa406-3dd7-4cd8-92ef-ca13a6c1dead","system_id":"levelo_inurba_marseille","lat":43.2924,"lon":5.36448,"is_reserved":false,"is_disabled":false,"rental_uris":{"android":"levelo://app?vid=04ffa406-3dd7-4cd8-92ef-ca13a6c1dead","ios":"levelo://app?vid=04ffa406-3dd7-4cd8-92ef-ca13a6c1dead"},"vehicle_type_id":"4","last_reported":1720984051,"current_range_meters":6000,"station_id":"","pricing_plan_id":"cebpf4jnsgd1na2vs0mg"},{"bike_id":"2dd15103-011f-4a4d-8058-a44bac366cb0","system_id":"levelo_inurba_marseille","lat":43.29731,"lon":5.38531,"is_reserved":false,"is_disabled":false,"rental_uris":{"android":"levelo://app?vid=2dd15103-011f-4a4d-8058-a44bac366cb0","ios":"levelo://app?vid=2dd15103-011f-4a4d-8058-a44bac366cb0"},"vehicle_type_id":"4","last_reported":1720984051,"current_range_meters":1600,"station_id":"","pricing_plan_id":"cebpf4jnsgd1na2vs0mg"},{"bike_id":"3e0d31a3-2da3-4aef-83c9-7dfd3b631908","system_id":"levelo_inurba_marseille","lat":43.293009,"lon":5.374584,"is_reserved":false,"is_disabled":false,"rental_uris":{"android":"levelo://app?vid=3e0d31a3-2da3-4aef-83c9-7dfd3b631908","ios":"levelo://app?vid=3e0d31a3-2da3-4aef-83c9-7dfd3b631908"},"vehicle_type_id":"4","last_reported":1720984051,"current_range_meters":4400,"station_id":"ce4bgi12rcd13ifvqb70","pricing_plan_id":"cebpf4jnsgd1na2vs0mg"},{"bike_id":"d994ec6c-d70a-44f6-9d04-23edcce1e194","system_id":"levelo_inurba_marseille","lat":43.29303,"lon":5.37457,"is_reserved":false,"is_disabled":false,"rental_uris":{"android":"levelo://app?vid=d994ec6c-d70a-44f6-9d04-23edcce1e194","ios":"levelo://app?vid=d994ec6c-d70a-44f6-9d04-23edcce1e194"},"vehicle_type_id":"4","last_reported":1720984051,"current_range_meters":0,"station_id":"ce4bgi12rcd13ifvqb70","pricing_plan_id":"cebpf4jnsgd1na2vs0mg"},{"bike_id":"d0c86d08-c545-43a9-8c10-d20d96e658da","system_id":"levelo_inurba_marseille","lat":43.29294,"lon":5.3746,"is_reserved":false,"is_disabled":false,"rental_uris":{"android":"levelo://app?vid=d0c86d08-c545-43a9-8c10-d20d96e658da","ios":"levelo://app?vid=d0c86d08-c545-43a9-8c10-d20d96e658da"},"vehicle_type_id":"4","last_reported":1720984051,"current_range_meters":0,"station_id":"ce4bgi12rcd13ifvqb70","pricing_plan_id":"cebpf4jnsgd1na2vs0mg"},{"bike_id":"ecc826a5-6113-42de-87a7-cca3b86369e9","system_id":"levelo_inurba_marseille","lat":43.293009,"lon":5.374584,"is_reserved":false,"is_disabled":false,"rental_uris":{"android":"levelo://app?vid=ecc826a5-6113-42de-87a7-cca3b86369e9","ios":"levelo://app?vid=ecc826a5-6113-42de-87a7-cca3b86369e9"},"vehicle_type_id":"4","last_reported":1720984051,"current_range_meters":800,"station_id":"ce4bgi12rcd13ifvqb70","pricing_plan_id":"cebpf4jnsgd1na2vs0mg"},{"bike_id":"caca0910-90b4-40e5-93bb-c62f291b52e2","system_id":"levelo_inurba_marseille","lat":43.292311,"lon":5.360731,"is_reserved":false,"is_disabled":false,"rental_uris":{"android":"levelo://app?vid=caca0910-90b4-40e5-93bb-c62f291b52e2","ios":"levelo://app?vid=caca0910-90b4-40e5-93bb-c62f291b52e2"},"vehicle_type_id":"4","last_reported":1720984051,"current_range_meters":23200,"station_id":"ce4bhbh2rcd13ifvqeqg","pricing_plan_id":"cebpf4jnsgd1na2vs0mg"},{"bike_id":"f2b014eb-9477-4d30-b582-81f2b6f592d8","system_id":"levelo_inurba_marseille","lat":43.29226,"lon":5.36073,"is_reserved":false,"is_disabled":false,"rental_uris":{"android":"levelo://app?vid=f2b014eb-9477-4d30-b582-81f2b6f592d8","ios":"levelo://app?vid=f2b014eb-9477-4d30-b582-81f2b6f592d8"},"vehicle_type_id":"4","last_reported":1720984051,"current_range_meters":0,"station_id":"ce4bhbh2rcd13ifvqeqg","pricing_plan_id":"cebpf4jnsgd1na2vs0mg"},{"bike_id":"50fa32f6-fcb0-4ad9-b29d-fe5caacbc80b","system_id":"levelo_inurba_marseille","lat":43.29177,"lon":5.3715,"is_reserved":false,"is_disabled":false,"rental_uris":{"android":"levelo://app?vid=50fa32f6-fcb0-4ad9-b29d-fe5caacbc80b","ios":"levelo://app?vid=50fa32f6-fcb0-4ad9-b29d-fe5caacbc80b"},"vehicle_type_id":"4","last_reported":1720984051,"current_range_meters":400,"station_id":"ce4bha92rcd13ifvqeh0","pricing_plan_id":"cebpf4jnsgd1na2vs0mg"},{"bike_id":"fcabf70c-1c5a-4f0f-849d-1bed08bada80","system_id":"levelo_inurba_marseille","lat":43.291675,"lon":5.371583,"is_reserved":false,"is_disabled":false,"rental_uris":{"android":"levelo://app?vid=fcabf70c-1c5a-4f0f-849d-1bed08bada80","ios":"levelo://app?vid=fcabf70c-1c5a-4f0f-849d-1bed08bada80"},"vehicle_type_id":"4","last_reported":1720984051,"current_range_meters":24000,"station_id":"ce4bha92rcd13ifvqeh0","pricing_plan_id":"cebpf4jnsgd1na2vs0mg"},{"bike_id":"79d9f038-a161-4c5d-8efd-fd50af1200e7","system_id":"levelo_inurba_marseille","lat":43.291675,"lon":5.371583,"is_reserved":false,"is_disabled":false,"rental_uris":{"android":"levelo://app?vid=79d9f038-a161-4c5d-8efd-fd50af1200e7","ios":"levelo://app?vid=79d9f038-a161-4c5d-8efd-fd50af1200e7"},"vehicle_type_id":"4","last_reported":1720984051,"current_range_meters":2400,"station_id":"ce4bha92rcd13ifvqeh0","pricing_plan_id":"cebpf4jnsgd1na2vs0mg"},{"bike_id":"6a2846ac-ecb1-4af1-a869-cf0db535940d","system_id":"levelo_inurba_marseille","lat":43.2917,"lon":5.37157,"is_reserved":false,"is_disabled":false,"rental_uris":{"android":"levelo://app?vid=6a2846ac-ecb1-4af1-a869-cf0db535940d","ios":"levelo://app?vid=6a2846ac-ecb1-4af1-a869-cf0db535940d"},"vehicle_type_id":"4","last_reported":1720984051,"current_range_meters":17600,"station_id":"ce4bha92rcd13ifvqeh0","pricing_plan_id":"cebpf4jnsgd1na2vs0mg"},{"bike_id":"0c00ec47-4d2f-4744-9be2-6e0e4c41b4c8","system_id":"levelo_inurba_marseille","lat":43.291671,"lon":5.371575,"is_reserved":false,"is_disabled":false,"rental_uris":{"android":"levelo://app?vid=0c00ec47-4d2f-4744-9be2-6e0e4c41b4c8","ios":"levelo://app?vid=0c00ec47-4d2f-4744-9be2-6e0e4c41b4c8"},"vehicle_type_id":"4","last_reported":1720984051,"current_range_meters":30400,"station_id":"ce4bha92rcd13ifvqeh0","pricing_plan_id":"cebpf4jnsgd1na2vs0mg"},{"bike_id":"28e8a663-443c-41f4-8691-6dd1bde1e0fe","system_id":"levelo_inurba_marseille","lat":43.291675,"lon":5.371583,"is_reserved":false,"is_disabled":false,"rental_uris":{"android":"levelo://app?vid=28e8a663-443c-41f4-8691-6dd1bde1e0fe","ios":"levelo://app?vid=28e8a663-443c-41f4-8691-6dd1bde1e0fe"},"vehicle_type_id":"4","last_reported":1720984051,"current_range_meters":24400,"station_id":"ce4bha92rcd13ifvqeh0","pricing_plan_id":"cebpf4jnsgd1na2vs0mg"},{"bike_id":"f17c6dcf-5f38-4214-8833-0dff7d3f2c81","system_id":"levelo_inurba_marseille","lat":43.29874,"lon":5.38907,"is_reserved":false,"is_disabled":false,"rental_uris":{"android":"levelo://app?vid=f17c6dcf-5f38-4214-8833-0dff7d3f2c81","ios":"levelo://app?vid=f17c6dcf-5f38-4214-8833-0dff7d3f2c81"},"vehicle_type_id":"4","last_reported":1720984051,"current_range_meters":0,"station_id":"ce4bh392rcd13ifvqdl0","pricing_plan_id":"cebpf4jnsgd1na2vs0mg"},{"bike_id":"cc4cb748-5eb5-43f6-abf2-3a6cd3f12178","system_id":"levelo_inurba_marseille","lat":43.291671,"lon":5.371575,"is_reserved":false,"is_disabled":false,"rental_uris":{"android":"levelo://app?vid=cc4cb748-5eb5-43f6-abf2-3a6cd3f12178","ios":"levelo://app?vid=cc4cb748-5eb5-43f6-abf2-3a6cd3f12178"},"vehicle_type_id":"4","last_reported":1720984051,"current_range_meters":28000,"station_id":"ce4bha92rcd13ifvqeh0","pricing_plan_id":"cebpf4jnsgd1na2vs0mg"},{"bike_id":"ea4f1638-3a5a-4d7e-8dd9-41a4ff947f24","system_id":"levelo_inurba_marseille","lat":43.29872,"lon":5.38906,"is_reserved":false,"is_disabled":false,"rental_uris":{"android":"levelo://app?vid=ea4f1638-3a5a-4d7e-8dd9-41a4ff947f24","ios":"levelo://app?vid=ea4f1638-3a5a-4d7e-8dd9-41a4ff947f24"},"vehicle_type_id":"4","last_reported":1720984051,"current_range_meters":0,"station_id":"ce4bh392rcd13ifvqdl0","pricing_plan_id":"cebpf4jnsgd1na2vs0mg"},{"bike_id":"3332d6c9-1a99-42f9-9eea-390354b8862a","system_id":"levelo_inurba_marseille","lat":43.29869,"lon":5.38903,"is_reserved":false,"is_disabled":false,"rental_uris":{"android":"levelo://app?vid=3332d6c9-1a99-42f9-9eea-390354b8862a","ios":"levelo://app?vid=3332d6c9-1a99-42f9-9eea-390354b8862a"},"vehicle_type_id":"4","last_reported":1720984051,"current_range_meters":22800,"station_id":"ce4bh392rcd13ifvqdl0","pricing_plan_id":"cebpf4jnsgd1na2vs0mg"},{"bike_id":"7163682c-3d28-46eb-8c17-708b9730007f","system_id":"levelo_inurba_marseille","lat":43.291671,"lon":5.371575,"is_reserved":false,"is_disabled":false,"rental_uris":{"android":"levelo://app?vid=7163682c-3d28-46eb-8c17-708b9730007f","ios":"levelo://app?vid=7163682c-3d28-46eb-8c17-708b9730007f"},"vehicle_type_id":"4","last_reported":1720984051,"current_range_meters":28400,"station_id":"ce4bha92rcd13ifvqeh0","pricing_plan_id":"cebpf4jnsgd1na2vs0mg"},{"bike_id":"5d7c1acf-b64e-486a-9d5d-179a3c567a96","system_id":"levelo_inurba_marseille","lat":43.29201,"lon":5.3579,"is_reserved":false,"is_disabled":false,"rental_uris":{"android":"levelo://app?vid=5d7c1acf-b64e-486a-9d5d-179a3c567a96","ios":"levelo://app?vid=5d7c1acf-b64e-486a-9d5d-179a3c567a96"},"vehicle_type_id":"4","last_reported":1720984051,"current_range_meters":0,"station_id":"ce4bhb12rcd13ifvqel0","pricing_plan_id":"cebpf4jnsgd1na2vs0mg"},{"bike_id":"c42bfddc-65d3-4c18-bae9-008679bd2c8a","system_id":"levelo_inurba_marseille","lat":43.29195,"lon":5.3581,"is_reserved":false,"is_disabled":false,"rental_uris":{"android":"levelo://app?vid=c42bfddc-65d3-4c18-bae9-008679bd2c8a","ios":"levelo://app?vid=c42bfddc-65d3-4c18-bae9-008679bd2c8a"},"vehicle_type_id":"4","last_reported":1720984051,"current_range_meters":0,"station_id":"ce4bhb12rcd13ifvqel0","pricing_plan_id":"cebpf4jnsgd1na2vs0mg"},{"bike_id":"e832dc28-294b-475f-94aa-1e25893e425d","system_id":"levelo_inurba_marseille","lat":43.29195,"lon":5.35801,"is_reserved":false,"is_disabled":false,"rental_uris":{"android":"levelo://app?vid=e832dc28-294b-475f-94aa-1e25893e425d","ios":"levelo://app?vid=e832dc28-294b-475f-94aa-1e25893e425d"},"vehicle_type_id":"4","last_reported":1720984051,"current_range_meters":0,"station_id":"ce4bhb12rcd13ifvqel0","pricing_plan_id":"cebpf4jnsgd1na2vs0mg"},{"bike_id":"38bca9f8-ab11-419a-8e25-b6a58d4e5cf3","system_id":"levelo_inurba_marseille","lat":43.291994,"lon":5.357886,"is_reserved":false,"is_disabled":false,"rental_uris":{"android":"levelo://app?vid=38bca9f8-ab11-419a-8e25-b6a58d4e5cf3","ios":"levelo://app?vid=38bca9f8-ab11-419a-8e25-b6a58d4e5cf3"},"vehicle_type_id":"4","last_reported":1720984051,"current_range_meters":0,"station_id":"ce4bhb12rcd13ifvqel0","pricing_plan_id":"cebpf4jnsgd1na2vs0mg"},{"bike_id":"7fae5a7e-6db9-44e8-91f9-25e0312b8308","system_id":"levelo_inurba_marseille","lat":43.29192,"lon":5.35792,"is_reserved":false,"is_disabled":false,"rental_uris":{"android":"levelo://app?vid=7fae5a7e-6db9-44e8-91f9-25e0312b8308","ios":"levelo://app?vid=7fae5a7e-6db9-44e8-91f9-25e0312b8308"},"vehicle_type_id":"4","last_reported":1720984051,"current_range_meters":0,"station_id":"ce4bhb12rcd13ifvqel0","pricing_plan_id":"cebpf4jnsgd1na2vs0mg"},{"bike_id":"3191365f-47a8-47d5-a644-3c44125370ad","system_id":"levelo_inurba_marseille","lat":43.29529,"lon":5.385581,"is_reserved":false,"is_disabled":false,"rental_uris":{"android":"levelo://app?vid=3191365f-47a8-47d5-a644-3c44125370ad","ios":"levelo://app?vid=3191365f-47a8-47d5-a644-3c44125370ad"},"vehicle_type_id":"4","last_reported":1720984051,"current_range_meters":30000,"station_id":"ce4bgih2rcd13ifvqba0","pricing_plan_id":"cebpf4jnsgd1na2vs0mg"},{"bike_id":"c6af2db1-2134-431e-9a79-dd9c6de26e88","system_id":"levelo_inurba_marseille","lat":43.29083,"lon":5.37194,"is_reserved":false,"is_disabled":false,"rental_uris":{"android":"levelo://app?vid=c6af2db1-2134-431e-9a79-dd9c6de26e88","ios":"levelo://app?vid=c6af2db1-2134-431e-9a79-dd9c6de26e88"},"vehicle_type_id":"4","last_reported":1720984051,"current_range_meters":0,"station_id":"ce4bh5p2rcd13ifvqe4g","pricing_plan_id":"cebpf4jnsgd1na2vs0mg"},{"bike_id":"53ae58ad-e33d-48b2-8b36-3d82f3e39ac8","system_id":"levelo_inurba_marseille","lat":43.290767,"lon":5.371617,"is_reserved":false,"is_disabled":false,"rental_uris":{"android":"levelo://app?vid=53ae58ad-e33d-48b2-8b36-3d82f3e39ac8","ios":"levelo://app?vid=53ae58ad-e33d-48b2-8b36-3d82f3e39ac8"},"vehicle_type_id":"4","last_reported":1720984051,"current_range_meters":0,"station_id":"ce4bh5p2rcd13ifvqe4g","pricing_plan_id":"cebpf4jnsgd1na2vs0mg"},{"bike_id":"271756ad-4c6a-4b65-aa4f-a6d4660c2705","system_id":"levelo_inurba_marseille","lat":43.290779,"lon":5.371482,"is_reserved":false,"is_disabled":false,"rental_uris":{"android":"levelo://app?vid=271756ad-4c6a-4b65-aa4f-a6d4660c2705","ios":"levelo://app?vid=271756ad-4c6a-4b65-aa4f-a6d4660c2705"},"vehicle_type_id":"4","last_reported":1720984051,"current_range_meters":5200,"station_id":"ce4bh5p2rcd13ifvqe4g","pricing_plan_id":"cebpf4jnsgd1na2vs0mg"},{"bike_id":"5e58a736-c26b-4afe-be1e-185c5e3f09fb","system_id":"levelo_inurba_marseille","lat":43.290779,"lon":5.371482,"is_reserved":false,"is_disabled":false,"rental_uris":{"android":"levelo://app?vid=5e58a736-c26b-4afe-be1e-185c5e3f09fb","ios":"levelo://app?vid=5e58a736-c26b-4afe-be1e-185c5e3f09fb"},"vehicle_type_id":"4","last_reported":1720984051,"current_range_meters":6800,"station_id":"ce4bh5p2rcd13ifvqe4g","pricing_plan_id":"cebpf4jnsgd1na2vs0mg"},{"bike_id":"db0b2362-9661-469b-b8d5-bd8219c623f9","system_id":"levelo_inurba_marseille","lat":43.290284,"lon":5.365242,"is_reserved":false,"is_disabled":false,"rental_uris":{"android":"levelo://app?vid=db0b2362-9661-469b-b8d5-bd8219c623f9","ios":"levelo://app?vid=db0b2362-9661-469b-b8d5-bd8219c623f9"},"vehicle_type_id":"4","last_reported":1720984051,"current_range_meters":5600,"station_id":"","pricing_plan_id":"cebpf4jnsgd1na2vs0mg"},{"bike_id":"43f8e789-4c18-4696-b052-2dbc512d0e56","system_id":"levelo_inurba_marseille","lat":43.290779,"lon":5.371482,"is_reserved":false,"is_disabled":false,"rental_uris":{"android":"levelo://app?vid=43f8e789-4c18-4696-b052-2dbc512d0e56","ios":"levelo://app?vid=43f8e789-4c18-4696-b052-2dbc512d0e56"},"vehicle_type_id":"4","last_reported":1720984051,"current_range_meters":10800,"station_id":"ce4bh5p2rcd13ifvqe4g","pricing_plan_id":"cebpf4jnsgd1na2vs0mg"},{"bike_id":"daf52997-2784-4d9c-be62-d6adf7505c36","system_id":"levelo_inurba_marseille","lat":43.290631,"lon":5.359244,"is_reserved":false,"is_disabled":false,"rental_uris":{"android":"levelo://app?vid=daf52997-2784-4d9c-be62-d6adf7505c36","ios":"levelo://app?vid=daf52997-2784-4d9c-be62-d6adf7505c36"},"vehicle_type_id":"4","last_reported":1720984051,"current_range_meters":5600,"station_id":"ce4bha92rcd13ifvqeg0","pricing_plan_id":"cebpf4jnsgd1na2vs0mg"},{"bike_id":"df650733-0d04-43c5-ba76-b2d5409d1d3b","system_id":"levelo_inurba_marseille","lat":43.290631,"lon":5.359244,"is_reserved":false,"is_disabled":false,"rental_uris":{"android":"levelo://app?vid=df650733-0d04-43c5-ba76-b2d5409d1d3b","ios":"levelo://app?vid=df650733-0d04-43c5-ba76-b2d5409d1d3b"},"vehicle_type_id":"4","last_reported":1720984051,"current_range_meters":3200,"station_id":"ce4bha92rcd13ifvqeg0","pricing_plan_id":"cebpf4jnsgd1na2vs0mg"},{"bike_id":"bdd0ab90-ed60-4445-b50f-73cd4768caa5","system_id":"levelo_inurba_marseille","lat":43.290631,"lon":5.359244,"is_reserved":false,"is_disabled":false,"rental_uris":{"android":"levelo://app?vid=bdd0ab90-ed60-4445-b50f-73cd4768caa5","ios":"levelo://app?vid=bdd0ab90-ed60-4445-b50f-73cd4768caa5"},"vehicle_type_id":"4","last_reported":1720984051,"current_range_meters":2400,"station_id":"ce4bha92rcd13ifvqeg0","pricing_plan_id":"cebpf4jnsgd1na2vs0mg"},{"bike_id":"91df7bb1-2690-41b9-b802-900d8b13d875","system_id":"levelo_inurba_marseille","lat":43.290631,"lon":5.359244,"is_reserved":false,"is_disabled":false,"rental_uris":{"android":"levelo://app?vid=91df7bb1-2690-41b9-b802-900d8b13d875","ios":"levelo://app?vid=91df7bb1-2690-41b9-b802-900d8b13d875"},"vehicle_type_id":"4","last_reported":1720984051,"current_range_meters":7200,"station_id":"ce4bha92rcd13ifvqeg0","pricing_plan_id":"cebpf4jnsgd1na2vs0mg"},{"bike_id":"42bd928f-b674-477e-a340-e84f161c3db7","system_id":"levelo_inurba_marseille","lat":43.290631,"lon":5.359244,"is_reserved":false,"is_disabled":false,"rental_uris":{"android":"levelo://app?vid=42bd928f-b674-477e-a340-e84f161c3db7","ios":"levelo://app?vid=42bd928f-b674-477e-a340-e84f161c3db7"},"vehicle_type_id":"4","last_reported":1720984051,"current_range_meters":16800,"station_id":"ce4bha92rcd13ifvqeg0","pricing_plan_id":"cebpf4jnsgd1na2vs0mg"},{"bike_id":"ebfe1a5d-4f27-4ba5-9eef-f678fbb47b49","system_id":"levelo_inurba_marseille","lat":43.294153,"lon":5.386305,"is_reserved":false,"is_disabled":false,"rental_uris":{"android":"levelo://app?vid=ebfe1a5d-4f27-4ba5-9eef-f678fbb47b49","ios":"levelo://app?vid=ebfe1a5d-4f27-4ba5-9eef-f678fbb47b49"},"vehicle_type_id":"4","last_reported":1720984051,"current_range_meters":0,"station_id":"ce4bh2h2rcd13ifvqdh0","pricing_plan_id":"cebpf4jnsgd1na2vs0mg"},{"bike_id":"3d03b821-e23c-428c-b103-c4c0aa5d2b3c","system_id":"levelo_inurba_marseille","lat":43.290327,"lon":5.375711,"is_reserved":false,"is_disabled":false,"rental_uris":{"android":"levelo://app?vid=3d03b821-e23c-428c-b103-c4c0aa5d2b3c","ios":"levelo://app?vid=3d03b821-e23c-428c-b103-c4c0aa5d2b3c"},"vehicle_type_id":"4","last_reported":1720984051,"current_range_meters":5200,"station_id":"ce4bh692rcd13ifvqe90","pricing_plan_id":"cebpf4jnsgd1na2vs0mg"},{"bike_id":"db55be9e-9c68-4d82-b53c-5ff1168b5b4a","system_id":"levelo_inurba_marseille","lat":43.290319,"lon":5.375732,"is_reserved":false,"is_disabled":false,"rental_uris":{"android":"levelo://app?vid=db55be9e-9c68-4d82-b53c-5ff1168b5b4a","ios":"levelo://app?vid=db55be9e-9c68-4d82-b53c-5ff1168b5b4a"},"vehicle_type_id":"4","last_reported":1720984051,"current_range_meters":0,"station_id":"ce4bh692rcd13ifvqe90","pricing_plan_id":"cebpf4jnsgd1na2vs0mg"},{"bike_id":"95f6e890-d956-4dcb-be1c-0380eb0d243b","system_id":"levelo_inurba_marseille","lat":43.29032,"lon":5.37552,"is_reserved":false,"is_disabled":false,"rental_uris":{"android":"levelo://app?vid=95f6e890-d956-4dcb-be1c-0380eb0d243b","ios":"levelo://app?vid=95f6e890-d956-4dcb-be1c-0380eb0d243b"},"vehicle_type_id":"4","last_reported":1720984051,"current_range_meters":0,"station_id":"ce4bh692rcd13ifvqe90","pricing_plan_id":"cebpf4jnsgd1na2vs0mg"},{"bike_id":"f32ac007-1c7d-4b3e-b4d9-5e7b83ff8e0d","system_id":"levelo_inurba_marseille","lat":43.294162,"lon":5.386292,"is_reserved":false,"is_disabled":false,"rental_uris":{"android":"levelo://app?vid=f32ac007-1c7d-4b3e-b4d9-5e7b83ff8e0d","ios":"levelo://app?vid=f32ac007-1c7d-4b3e-b4d9-5e7b83ff8e0d"},"vehicle_type_id":"4","last_reported":1720984051,"current_range_meters":0,"station_id":"ce4bh2h2rcd13ifvqdh0","pricing_plan_id":"cebpf4jnsgd1na2vs0mg"},{"bike_id":"c684a559-98a9-496a-a70c-3649b2ef2327","system_id":"levelo_inurba_marseille","lat":43.29415,"lon":5.38621,"is_reserved":false,"is_disabled":false,"rental_uris":{"android":"levelo://app?vid=c684a559-98a9-496a-a70c-3649b2ef2327","ios":"levelo://app?vid=c684a559-98a9-496a-a70c-3649b2ef2327"},"vehicle_type_id":"4","last_reported":1720984051,"current_range_meters":0,"station_id":"ce4bh2h2rcd13ifvqdh0","pricing_plan_id":"cebpf4jnsgd1na2vs0mg"},{"bike_id":"914b0a29-1c4e-4906-bc2d-d35266b7fcf6","system_id":"levelo_inurba_marseille","lat":43.28943,"lon":5.36631,"is_reserved":false,"is_disabled":false,"rental_uris":{"android":"levelo://app?vid=914b0a29-1c4e-4906-bc2d-d35266b7fcf6","ios":"levelo://app?vid=914b0a29-1c4e-4906-bc2d-d35266b7fcf6"},"vehicle_type_id":"4","last_reported":1720984051,"current_range_meters":0,"station_id":"ce4bhap2rcd13ifvqek0","pricing_plan_id":"cebpf4jnsgd1na2vs0mg"},{"bike_id":"2060aaea-0dff-4594-b80e-7dc7e79168a2","system_id":"levelo_inurba_marseille","lat":43.28941,"lon":5.36635,"is_reserved":false,"is_disabled":false,"rental_uris":{"android":"levelo://app?vid=2060aaea-0dff-4594-b80e-7dc7e79168a2","ios":"levelo://app?vid=2060aaea-0dff-4594-b80e-7dc7e79168a2"},"vehicle_type_id":"4","last_reported":1720984051,"current_range_meters":0,"station_id":"ce4bhap2rcd13ifvqek0","pricing_plan_id":"cebpf4jnsgd1na2vs0mg"},{"bike_id":"7294f7b7-575a-408e-ade1-1ae4016aa8dd","system_id":"levelo_inurba_marseille","lat":43.28941,"lon":5.36625,"is_reserved":false,"is_disabled":false,"rental_uris":{"android":"levelo://app?vid=7294f7b7-575a-408e-ade1-1ae4016aa8dd","ios":"levelo://app?vid=7294f7b7-575a-408e-ade1-1ae4016aa8dd"},"vehicle_type_id":"4","last_reported":1720984051,"current_range_meters":0,"station_id":"ce4bhap2rcd13ifvqek0","pricing_plan_id":"cebpf4jnsgd1na2vs0mg"},{"bike_id":"b6b02772-7258-4900-b747-8ed12cadb624","system_id":"levelo_inurba_marseille","lat":43.29411,"lon":5.38625,"is_reserved":false,"is_disabled":false,"rental_uris":{"android":"levelo://app?vid=b6b02772-7258-4900-b747-8ed12cadb624","ios":"levelo://app?vid=b6b02772-7258-4900-b747-8ed12cadb624"},"vehicle_type_id":"4","last_reported":1720984051,"current_range_meters":1600,"station_id":"ce4bh2h2rcd13ifvqdh0","pricing_plan_id":"cebpf4jnsgd1na2vs0mg"},{"bike_id":"cdff7753-b7b4-41fd-839c-9076dd7bbab1","system_id":"levelo_inurba_marseille","lat":43.2894,"lon":5.36639,"is_reserved":false,"is_disabled":false,"rental_uris":{"android":"levelo://app?vid=cdff7753-b7b4-41fd-839c-9076dd7bbab1","ios":"levelo://app?vid=cdff7753-b7b4-41fd-839c-9076dd7bbab1"},"vehicle_type_id":"4","last_reported":1720984051,"current_range_meters":0,"station_id":"ce4bhap2rcd13ifvqek0","pricing_plan_id":"cebpf4jnsgd1na2vs0mg"},{"bike_id":"ed83dfdd-800e-4bfb-a1b9-5c5f32f19aa6","system_id":"levelo_inurba_marseille","lat":43.289184,"lon":5.366408,"is_reserved":false,"is_disabled":false,"rental_uris":{"android":"levelo://app?vid=ed83dfdd-800e-4bfb-a1b9-5c5f32f19aa6","ios":"levelo://app?vid=ed83dfdd-800e-4bfb-a1b9-5c5f32f19aa6"},"vehicle_type_id":"4","last_reported":1720984051,"current_range_meters":16400,"station_id":"ce4bhap2rcd13ifvqek0","pricing_plan_id":"cebpf4jnsgd1na2vs0mg"},{"bike_id":"120395f0-e2a7-4637-8112-286085111d38","system_id":"levelo_inurba_marseille","lat":43.28936,"lon":5.36648,"is_reserved":false,"is_disabled":false,"rental_uris":{"android":"levelo://app?vid=120395f0-e2a7-4637-8112-286085111d38","ios":"levelo://app?vid=120395f0-e2a7-4637-8112-286085111d38"},"vehicle_type_id":"4","last_reported":1720984051,"current_range_meters":0,"station_id":"ce4bhap2rcd13ifvqek0","pricing_plan_id":"cebpf4jnsgd1na2vs0mg"},{"bike_id":"ce787da8-6ada-444b-aa83-41fba772b2e5","system_id":"levelo_inurba_marseille","lat":43.28936,"lon":5.36639,"is_reserved":false,"is_disabled":false,"rental_uris":{"android":"levelo://app?vid=ce787da8-6ada-444b-aa83-41fba772b2e5","ios":"levelo://app?vid=ce787da8-6ada-444b-aa83-41fba772b2e5"},"vehicle_type_id":"4","last_reported":1720984051,"current_range_meters":0,"station_id":"ce4bhap2rcd13ifvqek0","pricing_plan_id":"cebpf4jnsgd1na2vs0mg"},{"bike_id":"2df429b8-e0c9-48f1-95b9-a345512a8673","system_id":"levelo_inurba_marseille","lat":43.28936,"lon":5.36635,"is_reserved":false,"is_disabled":false,"rental_uris":{"android":"levelo://app?vid=2df429b8-e0c9-48f1-95b9-a345512a8673","ios":"levelo://app?vid=2df429b8-e0c9-48f1-95b9-a345512a8673"},"vehicle_type_id":"4","last_reported":1720984051,"current_range_meters":400,"station_id":"ce4bhap2rcd13ifvqek0","pricing_plan_id":"cebpf4jnsgd1na2vs0mg"},{"bike_id":"5cbc4c72-1037-4502-bd50-a5cb5f07670c","system_id":"levelo_inurba_marseille","lat":43.28934,"lon":5.36627,"is_reserved":false,"is_disabled":false,"rental_uris":{"android":"levelo://app?vid=5cbc4c72-1037-4502-bd50-a5cb5f07670c","ios":"levelo://app?vid=5cbc4c72-1037-4502-bd50-a5cb5f07670c"},"vehicle_type_id":"4","last_reported":1720984051,"current_range_meters":0,"station_id":"ce4bhap2rcd13ifvqek0","pricing_plan_id":"cebpf4jnsgd1na2vs0mg"},{"bike_id":"2bf5755f-b190-4fcc-9eeb-302ab110a012","system_id":"levelo_inurba_marseille","lat":43.289433,"lon":5.363917,"is_reserved":false,"is_disabled":false,"rental_uris":{"android":"levelo://app?vid=2bf5755f-b190-4fcc-9eeb-302ab110a012","ios":"levelo://app?vid=2bf5755f-b190-4fcc-9eeb-302ab110a012"},"vehicle_type_id":"4","last_reported":1720984051,"current_range_meters":0,"station_id":"ce4bhc92rcd13ifvqetg","pricing_plan_id":"cebpf4jnsgd1na2vs0mg"},{"bike_id":"a33bda01-e721-4d6e-a60e-6d45cba57fa2","system_id":"levelo_inurba_marseille","lat":43.289468,"lon":5.363719,"is_reserved":false,"is_disabled":false,"rental_uris":{"android":"levelo://app?vid=a33bda01-e721-4d6e-a60e-6d45cba57fa2","ios":"levelo://app?vid=a33bda01-e721-4d6e-a60e-6d45cba57fa2"},"vehicle_type_id":"4","last_reported":1720984051,"current_range_meters":8000,"station_id":"ce4bhc92rcd13ifvqetg","pricing_plan_id":"cebpf4jnsgd1na2vs0mg"},{"bike_id":"8b785dbe-2259-41f9-bb99-e93d0baebcb1","system_id":"levelo_inurba_marseille","lat":43.28936,"lon":5.36389,"is_reserved":false,"is_disabled":false,"rental_uris":{"android":"levelo://app?vid=8b785dbe-2259-41f9-bb99-e93d0baebcb1","ios":"levelo://app?vid=8b785dbe-2259-41f9-bb99-e93d0baebcb1"},"vehicle_type_id":"4","last_reported":1720984051,"current_range_meters":0,"station_id":"ce4bhc92rcd13ifvqetg","pricing_plan_id":"cebpf4jnsgd1na2vs0mg"},{"bike_id":"4ee47b5a-cc79-4ba9-b8d8-24b80de3c13a","system_id":"levelo_inurba_marseille","lat":43.29277,"lon":5.384403,"is_reserved":false,"is_disabled":false,"rental_uris":{"android":"levelo://app?vid=4ee47b5a-cc79-4ba9-b8d8-24b80de3c13a","ios":"levelo://app?vid=4ee47b5a-cc79-4ba9-b8d8-24b80de3c13a"},"vehicle_type_id":"4","last_reported":1720984051,"current_range_meters":0,"station_id":"ce4bh692rcd13ifvqea0","pricing_plan_id":"cebpf4jnsgd1na2vs0mg"},{"bike_id":"10801f3d-091c-44cf-b933-e3c9e4add704","system_id":"levelo_inurba_marseille","lat":43.292706,"lon":5.38432,"is_reserved":false,"is_disabled":false,"rental_uris":{"android":"levelo://app?vid=10801f3d-091c-44cf-b933-e3c9e4add704","ios":"levelo://app?vid=10801f3d-091c-44cf-b933-e3c9e4add704"},"vehicle_type_id":"4","last_reported":1720984051,"current_range_meters":26400,"station_id":"ce4bh692rcd13ifvqea0","pricing_plan_id":"cebpf4jnsgd1na2vs0mg"},{"bike_id":"40f5c5d9-0533-4e50-ba8c-7f59f6e6e39b","system_id":"levelo_inurba_marseille","lat":43.292644,"lon":5.384257,"is_reserved":false,"is_disabled":false,"rental_uris":{"android":"levelo://app?vid=40f5c5d9-0533-4e50-ba8c-7f59f6e6e39b","ios":"levelo://app?vid=40f5c5d9-0533-4e50-ba8c-7f59f6e6e39b"},"vehicle_type_id":"4","last_reported":1720984051,"current_range_meters":1600,"station_id":"ce4bh692rcd13ifvqea0","pricing_plan_id":"cebpf4jnsgd1na2vs0mg"},{"bike_id":"7e76e950-1f48-4ce8-b117-c8333b0d2d8f","system_id":"levelo_inurba_marseille","lat":43.292637,"lon":5.384452,"is_reserved":false,"is_disabled":false,"rental_uris":{"android":"levelo://app?vid=7e76e950-1f48-4ce8-b117-c8333b0d2d8f","ios":"levelo://app?vid=7e76e950-1f48-4ce8-b117-c8333b0d2d8f"},"vehicle_type_id":"4","last_reported":1720984051,"current_range_meters":0,"station_id":"ce4bh692rcd13ifvqea0","pricing_plan_id":"cebpf4jnsgd1na2vs0mg"},{"bike_id":"652de719-dfe6-4173-a23c-822b07fc7674","system_id":"levelo_inurba_marseille","lat":43.290104,"lon":5.356111,"is_reserved":false,"is_disabled":false,"rental_uris":{"android":"levelo://app?vid=652de719-dfe6-4173-a23c-822b07fc7674","ios":"levelo://app?vid=652de719-dfe6-4173-a23c-822b07fc7674"},"vehicle_type_id":"4","last_reported":1720984051,"current_range_meters":0,"station_id":"ce4bhb92rcd13ifvqen0","pricing_plan_id":"cebpf4jnsgd1na2vs0mg"},{"bike_id":"ac6c4bc6-8051-4e3d-80fc-530f79ed0408","system_id":"levelo_inurba_marseille","lat":43.291763,"lon":5.382933,"is_reserved":false,"is_disabled":false,"rental_uris":{"android":"levelo://app?vid=ac6c4bc6-8051-4e3d-80fc-530f79ed0408","ios":"levelo://app?vid=ac6c4bc6-8051-4e3d-80fc-530f79ed0408"},"vehicle_type_id":"4","last_reported":1720984051,"current_range_meters":26000,"station_id":"","pricing_plan_id":"cebpf4jnsgd1na2vs0mg"},{"bike_id":"4acdead6-5153-4f7c-b97e-3a6c556e53fc","system_id":"levelo_inurba_marseille","lat":43.290103,"lon":5.356114,"is_reserved":false,"is_disabled":false,"rental_uris":{"android":"levelo://app?vid=4acdead6-5153-4f7c-b97e-3a6c556e53fc","ios":"levelo://app?vid=4acdead6-5153-4f7c-b97e-3a6c556e53fc"},"vehicle_type_id":"4","last_reported":1720984051,"current_range_meters":14800,"station_id":"ce4bhb92rcd13ifvqen0","pricing_plan_id":"cebpf4jnsgd1na2vs0mg"},{"bike_id":"8fe0f493-5387-484e-976f-e85e070cc061","system_id":"levelo_inurba_marseille","lat":43.290104,"lon":5.356111,"is_reserved":false,"is_disabled":false,"rental_uris":{"android":"levelo://app?vid=8fe0f493-5387-484e-976f-e85e070cc061","ios":"levelo://app?vid=8fe0f493-5387-484e-976f-e85e070cc061"},"vehicle_type_id":"4","last_reported":1720984051,"current_range_meters":0,"station_id":"ce4bhb92rcd13ifvqen0","pricing_plan_id":"cebpf4jnsgd1na2vs0mg"},{"bike_id":"e9701fb0-5df9-46f9-9da0-37166e0b7b06","system_id":"levelo_inurba_marseille","lat":43.323134,"lon":5.397001,"is_reserved":false,"is_disabled":false,"rental_uris":{"android":"levelo://app?vid=e9701fb0-5df9-46f9-9da0-37166e0b7b06","ios":"levelo://app?vid=e9701fb0-5df9-46f9-9da0-37166e0b7b06"},"vehicle_type_id":"4","last_reported":1720984051,"current_range_meters":4400,"station_id":"","pricing_plan_id":"cebpf4jnsgd1na2vs0mg"},{"bike_id":"508edf1a-06c3-42dc-a28c-5f4cdbda751f","system_id":"levelo_inurba_marseille","lat":43.29787,"lon":5.39335,"is_reserved":false,"is_disabled":false,"rental_uris":{"android":"levelo://app?vid=508edf1a-06c3-42dc-a28c-5f4cdbda751f","ios":"levelo://app?vid=508edf1a-06c3-42dc-a28c-5f4cdbda751f"},"vehicle_type_id":"4","last_reported":1720984051,"current_range_meters":8000,"station_id":"chh1huq6cuj3fo74tm60","pricing_plan_id":"cebpf4jnsgd1na2vs0mg"},{"bike_id":"7a02df1f-f0ab-4aa6-b792-3a974c5ba6d8","system_id":"levelo_inurba_marseille","lat":43.330442,"lon":5.389148,"is_reserved":false,"is_disabled":false,"rental_uris":{"android":"levelo://app?vid=7a02df1f-f0ab-4aa6-b792-3a974c5ba6d8","ios":"levelo://app?vid=7a02df1f-f0ab-4aa6-b792-3a974c5ba6d8"},"vehicle_type_id":"4","last_reported":1720984051,"current_range_meters":1200,"station_id":"ce4bhr92rcd13ifvqhrg","pricing_plan_id":"cebpf4jnsgd1na2vs0mg"},{"bike_id":"fbc3332b-1c07-4a5a-87cd-5f1f8f3faae5","system_id":"levelo_inurba_marseille","lat":43.289741,"lon":5.378306,"is_reserved":false,"is_disabled":false,"rental_uris":{"android":"levelo://app?vid=fbc3332b-1c07-4a5a-87cd-5f1f8f3faae5","ios":"levelo://app?vid=fbc3332b-1c07-4a5a-87cd-5f1f8f3faae5"},"vehicle_type_id":"4","last_reported":1720984051,"current_range_meters":20800,"station_id":"ce4bh9p2rcd13ifvqed0","pricing_plan_id":"cebpf4jnsgd1na2vs0mg"},{"bike_id":"f200f39f-15cf-45a4-9cb3-6f824e957ba9","system_id":"levelo_inurba_marseille","lat":43.330442,"lon":5.389148,"is_reserved":false,"is_disabled":false,"rental_uris":{"android":"levelo://app?vid=f200f39f-15cf-45a4-9cb3-6f824e957ba9","ios":"levelo://app?vid=f200f39f-15cf-45a4-9cb3-6f824e957ba9"},"vehicle_type_id":"4","last_reported":1720984051,"current_range_meters":14000,"station_id":"ce4bhr92rcd13ifvqhrg","pricing_plan_id":"cebpf4jnsgd1na2vs0mg"},{"bike_id":"542940b3-ae80-4fed-ada3-8ed41eb63afe","system_id":"levelo_inurba_marseille","lat":43.28987,"lon":5.35488,"is_reserved":false,"is_disabled":false,"rental_uris":{"android":"levelo://app?vid=542940b3-ae80-4fed-ada3-8ed41eb63afe","ios":"levelo://app?vid=542940b3-ae80-4fed-ada3-8ed41eb63afe"},"vehicle_type_id":"4","last_reported":1720984051,"current_range_meters":9200,"station_id":"","pricing_plan_id":"cebpf4jnsgd1na2vs0mg"},{"bike_id":"656ce073-35ae-4dda-a004-04eeeaff2146","system_id":"levelo_inurba_marseille","lat":43.295169,"lon":5.390426,"is_reserved":false,"is_disabled":false,"rental_uris":{"android":"levelo://app?vid=656ce073-35ae-4dda-a004-04eeeaff2146","ios":"levelo://app?vid=656ce073-35ae-4dda-a004-04eeeaff2146"},"vehicle_type_id":"4","last_reported":1720984051,"current_range_meters":12400,"station_id":"ce4bh3p2rcd13ifvqdp0","pricing_plan_id":"cebpf4jnsgd1na2vs0mg"},{"bike_id":"ae3c8cd4-5e36-4e36-9b6d-230aba94762f","system_id":"levelo_inurba_marseille","lat":43.295169,"lon":5.390426,"is_reserved":false,"is_disabled":false,"rental_uris":{"android":"levelo://app?vid=ae3c8cd4-5e36-4e36-9b6d-230aba94762f","ios":"levelo://app?vid=ae3c8cd4-5e36-4e36-9b6d-230aba94762f"},"vehicle_type_id":"4","last_reported":1720984051,"current_range_meters":3200,"station_id":"ce4bh3p2rcd13ifvqdp0","pricing_plan_id":"cebpf4jnsgd1na2vs0mg"},{"bike_id":"4e977fff-ad41-4542-afa2-97d0d9d7577b","system_id":"levelo_inurba_marseille","lat":43.3107,"lon":5.40081,"is_reserved":false,"is_disabled":false,"rental_uris":{"android":"levelo://app?vid=4e977fff-ad41-4542-afa2-97d0d9d7577b","ios":"levelo://app?vid=4e977fff-ad41-4542-afa2-97d0d9d7577b"},"vehicle_type_id":"4","last_reported":1720984051,"current_range_meters":19600,"station_id":"","pricing_plan_id":"cebpf4jnsgd1na2vs0mg"},{"bike_id":"350ba7ba-487d-48e3-94fa-821ad0b7cdf6","system_id":"levelo_inurba_marseille","lat":43.28856,"lon":5.358371,"is_reserved":false,"is_disabled":false,"rental_uris":{"android":"levelo://app?vid=350ba7ba-487d-48e3-94fa-821ad0b7cdf6","ios":"levelo://app?vid=350ba7ba-487d-48e3-94fa-821ad0b7cdf6"},"vehicle_type_id":"4","last_reported":1720984051,"current_range_meters":10400,"station_id":"ce4bhb12rcd13ifvqem0","pricing_plan_id":"cebpf4jnsgd1na2vs0mg"},{"bike_id":"6bd01a81-8c6a-473a-b6ae-4ddee96c8b3b","system_id":"levelo_inurba_marseille","lat":43.33093,"lon":5.39029,"is_reserved":false,"is_disabled":false,"rental_uris":{"android":"levelo://app?vid=6bd01a81-8c6a-473a-b6ae-4ddee96c8b3b","ios":"levelo://app?vid=6bd01a81-8c6a-473a-b6ae-4ddee96c8b3b"},"vehicle_type_id":"4","last_reported":1720984051,"current_range_meters":25600,"station_id":"","pricing_plan_id":"cebpf4jnsgd1na2vs0mg"},{"bike_id":"5a93eebc-09ea-46fb-ba57-985cc5cf6056","system_id":"levelo_inurba_marseille","lat":43.31223,"lon":5.40126,"is_reserved":false,"is_disabled":false,"rental_uris":{"android":"levelo://app?vid=5a93eebc-09ea-46fb-ba57-985cc5cf6056","ios":"levelo://app?vid=5a93eebc-09ea-46fb-ba57-985cc5cf6056"},"vehicle_type_id":"4","last_reported":1720984051,"current_range_meters":10000,"station_id":"","pricing_plan_id":"cebpf4jnsgd1na2vs0mg"},{"bike_id":"7d91fee3-ea03-46cc-a785-3abe7914bf08","system_id":"levelo_inurba_marseille","lat":43.312609,"lon":5.401662,"is_reserved":false,"is_disabled":false,"rental_uris":{"android":"levelo://app?vid=7d91fee3-ea03-46cc-a785-3abe7914bf08","ios":"levelo://app?vid=7d91fee3-ea03-46cc-a785-3abe7914bf08"},"vehicle_type_id":"4","last_reported":1720984051,"current_range_meters":4000,"station_id":"ce4bh092rcd13ifvqd30","pricing_plan_id":"cebpf4jnsgd1na2vs0mg"},{"bike_id":"5efafb7d-536c-44da-8a2c-91befd5ed523","system_id":"levelo_inurba_marseille","lat":43.31254,"lon":5.40143,"is_reserved":false,"is_disabled":false,"rental_uris":{"android":"levelo://app?vid=5efafb7d-536c-44da-8a2c-91befd5ed523","ios":"levelo://app?vid=5efafb7d-536c-44da-8a2c-91befd5ed523"},"vehicle_type_id":"4","last_reported":1720984051,"current_range_meters":17600,"station_id":"","pricing_plan_id":"cebpf4jnsgd1na2vs0mg"},{"bike_id":"6afeca56-0a87-42e1-b666-00d55187b129","system_id":"levelo_inurba_marseille","lat":43.31273,"lon":5.40158,"is_reserved":false,"is_disabled":false,"rental_uris":{"android":"levelo://app?vid=6afeca56-0a87-42e1-b666-00d55187b129","ios":"levelo://app?vid=6afeca56-0a87-42e1-b666-00d55187b129"},"vehicle_type_id":"4","last_reported":1720984051,"current_range_meters":0,"station_id":"ce4bh092rcd13ifvqd30","pricing_plan_id":"cebpf4jnsgd1na2vs0mg"},{"bike_id":"7db14a83-5996-4107-aac5-8660c0fb36ae","system_id":"levelo_inurba_marseille","lat":43.337584,"lon":5.374721,"is_reserved":false,"is_disabled":false,"rental_uris":{"android":"levelo://app?vid=7db14a83-5996-4107-aac5-8660c0fb36ae","ios":"levelo://app?vid=7db14a83-5996-4107-aac5-8660c0fb36ae"},"vehicle_type_id":"4","last_reported":1720984051,"current_range_meters":17200,"station_id":"","pricing_plan_id":"cebpf4jnsgd1na2vs0mg"},{"bike_id":"e6537933-0eb1-41a8-b76a-584d0a7d4a3c","system_id":"levelo_inurba_marseille","lat":43.33766,"lon":5.37467,"is_reserved":false,"is_disabled":false,"rental_uris":{"android":"levelo://app?vid=e6537933-0eb1-41a8-b76a-584d0a7d4a3c","ios":"levelo://app?vid=e6537933-0eb1-41a8-b76a-584d0a7d4a3c"},"vehicle_type_id":"4","last_reported":1720984051,"current_range_meters":30000,"station_id":"","pricing_plan_id":"cebpf4jnsgd1na2vs0mg"},{"bike_id":"893b3f9e-8d19-4e89-b4e3-e6aa5e07ff06","system_id":"levelo_inurba_marseille","lat":43.33766,"lon":5.37471,"is_reserved":false,"is_disabled":false,"rental_uris":{"android":"levelo://app?vid=893b3f9e-8d19-4e89-b4e3-e6aa5e07ff06","ios":"levelo://app?vid=893b3f9e-8d19-4e89-b4e3-e6aa5e07ff06"},"vehicle_type_id":"4","last_reported":1720984051,"current_range_meters":25600,"station_id":"","pricing_plan_id":"cebpf4jnsgd1na2vs0mg"},{"bike_id":"ac9d66fe-9bf5-4789-93e4-8c7d750a082c","system_id":"levelo_inurba_marseille","lat":43.33766,"lon":5.37473,"is_reserved":false,"is_disabled":false,"rental_uris":{"android":"levelo://app?vid=ac9d66fe-9bf5-4789-93e4-8c7d750a082c","ios":"levelo://app?vid=ac9d66fe-9bf5-4789-93e4-8c7d750a082c"},"vehicle_type_id":"4","last_reported":1720984051,"current_range_meters":22800,"station_id":"","pricing_plan_id":"cebpf4jnsgd1na2vs0mg"},{"bike_id":"37772fd2-0f82-4f52-ad98-1e17b9e6b7e2","system_id":"levelo_inurba_marseille","lat":43.33767,"lon":5.374711,"is_reserved":false,"is_disabled":false,"rental_uris":{"android":"levelo://app?vid=37772fd2-0f82-4f52-ad98-1e17b9e6b7e2","ios":"levelo://app?vid=37772fd2-0f82-4f52-ad98-1e17b9e6b7e2"},"vehicle_type_id":"4","last_reported":1720984051,"current_range_meters":22400,"station_id":"","pricing_plan_id":"cebpf4jnsgd1na2vs0mg"},{"bike_id":"5cd2f239-467e-4111-8850-d9782eca2470","system_id":"levelo_inurba_marseille","lat":43.33767,"lon":5.37472,"is_reserved":false,"is_disabled":false,"rental_uris":{"android":"levelo://app?vid=5cd2f239-467e-4111-8850-d9782eca2470","ios":"levelo://app?vid=5cd2f239-467e-4111-8850-d9782eca2470"},"vehicle_type_id":"4","last_reported":1720984051,"current_range_meters":28800,"station_id":"","pricing_plan_id":"cebpf4jnsgd1na2vs0mg"},{"bike_id":"039a10e5-aed9-4f01-a151-04375f715c5b","system_id":"levelo_inurba_marseille","lat":43.33767,"lon":5.37478,"is_reserved":false,"is_disabled":false,"rental_uris":{"android":"levelo://app?vid=039a10e5-aed9-4f01-a151-04375f715c5b","ios":"levelo://app?vid=039a10e5-aed9-4f01-a151-04375f715c5b"},"vehicle_type_id":"4","last_reported":1720984051,"current_range_meters":23600,"station_id":"","pricing_plan_id":"cebpf4jnsgd1na2vs0mg"},{"bike_id":"ecca751a-c24b-4d06-bee9-480915f9bb4a","system_id":"levelo_inurba_marseille","lat":43.337687,"lon":5.374689,"is_reserved":false,"is_disabled":false,"rental_uris":{"android":"levelo://app?vid=ecca751a-c24b-4d06-bee9-480915f9bb4a","ios":"levelo://app?vid=ecca751a-c24b-4d06-bee9-480915f9bb4a"},"vehicle_type_id":"4","last_reported":1720984051,"current_range_meters":0,"station_id":"","pricing_plan_id":"cebpf4jnsgd1na2vs0mg"},{"bike_id":"26f86cb7-ac0c-4cfd-84f1-3a9e9042360d","system_id":"levelo_inurba_marseille","lat":43.337681,"lon":5.37474,"is_reserved":false,"is_disabled":false,"rental_uris":{"android":"levelo://app?vid=26f86cb7-ac0c-4cfd-84f1-3a9e9042360d","ios":"levelo://app?vid=26f86cb7-ac0c-4cfd-84f1-3a9e9042360d"},"vehicle_type_id":"4","last_reported":1720984051,"current_range_meters":13200,"station_id":"","pricing_plan_id":"cebpf4jnsgd1na2vs0mg"},{"bike_id":"cd48b539-8a8f-4ccd-a8aa-e74e2abaf1f5","system_id":"levelo_inurba_marseille","lat":43.33768,"lon":5.37475,"is_reserved":false,"is_disabled":false,"rental_uris":{"android":"levelo://app?vid=cd48b539-8a8f-4ccd-a8aa-e74e2abaf1f5","ios":"levelo://app?vid=cd48b539-8a8f-4ccd-a8aa-e74e2abaf1f5"},"vehicle_type_id":"4","last_reported":1720984051,"current_range_meters":24000,"station_id":"","pricing_plan_id":"cebpf4jnsgd1na2vs0mg"},{"bike_id":"6005b925-bbeb-43fb-9a4b-148f3086b364","system_id":"levelo_inurba_marseille","lat":43.33767,"lon":5.37481,"is_reserved":false,"is_disabled":false,"rental_uris":{"android":"levelo://app?vid=6005b925-bbeb-43fb-9a4b-148f3086b364","ios":"levelo://app?vid=6005b925-bbeb-43fb-9a4b-148f3086b364"},"vehicle_type_id":"4","last_reported":1720984051,"current_range_meters":400,"station_id":"","pricing_plan_id":"cebpf4jnsgd1na2vs0mg"},{"bike_id":"9641f142-48bc-49b9-9b2a-634a9b288110","system_id":"levelo_inurba_marseille","lat":43.33768,"lon":5.37476,"is_reserved":false,"is_disabled":false,"rental_uris":{"android":"levelo://app?vid=9641f142-48bc-49b9-9b2a-634a9b288110","ios":"levelo://app?vid=9641f142-48bc-49b9-9b2a-634a9b288110"},"vehicle_type_id":"4","last_reported":1720984051,"current_range_meters":20800,"station_id":"","pricing_plan_id":"cebpf4jnsgd1na2vs0mg"},{"bike_id":"c67a12ba-5c42-41ae-847c-0956c8b147e5","system_id":"levelo_inurba_marseille","lat":43.3377,"lon":5.37471,"is_reserved":false,"is_disabled":false,"rental_uris":{"android":"levelo://app?vid=c67a12ba-5c42-41ae-847c-0956c8b147e5","ios":"levelo://app?vid=c67a12ba-5c42-41ae-847c-0956c8b147e5"},"vehicle_type_id":"4","last_reported":1720984051,"current_range_meters":14400,"station_id":"","pricing_plan_id":"cebpf4jnsgd1na2vs0mg"},{"bike_id":"db8d58e3-38a2-4c75-ae4a-e4abfcab3724","system_id":"levelo_inurba_marseille","lat":43.33772,"lon":5.37459,"is_reserved":false,"is_disabled":false,"rental_uris":{"android":"levelo://app?vid=db8d58e3-38a2-4c75-ae4a-e4abfcab3724","ios":"levelo://app?vid=db8d58e3-38a2-4c75-ae4a-e4abfcab3724"},"vehicle_type_id":"4","last_reported":1720984051,"current_range_meters":30400,"station_id":"","pricing_plan_id":"cebpf4jnsgd1na2vs0mg"},{"bike_id":"b490573b-32d3-4854-ab3f-e801cde5a636","system_id":"levelo_inurba_marseille","lat":43.337697,"lon":5.37473,"is_reserved":false,"is_disabled":false,"rental_uris":{"android":"levelo://app?vid=b490573b-32d3-4854-ab3f-e801cde5a636","ios":"levelo://app?vid=b490573b-32d3-4854-ab3f-e801cde5a636"},"vehicle_type_id":"4","last_reported":1720984051,"current_range_meters":14000,"station_id":"","pricing_plan_id":"cebpf4jnsgd1na2vs0mg"},{"bike_id":"02f0d131-963f-495a-beaf-edc5a91d6439","system_id":"levelo_inurba_marseille","lat":43.33771,"lon":5.374656,"is_reserved":false,"is_disabled":false,"rental_uris":{"android":"levelo://app?vid=02f0d131-963f-495a-beaf-edc5a91d6439","ios":"levelo://app?vid=02f0d131-963f-495a-beaf-edc5a91d6439"},"vehicle_type_id":"4","last_reported":1720984051,"current_range_meters":24800,"station_id":"","pricing_plan_id":"cebpf4jnsgd1na2vs0mg"},{"bike_id":"bfbef46d-097c-4ecc-a4cf-db53c94b13b1","system_id":"levelo_inurba_marseille","lat":43.3377,"lon":5.37473,"is_reserved":false,"is_disabled":false,"rental_uris":{"android":"levelo://app?vid=bfbef46d-097c-4ecc-a4cf-db53c94b13b1","ios":"levelo://app?vid=bfbef46d-097c-4ecc-a4cf-db53c94b13b1"},"vehicle_type_id":"4","last_reported":1720984051,"current_range_meters":31200,"station_id":"","pricing_plan_id":"cebpf4jnsgd1na2vs0mg"},{"bike_id":"51544219-3a97-477c-9642-d66a5be4ade3","system_id":"levelo_inurba_marseille","lat":43.3377,"lon":5.37473,"is_reserved":false,"is_disabled":false,"rental_uris":{"android":"levelo://app?vid=51544219-3a97-477c-9642-d66a5be4ade3","ios":"levelo://app?vid=51544219-3a97-477c-9642-d66a5be4ade3"},"vehicle_type_id":"4","last_reported":1720984051,"current_range_meters":16000,"station_id":"","pricing_plan_id":"cebpf4jnsgd1na2vs0mg"},{"bike_id":"5aae94a6-c440-4789-857e-46a54718fede","system_id":"levelo_inurba_marseille","lat":43.33769,"lon":5.37482,"is_reserved":false,"is_disabled":false,"rental_uris":{"android":"levelo://app?vid=5aae94a6-c440-4789-857e-46a54718fede","ios":"levelo://app?vid=5aae94a6-c440-4789-857e-46a54718fede"},"vehicle_type_id":"4","last_reported":1720984051,"current_range_meters":31200,"station_id":"","pricing_plan_id":"cebpf4jnsgd1na2vs0mg"},{"bike_id":"cf958edf-a973-4ef8-838e-9cc8f1679483","system_id":"levelo_inurba_marseille","lat":43.33771,"lon":5.37478,"is_reserved":false,"is_disabled":false,"rental_uris":{"android":"levelo://app?vid=cf958edf-a973-4ef8-838e-9cc8f1679483","ios":"levelo://app?vid=cf958edf-a973-4ef8-838e-9cc8f1679483"},"vehicle_type_id":"4","last_reported":1720984051,"current_range_meters":12800,"station_id":"","pricing_plan_id":"cebpf4jnsgd1na2vs0mg"},{"bike_id":"9e13c9a5-7387-424a-b4fb-1dc4dce029b5","system_id":"levelo_inurba_marseille","lat":43.33772,"lon":5.37473,"is_reserved":false,"is_disabled":false,"rental_uris":{"android":"levelo://app?vid=9e13c9a5-7387-424a-b4fb-1dc4dce029b5","ios":"levelo://app?vid=9e13c9a5-7387-424a-b4fb-1dc4dce029b5"},"vehicle_type_id":"4","last_reported":1720984051,"current_range_meters":24400,"station_id":"","pricing_plan_id":"cebpf4jnsgd1na2vs0mg"},{"bike_id":"38b57823-eda1-4e58-a521-74a065ade509","system_id":"levelo_inurba_marseille","lat":43.33773,"lon":5.37469,"is_reserved":false,"is_disabled":false,"rental_uris":{"android":"levelo://app?vid=38b57823-eda1-4e58-a521-74a065ade509","ios":"levelo://app?vid=38b57823-eda1-4e58-a521-74a065ade509"},"vehicle_type_id":"4","last_reported":1720984051,"current_range_meters":23600,"station_id":"","pricing_plan_id":"cebpf4jnsgd1na2vs0mg"},{"bike_id":"0dd06392-f63f-44b8-af4f-590dfd121b02","system_id":"levelo_inurba_marseille","lat":43.33774,"lon":5.37463,"is_reserved":false,"is_disabled":false,"rental_uris":{"android":"levelo://app?vid=0dd06392-f63f-44b8-af4f-590dfd121b02","ios":"levelo://app?vid=0dd06392-f63f-44b8-af4f-590dfd121b02"},"vehicle_type_id":"4","last_reported":1720984051,"current_range_meters":4800,"station_id":"","pricing_plan_id":"cebpf4jnsgd1na2vs0mg"},{"bike_id":"7fe8718f-2ce5-43ca-bf2f-4cadfbd7a814","system_id":"levelo_inurba_marseille","lat":43.33774,"lon":5.37464,"is_reserved":false,"is_disabled":false,"rental_uris":{"android":"levelo://app?vid=7fe8718f-2ce5-43ca-bf2f-4cadfbd7a814","ios":"levelo://app?vid=7fe8718f-2ce5-43ca-bf2f-4cadfbd7a814"},"vehicle_type_id":"4","last_reported":1720984051,"current_range_meters":15200,"station_id":"","pricing_plan_id":"cebpf4jnsgd1na2vs0mg"},{"bike_id":"39abbf07-2729-49b9-a62e-e135ca141c9b","system_id":"levelo_inurba_marseille","lat":43.33773,"lon":5.37471,"is_reserved":false,"is_disabled":false,"rental_uris":{"android":"levelo://app?vid=39abbf07-2729-49b9-a62e-e135ca141c9b","ios":"levelo://app?vid=39abbf07-2729-49b9-a62e-e135ca141c9b"},"vehicle_type_id":"4","last_reported":1720984051,"current_range_meters":19600,"station_id":"","pricing_plan_id":"cebpf4jnsgd1na2vs0mg"},{"bike_id":"80ff1c69-9419-4f4b-9d57-bf214620b8b3","system_id":"levelo_inurba_marseille","lat":43.33773,"lon":5.374716,"is_reserved":false,"is_disabled":false,"rental_uris":{"android":"levelo://app?vid=80ff1c69-9419-4f4b-9d57-bf214620b8b3","ios":"levelo://app?vid=80ff1c69-9419-4f4b-9d57-bf214620b8b3"},"vehicle_type_id":"4","last_reported":1720984051,"current_range_meters":4400,"station_id":"","pricing_plan_id":"cebpf4jnsgd1na2vs0mg"},{"bike_id":"8f381f06-2b48-4b7f-9444-eca237a2fc44","system_id":"levelo_inurba_marseille","lat":43.291994,"lon":5.357886,"is_reserved":false,"is_disabled":false,"rental_uris":{"android":"levelo://app?vid=8f381f06-2b48-4b7f-9444-eca237a2fc44","ios":"levelo://app?vid=8f381f06-2b48-4b7f-9444-eca237a2fc44"},"vehicle_type_id":"4","last_reported":1720984051,"current_range_meters":24400,"station_id":"ce4bhb12rcd13ifvqel0","pricing_plan_id":"cebpf4jnsgd1na2vs0mg"},{"bike_id":"d77e79b4-bbcc-4fb4-abd6-01e5d49b13f4","system_id":"levelo_inurba_marseille","lat":43.33772,"lon":5.37479,"is_reserved":false,"is_disabled":false,"rental_uris":{"android":"levelo://app?vid=d77e79b4-bbcc-4fb4-abd6-01e5d49b13f4","ios":"levelo://app?vid=d77e79b4-bbcc-4fb4-abd6-01e5d49b13f4"},"vehicle_type_id":"4","last_reported":1720984051,"current_range_meters":14400,"station_id":"","pricing_plan_id":"cebpf4jnsgd1na2vs0mg"},{"bike_id":"a4701b34-a47a-4547-9be9-b5a6ebb6ef0f","system_id":"levelo_inurba_marseille","lat":43.33773,"lon":5.37477,"is_reserved":false,"is_disabled":false,"rental_uris":{"android":"levelo://app?vid=a4701b34-a47a-4547-9be9-b5a6ebb6ef0f","ios":"levelo://app?vid=a4701b34-a47a-4547-9be9-b5a6ebb6ef0f"},"vehicle_type_id":"4","last_reported":1720984051,"current_range_meters":17600,"station_id":"","pricing_plan_id":"cebpf4jnsgd1na2vs0mg"},{"bike_id":"0496dc13-34e3-45c2-af9a-f6e2516b223a","system_id":"levelo_inurba_marseille","lat":43.33773,"lon":5.37479,"is_reserved":false,"is_disabled":false,"rental_uris":{"android":"levelo://app?vid=0496dc13-34e3-45c2-af9a-f6e2516b223a","ios":"levelo://app?vid=0496dc13-34e3-45c2-af9a-f6e2516b223a"},"vehicle_type_id":"4","last_reported":1720984051,"current_range_meters":29600,"station_id":"","pricing_plan_id":"cebpf4jnsgd1na2vs0mg"},{"bike_id":"2c101ebf-47bb-4075-9995-419fb34d5f57","system_id":"levelo_inurba_marseille","lat":43.33774,"lon":5.37473,"is_reserved":false,"is_disabled":false,"rental_uris":{"android":"levelo://app?vid=2c101ebf-47bb-4075-9995-419fb34d5f57","ios":"levelo://app?vid=2c101ebf-47bb-4075-9995-419fb34d5f57"},"vehicle_type_id":"4","last_reported":1720984051,"current_range_meters":28800,"station_id":"","pricing_plan_id":"cebpf4jnsgd1na2vs0mg"},{"bike_id":"c761b19e-877d-432b-bfa8-ed72a86a6759","system_id":"levelo_inurba_marseille","lat":43.33775,"lon":5.37467,"is_reserved":false,"is_disabled":false,"rental_uris":{"android":"levelo://app?vid=c761b19e-877d-432b-bfa8-ed72a86a6759","ios":"levelo://app?vid=c761b19e-877d-432b-bfa8-ed72a86a6759"},"vehicle_type_id":"4","last_reported":1720984051,"current_range_meters":0,"station_id":"","pricing_plan_id":"cebpf4jnsgd1na2vs0mg"},{"bike_id":"573b9d78-4adb-4e9e-b480-d279544660f2","system_id":"levelo_inurba_marseille","lat":43.33774,"lon":5.37474,"is_reserved":false,"is_disabled":false,"rental_uris":{"android":"levelo://app?vid=573b9d78-4adb-4e9e-b480-d279544660f2","ios":"levelo://app?vid=573b9d78-4adb-4e9e-b480-d279544660f2"},"vehicle_type_id":"4","last_reported":1720984051,"current_range_meters":7600,"station_id":"","pricing_plan_id":"cebpf4jnsgd1na2vs0mg"},{"bike_id":"0c80325e-daf1-446d-8059-bffa294c7e3e","system_id":"levelo_inurba_marseille","lat":43.33776,"lon":5.37462,"is_reserved":false,"is_disabled":false,"rental_uris":{"android":"levelo://app?vid=0c80325e-daf1-446d-8059-bffa294c7e3e","ios":"levelo://app?vid=0c80325e-daf1-446d-8059-bffa294c7e3e"},"vehicle_type_id":"4","last_reported":1720984051,"current_range_meters":20000,"station_id":"","pricing_plan_id":"cebpf4jnsgd1na2vs0mg"},{"bike_id":"45416cd9-028f-41b0-ac5a-269637c45e42","system_id":"levelo_inurba_marseille","lat":43.33774,"lon":5.37475,"is_reserved":false,"is_disabled":false,"rental_uris":{"android":"levelo://app?vid=45416cd9-028f-41b0-ac5a-269637c45e42","ios":"levelo://app?vid=45416cd9-028f-41b0-ac5a-269637c45e42"},"vehicle_type_id":"4","last_reported":1720984051,"current_range_meters":11600,"station_id":"","pricing_plan_id":"cebpf4jnsgd1na2vs0mg"},{"bike_id":"e951615b-5573-4435-a7b6-8167ff6ade63","system_id":"levelo_inurba_marseille","lat":43.33774,"lon":5.37477,"is_reserved":false,"is_disabled":false,"rental_uris":{"android":"levelo://app?vid=e951615b-5573-4435-a7b6-8167ff6ade63","ios":"levelo://app?vid=e951615b-5573-4435-a7b6-8167ff6ade63"},"vehicle_type_id":"4","last_reported":1720984051,"current_range_meters":13200,"station_id":"","pricing_plan_id":"cebpf4jnsgd1na2vs0mg"},{"bike_id":"215d24e0-7b63-49a8-aed8-8b8c5a53b355","system_id":"levelo_inurba_marseille","lat":43.33774,"lon":5.37478,"is_reserved":false,"is_disabled":false,"rental_uris":{"android":"levelo://app?vid=215d24e0-7b63-49a8-aed8-8b8c5a53b355","ios":"levelo://app?vid=215d24e0-7b63-49a8-aed8-8b8c5a53b355"},"vehicle_type_id":"4","last_reported":1720984051,"current_range_meters":15200,"station_id":"","pricing_plan_id":"cebpf4jnsgd1na2vs0mg"},{"bike_id":"2fa411ed-3fa9-4268-b414-c8e45152bf4d","system_id":"levelo_inurba_marseille","lat":43.33775,"lon":5.37473,"is_reserved":false,"is_disabled":false,"rental_uris":{"android":"levelo://app?vid=2fa411ed-3fa9-4268-b414-c8e45152bf4d","ios":"levelo://app?vid=2fa411ed-3fa9-4268-b414-c8e45152bf4d"},"vehicle_type_id":"4","last_reported":1720984051,"current_range_meters":13200,"station_id":"","pricing_plan_id":"cebpf4jnsgd1na2vs0mg"},{"bike_id":"a5b64c84-5508-41ed-bc97-8b733f293107","system_id":"levelo_inurba_marseille","lat":43.33776,"lon":5.37471,"is_reserved":false,"is_disabled":false,"rental_uris":{"android":"levelo://app?vid=a5b64c84-5508-41ed-bc97-8b733f293107","ios":"levelo://app?vid=a5b64c84-5508-41ed-bc97-8b733f293107"},"vehicle_type_id":"4","last_reported":1720984051,"current_range_meters":23600,"station_id":"","pricing_plan_id":"cebpf4jnsgd1na2vs0mg"},{"bike_id":"a005e922-b721-4196-b009-e1125dd6e3b2","system_id":"levelo_inurba_marseille","lat":43.33773,"lon":5.3749,"is_reserved":false,"is_disabled":false,"rental_uris":{"android":"levelo://app?vid=a005e922-b721-4196-b009-e1125dd6e3b2","ios":"levelo://app?vid=a005e922-b721-4196-b009-e1125dd6e3b2"},"vehicle_type_id":"4","last_reported":1720984051,"current_range_meters":31200,"station_id":"","pricing_plan_id":"cebpf4jnsgd1na2vs0mg"},{"bike_id":"60014351-6980-43c2-9516-117e9bc87905","system_id":"levelo_inurba_marseille","lat":43.33777,"lon":5.37474,"is_reserved":false,"is_disabled":false,"rental_uris":{"android":"levelo://app?vid=60014351-6980-43c2-9516-117e9bc87905","ios":"levelo://app?vid=60014351-6980-43c2-9516-117e9bc87905"},"vehicle_type_id":"4","last_reported":1720984051,"current_range_meters":14800,"station_id":"","pricing_plan_id":"cebpf4jnsgd1na2vs0mg"},{"bike_id":"e880369d-9e45-4e17-b710-89d03f821f41","system_id":"levelo_inurba_marseille","lat":43.33777,"lon":5.37478,"is_reserved":false,"is_disabled":false,"rental_uris":{"android":"levelo://app?vid=e880369d-9e45-4e17-b710-89d03f821f41","ios":"levelo://app?vid=e880369d-9e45-4e17-b710-89d03f821f41"},"vehicle_type_id":"4","last_reported":1720984051,"current_range_meters":4800,"station_id":"","pricing_plan_id":"cebpf4jnsgd1na2vs0mg"},{"bike_id":"0d58fd1b-f1d1-4fc6-a4e4-51a623e9a871","system_id":"levelo_inurba_marseille","lat":43.33778,"lon":5.37483,"is_reserved":false,"is_disabled":false,"rental_uris":{"android":"levelo://app?vid=0d58fd1b-f1d1-4fc6-a4e4-51a623e9a871","ios":"levelo://app?vid=0d58fd1b-f1d1-4fc6-a4e4-51a623e9a871"},"vehicle_type_id":"4","last_reported":1720984051,"current_range_meters":30400,"station_id":"","pricing_plan_id":"cebpf4jnsgd1na2vs0mg"},{"bike_id":"8082aed2-f77a-4f37-a593-618b73be8ae0","system_id":"levelo_inurba_marseille","lat":43.301117,"lon":5.398795,"is_reserved":false,"is_disabled":false,"rental_uris":{"android":"levelo://app?vid=8082aed2-f77a-4f37-a593-618b73be8ae0","ios":"levelo://app?vid=8082aed2-f77a-4f37-a593-618b73be8ae0"},"vehicle_type_id":"4","last_reported":1720984051,"current_range_meters":0,"station_id":"ce4bh0h2rcd13ifvqd40","pricing_plan_id":"cebpf4jnsgd1na2vs0mg"},{"bike_id":"df686bf9-6aa3-47b8-a570-0efcc53b2c2e","system_id":"levelo_inurba_marseille","lat":43.301117,"lon":5.398795,"is_reserved":false,"is_disabled":false,"rental_uris":{"android":"levelo://app?vid=df686bf9-6aa3-47b8-a570-0efcc53b2c2e","ios":"levelo://app?vid=df686bf9-6aa3-47b8-a570-0efcc53b2c2e"},"vehicle_type_id":"4","last_reported":1720984051,"current_range_meters":18400,"station_id":"ce4bh0h2rcd13ifvqd40","pricing_plan_id":"cebpf4jnsgd1na2vs0mg"},{"bike_id":"ef8f37d1-d2a4-4210-9fac-17a87f0f4dbd","system_id":"levelo_inurba_marseille","lat":43.286591,"lon":5.363346,"is_reserved":false,"is_disabled":false,"rental_uris":{"android":"levelo://app?vid=ef8f37d1-d2a4-4210-9fac-17a87f0f4dbd","ios":"levelo://app?vid=ef8f37d1-d2a4-4210-9fac-17a87f0f4dbd"},"vehicle_type_id":"4","last_reported":1720984051,"current_range_meters":8000,"station_id":"ce4bhah2rcd13ifvqej0","pricing_plan_id":"cebpf4jnsgd1na2vs0mg"},{"bike_id":"cde31264-f61d-4f6b-a93b-4bb7276a7dec","system_id":"levelo_inurba_marseille","lat":43.286591,"lon":5.363346,"is_reserved":false,"is_disabled":false,"rental_uris":{"android":"levelo://app?vid=cde31264-f61d-4f6b-a93b-4bb7276a7dec","ios":"levelo://app?vid=cde31264-f61d-4f6b-a93b-4bb7276a7dec"},"vehicle_type_id":"4","last_reported":1720984051,"current_range_meters":0,"station_id":"ce4bhah2rcd13ifvqej0","pricing_plan_id":"cebpf4jnsgd1na2vs0mg"},{"bike_id":"9e4341af-3ed5-468a-aa08-4efbefa62b60","system_id":"levelo_inurba_marseille","lat":43.286961,"lon":5.373785,"is_reserved":false,"is_disabled":false,"rental_uris":{"android":"levelo://app?vid=9e4341af-3ed5-468a-aa08-4efbefa62b60","ios":"levelo://app?vid=9e4341af-3ed5-468a-aa08-4efbefa62b60"},"vehicle_type_id":"4","last_reported":1720984051,"current_range_meters":8400,"station_id":"ce4bh3p2rcd13ifvqdq0","pricing_plan_id":"cebpf4jnsgd1na2vs0mg"},{"bike_id":"3fd5233c-0d5f-4b0a-8db1-7619c63ae318","system_id":"levelo_inurba_marseille","lat":43.286961,"lon":5.373785,"is_reserved":false,"is_disabled":false,"rental_uris":{"android":"levelo://app?vid=3fd5233c-0d5f-4b0a-8db1-7619c63ae318","ios":"levelo://app?vid=3fd5233c-0d5f-4b0a-8db1-7619c63ae318"},"vehicle_type_id":"4","last_reported":1720984051,"current_range_meters":4400,"station_id":"ce4bh3p2rcd13ifvqdq0","pricing_plan_id":"cebpf4jnsgd1na2vs0mg"},{"bike_id":"00b89f3c-3268-4ef6-9ccd-edafcb92d011","system_id":"levelo_inurba_marseille","lat":43.29028,"lon":5.38652,"is_reserved":false,"is_disabled":false,"rental_uris":{"android":"levelo://app?vid=00b89f3c-3268-4ef6-9ccd-edafcb92d011","ios":"levelo://app?vid=00b89f3c-3268-4ef6-9ccd-edafcb92d011"},"vehicle_type_id":"4","last_reported":1720984051,"current_range_meters":0,"station_id":"ce4bh4p2rcd13ifvqe0g","pricing_plan_id":"cebpf4jnsgd1na2vs0mg"},{"bike_id":"62eace80-8b68-4881-b048-afe1b38ec92b","system_id":"levelo_inurba_marseille","lat":43.286039,"lon":5.370679,"is_reserved":false,"is_disabled":false,"rental_uris":{"android":"levelo://app?vid=62eace80-8b68-4881-b048-afe1b38ec92b","ios":"levelo://app?vid=62eace80-8b68-4881-b048-afe1b38ec92b"},"vehicle_type_id":"4","last_reported":1720984051,"current_range_meters":26000,"station_id":"ce4bht12rcd13ifvqi60","pricing_plan_id":"cebpf4jnsgd1na2vs0mg"},{"bike_id":"a9ae35ec-cccb-4590-8f7d-00bc7209ae6e","system_id":"levelo_inurba_marseille","lat":43.286039,"lon":5.370679,"is_reserved":false,"is_disabled":false,"rental_uris":{"android":"levelo://app?vid=a9ae35ec-cccb-4590-8f7d-00bc7209ae6e","ios":"levelo://app?vid=a9ae35ec-cccb-4590-8f7d-00bc7209ae6e"},