{"last_updated":1729465772,"ttl":60,"version":"2.2","data":{"bikes":[{"bike_id":"9184e00a-b6ec-4bae-bf55-7db7d1efed40","system_id":"levelo_inurba_marseille","lat":43.28362,"lon":5.38622,"is_reserved":false,"is_disabled":false,"rental_uris":{"android":"levelo://app?vid=9184e00a-b6ec-4bae-bf55-7db7d1efed40","ios":"levelo://app?vid=9184e00a-b6ec-4bae-bf55-7db7d1efed40"},"vehicle_type_id":"4","last_reported":1729465772,"current_range_meters":17600,"station_id":"ce4bh492rcd13ifvqdvg","pricing_plan_id":"cebpf4jnsgd1na2vs0mg"},{"bike_id":"f06beab3-0b4b-43d5-b156-425fc0f50542","system_id":"levelo_inurba_marseille","lat":43.28472,"lon":5.3854,"is_reserved":false,"is_disabled":false,"rental_uris":{"android":"levelo://app?vid=f06beab3-0b4b-43d5-b156-425fc0f50542","ios":"levelo://app?vid=f06beab3-0b4b-43d5-b156-425fc0f50542"},"vehicle_type_id":"4","last_reported":1729465772,"current_range_meters":9600,"station_id":"ce4bh8p2rcd13ifvqeb0","pricing_plan_id":"cebpf4jnsgd1na2vs0mg"},{"bike_id":"f2cf55f4-aa83-4a41-8c86-05d88bb3727e","system_id":"levelo_inurba_marseille","lat":43.3113,"lon":5.37752,"is_reserved":false,"is_disabled":false,"rental_uris":{"android":"levelo://app?vid=f2cf55f4-aa83-4a41-8c86-05d88bb3727e","ios":"levelo://app?vid=f2cf55f4-aa83-4a41-8c86-05d88bb3727e"},"vehicle_type_id":"4","last_reported":1729465772,"current_range_meters":20800,"station_id":"ce4bgt92rcd13ifvqcg0","pricing_plan_id":"cebpf4jnsgd1na2vs0mg"},{"bike_id":"2aae6609-bf72-4b69-8776-85ccbbd9b0e5","system_id":"levelo_inurba_marseille","lat":43.22927,"lon":5.35375,"is_reserved":false,"is_disabled":false,"rental_uris":{"android":"levelo://app?vid=2aae6609-bf72-4b69-8776-85ccbbd9b0e5","ios":"levelo://app?vid=2aae6609-bf72-4b69-8776-85ccbbd9b0e5"},"vehicle_type_id":"4","last_reported":1729465772,"current_range_meters":38400,"station_id":"cpo3532slgdg3j2ikp40","pricing_plan_id":"cebpf4jnsgd1na2vs0mg"},{"bike_id":"138f2d49-214b-48e8-9db4-98a6dc22aa3c","system_id":"levelo_inurba_marseille","lat":43.28438,"lon":5.39184,"is_reserved":false,"is_disabled":false,"rental_uris":{"android":"levelo://app?vid=138f2d49-214b-48e8-9db4-98a6dc22aa3c","ios":"levelo://app?vid=138f2d49-214b-48e8-9db4-98a6dc22aa3c"},"vehicle_type_id":"4","last_reported":1729465772,"current_range_meters":36400,"station_id":"ce4bhoh2rcd13ifvqh5g","pricing_plan_id":"cebpf4jnsgd1na2vs0mg"},{"bike_id":"685a354f-ff49-4ca8-a6ba-515d8049af7f","system_id":"levelo_inurba_marseille","lat":43.27617,"lon":5.36112,"is_reserved":false,"is_disabled":false,"rental_uris":{"android":"levelo://app?vid=685a354f-ff49-4ca8-a6ba-515d8049af7f","ios":"levelo://app?vid=685a354f-ff49-4ca8-a6ba-515d8049af7f"},"vehicle_type_id":"4","last_reported":1729465772,"current_range_meters":38800,"station_id":"ce4bgj92rcd13ifvqbe0","pricing_plan_id":"cebpf4jnsgd1na2vs0mg"},{"bike_id":"bf3e7c3d-dc96-45cc-a663-f0c11749943d","system_id":"levelo_inurba_marseille","lat":43.27815,"lon":5.40718,"is_reserved":false,"is_disabled":false,"rental_uris":{"android":"levelo://app?vid=bf3e7c3d-dc96-45cc-a663-f0c11749943d","ios":"levelo://app?vid=bf3e7c3d-dc96-45cc-a663-f0c11749943d"},"vehicle_type_id":"4","last_reported":1729465772,"current_range_meters":28400,"station_id":"ce4bhnh2rcd13ifvqgtg","pricing_plan_id":"cebpf4jnsgd1na2vs0mg"},{"bike_id":"c26a172e-a0ff-4214-bbea-24c50739bea4","system_id":"levelo_inurba_marseille","lat":43.31117,"lon":5.37763,"is_reserved":false,"is_disabled":false,"rental_uris":{"android":"levelo://app?vid=c26a172e-a0ff-4214-bbea-24c50739bea4","ios":"levelo://app?vid=c26a172e-a0ff-4214-bbea-24c50739bea4"},"vehicle_type_id":"4","last_reported":1729465772,"current_range_meters":38800,"station_id":"ce4bgt92rcd13ifvqcg0","pricing_plan_id":"cebpf4jnsgd1na2vs0mg"},{"bike_id":"71242765-40be-4964-94e6-bbf974ced6c7","system_id":"levelo_inurba_marseille","lat":43.31125,"lon":5.37754,"is_reserved":false,"is_disabled":false,"rental_uris":{"android":"levelo://app?vid=71242765-40be-4964-94e6-bbf974ced6c7","ios":"levelo://app?vid=71242765-40be-4964-94e6-bbf974ced6c7"},"vehicle_type_id":"4","last_reported":1729465772,"current_range_meters":34800,"station_id":"ce4bgt92rcd13ifvqcg0","pricing_plan_id":"cebpf4jnsgd1na2vs0mg"},{"bike_id":"e87b7e43-d266-42f2-bb17-a0593f82e999","system_id":"levelo_inurba_marseille","lat":43.31993,"lon":5.38143,"is_reserved":false,"is_disabled":false,"rental_uris":{"android":"levelo://app?vid=e87b7e43-d266-42f2-bb17-a0593f82e999","ios":"levelo://app?vid=e87b7e43-d266-42f2-bb17-a0593f82e999"},"vehicle_type_id":"4","last_reported":1729465772,"current_range_meters":15200,"station_id":"ce4bhr12rcd13ifvqhpg","pricing_plan_id":"cebpf4jnsgd1na2vs0mg"},{"bike_id":"c5e3e1df-1a2a-44f0-be91-b1d1b57c457b","system_id":"levelo_inurba_marseille","lat":43.29709,"lon":5.36623,"is_reserved":false,"is_disabled":false,"rental_uris":{"android":"levelo://app?vid=c5e3e1df-1a2a-44f0-be91-b1d1b57c457b","ios":"levelo://app?vid=c5e3e1df-1a2a-44f0-be91-b1d1b57c457b"},"vehicle_type_id":"4","last_reported":1729465772,"current_range_meters":38800,"station_id":"ce4bgn12rcd13ifvqbt0","pricing_plan_id":"cebpf4jnsgd1na2vs0mg"},{"bike_id":"921931b1-5cdf-46b7-9243-9a8cf25a811b","system_id":"levelo_inurba_marseille","lat":43.31762,"lon":5.39014,"is_reserved":false,"is_disabled":false,"rental_uris":{"android":"levelo://app?vid=921931b1-5cdf-46b7-9243-9a8cf25a811b","ios":"levelo://app?vid=921931b1-5cdf-46b7-9243-9a8cf25a811b"},"vehicle_type_id":"4","last_reported":1729465772,"current_range_meters":28800,"station_id":"ce4bhqp2rcd13ifvqhng","pricing_plan_id":"cebpf4jnsgd1na2vs0mg"},{"bike_id":"74e7a4b8-3241-4c34-8231-a12a363211af","system_id":"levelo_inurba_marseille","lat":43.29373,"lon":5.37855,"is_reserved":false,"is_disabled":false,"rental_uris":{"android":"levelo://app?vid=74e7a4b8-3241-4c34-8231-a12a363211af","ios":"levelo://app?vid=74e7a4b8-3241-4c34-8231-a12a363211af"},"vehicle_type_id":"4","last_reported":1729465772,"current_range_meters":8800,"station_id":"ce4bgjh2rcd13ifvqbf0","pricing_plan_id":"cebpf4jnsgd1na2vs0mg"},{"bike_id":"7a6ba3d7-846e-45d3-92b4-25ce5cda8a53","system_id":"levelo_inurba_marseille","lat":43.33719,"lon":5.39181,"is_reserved":false,"is_disabled":false,"rental_uris":{"android":"levelo://app?vid=7a6ba3d7-846e-45d3-92b4-25ce5cda8a53","ios":"levelo://app?vid=7a6ba3d7-846e-45d3-92b4-25ce5cda8a53"},"vehicle_type_id":"4","last_reported":1729465772,"current_range_meters":38800,"station_id":"ce4bhr92rcd13ifvqhsg","pricing_plan_id":"cebpf4jnsgd1na2vs0mg"},{"bike_id":"29dc69ab-e0fe-4b96-9cff-bca8448603d4","system_id":"levelo_inurba_marseille","lat":43.31757,"lon":5.39017,"is_reserved":false,"is_disabled":false,"rental_uris":{"android":"levelo://app?vid=29dc69ab-e0fe-4b96-9cff-bca8448603d4","ios":"levelo://app?vid=29dc69ab-e0fe-4b96-9cff-bca8448603d4"},"vehicle_type_id":"4","last_reported":1729465772,"current_range_meters":26000,"station_id":"ce4bhqp2rcd13ifvqhng","pricing_plan_id":"cebpf4jnsgd1na2vs0mg"},{"bike_id":"e8bfb2e9-6e95-4178-92fa-4adfe6334c3f","system_id":"levelo_inurba_marseille","lat":43.28075,"lon":5.39662,"is_reserved":false,"is_disabled":false,"rental_uris":{"android":"levelo://app?vid=e8bfb2e9-6e95-4178-92fa-4adfe6334c3f","ios":"levelo://app?vid=e8bfb2e9-6e95-4178-92fa-4adfe6334c3f"},"vehicle_type_id":"4","last_reported":1729465772,"current_range_meters":14000,"station_id":"ce4bho12rcd13ifvqh2g","pricing_plan_id":"cebpf4jnsgd1na2vs0mg"},{"bike_id":"b5b1494f-9fa3-417e-bc80-0d223074cefd","system_id":"levelo_inurba_marseille","lat":43.32369,"lon":5.38886,"is_reserved":false,"is_disabled":false,"rental_uris":{"android":"levelo://app?vid=b5b1494f-9fa3-417e-bc80-0d223074cefd","ios":"levelo://app?vid=b5b1494f-9fa3-417e-bc80-0d223074cefd"},"vehicle_type_id":"4","last_reported":1729465772,"current_range_meters":30800,"station_id":"ce4bhqp2rcd13ifvqhog","pricing_plan_id":"cebpf4jnsgd1na2vs0mg"},{"bike_id":"107b7fa0-2250-4d9c-b76c-3a6cd5a97d78","system_id":"levelo_inurba_marseille","lat":43.25119,"lon":5.40331,"is_reserved":false,"is_disabled":false,"rental_uris":{"android":"levelo://app?vid=107b7fa0-2250-4d9c-b76c-3a6cd5a97d78","ios":"levelo://app?vid=107b7fa0-2250-4d9c-b76c-3a6cd5a97d78"},"vehicle_type_id":"4","last_reported":1729465772,"current_range_meters":17200,"station_id":"ce4bhlh2rcd13ifvqgig","pricing_plan_id":"cebpf4jnsgd1na2vs0mg"},{"bike_id":"fd071cc9-1d84-4938-8b91-f5b6aa64ee25","system_id":"levelo_inurba_marseille","lat":43.29278,"lon":5.3685,"is_reserved":false,"is_disabled":false,"rental_uris":{"android":"levelo://app?vid=fd071cc9-1d84-4938-8b91-f5b6aa64ee25","ios":"levelo://app?vid=fd071cc9-1d84-4938-8b91-f5b6aa64ee25"},"vehicle_type_id":"4","last_reported":1729465772,"current_range_meters":32800,"station_id":"ce4bhbp2rcd13ifvqesg","pricing_plan_id":"cebpf4jnsgd1na2vs0mg"},{"bike_id":"16dac4f2-8478-493a-9a10-7049598541d2","system_id":"levelo_inurba_marseille","lat":43.28406,"lon":5.37525,"is_reserved":false,"is_disabled":false,"rental_uris":{"android":"levelo://app?vid=16dac4f2-8478-493a-9a10-7049598541d2","ios":"levelo://app?vid=16dac4f2-8478-493a-9a10-7049598541d2"},"vehicle_type_id":"4","last_reported":1729465772,"current_range_meters":38800,"station_id":"ce4bh412rcd13ifvqds0","pricing_plan_id":"cebpf4jnsgd1na2vs0mg"},{"bike_id":"930058b5-a542-44e1-9a8f-6ff096965cd6","system_id":"levelo_inurba_marseille","lat":43.28413,"lon":5.34986,"is_reserved":false,"is_disabled":false,"rental_uris":{"android":"levelo://app?vid=930058b5-a542-44e1-9a8f-6ff096965cd6","ios":"levelo://app?vid=930058b5-a542-44e1-9a8f-6ff096965cd6"},"vehicle_type_id":"4","last_reported":1729465772,"current_range_meters":26800,"station_id":"ce4bhbh2rcd13ifvqepg","pricing_plan_id":"cebpf4jnsgd1na2vs0mg"},{"bike_id":"007b32f2-d55b-454a-941e-fca8801044b6","system_id":"levelo_inurba_marseille","lat":43.26197,"lon":5.37935,"is_reserved":false,"is_disabled":false,"rental_uris":{"android":"levelo://app?vid=007b32f2-d55b-454a-941e-fca8801044b6","ios":"levelo://app?vid=007b32f2-d55b-454a-941e-fca8801044b6"},"vehicle_type_id":"4","last_reported":1729465772,"current_range_meters":25600,"station_id":"ce4bhjp2rcd13ifvqg90","pricing_plan_id":"cebpf4jnsgd1na2vs0mg"},{"bike_id":"4385264a-fc92-4c3e-958e-a25b26129730","system_id":"levelo_inurba_marseille","lat":43.28729,"lon":5.39962,"is_reserved":false,"is_disabled":false,"rental_uris":{"android":"levelo://app?vid=4385264a-fc92-4c3e-958e-a25b26129730","ios":"levelo://app?vid=4385264a-fc92-4c3e-958e-a25b26129730"},"vehicle_type_id":"4","last_reported":1729465772,"current_range_meters":11600,"station_id":"ce4bho92rcd13ifvqh3g","pricing_plan_id":"cebpf4jnsgd1na2vs0mg"},{"bike_id":"0110ffb5-a63d-45d5-b867-2e5bae3721ec","system_id":"levelo_inurba_marseille","lat":43.3266,"lon":5.40987,"is_reserved":false,"is_disabled":false,"rental_uris":{"android":"levelo://app?vid=0110ffb5-a63d-45d5-b867-2e5bae3721ec","ios":"levelo://app?vid=0110ffb5-a63d-45d5-b867-2e5bae3721ec"},"vehicle_type_id":"4","last_reported":1729465772,"current_range_meters":13600,"station_id":"ce4bhpp2rcd13ifvqhgg","pricing_plan_id":"cebpf4jnsgd1na2vs0mg"},{"bike_id":"f4301c02-1b81-46e9-992f-1f3f8d6be553","system_id":"levelo_inurba_marseille","lat":43.30321,"lon":5.40439,"is_reserved":false,"is_disabled":false,"rental_uris":{"android":"levelo://app?vid=f4301c02-1b81-46e9-992f-1f3f8d6be553","ios":"levelo://app?vid=f4301c02-1b81-46e9-992f-1f3f8d6be553"},"vehicle_type_id":"4","last_reported":1729465772,"current_range_meters":14800,"station_id":"ce4bh012rcd13ifvqd10","pricing_plan_id":"cebpf4jnsgd1na2vs0mg"},{"bike_id":"cffc72a1-9762-4ffa-83d6-8b9856072bf4","system_id":"levelo_inurba_marseille","lat":43.31717,"lon":5.42404,"is_reserved":false,"is_disabled":false,"rental_uris":{"android":"levelo://app?vid=cffc72a1-9762-4ffa-83d6-8b9856072bf4","ios":"levelo://app?vid=cffc72a1-9762-4ffa-83d6-8b9856072bf4"},"vehicle_type_id":"4","last_reported":1729465772,"current_range_meters":38800,"station_id":"ce4bhp92rcd13ifvqhbg","pricing_plan_id":"cebpf4jnsgd1na2vs0mg"},{"bike_id":"bda848a9-9c0f-4e86-b399-a0580de506e0","system_id":"levelo_inurba_marseille","lat":43.27616,"lon":5.36111,"is_reserved":false,"is_disabled":false,"rental_uris":{"android":"levelo://app?vid=bda848a9-9c0f-4e86-b399-a0580de506e0","ios":"levelo://app?vid=bda848a9-9c0f-4e86-b399-a0580de506e0"},"vehicle_type_id":"4","last_reported":1729465772,"current_range_meters":38800,"station_id":"ce4bgj92rcd13ifvqbe0","pricing_plan_id":"cebpf4jnsgd1na2vs0mg"},{"bike_id":"37a4f9f2-5f27-41f6-8e49-92d6bbb82296","system_id":"levelo_inurba_marseille","lat":43.23193,"lon":5.35556,"is_reserved":false,"is_disabled":false,"rental_uris":{"android":"levelo://app?vid=37a4f9f2-5f27-41f6-8e49-92d6bbb82296","ios":"levelo://app?vid=37a4f9f2-5f27-41f6-8e49-92d6bbb82296"},"vehicle_type_id":"4","last_reported":1729465772,"current_range_meters":37600,"station_id":"ce4bhu92rcd13ifvqi70","pricing_plan_id":"cebpf4jnsgd1na2vs0mg"},{"bike_id":"e1967d5c-6489-4288-b6b9-65fd91de494e","system_id":"levelo_inurba_marseille","lat":43.31171,"lon":5.38713,"is_reserved":false,"is_disabled":false,"rental_uris":{"android":"levelo://app?vid=e1967d5c-6489-4288-b6b9-65fd91de494e","ios":"levelo://app?vid=e1967d5c-6489-4288-b6b9-65fd91de494e"},"vehicle_type_id":"4","last_reported":1729465772,"current_range_meters":40000,"station_id":"ce4bgv12rcd13ifvqcp0","pricing_plan_id":"cebpf4jnsgd1na2vs0mg"},{"bike_id":"5cd96af5-3e17-42ae-9025-24dfef705577","system_id":"levelo_inurba_marseille","lat":43.29194,"lon":5.39313,"is_reserved":false,"is_disabled":false,"rental_uris":{"android":"levelo://app?vid=5cd96af5-3e17-42ae-9025-24dfef705577","ios":"levelo://app?vid=5cd96af5-3e17-42ae-9025-24dfef705577"},"vehicle_type_id":"4","last_reported":1729465772,"current_range_meters":5600,"station_id":"ce4bh192rcd13ifvqdd0","pricing_plan_id":"cebpf4jnsgd1na2vs0mg"},{"bike_id":"dc37fd46-5084-46a0-9174-3c99fcea243a","system_id":"levelo_inurba_marseille","lat":43.27562,"lon":5.38443,"is_reserved":false,"is_disabled":false,"rental_uris":{"android":"levelo://app?vid=dc37fd46-5084-46a0-9174-3c99fcea243a","ios":"levelo://app?vid=dc37fd46-5084-46a0-9174-3c99fcea243a"},"vehicle_type_id":"4","last_reported":1729465772,"current_range_meters":6800,"station_id":"ce4bhh92rcd13ifvqfi0","pricing_plan_id":"cebpf4jnsgd1na2vs0mg"},{"bike_id":"2a7d19b4-0a2b-429f-b4de-c6b211592f48","system_id":"levelo_inurba_marseille","lat":43.31327,"lon":5.39688,"is_reserved":false,"is_disabled":false,"rental_uris":{"android":"levelo://app?vid=2a7d19b4-0a2b-429f-b4de-c6b211592f48","ios":"levelo://app?vid=2a7d19b4-0a2b-429f-b4de-c6b211592f48"},"vehicle_type_id":"4","last_reported":1729465772,"current_range_meters":36800,"station_id":"ce4bgvp2rcd13ifvqcu0","pricing_plan_id":"cebpf4jnsgd1na2vs0mg"},{"bike_id":"d88b592d-617e-4450-91ec-a75841b30cfa","system_id":"levelo_inurba_marseille","lat":43.29083,"lon":5.37179,"is_reserved":false,"is_disabled":false,"rental_uris":{"android":"levelo://app?vid=d88b592d-617e-4450-91ec-a75841b30cfa","ios":"levelo://app?vid=d88b592d-617e-4450-91ec-a75841b30cfa"},"vehicle_type_id":"4","last_reported":1729465772,"current_range_meters":31200,"station_id":"ce4bh5p2rcd13ifvqe4g","pricing_plan_id":"cebpf4jnsgd1na2vs0mg"},{"bike_id":"efd5dc80-a5e8-4b0c-9022-e046d98c4248","system_id":"levelo_inurba_marseille","lat":43.31329,"lon":5.39693,"is_reserved":false,"is_disabled":false,"rental_uris":{"android":"levelo://app?vid=efd5dc80-a5e8-4b0c-9022-e046d98c4248","ios":"levelo://app?vid=efd5dc80-a5e8-4b0c-9022-e046d98c4248"},"vehicle_type_id":"4","last_reported":1729465772,"current_range_meters":35200,"station_id":"ce4bgvp2rcd13ifvqcu0","pricing_plan_id":"cebpf4jnsgd1na2vs0mg"},{"bike_id":"befb068b-7b18-4dbe-9d54-7889699e7dea","system_id":"levelo_inurba_marseille","lat":43.22924,"lon":5.35379,"is_reserved":false,"is_disabled":false,"rental_uris":{"android":"levelo://app?vid=befb068b-7b18-4dbe-9d54-7889699e7dea","ios":"levelo://app?vid=befb068b-7b18-4dbe-9d54-7889699e7dea"},"vehicle_type_id":"4","last_reported":1729465772,"current_range_meters":38800,"station_id":"cpo3532slgdg3j2ikp40","pricing_plan_id":"cebpf4jnsgd1na2vs0mg"},{"bike_id":"5b47cbfd-3740-4a35-b9bd-478cf093a87d","system_id":"levelo_inurba_marseille","lat":43.23963,"lon":5.36619,"is_reserved":false,"is_disabled":false,"rental_uris":{"android":"levelo://app?vid=5b47cbfd-3740-4a35-b9bd-478cf093a87d","ios":"levelo://app?vid=5b47cbfd-3740-4a35-b9bd-478cf093a87d"},"vehicle_type_id":"4","last_reported":1729465772,"current_range_meters":25600,"station_id":"ce4bhi12rcd13ifvqfp0","pricing_plan_id":"cebpf4jnsgd1na2vs0mg"},{"bike_id":"9cdd8dd9-b29f-454d-ae53-de682a959e62","system_id":"levelo_inurba_marseille","lat":43.32367,"lon":5.38887,"is_reserved":false,"is_disabled":false,"rental_uris":{"android":"levelo://app?vid=9cdd8dd9-b29f-454d-ae53-de682a959e62","ios":"levelo://app?vid=9cdd8dd9-b29f-454d-ae53-de682a959e62"},"vehicle_type_id":"4","last_reported":1729465772,"current_range_meters":38800,"station_id":"ce4bhqp2rcd13ifvqhog","pricing_plan_id":"cebpf4jnsgd1na2vs0mg"},{"bike_id":"6a239e90-1da0-443e-a751-9621878cc664","system_id":"levelo_inurba_marseille","lat":43.28423,"lon":5.34991,"is_reserved":false,"is_disabled":false,"rental_uris":{"android":"levelo://app?vid=6a239e90-1da0-443e-a751-9621878cc664","ios":"levelo://app?vid=6a239e90-1da0-443e-a751-9621878cc664"},"vehicle_type_id":"4","last_reported":1729465772,"current_range_meters":38800,"station_id":"ce4bhbh2rcd13ifvqepg","pricing_plan_id":"cebpf4jnsgd1na2vs0mg"},{"bike_id":"4eeaf0c9-1610-4ecb-acbf-9d8b7b9f4f98","system_id":"levelo_inurba_marseille","lat":43.3079,"lon":5.38195,"is_reserved":false,"is_disabled":false,"rental_uris":{"android":"levelo://app?vid=4eeaf0c9-1610-4ecb-acbf-9d8b7b9f4f98","ios":"levelo://app?vid=4eeaf0c9-1610-4ecb-acbf-9d8b7b9f4f98"},"vehicle_type_id":"4","last_reported":1729465772,"current_range_meters":6800,"station_id":"ce4bgt12rcd13ifvqce0","pricing_plan_id":"cebpf4jnsgd1na2vs0mg"},{"bike_id":"58342ce2-48b6-4554-b620-09ec4681a912","system_id":"levelo_inurba_marseille","lat":43.23962,"lon":5.36623,"is_reserved":false,"is_disabled":false,"rental_uris":{"android":"levelo://app?vid=58342ce2-48b6-4554-b620-09ec4681a912","ios":"levelo://app?vid=58342ce2-48b6-4554-b620-09ec4681a912"},"vehicle_type_id":"4","last_reported":1729465772,"current_range_meters":38000,"station_id":"ce4bhi12rcd13ifvqfp0","pricing_plan_id":"cebpf4jnsgd1na2vs0mg"},{"bike_id":"c50c7747-89f3-4458-8c6a-38a3fd3a8162","system_id":"levelo_inurba_marseille","lat":43.30257,"lon":5.40067,"is_reserved":false,"is_disabled":false,"rental_uris":{"android":"levelo://app?vid=c50c7747-89f3-4458-8c6a-38a3fd3a8162","ios":"levelo://app?vid=c50c7747-89f3-4458-8c6a-38a3fd3a8162"},"vehicle_type_id":"4","last_reported":1729465772,"current_range_meters":20400,"station_id":"ce4bgvh2rcd13ifvqcs0","pricing_plan_id":"cebpf4jnsgd1na2vs0mg"},{"bike_id":"ab25e50e-031e-49b2-92c3-bc31c1e4e638","system_id":"levelo_inurba_marseille","lat":43.2797,"lon":5.4168,"is_reserved":false,"is_disabled":false,"rental_uris":{"android":"levelo://app?vid=ab25e50e-031e-49b2-92c3-bc31c1e4e638","ios":"levelo://app?vid=ab25e50e-031e-49b2-92c3-bc31c1e4e638"},"vehicle_type_id":"4","last_reported":1729465772,"current_range_meters":6000,"station_id":"ce4bho12rcd13ifvqh1g","pricing_plan_id":"cebpf4jnsgd1na2vs0mg"},{"bike_id":"ed56807b-c98e-4c13-b324-7b6dc4b81ac2","system_id":"levelo_inurba_marseille","lat":43.32339,"lon":5.40622,"is_reserved":false,"is_disabled":false,"rental_uris":{"android":"levelo://app?vid=ed56807b-c98e-4c13-b324-7b6dc4b81ac2","ios":"levelo://app?vid=ed56807b-c98e-4c13-b324-7b6dc4b81ac2"},"vehicle_type_id":"4","last_reported":1729465772,"current_range_meters":20400,"station_id":"ce4bhq92rcd13ifvqhjg","pricing_plan_id":"cebpf4jnsgd1na2vs0mg"},{"bike_id":"17c2e2b5-4d41-40ee-9ac7-27f2fafea751","system_id":"levelo_inurba_marseille","lat":43.28039,"lon":5.36945,"is_reserved":false,"is_disabled":false,"rental_uris":{"android":"levelo://app?vid=17c2e2b5-4d41-40ee-9ac7-27f2fafea751","ios":"levelo://app?vid=17c2e2b5-4d41-40ee-9ac7-27f2fafea751"},"vehicle_type_id":"4","last_reported":1729465772,"current_range_meters":29600,"station_id":"ce4bha12rcd13ifvqef0","pricing_plan_id":"cebpf4jnsgd1na2vs0mg"},{"bike_id":"57dd0012-e7c2-43e3-90a1-087125ac63fa","system_id":"levelo_inurba_marseille","lat":43.33753,"lon":5.37454,"is_reserved":false,"is_disabled":false,"rental_uris":{"android":"levelo://app?vid=57dd0012-e7c2-43e3-90a1-087125ac63fa","ios":"levelo://app?vid=57dd0012-e7c2-43e3-90a1-087125ac63fa"},"vehicle_type_id":"4","last_reported":1729465772,"current_range_meters":33200,"station_id":"","pricing_plan_id":"cebpf4jnsgd1na2vs0mg"},{"bike_id":"ad1c3d3d-b4cc-42d4-beb2-2f2573d3d2dd","system_id":"levelo_inurba_marseille","lat":43.31072,"lon":5.3835,"is_reserved":false,"is_disabled":false,"rental_uris":{"android":"levelo://app?vid=ad1c3d3d-b4cc-42d4-beb2-2f2573d3d2dd","ios":"levelo://app?vid=ad1c3d3d-b4cc-42d4-beb2-2f2573d3d2dd"},"vehicle_type_id":"4","last_reported":1729465772,"current_range_meters":38800,"station_id":"ce4bgv92rcd13ifvqcr0","pricing_plan_id":"cebpf4jnsgd1na2vs0mg"},{"bike_id":"0a6df673-e856-4343-b24f-084796475cea","system_id":"levelo_inurba_marseille","lat":43.31485,"lon":5.37304,"is_reserved":false,"is_disabled":false,"rental_uris":{"android":"levelo://app?vid=0a6df673-e856-4343-b24f-084796475cea","ios":"levelo://app?vid=0a6df673-e856-4343-b24f-084796475cea"},"vehicle_type_id":"4","last_reported":1729465772,"current_range_meters":32800,"station_id":"ce4bgt12rcd13ifvqcd0","pricing_plan_id":"cebpf4jnsgd1na2vs0mg"},{"bike_id":"acc80eec-b7f4-4a87-8f02-9235715cbd20","system_id":"levelo_inurba_marseille","lat":43.31069,"lon":5.38351,"is_reserved":false,"is_disabled":false,"rental_uris":{"android":"levelo://app?vid=acc80eec-b7f4-4a87-8f02-9235715cbd20","ios":"levelo://app?vid=acc80eec-b7f4-4a87-8f02-9235715cbd20"},"vehicle_type_id":"4","last_reported":1729465772,"current_range_meters":27600,"station_id":"ce4bgv92rcd13ifvqcr0","pricing_plan_id":"cebpf4jnsgd1na2vs0mg"},{"bike_id":"3b77581e-631c-40dd-a9c7-afc3c4336841","system_id":"levelo_inurba_marseille","lat":43.31169,"lon":5.38737,"is_reserved":false,"is_disabled":false,"rental_uris":{"android":"levelo://app?vid=3b77581e-631c-40dd-a9c7-afc3c4336841","ios":"levelo://app?vid=3b77581e-631c-40dd-a9c7-afc3c4336841"},"vehicle_type_id":"4","last_reported":1729465772,"current_range_meters":38800,"station_id":"ce4bgv12rcd13ifvqcp0","pricing_plan_id":"cebpf4jnsgd1na2vs0mg"},{"bike_id":"495d773a-77c3-4538-91d4-69a5f6ca5507","system_id":"levelo_inurba_marseille","lat":43.27367,"lon":5.36261,"is_reserved":false,"is_disabled":false,"rental_uris":{"android":"levelo://app?vid=495d773a-77c3-4538-91d4-69a5f6ca5507","ios":"levelo://app?vid=495d773a-77c3-4538-91d4-69a5f6ca5507"},"vehicle_type_id":"4","last_reported":1729465772,"current_range_meters":38800,"station_id":"ce4bhbh2rcd13ifvqeo0","pricing_plan_id":"cebpf4jnsgd1na2vs0mg"},{"bike_id":"3c8eee48-055f-42dc-9d7e-d971aed0982c","system_id":"levelo_inurba_marseille","lat":43.30948,"lon":5.39044,"is_reserved":false,"is_disabled":false,"rental_uris":{"android":"levelo://app?vid=3c8eee48-055f-42dc-9d7e-d971aed0982c","ios":"levelo://app?vid=3c8eee48-055f-42dc-9d7e-d971aed0982c"},"vehicle_type_id":"4","last_reported":1729465772,"current_range_meters":27200,"station_id":"ce4bgup2rcd13ifvqco0","pricing_plan_id":"cebpf4jnsgd1na2vs0mg"},{"bike_id":"d28524aa-7d6c-40ad-81f7-65db0ffe5cce","system_id":"levelo_inurba_marseille","lat":43.3014,"lon":5.39893,"is_reserved":false,"is_disabled":false,"rental_uris":{"android":"levelo://app?vid=d28524aa-7d6c-40ad-81f7-65db0ffe5cce","ios":"levelo://app?vid=d28524aa-7d6c-40ad-81f7-65db0ffe5cce"},"vehicle_type_id":"4","last_reported":1729465772,"current_range_meters":33600,"station_id":"ce4bh0h2rcd13ifvqd40","pricing_plan_id":"cebpf4jnsgd1na2vs0mg"},{"bike_id":"6fc5767c-7409-405d-8c24-4a08a7e916fc","system_id":"levelo_inurba_marseille","lat":43.2408,"lon":5.37756,"is_reserved":false,"is_disabled":false,"rental_uris":{"android":"levelo://app?vid=6fc5767c-7409-405d-8c24-4a08a7e916fc","ios":"levelo://app?vid=6fc5767c-7409-405d-8c24-4a08a7e916fc"},"vehicle_type_id":"4","last_reported":1729465772,"current_range_meters":38800,"station_id":"ce4bhnp2rcd13ifvqgvg","pricing_plan_id":"cebpf4jnsgd1na2vs0mg"},{"bike_id":"0c8d62df-ce7f-4d2a-93d3-2a0c7123f00e","system_id":"levelo_inurba_marseille","lat":43.27896,"lon":5.38007,"is_reserved":false,"is_disabled":false,"rental_uris":{"android":"levelo://app?vid=0c8d62df-ce7f-4d2a-93d3-2a0c7123f00e","ios":"levelo://app?vid=0c8d62df-ce7f-4d2a-93d3-2a0c7123f00e"},"vehicle_type_id":"4","last_reported":1729465772,"current_range_meters":36800,"station_id":"ce4bhf92rcd13ifvqf50","pricing_plan_id":"cebpf4jnsgd1na2vs0mg"},{"bike_id":"7baafccc-f243-4381-9dc7-cb5a4f2816d8","system_id":"levelo_inurba_marseille","lat":43.26197,"lon":5.37932,"is_reserved":false,"is_disabled":false,"rental_uris":{"android":"levelo://app?vid=7baafccc-f243-4381-9dc7-cb5a4f2816d8","ios":"levelo://app?vid=7baafccc-f243-4381-9dc7-cb5a4f2816d8"},"vehicle_type_id":"4","last_reported":1729465772,"current_range_meters":17200,"station_id":"ce4bhjp2rcd13ifvqg90","pricing_plan_id":"cebpf4jnsgd1na2vs0mg"},{"bike_id":"f649ba29-fbd0-4bfe-89f9-8f962a7e95e5","system_id":"levelo_inurba_marseille","lat":43.31495,"lon":5.37311,"is_reserved":false,"is_disabled":false,"rental_uris":{"android":"levelo://app?vid=f649ba29-fbd0-4bfe-89f9-8f962a7e95e5","ios":"levelo://app?vid=f649ba29-fbd0-4bfe-89f9-8f962a7e95e5"},"vehicle_type_id":"4","last_reported":1729465772,"current_range_meters":38000,"station_id":"ce4bgt12rcd13ifvqcd0","pricing_plan_id":"cebpf4jnsgd1na2vs0mg"},{"bike_id":"93fb5f5c-97ba-4600-a655-7a0d65d8a9dc","system_id":"levelo_inurba_marseille","lat":43.27312,"lon":5.39089,"is_reserved":false,"is_disabled":false,"rental_uris":{"android":"levelo://app?vid=93fb5f5c-97ba-4600-a655-7a0d65d8a9dc","ios":"levelo://app?vid=93fb5f5c-97ba-4600-a655-7a0d65d8a9dc"},"vehicle_type_id":"4","last_reported":1729465772,"current_range_meters":30000,"station_id":"ce4bhgp2rcd13ifvqfe0","pricing_plan_id":"cebpf4jnsgd1na2vs0mg"},{"bike_id":"e36e8b70-cdbc-4b6c-9fe9-c4fbf657cc2e","system_id":"levelo_inurba_marseille","lat":43.31327,"lon":5.39696,"is_reserved":false,"is_disabled":false,"rental_uris":{"android":"levelo://app?vid=e36e8b70-cdbc-4b6c-9fe9-c4fbf657cc2e","ios":"levelo://app?vid=e36e8b70-cdbc-4b6c-9fe9-c4fbf657cc2e"},"vehicle_type_id":"4","last_reported":1729465772,"current_range_meters":25600,"station_id":"ce4bgvp2rcd13ifvqcu0","pricing_plan_id":"cebpf4jnsgd1na2vs0mg"},{"bike_id":"bf6b57fc-4872-420f-a3f7-fe294bcf43f7","system_id":"levelo_inurba_marseille","lat":43.29256,"lon":5.40917,"is_reserved":false,"is_disabled":false,"rental_uris":{"android":"levelo://app?vid=bf6b57fc-4872-420f-a3f7-fe294bcf43f7","ios":"levelo://app?vid=bf6b57fc-4872-420f-a3f7-fe294bcf43f7"},"vehicle_type_id":"4","last_reported":1729465772,"current_range_meters":38400,"station_id":"ce4bh192rcd13ifvqdc0","pricing_plan_id":"cebpf4jnsgd1na2vs0mg"},{"bike_id":"f3499667-7382-42a0-8d1a-973ab5c95006","system_id":"levelo_inurba_marseille","lat":43.25866,"lon":5.39898,"is_reserved":false,"is_disabled":false,"rental_uris":{"android":"levelo://app?vid=f3499667-7382-42a0-8d1a-973ab5c95006","ios":"levelo://app?vid=f3499667-7382-42a0-8d1a-973ab5c95006"},"vehicle_type_id":"4","last_reported":1729465772,"current_range_meters":36800,"station_id":"ce4bhl92rcd13ifvqghg","pricing_plan_id":"cebpf4jnsgd1na2vs0mg"},{"bike_id":"f1863bfc-c7d4-4e51-b26f-32017d74faf1","system_id":"levelo_inurba_marseille","lat":43.292023,"lon":5.384038,"is_reserved":false,"is_disabled":false,"rental_uris":{"android":"levelo://app?vid=f1863bfc-c7d4-4e51-b26f-32017d74faf1","ios":"levelo://app?vid=f1863bfc-c7d4-4e51-b26f-32017d74faf1"},"vehicle_type_id":"4","last_reported":1729465772,"current_range_meters":31200,"station_id":"ce4bgvp2rcd13ifvqcu0","pricing_plan_id":"cebpf4jnsgd1na2vs0mg"},{"bike_id":"cd0dce23-200f-416c-916b-7be9d153fea3","system_id":"levelo_inurba_marseille","lat":43.26066,"lon":5.38552,"is_reserved":false,"is_disabled":false,"rental_uris":{"android":"levelo://app?vid=cd0dce23-200f-416c-916b-7be9d153fea3","ios":"levelo://app?vid=cd0dce23-200f-416c-916b-7be9d153fea3"},"vehicle_type_id":"4","last_reported":1729465772,"current_range_meters":17600,"station_id":"","pricing_plan_id":"cebpf4jnsgd1na2vs0mg"},{"bike_id":"53928c67-9a1e-42ca-af09-1851b26aa73d","system_id":"levelo_inurba_marseille","lat":43.28404,"lon":5.3752,"is_reserved":false,"is_disabled":false,"rental_uris":{"android":"levelo://app?vid=53928c67-9a1e-42ca-af09-1851b26aa73d","ios":"levelo://app?vid=53928c67-9a1e-42ca-af09-1851b26aa73d"},"vehicle_type_id":"4","last_reported":1729465772,"current_range_meters":36800,"station_id":"ce4bh412rcd13ifvqds0","pricing_plan_id":"cebpf4jnsgd1na2vs0mg"},{"bike_id":"23115ac6-aff5-45af-87d0-ffdacdb28fd5","system_id":"levelo_inurba_marseille","lat":43.22929,"lon":5.35379,"is_reserved":false,"is_disabled":false,"rental_uris":{"android":"levelo://app?vid=23115ac6-aff5-45af-87d0-ffdacdb28fd5","ios":"levelo://app?vid=23115ac6-aff5-45af-87d0-ffdacdb28fd5"},"vehicle_type_id":"4","last_reported":1729465772,"current_range_meters":38400,"station_id":"cpo3532slgdg3j2ikp40","pricing_plan_id":"cebpf4jnsgd1na2vs0mg"},{"bike_id":"005858fd-8dbf-48bc-b73b-c22bfee2a837","system_id":"levelo_inurba_marseille","lat":43.30422,"lon":5.39758,"is_reserved":false,"is_disabled":false,"rental_uris":{"android":"levelo://app?vid=005858fd-8dbf-48bc-b73b-c22bfee2a837","ios":"levelo://app?vid=005858fd-8dbf-48bc-b73b-c22bfee2a837"},"vehicle_type_id":"4","last_reported":1729465772,"current_range_meters":36800,"station_id":"ce4bh092rcd13ifvqd20","pricing_plan_id":"cebpf4jnsgd1na2vs0mg"},{"bike_id":"4baa99ae-2e1a-436a-bb1d-886404f1cc4d","system_id":"levelo_inurba_marseille","lat":43.28271,"lon":5.3507,"is_reserved":false,"is_disabled":false,"rental_uris":{"android":"levelo://app?vid=4baa99ae-2e1a-436a-bb1d-886404f1cc4d","ios":"levelo://app?vid=4baa99ae-2e1a-436a-bb1d-886404f1cc4d"},"vehicle_type_id":"4","last_reported":1729465772,"current_range_meters":38800,"station_id":"ce4bhbp2rcd13ifvqerg","pricing_plan_id":"cebpf4jnsgd1na2vs0mg"},{"bike_id":"f0cfec0e-7cdf-4c0b-9b7d-8fc3c33f3f22","system_id":"levelo_inurba_marseille","lat":43.25086,"lon":5.39522,"is_reserved":false,"is_disabled":false,"rental_uris":{"android":"levelo://app?vid=f0cfec0e-7cdf-4c0b-9b7d-8fc3c33f3f22","ios":"levelo://app?vid=f0cfec0e-7cdf-4c0b-9b7d-8fc3c33f3f22"},"vehicle_type_id":"4","last_reported":1729465772,"current_range_meters":5600,"station_id":"ce4bhm12rcd13ifvqgkg","pricing_plan_id":"cebpf4jnsgd1na2vs0mg"},{"bike_id":"3074eab9-5df2-4549-8df7-c8447d4f5d38","system_id":"levelo_inurba_marseille","lat":43.23186,"lon":5.3999,"is_reserved":false,"is_disabled":false,"rental_uris":{"android":"levelo://app?vid=3074eab9-5df2-4549-8df7-c8447d4f5d38","ios":"levelo://app?vid=3074eab9-5df2-4549-8df7-c8447d4f5d38"},"vehicle_type_id":"4","last_reported":1729465772,"current_range_meters":26000,"station_id":"ce4bhn12rcd13ifvqgqg","pricing_plan_id":"cebpf4jnsgd1na2vs0mg"},{"bike_id":"5fb83cb5-1b9e-44dc-ad82-fe8e448bfa99","system_id":"levelo_inurba_marseille","lat":43.32104,"lon":5.36779,"is_reserved":false,"is_disabled":false,"rental_uris":{"android":"levelo://app?vid=5fb83cb5-1b9e-44dc-ad82-fe8e448bfa99","ios":"levelo://app?vid=5fb83cb5-1b9e-44dc-ad82-fe8e448bfa99"},"vehicle_type_id":"4","last_reported":1729465772,"current_range_meters":38000,"station_id":"ce4bhrh2rcd13ifvqhug","pricing_plan_id":"cebpf4jnsgd1na2vs0mg"},{"bike_id":"ce664f76-069e-4d26-848b-5bba883a0f8f","system_id":"levelo_inurba_marseille","lat":43.28406,"lon":5.37525,"is_reserved":false,"is_disabled":false,"rental_uris":{"android":"levelo://app?vid=ce664f76-069e-4d26-848b-5bba883a0f8f","ios":"levelo://app?vid=ce664f76-069e-4d26-848b-5bba883a0f8f"},"vehicle_type_id":"4","last_reported":1729465772,"current_range_meters":38400,"station_id":"ce4bh412rcd13ifvqds0","pricing_plan_id":"cebpf4jnsgd1na2vs0mg"},{"bike_id":"1c46af18-9fa9-4b20-aa2c-36f4cc2ac30e","system_id":"levelo_inurba_marseille","lat":43.31162,"lon":5.38721,"is_reserved":false,"is_disabled":false,"rental_uris":{"android":"levelo://app?vid=1c46af18-9fa9-4b20-aa2c-36f4cc2ac30e","ios":"levelo://app?vid=1c46af18-9fa9-4b20-aa2c-36f4cc2ac30e"},"vehicle_type_id":"4","last_reported":1729465772,"current_range_meters":39200,"station_id":"ce4bgv12rcd13ifvqcp0","pricing_plan_id":"cebpf4jnsgd1na2vs0mg"},{"bike_id":"397aa16f-9086-4144-b23e-c12febf82b55","system_id":"levelo_inurba_marseille","lat":43.30206,"lon":5.39472,"is_reserved":false,"is_disabled":false,"rental_uris":{"android":"levelo://app?vid=397aa16f-9086-4144-b23e-c12febf82b55","ios":"levelo://app?vid=397aa16f-9086-4144-b23e-c12febf82b55"},"vehicle_type_id":"4","last_reported":1729465772,"current_range_meters":39200,"station_id":"ce4bh0p2rcd13ifvqd70","pricing_plan_id":"cebpf4jnsgd1na2vs0mg"},{"bike_id":"d94abd10-f1f2-4572-ab8e-169add889ea4","system_id":"levelo_inurba_marseille","lat":43.28032,"lon":5.36938,"is_reserved":false,"is_disabled":false,"rental_uris":{"android":"levelo://app?vid=d94abd10-f1f2-4572-ab8e-169add889ea4","ios":"levelo://app?vid=d94abd10-f1f2-4572-ab8e-169add889ea4"},"vehicle_type_id":"4","last_reported":1729465772,"current_range_meters":30000,"station_id":"ce4bha12rcd13ifvqef0","pricing_plan_id":"cebpf4jnsgd1na2vs0mg"},{"bike_id":"a79bce0c-a0b7-467d-9ece-663bed40c9d4","system_id":"levelo_inurba_marseille","lat":43.28862,"lon":5.3585,"is_reserved":false,"is_disabled":false,"rental_uris":{"android":"levelo://app?vid=a79bce0c-a0b7-467d-9ece-663bed40c9d4","ios":"levelo://app?vid=a79bce0c-a0b7-467d-9ece-663bed40c9d4"},"vehicle_type_id":"4","last_reported":1729465772,"current_range_meters":38800,"station_id":"ce4bhb12rcd13ifvqem0","pricing_plan_id":"cebpf4jnsgd1na2vs0mg"},{"bike_id":"28cf6995-f40e-413a-bb6c-faa2a779d004","system_id":"levelo_inurba_marseille","lat":43.30805,"lon":5.38151,"is_reserved":false,"is_disabled":false,"rental_uris":{"android":"levelo://app?vid=28cf6995-f40e-413a-bb6c-faa2a779d004","ios":"levelo://app?vid=28cf6995-f40e-413a-bb6c-faa2a779d004"},"vehicle_type_id":"4","last_reported":1729465772,"current_range_meters":24800,"station_id":"ce4bgt12rcd13ifvqce0","pricing_plan_id":"cebpf4jnsgd1na2vs0mg"},{"bike_id":"3936565c-18a4-450b-9552-bdc1ba21cf35","system_id":"levelo_inurba_marseille","lat":43.34137,"lon":5.40904,"is_reserved":false,"is_disabled":false,"rental_uris":{"android":"levelo://app?vid=3936565c-18a4-450b-9552-bdc1ba21cf35","ios":"levelo://app?vid=3936565c-18a4-450b-9552-bdc1ba21cf35"},"vehicle_type_id":"4","last_reported":1729465772,"current_range_meters":38000,"station_id":"ce4bhqh2rcd13ifvqhlg","pricing_plan_id":"cebpf4jnsgd1na2vs0mg"},{"bike_id":"d06a881c-f80d-48b8-9719-6afcceb956d7","system_id":"levelo_inurba_marseille","lat":43.33021,"lon":5.39049,"is_reserved":false,"is_disabled":false,"rental_uris":{"android":"levelo://app?vid=d06a881c-f80d-48b8-9719-6afcceb956d7","ios":"levelo://app?vid=d06a881c-f80d-48b8-9719-6afcceb956d7"},"vehicle_type_id":"4","last_reported":1729465772,"current_range_meters":38800,"station_id":"ce4bhr92rcd13ifvqhrg","pricing_plan_id":"cebpf4jnsgd1na2vs0mg"},{"bike_id":"e19c222f-a253-48d1-98c2-e66a57d39a04","system_id":"levelo_inurba_marseille","lat":43.25114,"lon":5.40329,"is_reserved":false,"is_disabled":false,"rental_uris":{"android":"levelo://app?vid=e19c222f-a253-48d1-98c2-e66a57d39a04","ios":"levelo://app?vid=e19c222f-a253-48d1-98c2-e66a57d39a04"},"vehicle_type_id":"4","last_reported":1729465772,"current_range_meters":11200,"station_id":"ce4bhlh2rcd13ifvqgig","pricing_plan_id":"cebpf4jnsgd1na2vs0mg"},{"bike_id":"1e18c599-6c40-4c34-805b-3e674da0ddd0","system_id":"levelo_inurba_marseille","lat":43.28424,"lon":5.34997,"is_reserved":false,"is_disabled":false,"rental_uris":{"android":"levelo://app?vid=1e18c599-6c40-4c34-805b-3e674da0ddd0","ios":"levelo://app?vid=1e18c599-6c40-4c34-805b-3e674da0ddd0"},"vehicle_type_id":"4","last_reported":1729465772,"current_range_meters":40000,"station_id":"ce4bhbh2rcd13ifvqepg","pricing_plan_id":"cebpf4jnsgd1na2vs0mg"},{"bike_id":"766da900-471d-42f5-8cfa-8db494f945d7","system_id":"levelo_inurba_marseille","lat":43.28924,"lon":5.46039,"is_reserved":false,"is_disabled":false,"rental_uris":{"android":"levelo://app?vid=766da900-471d-42f5-8cfa-8db494f945d7","ios":"levelo://app?vid=766da900-471d-42f5-8cfa-8db494f945d7"},"vehicle_type_id":"4","last_reported":1729465772,"current_range_meters":22800,"station_id":"","pricing_plan_id":"cebpf4jnsgd1na2vs0mg"},{"bike_id":"36e3023c-d0b0-43c6-8ec6-0c97d78dbe93","system_id":"levelo_inurba_marseille","lat":43.25002,"lon":5.38923,"is_reserved":false,"is_disabled":false,"rental_uris":{"android":"levelo://app?vid=36e3023c-d0b0-43c6-8ec6-0c97d78dbe93","ios":"levelo://app?vid=36e3023c-d0b0-43c6-8ec6-0c97d78dbe93"},"vehicle_type_id":"4","last_reported":1729465772,"current_range_meters":28800,"station_id":"ce4bhgp2rcd13ifvqfd0","pricing_plan_id":"cebpf4jnsgd1na2vs0mg"},{"bike_id":"2b732e07-d55f-46d2-9872-de0a6a9ddc8d","system_id":"levelo_inurba_marseille","lat":43.27616,"lon":5.36114,"is_reserved":false,"is_disabled":false,"rental_uris":{"android":"levelo://app?vid=2b732e07-d55f-46d2-9872-de0a6a9ddc8d","ios":"levelo://app?vid=2b732e07-d55f-46d2-9872-de0a6a9ddc8d"},"vehicle_type_id":"4","last_reported":1729465772,"current_range_meters":38800,"station_id":"ce4bgj92rcd13ifvqbe0","pricing_plan_id":"cebpf4jnsgd1na2vs0mg"},{"bike_id":"e71d3fcf-5ffb-42f6-ba1e-7e333adab3db","system_id":"levelo_inurba_marseille","lat":43.3089,"lon":5.37197,"is_reserved":false,"is_disabled":false,"rental_uris":{"android":"levelo://app?vid=e71d3fcf-5ffb-42f6-ba1e-7e333adab3db","ios":"levelo://app?vid=e71d3fcf-5ffb-42f6-ba1e-7e333adab3db"},"vehicle_type_id":"4","last_reported":1729465772,"current_range_meters":39200,"station_id":"ce4bguh2rcd13ifvqckg","pricing_plan_id":"cebpf4jnsgd1na2vs0mg"},{"bike_id":"6b9d203a-0d44-47b8-9615-bd46a99162a3","system_id":"levelo_inurba_marseille","lat":43.29255,"lon":5.40916,"is_reserved":false,"is_disabled":false,"rental_uris":{"android":"levelo://app?vid=6b9d203a-0d44-47b8-9615-bd46a99162a3","ios":"levelo://app?vid=6b9d203a-0d44-47b8-9615-bd46a99162a3"},"vehicle_type_id":"4","last_reported":1729465772,"current_range_meters":38800,"station_id":"ce4bh192rcd13ifvqdc0","pricing_plan_id":"cebpf4jnsgd1na2vs0mg"},{"bike_id":"a7a43baf-f2fd-4868-8a06-1cf018459f25","system_id":"levelo_inurba_marseille","lat":43.32336,"lon":5.40622,"is_reserved":false,"is_disabled":false,"rental_uris":{"android":"levelo://app?vid=a7a43baf-f2fd-4868-8a06-1cf018459f25","ios":"levelo://app?vid=a7a43baf-f2fd-4868-8a06-1cf018459f25"},"vehicle_type_id":"4","last_reported":1729465772,"current_range_meters":24000,"station_id":"ce4bhq92rcd13ifvqhjg","pricing_plan_id":"cebpf4jnsgd1na2vs0mg"},{"bike_id":"6e89931a-24ab-4d7b-a2d3-95f19d27cbfd","system_id":"levelo_inurba_marseille","lat":43.29446,"lon":5.39751,"is_reserved":false,"is_disabled":false,"rental_uris":{"android":"levelo://app?vid=6e89931a-24ab-4d7b-a2d3-95f19d27cbfd","ios":"levelo://app?vid=6e89931a-24ab-4d7b-a2d3-95f19d27cbfd"},"vehicle_type_id":"4","last_reported":1729465772,"current_range_meters":28000,"station_id":"ce4bh3h2rcd13ifvqdo0","pricing_plan_id":"cebpf4jnsgd1na2vs0mg"},{"bike_id":"8b5750f9-649c-4473-98b9-96b3cfdc7f74","system_id":"levelo_inurba_marseille","lat":43.2511,"lon":5.40322,"is_reserved":false,"is_disabled":false,"rental_uris":{"android":"levelo://app?vid=8b5750f9-649c-4473-98b9-96b3cfdc7f74","ios":"levelo://app?vid=8b5750f9-649c-4473-98b9-96b3cfdc7f74"},"vehicle_type_id":"4","last_reported":1729465772,"current_range_meters":34800,"station_id":"ce4bhlh2rcd13ifvqgig","pricing_plan_id":"cebpf4jnsgd1na2vs0mg"},{"bike_id":"433f9d94-c5ef-4020-b16a-5a8370e298f5","system_id":"levelo_inurba_marseille","lat":43.28709,"lon":5.37405,"is_reserved":false,"is_disabled":false,"rental_uris":{"android":"levelo://app?vid=433f9d94-c5ef-4020-b16a-5a8370e298f5","ios":"levelo://app?vid=433f9d94-c5ef-4020-b16a-5a8370e298f5"},"vehicle_type_id":"4","last_reported":1729465772,"current_range_meters":18000,"station_id":"ce4bh3p2rcd13ifvqdq0","pricing_plan_id":"cebpf4jnsgd1na2vs0mg"},{"bike_id":"e4165dbd-d7e2-49b1-86de-b3128e01e161","system_id":"levelo_inurba_marseille","lat":43.28458,"lon":5.35894,"is_reserved":false,"is_disabled":false,"rental_uris":{"android":"levelo://app?vid=e4165dbd-d7e2-49b1-86de-b3128e01e161","ios":"levelo://app?vid=e4165dbd-d7e2-49b1-86de-b3128e01e161"},"vehicle_type_id":"4","last_reported":1729465772,"current_range_meters":38800,"station_id":"ce4bhah2rcd13ifvqei0","pricing_plan_id":"cebpf4jnsgd1na2vs0mg"},{"bike_id":"2bbf3f7b-7876-479c-b375-c567106e1cb4","system_id":"levelo_inurba_marseille","lat":43.27952,"lon":5.41044,"is_reserved":false,"is_disabled":false,"rental_uris":{"android":"levelo://app?vid=2bbf3f7b-7876-479c-b375-c567106e1cb4","ios":"levelo://app?vid=2bbf3f7b-7876-479c-b375-c567106e1cb4"},"vehicle_type_id":"4","last_reported":1729465772,"current_range_meters":14000,"station_id":"ce4bhnp2rcd13ifvqh0g","pricing_plan_id":"cebpf4jnsgd1na2vs0mg"},{"bike_id":"1104b19b-39e4-4f3f-a954-dd9a3478dd76","system_id":"levelo_inurba_marseille","lat":43.29213,"lon":5.36044,"is_reserved":false,"is_disabled":false,"rental_uris":{"android":"levelo://app?vid=1104b19b-39e4-4f3f-a954-dd9a3478dd76","ios":"levelo://app?vid=1104b19b-39e4-4f3f-a954-dd9a3478dd76"},"vehicle_type_id":"4","last_reported":1729465772,"current_range_meters":28800,"station_id":"ce4bhbh2rcd13ifvqeqg","pricing_plan_id":"cebpf4jnsgd1na2vs0mg"},{"bike_id":"3a90cd5a-8d84-4a1f-9da8-3547bb5d20c1","system_id":"levelo_inurba_marseille","lat":43.23194,"lon":5.35554,"is_reserved":false,"is_disabled":false,"rental_uris":{"android":"levelo://app?vid=3a90cd5a-8d84-4a1f-9da8-3547bb5d20c1","ios":"levelo://app?vid=3a90cd5a-8d84-4a1f-9da8-3547bb5d20c1"},"vehicle_type_id":"4","last_reported":1729465772,"current_range_meters":40000,"station_id":"ce4bhu92rcd13ifvqi70","pricing_plan_id":"cebpf4jnsgd1na2vs0mg"},{"bike_id":"a1d396a3-1842-4ccb-9c35-2fac21ba193b","system_id":"levelo_inurba_marseille","lat":43.32659,"lon":5.40987,"is_reserved":false,"is_disabled":false,"rental_uris":{"android":"levelo://app?vid=a1d396a3-1842-4ccb-9c35-2fac21ba193b","ios":"levelo://app?vid=a1d396a3-1842-4ccb-9c35-2fac21ba193b"},"vehicle_type_id":"4","last_reported":1729465772,"current_range_meters":40000,"station_id":"ce4bhpp2rcd13ifvqhgg","pricing_plan_id":"cebpf4jnsgd1na2vs0mg"},{"bike_id":"27d7397b-3a64-4c8d-985f-c89fa0625145","system_id":"levelo_inurba_marseille","lat":43.23198,"lon":5.35553,"is_reserved":false,"is_disabled":false,"rental_uris":{"android":"levelo://app?vid=27d7397b-3a64-4c8d-985f-c89fa0625145","ios":"levelo://app?vid=27d7397b-3a64-4c8d-985f-c89fa0625145"},"vehicle_type_id":"4","last_reported":1729465772,"current_range_meters":39200,"station_id":"ce4bhu92rcd13ifvqi70","pricing_plan_id":"cebpf4jnsgd1na2vs0mg"},{"bike_id":"c47ccd47-d873-4fd2-ba35-77b6357180ca","system_id":"levelo_inurba_marseille","lat":43.28104,"lon":5.37842,"is_reserved":false,"is_disabled":false,"rental_uris":{"android":"levelo://app?vid=c47ccd47-d873-4fd2-ba35-77b6357180ca","ios":"levelo://app?vid=c47ccd47-d873-4fd2-ba35-77b6357180ca"},"vehicle_type_id":"4","last_reported":1729465772,"current_range_meters":30800,"station_id":"ce4bha12rcd13ifvqee0","pricing_plan_id":"cebpf4jnsgd1na2vs0mg"},{"bike_id":"8b3574f7-b190-4514-8868-3876eb8fb57f","system_id":"levelo_inurba_marseille","lat":43.28838,"lon":5.35863,"is_reserved":false,"is_disabled":false,"rental_uris":{"android":"levelo://app?vid=8b3574f7-b190-4514-8868-3876eb8fb57f","ios":"levelo://app?vid=8b3574f7-b190-4514-8868-3876eb8fb57f"},"vehicle_type_id":"4","last_reported":1729465772,"current_range_meters":8400,"station_id":"ce4bhb12rcd13ifvqem0","pricing_plan_id":"cebpf4jnsgd1na2vs0mg"},{"bike_id":"4b0e1ae9-90da-4b3c-97a7-9fcaa6ea9192","system_id":"levelo_inurba_marseille","lat":43.28102,"lon":5.3784,"is_reserved":false,"is_disabled":false,"rental_uris":{"android":"levelo://app?vid=4b0e1ae9-90da-4b3c-97a7-9fcaa6ea9192","ios":"levelo://app?vid=4b0e1ae9-90da-4b3c-97a7-9fcaa6ea9192"},"vehicle_type_id":"4","last_reported":1729465772,"current_range_meters":40000,"station_id":"ce4bha12rcd13ifvqee0","pricing_plan_id":"cebpf4jnsgd1na2vs0mg"},{"bike_id":"c03fbd20-86ef-48e9-8de5-9cb4bceff8ae","system_id":"levelo_inurba_marseille","lat":43.31278,"lon":5.40158,"is_reserved":false,"is_disabled":false,"rental_uris":{"android":"levelo://app?vid=c03fbd20-86ef-48e9-8de5-9cb4bceff8ae","ios":"levelo://app?vid=c03fbd20-86ef-48e9-8de5-9cb4bceff8ae"},"vehicle_type_id":"4","last_reported":1729465772,"current_range_meters":30800,"station_id":"ce4bh092rcd13ifvqd30","pricing_plan_id":"cebpf4jnsgd1na2vs0mg"},{"bike_id":"e482943d-14a0-4997-921f-3c820f6545c3","system_id":"levelo_inurba_marseille","lat":43.30644,"lon":5.40101,"is_reserved":false,"is_disabled":false,"rental_uris":{"android":"levelo://app?vid=e482943d-14a0-4997-921f-3c820f6545c3","ios":"levelo://app?vid=e482943d-14a0-4997-921f-3c820f6545c3"},"vehicle_type_id":"4","last_reported":1729465772,"current_range_meters":38800,"station_id":"ce4bh112rcd13ifvqda0","pricing_plan_id":"cebpf4jnsgd1na2vs0mg"},{"bike_id":"61f6fcba-0270-4e6f-bab2-fc32e0baeaf0","system_id":"levelo_inurba_marseille","lat":43.28108,"lon":5.37837,"is_reserved":false,"is_disabled":false,"rental_uris":{"android":"levelo://app?vid=61f6fcba-0270-4e6f-bab2-fc32e0baeaf0","ios":"levelo://app?vid=61f6fcba-0270-4e6f-bab2-fc32e0baeaf0"},"vehicle_type_id":"4","last_reported":1729465772,"current_range_meters":28800,"station_id":"ce4bha12rcd13ifvqee0","pricing_plan_id":"cebpf4jnsgd1na2vs0mg"},{"bike_id":"7772d39f-5e28-445c-af91-069b0cf63793","system_id":"levelo_inurba_marseille","lat":43.33765,"lon":5.37438,"is_reserved":false,"is_disabled":false,"rental_uris":{"android":"levelo://app?vid=7772d39f-5e28-445c-af91-069b0cf63793","ios":"levelo://app?vid=7772d39f-5e28-445c-af91-069b0cf63793"},"vehicle_type_id":"4","last_reported":1729465772,"current_range_meters":2800,"station_id":"","pricing_plan_id":"cebpf4jnsgd1na2vs0mg"},{"bike_id":"b7a735d7-f1dd-4ee6-9916-5d65507bb1f6","system_id":"levelo_inurba_marseille","lat":43.3361,"lon":5.41035,"is_reserved":false,"is_disabled":false,"rental_uris":{"android":"levelo://app?vid=b7a735d7-f1dd-4ee6-9916-5d65507bb1f6","ios":"levelo://app?vid=b7a735d7-f1dd-4ee6-9916-5d65507bb1f6"},"vehicle_type_id":"4","last_reported":1729465772,"current_range_meters":34000,"station_id":"ce4bhqh2rcd13ifvqhmg","pricing_plan_id":"cebpf4jnsgd1na2vs0mg"},{"bike_id":"3213665e-989c-4d22-9f5a-31c8522597dd","system_id":"levelo_inurba_marseille","lat":43.296,"lon":5.36142,"is_reserved":false,"is_disabled":false,"rental_uris":{"android":"levelo://app?vid=3213665e-989c-4d22-9f5a-31c8522597dd","ios":"levelo://app?vid=3213665e-989c-4d22-9f5a-31c8522597dd"},"vehicle_type_id":"4","last_reported":1729465772,"current_range_meters":12800,"station_id":"","pricing_plan_id":"cebpf4jnsgd1na2vs0mg"},{"bike_id":"c0d3d32e-e5a1-4781-982b-6fe954b368b7","system_id":"levelo_inurba_marseille","lat":43.28727,"lon":5.36083,"is_reserved":false,"is_disabled":false,"rental_uris":{"android":"levelo://app?vid=c0d3d32e-e5a1-4781-982b-6fe954b368b7","ios":"levelo://app?vid=c0d3d32e-e5a1-4781-982b-6fe954b368b7"},"vehicle_type_id":"4","last_reported":1729465772,"current_range_meters":38000,"station_id":"cki0cbj6b192h4jlfktg","pricing_plan_id":"cebpf4jnsgd1na2vs0mg"},{"bike_id":"9a2117f0-c5b0-4dc2-891b-026a24af23f1","system_id":"levelo_inurba_marseille","lat":43.3105,"lon":5.40092,"is_reserved":false,"is_disabled":false,"rental_uris":{"android":"levelo://app?vid=9a2117f0-c5b0-4dc2-891b-026a24af23f1","ios":"levelo://app?vid=9a2117f0-c5b0-4dc2-891b-026a24af23f1"},"vehicle_type_id":"4","last_reported":1729465772,"current_range_meters":33600,"station_id":"","pricing_plan_id":"cebpf4jnsgd1na2vs0mg"},{"bike_id":"150b2076-fa3d-4436-b76f-3b9f9d8be659","system_id":"levelo_inurba_marseille","lat":43.33607,"lon":5.41035,"is_reserved":false,"is_disabled":false,"rental_uris":{"android":"levelo://app?vid=150b2076-fa3d-4436-b76f-3b9f9d8be659","ios":"levelo://app?vid=150b2076-fa3d-4436-b76f-3b9f9d8be659"},"vehicle_type_id":"4","last_reported":1729465772,"current_range_meters":38800,"station_id":"ce4bhqh2rcd13ifvqhmg","pricing_plan_id":"cebpf4jnsgd1na2vs0mg"},{"bike_id":"85c464d2-b6dd-40c8-826b-f01a6bbc92a3","system_id":"levelo_inurba_marseille","lat":43.28467,"lon":5.35889,"is_reserved":false,"is_disabled":false,"rental_uris":{"android":"levelo://app?vid=85c464d2-b6dd-40c8-826b-f01a6bbc92a3","ios":"levelo://app?vid=85c464d2-b6dd-40c8-826b-f01a6bbc92a3"},"vehicle_type_id":"4","last_reported":1729465772,"current_range_meters":12800,"station_id":"ce4bhah2rcd13ifvqei0","pricing_plan_id":"cebpf4jnsgd1na2vs0mg"},{"bike_id":"aff3f06a-2b37-4af9-b818-32fc77ae61ee","system_id":"levelo_inurba_marseille","lat":43.29008,"lon":5.35609,"is_reserved":false,"is_disabled":false,"rental_uris":{"android":"levelo://app?vid=aff3f06a-2b37-4af9-b818-32fc77ae61ee","ios":"levelo://app?vid=aff3f06a-2b37-4af9-b818-32fc77ae61ee"},"vehicle_type_id":"4","last_reported":1729465772,"current_range_meters":38800,"station_id":"ce4bhb92rcd13ifvqen0","pricing_plan_id":"cebpf4jnsgd1na2vs0mg"},{"bike_id":"c294329c-67d3-4719-8415-ae0d1f00af5d","system_id":"levelo_inurba_marseille","lat":43.25583,"lon":5.38231,"is_reserved":false,"is_disabled":false,"rental_uris":{"android":"levelo://app?vid=c294329c-67d3-4719-8415-ae0d1f00af5d","ios":"levelo://app?vid=c294329c-67d3-4719-8415-ae0d1f00af5d"},"vehicle_type_id":"4","last_reported":1729465772,"current_range_meters":24800,"station_id":"ce4bhih2rcd13ifvqfs0","pricing_plan_id":"cebpf4jnsgd1na2vs0mg"},{"bike_id":"5d5ca3e6-06a9-4ef4-88f8-e8d21bffc448","system_id":"levelo_inurba_marseille","lat":43.32341,"lon":5.4062,"is_reserved":false,"is_disabled":false,"rental_uris":{"android":"levelo://app?vid=5d5ca3e6-06a9-4ef4-88f8-e8d21bffc448","ios":"levelo://app?vid=5d5ca3e6-06a9-4ef4-88f8-e8d21bffc448"},"vehicle_type_id":"4","last_reported":1729465772,"current_range_meters":38800,"station_id":"ce4bhq92rcd13ifvqhjg","pricing_plan_id":"cebpf4jnsgd1na2vs0mg"},{"bike_id":"09499b9e-a1b1-4b0b-9b8e-7d2a5601de08","system_id":"levelo_inurba_marseille","lat":43.270587,"lon":5.402698,"is_reserved":false,"is_disabled":false,"rental_uris":{"android":"levelo://app?vid=09499b9e-a1b1-4b0b-9b8e-7d2a5601de08","ios":"levelo://app?vid=09499b9e-a1b1-4b0b-9b8e-7d2a5601de08"},"vehicle_type_id":"4","last_reported":1729465772,"current_range_meters":38400,"station_id":"ce4bhdp2rcd13ifvqf20","pricing_plan_id":"cebpf4jnsgd1na2vs0mg"},{"bike_id":"ac69515a-2b4c-4f03-b511-e10ff5d0241f","system_id":"levelo_inurba_marseille","lat":43.3089,"lon":5.37187,"is_reserved":false,"is_disabled":false,"rental_uris":{"android":"levelo://app?vid=ac69515a-2b4c-4f03-b511-e10ff5d0241f","ios":"levelo://app?vid=ac69515a-2b4c-4f03-b511-e10ff5d0241f"},"vehicle_type_id":"4","last_reported":1729465772,"current_range_meters":15200,"station_id":"ce4bguh2rcd13ifvqckg","pricing_plan_id":"cebpf4jnsgd1na2vs0mg"},{"bike_id":"9b0cae09-aed8-4c2a-872b-df83b11d6d51","system_id":"levelo_inurba_marseille","lat":43.29959,"lon":5.37169,"is_reserved":false,"is_disabled":false,"rental_uris":{"android":"levelo://app?vid=9b0cae09-aed8-4c2a-872b-df83b11d6d51","ios":"levelo://app?vid=9b0cae09-aed8-4c2a-872b-df83b11d6d51"},"vehicle_type_id":"4","last_reported":1729465772,"current_range_meters":38800,"station_id":"ce4bgr92rcd13ifvqc7g","pricing_plan_id":"cebpf4jnsgd1na2vs0mg"},{"bike_id":"836dc57c-4fbc-47b4-b795-4de826fbae87","system_id":"levelo_inurba_marseille","lat":43.28456,"lon":5.35894,"is_reserved":false,"is_disabled":false,"rental_uris":{"android":"levelo://app?vid=836dc57c-4fbc-47b4-b795-4de826fbae87","ios":"levelo://app?vid=836dc57c-4fbc-47b4-b795-4de826fbae87"},"vehicle_type_id":"4","last_reported":1729465772,"current_range_meters":36800,"station_id":"ce4bhah2rcd13ifvqei0","pricing_plan_id":"cebpf4jnsgd1na2vs0mg"},{"bike_id":"12bd3036-1eeb-409e-83a9-f84f7c98205c","system_id":"levelo_inurba_marseille","lat":43.27624,"lon":5.3611,"is_reserved":false,"is_disabled":false,"rental_uris":{"android":"levelo://app?vid=12bd3036-1eeb-409e-83a9-f84f7c98205c","ios":"levelo://app?vid=12bd3036-1eeb-409e-83a9-f84f7c98205c"},"vehicle_type_id":"4","last_reported":1729465772,"current_range_meters":39200,"station_id":"ce4bgj92rcd13ifvqbe0","pricing_plan_id":"cebpf4jnsgd1na2vs0mg"},{"bike_id":"615a7b9b-e8d1-4cb2-b926-2eb364cb53b0","system_id":"levelo_inurba_marseille","lat":43.27828,"lon":5.39214,"is_reserved":false,"is_disabled":false,"rental_uris":{"android":"levelo://app?vid=615a7b9b-e8d1-4cb2-b926-2eb364cb53b0","ios":"levelo://app?vid=615a7b9b-e8d1-4cb2-b926-2eb364cb53b0"},"vehicle_type_id":"4","last_reported":1729465772,"current_range_meters":38800,"station_id":"ce4bhjp2rcd13ifvqga0","pricing_plan_id":"cebpf4jnsgd1na2vs0mg"},{"bike_id":"b3b04b16-142e-41af-b4de-fec206b687f4","system_id":"levelo_inurba_marseille","lat":43.32068,"lon":5.41542,"is_reserved":false,"is_disabled":false,"rental_uris":{"android":"levelo://app?vid=b3b04b16-142e-41af-b4de-fec206b687f4","ios":"levelo://app?vid=b3b04b16-142e-41af-b4de-fec206b687f4"},"vehicle_type_id":"4","last_reported":1729465772,"current_range_meters":27600,"station_id":"ce4bhq92rcd13ifvqhkg","pricing_plan_id":"cebpf4jnsgd1na2vs0mg"},{"bike_id":"6ac2a2e1-1b55-4a6c-8aed-bc4ee6d35ef1","system_id":"levelo_inurba_marseille","lat":43.3149,"lon":5.37297,"is_reserved":false,"is_disabled":false,"rental_uris":{"android":"levelo://app?vid=6ac2a2e1-1b55-4a6c-8aed-bc4ee6d35ef1","ios":"levelo://app?vid=6ac2a2e1-1b55-4a6c-8aed-bc4ee6d35ef1"},"vehicle_type_id":"4","last_reported":1729465772,"current_range_meters":38000,"station_id":"ce4bgt12rcd13ifvqcd0","pricing_plan_id":"cebpf4jnsgd1na2vs0mg"},{"bike_id":"eaaa5fbc-63f7-46b3-b6d4-fd6dc86ad4e8","system_id":"levelo_inurba_marseille","lat":43.23959,"lon":5.36624,"is_reserved":false,"is_disabled":false,"rental_uris":{"android":"levelo://app?vid=eaaa5fbc-63f7-46b3-b6d4-fd6dc86ad4e8","ios":"levelo://app?vid=eaaa5fbc-63f7-46b3-b6d4-fd6dc86ad4e8"},"vehicle_type_id":"4","last_reported":1729465772,"current_range_meters":38800,"station_id":"ce4bhi12rcd13ifvqfp0","pricing_plan_id":"cebpf4jnsgd1na2vs0mg"},{"bike_id":"0c5da34e-406c-4998-9c0c-298a8e1fd836","system_id":"levelo_inurba_marseille","lat":43.29881,"lon":5.39739,"is_reserved":false,"is_disabled":false,"rental_uris":{"android":"levelo://app?vid=0c5da34e-406c-4998-9c0c-298a8e1fd836","ios":"levelo://app?vid=0c5da34e-406c-4998-9c0c-298a8e1fd836"},"vehicle_type_id":"4","last_reported":1729465772,"current_range_meters":32800,"station_id":"ce4bh0h2rcd13ifvqd50","pricing_plan_id":"cebpf4jnsgd1na2vs0mg"},{"bike_id":"2a8cfce5-93d5-4a5e-832b-148482060dca","system_id":"levelo_inurba_marseille","lat":43.32371,"lon":5.38875,"is_reserved":false,"is_disabled":false,"rental_uris":{"android":"levelo://app?vid=2a8cfce5-93d5-4a5e-832b-148482060dca","ios":"levelo://app?vid=2a8cfce5-93d5-4a5e-832b-148482060dca"},"vehicle_type_id":"4","last_reported":1729465772,"current_range_meters":24400,"station_id":"ce4bhqp2rcd13ifvqhog","pricing_plan_id":"cebpf4jnsgd1na2vs0mg"},{"bike_id":"115e3db0-037e-43f4-8fed-cc520aa5d554","system_id":"levelo_inurba_marseille","lat":43.31368,"lon":5.38496,"is_reserved":false,"is_disabled":false,"rental_uris":{"android":"levelo://app?vid=115e3db0-037e-43f4-8fed-cc520aa5d554","ios":"levelo://app?vid=115e3db0-037e-43f4-8fed-cc520aa5d554"},"vehicle_type_id":"4","last_reported":1729465772,"current_range_meters":33600,"station_id":"ce4bgt92rcd13ifvqcf0","pricing_plan_id":"cebpf4jnsgd1na2vs0mg"},{"bike_id":"b2c1343a-3efb-4af2-8d17-530273fb49cc","system_id":"levelo_inurba_marseille","lat":43.33603,"lon":5.41021,"is_reserved":false,"is_disabled":false,"rental_uris":{"android":"levelo://app?vid=b2c1343a-3efb-4af2-8d17-530273fb49cc","ios":"levelo://app?vid=b2c1343a-3efb-4af2-8d17-530273fb49cc"},"vehicle_type_id":"4","last_reported":1729465772,"current_range_meters":12800,"station_id":"ce4bhqh2rcd13ifvqhmg","pricing_plan_id":"cebpf4jnsgd1na2vs0mg"},{"bike_id":"af95ced9-5b43-46e2-bfd7-64cf80b53320","system_id":"levelo_inurba_marseille","lat":43.31331,"lon":5.39698,"is_reserved":false,"is_disabled":false,"rental_uris":{"android":"levelo://app?vid=af95ced9-5b43-46e2-bfd7-64cf80b53320","ios":"levelo://app?vid=af95ced9-5b43-46e2-bfd7-64cf80b53320"},"vehicle_type_id":"4","last_reported":1729465772,"current_range_meters":30400,"station_id":"ce4bgvp2rcd13ifvqcu0","pricing_plan_id":"cebpf4jnsgd1na2vs0mg"},{"bike_id":"9cb0d92f-3b5d-4604-bbb8-cf8f5daee3e0","system_id":"levelo_inurba_marseille","lat":43.24656,"lon":5.38895,"is_reserved":false,"is_disabled":false,"rental_uris":{"android":"levelo://app?vid=9cb0d92f-3b5d-4604-bbb8-cf8f5daee3e0","ios":"levelo://app?vid=9cb0d92f-3b5d-4604-bbb8-cf8f5daee3e0"},"vehicle_type_id":"4","last_reported":1729465772,"current_range_meters":38000,"station_id":"ce4bhg12rcd13ifvqf60","pricing_plan_id":"cebpf4jnsgd1na2vs0mg"},{"bike_id":"282935c4-43ab-4b54-8fd3-5b03ec7ae879","system_id":"levelo_inurba_marseille","lat":43.27996,"lon":5.40014,"is_reserved":false,"is_disabled":false,"rental_uris":{"android":"levelo://app?vid=282935c4-43ab-4b54-8fd3-5b03ec7ae879","ios":"levelo://app?vid=282935c4-43ab-4b54-8fd3-5b03ec7ae879"},"vehicle_type_id":"4","last_reported":1729465772,"current_range_meters":38000,"station_id":"ce4bho92rcd13ifvqh4g","pricing_plan_id":"cebpf4jnsgd1na2vs0mg"},{"bike_id":"af00502d-b5af-402e-bab9-2b06b78e3677","system_id":"levelo_inurba_marseille","lat":43.31132,"lon":5.37742,"is_reserved":false,"is_disabled":false,"rental_uris":{"android":"levelo://app?vid=af00502d-b5af-402e-bab9-2b06b78e3677","ios":"levelo://app?vid=af00502d-b5af-402e-bab9-2b06b78e3677"},"vehicle_type_id":"4","last_reported":1729465772,"current_range_meters":6800,"station_id":"ce4bgt92rcd13ifvqcg0","pricing_plan_id":"cebpf4jnsgd1na2vs0mg"},{"bike_id":"d863885c-9de8-4c1e-b0fe-4dac0fde31c8","system_id":"levelo_inurba_marseille","lat":43.26194,"lon":5.37451,"is_reserved":false,"is_disabled":false,"rental_uris":{"android":"levelo://app?vid=d863885c-9de8-4c1e-b0fe-4dac0fde31c8","ios":"levelo://app?vid=d863885c-9de8-4c1e-b0fe-4dac0fde31c8"},"vehicle_type_id":"4","last_reported":1729465772,"current_range_meters":36800,"station_id":"ce4bhgp2rcd13ifvqfc0","pricing_plan_id":"cebpf4jnsgd1na2vs0mg"},{"bike_id":"1683d216-d715-408c-8da1-7acbf6f7c18e","system_id":"levelo_inurba_marseille","lat":43.28694,"lon":5.3998,"is_reserved":false,"is_disabled":false,"rental_uris":{"android":"levelo://app?vid=1683d216-d715-408c-8da1-7acbf6f7c18e","ios":"levelo://app?vid=1683d216-d715-408c-8da1-7acbf6f7c18e"},"vehicle_type_id":"4","last_reported":1729465772,"current_range_meters":20800,"station_id":"ce4bho92rcd13ifvqh3g","pricing_plan_id":"cebpf4jnsgd1na2vs0mg"},{"bike_id":"95ea7d9c-aa30-40c7-9fc3-d9eebe2c05b7","system_id":"levelo_inurba_marseille","lat":43.29271,"lon":5.40109,"is_reserved":false,"is_disabled":false,"rental_uris":{"android":"levelo://app?vid=95ea7d9c-aa30-40c7-9fc3-d9eebe2c05b7","ios":"levelo://app?vid=95ea7d9c-aa30-40c7-9fc3-d9eebe2c05b7"},"vehicle_type_id":"4","last_reported":1729465772,"current_range_meters":7200,"station_id":"ce4bh312rcd13ifvqdk0","pricing_plan_id":"cebpf4jnsgd1na2vs0mg"},{"bike_id":"a833175e-1305-4b25-99ef-69e8de6efc8f","system_id":"levelo_inurba_marseille","lat":43.33727,"lon":5.39189,"is_reserved":false,"is_disabled":false,"rental_uris":{"android":"levelo://app?vid=a833175e-1305-4b25-99ef-69e8de6efc8f","ios":"levelo://app?vid=a833175e-1305-4b25-99ef-69e8de6efc8f"},"vehicle_type_id":"4","last_reported":1729465772,"current_range_meters":30000,"station_id":"ce4bhr92rcd13ifvqhsg","pricing_plan_id":"cebpf4jnsgd1na2vs0mg"},{"bike_id":"c45fe0be-d587-41d6-a0e3-3d22e2e72fb2","system_id":"levelo_inurba_marseille","lat":43.30318,"lon":5.40439,"is_reserved":false,"is_disabled":false,"rental_uris":{"android":"levelo://app?vid=c45fe0be-d587-41d6-a0e3-3d22e2e72fb2","ios":"levelo://app?vid=c45fe0be-d587-41d6-a0e3-3d22e2e72fb2"},"vehicle_type_id":"4","last_reported":1729465772,"current_range_meters":8400,"station_id":"ce4bh012rcd13ifvqd10","pricing_plan_id":"cebpf4jnsgd1na2vs0mg"},{"bike_id":"1bf9daea-7cf8-4378-af72-2d205c047556","system_id":"levelo_inurba_marseille","lat":43.312756,"lon":5.401742,"is_reserved":false,"is_disabled":false,"rental_uris":{"android":"levelo://app?vid=1bf9daea-7cf8-4378-af72-2d205c047556","ios":"levelo://app?vid=1bf9daea-7cf8-4378-af72-2d205c047556"},"vehicle_type_id":"4","last_reported":1729465772,"current_range_meters":5600,"station_id":"ce4bh092rcd13ifvqd30","pricing_plan_id":"cebpf4jnsgd1na2vs0mg"},{"bike_id":"adea3a59-bfe3-4359-9707-8838ade5bc09","system_id":"levelo_inurba_marseille","lat":43.2841,"lon":5.37576,"is_reserved":false,"is_disabled":false,"rental_uris":{"android":"levelo://app?vid=adea3a59-bfe3-4359-9707-8838ade5bc09","ios":"levelo://app?vid=adea3a59-bfe3-4359-9707-8838ade5bc09"},"vehicle_type_id":"4","last_reported":1729465772,"current_range_meters":34000,"station_id":"","pricing_plan_id":"cebpf4jnsgd1na2vs0mg"},{"bike_id":"4cf3e5d8-4f9a-4007-b965-622ecd99339e","system_id":"levelo_inurba_marseille","lat":43.31074,"lon":5.40085,"is_reserved":false,"is_disabled":false,"rental_uris":{"android":"levelo://app?vid=4cf3e5d8-4f9a-4007-b965-622ecd99339e","ios":"levelo://app?vid=4cf3e5d8-4f9a-4007-b965-622ecd99339e"},"vehicle_type_id":"4","last_reported":1729465772,"current_range_meters":6800,"station_id":"","pricing_plan_id":"cebpf4jnsgd1na2vs0mg"},{"bike_id":"3de5f9c6-824d-4fba-b9de-50e1c84c4cf7","system_id":"levelo_inurba_marseille","lat":43.28701,"lon":5.39991,"is_reserved":false,"is_disabled":false,"rental_uris":{"android":"levelo://app?vid=3de5f9c6-824d-4fba-b9de-50e1c84c4cf7","ios":"levelo://app?vid=3de5f9c6-824d-4fba-b9de-50e1c84c4cf7"},"vehicle_type_id":"4","last_reported":1729465772,"current_range_meters":6800,"station_id":"ce4bho92rcd13ifvqh3g","pricing_plan_id":"cebpf4jnsgd1na2vs0mg"},{"bike_id":"9421caad-2551-42be-b07b-74158ccb9f29","system_id":"levelo_inurba_marseille","lat":43.30893,"lon":5.37203,"is_reserved":false,"is_disabled":false,"rental_uris":{"android":"levelo://app?vid=9421caad-2551-42be-b07b-74158ccb9f29","ios":"levelo://app?vid=9421caad-2551-42be-b07b-74158ccb9f29"},"vehicle_type_id":"4","last_reported":1729465772,"current_range_meters":9600,"station_id":"ce4bguh2rcd13ifvqckg","pricing_plan_id":"cebpf4jnsgd1na2vs0mg"},{"bike_id":"eb28c191-e5cc-4e35-8818-10ea0b1447e3","system_id":"levelo_inurba_marseille","lat":43.30305,"lon":5.36916,"is_reserved":false,"is_disabled":false,"rental_uris":{"android":"levelo://app?vid=eb28c191-e5cc-4e35-8818-10ea0b1447e3","ios":"levelo://app?vid=eb28c191-e5cc-4e35-8818-10ea0b1447e3"},"vehicle_type_id":"4","last_reported":1729465772,"current_range_meters":38800,"station_id":"ce4bgqh2rcd13ifvqc5g","pricing_plan_id":"cebpf4jnsgd1na2vs0mg"},{"bike_id":"0e91db8a-6d75-446d-abe7-8c30bd1e270b","system_id":"levelo_inurba_marseille","lat":43.26941,"lon":5.40245,"is_reserved":false,"is_disabled":false,"rental_uris":{"android":"levelo://app?vid=0e91db8a-6d75-446d-abe7-8c30bd1e270b","ios":"levelo://app?vid=0e91db8a-6d75-446d-abe7-8c30bd1e270b"},"vehicle_type_id":"4","last_reported":1729465772,"current_range_meters":20800,"station_id":"cjm6bp8fraef2m0cb0m0","pricing_plan_id":"cebpf4jnsgd1na2vs0mg"},{"bike_id":"2afa9398-54a2-4161-bdfe-0b17240da32e","system_id":"levelo_inurba_marseille","lat":43.28702,"lon":5.3998,"is_reserved":false,"is_disabled":false,"rental_uris":{"android":"levelo://app?vid=2afa9398-54a2-4161-bdfe-0b17240da32e","ios":"levelo://app?vid=2afa9398-54a2-4161-bdfe-0b17240da32e"},"vehicle_type_id":"4","last_reported":1729465772,"current_range_meters":38800,"station_id":"ce4bho92rcd13ifvqh3g","pricing_plan_id":"cebpf4jnsgd1na2vs0mg"},{"bike_id":"8662eb95-69fb-4f96-bc45-6f001019953c","system_id":"levelo_inurba_marseille","lat":43.28456,"lon":5.35881,"is_reserved":false,"is_disabled":false,"rental_uris":{"android":"levelo://app?vid=8662eb95-69fb-4f96-bc45-6f001019953c","ios":"levelo://app?vid=8662eb95-69fb-4f96-bc45-6f001019953c"},"vehicle_type_id":"4","last_reported":1729465772,"current_range_meters":16800,"station_id":"ce4bhah2rcd13ifvqei0","pricing_plan_id":"cebpf4jnsgd1na2vs0mg"},{"bike_id":"e00bddb9-e130-415f-8267-d6dd2e715c3e","system_id":"levelo_inurba_marseille","lat":43.29787,"lon":5.39349,"is_reserved":false,"is_disabled":false,"rental_uris":{"android":"levelo://app?vid=e00bddb9-e130-415f-8267-d6dd2e715c3e","ios":"levelo://app?vid=e00bddb9-e130-415f-8267-d6dd2e715c3e"},"vehicle_type_id":"4","last_reported":1729465772,"current_range_meters":36400,"station_id":"chh1huq6cuj3fo74tm60","pricing_plan_id":"cebpf4jnsgd1na2vs0mg"},{"bike_id":"544588ac-9264-4072-9f1a-b69be7d61e62","system_id":"levelo_inurba_marseille","lat":43.2811,"lon":5.37834,"is_reserved":false,"is_disabled":false,"rental_uris":{"android":"levelo://app?vid=544588ac-9264-4072-9f1a-b69be7d61e62","ios":"levelo://app?vid=544588ac-9264-4072-9f1a-b69be7d61e62"},"vehicle_type_id":"4","last_reported":1729465772,"current_range_meters":39200,"station_id":"ce4bha12rcd13ifvqee0","pricing_plan_id":"cebpf4jnsgd1na2vs0mg"},{"bike_id":"931da876-d0ed-4146-82c7-6d132f483c10","system_id":"levelo_inurba_marseille","lat":43.32104,"lon":5.36778,"is_reserved":false,"is_disabled":false,"rental_uris":{"android":"levelo://app?vid=931da876-d0ed-4146-82c7-6d132f483c10","ios":"levelo://app?vid=931da876-d0ed-4146-82c7-6d132f483c10"},"vehicle_type_id":"4","last_reported":1729465772,"current_range_meters":38800,"station_id":"ce4bhrh2rcd13ifvqhug","pricing_plan_id":"cebpf4jnsgd1na2vs0mg"},{"bike_id":"a4705844-1af2-4926-b690-9542bead35e7","system_id":"levelo_inurba_marseille","lat":43.25865,"lon":5.39903,"is_reserved":false,"is_disabled":false,"rental_uris":{"android":"levelo://app?vid=a4705844-1af2-4926-b690-9542bead35e7","ios":"levelo://app?vid=a4705844-1af2-4926-b690-9542bead35e7"},"vehicle_type_id":"4","last_reported":1729465772,"current_range_meters":36000,"station_id":"ce4bhl92rcd13ifvqghg","pricing_plan_id":"cebpf4jnsgd1na2vs0mg"},{"bike_id":"2c262605-a444-40e1-8b27-6a2dcb95d67d","system_id":"levelo_inurba_marseille","lat":43.31763,"lon":5.39021,"is_reserved":false,"is_disabled":false,"rental_uris":{"android":"levelo://app?vid=2c262605-a444-40e1-8b27-6a2dcb95d67d","ios":"levelo://app?vid=2c262605-a444-40e1-8b27-6a2dcb95d67d"},"vehicle_type_id":"4","last_reported":1729465772,"current_range_meters":9200,"station_id":"ce4bhqp2rcd13ifvqhng","pricing_plan_id":"cebpf4jnsgd1na2vs0mg"},{"bike_id":"6eba1120-147e-4bac-b6d9-824faa8df75f","system_id":"levelo_inurba_marseille","lat":43.31331,"lon":5.397,"is_reserved":false,"is_disabled":false,"rental_uris":{"android":"levelo://app?vid=6eba1120-147e-4bac-b6d9-824faa8df75f","ios":"levelo://app?vid=6eba1120-147e-4bac-b6d9-824faa8df75f"},"vehicle_type_id":"4","last_reported":1729465772,"current_range_meters":32000,"station_id":"ce4bgvp2rcd13ifvqcu0","pricing_plan_id":"cebpf4jnsgd1na2vs0mg"},{"bike_id":"5d04c9cc-1ae5-496c-bf88-2b1d0367378b","system_id":"levelo_inurba_marseille","lat":43.31169,"lon":5.38731,"is_reserved":false,"is_disabled":false,"rental_uris":{"android":"levelo://app?vid=5d04c9cc-1ae5-496c-bf88-2b1d0367378b","ios":"levelo://app?vid=5d04c9cc-1ae5-496c-bf88-2b1d0367378b"},"vehicle_type_id":"4","last_reported":1729465772,"current_range_meters":35200,"station_id":"ce4bgv12rcd13ifvqcp0","pricing_plan_id":"cebpf4jnsgd1na2vs0mg"},{"bike_id":"b122dc9a-f1c9-4551-b961-b2f3ff369bcc","system_id":"levelo_inurba_marseille","lat":43.32335,"lon":5.40619,"is_reserved":false,"is_disabled":false,"rental_uris":{"android":"levelo://app?vid=b122dc9a-f1c9-4551-b961-b2f3ff369bcc","ios":"levelo://app?vid=b122dc9a-f1c9-4551-b961-b2f3ff369bcc"},"vehicle_type_id":"4","last_reported":1729465772,"current_range_meters":7200,"station_id":"ce4bhq92rcd13ifvqhjg","pricing_plan_id":"cebpf4jnsgd1na2vs0mg"},{"bike_id":"b5cd4a32-ddd1-4a1e-9b4c-b2d28ec47ac5","system_id":"levelo_inurba_marseille","lat":43.28105,"lon":5.37844,"is_reserved":false,"is_disabled":false,"rental_uris":{"android":"levelo://app?vid=b5cd4a32-ddd1-4a1e-9b4c-b2d28ec47ac5","ios":"levelo://app?vid=b5cd4a32-ddd1-4a1e-9b4c-b2d28ec47ac5"},"vehicle_type_id":"4","last_reported":1729465772,"current_range_meters":39200,"station_id":"ce4bha12rcd13ifvqee0","pricing_plan_id":"cebpf4jnsgd1na2vs0mg"},{"bike_id":"0c1c7708-b979-4d7e-982d-190e9148b9a6","system_id":"levelo_inurba_marseille","lat":43.2668,"lon":5.38274,"is_reserved":false,"is_disabled":false,"rental_uris":{"android":"levelo://app?vid=0c1c7708-b979-4d7e-982d-190e9148b9a6","ios":"levelo://app?vid=0c1c7708-b979-4d7e-982d-190e9148b9a6"},"vehicle_type_id":"4","last_reported":1729465772,"current_range_meters":37600,"station_id":"ce4bhg92rcd13ifvqf90","pricing_plan_id":"cebpf4jnsgd1na2vs0mg"},{"bike_id":"724c3898-fa40-46b5-a6ca-5091666cabb4","system_id":"levelo_inurba_marseille","lat":43.23202,"lon":5.35551,"is_reserved":false,"is_disabled":false,"rental_uris":{"android":"levelo://app?vid=724c3898-fa40-46b5-a6ca-5091666cabb4","ios":"levelo://app?vid=724c3898-fa40-46b5-a6ca-5091666cabb4"},"vehicle_type_id":"4","last_reported":1729465772,"current_range_meters":38800,"station_id":"ce4bhu92rcd13ifvqi70","pricing_plan_id":"cebpf4jnsgd1na2vs0mg"},{"bike_id":"ab10841d-8e42-41a8-a9b0-1a36ff5954cc","system_id":"levelo_inurba_marseille","lat":43.29276,"lon":5.40117,"is_reserved":false,"is_disabled":false,"rental_uris":{"android":"levelo://app?vid=ab10841d-8e42-41a8-a9b0-1a36ff5954cc","ios":"levelo://app?vid=ab10841d-8e42-41a8-a9b0-1a36ff5954cc"},"vehicle_type_id":"4","last_reported":1729465772,"current_range_meters":38400,"station_id":"ce4bh312rcd13ifvqdk0","pricing_plan_id":"cebpf4jnsgd1na2vs0mg"},{"bike_id":"6b578d3c-d134-48e2-9662-c2d97d97ea58","system_id":"levelo_inurba_marseille","lat":43.31993,"lon":5.38156,"is_reserved":false,"is_disabled":false,"rental_uris":{"android":"levelo://app?vid=6b578d3c-d134-48e2-9662-c2d97d97ea58","ios":"levelo://app?vid=6b578d3c-d134-48e2-9662-c2d97d97ea58"},"vehicle_type_id":"4","last_reported":1729465772,"current_range_meters":37600,"station_id":"ce4bhr12rcd13ifvqhpg","pricing_plan_id":"cebpf4jnsgd1na2vs0mg"},{"bike_id":"60054e84-c649-49a6-8a62-beec3c569f32","system_id":"levelo_inurba_marseille","lat":43.30215,"lon":5.3947,"is_reserved":false,"is_disabled":false,"rental_uris":{"android":"levelo://app?vid=60054e84-c649-49a6-8a62-beec3c569f32","ios":"levelo://app?vid=60054e84-c649-49a6-8a62-beec3c569f32"},"vehicle_type_id":"4","last_reported":1729465772,"current_range_meters":38800,"station_id":"ce4bh0p2rcd13ifvqd70","pricing_plan_id":"cebpf4jnsgd1na2vs0mg"},{"bike_id":"83341eed-4a77-4ec8-936f-2be77f1d3b59","system_id":"levelo_inurba_marseille","lat":43.30206,"lon":5.39454,"is_reserved":false,"is_disabled":false,"rental_uris":{"android":"levelo://app?vid=83341eed-4a77-4ec8-936f-2be77f1d3b59","ios":"levelo://app?vid=83341eed-4a77-4ec8-936f-2be77f1d3b59"},"vehicle_type_id":"4","last_reported":1729465772,"current_range_meters":35600,"station_id":"ce4bh0p2rcd13ifvqd70","pricing_plan_id":"cebpf4jnsgd1na2vs0mg"},{"bike_id":"e6fe4940-a098-49cc-8d38-77b9bd14611a","system_id":"levelo_inurba_marseille","lat":43.32112,"lon":5.36766,"is_reserved":false,"is_disabled":false,"rental_uris":{"android":"levelo://app?vid=e6fe4940-a098-49cc-8d38-77b9bd14611a","ios":"levelo://app?vid=e6fe4940-a098-49cc-8d38-77b9bd14611a"},"vehicle_type_id":"4","last_reported":1729465772,"current_range_meters":24400,"station_id":"ce4bhrh2rcd13ifvqhug","pricing_plan_id":"cebpf4jnsgd1na2vs0mg"},{"bike_id":"813f8a68-8dee-42ee-821c-e07a4137856f","system_id":"levelo_inurba_marseille","lat":43.27903,"lon":5.38016,"is_reserved":false,"is_disabled":false,"rental_uris":{"android":"levelo://app?vid=813f8a68-8dee-42ee-821c-e07a4137856f","ios":"levelo://app?vid=813f8a68-8dee-42ee-821c-e07a4137856f"},"vehicle_type_id":"4","last_reported":1729465772,"current_range_meters":9200,"station_id":"ce4bhf92rcd13ifvqf50","pricing_plan_id":"cebpf4jnsgd1na2vs0mg"},{"bike_id":"a26636ff-e6a9-465f-8584-c6bc1fb9aacd","system_id":"levelo_inurba_marseille","lat":43.28721,"lon":5.37948,"is_reserved":false,"is_disabled":false,"rental_uris":{"android":"levelo://app?vid=a26636ff-e6a9-465f-8584-c6bc1fb9aacd","ios":"levelo://app?vid=a26636ff-e6a9-465f-8584-c6bc1fb9aacd"},"vehicle_type_id":"4","last_reported":1729465772,"current_range_meters":38800,"station_id":"ce4bh9p2rcd13ifvqec0","pricing_plan_id":"cebpf4jnsgd1na2vs0mg"},{"bike_id":"563e8b6a-b39c-4c88-b0b1-c1b2277ee1d9","system_id":"levelo_inurba_marseille","lat":43.28106,"lon":5.37846,"is_reserved":false,"is_disabled":false,"rental_uris":{"android":"levelo://app?vid=563e8b6a-b39c-4c88-b0b1-c1b2277ee1d9","ios":"levelo://app?vid=563e8b6a-b39c-4c88-b0b1-c1b2277ee1d9"},"vehicle_type_id":"4","last_reported":1729465772,"current_range_meters":22000,"station_id":"ce4bha12rcd13ifvqee0","pricing_plan_id":"cebpf4jnsgd1na2vs0mg"},{"bike_id":"df0bb63b-7fea-4a2d-8350-fd6ac8120cce","system_id":"levelo_inurba_marseille","lat":43.292547,"lon":5.409107,"is_reserved":false,"is_disabled":false,"rental_uris":{"android":"levelo://app?vid=df0bb63b-7fea-4a2d-8350-fd6ac8120cce","ios":"levelo://app?vid=df0bb63b-7fea-4a2d-8350-fd6ac8120cce"},"vehicle_type_id":"4","last_reported":1729465772,"current_range_meters":11200,"station_id":"ce4bh192rcd13ifvqdc0","pricing_plan_id":"cebpf4jnsgd1na2vs0mg"},{"bike_id":"f3b18d4c-688e-4e02-9104-7f1d559134af","system_id":"levelo_inurba_marseille","lat":43.32081,"lon":5.36763,"is_reserved":false,"is_disabled":false,"rental_uris":{"android":"levelo://app?vid=f3b18d4c-688e-4e02-9104-7f1d559134af","ios":"levelo://app?vid=f3b18d4c-688e-4e02-9104-7f1d559134af"},"vehicle_type_id":"4","last_reported":1729465772,"current_range_meters":34000,"station_id":"ce4bhrh2rcd13ifvqhug","pricing_plan_id":"cebpf4jnsgd1na2vs0mg"},{"bike_id":"8ee97442-5f9f-4f16-b15a-1e32c3342e44","system_id":"levelo_inurba_marseille","lat":43.28459,"lon":5.35888,"is_reserved":false,"is_disabled":false,"rental_uris":{"android":"levelo://app?vid=8ee97442-5f9f-4f16-b15a-1e32c3342e44","ios":"levelo://app?vid=8ee97442-5f9f-4f16-b15a-1e32c3342e44"},"vehicle_type_id":"4","last_reported":1729465772,"current_range_meters":23200,"station_id":"ce4bhah2rcd13ifvqei0","pricing_plan_id":"cebpf4jnsgd1na2vs0mg"},{"bike_id":"25252b69-c091-491c-a660-be5f87809b76","system_id":"levelo_inurba_marseille","lat":43.25089,"lon":5.39506,"is_reserved":false,"is_disabled":false,"rental_uris":{"android":"levelo://app?vid=25252b69-c091-491c-a660-be5f87809b76","ios":"levelo://app?vid=25252b69-c091-491c-a660-be5f87809b76"},"vehicle_type_id":"4","last_reported":1729465772,"current_range_meters":35600,"station_id":"ce4bhm12rcd13ifvqgkg","pricing_plan_id":"cebpf4jnsgd1na2vs0mg"},{"bike_id":"062124db-4122-4fdd-9a6e-6533ec2073f0","system_id":"levelo_inurba_marseille","lat":43.23175,"lon":5.43731,"is_reserved":false,"is_disabled":false,"rental_uris":{"android":"levelo://app?vid=062124db-4122-4fdd-9a6e-6533ec2073f0","ios":"levelo://app?vid=062124db-4122-4fdd-9a6e-6533ec2073f0"},"vehicle_type_id":"4","last_reported":1729465772,"current_range_meters":10800,"station_id":"ce4bhmp2rcd13ifvqgog","pricing_plan_id":"cebpf4jnsgd1na2vs0mg"},{"bike_id":"cc36c76b-afac-4d90-87ad-c1ef90269180","system_id":"levelo_inurba_marseille","lat":43.25118,"lon":5.40325,"is_reserved":false,"is_disabled":false,"rental_uris":{"android":"levelo://app?vid=cc36c76b-afac-4d90-87ad-c1ef90269180","ios":"levelo://app?vid=cc36c76b-afac-4d90-87ad-c1ef90269180"},"vehicle_type_id":"4","last_reported":1729465772,"current_range_meters":27600,"station_id":"ce4bhlh2rcd13ifvqgig","pricing_plan_id":"cebpf4jnsgd1na2vs0mg"},{"bike_id":"7edb78b4-ac37-4dc6-ba53-f4bc85e5e3ea","system_id":"levelo_inurba_marseille","lat":43.31281,"lon":5.40159,"is_reserved":false,"is_disabled":false,"rental_uris":{"android":"levelo://app?vid=7edb78b4-ac37-4dc6-ba53-f4bc85e5e3ea","ios":"levelo://app?vid=7edb78b4-ac37-4dc6-ba53-f4bc85e5e3ea"},"vehicle_type_id":"4","last_reported":1729465772,"current_range_meters":39200,"station_id":"ce4bh092rcd13ifvqd30","pricing_plan_id":"cebpf4jnsgd1na2vs0mg"},{"bike_id":"f4136449-9460-4030-a711-33bcf5b01ae1","system_id":"levelo_inurba_marseille","lat":43.286691,"lon":5.36357,"is_reserved":false,"is_disabled":false,"rental_uris":{"android":"levelo://app?vid=f4136449-9460-4030-a711-33bcf5b01ae1","ios":"levelo://app?vid=f4136449-9460-4030-a711-33bcf5b01ae1"},"vehicle_type_id":"4","last_reported":1729465772,"current_range_meters":38400,"station_id":"ce4bhah2rcd13ifvqej0","pricing_plan_id":"cebpf4jnsgd1na2vs0mg"},{"bike_id":"3bf2ae1c-49b2-4936-93d0-295eb17bee45","system_id":"levelo_inurba_marseille","lat":43.23063,"lon":5.35488,"is_reserved":false,"is_disabled":false,"rental_uris":{"android":"levelo://app?vid=3bf2ae1c-49b2-4936-93d0-295eb17bee45","ios":"levelo://app?vid=3bf2ae1c-49b2-4936-93d0-295eb17bee45"},"vehicle_type_id":"4","last_reported":1729465772,"current_range_meters":38800,"station_id":"cpo3342slgdg3j2ifvpg","pricing_plan_id":"cebpf4jnsgd1na2vs0mg"},{"bike_id":"a4bf4c37-492b-43fb-8327-d4e18ba08dac","system_id":"levelo_inurba_marseille","lat":43.28267,"lon":5.3506,"is_reserved":false,"is_disabled":false,"rental_uris":{"android":"levelo://app?vid=a4bf4c37-492b-43fb-8327-d4e18ba08dac","ios":"levelo://app?vid=a4bf4c37-492b-43fb-8327-d4e18ba08dac"},"vehicle_type_id":"4","last_reported":1729465772,"current_range_meters":36400,"station_id":"ce4bhbp2rcd13ifvqerg","pricing_plan_id":"cebpf4jnsgd1na2vs0mg"},{"bike_id":"df22b311-39fc-43e3-865f-9c014d6f9eb7","system_id":"levelo_inurba_marseille","lat":43.30326,"lon":5.40442,"is_reserved":false,"is_disabled":false,"rental_uris":{"android":"levelo://app?vid=df22b311-39fc-43e3-865f-9c014d6f9eb7","ios":"levelo://app?vid=df22b311-39fc-43e3-865f-9c014d6f9eb7"},"vehicle_type_id":"4","last_reported":1729465772,"current_range_meters":33600,"station_id":"ce4bh012rcd13ifvqd10","pricing_plan_id":"cebpf4jnsgd1na2vs0mg"},{"bike_id":"666e0536-0420-4706-8e49-6450568c8c72","system_id":"levelo_inurba_marseille","lat":43.28571,"lon":5.39497,"is_reserved":false,"is_disabled":false,"rental_uris":{"android":"levelo://app?vid=666e0536-0420-4706-8e49-6450568c8c72","ios":"levelo://app?vid=666e0536-0420-4706-8e49-6450568c8c72"},"vehicle_type_id":"4","last_reported":1729465772,"current_range_meters":39200,"station_id":"ce4bh292rcd13ifvqdg0","pricing_plan_id":"cebpf4jnsgd1na2vs0mg"},{"bike_id":"ea93ad3b-2f63-4f71-9050-1fa0b897a3ad","system_id":"levelo_inurba_marseille","lat":43.27569,"lon":5.38412,"is_reserved":false,"is_disabled":false,"rental_uris":{"android":"levelo://app?vid=ea93ad3b-2f63-4f71-9050-1fa0b897a3ad","ios":"levelo://app?vid=ea93ad3b-2f63-4f71-9050-1fa0b897a3ad"},"vehicle_type_id":"4","last_reported":1729465772,"current_range_meters":23200,"station_id":"ce4bhh92rcd13ifvqfi0","pricing_plan_id":"cebpf4jnsgd1na2vs0mg"},{"bike_id":"72227f72-be48-4182-8659-01fea53b4691","system_id":"levelo_inurba_marseille","lat":43.28359,"lon":5.38632,"is_reserved":false,"is_disabled":false,"rental_uris":{"android":"levelo://app?vid=72227f72-be48-4182-8659-01fea53b4691","ios":"levelo://app?vid=72227f72-be48-4182-8659-01fea53b4691"},"vehicle_type_id":"4","last_reported":1729465772,"current_range_meters":8400,"station_id":"ce4bh492rcd13ifvqdvg","pricing_plan_id":"cebpf4jnsgd1na2vs0mg"},{"bike_id":"684997cb-a782-4cca-a670-ca233ed67c97","system_id":"levelo_inurba_marseille","lat":43.26549,"lon":5.3729,"is_reserved":false,"is_disabled":false,"rental_uris":{"android":"levelo://app?vid=684997cb-a782-4cca-a670-ca233ed67c97","ios":"levelo://app?vid=684997cb-a782-4cca-a670-ca233ed67c97"},"vehicle_type_id":"4","last_reported":1729465772,"current_range_meters":38800,"station_id":"ce4bhg12rcd13ifvqf70","pricing_plan_id":"cebpf4jnsgd1na2vs0mg"},{"bike_id":"62738b42-4d14-4992-87b3-65556f57f437","system_id":"levelo_inurba_marseille","lat":43.24386,"lon":5.37068,"is_reserved":false,"is_disabled":false,"rental_uris":{"android":"levelo://app?vid=62738b42-4d14-4992-87b3-65556f57f437","ios":"levelo://app?vid=62738b42-4d14-4992-87b3-65556f57f437"},"vehicle_type_id":"4","last_reported":1729465772,"current_range_meters":30800,"station_id":"ce4bhhh2rcd13ifvqfk0","pricing_plan_id":"cebpf4jnsgd1na2vs0mg"},{"bike_id":"f9f0e3bf-b1d4-410a-aae4-2168cc4371c1","system_id":"levelo_inurba_marseille","lat":43.28472,"lon":5.38416,"is_reserved":false,"is_disabled":false,"rental_uris":{"android":"levelo://app?vid=f9f0e3bf-b1d4-410a-aae4-2168cc4371c1","ios":"levelo://app?vid=f9f0e3bf-b1d4-410a-aae4-2168cc4371c1"},"vehicle_type_id":"4","last_reported":1729465772,"current_range_meters":38000,"station_id":"ce4bh512rcd13ifvqe3g","pricing_plan_id":"cebpf4jnsgd1na2vs0mg"},{"bike_id":"3208a7db-b2ba-42d5-b984-b06e7befcf38","system_id":"levelo_inurba_marseille","lat":43.31083,"lon":5.38356,"is_reserved":false,"is_disabled":false,"rental_uris":{"android":"levelo://app?vid=3208a7db-b2ba-42d5-b984-b06e7befcf38","ios":"levelo://app?vid=3208a7db-b2ba-42d5-b984-b06e7befcf38"},"vehicle_type_id":"4","last_reported":1729465772,"current_range_meters":38800,"station_id":"ce4bgv92rcd13ifvqcr0","pricing_plan_id":"cebpf4jnsgd1na2vs0mg"},{"bike_id":"a83a29fa-d202-4699-a5c6-67b8bf760a1e","system_id":"levelo_inurba_marseille","lat":43.306593,"lon":5.4009,"is_reserved":false,"is_disabled":false,"rental_uris":{"android":"levelo://app?vid=a83a29fa-d202-4699-a5c6-67b8bf760a1e","ios":"levelo://app?vid=a83a29fa-d202-4699-a5c6-67b8bf760a1e"},"vehicle_type_id":"4","last_reported":1729465772,"current_range_meters":38800,"station_id":"ce4bh112rcd13ifvqda0","pricing_plan_id":"cebpf4jnsgd1na2vs0mg"},{"bike_id":"1e489223-3fd9-4459-a32e-233b3b82752f","system_id":"levelo_inurba_marseille","lat":43.2694,"lon":5.40248,"is_reserved":false,"is_disabled":false,"rental_uris":{"android":"levelo://app?vid=1e489223-3fd9-4459-a32e-233b3b82752f","ios":"levelo://app?vid=1e489223-3fd9-4459-a32e-233b3b82752f"},"vehicle_type_id":"4","last_reported":1729465772,"current_range_meters":39200,"station_id":"cjm6bp8fraef2m0cb0m0","pricing_plan_id":"cebpf4jnsgd1na2vs0mg"},{"bike_id":"342bb506-8e82-4fe8-8123-2298181f1aa1","system_id":"levelo_inurba_marseille","lat":43.30797,"lon":5.38167,"is_reserved":false,"is_disabled":false,"rental_uris":{"android":"levelo://app?vid=342bb506-8e82-4fe8-8123-2298181f1aa1","ios":"levelo://app?vid=342bb506-8e82-4fe8-8123-2298181f1aa1"},"vehicle_type_id":"4","last_reported":1729465772,"current_range_meters":34800,"station_id":"","pricing_plan_id":"cebpf4jnsgd1na2vs0mg"},{"bike_id":"49f034c7-bcc2-44a1-a2c0-c64d1cae1fa9","system_id":"levelo_inurba_marseille","lat":43.276163,"lon":5.36118,"is_reserved":false,"is_disabled":false,"rental_uris":{"android":"levelo://app?vid=49f034c7-bcc2-44a1-a2c0-c64d1cae1fa9","ios":"levelo://app?vid=49f034c7-bcc2-44a1-a2c0-c64d1cae1fa9"},"vehicle_type_id":"4","last_reported":1729465772,"current_range_meters":38800,"station_id":"ce4bgj92rcd13ifvqbe0","pricing_plan_id":"cebpf4jnsgd1na2vs0mg"},{"bike_id":"62fbe90b-a9cf-4737-96e1-249789b420f5","system_id":"levelo_inurba_marseille","lat":43.30353,"lon":5.41881,"is_reserved":false,"is_disabled":false,"rental_uris":{"android":"levelo://app?vid=62fbe90b-a9cf-4737-96e1-249789b420f5","ios":"levelo://app?vid=62fbe90b-a9cf-4737-96e1-249789b420f5"},"vehicle_type_id":"4","last_reported":1729465772,"current_range_meters":40000,"station_id":"ce4bhop2rcd13ifvqh7g","pricing_plan_id":"cebpf4jnsgd1na2vs0mg"},{"bike_id":"b5ae519b-5794-414a-b2ef-3ac24bc66676","system_id":"levelo_inurba_marseille","lat":43.28616,"lon":5.35102,"is_reserved":false,"is_disabled":false,"rental_uris":{"android":"levelo://app?vid=b5ae519b-5794-414a-b2ef-3ac24bc66676","ios":"levelo://app?vid=b5ae519b-5794-414a-b2ef-3ac24bc66676"},"vehicle_type_id":"4","last_reported":1729465772,"current_range_meters":25200,"station_id":"ce4bhch2rcd13ifvqeug","pricing_plan_id":"cebpf4jnsgd1na2vs0mg"},{"bike_id":"0d1237ca-7274-46a6-af1f-0faf0000e3a2","system_id":"levelo_inurba_marseille","lat":43.31171,"lon":5.38712,"is_reserved":false,"is_disabled":false,"rental_uris":{"android":"levelo://app?vid=0d1237ca-7274-46a6-af1f-0faf0000e3a2","ios":"levelo://app?vid=0d1237ca-7274-46a6-af1f-0faf0000e3a2"},"vehicle_type_id":"4","last_reported":1729465772,"current_range_meters":8800,"station_id":"ce4bgv12rcd13ifvqcp0","pricing_plan_id":"cebpf4jnsgd1na2vs0mg"},{"bike_id":"dbf68aea-e20b-4861-ab7c-4153553e047b","system_id":"levelo_inurba_marseille","lat":43.28696,"lon":5.39986,"is_reserved":false,"is_disabled":false,"rental_uris":{"android":"levelo://app?vid=dbf68aea-e20b-4861-ab7c-4153553e047b","ios":"levelo://app?vid=dbf68aea-e20b-4861-ab7c-4153553e047b"},"vehicle_type_id":"4","last_reported":1729465772,"current_range_meters":28000,"station_id":"ce4bho92rcd13ifvqh3g","pricing_plan_id":"cebpf4jnsgd1na2vs0mg"},{"bike_id":"639cf9d6-ef22-4646-a7a7-04edb947934a","system_id":"levelo_inurba_marseille","lat":43.29193,"lon":5.39326,"is_reserved":false,"is_disabled":false,"rental_uris":{"android":"levelo://app?vid=639cf9d6-ef22-4646-a7a7-04edb947934a","ios":"levelo://app?vid=639cf9d6-ef22-4646-a7a7-04edb947934a"},"vehicle_type_id":"4","last_reported":1729465772,"current_range_meters":39200,"station_id":"ce4bh192rcd13ifvqdd0","pricing_plan_id":"cebpf4jnsgd1na2vs0mg"},{"bike_id":"a5f4198d-b10a-4392-bfb6-f2d38359fb82","system_id":"levelo_inurba_marseille","lat":43.23171,"lon":5.4373,"is_reserved":false,"is_disabled":false,"rental_uris":{"android":"levelo://app?vid=a5f4198d-b10a-4392-bfb6-f2d38359fb82","ios":"levelo://app?vid=a5f4198d-b10a-4392-bfb6-f2d38359fb82"},"vehicle_type_id":"4","last_reported":1729465772,"current_range_meters":10800,"station_id":"ce4bhmp2rcd13ifvqgog","pricing_plan_id":"cebpf4jnsgd1na2vs0mg"},{"bike_id":"418bd683-b6c0-4394-90d1-454d0664a04c","system_id":"levelo_inurba_marseille","lat":43.33608,"lon":5.41022,"is_reserved":false,"is_disabled":false,"rental_uris":{"android":"levelo://app?vid=418bd683-b6c0-4394-90d1-454d0664a04c","ios":"levelo://app?vid=418bd683-b6c0-4394-90d1-454d0664a04c"},"vehicle_type_id":"4","last_reported":1729465772,"current_range_meters":37600,"station_id":"ce4bhqh2rcd13ifvqhmg","pricing_plan_id":"cebpf4jnsgd1na2vs0mg"},{"bike_id":"1f300510-7ba6-40d0-9830-6ef332a1f9ab","system_id":"levelo_inurba_marseille","lat":43.3022,"lon":5.39459,"is_reserved":false,"is_disabled":false,"rental_uris":{"android":"levelo://app?vid=1f300510-7ba6-40d0-9830-6ef332a1f9ab","ios":"levelo://app?vid=1f300510-7ba6-40d0-9830-6ef332a1f9ab"},"vehicle_type_id":"4","last_reported":1729465772,"current_range_meters":25200,"station_id":"ce4bh0p2rcd13ifvqd70","pricing_plan_id":"cebpf4jnsgd1na2vs0mg"},{"bike_id":"aaf6b3b0-6fb9-4153-bb37-57af18ec9484","system_id":"levelo_inurba_marseille","lat":43.27669,"lon":5.38912,"is_reserved":false,"is_disabled":false,"rental_uris":{"android":"levelo://app?vid=aaf6b3b0-6fb9-4153-bb37-57af18ec9484","ios":"levelo://app?vid=aaf6b3b0-6fb9-4153-bb37-57af18ec9484"},"vehicle_type_id":"4","last_reported":1729465772,"current_range_meters":30000,"station_id":"ce4bhi12rcd13ifvqfo0","pricing_plan_id":"cebpf4jnsgd1na2vs0mg"},{"bike_id":"81054c37-140d-4004-8fbb-6023ca4a93e9","system_id":"levelo_inurba_marseille","lat":43.27368,"lon":5.36251,"is_reserved":false,"is_disabled":false,"rental_uris":{"android":"levelo://app?vid=81054c37-140d-4004-8fbb-6023ca4a93e9","ios":"levelo://app?vid=81054c37-140d-4004-8fbb-6023ca4a93e9"},"vehicle_type_id":"4","last_reported":1729465772,"current_range_meters":38800,"station_id":"ce4bhbh2rcd13ifvqeo0","pricing_plan_id":"cebpf4jnsgd1na2vs0mg"},{"bike_id":"f59a9b71-873d-44f4-891e-235d78219f75","system_id":"levelo_inurba_marseille","lat":43.28709,"lon":5.3998,"is_reserved":false,"is_disabled":false,"rental_uris":{"android":"levelo://app?vid=f59a9b71-873d-44f4-891e-235d78219f75","ios":"levelo://app?vid=f59a9b71-873d-44f4-891e-235d78219f75"},"vehicle_type_id":"4","last_reported":1729465772,"current_range_meters":9200,"station_id":"ce4bho92rcd13ifvqh3g","pricing_plan_id":"cebpf4jnsgd1na2vs0mg"},{"bike_id":"09f6d023-807b-48b8-aeb1-b94eaf409ef5","system_id":"levelo_inurba_marseille","lat":43.30807,"lon":5.38149,"is_reserved":false,"is_disabled":false,"rental_uris":{"android":"levelo://app?vid=09f6d023-807b-48b8-aeb1-b94eaf409ef5","ios":"levelo://app?vid=09f6d023-807b-48b8-aeb1-b94eaf409ef5"},"vehicle_type_id":"4","last_reported":1729465772,"current_range_meters":28800,"station_id":"ce4bgt12rcd13ifvqce0","pricing_plan_id":"cebpf4jnsgd1na2vs0mg"},{"bike_id":"ad307bb1-f6ea-455c-b2a6-02dce15ca1fd","system_id":"levelo_inurba_marseille","lat":43.31177,"lon":5.38725,"is_reserved":false,"is_disabled":false,"rental_uris":{"android":"levelo://app?vid=ad307bb1-f6ea-455c-b2a6-02dce15ca1fd","ios":"levelo://app?vid=ad307bb1-f6ea-455c-b2a6-02dce15ca1fd"},"vehicle_type_id":"4","last_reported":1729465772,"current_range_meters":36800,"station_id":"ce4bgv12rcd13ifvqcp0","pricing_plan_id":"cebpf4jnsgd1na2vs0mg"},{"bike_id":"92d49266-4e64-4017-8b59-4b1b0cb8630d","system_id":"levelo_inurba_marseille","lat":43.31707,"lon":5.37759,"is_reserved":false,"is_disabled":false,"rental_uris":{"android":"levelo://app?vid=92d49266-4e64-4017-8b59-4b1b0cb8630d","ios":"levelo://app?vid=92d49266-4e64-4017-8b59-4b1b0cb8630d"},"vehicle_type_id":"4","last_reported":1729465772,"current_range_meters":38800,"station_id":"ce4bgth2rcd13ifvqch0","pricing_plan_id":"cebpf4jnsgd1na2vs0mg"},{"bike_id":"ca9652e1-b360-4039-a82c-ba9272ccce60","system_id":"levelo_inurba_marseille","lat":43.31757,"lon":5.3902,"is_reserved":false,"is_disabled":false,"rental_uris":{"android":"levelo://app?vid=ca9652e1-b360-4039-a82c-ba9272ccce60","ios":"levelo://app?vid=ca9652e1-b360-4039-a82c-ba9272ccce60"},"vehicle_type_id":"4","last_reported":1729465772,"current_range_meters":36800,"station_id":"ce4bhqp2rcd13ifvqhng","pricing_plan_id":"cebpf4jnsgd1na2vs0mg"},{"bike_id":"793ff2d7-a5dc-4d9d-9815-f76b562bbd13","system_id":"levelo_inurba_marseille","lat":43.28478,"lon":5.38412,"is_reserved":false,"is_disabled":false,"rental_uris":{"android":"levelo://app?vid=793ff2d7-a5dc-4d9d-9815-f76b562bbd13","ios":"levelo://app?vid=793ff2d7-a5dc-4d9d-9815-f76b562bbd13"},"vehicle_type_id":"4","last_reported":1729465772,"current_range_meters":35600,"station_id":"ce4bh512rcd13ifvqe3g","pricing_plan_id":"cebpf4jnsgd1na2vs0mg"},{"bike_id":"4881d9a4-a477-421a-a7fd-7c7ccd2627fd","system_id":"levelo_inurba_marseille","lat":43.24663,"lon":5.38168,"is_reserved":false,"is_disabled":false,"rental_uris":{"android":"levelo://app?vid=4881d9a4-a477-421a-a7fd-7c7ccd2627fd","ios":"levelo://app?vid=4881d9a4-a477-421a-a7fd-7c7ccd2627fd"},"vehicle_type_id":"4","last_reported":1729465772,"current_range_meters":28800,"station_id":"ce4bhih2rcd13ifvqfr0","pricing_plan_id":"cebpf4jnsgd1na2vs0mg"},{"bike_id":"b8f4721c-b360-42ee-a134-767990a83210","system_id":"levelo_inurba_marseille","lat":43.28954,"lon":5.39646,"is_reserved":false,"is_disabled":false,"rental_uris":{"android":"levelo://app?vid=b8f4721c-b360-42ee-a134-767990a83210","ios":"levelo://app?vid=b8f4721c-b360-42ee-a134-767990a83210"},"vehicle_type_id":"4","last_reported":1729465772,"current_range_meters":28400,"station_id":"ce4bh3h2rcd13ifvqdn0","pricing_plan_id":"cebpf4jnsgd1na2vs0mg"},{"bike_id":"0c76e86e-401c-46ad-a4d9-6a511692ed21","system_id":"levelo_inurba_marseille","lat":43.28728,"lon":5.36075,"is_reserved":false,"is_disabled":false,"rental_uris":{"android":"levelo://app?vid=0c76e86e-401c-46ad-a4d9-6a511692ed21","ios":"levelo://app?vid=0c76e86e-401c-46ad-a4d9-6a511692ed21"},"vehicle_type_id":"4","last_reported":1729465772,"current_range_meters":38800,"station_id":"cki0cbj6b192h4jlfktg","pricing_plan_id":"cebpf4jnsgd1na2vs0mg"},{"bike_id":"8c489d6a-8c5d-4ace-8ce1-8ade01fdb678","system_id":"levelo_inurba_marseille","lat":43.26686,"lon":5.38276,"is_reserved":false,"is_disabled":false,"rental_uris":{"android":"levelo://app?vid=8c489d6a-8c5d-4ace-8ce1-8ade01fdb678","ios":"levelo://app?vid=8c489d6a-8c5d-4ace-8ce1-8ade01fdb678"},"vehicle_type_id":"4","last_reported":1729465772,"current_range_meters":38800,"station_id":"ce4bhg92rcd13ifvqf90","pricing_plan_id":"cebpf4jnsgd1na2vs0mg"},{"bike_id":"9f9a5bdb-4b79-4b43-b005-b6477f61c09a","system_id":"levelo_inurba_marseille","lat":43.28105,"lon":5.37841,"is_reserved":false,"is_disabled":false,"rental_uris":{"android":"levelo://app?vid=9f9a5bdb-4b79-4b43-b005-b6477f61c09a","ios":"levelo://app?vid=9f9a5bdb-4b79-4b43-b005-b6477f61c09a"},"vehicle_type_id":"4","last_reported":1729465772,"current_range_meters":16400,"station_id":"ce4bha12rcd13ifvqee0","pricing_plan_id":"cebpf4jnsgd1na2vs0mg"},{"bike_id":"534ec724-4af1-49c2-9f5f-32fdcd90e90b","system_id":"levelo_inurba_marseille","lat":43.30525,"lon":5.36701,"is_reserved":false,"is_disabled":false,"rental_uris":{"android":"levelo://app?vid=534ec724-4af1-49c2-9f5f-32fdcd90e90b","ios":"levelo://app?vid=534ec724-4af1-49c2-9f5f-32fdcd90e90b"},"vehicle_type_id":"4","last_reported":1729465772,"current_range_meters":6800,"station_id":"ce4bgrp2rcd13ifvqc9g","pricing_plan_id":"cebpf4jnsgd1na2vs0mg"},{"bike_id":"801193c7-ab94-40a3-86df-c8357b8f3709","system_id":"levelo_inurba_marseille","lat":43.28829,"lon":5.39315,"is_reserved":false,"is_disabled":false,"rental_uris":{"android":"levelo://app?vid=801193c7-ab94-40a3-86df-c8357b8f3709","ios":"levelo://app?vid=801193c7-ab94-40a3-86df-c8357b8f3709"},"vehicle_type_id":"4","last_reported":1729465772,"current_range_meters":26800,"station_id":"ce4bh2p2rcd13ifvqdi0","pricing_plan_id":"cebpf4jnsgd1na2vs0mg"},{"bike_id":"e29e816e-fb6a-4a05-877f-741f2615a7bc","system_id":"levelo_inurba_marseille","lat":43.33724,"lon":5.39186,"is_reserved":false,"is_disabled":false,"rental_uris":{"android":"levelo://app?vid=e29e816e-fb6a-4a05-877f-741f2615a7bc","ios":"levelo://app?vid=e29e816e-fb6a-4a05-877f-741f2615a7bc"},"vehicle_type_id":"4","last_reported":1729465772,"current_range_meters":39200,"station_id":"ce4bhr92rcd13ifvqhsg","pricing_plan_id":"cebpf4jnsgd1na2vs0mg"},{"bike_id":"155c73a8-7a75-4cf5-8dba-017be9adeec6","system_id":"levelo_inurba_marseille","lat":43.30803,"lon":5.38163,"is_reserved":false,"is_disabled":false,"rental_uris":{"android":"levelo://app?vid=155c73a8-7a75-4cf5-8dba-017be9adeec6","ios":"levelo://app?vid=155c73a8-7a75-4cf5-8dba-017be9adeec6"},"vehicle_type_id":"4","last_reported":1729465772,"current_range_meters":38400,"station_id":"ce4bgt12rcd13ifvqce0","pricing_plan_id":"cebpf4jnsgd1na2vs0mg"},{"bike_id":"ad0eed84-f052-4338-9abd-22fdc8ad8e05","system_id":"levelo_inurba_marseille","lat":43.23182,"lon":5.39989,"is_reserved":false,"is_disabled":false,"rental_uris":{"android":"levelo://app?vid=ad0eed84-f052-4338-9abd-22fdc8ad8e05","ios":"levelo://app?vid=ad0eed84-f052-4338-9abd-22fdc8ad8e05"},"vehicle_type_id":"4","last_reported":1729465772,"current_range_meters":38800,"station_id":"ce4bhn12rcd13ifvqgqg","pricing_plan_id":"cebpf4jnsgd1na2vs0mg"},{"bike_id":"2e03f4fe-b964-41c0-b585-2a6fe4a2e513","system_id":"levelo_inurba_marseille","lat":43.310696,"lon":5.400966,"is_reserved":false,"is_disabled":false,"rental_uris":{"android":"levelo://app?vid=2e03f4fe-b964-41c0-b585-2a6fe4a2e513","ios":"levelo://app?vid=2e03f4fe-b964-41c0-b585-2a6fe4a2e513"},"vehicle_type_id":"4","last_reported":1729465772,"current_range_meters":38800,"station_id":"","pricing_plan_id":"cebpf4jnsgd1na2vs0mg"},{"bike_id":"9e50ddf5-d637-4525-b763-b55dde260082","system_id":"levelo_inurba_marseille","lat":43.24072,"lon":5.37758,"is_reserved":false,"is_disabled":false,"rental_uris":{"android":"levelo://app?vid=9e50ddf5-d637-4525-b763-b55dde260082","ios":"levelo://app?vid=9e50ddf5-d637-4525-b763-b55dde260082"},"vehicle_type_id":"4","last_reported":1729465772,"current_range_meters":9200,"station_id":"ce4bhnp2rcd13ifvqgvg","pricing_plan_id":"cebpf4jnsgd1na2vs0mg"},{"bike_id":"c509e7d0-43c4-428c-88b1-e04066c8428a","system_id":"levelo_inurba_marseille","lat":43.31763,"lon":5.39013,"is_reserved":false,"is_disabled":false,"rental_uris":{"android":"levelo://app?vid=c509e7d0-43c4-428c-88b1-e04066c8428a","ios":"levelo://app?vid=c509e7d0-43c4-428c-88b1-e04066c8428a"},"vehicle_type_id":"4","last_reported":1729465772,"current_range_meters":22400,"station_id":"ce4bhqp2rcd13ifvqhng","pricing_plan_id":"cebpf4jnsgd1na2vs0mg"},{"bike_id":"09c742b9-67aa-44f1-b833-7cf3d42021e8","system_id":"levelo_inurba_marseille","lat":43.2558,"lon":5.38235,"is_reserved":false,"is_disabled":false,"rental_uris":{"android":"levelo://app?vid=09c742b9-67aa-44f1-b833-7cf3d42021e8","ios":"levelo://app?vid=09c742b9-67aa-44f1-b833-7cf3d42021e8"},"vehicle_type_id":"4","last_reported":1729465772,"current_range_meters":35600,"station_id":"ce4bhih2rcd13ifvqfs0","pricing_plan_id":"cebpf4jnsgd1na2vs0mg"},{"bike_id":"1f29e96e-683e-467b-bb06-4f743ae4dcdf","system_id":"levelo_inurba_marseille","lat":43.31491,"lon":5.37296,"is_reserved":false,"is_disabled":false,"rental_uris":{"android":"levelo://app?vid=1f29e96e-683e-467b-bb06-4f743ae4dcdf","ios":"levelo://app?vid=1f29e96e-683e-467b-bb06-4f743ae4dcdf"},"vehicle_type_id":"4","last_reported":1729465772,"current_range_meters":39200,"station_id":"ce4bgt12rcd13ifvqcd0","pricing_plan_id":"cebpf4jnsgd1na2vs0mg"},{"bike_id":"5fac0cab-b534-4c4c-9546-1f735202e4db","system_id":"levelo_inurba_marseille","lat":43.280408,"lon":5.369455,"is_reserved":false,"is_disabled":false,"rental_uris":{"android":"levelo://app?vid=5fac0cab-b534-4c4c-9546-1f735202e4db","ios":"levelo://app?vid=5fac0cab-b534-4c4c-9546-1f735202e4db"},"vehicle_type_id":"4","last_reported":1729465772,"current_range_meters":31200,"station_id":"ce4bha12rcd13ifvqef0","pricing_plan_id":"cebpf4jnsgd1na2vs0mg"},{"bike_id":"146f6c96-7f09-40a9-9ffb-d4d57e00f42f","system_id":"levelo_inurba_marseille","lat":43.28837,"lon":5.3585,"is_reserved":false,"is_disabled":false,"rental_uris":{"android":"levelo://app?vid=146f6c96-7f09-40a9-9ffb-d4d57e00f42f","ios":"levelo://app?vid=146f6c96-7f09-40a9-9ffb-d4d57e00f42f"},"vehicle_type_id":"4","last_reported":1729465772,"current_range_meters":36000,"station_id":"ce4bhb12rcd13ifvqem0","pricing_plan_id":"cebpf4jnsgd1na2vs0mg"},{"bike_id":"ac1bcea5-10e0-4b59-a7a3-880b96ac01b8","system_id":"levelo_inurba_marseille","lat":43.265476,"lon":5.372795,"is_reserved":false,"is_disabled":false,"rental_uris":{"android":"levelo://app?vid=ac1bcea5-10e0-4b59-a7a3-880b96ac01b8","ios":"levelo://app?vid=ac1bcea5-10e0-4b59-a7a3-880b96ac01b8"},"vehicle_type_id":"4","last_reported":1729465772,"current_range_meters":8000,"station_id":"ce4bhoh2rcd13ifvqh5g","pricing_plan_id":"cebpf4jnsgd1na2vs0mg"},{"bike_id":"a4988356-8192-430a-8cc6-0d4d4957e38b","system_id":"levelo_inurba_marseille","lat":43.30797,"lon":5.43522,"is_reserved":false,"is_disabled":false,"rental_uris":{"android":"levelo://app?vid=a4988356-8192-430a-8cc6-0d4d4957e38b","ios":"levelo://app?vid=a4988356-8192-430a-8cc6-0d4d4957e38b"},"vehicle_type_id":"4","last_reported":1729465772,"current_range_meters":19600,"station_id":"ce4bhph2rcd13ifvqheg","pricing_plan_id":"cebpf4jnsgd1na2vs0mg"},{"bike_id":"304e116c-22b7-4fec-8df3-5316f5ceb0f4","system_id":"levelo_inurba_marseille","lat":43.33726,"lon":5.39182,"is_reserved":false,"is_disabled":false,"rental_uris":{"android":"levelo://app?vid=304e116c-22b7-4fec-8df3-5316f5ceb0f4","ios":"levelo://app?vid=304e116c-22b7-4fec-8df3-5316f5ceb0f4"},"vehicle_type_id":"4","last_reported":1729465772,"current_range_meters":40000,"station_id":"ce4bhr92rcd13ifvqhsg","pricing_plan_id":"cebpf4jnsgd1na2vs0mg"},{"bike_id":"54e71ec7-7ea0-4c56-aff1-902c4c15f330","system_id":"levelo_inurba_marseille","lat":43.31488,"lon":5.37296,"is_reserved":false,"is_disabled":false,"rental_uris":{"android":"levelo://app?vid=54e71ec7-7ea0-4c56-aff1-902c4c15f330","ios":"levelo://app?vid=54e71ec7-7ea0-4c56-aff1-902c4c15f330"},"vehicle_type_id":"4","last_reported":1729465772,"current_range_meters":39200,"station_id":"ce4bgt12rcd13ifvqcd0","pricing_plan_id":"cebpf4jnsgd1na2vs0mg"},