{"last_updated":1747592013,"ttl":60,"version":"2.2","data":{"bikes":[{"bike_id":"31cfaa78-7a57-45ff-bdd8-01d740e41e6e","system_id":"levelo_inurba_marseille","lat":43.26062,"lon":5.39399,"is_reserved":false,"is_disabled":false,"rental_uris":{"android":"levelo://app?vid=31cfaa78-7a57-45ff-bdd8-01d740e41e6e","ios":"levelo://app?vid=31cfaa78-7a57-45ff-bdd8-01d740e41e6e"},"vehicle_type_id":"4","last_reported":1747592013,"current_range_meters":2800,"station_id":"ce4bhh92rcd13ifvqfj0","pricing_plan_id":"cebpf4jnsgd1na2vs0mg"},{"bike_id":"8ea14cb8-0141-4c9d-8623-e3b846bbc4c7","system_id":"levelo_inurba_marseille","lat":43.29031,"lon":5.38643,"is_reserved":false,"is_disabled":false,"rental_uris":{"android":"levelo://app?vid=8ea14cb8-0141-4c9d-8623-e3b846bbc4c7","ios":"levelo://app?vid=8ea14cb8-0141-4c9d-8623-e3b846bbc4c7"},"vehicle_type_id":"4","last_reported":1747592013,"current_range_meters":2800,"station_id":"ce4bh4p2rcd13ifvqe0g","pricing_plan_id":"cebpf4jnsgd1na2vs0mg"},{"bike_id":"ebf8ec5f-b4c8-4702-a98e-7a39bcfebfe7","system_id":"levelo_inurba_marseille","lat":43.26034,"lon":5.37527,"is_reserved":false,"is_disabled":false,"rental_uris":{"android":"levelo://app?vid=ebf8ec5f-b4c8-4702-a98e-7a39bcfebfe7","ios":"levelo://app?vid=ebf8ec5f-b4c8-4702-a98e-7a39bcfebfe7"},"vehicle_type_id":"4","last_reported":1747592013,"current_range_meters":2800,"station_id":"ce4bhgh2rcd13ifvqfa0","pricing_plan_id":"cebpf4jnsgd1na2vs0mg"},{"bike_id":"ae465e09-aa51-4639-9787-31105558f522","system_id":"levelo_inurba_marseille","lat":43.26933,"lon":5.38917,"is_reserved":false,"is_disabled":false,"rental_uris":{"android":"levelo://app?vid=ae465e09-aa51-4639-9787-31105558f522","ios":"levelo://app?vid=ae465e09-aa51-4639-9787-31105558f522"},"vehicle_type_id":"4","last_reported":1747592013,"current_range_meters":2800,"station_id":"ce4bhhh2rcd13ifvqfl0","pricing_plan_id":"cebpf4jnsgd1na2vs0mg"},{"bike_id":"1be761a5-64f4-4a35-b4b1-4faa85f26b3f","system_id":"levelo_inurba_marseille","lat":43.28931,"lon":5.3664,"is_reserved":false,"is_disabled":false,"rental_uris":{"android":"levelo://app?vid=1be761a5-64f4-4a35-b4b1-4faa85f26b3f","ios":"levelo://app?vid=1be761a5-64f4-4a35-b4b1-4faa85f26b3f"},"vehicle_type_id":"4","last_reported":1747592013,"current_range_meters":2800,"station_id":"ce4bhap2rcd13ifvqek0","pricing_plan_id":"cebpf4jnsgd1na2vs0mg"},{"bike_id":"ae8d8811-16a7-45fd-961c-087037112110","system_id":"levelo_inurba_marseille","lat":43.28377,"lon":5.38621,"is_reserved":false,"is_disabled":false,"rental_uris":{"android":"levelo://app?vid=ae8d8811-16a7-45fd-961c-087037112110","ios":"levelo://app?vid=ae8d8811-16a7-45fd-961c-087037112110"},"vehicle_type_id":"4","last_reported":1747592013,"current_range_meters":3200,"station_id":"ce4bh492rcd13ifvqdvg","pricing_plan_id":"cebpf4jnsgd1na2vs0mg"},{"bike_id":"f646094c-4777-4cf6-b06d-917e0b1042b4","system_id":"levelo_inurba_marseille","lat":43.30925,"lon":5.4016,"is_reserved":false,"is_disabled":false,"rental_uris":{"android":"levelo://app?vid=f646094c-4777-4cf6-b06d-917e0b1042b4","ios":"levelo://app?vid=f646094c-4777-4cf6-b06d-917e0b1042b4"},"vehicle_type_id":"4","last_reported":1747592013,"current_range_meters":3200,"station_id":"ce4bgvp2rcd13ifvqct0","pricing_plan_id":"cebpf4jnsgd1na2vs0mg"},{"bike_id":"3b843dca-d67a-4b0e-916b-710ebb36ec6d","system_id":"levelo_inurba_marseille","lat":43.32517,"lon":5.40135,"is_reserved":false,"is_disabled":false,"rental_uris":{"android":"levelo://app?vid=3b843dca-d67a-4b0e-916b-710ebb36ec6d","ios":"levelo://app?vid=3b843dca-d67a-4b0e-916b-710ebb36ec6d"},"vehicle_type_id":"4","last_reported":1747592013,"current_range_meters":3200,"station_id":"","pricing_plan_id":"cebpf4jnsgd1na2vs0mg"},{"bike_id":"bf926a85-0723-4afe-9a77-cf5544334e87","system_id":"levelo_inurba_marseille","lat":43.22929,"lon":5.35373,"is_reserved":false,"is_disabled":false,"rental_uris":{"android":"levelo://app?vid=bf926a85-0723-4afe-9a77-cf5544334e87","ios":"levelo://app?vid=bf926a85-0723-4afe-9a77-cf5544334e87"},"vehicle_type_id":"4","last_reported":1747592013,"current_range_meters":3200,"station_id":"cpo3532slgdg3j2ikp40","pricing_plan_id":"cebpf4jnsgd1na2vs0mg"},{"bike_id":"3a23acb0-2835-41a3-86aa-7b4974cfafd9","system_id":"levelo_inurba_marseille","lat":43.290344,"lon":5.386515,"is_reserved":false,"is_disabled":false,"rental_uris":{"android":"levelo://app?vid=3a23acb0-2835-41a3-86aa-7b4974cfafd9","ios":"levelo://app?vid=3a23acb0-2835-41a3-86aa-7b4974cfafd9"},"vehicle_type_id":"4","last_reported":1747592013,"current_range_meters":3200,"station_id":"ce4bh4p2rcd13ifvqe0g","pricing_plan_id":"cebpf4jnsgd1na2vs0mg"},{"bike_id":"65cdef40-384b-46bc-a705-af02fbedf6e9","system_id":"levelo_inurba_marseille","lat":43.29414,"lon":5.38624,"is_reserved":false,"is_disabled":false,"rental_uris":{"android":"levelo://app?vid=65cdef40-384b-46bc-a705-af02fbedf6e9","ios":"levelo://app?vid=65cdef40-384b-46bc-a705-af02fbedf6e9"},"vehicle_type_id":"4","last_reported":1747592013,"current_range_meters":3200,"station_id":"ce4bh2h2rcd13ifvqdh0","pricing_plan_id":"cebpf4jnsgd1na2vs0mg"},{"bike_id":"b5cee035-f62f-4316-9670-10f4955c73dd","system_id":"levelo_inurba_marseille","lat":43.28938,"lon":5.38395,"is_reserved":false,"is_disabled":false,"rental_uris":{"android":"levelo://app?vid=b5cee035-f62f-4316-9670-10f4955c73dd","ios":"levelo://app?vid=b5cee035-f62f-4316-9670-10f4955c73dd"},"vehicle_type_id":"4","last_reported":1747592013,"current_range_meters":3200,"station_id":"ce4bh612rcd13ifvqe6g","pricing_plan_id":"cebpf4jnsgd1na2vs0mg"},{"bike_id":"d7613ad8-f37b-4b6b-871a-aefd4866eede","system_id":"levelo_inurba_marseille","lat":43.279737,"lon":5.387091,"is_reserved":false,"is_disabled":false,"rental_uris":{"android":"levelo://app?vid=d7613ad8-f37b-4b6b-871a-aefd4866eede","ios":"levelo://app?vid=d7613ad8-f37b-4b6b-871a-aefd4866eede"},"vehicle_type_id":"4","last_reported":1747592013,"current_range_meters":3200,"station_id":"ce4bhg12rcd13ifvqf80","pricing_plan_id":"cebpf4jnsgd1na2vs0mg"},{"bike_id":"dde6af5f-af59-42b3-b12a-0530e0e98a72","system_id":"levelo_inurba_marseille","lat":43.30256,"lon":5.40084,"is_reserved":false,"is_disabled":false,"rental_uris":{"android":"levelo://app?vid=dde6af5f-af59-42b3-b12a-0530e0e98a72","ios":"levelo://app?vid=dde6af5f-af59-42b3-b12a-0530e0e98a72"},"vehicle_type_id":"4","last_reported":1747592013,"current_range_meters":3200,"station_id":"ce4bgvh2rcd13ifvqcs0","pricing_plan_id":"cebpf4jnsgd1na2vs0mg"},{"bike_id":"be98142e-ab99-4f68-b04a-ff2165061bb2","system_id":"levelo_inurba_marseille","lat":43.26952,"lon":5.386293,"is_reserved":false,"is_disabled":true,"rental_uris":{"android":"levelo://app?vid=be98142e-ab99-4f68-b04a-ff2165061bb2","ios":"levelo://app?vid=be98142e-ab99-4f68-b04a-ff2165061bb2"},"vehicle_type_id":"4","last_reported":1747592013,"current_range_meters":3200,"station_id":"ce4bhh92rcd13ifvqfh0","pricing_plan_id":"cebpf4jnsgd1na2vs0mg"},{"bike_id":"4eeb8f97-31ed-4277-9c6c-d6924168ba17","system_id":"levelo_inurba_marseille","lat":43.30136,"lon":5.38778,"is_reserved":false,"is_disabled":false,"rental_uris":{"android":"levelo://app?vid=4eeb8f97-31ed-4277-9c6c-d6924168ba17","ios":"levelo://app?vid=4eeb8f97-31ed-4277-9c6c-d6924168ba17"},"vehicle_type_id":"4","last_reported":1747592013,"current_range_meters":3200,"station_id":"ce4bghh2rcd13ifvqb60","pricing_plan_id":"cebpf4jnsgd1na2vs0mg"},{"bike_id":"fc344db6-f844-483d-b6f5-58cc5d153681","system_id":"levelo_inurba_marseille","lat":43.28171,"lon":5.4264,"is_reserved":false,"is_disabled":false,"rental_uris":{"android":"levelo://app?vid=fc344db6-f844-483d-b6f5-58cc5d153681","ios":"levelo://app?vid=fc344db6-f844-483d-b6f5-58cc5d153681"},"vehicle_type_id":"4","last_reported":1747592013,"current_range_meters":3600,"station_id":"ce4bhnh2rcd13ifvqgug","pricing_plan_id":"cebpf4jnsgd1na2vs0mg"},{"bike_id":"d424c5d3-681c-43be-a5c3-083f63112910","system_id":"levelo_inurba_marseille","lat":43.301872,"lon":5.387575,"is_reserved":false,"is_disabled":false,"rental_uris":{"android":"levelo://app?vid=d424c5d3-681c-43be-a5c3-083f63112910","ios":"levelo://app?vid=d424c5d3-681c-43be-a5c3-083f63112910"},"vehicle_type_id":"4","last_reported":1747592013,"current_range_meters":3600,"station_id":"ce4bghh2rcd13ifvqb60","pricing_plan_id":"cebpf4jnsgd1na2vs0mg"},{"bike_id":"94620b84-6a46-4223-b0e3-1582d3b2ce8d","system_id":"levelo_inurba_marseille","lat":43.24801,"lon":5.37452,"is_reserved":false,"is_disabled":false,"rental_uris":{"android":"levelo://app?vid=94620b84-6a46-4223-b0e3-1582d3b2ce8d","ios":"levelo://app?vid=94620b84-6a46-4223-b0e3-1582d3b2ce8d"},"vehicle_type_id":"4","last_reported":1747592013,"current_range_meters":3600,"station_id":"ce4bhgh2rcd13ifvqfb0","pricing_plan_id":"cebpf4jnsgd1na2vs0mg"},{"bike_id":"478d6391-bc7b-476b-b1f4-3f0a2ddfb457","system_id":"levelo_inurba_marseille","lat":43.31484,"lon":5.372987,"is_reserved":false,"is_disabled":false,"rental_uris":{"android":"levelo://app?vid=478d6391-bc7b-476b-b1f4-3f0a2ddfb457","ios":"levelo://app?vid=478d6391-bc7b-476b-b1f4-3f0a2ddfb457"},"vehicle_type_id":"4","last_reported":1747592013,"current_range_meters":4000,"station_id":"ce4bgt12rcd13ifvqcd0","pricing_plan_id":"cebpf4jnsgd1na2vs0mg"},{"bike_id":"e6d0e932-a379-4387-9cb1-584949ab29da","system_id":"levelo_inurba_marseille","lat":43.28188,"lon":5.42621,"is_reserved":false,"is_disabled":false,"rental_uris":{"android":"levelo://app?vid=e6d0e932-a379-4387-9cb1-584949ab29da","ios":"levelo://app?vid=e6d0e932-a379-4387-9cb1-584949ab29da"},"vehicle_type_id":"4","last_reported":1747592013,"current_range_meters":4000,"station_id":"ce4bhnh2rcd13ifvqgug","pricing_plan_id":"cebpf4jnsgd1na2vs0mg"},{"bike_id":"902e3d4c-71a3-4e32-94bd-0fae10c09f9b","system_id":"levelo_inurba_marseille","lat":43.283685,"lon":5.38641,"is_reserved":false,"is_disabled":false,"rental_uris":{"android":"levelo://app?vid=902e3d4c-71a3-4e32-94bd-0fae10c09f9b","ios":"levelo://app?vid=902e3d4c-71a3-4e32-94bd-0fae10c09f9b"},"vehicle_type_id":"4","last_reported":1747592013,"current_range_meters":4000,"station_id":"ce4bh492rcd13ifvqdvg","pricing_plan_id":"cebpf4jnsgd1na2vs0mg"},{"bike_id":"b13b137f-9b20-40e1-a1f1-62e7d5dedaa0","system_id":"levelo_inurba_marseille","lat":43.30468,"lon":5.37904,"is_reserved":false,"is_disabled":false,"rental_uris":{"android":"levelo://app?vid=b13b137f-9b20-40e1-a1f1-62e7d5dedaa0","ios":"levelo://app?vid=b13b137f-9b20-40e1-a1f1-62e7d5dedaa0"},"vehicle_type_id":"4","last_reported":1747592013,"current_range_meters":4000,"station_id":"ce4bgup2rcd13ifvqcn0","pricing_plan_id":"cebpf4jnsgd1na2vs0mg"},{"bike_id":"aa1d8c1e-7594-4615-aa13-56fdebb973d7","system_id":"levelo_inurba_marseille","lat":43.26861,"lon":5.39137,"is_reserved":false,"is_disabled":false,"rental_uris":{"android":"levelo://app?vid=aa1d8c1e-7594-4615-aa13-56fdebb973d7","ios":"levelo://app?vid=aa1d8c1e-7594-4615-aa13-56fdebb973d7"},"vehicle_type_id":"4","last_reported":1747592013,"current_range_meters":4000,"station_id":"","pricing_plan_id":"cebpf4jnsgd1na2vs0mg"},{"bike_id":"93533206-9ce5-4ae0-a7bf-df0248d9e444","system_id":"levelo_inurba_marseille","lat":43.29032,"lon":5.38652,"is_reserved":false,"is_disabled":false,"rental_uris":{"android":"levelo://app?vid=93533206-9ce5-4ae0-a7bf-df0248d9e444","ios":"levelo://app?vid=93533206-9ce5-4ae0-a7bf-df0248d9e444"},"vehicle_type_id":"4","last_reported":1747592013,"current_range_meters":4000,"station_id":"ce4bh4p2rcd13ifvqe0g","pricing_plan_id":"cebpf4jnsgd1na2vs0mg"},{"bike_id":"e5013baf-c7d0-4bd2-b1c5-b16df7134711","system_id":"levelo_inurba_marseille","lat":43.27067,"lon":5.42263,"is_reserved":false,"is_disabled":false,"rental_uris":{"android":"levelo://app?vid=e5013baf-c7d0-4bd2-b1c5-b16df7134711","ios":"levelo://app?vid=e5013baf-c7d0-4bd2-b1c5-b16df7134711"},"vehicle_type_id":"4","last_reported":1747592013,"current_range_meters":4000,"station_id":"ce4bhk92rcd13ifvqgb0","pricing_plan_id":"cebpf4jnsgd1na2vs0mg"},{"bike_id":"504249dc-7df0-4210-b239-fe9edfaf5479","system_id":"levelo_inurba_marseille","lat":43.29538,"lon":5.38543,"is_reserved":false,"is_disabled":false,"rental_uris":{"android":"levelo://app?vid=504249dc-7df0-4210-b239-fe9edfaf5479","ios":"levelo://app?vid=504249dc-7df0-4210-b239-fe9edfaf5479"},"vehicle_type_id":"4","last_reported":1747592013,"current_range_meters":4000,"station_id":"ce4bgih2rcd13ifvqba0","pricing_plan_id":"cebpf4jnsgd1na2vs0mg"},{"bike_id":"164f210d-05d6-4c74-85f1-414474f5864b","system_id":"levelo_inurba_marseille","lat":43.28165,"lon":5.4264,"is_reserved":false,"is_disabled":false,"rental_uris":{"android":"levelo://app?vid=164f210d-05d6-4c74-85f1-414474f5864b","ios":"levelo://app?vid=164f210d-05d6-4c74-85f1-414474f5864b"},"vehicle_type_id":"4","last_reported":1747592013,"current_range_meters":4400,"station_id":"ce4bhnh2rcd13ifvqgug","pricing_plan_id":"cebpf4jnsgd1na2vs0mg"},{"bike_id":"b6239c35-6bf9-4e7f-aaf2-8c66f421138a","system_id":"levelo_inurba_marseille","lat":43.29537,"lon":5.38544,"is_reserved":false,"is_disabled":false,"rental_uris":{"android":"levelo://app?vid=b6239c35-6bf9-4e7f-aaf2-8c66f421138a","ios":"levelo://app?vid=b6239c35-6bf9-4e7f-aaf2-8c66f421138a"},"vehicle_type_id":"4","last_reported":1747592013,"current_range_meters":4400,"station_id":"ce4bgih2rcd13ifvqba0","pricing_plan_id":"cebpf4jnsgd1na2vs0mg"},{"bike_id":"bcf9b3d7-26e3-46e7-b5a5-d6741451cd0c","system_id":"levelo_inurba_marseille","lat":43.2396,"lon":5.36632,"is_reserved":false,"is_disabled":false,"rental_uris":{"android":"levelo://app?vid=bcf9b3d7-26e3-46e7-b5a5-d6741451cd0c","ios":"levelo://app?vid=bcf9b3d7-26e3-46e7-b5a5-d6741451cd0c"},"vehicle_type_id":"4","last_reported":1747592013,"current_range_meters":4400,"station_id":"ce4bhi12rcd13ifvqfp0","pricing_plan_id":"cebpf4jnsgd1na2vs0mg"},{"bike_id":"2702f31a-39fc-4076-975b-323ee8bfaf55","system_id":"levelo_inurba_marseille","lat":43.26215,"lon":5.40423,"is_reserved":false,"is_disabled":false,"rental_uris":{"android":"levelo://app?vid=2702f31a-39fc-4076-975b-323ee8bfaf55","ios":"levelo://app?vid=2702f31a-39fc-4076-975b-323ee8bfaf55"},"vehicle_type_id":"4","last_reported":1747592013,"current_range_meters":4400,"station_id":"ce4bhmh2rcd13ifvqgmg","pricing_plan_id":"cebpf4jnsgd1na2vs0mg"},{"bike_id":"fee12057-7260-42a7-bd41-921184e5915b","system_id":"levelo_inurba_marseille","lat":43.27898,"lon":5.38018,"is_reserved":false,"is_disabled":false,"rental_uris":{"android":"levelo://app?vid=fee12057-7260-42a7-bd41-921184e5915b","ios":"levelo://app?vid=fee12057-7260-42a7-bd41-921184e5915b"},"vehicle_type_id":"4","last_reported":1747592013,"current_range_meters":4400,"station_id":"ce4bhf92rcd13ifvqf50","pricing_plan_id":"cebpf4jnsgd1na2vs0mg"},{"bike_id":"2edac17f-64df-47b7-a848-7c42cf0f36e7","system_id":"levelo_inurba_marseille","lat":43.27813,"lon":5.40716,"is_reserved":false,"is_disabled":false,"rental_uris":{"android":"levelo://app?vid=2edac17f-64df-47b7-a848-7c42cf0f36e7","ios":"levelo://app?vid=2edac17f-64df-47b7-a848-7c42cf0f36e7"},"vehicle_type_id":"4","last_reported":1747592013,"current_range_meters":4800,"station_id":"ce4bhnh2rcd13ifvqgtg","pricing_plan_id":"cebpf4jnsgd1na2vs0mg"},{"bike_id":"ecd351bd-1899-449a-bf8d-c7d816e4ff91","system_id":"levelo_inurba_marseille","lat":43.28563,"lon":5.3949,"is_reserved":false,"is_disabled":false,"rental_uris":{"android":"levelo://app?vid=ecd351bd-1899-449a-bf8d-c7d816e4ff91","ios":"levelo://app?vid=ecd351bd-1899-449a-bf8d-c7d816e4ff91"},"vehicle_type_id":"4","last_reported":1747592013,"current_range_meters":4800,"station_id":"ce4bh292rcd13ifvqdg0","pricing_plan_id":"cebpf4jnsgd1na2vs0mg"},{"bike_id":"b05b1f64-0753-4df6-9d99-52c918cd47ad","system_id":"levelo_inurba_marseille","lat":43.29053,"lon":5.39988,"is_reserved":false,"is_disabled":true,"rental_uris":{"android":"levelo://app?vid=b05b1f64-0753-4df6-9d99-52c918cd47ad","ios":"levelo://app?vid=b05b1f64-0753-4df6-9d99-52c918cd47ad"},"vehicle_type_id":"4","last_reported":1747592013,"current_range_meters":5600,"station_id":"ce4bh392rcd13ifvqdm0","pricing_plan_id":"cebpf4jnsgd1na2vs0mg"},{"bike_id":"b1e588a8-6868-4632-aaf7-01c00ab698a5","system_id":"levelo_inurba_marseille","lat":43.279443,"lon":5.41038,"is_reserved":false,"is_disabled":false,"rental_uris":{"android":"levelo://app?vid=b1e588a8-6868-4632-aaf7-01c00ab698a5","ios":"levelo://app?vid=b1e588a8-6868-4632-aaf7-01c00ab698a5"},"vehicle_type_id":"4","last_reported":1747592013,"current_range_meters":5600,"station_id":"ce4bhnp2rcd13ifvqh0g","pricing_plan_id":"cebpf4jnsgd1na2vs0mg"},{"bike_id":"34a50d07-14b8-4d27-9d94-c1996d01cc8d","system_id":"levelo_inurba_marseille","lat":43.27943,"lon":5.41048,"is_reserved":false,"is_disabled":false,"rental_uris":{"android":"levelo://app?vid=34a50d07-14b8-4d27-9d94-c1996d01cc8d","ios":"levelo://app?vid=34a50d07-14b8-4d27-9d94-c1996d01cc8d"},"vehicle_type_id":"4","last_reported":1747592013,"current_range_meters":5600,"station_id":"ce4bhnp2rcd13ifvqh0g","pricing_plan_id":"cebpf4jnsgd1na2vs0mg"},{"bike_id":"963923a2-09f9-4a14-8b58-4a54c500dac4","system_id":"levelo_inurba_marseille","lat":43.3263,"lon":5.41019,"is_reserved":false,"is_disabled":false,"rental_uris":{"android":"levelo://app?vid=963923a2-09f9-4a14-8b58-4a54c500dac4","ios":"levelo://app?vid=963923a2-09f9-4a14-8b58-4a54c500dac4"},"vehicle_type_id":"4","last_reported":1747592013,"current_range_meters":5600,"station_id":"ce4bhpp2rcd13ifvqhgg","pricing_plan_id":"cebpf4jnsgd1na2vs0mg"},{"bike_id":"ecf68dd7-cc96-42e6-883f-930a9c896896","system_id":"levelo_inurba_marseille","lat":43.28406,"lon":5.37515,"is_reserved":false,"is_disabled":false,"rental_uris":{"android":"levelo://app?vid=ecf68dd7-cc96-42e6-883f-930a9c896896","ios":"levelo://app?vid=ecf68dd7-cc96-42e6-883f-930a9c896896"},"vehicle_type_id":"4","last_reported":1747592013,"current_range_meters":6000,"station_id":"ce4bh412rcd13ifvqds0","pricing_plan_id":"cebpf4jnsgd1na2vs0mg"},{"bike_id":"ad201fd8-43d4-4e13-b393-60400b28cd6f","system_id":"levelo_inurba_marseille","lat":43.24066,"lon":5.37747,"is_reserved":false,"is_disabled":false,"rental_uris":{"android":"levelo://app?vid=ad201fd8-43d4-4e13-b393-60400b28cd6f","ios":"levelo://app?vid=ad201fd8-43d4-4e13-b393-60400b28cd6f"},"vehicle_type_id":"4","last_reported":1747592013,"current_range_meters":6000,"station_id":"ce4bhnp2rcd13ifvqgvg","pricing_plan_id":"cebpf4jnsgd1na2vs0mg"},{"bike_id":"b8e6468b-87db-4ff6-8122-ef13bf5b7c8c","system_id":"levelo_inurba_marseille","lat":43.31379,"lon":5.37916,"is_reserved":false,"is_disabled":false,"rental_uris":{"android":"levelo://app?vid=b8e6468b-87db-4ff6-8122-ef13bf5b7c8c","ios":"levelo://app?vid=b8e6468b-87db-4ff6-8122-ef13bf5b7c8c"},"vehicle_type_id":"4","last_reported":1747592013,"current_range_meters":6000,"station_id":"","pricing_plan_id":"cebpf4jnsgd1na2vs0mg"},{"bike_id":"1c03bd5a-9af5-4f8d-ac22-134ae538c3b5","system_id":"levelo_inurba_marseille","lat":43.23177,"lon":5.39973,"is_reserved":false,"is_disabled":false,"rental_uris":{"android":"levelo://app?vid=1c03bd5a-9af5-4f8d-ac22-134ae538c3b5","ios":"levelo://app?vid=1c03bd5a-9af5-4f8d-ac22-134ae538c3b5"},"vehicle_type_id":"4","last_reported":1747592013,"current_range_meters":3600,"station_id":"ce4bhn12rcd13ifvqgqg","pricing_plan_id":"cebpf4jnsgd1na2vs0mg"},{"bike_id":"6ca52efb-d386-4e1d-95e5-d9ed7a869049","system_id":"levelo_inurba_marseille","lat":43.33607,"lon":5.41027,"is_reserved":false,"is_disabled":false,"rental_uris":{"android":"levelo://app?vid=6ca52efb-d386-4e1d-95e5-d9ed7a869049","ios":"levelo://app?vid=6ca52efb-d386-4e1d-95e5-d9ed7a869049"},"vehicle_type_id":"4","last_reported":1747592013,"current_range_meters":6000,"station_id":"ce4bhqh2rcd13ifvqhmg","pricing_plan_id":"cebpf4jnsgd1na2vs0mg"},{"bike_id":"65343308-05cd-443d-a458-994a1ffca965","system_id":"levelo_inurba_marseille","lat":43.2884,"lon":5.39297,"is_reserved":false,"is_disabled":false,"rental_uris":{"android":"levelo://app?vid=65343308-05cd-443d-a458-994a1ffca965","ios":"levelo://app?vid=65343308-05cd-443d-a458-994a1ffca965"},"vehicle_type_id":"4","last_reported":1747592013,"current_range_meters":5600,"station_id":"ce4bh2p2rcd13ifvqdi0","pricing_plan_id":"cebpf4jnsgd1na2vs0mg"},{"bike_id":"9c662f8f-a847-4248-ae2f-840f39a70c5b","system_id":"levelo_inurba_marseille","lat":43.2997,"lon":5.37177,"is_reserved":false,"is_disabled":false,"rental_uris":{"android":"levelo://app?vid=9c662f8f-a847-4248-ae2f-840f39a70c5b","ios":"levelo://app?vid=9c662f8f-a847-4248-ae2f-840f39a70c5b"},"vehicle_type_id":"4","last_reported":1747592013,"current_range_meters":6000,"station_id":"ce4bgr92rcd13ifvqc7g","pricing_plan_id":"cebpf4jnsgd1na2vs0mg"},{"bike_id":"a8b5ed03-68f5-407d-842b-2752f32c49c7","system_id":"levelo_inurba_marseille","lat":43.28932,"lon":5.3664,"is_reserved":false,"is_disabled":false,"rental_uris":{"android":"levelo://app?vid=a8b5ed03-68f5-407d-842b-2752f32c49c7","ios":"levelo://app?vid=a8b5ed03-68f5-407d-842b-2752f32c49c7"},"vehicle_type_id":"4","last_reported":1747592013,"current_range_meters":6000,"station_id":"ce4bhap2rcd13ifvqek0","pricing_plan_id":"cebpf4jnsgd1na2vs0mg"},{"bike_id":"ebe23cc4-345c-422a-a8ac-97cc0c44cf24","system_id":"levelo_inurba_marseille","lat":43.3024,"lon":5.4006,"is_reserved":false,"is_disabled":false,"rental_uris":{"android":"levelo://app?vid=ebe23cc4-345c-422a-a8ac-97cc0c44cf24","ios":"levelo://app?vid=ebe23cc4-345c-422a-a8ac-97cc0c44cf24"},"vehicle_type_id":"4","last_reported":1747592013,"current_range_meters":6400,"station_id":"ce4bgvh2rcd13ifvqcs0","pricing_plan_id":"cebpf4jnsgd1na2vs0mg"},{"bike_id":"398a8fd1-747d-4b0d-84d1-22519fee4719","system_id":"levelo_inurba_marseille","lat":43.27378,"lon":5.36251,"is_reserved":false,"is_disabled":true,"rental_uris":{"android":"levelo://app?vid=398a8fd1-747d-4b0d-84d1-22519fee4719","ios":"levelo://app?vid=398a8fd1-747d-4b0d-84d1-22519fee4719"},"vehicle_type_id":"4","last_reported":1747592013,"current_range_meters":6400,"station_id":"ce4bhbh2rcd13ifvqeo0","pricing_plan_id":"cebpf4jnsgd1na2vs0mg"},{"bike_id":"1381bd49-568c-425f-bcfd-260613800bb1","system_id":"levelo_inurba_marseille","lat":43.27419,"lon":5.39415,"is_reserved":false,"is_disabled":false,"rental_uris":{"android":"levelo://app?vid=1381bd49-568c-425f-bcfd-260613800bb1","ios":"levelo://app?vid=1381bd49-568c-425f-bcfd-260613800bb1"},"vehicle_type_id":"4","last_reported":1747592013,"current_range_meters":6400,"station_id":"ce4bhdp2rcd13ifvqf20","pricing_plan_id":"cebpf4jnsgd1na2vs0mg"},{"bike_id":"af2f3908-848e-4879-9c80-b3ddea1b7f0a","system_id":"levelo_inurba_marseille","lat":43.3122,"lon":5.38745,"is_reserved":false,"is_disabled":true,"rental_uris":{"android":"levelo://app?vid=af2f3908-848e-4879-9c80-b3ddea1b7f0a","ios":"levelo://app?vid=af2f3908-848e-4879-9c80-b3ddea1b7f0a"},"vehicle_type_id":"4","last_reported":1747592013,"current_range_meters":6400,"station_id":"","pricing_plan_id":"cebpf4jnsgd1na2vs0mg"},{"bike_id":"3126698d-1e03-472d-afca-44da53b5667b","system_id":"levelo_inurba_marseille","lat":43.25089,"lon":5.39523,"is_reserved":false,"is_disabled":false,"rental_uris":{"android":"levelo://app?vid=3126698d-1e03-472d-afca-44da53b5667b","ios":"levelo://app?vid=3126698d-1e03-472d-afca-44da53b5667b"},"vehicle_type_id":"4","last_reported":1747592013,"current_range_meters":6400,"station_id":"ce4bhm12rcd13ifvqgkg","pricing_plan_id":"cebpf4jnsgd1na2vs0mg"},{"bike_id":"ae578ad9-e318-4e4a-b6bd-b7a35a887221","system_id":"levelo_inurba_marseille","lat":43.294176,"lon":5.386406,"is_reserved":false,"is_disabled":false,"rental_uris":{"android":"levelo://app?vid=ae578ad9-e318-4e4a-b6bd-b7a35a887221","ios":"levelo://app?vid=ae578ad9-e318-4e4a-b6bd-b7a35a887221"},"vehicle_type_id":"4","last_reported":1747592013,"current_range_meters":6800,"station_id":"ce4bh2h2rcd13ifvqdh0","pricing_plan_id":"cebpf4jnsgd1na2vs0mg"},{"bike_id":"30291eb2-c0eb-4b64-82da-5b2b5b231d17","system_id":"levelo_inurba_marseille","lat":43.304764,"lon":5.367276,"is_reserved":false,"is_disabled":false,"rental_uris":{"android":"levelo://app?vid=30291eb2-c0eb-4b64-82da-5b2b5b231d17","ios":"levelo://app?vid=30291eb2-c0eb-4b64-82da-5b2b5b231d17"},"vehicle_type_id":"4","last_reported":1747592013,"current_range_meters":6800,"station_id":"ce4bgs12rcd13ifvqcag","pricing_plan_id":"cebpf4jnsgd1na2vs0mg"},{"bike_id":"0393561d-0ff9-4160-b198-56337aa19e24","system_id":"levelo_inurba_marseille","lat":43.34137,"lon":5.40912,"is_reserved":false,"is_disabled":false,"rental_uris":{"android":"levelo://app?vid=0393561d-0ff9-4160-b198-56337aa19e24","ios":"levelo://app?vid=0393561d-0ff9-4160-b198-56337aa19e24"},"vehicle_type_id":"4","last_reported":1747592013,"current_range_meters":6800,"station_id":"ce4bhqh2rcd13ifvqhlg","pricing_plan_id":"cebpf4jnsgd1na2vs0mg"},{"bike_id":"9273f40c-4b16-4e05-8a1a-3f4433e5c906","system_id":"levelo_inurba_marseille","lat":43.29534,"lon":5.38547,"is_reserved":false,"is_disabled":false,"rental_uris":{"android":"levelo://app?vid=9273f40c-4b16-4e05-8a1a-3f4433e5c906","ios":"levelo://app?vid=9273f40c-4b16-4e05-8a1a-3f4433e5c906"},"vehicle_type_id":"4","last_reported":1747592013,"current_range_meters":6800,"station_id":"ce4bgih2rcd13ifvqba0","pricing_plan_id":"cebpf4jnsgd1na2vs0mg"},{"bike_id":"706f1aa2-9074-417d-8081-e4ffd808531b","system_id":"levelo_inurba_marseille","lat":43.28953,"lon":5.3664,"is_reserved":false,"is_disabled":false,"rental_uris":{"android":"levelo://app?vid=706f1aa2-9074-417d-8081-e4ffd808531b","ios":"levelo://app?vid=706f1aa2-9074-417d-8081-e4ffd808531b"},"vehicle_type_id":"4","last_reported":1747592013,"current_range_meters":6800,"station_id":"ce4bhap2rcd13ifvqek0","pricing_plan_id":"cebpf4jnsgd1na2vs0mg"},{"bike_id":"6da99bce-f124-4c91-83be-e41b9f5f5862","system_id":"levelo_inurba_marseille","lat":43.26207,"lon":5.37441,"is_reserved":false,"is_disabled":false,"rental_uris":{"android":"levelo://app?vid=6da99bce-f124-4c91-83be-e41b9f5f5862","ios":"levelo://app?vid=6da99bce-f124-4c91-83be-e41b9f5f5862"},"vehicle_type_id":"4","last_reported":1747592013,"current_range_meters":6800,"station_id":"ce4bhgp2rcd13ifvqfc0","pricing_plan_id":"cebpf4jnsgd1na2vs0mg"},{"bike_id":"b31015a8-91be-4f52-b5e3-e3ab5f47dd06","system_id":"levelo_inurba_marseille","lat":43.23178,"lon":5.39985,"is_reserved":false,"is_disabled":false,"rental_uris":{"android":"levelo://app?vid=b31015a8-91be-4f52-b5e3-e3ab5f47dd06","ios":"levelo://app?vid=b31015a8-91be-4f52-b5e3-e3ab5f47dd06"},"vehicle_type_id":"4","last_reported":1747592013,"current_range_meters":6800,"station_id":"ce4bhn12rcd13ifvqgqg","pricing_plan_id":"cebpf4jnsgd1na2vs0mg"},{"bike_id":"b95995d5-914b-4ae5-957c-41087e71901b","system_id":"levelo_inurba_marseille","lat":43.32534,"lon":5.4143,"is_reserved":false,"is_disabled":false,"rental_uris":{"android":"levelo://app?vid=b95995d5-914b-4ae5-957c-41087e71901b","ios":"levelo://app?vid=b95995d5-914b-4ae5-957c-41087e71901b"},"vehicle_type_id":"4","last_reported":1747592013,"current_range_meters":6800,"station_id":"ce4bhq12rcd13ifvqhhg","pricing_plan_id":"cebpf4jnsgd1na2vs0mg"},{"bike_id":"6da454f7-7883-4cea-8b4b-35374e461aa9","system_id":"levelo_inurba_marseille","lat":43.30299,"lon":5.36911,"is_reserved":false,"is_disabled":false,"rental_uris":{"android":"levelo://app?vid=6da454f7-7883-4cea-8b4b-35374e461aa9","ios":"levelo://app?vid=6da454f7-7883-4cea-8b4b-35374e461aa9"},"vehicle_type_id":"4","last_reported":1747592013,"current_range_meters":6800,"station_id":"ce4bgqh2rcd13ifvqc5g","pricing_plan_id":"cebpf4jnsgd1na2vs0mg"},{"bike_id":"6b849ac5-c25f-4393-bc5a-47493e693ba8","system_id":"levelo_inurba_marseille","lat":43.24163,"lon":5.36406,"is_reserved":false,"is_disabled":true,"rental_uris":{"android":"levelo://app?vid=6b849ac5-c25f-4393-bc5a-47493e693ba8","ios":"levelo://app?vid=6b849ac5-c25f-4393-bc5a-47493e693ba8"},"vehicle_type_id":"4","last_reported":1747592013,"current_range_meters":6800,"station_id":"cpo36qri1sfpv3e86is0","pricing_plan_id":"cebpf4jnsgd1na2vs0mg"},{"bike_id":"40310d58-d5ed-48ab-80f5-eb2dd5fa5d85","system_id":"levelo_inurba_marseille","lat":43.28886,"lon":5.35841,"is_reserved":false,"is_disabled":false,"rental_uris":{"android":"levelo://app?vid=40310d58-d5ed-48ab-80f5-eb2dd5fa5d85","ios":"levelo://app?vid=40310d58-d5ed-48ab-80f5-eb2dd5fa5d85"},"vehicle_type_id":"4","last_reported":1747592013,"current_range_meters":6800,"station_id":"ce4bhb12rcd13ifvqem0","pricing_plan_id":"cebpf4jnsgd1na2vs0mg"},{"bike_id":"9966f392-9783-4173-8c51-6e7787c38f5f","system_id":"levelo_inurba_marseille","lat":43.29315,"lon":5.37183,"is_reserved":false,"is_disabled":false,"rental_uris":{"android":"levelo://app?vid=9966f392-9783-4173-8c51-6e7787c38f5f","ios":"levelo://app?vid=9966f392-9783-4173-8c51-6e7787c38f5f"},"vehicle_type_id":"4","last_reported":1747592013,"current_range_meters":6400,"station_id":"ce4bgh92rcd13ifvqb40","pricing_plan_id":"cebpf4jnsgd1na2vs0mg"},{"bike_id":"0cfae820-cdf5-4a99-8ff5-7860db81de27","system_id":"levelo_inurba_marseille","lat":43.29196,"lon":5.39326,"is_reserved":false,"is_disabled":false,"rental_uris":{"android":"levelo://app?vid=0cfae820-cdf5-4a99-8ff5-7860db81de27","ios":"levelo://app?vid=0cfae820-cdf5-4a99-8ff5-7860db81de27"},"vehicle_type_id":"4","last_reported":1747592013,"current_range_meters":7200,"station_id":"ce4bh192rcd13ifvqdd0","pricing_plan_id":"cebpf4jnsgd1na2vs0mg"},{"bike_id":"43c1e1dd-ce33-44c4-9992-776c023b6ebd","system_id":"levelo_inurba_marseille","lat":43.28845,"lon":5.35871,"is_reserved":false,"is_disabled":false,"rental_uris":{"android":"levelo://app?vid=43c1e1dd-ce33-44c4-9992-776c023b6ebd","ios":"levelo://app?vid=43c1e1dd-ce33-44c4-9992-776c023b6ebd"},"vehicle_type_id":"4","last_reported":1747592013,"current_range_meters":7200,"station_id":"ce4bhb12rcd13ifvqem0","pricing_plan_id":"cebpf4jnsgd1na2vs0mg"},{"bike_id":"7a82397e-c258-4325-b836-1bc38b80aab5","system_id":"levelo_inurba_marseille","lat":43.24072,"lon":5.37751,"is_reserved":false,"is_disabled":false,"rental_uris":{"android":"levelo://app?vid=7a82397e-c258-4325-b836-1bc38b80aab5","ios":"levelo://app?vid=7a82397e-c258-4325-b836-1bc38b80aab5"},"vehicle_type_id":"4","last_reported":1747592013,"current_range_meters":7200,"station_id":"ce4bhnp2rcd13ifvqgvg","pricing_plan_id":"cebpf4jnsgd1na2vs0mg"},{"bike_id":"ea65bfd8-9ebd-425b-9168-6d8c59b37636","system_id":"levelo_inurba_marseille","lat":43.26057,"lon":5.39395,"is_reserved":false,"is_disabled":false,"rental_uris":{"android":"levelo://app?vid=ea65bfd8-9ebd-425b-9168-6d8c59b37636","ios":"levelo://app?vid=ea65bfd8-9ebd-425b-9168-6d8c59b37636"},"vehicle_type_id":"4","last_reported":1747592013,"current_range_meters":7200,"station_id":"ce4bhh92rcd13ifvqfj0","pricing_plan_id":"cebpf4jnsgd1na2vs0mg"},{"bike_id":"98d7e015-5e62-4cfd-8699-316a172e4b18","system_id":"levelo_inurba_marseille","lat":43.26193,"lon":5.37442,"is_reserved":false,"is_disabled":true,"rental_uris":{"android":"levelo://app?vid=98d7e015-5e62-4cfd-8699-316a172e4b18","ios":"levelo://app?vid=98d7e015-5e62-4cfd-8699-316a172e4b18"},"vehicle_type_id":"4","last_reported":1747592013,"current_range_meters":7200,"station_id":"ce4bhgp2rcd13ifvqfc0","pricing_plan_id":"cebpf4jnsgd1na2vs0mg"},{"bike_id":"fa37149c-5598-4081-9b99-c2a6408dccc6","system_id":"levelo_inurba_marseille","lat":43.28919,"lon":5.38384,"is_reserved":false,"is_disabled":false,"rental_uris":{"android":"levelo://app?vid=fa37149c-5598-4081-9b99-c2a6408dccc6","ios":"levelo://app?vid=fa37149c-5598-4081-9b99-c2a6408dccc6"},"vehicle_type_id":"4","last_reported":1747592013,"current_range_meters":8000,"station_id":"ce4bh612rcd13ifvqe6g","pricing_plan_id":"cebpf4jnsgd1na2vs0mg"},{"bike_id":"b934e6da-efb5-4ac5-a51a-eb50220f6e1b","system_id":"levelo_inurba_marseille","lat":43.269774,"lon":5.405901,"is_reserved":false,"is_disabled":true,"rental_uris":{"android":"levelo://app?vid=b934e6da-efb5-4ac5-a51a-eb50220f6e1b","ios":"levelo://app?vid=b934e6da-efb5-4ac5-a51a-eb50220f6e1b"},"vehicle_type_id":"4","last_reported":1747592013,"current_range_meters":8000,"station_id":"","pricing_plan_id":"cebpf4jnsgd1na2vs0mg"},{"bike_id":"c0db4030-ef30-480b-a735-af5435a471ed","system_id":"levelo_inurba_marseille","lat":43.27732,"lon":5.42699,"is_reserved":false,"is_disabled":false,"rental_uris":{"android":"levelo://app?vid=c0db4030-ef30-480b-a735-af5435a471ed","ios":"levelo://app?vid=c0db4030-ef30-480b-a735-af5435a471ed"},"vehicle_type_id":"4","last_reported":1747592013,"current_range_meters":8000,"station_id":"","pricing_plan_id":"cebpf4jnsgd1na2vs0mg"},{"bike_id":"9be12a09-efe5-495b-8ec3-e7e0d7473370","system_id":"levelo_inurba_marseille","lat":43.2955,"lon":5.38148,"is_reserved":false,"is_disabled":true,"rental_uris":{"android":"levelo://app?vid=9be12a09-efe5-495b-8ec3-e7e0d7473370","ios":"levelo://app?vid=9be12a09-efe5-495b-8ec3-e7e0d7473370"},"vehicle_type_id":"4","last_reported":1747592013,"current_range_meters":8000,"station_id":"ce4bgnh2rcd13ifvqc0g","pricing_plan_id":"cebpf4jnsgd1na2vs0mg"},{"bike_id":"e5c8a2b0-e20c-401e-819e-2833d3af4a7a","system_id":"levelo_inurba_marseille","lat":43.274923,"lon":5.424533,"is_reserved":false,"is_disabled":false,"rental_uris":{"android":"levelo://app?vid=e5c8a2b0-e20c-401e-819e-2833d3af4a7a","ios":"levelo://app?vid=e5c8a2b0-e20c-401e-819e-2833d3af4a7a"},"vehicle_type_id":"4","last_reported":1747592013,"current_range_meters":8000,"station_id":"ce4bhn92rcd13ifvqgrg","pricing_plan_id":"cebpf4jnsgd1na2vs0mg"},{"bike_id":"294996d7-ca40-429c-a6f1-1d8c1aa7deed","system_id":"levelo_inurba_marseille","lat":43.27837,"lon":5.39211,"is_reserved":false,"is_disabled":false,"rental_uris":{"android":"levelo://app?vid=294996d7-ca40-429c-a6f1-1d8c1aa7deed","ios":"levelo://app?vid=294996d7-ca40-429c-a6f1-1d8c1aa7deed"},"vehicle_type_id":"4","last_reported":1747592013,"current_range_meters":8000,"station_id":"ce4bhjp2rcd13ifvqga0","pricing_plan_id":"cebpf4jnsgd1na2vs0mg"},{"bike_id":"8d6d168b-821c-48cf-a3aa-38ef9442c0b9","system_id":"levelo_inurba_marseille","lat":43.25097,"lon":5.40334,"is_reserved":false,"is_disabled":false,"rental_uris":{"android":"levelo://app?vid=8d6d168b-821c-48cf-a3aa-38ef9442c0b9","ios":"levelo://app?vid=8d6d168b-821c-48cf-a3aa-38ef9442c0b9"},"vehicle_type_id":"4","last_reported":1747592013,"current_range_meters":8000,"station_id":"ce4bhlh2rcd13ifvqgig","pricing_plan_id":"cebpf4jnsgd1na2vs0mg"},{"bike_id":"b4a08570-98a2-4200-82a5-0afc7a0b329c","system_id":"levelo_inurba_marseille","lat":43.3013,"lon":5.38775,"is_reserved":false,"is_disabled":false,"rental_uris":{"android":"levelo://app?vid=b4a08570-98a2-4200-82a5-0afc7a0b329c","ios":"levelo://app?vid=b4a08570-98a2-4200-82a5-0afc7a0b329c"},"vehicle_type_id":"4","last_reported":1747592013,"current_range_meters":8000,"station_id":"ce4bghh2rcd13ifvqb60","pricing_plan_id":"cebpf4jnsgd1na2vs0mg"},{"bike_id":"0fb02880-5c6e-4026-9e4a-07529c572b44","system_id":"levelo_inurba_marseille","lat":43.25491,"lon":5.37383,"is_reserved":false,"is_disabled":false,"rental_uris":{"android":"levelo://app?vid=0fb02880-5c6e-4026-9e4a-07529c572b44","ios":"levelo://app?vid=0fb02880-5c6e-4026-9e4a-07529c572b44"},"vehicle_type_id":"4","last_reported":1747592013,"current_range_meters":8400,"station_id":"","pricing_plan_id":"cebpf4jnsgd1na2vs0mg"},{"bike_id":"2441aa6c-c414-4cd1-ad7b-981349fbf8cb","system_id":"levelo_inurba_marseille","lat":43.29432,"lon":5.38597,"is_reserved":false,"is_disabled":false,"rental_uris":{"android":"levelo://app?vid=2441aa6c-c414-4cd1-ad7b-981349fbf8cb","ios":"levelo://app?vid=2441aa6c-c414-4cd1-ad7b-981349fbf8cb"},"vehicle_type_id":"4","last_reported":1747592013,"current_range_meters":8400,"station_id":"ce4bh2h2rcd13ifvqdh0","pricing_plan_id":"cebpf4jnsgd1na2vs0mg"},{"bike_id":"8c9e7106-b2c3-4329-9ad9-77a633b665d6","system_id":"levelo_inurba_marseille","lat":43.30633,"lon":5.40076,"is_reserved":false,"is_disabled":false,"rental_uris":{"android":"levelo://app?vid=8c9e7106-b2c3-4329-9ad9-77a633b665d6","ios":"levelo://app?vid=8c9e7106-b2c3-4329-9ad9-77a633b665d6"},"vehicle_type_id":"4","last_reported":1747592013,"current_range_meters":8400,"station_id":"ce4bh112rcd13ifvqda0","pricing_plan_id":"cebpf4jnsgd1na2vs0mg"},{"bike_id":"991ced48-9791-4dbe-b178-850b791c272d","system_id":"levelo_inurba_marseille","lat":43.29919,"lon":5.38147,"is_reserved":false,"is_disabled":false,"rental_uris":{"android":"levelo://app?vid=991ced48-9791-4dbe-b178-850b791c272d","ios":"levelo://app?vid=991ced48-9791-4dbe-b178-850b791c272d"},"vehicle_type_id":"4","last_reported":1747592013,"current_range_meters":8400,"station_id":"","pricing_plan_id":"cebpf4jnsgd1na2vs0mg"},{"bike_id":"14603e41-b2dd-4757-a53c-2e366aa4f983","system_id":"levelo_inurba_marseille","lat":43.26995,"lon":5.42807,"is_reserved":false,"is_disabled":false,"rental_uris":{"android":"levelo://app?vid=14603e41-b2dd-4757-a53c-2e366aa4f983","ios":"levelo://app?vid=14603e41-b2dd-4757-a53c-2e366aa4f983"},"vehicle_type_id":"4","last_reported":1747592013,"current_range_meters":8400,"station_id":"","pricing_plan_id":"cebpf4jnsgd1na2vs0mg"},{"bike_id":"e36629fa-e903-4c4e-a768-9e2c98bf4eea","system_id":"levelo_inurba_marseille","lat":43.28159,"lon":5.4264,"is_reserved":false,"is_disabled":false,"rental_uris":{"android":"levelo://app?vid=e36629fa-e903-4c4e-a768-9e2c98bf4eea","ios":"levelo://app?vid=e36629fa-e903-4c4e-a768-9e2c98bf4eea"},"vehicle_type_id":"4","last_reported":1747592013,"current_range_meters":8400,"station_id":"ce4bhnh2rcd13ifvqgug","pricing_plan_id":"cebpf4jnsgd1na2vs0mg"},{"bike_id":"3fc87b5c-4a9e-4156-9d3a-211966852209","system_id":"levelo_inurba_marseille","lat":43.293642,"lon":5.378362,"is_reserved":false,"is_disabled":false,"rental_uris":{"android":"levelo://app?vid=3fc87b5c-4a9e-4156-9d3a-211966852209","ios":"levelo://app?vid=3fc87b5c-4a9e-4156-9d3a-211966852209"},"vehicle_type_id":"4","last_reported":1747592013,"current_range_meters":8800,"station_id":"ce4bgjh2rcd13ifvqbf0","pricing_plan_id":"cebpf4jnsgd1na2vs0mg"},{"bike_id":"2eab994d-a378-4391-894b-b62d11a34041","system_id":"levelo_inurba_marseille","lat":43.231566,"lon":5.437188,"is_reserved":false,"is_disabled":true,"rental_uris":{"android":"levelo://app?vid=2eab994d-a378-4391-894b-b62d11a34041","ios":"levelo://app?vid=2eab994d-a378-4391-894b-b62d11a34041"},"vehicle_type_id":"4","last_reported":1747592013,"current_range_meters":8800,"station_id":"ce4bhmp2rcd13ifvqgog","pricing_plan_id":"cebpf4jnsgd1na2vs0mg"},{"bike_id":"341ea6cb-f32d-4a02-b8ad-a8797b411562","system_id":"levelo_inurba_marseille","lat":43.2997,"lon":5.37173,"is_reserved":false,"is_disabled":false,"rental_uris":{"android":"levelo://app?vid=341ea6cb-f32d-4a02-b8ad-a8797b411562","ios":"levelo://app?vid=341ea6cb-f32d-4a02-b8ad-a8797b411562"},"vehicle_type_id":"4","last_reported":1747592013,"current_range_meters":8800,"station_id":"ce4bgr92rcd13ifvqc7g","pricing_plan_id":"cebpf4jnsgd1na2vs0mg"},{"bike_id":"caf4c81d-8b81-4d8d-a4f9-9d00bac7ad70","system_id":"levelo_inurba_marseille","lat":43.30747,"lon":5.42816,"is_reserved":false,"is_disabled":false,"rental_uris":{"android":"levelo://app?vid=caf4c81d-8b81-4d8d-a4f9-9d00bac7ad70","ios":"levelo://app?vid=caf4c81d-8b81-4d8d-a4f9-9d00bac7ad70"},"vehicle_type_id":"4","last_reported":1747592013,"current_range_meters":8800,"station_id":"","pricing_plan_id":"cebpf4jnsgd1na2vs0mg"},{"bike_id":"0942a4e0-09d2-4a94-9ccc-136b2604fc2e","system_id":"levelo_inurba_marseille","lat":43.24071,"lon":5.37757,"is_reserved":false,"is_disabled":false,"rental_uris":{"android":"levelo://app?vid=0942a4e0-09d2-4a94-9ccc-136b2604fc2e","ios":"levelo://app?vid=0942a4e0-09d2-4a94-9ccc-136b2604fc2e"},"vehicle_type_id":"4","last_reported":1747592013,"current_range_meters":8800,"station_id":"ce4bhnp2rcd13ifvqgvg","pricing_plan_id":"cebpf4jnsgd1na2vs0mg"},{"bike_id":"0c2b5650-b63e-432a-a802-72710d7a63b5","system_id":"levelo_inurba_marseille","lat":43.27912,"lon":5.39579,"is_reserved":false,"is_disabled":false,"rental_uris":{"android":"levelo://app?vid=0c2b5650-b63e-432a-a802-72710d7a63b5","ios":"levelo://app?vid=0c2b5650-b63e-432a-a802-72710d7a63b5"},"vehicle_type_id":"4","last_reported":1747592013,"current_range_meters":8800,"station_id":"ce4bhf92rcd13ifvqf40","pricing_plan_id":"cebpf4jnsgd1na2vs0mg"},{"bike_id":"b1e6675a-64b4-4fbc-a190-c2fdd07f79bd","system_id":"levelo_inurba_marseille","lat":43.341397,"lon":5.408957,"is_reserved":false,"is_disabled":false,"rental_uris":{"android":"levelo://app?vid=b1e6675a-64b4-4fbc-a190-c2fdd07f79bd","ios":"levelo://app?vid=b1e6675a-64b4-4fbc-a190-c2fdd07f79bd"},"vehicle_type_id":"4","last_reported":1747592013,"current_range_meters":9200,"station_id":"ce4bhqh2rcd13ifvqhlg","pricing_plan_id":"cebpf4jnsgd1na2vs0mg"},{"bike_id":"7d080336-5a2d-419d-8d50-e49d93450255","system_id":"levelo_inurba_marseille","lat":43.291718,"lon":5.371391,"is_reserved":false,"is_disabled":true,"rental_uris":{"android":"levelo://app?vid=7d080336-5a2d-419d-8d50-e49d93450255","ios":"levelo://app?vid=7d080336-5a2d-419d-8d50-e49d93450255"},"vehicle_type_id":"4","last_reported":1747592013,"current_range_meters":9200,"station_id":"ce4bha92rcd13ifvqeh0","pricing_plan_id":"cebpf4jnsgd1na2vs0mg"},{"bike_id":"66dd256a-8c5c-4515-b0a7-c740c9888c13","system_id":"levelo_inurba_marseille","lat":43.31454,"lon":5.37309,"is_reserved":false,"is_disabled":false,"rental_uris":{"android":"levelo://app?vid=66dd256a-8c5c-4515-b0a7-c740c9888c13","ios":"levelo://app?vid=66dd256a-8c5c-4515-b0a7-c740c9888c13"},"vehicle_type_id":"4","last_reported":1747592013,"current_range_meters":9200,"station_id":"ce4bgt12rcd13ifvqcd0","pricing_plan_id":"cebpf4jnsgd1na2vs0mg"},{"bike_id":"ffc3ddf2-0082-4578-9e25-c91f5b4279bc","system_id":"levelo_inurba_marseille","lat":43.28313,"lon":5.41127,"is_reserved":false,"is_disabled":false,"rental_uris":{"android":"levelo://app?vid=ffc3ddf2-0082-4578-9e25-c91f5b4279bc","ios":"levelo://app?vid=ffc3ddf2-0082-4578-9e25-c91f5b4279bc"},"vehicle_type_id":"4","last_reported":1747592013,"current_range_meters":9200,"station_id":"","pricing_plan_id":"cebpf4jnsgd1na2vs0mg"},{"bike_id":"f5b33733-3847-488d-b81f-cf24b72d306a","system_id":"levelo_inurba_marseille","lat":43.27998,"lon":5.41663,"is_reserved":false,"is_disabled":false,"rental_uris":{"android":"levelo://app?vid=f5b33733-3847-488d-b81f-cf24b72d306a","ios":"levelo://app?vid=f5b33733-3847-488d-b81f-cf24b72d306a"},"vehicle_type_id":"4","last_reported":1747592013,"current_range_meters":9200,"station_id":"ce4bho12rcd13ifvqh1g","pricing_plan_id":"cebpf4jnsgd1na2vs0mg"},{"bike_id":"bec6b4cc-fddd-4a42-ac31-9309814c45ca","system_id":"levelo_inurba_marseille","lat":43.29422,"lon":5.38622,"is_reserved":false,"is_disabled":false,"rental_uris":{"android":"levelo://app?vid=bec6b4cc-fddd-4a42-ac31-9309814c45ca","ios":"levelo://app?vid=bec6b4cc-fddd-4a42-ac31-9309814c45ca"},"vehicle_type_id":"4","last_reported":1747592013,"current_range_meters":9200,"station_id":"ce4bh2h2rcd13ifvqdh0","pricing_plan_id":"cebpf4jnsgd1na2vs0mg"},{"bike_id":"64762946-abf4-45fb-8c1f-62f49415c8e2","system_id":"levelo_inurba_marseille","lat":43.30928,"lon":5.40146,"is_reserved":false,"is_disabled":false,"rental_uris":{"android":"levelo://app?vid=64762946-abf4-45fb-8c1f-62f49415c8e2","ios":"levelo://app?vid=64762946-abf4-45fb-8c1f-62f49415c8e2"},"vehicle_type_id":"4","last_reported":1747592013,"current_range_meters":9200,"station_id":"ce4bgvp2rcd13ifvqct0","pricing_plan_id":"cebpf4jnsgd1na2vs0mg"},{"bike_id":"0cd7e739-22fe-4f56-85a8-971b11083d10","system_id":"levelo_inurba_marseille","lat":43.2755,"lon":5.38434,"is_reserved":false,"is_disabled":false,"rental_uris":{"android":"levelo://app?vid=0cd7e739-22fe-4f56-85a8-971b11083d10","ios":"levelo://app?vid=0cd7e739-22fe-4f56-85a8-971b11083d10"},"vehicle_type_id":"4","last_reported":1747592013,"current_range_meters":9200,"station_id":"ce4bhh92rcd13ifvqfi0","pricing_plan_id":"cebpf4jnsgd1na2vs0mg"},{"bike_id":"67f72f62-eb9d-4994-bbcf-c10b28dd838c","system_id":"levelo_inurba_marseille","lat":43.26601,"lon":5.39366,"is_reserved":false,"is_disabled":false,"rental_uris":{"android":"levelo://app?vid=67f72f62-eb9d-4994-bbcf-c10b28dd838c","ios":"levelo://app?vid=67f72f62-eb9d-4994-bbcf-c10b28dd838c"},"vehicle_type_id":"4","last_reported":1747592013,"current_range_meters":9600,"station_id":"","pricing_plan_id":"cebpf4jnsgd1na2vs0mg"},{"bike_id":"2c5b0dad-3a5c-4908-8ce2-98d1673660b3","system_id":"levelo_inurba_marseille","lat":43.28691,"lon":5.37418,"is_reserved":false,"is_disabled":false,"rental_uris":{"android":"levelo://app?vid=2c5b0dad-3a5c-4908-8ce2-98d1673660b3","ios":"levelo://app?vid=2c5b0dad-3a5c-4908-8ce2-98d1673660b3"},"vehicle_type_id":"4","last_reported":1747592013,"current_range_meters":9600,"station_id":"ce4bh3p2rcd13ifvqdq0","pricing_plan_id":"cebpf4jnsgd1na2vs0mg"},{"bike_id":"5792e8e9-e129-417b-9f2d-173c4a8ba502","system_id":"levelo_inurba_marseille","lat":43.29584,"lon":5.3674,"is_reserved":false,"is_disabled":false,"rental_uris":{"android":"levelo://app?vid=5792e8e9-e129-417b-9f2d-173c4a8ba502","ios":"levelo://app?vid=5792e8e9-e129-417b-9f2d-173c4a8ba502"},"vehicle_type_id":"4","last_reported":1747592013,"current_range_meters":9600,"station_id":"ce4bgph2rcd13ifvqc2g","pricing_plan_id":"cebpf4jnsgd1na2vs0mg"},{"bike_id":"88c266e6-7038-494f-b358-90ca603fb435","system_id":"levelo_inurba_marseille","lat":43.295875,"lon":5.375175,"is_reserved":false,"is_disabled":true,"rental_uris":{"android":"levelo://app?vid=88c266e6-7038-494f-b358-90ca603fb435","ios":"levelo://app?vid=88c266e6-7038-494f-b358-90ca603fb435"},"vehicle_type_id":"4","last_reported":1747592013,"current_range_meters":9600,"station_id":"ce4bgh92rcd13ifvqb50","pricing_plan_id":"cebpf4jnsgd1na2vs0mg"},{"bike_id":"3b38ca3a-e9d2-45e9-a858-91a41b67ac95","system_id":"levelo_inurba_marseille","lat":43.29202,"lon":5.39332,"is_reserved":false,"is_disabled":false,"rental_uris":{"android":"levelo://app?vid=3b38ca3a-e9d2-45e9-a858-91a41b67ac95","ios":"levelo://app?vid=3b38ca3a-e9d2-45e9-a858-91a41b67ac95"},"vehicle_type_id":"4","last_reported":1747592013,"current_range_meters":9600,"station_id":"ce4bh192rcd13ifvqdd0","pricing_plan_id":"cebpf4jnsgd1na2vs0mg"},{"bike_id":"46c2000f-367f-4e40-884c-fe26869e046d","system_id":"levelo_inurba_marseille","lat":43.27664,"lon":5.38877,"is_reserved":false,"is_disabled":false,"rental_uris":{"android":"levelo://app?vid=46c2000f-367f-4e40-884c-fe26869e046d","ios":"levelo://app?vid=46c2000f-367f-4e40-884c-fe26869e046d"},"vehicle_type_id":"4","last_reported":1747592013,"current_range_meters":8800,"station_id":"ce4bhi12rcd13ifvqfo0","pricing_plan_id":"cebpf4jnsgd1na2vs0mg"},{"bike_id":"bbdd32d2-e050-49ce-b2e3-859f070155fd","system_id":"levelo_inurba_marseille","lat":43.26803,"lon":5.39403,"is_reserved":false,"is_disabled":false,"rental_uris":{"android":"levelo://app?vid=bbdd32d2-e050-49ce-b2e3-859f070155fd","ios":"levelo://app?vid=bbdd32d2-e050-49ce-b2e3-859f070155fd"},"vehicle_type_id":"4","last_reported":1747592013,"current_range_meters":9200,"station_id":"ce4bhh12rcd13ifvqfg0","pricing_plan_id":"cebpf4jnsgd1na2vs0mg"},{"bike_id":"1b2f0e19-c9dc-4000-8367-67c619535c14","system_id":"levelo_inurba_marseille","lat":43.29953,"lon":5.36521,"is_reserved":false,"is_disabled":true,"rental_uris":{"android":"levelo://app?vid=1b2f0e19-c9dc-4000-8367-67c619535c14","ios":"levelo://app?vid=1b2f0e19-c9dc-4000-8367-67c619535c14"},"vehicle_type_id":"4","last_reported":1747592013,"current_range_meters":9600,"station_id":"ce4bgm92rcd13ifvqbr0","pricing_plan_id":"cebpf4jnsgd1na2vs0mg"},{"bike_id":"b97b4abd-9915-4c5f-9312-0d4b751fbbd2","system_id":"levelo_inurba_marseille","lat":43.27824,"lon":5.39203,"is_reserved":false,"is_disabled":false,"rental_uris":{"android":"levelo://app?vid=b97b4abd-9915-4c5f-9312-0d4b751fbbd2","ios":"levelo://app?vid=b97b4abd-9915-4c5f-9312-0d4b751fbbd2"},"vehicle_type_id":"4","last_reported":1747592013,"current_range_meters":9600,"station_id":"ce4bhjp2rcd13ifvqga0","pricing_plan_id":"cebpf4jnsgd1na2vs0mg"},{"bike_id":"6e1bd625-3ec1-43df-9657-36d71ae09f8d","system_id":"levelo_inurba_marseille","lat":43.33748,"lon":5.37479,"is_reserved":false,"is_disabled":false,"rental_uris":{"android":"levelo://app?vid=6e1bd625-3ec1-43df-9657-36d71ae09f8d","ios":"levelo://app?vid=6e1bd625-3ec1-43df-9657-36d71ae09f8d"},"vehicle_type_id":"4","last_reported":1747592013,"current_range_meters":9600,"station_id":"","pricing_plan_id":"cebpf4jnsgd1na2vs0mg"},{"bike_id":"bddd8f16-e308-4ffb-a9f6-c2eff03a0aea","system_id":"levelo_inurba_marseille","lat":43.29085,"lon":5.38134,"is_reserved":false,"is_disabled":false,"rental_uris":{"android":"levelo://app?vid=bddd8f16-e308-4ffb-a9f6-c2eff03a0aea","ios":"levelo://app?vid=bddd8f16-e308-4ffb-a9f6-c2eff03a0aea"},"vehicle_type_id":"4","last_reported":1747592013,"current_range_meters":9600,"station_id":"ce4bh512rcd13ifvqe2g","pricing_plan_id":"cebpf4jnsgd1na2vs0mg"},{"bike_id":"f0f7017b-f4f0-44ef-a298-69fa7a191236","system_id":"levelo_inurba_marseille","lat":43.273221,"lon":5.39068,"is_reserved":false,"is_disabled":false,"rental_uris":{"android":"levelo://app?vid=f0f7017b-f4f0-44ef-a298-69fa7a191236","ios":"levelo://app?vid=f0f7017b-f4f0-44ef-a298-69fa7a191236"},"vehicle_type_id":"4","last_reported":1747592013,"current_range_meters":10000,"station_id":"","pricing_plan_id":"cebpf4jnsgd1na2vs0mg"},{"bike_id":"7f0ace03-7713-450f-9267-3795dd07890b","system_id":"levelo_inurba_marseille","lat":43.29268,"lon":5.38435,"is_reserved":false,"is_disabled":false,"rental_uris":{"android":"levelo://app?vid=7f0ace03-7713-450f-9267-3795dd07890b","ios":"levelo://app?vid=7f0ace03-7713-450f-9267-3795dd07890b"},"vehicle_type_id":"4","last_reported":1747592013,"current_range_meters":10000,"station_id":"ce4bh692rcd13ifvqea0","pricing_plan_id":"cebpf4jnsgd1na2vs0mg"},{"bike_id":"41e033c5-198d-454b-ad86-9f45159d2737","system_id":"levelo_inurba_marseille","lat":43.30325,"lon":5.40427,"is_reserved":false,"is_disabled":false,"rental_uris":{"android":"levelo://app?vid=41e033c5-198d-454b-ad86-9f45159d2737","ios":"levelo://app?vid=41e033c5-198d-454b-ad86-9f45159d2737"},"vehicle_type_id":"4","last_reported":1747592013,"current_range_meters":10000,"station_id":"ce4bh012rcd13ifvqd10","pricing_plan_id":"cebpf4jnsgd1na2vs0mg"},{"bike_id":"e409667f-ed84-45c8-9be9-90b4316bbd68","system_id":"levelo_inurba_marseille","lat":43.2508,"lon":5.39501,"is_reserved":false,"is_disabled":false,"rental_uris":{"android":"levelo://app?vid=e409667f-ed84-45c8-9be9-90b4316bbd68","ios":"levelo://app?vid=e409667f-ed84-45c8-9be9-90b4316bbd68"},"vehicle_type_id":"4","last_reported":1747592013,"current_range_meters":10000,"station_id":"ce4bhm12rcd13ifvqgkg","pricing_plan_id":"cebpf4jnsgd1na2vs0mg"},{"bike_id":"a2b18651-377f-48c6-9fe2-ff095ba7281a","system_id":"levelo_inurba_marseille","lat":43.29029,"lon":5.38652,"is_reserved":false,"is_disabled":false,"rental_uris":{"android":"levelo://app?vid=a2b18651-377f-48c6-9fe2-ff095ba7281a","ios":"levelo://app?vid=a2b18651-377f-48c6-9fe2-ff095ba7281a"},"vehicle_type_id":"4","last_reported":1747592013,"current_range_meters":10000,"station_id":"ce4bh4p2rcd13ifvqe0g","pricing_plan_id":"cebpf4jnsgd1na2vs0mg"},{"bike_id":"80b2f553-91fe-4f03-9eb7-62080a1f9509","system_id":"levelo_inurba_marseille","lat":43.293661,"lon":5.378425,"is_reserved":false,"is_disabled":true,"rental_uris":{"android":"levelo://app?vid=80b2f553-91fe-4f03-9eb7-62080a1f9509","ios":"levelo://app?vid=80b2f553-91fe-4f03-9eb7-62080a1f9509"},"vehicle_type_id":"4","last_reported":1747592013,"current_range_meters":10000,"station_id":"ce4bgjh2rcd13ifvqbf0","pricing_plan_id":"cebpf4jnsgd1na2vs0mg"},{"bike_id":"9b55a1e0-14da-4879-90dc-b321de5c8345","system_id":"levelo_inurba_marseille","lat":43.297814,"lon":5.381134,"is_reserved":false,"is_disabled":true,"rental_uris":{"android":"levelo://app?vid=9b55a1e0-14da-4879-90dc-b321de5c8345","ios":"levelo://app?vid=9b55a1e0-14da-4879-90dc-b321de5c8345"},"vehicle_type_id":"4","last_reported":1747592013,"current_range_meters":10000,"station_id":"ce4bgip2rcd13ifvqbb0","pricing_plan_id":"cebpf4jnsgd1na2vs0mg"},{"bike_id":"4745dd8b-a0b2-49db-b417-8a28eecc51d4","system_id":"levelo_inurba_marseille","lat":43.243312,"lon":5.379934,"is_reserved":false,"is_disabled":false,"rental_uris":{"android":"levelo://app?vid=4745dd8b-a0b2-49db-b417-8a28eecc51d4","ios":"levelo://app?vid=4745dd8b-a0b2-49db-b417-8a28eecc51d4"},"vehicle_type_id":"4","last_reported":1747592013,"current_range_meters":10000,"station_id":"","pricing_plan_id":"cebpf4jnsgd1na2vs0mg"},{"bike_id":"c608898e-58b6-42f7-903a-6008119c7a64","system_id":"levelo_inurba_marseille","lat":43.24045,"lon":5.37767,"is_reserved":false,"is_disabled":false,"rental_uris":{"android":"levelo://app?vid=c608898e-58b6-42f7-903a-6008119c7a64","ios":"levelo://app?vid=c608898e-58b6-42f7-903a-6008119c7a64"},"vehicle_type_id":"4","last_reported":1747592013,"current_range_meters":10000,"station_id":"ce4bhnp2rcd13ifvqgvg","pricing_plan_id":"cebpf4jnsgd1na2vs0mg"},{"bike_id":"2d62eadf-1085-43ac-90f7-cc513094af05","system_id":"levelo_inurba_marseille","lat":43.30881,"lon":5.39653,"is_reserved":false,"is_disabled":false,"rental_uris":{"android":"levelo://app?vid=2d62eadf-1085-43ac-90f7-cc513094af05","ios":"levelo://app?vid=2d62eadf-1085-43ac-90f7-cc513094af05"},"vehicle_type_id":"4","last_reported":1747592013,"current_range_meters":10800,"station_id":"ce4bh012rcd13ifvqcv0","pricing_plan_id":"cebpf4jnsgd1na2vs0mg"},{"bike_id":"fb54163f-2cac-4ba2-8a7a-f6f202b1f889","system_id":"levelo_inurba_marseille","lat":43.31476,"lon":5.37293,"is_reserved":false,"is_disabled":false,"rental_uris":{"android":"levelo://app?vid=fb54163f-2cac-4ba2-8a7a-f6f202b1f889","ios":"levelo://app?vid=fb54163f-2cac-4ba2-8a7a-f6f202b1f889"},"vehicle_type_id":"4","last_reported":1747592013,"current_range_meters":10800,"station_id":"ce4bgt12rcd13ifvqcd0","pricing_plan_id":"cebpf4jnsgd1na2vs0mg"},{"bike_id":"8285b70e-d58d-48c5-81e3-57ec82149f52","system_id":"levelo_inurba_marseille","lat":43.28862,"lon":5.35844,"is_reserved":false,"is_disabled":false,"rental_uris":{"android":"levelo://app?vid=8285b70e-d58d-48c5-81e3-57ec82149f52","ios":"levelo://app?vid=8285b70e-d58d-48c5-81e3-57ec82149f52"},"vehicle_type_id":"4","last_reported":1747592013,"current_range_meters":10800,"station_id":"ce4bhb12rcd13ifvqem0","pricing_plan_id":"cebpf4jnsgd1na2vs0mg"},{"bike_id":"bd92c2a8-2ea6-461b-8d9c-2999978305b2","system_id":"levelo_inurba_marseille","lat":43.29797,"lon":5.38071,"is_reserved":false,"is_disabled":false,"rental_uris":{"android":"levelo://app?vid=bd92c2a8-2ea6-461b-8d9c-2999978305b2","ios":"levelo://app?vid=bd92c2a8-2ea6-461b-8d9c-2999978305b2"},"vehicle_type_id":"4","last_reported":1747592013,"current_range_meters":10800,"station_id":"ce4bgip2rcd13ifvqbb0","pricing_plan_id":"cebpf4jnsgd1na2vs0mg"},{"bike_id":"132d8f4f-4399-400c-9bcb-48d4960eead2","system_id":"levelo_inurba_marseille","lat":43.33723,"lon":5.39184,"is_reserved":false,"is_disabled":false,"rental_uris":{"android":"levelo://app?vid=132d8f4f-4399-400c-9bcb-48d4960eead2","ios":"levelo://app?vid=132d8f4f-4399-400c-9bcb-48d4960eead2"},"vehicle_type_id":"4","last_reported":1747592013,"current_range_meters":10800,"station_id":"ce4bhr92rcd13ifvqhsg","pricing_plan_id":"cebpf4jnsgd1na2vs0mg"},{"bike_id":"a1dbb4f0-633e-4736-8d12-49908eaa7cfe","system_id":"levelo_inurba_marseille","lat":43.29252,"lon":5.384357,"is_reserved":false,"is_disabled":false,"rental_uris":{"android":"levelo://app?vid=a1dbb4f0-633e-4736-8d12-49908eaa7cfe","ios":"levelo://app?vid=a1dbb4f0-633e-4736-8d12-49908eaa7cfe"},"vehicle_type_id":"4","last_reported":1747592013,"current_range_meters":10800,"station_id":"ce4bh692rcd13ifvqea0","pricing_plan_id":"cebpf4jnsgd1na2vs0mg"},{"bike_id":"21a37a15-a876-40bd-8898-62071d11748d","system_id":"levelo_inurba_marseille","lat":43.273967,"lon":5.393481,"is_reserved":false,"is_disabled":false,"rental_uris":{"android":"levelo://app?vid=21a37a15-a876-40bd-8898-62071d11748d","ios":"levelo://app?vid=21a37a15-a876-40bd-8898-62071d11748d"},"vehicle_type_id":"4","last_reported":1747592013,"current_range_meters":10800,"station_id":"ce4bhdp2rcd13ifvqf20","pricing_plan_id":"cebpf4jnsgd1na2vs0mg"},{"bike_id":"8c1358ab-eac1-4c80-9f48-a739214cfa6d","system_id":"levelo_inurba_marseille","lat":43.28158,"lon":5.42633,"is_reserved":false,"is_disabled":false,"rental_uris":{"android":"levelo://app?vid=8c1358ab-eac1-4c80-9f48-a739214cfa6d","ios":"levelo://app?vid=8c1358ab-eac1-4c80-9f48-a739214cfa6d"},"vehicle_type_id":"4","last_reported":1747592013,"current_range_meters":10800,"station_id":"ce4bhnh2rcd13ifvqgug","pricing_plan_id":"cebpf4jnsgd1na2vs0mg"},{"bike_id":"bc33ee48-d76d-4fe6-9894-3eefe725e366","system_id":"levelo_inurba_marseille","lat":43.2952,"lon":5.38553,"is_reserved":false,"is_disabled":false,"rental_uris":{"android":"levelo://app?vid=bc33ee48-d76d-4fe6-9894-3eefe725e366","ios":"levelo://app?vid=bc33ee48-d76d-4fe6-9894-3eefe725e366"},"vehicle_type_id":"4","last_reported":1747592013,"current_range_meters":10800,"station_id":"ce4bgih2rcd13ifvqba0","pricing_plan_id":"cebpf4jnsgd1na2vs0mg"},{"bike_id":"6ee7001e-07ad-49d2-9902-4e2095457f59","system_id":"levelo_inurba_marseille","lat":43.27079,"lon":5.42264,"is_reserved":false,"is_disabled":true,"rental_uris":{"android":"levelo://app?vid=6ee7001e-07ad-49d2-9902-4e2095457f59","ios":"levelo://app?vid=6ee7001e-07ad-49d2-9902-4e2095457f59"},"vehicle_type_id":"4","last_reported":1747592013,"current_range_meters":11200,"station_id":"ce4bhk92rcd13ifvqgb0","pricing_plan_id":"cebpf4jnsgd1na2vs0mg"},{"bike_id":"6b18642e-3127-4e1f-a15b-b3d515f4e125","system_id":"levelo_inurba_marseille","lat":43.30419,"lon":5.39754,"is_reserved":false,"is_disabled":false,"rental_uris":{"android":"levelo://app?vid=6b18642e-3127-4e1f-a15b-b3d515f4e125","ios":"levelo://app?vid=6b18642e-3127-4e1f-a15b-b3d515f4e125"},"vehicle_type_id":"4","last_reported":1747592013,"current_range_meters":11200,"station_id":"ce4bh092rcd13ifvqd20","pricing_plan_id":"cebpf4jnsgd1na2vs0mg"},{"bike_id":"5cef1cf1-6c1c-4348-8b73-9a301257c20f","system_id":"levelo_inurba_marseille","lat":43.287173,"lon":5.379491,"is_reserved":false,"is_disabled":false,"rental_uris":{"android":"levelo://app?vid=5cef1cf1-6c1c-4348-8b73-9a301257c20f","ios":"levelo://app?vid=5cef1cf1-6c1c-4348-8b73-9a301257c20f"},"vehicle_type_id":"4","last_reported":1747592013,"current_range_meters":11200,"station_id":"ce4bh9p2rcd13ifvqec0","pricing_plan_id":"cebpf4jnsgd1na2vs0mg"},{"bike_id":"a3ac0926-e50e-4bc0-8978-84a66b4fc5d3","system_id":"levelo_inurba_marseille","lat":43.29207,"lon":5.39349,"is_reserved":false,"is_disabled":false,"rental_uris":{"android":"levelo://app?vid=a3ac0926-e50e-4bc0-8978-84a66b4fc5d3","ios":"levelo://app?vid=a3ac0926-e50e-4bc0-8978-84a66b4fc5d3"},"vehicle_type_id":"4","last_reported":1747592013,"current_range_meters":11200,"station_id":"ce4bh192rcd13ifvqdd0","pricing_plan_id":"cebpf4jnsgd1na2vs0mg"},{"bike_id":"86e48878-e91e-4f4a-8f28-3f2a8f384ed0","system_id":"levelo_inurba_marseille","lat":43.29247,"lon":5.37597,"is_reserved":false,"is_disabled":false,"rental_uris":{"android":"levelo://app?vid=86e48878-e91e-4f4a-8f28-3f2a8f384ed0","ios":"levelo://app?vid=86e48878-e91e-4f4a-8f28-3f2a8f384ed0"},"vehicle_type_id":"4","last_reported":1747592013,"current_range_meters":11200,"station_id":"ce4bgi12rcd13ifvqb80","pricing_plan_id":"cebpf4jnsgd1na2vs0mg"},{"bike_id":"b26a0dd7-cbdc-4ab7-8def-31c4b88b224a","system_id":"levelo_inurba_marseille","lat":43.312153,"lon":5.392435,"is_reserved":false,"is_disabled":false,"rental_uris":{"android":"levelo://app?vid=b26a0dd7-cbdc-4ab7-8def-31c4b88b224a","ios":"levelo://app?vid=b26a0dd7-cbdc-4ab7-8def-31c4b88b224a"},"vehicle_type_id":"4","last_reported":1747592013,"current_range_meters":11600,"station_id":"","pricing_plan_id":"cebpf4jnsgd1na2vs0mg"},{"bike_id":"c300e1d4-b76b-4f78-9b88-6acaa4e392eb","system_id":"levelo_inurba_marseille","lat":43.32646,"lon":5.40994,"is_reserved":false,"is_disabled":false,"rental_uris":{"android":"levelo://app?vid=c300e1d4-b76b-4f78-9b88-6acaa4e392eb","ios":"levelo://app?vid=c300e1d4-b76b-4f78-9b88-6acaa4e392eb"},"vehicle_type_id":"4","last_reported":1747592013,"current_range_meters":11600,"station_id":"ce4bhpp2rcd13ifvqhgg","pricing_plan_id":"cebpf4jnsgd1na2vs0mg"},{"bike_id":"51a33848-f0f0-40ec-b6c6-8948c992d932","system_id":"levelo_inurba_marseille","lat":43.25093,"lon":5.39524,"is_reserved":false,"is_disabled":false,"rental_uris":{"android":"levelo://app?vid=51a33848-f0f0-40ec-b6c6-8948c992d932","ios":"levelo://app?vid=51a33848-f0f0-40ec-b6c6-8948c992d932"},"vehicle_type_id":"4","last_reported":1747592013,"current_range_meters":11600,"station_id":"ce4bhm12rcd13ifvqgkg","pricing_plan_id":"cebpf4jnsgd1na2vs0mg"},{"bike_id":"45607dd1-9ba4-495e-8f5f-bfbe5e23466e","system_id":"levelo_inurba_marseille","lat":43.31707,"lon":5.37749,"is_reserved":false,"is_disabled":false,"rental_uris":{"android":"levelo://app?vid=45607dd1-9ba4-495e-8f5f-bfbe5e23466e","ios":"levelo://app?vid=45607dd1-9ba4-495e-8f5f-bfbe5e23466e"},"vehicle_type_id":"4","last_reported":1747592013,"current_range_meters":11200,"station_id":"ce4bgth2rcd13ifvqch0","pricing_plan_id":"cebpf4jnsgd1na2vs0mg"},{"bike_id":"5356486b-67bb-400e-bd09-d7548154b9a4","system_id":"levelo_inurba_marseille","lat":43.29575,"lon":5.36742,"is_reserved":false,"is_disabled":false,"rental_uris":{"android":"levelo://app?vid=5356486b-67bb-400e-bd09-d7548154b9a4","ios":"levelo://app?vid=5356486b-67bb-400e-bd09-d7548154b9a4"},"vehicle_type_id":"4","last_reported":1747592013,"current_range_meters":11600,"station_id":"ce4bgph2rcd13ifvqc2g","pricing_plan_id":"cebpf4jnsgd1na2vs0mg"},{"bike_id":"8ac7f0be-56cf-4cd5-bb0b-73b2bb25050d","system_id":"levelo_inurba_marseille","lat":43.29981,"lon":5.37135,"is_reserved":false,"is_disabled":false,"rental_uris":{"android":"levelo://app?vid=8ac7f0be-56cf-4cd5-bb0b-73b2bb25050d","ios":"levelo://app?vid=8ac7f0be-56cf-4cd5-bb0b-73b2bb25050d"},"vehicle_type_id":"4","last_reported":1747592013,"current_range_meters":12000,"station_id":"ce4bgr92rcd13ifvqc7g","pricing_plan_id":"cebpf4jnsgd1na2vs0mg"},{"bike_id":"c33f6562-2e9a-4d7f-a016-4927115f29b8","system_id":"levelo_inurba_marseille","lat":43.29248,"lon":5.38444,"is_reserved":false,"is_disabled":false,"rental_uris":{"android":"levelo://app?vid=c33f6562-2e9a-4d7f-a016-4927115f29b8","ios":"levelo://app?vid=c33f6562-2e9a-4d7f-a016-4927115f29b8"},"vehicle_type_id":"4","last_reported":1747592013,"current_range_meters":12000,"station_id":"ce4bh692rcd13ifvqea0","pricing_plan_id":"cebpf4jnsgd1na2vs0mg"},{"bike_id":"fd0b324a-0ce6-481c-ad8b-8998367126a0","system_id":"levelo_inurba_marseille","lat":43.2835,"lon":5.38119,"is_reserved":false,"is_disabled":false,"rental_uris":{"android":"levelo://app?vid=fd0b324a-0ce6-481c-ad8b-8998367126a0","ios":"levelo://app?vid=fd0b324a-0ce6-481c-ad8b-8998367126a0"},"vehicle_type_id":"4","last_reported":1747592013,"current_range_meters":12000,"station_id":"ce4bh412rcd13ifvqdr0","pricing_plan_id":"cebpf4jnsgd1na2vs0mg"},{"bike_id":"6a999915-acef-4431-8302-291ad3b5d432","system_id":"levelo_inurba_marseille","lat":43.30543,"lon":5.38428,"is_reserved":false,"is_disabled":false,"rental_uris":{"android":"levelo://app?vid=6a999915-acef-4431-8302-291ad3b5d432","ios":"levelo://app?vid=6a999915-acef-4431-8302-291ad3b5d432"},"vehicle_type_id":"4","last_reported":1747592013,"current_range_meters":12000,"station_id":"ce4bgg92rcd13ifvqb30","pricing_plan_id":"cebpf4jnsgd1na2vs0mg"},{"bike_id":"f10c7f80-369b-498b-8d67-1d2ccccfe061","system_id":"levelo_inurba_marseille","lat":43.28703,"lon":5.37403,"is_reserved":false,"is_disabled":false,"rental_uris":{"android":"levelo://app?vid=f10c7f80-369b-498b-8d67-1d2ccccfe061","ios":"levelo://app?vid=f10c7f80-369b-498b-8d67-1d2ccccfe061"},"vehicle_type_id":"4","last_reported":1747592013,"current_range_meters":12000,"station_id":"ce4bh3p2rcd13ifvqdq0","pricing_plan_id":"cebpf4jnsgd1na2vs0mg"},{"bike_id":"d8da70fb-a079-460a-9e23-65ed45fe0088","system_id":"levelo_inurba_marseille","lat":43.25502,"lon":5.37646,"is_reserved":false,"is_disabled":true,"rental_uris":{"android":"levelo://app?vid=d8da70fb-a079-460a-9e23-65ed45fe0088","ios":"levelo://app?vid=d8da70fb-a079-460a-9e23-65ed45fe0088"},"vehicle_type_id":"4","last_reported":1747592013,"current_range_meters":12400,"station_id":"ce4bhh12rcd13ifvqff0","pricing_plan_id":"cebpf4jnsgd1na2vs0mg"},{"bike_id":"8432cd7b-5a26-4f4f-9ee0-0201ea4d6bee","system_id":"levelo_inurba_marseille","lat":43.289356,"lon":5.366428,"is_reserved":false,"is_disabled":false,"rental_uris":{"android":"levelo://app?vid=8432cd7b-5a26-4f4f-9ee0-0201ea4d6bee","ios":"levelo://app?vid=8432cd7b-5a26-4f4f-9ee0-0201ea4d6bee"},"vehicle_type_id":"4","last_reported":1747592013,"current_range_meters":12400,"station_id":"ce4bhap2rcd13ifvqek0","pricing_plan_id":"cebpf4jnsgd1na2vs0mg"},{"bike_id":"e3b78554-4d24-4011-be37-94a8a7d4a2fb","system_id":"levelo_inurba_marseille","lat":43.26471,"lon":5.39567,"is_reserved":false,"is_disabled":true,"rental_uris":{"android":"levelo://app?vid=e3b78554-4d24-4011-be37-94a8a7d4a2fb","ios":"levelo://app?vid=e3b78554-4d24-4011-be37-94a8a7d4a2fb"},"vehicle_type_id":"4","last_reported":1747592013,"current_range_meters":12400,"station_id":"ce4bhi12rcd13ifvqfq0","pricing_plan_id":"cebpf4jnsgd1na2vs0mg"},{"bike_id":"51736835-8128-4840-b526-bf33d386a6e7","system_id":"levelo_inurba_marseille","lat":43.29905,"lon":5.436459,"is_reserved":false,"is_disabled":true,"rental_uris":{"android":"levelo://app?vid=51736835-8128-4840-b526-bf33d386a6e7","ios":"levelo://app?vid=51736835-8128-4840-b526-bf33d386a6e7"},"vehicle_type_id":"4","last_reported":1747592013,"current_range_meters":12400,"station_id":"ce4bhpp2rcd13ifvqhfg","pricing_plan_id":"cebpf4jnsgd1na2vs0mg"},{"bike_id":"814e2930-a412-47af-849d-26da2abc07f6","system_id":"levelo_inurba_marseille","lat":43.27827,"lon":5.4072,"is_reserved":false,"is_disabled":true,"rental_uris":{"android":"levelo://app?vid=814e2930-a412-47af-849d-26da2abc07f6","ios":"levelo://app?vid=814e2930-a412-47af-849d-26da2abc07f6"},"vehicle_type_id":"4","last_reported":1747592013,"current_range_meters":12400,"station_id":"ce4bhnh2rcd13ifvqgtg","pricing_plan_id":"cebpf4jnsgd1na2vs0mg"},{"bike_id":"bfe2616a-ffe2-4507-a00a-544cad85d2ea","system_id":"levelo_inurba_marseille","lat":43.28199,"lon":5.39053,"is_reserved":false,"is_disabled":false,"rental_uris":{"android":"levelo://app?vid=bfe2616a-ffe2-4507-a00a-544cad85d2ea","ios":"levelo://app?vid=bfe2616a-ffe2-4507-a00a-544cad85d2ea"},"vehicle_type_id":"4","last_reported":1747592013,"current_range_meters":12800,"station_id":"","pricing_plan_id":"cebpf4jnsgd1na2vs0mg"},{"bike_id":"4a9a3912-78d1-4003-a3ea-36c32e8234f3","system_id":"levelo_inurba_marseille","lat":43.28937,"lon":5.36418,"is_reserved":false,"is_disabled":false,"rental_uris":{"android":"levelo://app?vid=4a9a3912-78d1-4003-a3ea-36c32e8234f3","ios":"levelo://app?vid=4a9a3912-78d1-4003-a3ea-36c32e8234f3"},"vehicle_type_id":"4","last_reported":1747592013,"current_range_meters":12800,"station_id":"ce4bhc92rcd13ifvqetg","pricing_plan_id":"cebpf4jnsgd1na2vs0mg"},{"bike_id":"1612d380-1583-4037-aa62-44a5bfa05e0c","system_id":"levelo_inurba_marseille","lat":43.27916,"lon":5.39584,"is_reserved":false,"is_disabled":false,"rental_uris":{"android":"levelo://app?vid=1612d380-1583-4037-aa62-44a5bfa05e0c","ios":"levelo://app?vid=1612d380-1583-4037-aa62-44a5bfa05e0c"},"vehicle_type_id":"4","last_reported":1747592013,"current_range_meters":12800,"station_id":"ce4bhf92rcd13ifvqf40","pricing_plan_id":"cebpf4jnsgd1na2vs0mg"},{"bike_id":"ac9a316a-ea62-4e74-8596-2ce73924ca3a","system_id":"levelo_inurba_marseille","lat":43.28032,"lon":5.36949,"is_reserved":false,"is_disabled":false,"rental_uris":{"android":"levelo://app?vid=ac9a316a-ea62-4e74-8596-2ce73924ca3a","ios":"levelo://app?vid=ac9a316a-ea62-4e74-8596-2ce73924ca3a"},"vehicle_type_id":"4","last_reported":1747592013,"current_range_meters":12800,"station_id":"ce4bha12rcd13ifvqef0","pricing_plan_id":"cebpf4jnsgd1na2vs0mg"},{"bike_id":"fa922033-5240-4d00-8a04-7369d98a6dcb","system_id":"levelo_inurba_marseille","lat":43.25108,"lon":5.4033,"is_reserved":false,"is_disabled":false,"rental_uris":{"android":"levelo://app?vid=fa922033-5240-4d00-8a04-7369d98a6dcb","ios":"levelo://app?vid=fa922033-5240-4d00-8a04-7369d98a6dcb"},"vehicle_type_id":"4","last_reported":1747592013,"current_range_meters":12800,"station_id":"ce4bhlh2rcd13ifvqgig","pricing_plan_id":"cebpf4jnsgd1na2vs0mg"},{"bike_id":"12c4d802-2c6a-4c71-888e-000ffe312a3f","system_id":"levelo_inurba_marseille","lat":43.32355,"lon":5.36727,"is_reserved":false,"is_disabled":false,"rental_uris":{"android":"levelo://app?vid=12c4d802-2c6a-4c71-888e-000ffe312a3f","ios":"levelo://app?vid=12c4d802-2c6a-4c71-888e-000ffe312a3f"},"vehicle_type_id":"4","last_reported":1747592013,"current_range_meters":12800,"station_id":"ce4bhsh2rcd13ifvqi2g","pricing_plan_id":"cebpf4jnsgd1na2vs0mg"},{"bike_id":"e36c4bb4-c598-411d-b15d-59bca08cb9cc","system_id":"levelo_inurba_marseille","lat":43.30558,"lon":5.38409,"is_reserved":false,"is_disabled":false,"rental_uris":{"android":"levelo://app?vid=e36c4bb4-c598-411d-b15d-59bca08cb9cc","ios":"levelo://app?vid=e36c4bb4-c598-411d-b15d-59bca08cb9cc"},"vehicle_type_id":"4","last_reported":1747592013,"current_range_meters":12800,"station_id":"ce4bgg92rcd13ifvqb30","pricing_plan_id":"cebpf4jnsgd1na2vs0mg"},{"bike_id":"5a5e3412-4273-44a0-982f-fc829ccdcaf6","system_id":"levelo_inurba_marseille","lat":43.28617,"lon":5.35105,"is_reserved":false,"is_disabled":false,"rental_uris":{"android":"levelo://app?vid=5a5e3412-4273-44a0-982f-fc829ccdcaf6","ios":"levelo://app?vid=5a5e3412-4273-44a0-982f-fc829ccdcaf6"},"vehicle_type_id":"4","last_reported":1747592013,"current_range_meters":12800,"station_id":"ce4bhch2rcd13ifvqeug","pricing_plan_id":"cebpf4jnsgd1na2vs0mg"},{"bike_id":"cc1ce612-4672-4f24-8dc8-ebc94a0d34b5","system_id":"levelo_inurba_marseille","lat":43.29029,"lon":5.38628,"is_reserved":false,"is_disabled":false,"rental_uris":{"android":"levelo://app?vid=cc1ce612-4672-4f24-8dc8-ebc94a0d34b5","ios":"levelo://app?vid=cc1ce612-4672-4f24-8dc8-ebc94a0d34b5"},"vehicle_type_id":"4","last_reported":1747592013,"current_range_meters":14000,"station_id":"ce4bh4p2rcd13ifvqe0g","pricing_plan_id":"cebpf4jnsgd1na2vs0mg"},{"bike_id":"3fe4ee94-b4ae-4871-89c2-728f25947523","system_id":"levelo_inurba_marseille","lat":43.32363,"lon":5.38884,"is_reserved":false,"is_disabled":false,"rental_uris":{"android":"levelo://app?vid=3fe4ee94-b4ae-4871-89c2-728f25947523","ios":"levelo://app?vid=3fe4ee94-b4ae-4871-89c2-728f25947523"},"vehicle_type_id":"4","last_reported":1747592013,"current_range_meters":12800,"station_id":"ce4bhqp2rcd13ifvqhog","pricing_plan_id":"cebpf4jnsgd1na2vs0mg"},{"bike_id":"cd882363-6fba-44e4-8f5c-05592e9ce81a","system_id":"levelo_inurba_marseille","lat":43.26226,"lon":5.4045,"is_reserved":false,"is_disabled":false,"rental_uris":{"android":"levelo://app?vid=cd882363-6fba-44e4-8f5c-05592e9ce81a","ios":"levelo://app?vid=cd882363-6fba-44e4-8f5c-05592e9ce81a"},"vehicle_type_id":"4","last_reported":1747592013,"current_range_meters":13600,"station_id":"ce4bhmh2rcd13ifvqgmg","pricing_plan_id":"cebpf4jnsgd1na2vs0mg"},{"bike_id":"356b2829-3ca0-4f70-8f78-46e79da913e0","system_id":"levelo_inurba_marseille","lat":43.28159,"lon":5.42634,"is_reserved":false,"is_disabled":false,"rental_uris":{"android":"levelo://app?vid=356b2829-3ca0-4f70-8f78-46e79da913e0","ios":"levelo://app?vid=356b2829-3ca0-4f70-8f78-46e79da913e0"},"vehicle_type_id":"4","last_reported":1747592013,"current_range_meters":13600,"station_id":"ce4bhnh2rcd13ifvqgug","pricing_plan_id":"cebpf4jnsgd1na2vs0mg"},{"bike_id":"d6a4c3f4-3388-457a-b75c-682bc59c721e","system_id":"levelo_inurba_marseille","lat":43.30778,"lon":5.37666,"is_reserved":false,"is_disabled":false,"rental_uris":{"android":"levelo://app?vid=d6a4c3f4-3388-457a-b75c-682bc59c721e","ios":"levelo://app?vid=d6a4c3f4-3388-457a-b75c-682bc59c721e"},"vehicle_type_id":"4","last_reported":1747592013,"current_range_meters":13600,"station_id":"ce4bgv92rcd13ifvqcq0","pricing_plan_id":"cebpf4jnsgd1na2vs0mg"},{"bike_id":"21cd20d6-11f9-4f1f-9f1a-6281996284a7","system_id":"levelo_inurba_marseille","lat":43.30445,"lon":5.3888,"is_reserved":false,"is_disabled":false,"rental_uris":{"android":"levelo://app?vid=21cd20d6-11f9-4f1f-9f1a-6281996284a7","ios":"levelo://app?vid=21cd20d6-11f9-4f1f-9f1a-6281996284a7"},"vehicle_type_id":"4","last_reported":1747592013,"current_range_meters":13600,"station_id":"ce4bgk12rcd13ifvqbi0","pricing_plan_id":"cebpf4jnsgd1na2vs0mg"},{"bike_id":"94b6fe50-d913-4505-b6fa-868623f0a3c5","system_id":"levelo_inurba_marseille","lat":43.29726,"lon":5.36575,"is_reserved":false,"is_disabled":false,"rental_uris":{"android":"levelo://app?vid=94b6fe50-d913-4505-b6fa-868623f0a3c5","ios":"levelo://app?vid=94b6fe50-d913-4505-b6fa-868623f0a3c5"},"vehicle_type_id":"4","last_reported":1747592013,"current_range_meters":13600,"station_id":"ce4bgn12rcd13ifvqbt0","pricing_plan_id":"cebpf4jnsgd1na2vs0mg"},{"bike_id":"0e487ae5-d1ef-46e1-a806-97de130345f7","system_id":"levelo_inurba_marseille","lat":43.29618,"lon":5.37161,"is_reserved":false,"is_disabled":false,"rental_uris":{"android":"levelo://app?vid=0e487ae5-d1ef-46e1-a806-97de130345f7","ios":"levelo://app?vid=0e487ae5-d1ef-46e1-a806-97de130345f7"},"vehicle_type_id":"4","last_reported":1747592013,"current_range_meters":12800,"station_id":"ce4bgnh2rcd13ifvqc0g","pricing_plan_id":"cebpf4jnsgd1na2vs0mg"},{"bike_id":"4a0a6849-9fbc-44fb-9432-80954aa23a58","system_id":"levelo_inurba_marseille","lat":43.30545,"lon":5.38421,"is_reserved":false,"is_disabled":false,"rental_uris":{"android":"levelo://app?vid=4a0a6849-9fbc-44fb-9432-80954aa23a58","ios":"levelo://app?vid=4a0a6849-9fbc-44fb-9432-80954aa23a58"},"vehicle_type_id":"4","last_reported":1747592013,"current_range_meters":14000,"station_id":"ce4bgg92rcd13ifvqb30","pricing_plan_id":"cebpf4jnsgd1na2vs0mg"},{"bike_id":"19f90f9e-cded-455f-9283-040d566d918f","system_id":"levelo_inurba_marseille","lat":43.28933,"lon":5.36632,"is_reserved":false,"is_disabled":false,"rental_uris":{"android":"levelo://app?vid=19f90f9e-cded-455f-9283-040d566d918f","ios":"levelo://app?vid=19f90f9e-cded-455f-9283-040d566d918f"},"vehicle_type_id":"4","last_reported":1747592013,"current_range_meters":14000,"station_id":"ce4bhap2rcd13ifvqek0","pricing_plan_id":"cebpf4jnsgd1na2vs0mg"},{"bike_id":"2d43dba1-6ff7-4289-91c8-c617d5aac932","system_id":"levelo_inurba_marseille","lat":43.295681,"lon":5.374973,"is_reserved":false,"is_disabled":true,"rental_uris":{"android":"levelo://app?vid=2d43dba1-6ff7-4289-91c8-c617d5aac932","ios":"levelo://app?vid=2d43dba1-6ff7-4289-91c8-c617d5aac932"},"vehicle_type_id":"4","last_reported":1747592013,"current_range_meters":14000,"station_id":"ce4bgh92rcd13ifvqb50","pricing_plan_id":"cebpf4jnsgd1na2vs0mg"},{"bike_id":"5c1cfafc-efda-4c44-a512-0b0d7a09f432","system_id":"levelo_inurba_marseille","lat":43.27216,"lon":5.39183,"is_reserved":false,"is_disabled":true,"rental_uris":{"android":"levelo://app?vid=5c1cfafc-efda-4c44-a512-0b0d7a09f432","ios":"levelo://app?vid=5c1cfafc-efda-4c44-a512-0b0d7a09f432"},"vehicle_type_id":"4","last_reported":1747592013,"current_range_meters":14000,"station_id":"ce4bhhp2rcd13ifvqfm0","pricing_plan_id":"cebpf4jnsgd1na2vs0mg"},{"bike_id":"a85be539-0282-4f5c-add7-ff454bb1404c","system_id":"levelo_inurba_marseille","lat":43.27923,"lon":5.395828,"is_reserved":false,"is_disabled":false,"rental_uris":{"android":"levelo://app?vid=a85be539-0282-4f5c-add7-ff454bb1404c","ios":"levelo://app?vid=a85be539-0282-4f5c-add7-ff454bb1404c"},"vehicle_type_id":"4","last_reported":1747592013,"current_range_meters":14000,"station_id":"ce4bhf92rcd13ifvqf40","pricing_plan_id":"cebpf4jnsgd1na2vs0mg"},{"bike_id":"e472a7f3-1962-44a9-b366-ed0d4cb32e38","system_id":"levelo_inurba_marseille","lat":43.26226,"lon":5.40454,"is_reserved":false,"is_disabled":false,"rental_uris":{"android":"levelo://app?vid=e472a7f3-1962-44a9-b366-ed0d4cb32e38","ios":"levelo://app?vid=e472a7f3-1962-44a9-b366-ed0d4cb32e38"},"vehicle_type_id":"4","last_reported":1747592013,"current_range_meters":14000,"station_id":"ce4bhmh2rcd13ifvqgmg","pricing_plan_id":"cebpf4jnsgd1na2vs0mg"},{"bike_id":"5312fad4-c29a-47ec-968b-e9503d63c3ed","system_id":"levelo_inurba_marseille","lat":43.28664,"lon":5.38686,"is_reserved":false,"is_disabled":false,"rental_uris":{"android":"levelo://app?vid=5312fad4-c29a-47ec-968b-e9503d63c3ed","ios":"levelo://app?vid=5312fad4-c29a-47ec-968b-e9503d63c3ed"},"vehicle_type_id":"4","last_reported":1747592013,"current_range_meters":13600,"station_id":"ce4bh492rcd13ifvqdug","pricing_plan_id":"cebpf4jnsgd1na2vs0mg"},{"bike_id":"1f52f78c-06d0-4ddf-880d-c5d4cf34b0ea","system_id":"levelo_inurba_marseille","lat":43.28041,"lon":5.36938,"is_reserved":false,"is_disabled":false,"rental_uris":{"android":"levelo://app?vid=1f52f78c-06d0-4ddf-880d-c5d4cf34b0ea","ios":"levelo://app?vid=1f52f78c-06d0-4ddf-880d-c5d4cf34b0ea"},"vehicle_type_id":"4","last_reported":1747592013,"current_range_meters":14000,"station_id":"ce4bha12rcd13ifvqef0","pricing_plan_id":"cebpf4jnsgd1na2vs0mg"},{"bike_id":"4ecfeb88-a475-4524-b5d3-81a8b8a5d8b9","system_id":"levelo_inurba_marseille","lat":43.27672,"lon":5.38876,"is_reserved":false,"is_disabled":false,"rental_uris":{"android":"levelo://app?vid=4ecfeb88-a475-4524-b5d3-81a8b8a5d8b9","ios":"levelo://app?vid=4ecfeb88-a475-4524-b5d3-81a8b8a5d8b9"},"vehicle_type_id":"4","last_reported":1747592013,"current_range_meters":14000,"station_id":"ce4bhi12rcd13ifvqfo0","pricing_plan_id":"cebpf4jnsgd1na2vs0mg"},{"bike_id":"bf2b2bfb-9733-4bda-908d-03391ae976cc","system_id":"levelo_inurba_marseille","lat":43.31196,"lon":5.41603,"is_reserved":false,"is_disabled":false,"rental_uris":{"android":"levelo://app?vid=bf2b2bfb-9733-4bda-908d-03391ae976cc","ios":"levelo://app?vid=bf2b2bfb-9733-4bda-908d-03391ae976cc"},"vehicle_type_id":"4","last_reported":1747592013,"current_range_meters":14000,"station_id":"","pricing_plan_id":"cebpf4jnsgd1na2vs0mg"},{"bike_id":"ed34fad4-c48e-4c1a-b9b1-8eb1cd77d573","system_id":"levelo_inurba_marseille","lat":43.30962,"lon":5.38621,"is_reserved":false,"is_disabled":false,"rental_uris":{"android":"levelo://app?vid=ed34fad4-c48e-4c1a-b9b1-8eb1cd77d573","ios":"levelo://app?vid=ed34fad4-c48e-4c1a-b9b1-8eb1cd77d573"},"vehicle_type_id":"4","last_reported":1747592013,"current_range_meters":14000,"station_id":"ce4bgv12rcd13ifvqcp0","pricing_plan_id":"cebpf4jnsgd1na2vs0mg"},{"bike_id":"7dd1d696-c970-4874-8437-4c2ec2b639df","system_id":"levelo_inurba_marseille","lat":43.30875,"lon":5.39629,"is_reserved":false,"is_disabled":false,"rental_uris":{"android":"levelo://app?vid=7dd1d696-c970-4874-8437-4c2ec2b639df","ios":"levelo://app?vid=7dd1d696-c970-4874-8437-4c2ec2b639df"},"vehicle_type_id":"4","last_reported":1747592013,"current_range_meters":14000,"station_id":"ce4bh012rcd13ifvqcv0","pricing_plan_id":"cebpf4jnsgd1na2vs0mg"},{"bike_id":"eb9c8745-1588-4441-95fa-8cd57b7b1d2a","system_id":"levelo_inurba_marseille","lat":43.29573,"lon":5.42281,"is_reserved":false,"is_disabled":false,"rental_uris":{"android":"levelo://app?vid=eb9c8745-1588-4441-95fa-8cd57b7b1d2a","ios":"levelo://app?vid=eb9c8745-1588-4441-95fa-8cd57b7b1d2a"},"vehicle_type_id":"4","last_reported":1747592013,"current_range_meters":14000,"station_id":"ce4bhph2rcd13ifvqhdg","pricing_plan_id":"cebpf4jnsgd1na2vs0mg"},{"bike_id":"f66dc881-7894-42d2-ac04-15fbbc6934dd","system_id":"levelo_inurba_marseille","lat":43.27809,"lon":5.40718,"is_reserved":false,"is_disabled":false,"rental_uris":{"android":"levelo://app?vid=f66dc881-7894-42d2-ac04-15fbbc6934dd","ios":"levelo://app?vid=f66dc881-7894-42d2-ac04-15fbbc6934dd"},"vehicle_type_id":"4","last_reported":1747592013,"current_range_meters":14400,"station_id":"ce4bhnh2rcd13ifvqgtg","pricing_plan_id":"cebpf4jnsgd1na2vs0mg"},{"bike_id":"b96a4e7c-0de7-41da-b086-8b5a8e70a687","system_id":"levelo_inurba_marseille","lat":43.272025,"lon":5.392085,"is_reserved":false,"is_disabled":true,"rental_uris":{"android":"levelo://app?vid=b96a4e7c-0de7-41da-b086-8b5a8e70a687","ios":"levelo://app?vid=b96a4e7c-0de7-41da-b086-8b5a8e70a687"},"vehicle_type_id":"4","last_reported":1747592013,"current_range_meters":14400,"station_id":"ce4bhhp2rcd13ifvqfm0","pricing_plan_id":"cebpf4jnsgd1na2vs0mg"},{"bike_id":"a675f4e5-fc13-43cf-92f6-6acfa57913c0","system_id":"levelo_inurba_marseille","lat":43.290251,"lon":5.381344,"is_reserved":false,"is_disabled":true,"rental_uris":{"android":"levelo://app?vid=a675f4e5-fc13-43cf-92f6-6acfa57913c0","ios":"levelo://app?vid=a675f4e5-fc13-43cf-92f6-6acfa57913c0"},"vehicle_type_id":"4","last_reported":1747592013,"current_range_meters":14400,"station_id":"ce4bh4p2rcd13ifvqe1g","pricing_plan_id":"cebpf4jnsgd1na2vs0mg"},{"bike_id":"7e85683c-0527-4a85-9ab8-35d06ff2f9ad","system_id":"levelo_inurba_marseille","lat":43.294169,"lon":5.386004,"is_reserved":false,"is_disabled":true,"rental_uris":{"android":"levelo://app?vid=7e85683c-0527-4a85-9ab8-35d06ff2f9ad","ios":"levelo://app?vid=7e85683c-0527-4a85-9ab8-35d06ff2f9ad"},"vehicle_type_id":"4","last_reported":1747592013,"current_range_meters":14400,"station_id":"ce4bh2h2rcd13ifvqdh0","pricing_plan_id":"cebpf4jnsgd1na2vs0mg"},{"bike_id":"d60138cc-d1fe-426c-9536-5a41dbfe71a8","system_id":"levelo_inurba_marseille","lat":43.25722,"lon":5.41108,"is_reserved":false,"is_disabled":false,"rental_uris":{"android":"levelo://app?vid=d60138cc-d1fe-426c-9536-5a41dbfe71a8","ios":"levelo://app?vid=d60138cc-d1fe-426c-9536-5a41dbfe71a8"},"vehicle_type_id":"4","last_reported":1747592013,"current_range_meters":14400,"station_id":"ce4bhkp2rcd13ifvqgd0","pricing_plan_id":"cebpf4jnsgd1na2vs0mg"},{"bike_id":"86603db7-b462-4e72-8622-a2dee8bb2920","system_id":"levelo_inurba_marseille","lat":43.337444,"lon":5.374475,"is_reserved":false,"is_disabled":false,"rental_uris":{"android":"levelo://app?vid=86603db7-b462-4e72-8622-a2dee8bb2920","ios":"levelo://app?vid=86603db7-b462-4e72-8622-a2dee8bb2920"},"vehicle_type_id":"4","last_reported":1747592013,"current_range_meters":14400,"station_id":"","pricing_plan_id":"cebpf4jnsgd1na2vs0mg"},{"bike_id":"5264b5a3-e563-4528-8f4d-b65bf31c7687","system_id":"levelo_inurba_marseille","lat":43.29784,"lon":5.39337,"is_reserved":false,"is_disabled":false,"rental_uris":{"android":"levelo://app?vid=5264b5a3-e563-4528-8f4d-b65bf31c7687","ios":"levelo://app?vid=5264b5a3-e563-4528-8f4d-b65bf31c7687"},"vehicle_type_id":"4","last_reported":1747592013,"current_range_meters":14400,"station_id":"chh1huq6cuj3fo74tm60","pricing_plan_id":"cebpf4jnsgd1na2vs0mg"},{"bike_id":"48ae2fe0-3b77-4041-bb21-2636764e45a9","system_id":"levelo_inurba_marseille","lat":43.30604,"lon":5.37232,"is_reserved":false,"is_disabled":false,"rental_uris":{"android":"levelo://app?vid=48ae2fe0-3b77-4041-bb21-2636764e45a9","ios":"levelo://app?vid=48ae2fe0-3b77-4041-bb21-2636764e45a9"},"vehicle_type_id":"4","last_reported":1747592013,"current_range_meters":14400,"station_id":"ce4bgqh2rcd13ifvqc4g","pricing_plan_id":"cebpf4jnsgd1na2vs0mg"},{"bike_id":"19456222-7d38-48cf-a950-06daadd07927","system_id":"levelo_inurba_marseille","lat":43.2502,"lon":5.37542,"is_reserved":false,"is_disabled":false,"rental_uris":{"android":"levelo://app?vid=19456222-7d38-48cf-a950-06daadd07927","ios":"levelo://app?vid=19456222-7d38-48cf-a950-06daadd07927"},"vehicle_type_id":"4","last_reported":1747592013,"current_range_meters":14800,"station_id":"","pricing_plan_id":"cebpf4jnsgd1na2vs0mg"},{"bike_id":"cf81ba9f-4910-44ec-9b06-44209e8c04de","system_id":"levelo_inurba_marseille","lat":43.23637,"lon":5.3624,"is_reserved":false,"is_disabled":false,"rental_uris":{"android":"levelo://app?vid=cf81ba9f-4910-44ec-9b06-44209e8c04de","ios":"levelo://app?vid=cf81ba9f-4910-44ec-9b06-44209e8c04de"},"vehicle_type_id":"4","last_reported":1747592013,"current_range_meters":14800,"station_id":"","pricing_plan_id":"cebpf4jnsgd1na2vs0mg"},{"bike_id":"50ffb605-90dd-4a75-ad47-03bffd5ee4e1","system_id":"levelo_inurba_marseille","lat":43.28696,"lon":5.37388,"is_reserved":false,"is_disabled":false,"rental_uris":{"android":"levelo://app?vid=50ffb605-90dd-4a75-ad47-03bffd5ee4e1","ios":"levelo://app?vid=50ffb605-90dd-4a75-ad47-03bffd5ee4e1"},"vehicle_type_id":"4","last_reported":1747592013,"current_range_meters":14800,"station_id":"ce4bh3p2rcd13ifvqdq0","pricing_plan_id":"cebpf4jnsgd1na2vs0mg"},{"bike_id":"e8c092b6-ea1e-49b4-86f2-ae6140f06f6f","system_id":"levelo_inurba_marseille","lat":43.289192,"lon":5.383954,"is_reserved":false,"is_disabled":true,"rental_uris":{"android":"levelo://app?vid=e8c092b6-ea1e-49b4-86f2-ae6140f06f6f","ios":"levelo://app?vid=e8c092b6-ea1e-49b4-86f2-ae6140f06f6f"},"vehicle_type_id":"4","last_reported":1747592013,"current_range_meters":14800,"station_id":"","pricing_plan_id":"cebpf4jnsgd1na2vs0mg"},{"bike_id":"36dd7af1-13c2-4c60-832e-bb04a0e6690f","system_id":"levelo_inurba_marseille","lat":43.3088,"lon":5.39629,"is_reserved":false,"is_disabled":false,"rental_uris":{"android":"levelo://app?vid=36dd7af1-13c2-4c60-832e-bb04a0e6690f","ios":"levelo://app?vid=36dd7af1-13c2-4c60-832e-bb04a0e6690f"},"vehicle_type_id":"4","last_reported":1747592013,"current_range_meters":14400,"station_id":"ce4bh012rcd13ifvqcv0","pricing_plan_id":"cebpf4jnsgd1na2vs0mg"},{"bike_id":"bcbdbd69-7be8-42f8-a855-a4358565de8f","system_id":"levelo_inurba_marseille","lat":43.277113,"lon":5.413903,"is_reserved":false,"is_disabled":false,"rental_uris":{"android":"levelo://app?vid=bcbdbd69-7be8-42f8-a855-a4358565de8f","ios":"levelo://app?vid=bcbdbd69-7be8-42f8-a855-a4358565de8f"},"vehicle_type_id":"4","last_reported":1747592013,"current_range_meters":15200,"station_id":"","pricing_plan_id":"cebpf4jnsgd1na2vs0mg"},{"bike_id":"084b4175-becf-4644-941e-86c69e78d6e0","system_id":"levelo_inurba_marseille","lat":43.27946,"lon":5.41044,"is_reserved":false,"is_disabled":false,"rental_uris":{"android":"levelo://app?vid=084b4175-becf-4644-941e-86c69e78d6e0","ios":"levelo://app?vid=084b4175-becf-4644-941e-86c69e78d6e0"},"vehicle_type_id":"4","last_reported":1747592013,"current_range_meters":16000,"station_id":"ce4bhnp2rcd13ifvqh0g","pricing_plan_id":"cebpf4jnsgd1na2vs0mg"},{"bike_id":"2f5e7a4c-6cf7-4b17-a3a0-99bd844946eb","system_id":"levelo_inurba_marseille","lat":43.29269,"lon":5.38428,"is_reserved":false,"is_disabled":false,"rental_uris":{"android":"levelo://app?vid=2f5e7a4c-6cf7-4b17-a3a0-99bd844946eb","ios":"levelo://app?vid=2f5e7a4c-6cf7-4b17-a3a0-99bd844946eb"},"vehicle_type_id":"4","last_reported":1747592013,"current_range_meters":16000,"station_id":"ce4bh692rcd13ifvqea0","pricing_plan_id":"cebpf4jnsgd1na2vs0mg"},{"bike_id":"8ba2bf91-ba8a-4ead-9bc5-76377ce2677c","system_id":"levelo_inurba_marseille","lat":43.28604,"lon":5.37066,"is_reserved":false,"is_disabled":false,"rental_uris":{"android":"levelo://app?vid=8ba2bf91-ba8a-4ead-9bc5-76377ce2677c","ios":"levelo://app?vid=8ba2bf91-ba8a-4ead-9bc5-76377ce2677c"},"vehicle_type_id":"4","last_reported":1747592013,"current_range_meters":16000,"station_id":"ce4bht12rcd13ifvqi60","pricing_plan_id":"cebpf4jnsgd1na2vs0mg"},{"bike_id":"cf885c70-cb79-46c2-8e0a-92e9cd12a533","system_id":"levelo_inurba_marseille","lat":43.29528,"lon":5.38542,"is_reserved":false,"is_disabled":false,"rental_uris":{"android":"levelo://app?vid=cf885c70-cb79-46c2-8e0a-92e9cd12a533","ios":"levelo://app?vid=cf885c70-cb79-46c2-8e0a-92e9cd12a533"},"vehicle_type_id":"4","last_reported":1747592013,"current_range_meters":16000,"station_id":"ce4bgih2rcd13ifvqba0","pricing_plan_id":"cebpf4jnsgd1na2vs0mg"},{"bike_id":"e2483e33-e22f-4969-8812-f7cdcc75c59a","system_id":"levelo_inurba_marseille","lat":43.32363,"lon":5.36762,"is_reserved":false,"is_disabled":false,"rental_uris":{"android":"levelo://app?vid=e2483e33-e22f-4969-8812-f7cdcc75c59a","ios":"levelo://app?vid=e2483e33-e22f-4969-8812-f7cdcc75c59a"},"vehicle_type_id":"4","last_reported":1747592013,"current_range_meters":16000,"station_id":"ce4bhsh2rcd13ifvqi2g","pricing_plan_id":"cebpf4jnsgd1na2vs0mg"},{"bike_id":"f0a690f3-aaef-41ef-91ff-088837a16951","system_id":"levelo_inurba_marseille","lat":43.25745,"lon":5.411,"is_reserved":false,"is_disabled":false,"rental_uris":{"android":"levelo://app?vid=f0a690f3-aaef-41ef-91ff-088837a16951","ios":"levelo://app?vid=f0a690f3-aaef-41ef-91ff-088837a16951"},"vehicle_type_id":"4","last_reported":1747592013,"current_range_meters":16000,"station_id":"ce4bhkp2rcd13ifvqgd0","pricing_plan_id":"cebpf4jnsgd1na2vs0mg"},{"bike_id":"954f9a2f-3d92-4afe-8ccd-55ebda55dfe0","system_id":"levelo_inurba_marseille","lat":43.270755,"lon":5.422732,"is_reserved":false,"is_disabled":false,"rental_uris":{"android":"levelo://app?vid=954f9a2f-3d92-4afe-8ccd-55ebda55dfe0","ios":"levelo://app?vid=954f9a2f-3d92-4afe-8ccd-55ebda55dfe0"},"vehicle_type_id":"4","last_reported":1747592013,"current_range_meters":16000,"station_id":"ce4bhk92rcd13ifvqgb0","pricing_plan_id":"cebpf4jnsgd1na2vs0mg"},{"bike_id":"195c7841-b643-453e-9dff-f06ebd286d97","system_id":"levelo_inurba_marseille","lat":43.295808,"lon":5.375302,"is_reserved":false,"is_disabled":false,"rental_uris":{"android":"levelo://app?vid=195c7841-b643-453e-9dff-f06ebd286d97","ios":"levelo://app?vid=195c7841-b643-453e-9dff-f06ebd286d97"},"vehicle_type_id":"4","last_reported":1747592013,"current_range_meters":16000,"station_id":"chh1huq6cuj3fo74tm60","pricing_plan_id":"cebpf4jnsgd1na2vs0mg"},{"bike_id":"a0ef91e8-eab4-4e92-9764-f8b59bed148c","system_id":"levelo_inurba_marseille","lat":43.31361,"lon":5.38455,"is_reserved":false,"is_disabled":false,"rental_uris":{"android":"levelo://app?vid=a0ef91e8-eab4-4e92-9764-f8b59bed148c","ios":"levelo://app?vid=a0ef91e8-eab4-4e92-9764-f8b59bed148c"},"vehicle_type_id":"4","last_reported":1747592013,"current_range_meters":16000,"station_id":"ce4bgt92rcd13ifvqcf0","pricing_plan_id":"cebpf4jnsgd1na2vs0mg"},{"bike_id":"cbf22af3-6c8f-4023-8971-3961263cafe8","system_id":"levelo_inurba_marseille","lat":43.28712,"lon":5.37395,"is_reserved":false,"is_disabled":true,"rental_uris":{"android":"levelo://app?vid=cbf22af3-6c8f-4023-8971-3961263cafe8","ios":"levelo://app?vid=cbf22af3-6c8f-4023-8971-3961263cafe8"},"vehicle_type_id":"4","last_reported":1747592013,"current_range_meters":16000,"station_id":"ce4bh3p2rcd13ifvqdq0","pricing_plan_id":"cebpf4jnsgd1na2vs0mg"},{"bike_id":"6ee17628-81f5-48ff-bf49-ce82b3f2cb7b","system_id":"levelo_inurba_marseille","lat":43.291376,"lon":5.36667,"is_reserved":false,"is_disabled":false,"rental_uris":{"android":"levelo://app?vid=6ee17628-81f5-48ff-bf49-ce82b3f2cb7b","ios":"levelo://app?vid=6ee17628-81f5-48ff-bf49-ce82b3f2cb7b"},"vehicle_type_id":"4","last_reported":1747592013,"current_range_meters":16000,"station_id":"ce4bhb12rcd13ifvqem0","pricing_plan_id":"cebpf4jnsgd1na2vs0mg"},{"bike_id":"15edbac4-be7e-46de-a247-4923db9bad57","system_id":"levelo_inurba_marseille","lat":43.23965,"lon":5.36627,"is_reserved":false,"is_disabled":false,"rental_uris":{"android":"levelo://app?vid=15edbac4-be7e-46de-a247-4923db9bad57","ios":"levelo://app?vid=15edbac4-be7e-46de-a247-4923db9bad57"},"vehicle_type_id":"4","last_reported":1747592013,"current_range_meters":16000,"station_id":"ce4bhi12rcd13ifvqfp0","pricing_plan_id":"cebpf4jnsgd1na2vs0mg"},{"bike_id":"e31fb3d3-1275-4809-a453-a28a113104ff","system_id":"levelo_inurba_marseille","lat":43.292643,"lon":5.38429,"is_reserved":false,"is_disabled":false,"rental_uris":{"android":"levelo://app?vid=e31fb3d3-1275-4809-a453-a28a113104ff","ios":"levelo://app?vid=e31fb3d3-1275-4809-a453-a28a113104ff"},"vehicle_type_id":"4","last_reported":1747592013,"current_range_meters":16000,"station_id":"ce4bh692rcd13ifvqea0","pricing_plan_id":"cebpf4jnsgd1na2vs0mg"},{"bike_id":"26ae3f71-446b-4d48-9715-d0cb78472fbf","system_id":"levelo_inurba_marseille","lat":43.31113,"lon":5.37015,"is_reserved":false,"is_disabled":false,"rental_uris":{"android":"levelo://app?vid=26ae3f71-446b-4d48-9715-d0cb78472fbf","ios":"levelo://app?vid=26ae3f71-446b-4d48-9715-d0cb78472fbf"},"vehicle_type_id":"4","last_reported":1747592013,"current_range_meters":16000,"station_id":"","pricing_plan_id":"cebpf4jnsgd1na2vs0mg"},{"bike_id":"5945487d-53ac-40f7-b722-fa952e10f56f","system_id":"levelo_inurba_marseille","lat":43.28698,"lon":5.37387,"is_reserved":false,"is_disabled":false,"rental_uris":{"android":"levelo://app?vid=5945487d-53ac-40f7-b722-fa952e10f56f","ios":"levelo://app?vid=5945487d-53ac-40f7-b722-fa952e10f56f"},"vehicle_type_id":"4","last_reported":1747592013,"current_range_meters":16400,"station_id":"ce4bh3p2rcd13ifvqdq0","pricing_plan_id":"cebpf4jnsgd1na2vs0mg"},{"bike_id":"27a2363a-1322-4ea5-b5e2-774a9a2a836d","system_id":"levelo_inurba_marseille","lat":43.29541,"lon":5.38533,"is_reserved":false,"is_disabled":false,"rental_uris":{"android":"levelo://app?vid=27a2363a-1322-4ea5-b5e2-774a9a2a836d","ios":"levelo://app?vid=27a2363a-1322-4ea5-b5e2-774a9a2a836d"},"vehicle_type_id":"4","last_reported":1747592013,"current_range_meters":16400,"station_id":"ce4bgih2rcd13ifvqba0","pricing_plan_id":"cebpf4jnsgd1na2vs0mg"},{"bike_id":"c7499386-dc2a-4a4c-830d-bea3ba4afc63","system_id":"levelo_inurba_marseille","lat":43.29757,"lon":5.38173,"is_reserved":false,"is_disabled":true,"rental_uris":{"android":"levelo://app?vid=c7499386-dc2a-4a4c-830d-bea3ba4afc63","ios":"levelo://app?vid=c7499386-dc2a-4a4c-830d-bea3ba4afc63"},"vehicle_type_id":"4","last_reported":1747592013,"current_range_meters":16400,"station_id":"","pricing_plan_id":"cebpf4jnsgd1na2vs0mg"},{"bike_id":"81a34838-8e25-4c5e-a2f6-c2b7896886cb","system_id":"levelo_inurba_marseille","lat":43.31752,"lon":5.39008,"is_reserved":false,"is_disabled":false,"rental_uris":{"android":"levelo://app?vid=81a34838-8e25-4c5e-a2f6-c2b7896886cb","ios":"levelo://app?vid=81a34838-8e25-4c5e-a2f6-c2b7896886cb"},"vehicle_type_id":"4","last_reported":1747592013,"current_range_meters":16400,"station_id":"ce4bhqp2rcd13ifvqhng","pricing_plan_id":"cebpf4jnsgd1na2vs0mg"},{"bike_id":"f8237065-c8b1-47b9-83a6-7573dbe830fa","system_id":"levelo_inurba_marseille","lat":43.31332,"lon":5.39695,"is_reserved":false,"is_disabled":false,"rental_uris":{"android":"levelo://app?vid=f8237065-c8b1-47b9-83a6-7573dbe830fa","ios":"levelo://app?vid=f8237065-c8b1-47b9-83a6-7573dbe830fa"},"vehicle_type_id":"4","last_reported":1747592013,"current_range_meters":16400,"station_id":"ce4bgvp2rcd13ifvqcu0","pricing_plan_id":"cebpf4jnsgd1na2vs0mg"},{"bike_id":"bbe3db07-51cb-41d8-9238-94b69c6dda0e","system_id":"levelo_inurba_marseille","lat":43.32811,"lon":5.38877,"is_reserved":false,"is_disabled":false,"rental_uris":{"android":"levelo://app?vid=bbe3db07-51cb-41d8-9238-94b69c6dda0e","ios":"levelo://app?vid=bbe3db07-51cb-41d8-9238-94b69c6dda0e"},"vehicle_type_id":"4","last_reported":1747592013,"current_range_meters":16400,"station_id":"","pricing_plan_id":"cebpf4jnsgd1na2vs0mg"},{"bike_id":"cea399cf-4493-4653-b9a8-f39611a60c08","system_id":"levelo_inurba_marseille","lat":43.23198,"lon":5.35553,"is_reserved":false,"is_disabled":false,"rental_uris":{"android":"levelo://app?vid=cea399cf-4493-4653-b9a8-f39611a60c08","ios":"levelo://app?vid=cea399cf-4493-4653-b9a8-f39611a60c08"},"vehicle_type_id":"4","last_reported":1747592013,"current_range_meters":16400,"station_id":"ce4bhu92rcd13ifvqi70","pricing_plan_id":"cebpf4jnsgd1na2vs0mg"},{"bike_id":"1dcdcf4d-a775-45b7-ba77-12918f1606de","system_id":"levelo_inurba_marseille","lat":43.29148,"lon":5.38138,"is_reserved":false,"is_disabled":false,"rental_uris":{"android":"levelo://app?vid=1dcdcf4d-a775-45b7-ba77-12918f1606de","ios":"levelo://app?vid=1dcdcf4d-a775-45b7-ba77-12918f1606de"},"vehicle_type_id":"4","last_reported":1747592013,"current_range_meters":16400,"station_id":"","pricing_plan_id":"cebpf4jnsgd1na2vs0mg"},{"bike_id":"fba103a6-30ce-481c-a05a-9411e513bfcf","system_id":"levelo_inurba_marseille","lat":43.25862,"lon":5.4093,"is_reserved":false,"is_disabled":false,"rental_uris":{"android":"levelo://app?vid=fba103a6-30ce-481c-a05a-9411e513bfcf","ios":"levelo://app?vid=fba103a6-30ce-481c-a05a-9411e513bfcf"},"vehicle_type_id":"4","last_reported":1747592013,"current_range_meters":16400,"station_id":"ce4bhm92rcd13ifvqglg","pricing_plan_id":"cebpf4jnsgd1na2vs0mg"},{"bike_id":"be7abb80-e2d9-43c7-8b81-ad19c3305cee","system_id":"levelo_inurba_marseille","lat":43.28609,"lon":5.37067,"is_reserved":false,"is_disabled":false,"rental_uris":{"android":"levelo://app?vid=be7abb80-e2d9-43c7-8b81-ad19c3305cee","ios":"levelo://app?vid=be7abb80-e2d9-43c7-8b81-ad19c3305cee"},"vehicle_type_id":"4","last_reported":1747592013,"current_range_meters":16400,"station_id":"ce4bht12rcd13ifvqi60","pricing_plan_id":"cebpf4jnsgd1na2vs0mg"},{"bike_id":"41389e7c-6f3c-410d-88e7-f591b55a002a","system_id":"levelo_inurba_marseille","lat":43.2403,"lon":5.37751,"is_reserved":false,"is_disabled":false,"rental_uris":{"android":"levelo://app?vid=41389e7c-6f3c-410d-88e7-f591b55a002a","ios":"levelo://app?vid=41389e7c-6f3c-410d-88e7-f591b55a002a"},"vehicle_type_id":"4","last_reported":1747592013,"current_range_meters":16800,"station_id":"ce4bhnp2rcd13ifvqgvg","pricing_plan_id":"cebpf4jnsgd1na2vs0mg"},{"bike_id":"dc51b593-a5cd-4446-8449-f319ed28e729","system_id":"levelo_inurba_marseille","lat":43.31066,"lon":5.40101,"is_reserved":false,"is_disabled":false,"rental_uris":{"android":"levelo://app?vid=dc51b593-a5cd-4446-8449-f319ed28e729","ios":"levelo://app?vid=dc51b593-a5cd-4446-8449-f319ed28e729"},"vehicle_type_id":"4","last_reported":1747592013,"current_range_meters":16800,"station_id":"","pricing_plan_id":"cebpf4jnsgd1na2vs0mg"},{"bike_id":"837308e3-94fd-48c6-8eaa-5bb4b9e1de01","system_id":"levelo_inurba_marseille","lat":43.29963,"lon":5.385,"is_reserved":false,"is_disabled":false,"rental_uris":{"android":"levelo://app?vid=837308e3-94fd-48c6-8eaa-5bb4b9e1de01","ios":"levelo://app?vid=837308e3-94fd-48c6-8eaa-5bb4b9e1de01"},"vehicle_type_id":"4","last_reported":1747592013,"current_range_meters":16800,"station_id":"ce4bgj92rcd13ifvqbd0","pricing_plan_id":"cebpf4jnsgd1na2vs0mg"},{"bike_id":"62bd13ec-e5aa-4cd0-90ff-46c833daf45a","system_id":"levelo_inurba_marseille","lat":43.29247,"lon":5.38435,"is_reserved":false,"is_disabled":false,"rental_uris":{"android":"levelo://app?vid=62bd13ec-e5aa-4cd0-90ff-46c833daf45a","ios":"levelo://app?vid=62bd13ec-e5aa-4cd0-90ff-46c833daf45a"},"vehicle_type_id":"4","last_reported":1747592013,"current_range_meters":16800,"station_id":"ce4bh692rcd13ifvqea0","pricing_plan_id":"cebpf4jnsgd1na2vs0mg"},{"bike_id":"90bb7a19-74dd-4320-94b3-1629a4028834","system_id":"levelo_inurba_marseille","lat":43.2172,"lon":5.34617,"is_reserved":false,"is_disabled":true,"rental_uris":{"android":"levelo://app?vid=90bb7a19-74dd-4320-94b3-1629a4028834","ios":"levelo://app?vid=90bb7a19-74dd-4320-94b3-1629a4028834"},"vehicle_type_id":"4","last_reported":1747592013,"current_range_meters":16800,"station_id":"st_cvj6r9ubvosntc0bgbag","pricing_plan_id":"cebpf4jnsgd1na2vs0mg"},{"bike_id":"907c4f77-9c69-484c-a6c9-facd250e71ce","system_id":"levelo_inurba_marseille","lat":43.298668,"lon":5.397383,"is_reserved":false,"is_disabled":false,"rental_uris":{"android":"levelo://app?vid=907c4f77-9c69-484c-a6c9-facd250e71ce","ios":"levelo://app?vid=907c4f77-9c69-484c-a6c9-facd250e71ce"},"vehicle_type_id":"4","last_reported":1747592013,"current_range_meters":16800,"station_id":"ce4bh0h2rcd13ifvqd50","pricing_plan_id":"cebpf4jnsgd1na2vs0mg"},{"bike_id":"06c5d935-141e-4a2a-8a1c-99c6c936abb9","system_id":"levelo_inurba_marseille","lat":43.30705,"lon":5.42442,"is_reserved":false,"is_disabled":false,"rental_uris":{"android":"levelo://app?vid=06c5d935-141e-4a2a-8a1c-99c6c936abb9","ios":"levelo://app?vid=06c5d935-141e-4a2a-8a1c-99c6c936abb9"},"vehicle_type_id":"4","last_reported":1747592013,"current_range_meters":16800,"station_id":"st_cvj6ca6bvosntc0bfgr0","pricing_plan_id":"cebpf4jnsgd1na2vs0mg"},{"bike_id":"36f54ac8-e8cc-4a85-894c-acf655f9aa43","system_id":"levelo_inurba_marseille","lat":43.29193,"lon":5.39317,"is_reserved":false,"is_disabled":false,"rental_uris":{"android":"levelo://app?vid=36f54ac8-e8cc-4a85-894c-acf655f9aa43","ios":"levelo://app?vid=36f54ac8-e8cc-4a85-894c-acf655f9aa43"},"vehicle_type_id":"4","last_reported":1747592013,"current_range_meters":16800,"station_id":"ce4bh192rcd13ifvqdd0","pricing_plan_id":"cebpf4jnsgd1na2vs0mg"},