{"last_updated":1753805604,"ttl":60,"version":"2.2","data":{"bikes":[{"bike_id":"95f57055-809e-462d-a228-56914d59885f","system_id":"levelo_inurba_marseille","lat":43.2799,"lon":5.40037,"is_reserved":false,"is_disabled":false,"rental_uris":{"android":"levelo://app?vid=95f57055-809e-462d-a228-56914d59885f","ios":"levelo://app?vid=95f57055-809e-462d-a228-56914d59885f"},"vehicle_type_id":"4","last_reported":1753805604,"current_range_meters":2800,"station_id":"ce4bho92rcd13ifvqh4g","pricing_plan_id":"cebpf4jnsgd1na2vs0mg"},{"bike_id":"1b7d4de4-3ecf-4cd3-abfd-34b77436fcf2","system_id":"levelo_inurba_marseille","lat":43.22509,"lon":5.34787,"is_reserved":false,"is_disabled":false,"rental_uris":{"android":"levelo://app?vid=1b7d4de4-3ecf-4cd3-abfd-34b77436fcf2","ios":"levelo://app?vid=1b7d4de4-3ecf-4cd3-abfd-34b77436fcf2"},"vehicle_type_id":"4","last_reported":1753805604,"current_range_meters":2800,"station_id":"st_cvj5dfep6f1abm77gieg","pricing_plan_id":"cebpf4jnsgd1na2vs0mg"},{"bike_id":"f556e83f-af79-4fe7-ad5e-9d09dc5604b7","system_id":"levelo_inurba_marseille","lat":43.23176,"lon":5.39986,"is_reserved":false,"is_disabled":false,"rental_uris":{"android":"levelo://app?vid=f556e83f-af79-4fe7-ad5e-9d09dc5604b7","ios":"levelo://app?vid=f556e83f-af79-4fe7-ad5e-9d09dc5604b7"},"vehicle_type_id":"4","last_reported":1753805604,"current_range_meters":2800,"station_id":"ce4bhn12rcd13ifvqgqg","pricing_plan_id":"cebpf4jnsgd1na2vs0mg"},{"bike_id":"99b21429-71ba-4cdc-b5d4-603cdb69146c","system_id":"levelo_inurba_marseille","lat":43.29526,"lon":5.38541,"is_reserved":false,"is_disabled":false,"rental_uris":{"android":"levelo://app?vid=99b21429-71ba-4cdc-b5d4-603cdb69146c","ios":"levelo://app?vid=99b21429-71ba-4cdc-b5d4-603cdb69146c"},"vehicle_type_id":"4","last_reported":1753805604,"current_range_meters":3200,"station_id":"ce4bgih2rcd13ifvqba0","pricing_plan_id":"cebpf4jnsgd1na2vs0mg"},{"bike_id":"c566fac1-bdc0-44b4-b51d-6079acd80ddc","system_id":"levelo_inurba_marseille","lat":43.322877,"lon":5.382722,"is_reserved":false,"is_disabled":false,"rental_uris":{"android":"levelo://app?vid=c566fac1-bdc0-44b4-b51d-6079acd80ddc","ios":"levelo://app?vid=c566fac1-bdc0-44b4-b51d-6079acd80ddc"},"vehicle_type_id":"4","last_reported":1753805604,"current_range_meters":3200,"station_id":"ce4bhr12rcd13ifvqhqg","pricing_plan_id":"cebpf4jnsgd1na2vs0mg"},{"bike_id":"303bcb6b-6c0d-4491-959c-dcdcc632b550","system_id":"levelo_inurba_marseille","lat":43.31073,"lon":5.38357,"is_reserved":false,"is_disabled":false,"rental_uris":{"android":"levelo://app?vid=303bcb6b-6c0d-4491-959c-dcdcc632b550","ios":"levelo://app?vid=303bcb6b-6c0d-4491-959c-dcdcc632b550"},"vehicle_type_id":"4","last_reported":1753805604,"current_range_meters":3200,"station_id":"ce4bgv92rcd13ifvqcr0","pricing_plan_id":"cebpf4jnsgd1na2vs0mg"},{"bike_id":"dfde3902-929e-4bdb-9dd3-9fb09550ccb7","system_id":"levelo_inurba_marseille","lat":43.25827,"lon":5.39437,"is_reserved":false,"is_disabled":false,"rental_uris":{"android":"levelo://app?vid=dfde3902-929e-4bdb-9dd3-9fb09550ccb7","ios":"levelo://app?vid=dfde3902-929e-4bdb-9dd3-9fb09550ccb7"},"vehicle_type_id":"4","last_reported":1753805604,"current_range_meters":3600,"station_id":"ce4bhip2rcd13ifvqft0","pricing_plan_id":"cebpf4jnsgd1na2vs0mg"},{"bike_id":"c2a65ec0-ec53-4d4f-8f11-9b574cea42d0","system_id":"levelo_inurba_marseille","lat":43.30462,"lon":5.37909,"is_reserved":false,"is_disabled":false,"rental_uris":{"android":"levelo://app?vid=c2a65ec0-ec53-4d4f-8f11-9b574cea42d0","ios":"levelo://app?vid=c2a65ec0-ec53-4d4f-8f11-9b574cea42d0"},"vehicle_type_id":"4","last_reported":1753805604,"current_range_meters":3600,"station_id":"ce4bgup2rcd13ifvqcn0","pricing_plan_id":"cebpf4jnsgd1na2vs0mg"},{"bike_id":"9491a314-147e-417c-8b66-d35e8bd9c4b7","system_id":"levelo_inurba_marseille","lat":43.30799,"lon":5.38161,"is_reserved":false,"is_disabled":false,"rental_uris":{"android":"levelo://app?vid=9491a314-147e-417c-8b66-d35e8bd9c4b7","ios":"levelo://app?vid=9491a314-147e-417c-8b66-d35e8bd9c4b7"},"vehicle_type_id":"4","last_reported":1753805604,"current_range_meters":3600,"station_id":"ce4bgt12rcd13ifvqce0","pricing_plan_id":"cebpf4jnsgd1na2vs0mg"},{"bike_id":"d7013065-1d88-45bc-bebb-652ec57e7ec1","system_id":"levelo_inurba_marseille","lat":43.30812,"lon":5.38153,"is_reserved":false,"is_disabled":false,"rental_uris":{"android":"levelo://app?vid=d7013065-1d88-45bc-bebb-652ec57e7ec1","ios":"levelo://app?vid=d7013065-1d88-45bc-bebb-652ec57e7ec1"},"vehicle_type_id":"4","last_reported":1753805604,"current_range_meters":3600,"station_id":"ce4bgt12rcd13ifvqce0","pricing_plan_id":"cebpf4jnsgd1na2vs0mg"},{"bike_id":"93c8614e-55a0-409a-b66b-da2582a65ce4","system_id":"levelo_inurba_marseille","lat":43.3059,"lon":5.39353,"is_reserved":false,"is_disabled":false,"rental_uris":{"android":"levelo://app?vid=93c8614e-55a0-409a-b66b-da2582a65ce4","ios":"levelo://app?vid=93c8614e-55a0-409a-b66b-da2582a65ce4"},"vehicle_type_id":"4","last_reported":1753805604,"current_range_meters":4000,"station_id":"ce4bh0p2rcd13ifvqd80","pricing_plan_id":"cebpf4jnsgd1na2vs0mg"},{"bike_id":"f2ed36f9-0f01-4b33-af18-8a277c95e69c","system_id":"levelo_inurba_marseille","lat":43.33763,"lon":5.3748,"is_reserved":false,"is_disabled":false,"rental_uris":{"android":"levelo://app?vid=f2ed36f9-0f01-4b33-af18-8a277c95e69c","ios":"levelo://app?vid=f2ed36f9-0f01-4b33-af18-8a277c95e69c"},"vehicle_type_id":"4","last_reported":1753805604,"current_range_meters":4000,"station_id":"","pricing_plan_id":"cebpf4jnsgd1na2vs0mg"},{"bike_id":"5d28949f-1464-4317-aa46-b43025d64a7d","system_id":"levelo_inurba_marseille","lat":43.29528,"lon":5.38545,"is_reserved":false,"is_disabled":false,"rental_uris":{"android":"levelo://app?vid=5d28949f-1464-4317-aa46-b43025d64a7d","ios":"levelo://app?vid=5d28949f-1464-4317-aa46-b43025d64a7d"},"vehicle_type_id":"4","last_reported":1753805604,"current_range_meters":4000,"station_id":"ce4bgih2rcd13ifvqba0","pricing_plan_id":"cebpf4jnsgd1na2vs0mg"},{"bike_id":"da0dea9a-07a2-4249-aa7c-2489e28d40de","system_id":"levelo_inurba_marseille","lat":43.296948,"lon":5.362471,"is_reserved":false,"is_disabled":false,"rental_uris":{"android":"levelo://app?vid=da0dea9a-07a2-4249-aa7c-2489e28d40de","ios":"levelo://app?vid=da0dea9a-07a2-4249-aa7c-2489e28d40de"},"vehicle_type_id":"4","last_reported":1753805604,"current_range_meters":4400,"station_id":"","pricing_plan_id":"cebpf4jnsgd1na2vs0mg"},{"bike_id":"dd696f4c-4947-4bcf-8b9d-573aace6c426","system_id":"levelo_inurba_marseille","lat":43.31174,"lon":5.38721,"is_reserved":false,"is_disabled":false,"rental_uris":{"android":"levelo://app?vid=dd696f4c-4947-4bcf-8b9d-573aace6c426","ios":"levelo://app?vid=dd696f4c-4947-4bcf-8b9d-573aace6c426"},"vehicle_type_id":"4","last_reported":1753805604,"current_range_meters":4000,"station_id":"ce4bgv12rcd13ifvqcp0","pricing_plan_id":"cebpf4jnsgd1na2vs0mg"},{"bike_id":"1b4141d6-0a65-456b-a8d9-cb47529cc493","system_id":"levelo_inurba_marseille","lat":43.30809,"lon":5.38133,"is_reserved":false,"is_disabled":false,"rental_uris":{"android":"levelo://app?vid=1b4141d6-0a65-456b-a8d9-cb47529cc493","ios":"levelo://app?vid=1b4141d6-0a65-456b-a8d9-cb47529cc493"},"vehicle_type_id":"4","last_reported":1753805604,"current_range_meters":4400,"station_id":"ce4bgt12rcd13ifvqce0","pricing_plan_id":"cebpf4jnsgd1na2vs0mg"},{"bike_id":"5a67886b-2f40-46df-b0be-1179491cb0a7","system_id":"levelo_inurba_marseille","lat":43.299683,"lon":5.386239,"is_reserved":false,"is_disabled":false,"rental_uris":{"android":"levelo://app?vid=5a67886b-2f40-46df-b0be-1179491cb0a7","ios":"levelo://app?vid=5a67886b-2f40-46df-b0be-1179491cb0a7"},"vehicle_type_id":"4","last_reported":1753805604,"current_range_meters":4800,"station_id":"","pricing_plan_id":"cebpf4jnsgd1na2vs0mg"},{"bike_id":"a56b1583-265e-4984-909c-5cec8ddca249","system_id":"levelo_inurba_marseille","lat":43.298883,"lon":5.365351,"is_reserved":false,"is_disabled":false,"rental_uris":{"android":"levelo://app?vid=a56b1583-265e-4984-909c-5cec8ddca249","ios":"levelo://app?vid=a56b1583-265e-4984-909c-5cec8ddca249"},"vehicle_type_id":"4","last_reported":1753805604,"current_range_meters":4800,"station_id":"ce4bgm92rcd13ifvqbr0","pricing_plan_id":"cebpf4jnsgd1na2vs0mg"},{"bike_id":"eb577734-6978-4a22-8034-d940dd0bb989","system_id":"levelo_inurba_marseille","lat":43.29044,"lon":5.35912,"is_reserved":false,"is_disabled":false,"rental_uris":{"android":"levelo://app?vid=eb577734-6978-4a22-8034-d940dd0bb989","ios":"levelo://app?vid=eb577734-6978-4a22-8034-d940dd0bb989"},"vehicle_type_id":"4","last_reported":1753805604,"current_range_meters":4400,"station_id":"ce4bha92rcd13ifvqeg0","pricing_plan_id":"cebpf4jnsgd1na2vs0mg"},{"bike_id":"c0a9059a-7be5-4a62-8d85-44789d433766","system_id":"levelo_inurba_marseille","lat":43.2417,"lon":5.36395,"is_reserved":false,"is_disabled":false,"rental_uris":{"android":"levelo://app?vid=c0a9059a-7be5-4a62-8d85-44789d433766","ios":"levelo://app?vid=c0a9059a-7be5-4a62-8d85-44789d433766"},"vehicle_type_id":"4","last_reported":1753805604,"current_range_meters":5600,"station_id":"cpo36qri1sfpv3e86is0","pricing_plan_id":"cebpf4jnsgd1na2vs0mg"},{"bike_id":"f300530a-2267-4143-bba4-ae8ec8aa8d1f","system_id":"levelo_inurba_marseille","lat":43.23058,"lon":5.35492,"is_reserved":false,"is_disabled":false,"rental_uris":{"android":"levelo://app?vid=f300530a-2267-4143-bba4-ae8ec8aa8d1f","ios":"levelo://app?vid=f300530a-2267-4143-bba4-ae8ec8aa8d1f"},"vehicle_type_id":"4","last_reported":1753805604,"current_range_meters":5600,"station_id":"cpo3342slgdg3j2ifvpg","pricing_plan_id":"cebpf4jnsgd1na2vs0mg"},{"bike_id":"b44ff325-eb39-429f-805a-31f491055a39","system_id":"levelo_inurba_marseille","lat":43.29434,"lon":5.39754,"is_reserved":false,"is_disabled":false,"rental_uris":{"android":"levelo://app?vid=b44ff325-eb39-429f-805a-31f491055a39","ios":"levelo://app?vid=b44ff325-eb39-429f-805a-31f491055a39"},"vehicle_type_id":"4","last_reported":1753805604,"current_range_meters":5600,"station_id":"ce4bh3h2rcd13ifvqdo0","pricing_plan_id":"cebpf4jnsgd1na2vs0mg"},{"bike_id":"d26365d2-3cd7-4e3c-808d-3362d6bbfb56","system_id":"levelo_inurba_marseille","lat":43.337618,"lon":5.374767,"is_reserved":false,"is_disabled":false,"rental_uris":{"android":"levelo://app?vid=d26365d2-3cd7-4e3c-808d-3362d6bbfb56","ios":"levelo://app?vid=d26365d2-3cd7-4e3c-808d-3362d6bbfb56"},"vehicle_type_id":"4","last_reported":1753805604,"current_range_meters":5600,"station_id":"","pricing_plan_id":"cebpf4jnsgd1na2vs0mg"},{"bike_id":"9228558e-0031-472a-8cf7-363eec9dedde","system_id":"levelo_inurba_marseille","lat":43.24814,"lon":5.37469,"is_reserved":false,"is_disabled":false,"rental_uris":{"android":"levelo://app?vid=9228558e-0031-472a-8cf7-363eec9dedde","ios":"levelo://app?vid=9228558e-0031-472a-8cf7-363eec9dedde"},"vehicle_type_id":"4","last_reported":1753805604,"current_range_meters":5600,"station_id":"ce4bhgh2rcd13ifvqfb0","pricing_plan_id":"cebpf4jnsgd1na2vs0mg"},{"bike_id":"6cb11f4f-f451-4a1b-a7c5-61054d6b97f6","system_id":"levelo_inurba_marseille","lat":43.236408,"lon":5.409933,"is_reserved":false,"is_disabled":false,"rental_uris":{"android":"levelo://app?vid=6cb11f4f-f451-4a1b-a7c5-61054d6b97f6","ios":"levelo://app?vid=6cb11f4f-f451-4a1b-a7c5-61054d6b97f6"},"vehicle_type_id":"4","last_reported":1753805604,"current_range_meters":5600,"station_id":"","pricing_plan_id":"cebpf4jnsgd1na2vs0mg"},{"bike_id":"c73c60ab-e7cd-4d17-bdaa-7f8b19ab1e73","system_id":"levelo_inurba_marseille","lat":43.292,"lon":5.38514,"is_reserved":false,"is_disabled":false,"rental_uris":{"android":"levelo://app?vid=c73c60ab-e7cd-4d17-bdaa-7f8b19ab1e73","ios":"levelo://app?vid=c73c60ab-e7cd-4d17-bdaa-7f8b19ab1e73"},"vehicle_type_id":"4","last_reported":1753805604,"current_range_meters":6000,"station_id":"ce4bh692rcd13ifvqea0","pricing_plan_id":"cebpf4jnsgd1na2vs0mg"},{"bike_id":"6b0e937e-d24d-40a8-9bfe-c4575ae3b515","system_id":"levelo_inurba_marseille","lat":43.29615,"lon":5.37726,"is_reserved":false,"is_disabled":false,"rental_uris":{"android":"levelo://app?vid=6b0e937e-d24d-40a8-9bfe-c4575ae3b515","ios":"levelo://app?vid=6b0e937e-d24d-40a8-9bfe-c4575ae3b515"},"vehicle_type_id":"4","last_reported":1753805604,"current_range_meters":6000,"station_id":"ce4bgi92rcd13ifvqb90","pricing_plan_id":"cebpf4jnsgd1na2vs0mg"},{"bike_id":"e08d98e0-eb9d-43e5-a1c4-5148b8da1533","system_id":"levelo_inurba_marseille","lat":43.2792,"lon":5.38015,"is_reserved":false,"is_disabled":false,"rental_uris":{"android":"levelo://app?vid=e08d98e0-eb9d-43e5-a1c4-5148b8da1533","ios":"levelo://app?vid=e08d98e0-eb9d-43e5-a1c4-5148b8da1533"},"vehicle_type_id":"4","last_reported":1753805604,"current_range_meters":6000,"station_id":"ce4bhf92rcd13ifvqf50","pricing_plan_id":"cebpf4jnsgd1na2vs0mg"},{"bike_id":"fb45cff3-08fa-4cc9-bf53-0d8295f6b8d1","system_id":"levelo_inurba_marseille","lat":43.278745,"lon":5.428115,"is_reserved":false,"is_disabled":false,"rental_uris":{"android":"levelo://app?vid=fb45cff3-08fa-4cc9-bf53-0d8295f6b8d1","ios":"levelo://app?vid=fb45cff3-08fa-4cc9-bf53-0d8295f6b8d1"},"vehicle_type_id":"4","last_reported":1753805604,"current_range_meters":6000,"station_id":"","pricing_plan_id":"cebpf4jnsgd1na2vs0mg"},{"bike_id":"3152576e-d602-4c3f-980e-717f41aed773","system_id":"levelo_inurba_marseille","lat":43.33737,"lon":5.37465,"is_reserved":false,"is_disabled":false,"rental_uris":{"android":"levelo://app?vid=3152576e-d602-4c3f-980e-717f41aed773","ios":"levelo://app?vid=3152576e-d602-4c3f-980e-717f41aed773"},"vehicle_type_id":"4","last_reported":1753805604,"current_range_meters":6000,"station_id":"","pricing_plan_id":"cebpf4jnsgd1na2vs0mg"},{"bike_id":"153dccc7-a5fe-4550-b7ab-6f625d57d3be","system_id":"levelo_inurba_marseille","lat":43.239655,"lon":5.366295,"is_reserved":false,"is_disabled":false,"rental_uris":{"android":"levelo://app?vid=153dccc7-a5fe-4550-b7ab-6f625d57d3be","ios":"levelo://app?vid=153dccc7-a5fe-4550-b7ab-6f625d57d3be"},"vehicle_type_id":"4","last_reported":1753805604,"current_range_meters":6400,"station_id":"ce4bhi12rcd13ifvqfp0","pricing_plan_id":"cebpf4jnsgd1na2vs0mg"},{"bike_id":"dfeef013-405d-4d83-bff9-fe3d4f9e6756","system_id":"levelo_inurba_marseille","lat":43.31695,"lon":5.404777,"is_reserved":false,"is_disabled":true,"rental_uris":{"android":"levelo://app?vid=dfeef013-405d-4d83-bff9-fe3d4f9e6756","ios":"levelo://app?vid=dfeef013-405d-4d83-bff9-fe3d4f9e6756"},"vehicle_type_id":"4","last_reported":1753805604,"current_range_meters":6400,"station_id":"ce4bh012rcd13ifvqd00","pricing_plan_id":"cebpf4jnsgd1na2vs0mg"},{"bike_id":"925ac7e7-8882-4820-89a6-01994e9fcb2d","system_id":"levelo_inurba_marseille","lat":43.30336,"lon":5.40425,"is_reserved":false,"is_disabled":false,"rental_uris":{"android":"levelo://app?vid=925ac7e7-8882-4820-89a6-01994e9fcb2d","ios":"levelo://app?vid=925ac7e7-8882-4820-89a6-01994e9fcb2d"},"vehicle_type_id":"4","last_reported":1753805604,"current_range_meters":6400,"station_id":"ce4bh012rcd13ifvqd10","pricing_plan_id":"cebpf4jnsgd1na2vs0mg"},{"bike_id":"75636926-4ff6-478e-9149-6f514a04da44","system_id":"levelo_inurba_marseille","lat":43.30247,"lon":5.40059,"is_reserved":false,"is_disabled":false,"rental_uris":{"android":"levelo://app?vid=75636926-4ff6-478e-9149-6f514a04da44","ios":"levelo://app?vid=75636926-4ff6-478e-9149-6f514a04da44"},"vehicle_type_id":"4","last_reported":1753805604,"current_range_meters":6800,"station_id":"ce4bgvh2rcd13ifvqcs0","pricing_plan_id":"cebpf4jnsgd1na2vs0mg"},{"bike_id":"748fe611-49e1-4783-b018-1d897fc046e5","system_id":"levelo_inurba_marseille","lat":43.2944,"lon":5.39754,"is_reserved":false,"is_disabled":false,"rental_uris":{"android":"levelo://app?vid=748fe611-49e1-4783-b018-1d897fc046e5","ios":"levelo://app?vid=748fe611-49e1-4783-b018-1d897fc046e5"},"vehicle_type_id":"4","last_reported":1753805604,"current_range_meters":6800,"station_id":"ce4bh3h2rcd13ifvqdo0","pricing_plan_id":"cebpf4jnsgd1na2vs0mg"},{"bike_id":"2f74a439-9b4d-4978-a86a-b22e5f80d338","system_id":"levelo_inurba_marseille","lat":43.29263,"lon":5.38446,"is_reserved":false,"is_disabled":false,"rental_uris":{"android":"levelo://app?vid=2f74a439-9b4d-4978-a86a-b22e5f80d338","ios":"levelo://app?vid=2f74a439-9b4d-4978-a86a-b22e5f80d338"},"vehicle_type_id":"4","last_reported":1753805604,"current_range_meters":6800,"station_id":"ce4bh692rcd13ifvqea0","pricing_plan_id":"cebpf4jnsgd1na2vs0mg"},{"bike_id":"a6922362-229d-41a8-aeb7-b5772e221610","system_id":"levelo_inurba_marseille","lat":43.29196,"lon":5.39323,"is_reserved":false,"is_disabled":true,"rental_uris":{"android":"levelo://app?vid=a6922362-229d-41a8-aeb7-b5772e221610","ios":"levelo://app?vid=a6922362-229d-41a8-aeb7-b5772e221610"},"vehicle_type_id":"4","last_reported":1753805604,"current_range_meters":7200,"station_id":"ce4bh192rcd13ifvqdd0","pricing_plan_id":"cebpf4jnsgd1na2vs0mg"},{"bike_id":"d2bbb2d1-ae63-467c-a588-3dceaa968fca","system_id":"levelo_inurba_marseille","lat":43.29937,"lon":5.3654,"is_reserved":false,"is_disabled":false,"rental_uris":{"android":"levelo://app?vid=d2bbb2d1-ae63-467c-a588-3dceaa968fca","ios":"levelo://app?vid=d2bbb2d1-ae63-467c-a588-3dceaa968fca"},"vehicle_type_id":"4","last_reported":1753805604,"current_range_meters":7200,"station_id":"ce4bgm92rcd13ifvqbr0","pricing_plan_id":"cebpf4jnsgd1na2vs0mg"},{"bike_id":"64f258c6-1e92-4dd0-a4f6-11b336a5b138","system_id":"levelo_inurba_marseille","lat":43.22523,"lon":5.34769,"is_reserved":false,"is_disabled":false,"rental_uris":{"android":"levelo://app?vid=64f258c6-1e92-4dd0-a4f6-11b336a5b138","ios":"levelo://app?vid=64f258c6-1e92-4dd0-a4f6-11b336a5b138"},"vehicle_type_id":"4","last_reported":1753805604,"current_range_meters":7200,"station_id":"st_cvj5dfep6f1abm77gieg","pricing_plan_id":"cebpf4jnsgd1na2vs0mg"},{"bike_id":"542119c2-eee2-4719-8c86-05feb96e7ef0","system_id":"levelo_inurba_marseille","lat":43.2465,"lon":5.38889,"is_reserved":false,"is_disabled":false,"rental_uris":{"android":"levelo://app?vid=542119c2-eee2-4719-8c86-05feb96e7ef0","ios":"levelo://app?vid=542119c2-eee2-4719-8c86-05feb96e7ef0"},"vehicle_type_id":"4","last_reported":1753805604,"current_range_meters":8000,"station_id":"ce4bhg12rcd13ifvqf60","pricing_plan_id":"cebpf4jnsgd1na2vs0mg"},{"bike_id":"8e37ef79-bd01-46c2-9d9e-3d3f7741a07a","system_id":"levelo_inurba_marseille","lat":43.297302,"lon":5.374166,"is_reserved":false,"is_disabled":false,"rental_uris":{"android":"levelo://app?vid=8e37ef79-bd01-46c2-9d9e-3d3f7741a07a","ios":"levelo://app?vid=8e37ef79-bd01-46c2-9d9e-3d3f7741a07a"},"vehicle_type_id":"4","last_reported":1753805604,"current_range_meters":8000,"station_id":"","pricing_plan_id":"cebpf4jnsgd1na2vs0mg"},{"bike_id":"37fcf059-83b8-4b6e-bc28-0c83f77e3c05","system_id":"levelo_inurba_marseille","lat":43.337444,"lon":5.374475,"is_reserved":false,"is_disabled":false,"rental_uris":{"android":"levelo://app?vid=37fcf059-83b8-4b6e-bc28-0c83f77e3c05","ios":"levelo://app?vid=37fcf059-83b8-4b6e-bc28-0c83f77e3c05"},"vehicle_type_id":"4","last_reported":1753805604,"current_range_meters":8400,"station_id":"","pricing_plan_id":"cebpf4jnsgd1na2vs0mg"},{"bike_id":"d99716cc-03d7-4ec6-9afb-f243b2d67578","system_id":"levelo_inurba_marseille","lat":43.33751,"lon":5.37463,"is_reserved":false,"is_disabled":false,"rental_uris":{"android":"levelo://app?vid=d99716cc-03d7-4ec6-9afb-f243b2d67578","ios":"levelo://app?vid=d99716cc-03d7-4ec6-9afb-f243b2d67578"},"vehicle_type_id":"4","last_reported":1753805604,"current_range_meters":8000,"station_id":"","pricing_plan_id":"cebpf4jnsgd1na2vs0mg"},{"bike_id":"209c73e6-1f69-4d13-9fed-77cb46eecd05","system_id":"levelo_inurba_marseille","lat":43.34681,"lon":5.38065,"is_reserved":false,"is_disabled":false,"rental_uris":{"android":"levelo://app?vid=209c73e6-1f69-4d13-9fed-77cb46eecd05","ios":"levelo://app?vid=209c73e6-1f69-4d13-9fed-77cb46eecd05"},"vehicle_type_id":"4","last_reported":1753805604,"current_range_meters":8000,"station_id":"","pricing_plan_id":"cebpf4jnsgd1na2vs0mg"},{"bike_id":"3c291223-4de1-4dd8-ad12-588cc43ec0ed","system_id":"levelo_inurba_marseille","lat":43.29532,"lon":5.39268,"is_reserved":false,"is_disabled":false,"rental_uris":{"android":"levelo://app?vid=3c291223-4de1-4dd8-ad12-588cc43ec0ed","ios":"levelo://app?vid=3c291223-4de1-4dd8-ad12-588cc43ec0ed"},"vehicle_type_id":"4","last_reported":1753805604,"current_range_meters":8400,"station_id":"","pricing_plan_id":"cebpf4jnsgd1na2vs0mg"},{"bike_id":"80915a30-ef88-4d81-b5d1-969d1c17a42d","system_id":"levelo_inurba_marseille","lat":43.30413,"lon":5.40829,"is_reserved":false,"is_disabled":false,"rental_uris":{"android":"levelo://app?vid=80915a30-ef88-4d81-b5d1-969d1c17a42d","ios":"levelo://app?vid=80915a30-ef88-4d81-b5d1-969d1c17a42d"},"vehicle_type_id":"4","last_reported":1753805604,"current_range_meters":8400,"station_id":"","pricing_plan_id":"cebpf4jnsgd1na2vs0mg"},{"bike_id":"bb0441fb-f5c7-4d31-84a8-cb32e63be4af","system_id":"levelo_inurba_marseille","lat":43.29575,"lon":5.39987,"is_reserved":false,"is_disabled":false,"rental_uris":{"android":"levelo://app?vid=bb0441fb-f5c7-4d31-84a8-cb32e63be4af","ios":"levelo://app?vid=bb0441fb-f5c7-4d31-84a8-cb32e63be4af"},"vehicle_type_id":"4","last_reported":1753805604,"current_range_meters":8400,"station_id":"ce4bh312rcd13ifvqdj0","pricing_plan_id":"cebpf4jnsgd1na2vs0mg"},{"bike_id":"95dd70e4-879c-49e7-b318-a6c71b22a43e","system_id":"levelo_inurba_marseille","lat":43.2703,"lon":5.39295,"is_reserved":false,"is_disabled":false,"rental_uris":{"android":"levelo://app?vid=95dd70e4-879c-49e7-b318-a6c71b22a43e","ios":"levelo://app?vid=95dd70e4-879c-49e7-b318-a6c71b22a43e"},"vehicle_type_id":"4","last_reported":1753805604,"current_range_meters":8400,"station_id":"","pricing_plan_id":"cebpf4jnsgd1na2vs0mg"},{"bike_id":"edc9a7e9-5705-4892-b715-d66248b5d4aa","system_id":"levelo_inurba_marseille","lat":43.298017,"lon":5.381036,"is_reserved":false,"is_disabled":false,"rental_uris":{"android":"levelo://app?vid=edc9a7e9-5705-4892-b715-d66248b5d4aa","ios":"levelo://app?vid=edc9a7e9-5705-4892-b715-d66248b5d4aa"},"vehicle_type_id":"4","last_reported":1753805604,"current_range_meters":8400,"station_id":"ce4bgip2rcd13ifvqbb0","pricing_plan_id":"cebpf4jnsgd1na2vs0mg"},{"bike_id":"43029eb9-cd79-4378-a342-ed7d5760c117","system_id":"levelo_inurba_marseille","lat":43.30394,"lon":5.42473,"is_reserved":false,"is_disabled":false,"rental_uris":{"android":"levelo://app?vid=43029eb9-cd79-4378-a342-ed7d5760c117","ios":"levelo://app?vid=43029eb9-cd79-4378-a342-ed7d5760c117"},"vehicle_type_id":"4","last_reported":1753805604,"current_range_meters":8800,"station_id":"ce4bhoh2rcd13ifvqh6g","pricing_plan_id":"cebpf4jnsgd1na2vs0mg"},{"bike_id":"3b08c7fe-da62-4fb4-8da1-3e8b0064e2d8","system_id":"levelo_inurba_marseille","lat":43.30888,"lon":5.39656,"is_reserved":false,"is_disabled":true,"rental_uris":{"android":"levelo://app?vid=3b08c7fe-da62-4fb4-8da1-3e8b0064e2d8","ios":"levelo://app?vid=3b08c7fe-da62-4fb4-8da1-3e8b0064e2d8"},"vehicle_type_id":"4","last_reported":1753805604,"current_range_meters":8800,"station_id":"ce4bh012rcd13ifvqcv0","pricing_plan_id":"cebpf4jnsgd1na2vs0mg"},{"bike_id":"05cbfde1-bc8b-4494-8924-fea2291ddb1f","system_id":"levelo_inurba_marseille","lat":43.29546,"lon":5.36569,"is_reserved":false,"is_disabled":false,"rental_uris":{"android":"levelo://app?vid=05cbfde1-bc8b-4494-8924-fea2291ddb1f","ios":"levelo://app?vid=05cbfde1-bc8b-4494-8924-fea2291ddb1f"},"vehicle_type_id":"4","last_reported":1753805604,"current_range_meters":8800,"station_id":"","pricing_plan_id":"cebpf4jnsgd1na2vs0mg"},{"bike_id":"d6b46830-1a60-40e6-b757-722f218a10a2","system_id":"levelo_inurba_marseille","lat":43.29275,"lon":5.40119,"is_reserved":false,"is_disabled":false,"rental_uris":{"android":"levelo://app?vid=d6b46830-1a60-40e6-b757-722f218a10a2","ios":"levelo://app?vid=d6b46830-1a60-40e6-b757-722f218a10a2"},"vehicle_type_id":"4","last_reported":1753805604,"current_range_meters":8800,"station_id":"ce4bh312rcd13ifvqdk0","pricing_plan_id":"cebpf4jnsgd1na2vs0mg"},{"bike_id":"d926e9b9-e5ae-4efa-80ee-8f737ad0baa5","system_id":"levelo_inurba_marseille","lat":43.2841,"lon":5.37515,"is_reserved":false,"is_disabled":false,"rental_uris":{"android":"levelo://app?vid=d926e9b9-e5ae-4efa-80ee-8f737ad0baa5","ios":"levelo://app?vid=d926e9b9-e5ae-4efa-80ee-8f737ad0baa5"},"vehicle_type_id":"4","last_reported":1753805604,"current_range_meters":8800,"station_id":"ce4bh412rcd13ifvqds0","pricing_plan_id":"cebpf4jnsgd1na2vs0mg"},{"bike_id":"59d1f12a-0c50-40e0-b953-3727099c5ddb","system_id":"levelo_inurba_marseille","lat":43.27915,"lon":5.39578,"is_reserved":false,"is_disabled":false,"rental_uris":{"android":"levelo://app?vid=59d1f12a-0c50-40e0-b953-3727099c5ddb","ios":"levelo://app?vid=59d1f12a-0c50-40e0-b953-3727099c5ddb"},"vehicle_type_id":"4","last_reported":1753805604,"current_range_meters":8800,"station_id":"ce4bhf92rcd13ifvqf40","pricing_plan_id":"cebpf4jnsgd1na2vs0mg"},{"bike_id":"65e3db07-f188-422b-b687-3d06cfe2bcf8","system_id":"levelo_inurba_marseille","lat":43.280346,"lon":5.350362,"is_reserved":false,"is_disabled":false,"rental_uris":{"android":"levelo://app?vid=65e3db07-f188-422b-b687-3d06cfe2bcf8","ios":"levelo://app?vid=65e3db07-f188-422b-b687-3d06cfe2bcf8"},"vehicle_type_id":"4","last_reported":1753805604,"current_range_meters":8800,"station_id":"","pricing_plan_id":"cebpf4jnsgd1na2vs0mg"},{"bike_id":"d1b0a6b6-83a6-43fd-a06c-e2e1ac2444d3","system_id":"levelo_inurba_marseille","lat":43.287109,"lon":5.379305,"is_reserved":false,"is_disabled":false,"rental_uris":{"android":"levelo://app?vid=d1b0a6b6-83a6-43fd-a06c-e2e1ac2444d3","ios":"levelo://app?vid=d1b0a6b6-83a6-43fd-a06c-e2e1ac2444d3"},"vehicle_type_id":"4","last_reported":1753805604,"current_range_meters":9200,"station_id":"ce4bh9p2rcd13ifvqec0","pricing_plan_id":"cebpf4jnsgd1na2vs0mg"},{"bike_id":"d44faf3d-9300-496f-90fa-bfb79b00fc14","system_id":"levelo_inurba_marseille","lat":43.262103,"lon":5.374299,"is_reserved":false,"is_disabled":false,"rental_uris":{"android":"levelo://app?vid=d44faf3d-9300-496f-90fa-bfb79b00fc14","ios":"levelo://app?vid=d44faf3d-9300-496f-90fa-bfb79b00fc14"},"vehicle_type_id":"4","last_reported":1753805604,"current_range_meters":9200,"station_id":"ce4bh9p2rcd13ifvqed0","pricing_plan_id":"cebpf4jnsgd1na2vs0mg"},{"bike_id":"149fbe11-3bce-47a0-b584-c7c7bd6bb12f","system_id":"levelo_inurba_marseille","lat":43.216186,"lon":5.344443,"is_reserved":false,"is_disabled":false,"rental_uris":{"android":"levelo://app?vid=149fbe11-3bce-47a0-b584-c7c7bd6bb12f","ios":"levelo://app?vid=149fbe11-3bce-47a0-b584-c7c7bd6bb12f"},"vehicle_type_id":"4","last_reported":1753805604,"current_range_meters":9200,"station_id":"","pricing_plan_id":"cebpf4jnsgd1na2vs0mg"},{"bike_id":"9f90e81c-82b6-4e93-8820-47a6570c2ab4","system_id":"levelo_inurba_marseille","lat":43.284084,"lon":5.349859,"is_reserved":false,"is_disabled":false,"rental_uris":{"android":"levelo://app?vid=9f90e81c-82b6-4e93-8820-47a6570c2ab4","ios":"levelo://app?vid=9f90e81c-82b6-4e93-8820-47a6570c2ab4"},"vehicle_type_id":"4","last_reported":1753805604,"current_range_meters":9600,"station_id":"ce4bhbh2rcd13ifvqepg","pricing_plan_id":"cebpf4jnsgd1na2vs0mg"},{"bike_id":"5fff7742-d8ed-4a79-9a92-25d025952b2e","system_id":"levelo_inurba_marseille","lat":43.28491,"lon":5.38546,"is_reserved":false,"is_disabled":false,"rental_uris":{"android":"levelo://app?vid=5fff7742-d8ed-4a79-9a92-25d025952b2e","ios":"levelo://app?vid=5fff7742-d8ed-4a79-9a92-25d025952b2e"},"vehicle_type_id":"4","last_reported":1753805604,"current_range_meters":9600,"station_id":"ce4bh8p2rcd13ifvqeb0","pricing_plan_id":"cebpf4jnsgd1na2vs0mg"},{"bike_id":"1d5be4ee-5ffc-4f29-8a12-4347aec148fe","system_id":"levelo_inurba_marseille","lat":43.28417,"lon":5.34984,"is_reserved":false,"is_disabled":false,"rental_uris":{"android":"levelo://app?vid=1d5be4ee-5ffc-4f29-8a12-4347aec148fe","ios":"levelo://app?vid=1d5be4ee-5ffc-4f29-8a12-4347aec148fe"},"vehicle_type_id":"4","last_reported":1753805604,"current_range_meters":9600,"station_id":"ce4bhbh2rcd13ifvqepg","pricing_plan_id":"cebpf4jnsgd1na2vs0mg"},{"bike_id":"2d84df86-7018-456e-9f4c-a788ba982b12","system_id":"levelo_inurba_marseille","lat":43.24807,"lon":5.37459,"is_reserved":false,"is_disabled":false,"rental_uris":{"android":"levelo://app?vid=2d84df86-7018-456e-9f4c-a788ba982b12","ios":"levelo://app?vid=2d84df86-7018-456e-9f4c-a788ba982b12"},"vehicle_type_id":"4","last_reported":1753805604,"current_range_meters":9600,"station_id":"ce4bhgh2rcd13ifvqfb0","pricing_plan_id":"cebpf4jnsgd1na2vs0mg"},{"bike_id":"52623c6d-38d2-46a5-859f-4f741e6b1133","system_id":"levelo_inurba_marseille","lat":43.29529,"lon":5.3855,"is_reserved":false,"is_disabled":false,"rental_uris":{"android":"levelo://app?vid=52623c6d-38d2-46a5-859f-4f741e6b1133","ios":"levelo://app?vid=52623c6d-38d2-46a5-859f-4f741e6b1133"},"vehicle_type_id":"4","last_reported":1753805604,"current_range_meters":9600,"station_id":"ce4bgih2rcd13ifvqba0","pricing_plan_id":"cebpf4jnsgd1na2vs0mg"},{"bike_id":"c5d6c16c-667e-4c61-9e09-b5efae6e86bc","system_id":"levelo_inurba_marseille","lat":43.298999,"lon":5.436661,"is_reserved":false,"is_disabled":false,"rental_uris":{"android":"levelo://app?vid=c5d6c16c-667e-4c61-9e09-b5efae6e86bc","ios":"levelo://app?vid=c5d6c16c-667e-4c61-9e09-b5efae6e86bc"},"vehicle_type_id":"4","last_reported":1753805604,"current_range_meters":9600,"station_id":"ce4bhpp2rcd13ifvqhfg","pricing_plan_id":"cebpf4jnsgd1na2vs0mg"},{"bike_id":"e0ce0053-71c4-4b07-8b9e-379e7ce2bf22","system_id":"levelo_inurba_marseille","lat":43.302967,"lon":5.3981,"is_reserved":false,"is_disabled":false,"rental_uris":{"android":"levelo://app?vid=e0ce0053-71c4-4b07-8b9e-379e7ce2bf22","ios":"levelo://app?vid=e0ce0053-71c4-4b07-8b9e-379e7ce2bf22"},"vehicle_type_id":"4","last_reported":1753805604,"current_range_meters":9600,"station_id":"","pricing_plan_id":"cebpf4jnsgd1na2vs0mg"},{"bike_id":"882bdff1-651a-41c1-9ab0-596f43205cf1","system_id":"levelo_inurba_marseille","lat":43.337444,"lon":5.374475,"is_reserved":false,"is_disabled":false,"rental_uris":{"android":"levelo://app?vid=882bdff1-651a-41c1-9ab0-596f43205cf1","ios":"levelo://app?vid=882bdff1-651a-41c1-9ab0-596f43205cf1"},"vehicle_type_id":"4","last_reported":1753805604,"current_range_meters":10000,"station_id":"ce4bgkp2rcd13ifvqbmg","pricing_plan_id":"cebpf4jnsgd1na2vs0mg"},{"bike_id":"c13ce413-660f-4ff8-9547-d17d0704485e","system_id":"levelo_inurba_marseille","lat":43.21198,"lon":5.35055,"is_reserved":false,"is_disabled":false,"rental_uris":{"android":"levelo://app?vid=c13ce413-660f-4ff8-9547-d17d0704485e","ios":"levelo://app?vid=c13ce413-660f-4ff8-9547-d17d0704485e"},"vehicle_type_id":"4","last_reported":1753805604,"current_range_meters":10000,"station_id":"","pricing_plan_id":"cebpf4jnsgd1na2vs0mg"},{"bike_id":"92f37abc-c689-47cb-8c6d-f284f16c5353","system_id":"levelo_inurba_marseille","lat":43.28693,"lon":5.37384,"is_reserved":false,"is_disabled":false,"rental_uris":{"android":"levelo://app?vid=92f37abc-c689-47cb-8c6d-f284f16c5353","ios":"levelo://app?vid=92f37abc-c689-47cb-8c6d-f284f16c5353"},"vehicle_type_id":"4","last_reported":1753805604,"current_range_meters":10000,"station_id":"ce4bh3p2rcd13ifvqdq0","pricing_plan_id":"cebpf4jnsgd1na2vs0mg"},{"bike_id":"d0f1def4-1276-4886-a2d3-4bba2832d030","system_id":"levelo_inurba_marseille","lat":43.29518,"lon":5.39052,"is_reserved":false,"is_disabled":false,"rental_uris":{"android":"levelo://app?vid=d0f1def4-1276-4886-a2d3-4bba2832d030","ios":"levelo://app?vid=d0f1def4-1276-4886-a2d3-4bba2832d030"},"vehicle_type_id":"4","last_reported":1753805604,"current_range_meters":10000,"station_id":"ce4bh3p2rcd13ifvqdp0","pricing_plan_id":"cebpf4jnsgd1na2vs0mg"},{"bike_id":"f4c59c80-40f0-4999-896e-9e0a199046c0","system_id":"levelo_inurba_marseille","lat":43.28419,"lon":5.34992,"is_reserved":false,"is_disabled":false,"rental_uris":{"android":"levelo://app?vid=f4c59c80-40f0-4999-896e-9e0a199046c0","ios":"levelo://app?vid=f4c59c80-40f0-4999-896e-9e0a199046c0"},"vehicle_type_id":"4","last_reported":1753805604,"current_range_meters":10000,"station_id":"ce4bhbh2rcd13ifvqepg","pricing_plan_id":"cebpf4jnsgd1na2vs0mg"},{"bike_id":"5dec02eb-e64a-487f-ba18-38817336aca8","system_id":"levelo_inurba_marseille","lat":43.289863,"lon":5.37838,"is_reserved":false,"is_disabled":true,"rental_uris":{"android":"levelo://app?vid=5dec02eb-e64a-487f-ba18-38817336aca8","ios":"levelo://app?vid=5dec02eb-e64a-487f-ba18-38817336aca8"},"vehicle_type_id":"4","last_reported":1753805604,"current_range_meters":10000,"station_id":"ce4bh9p2rcd13ifvqed0","pricing_plan_id":"cebpf4jnsgd1na2vs0mg"},{"bike_id":"79f95142-b2d2-49e8-801d-cb6dfb8253c7","system_id":"levelo_inurba_marseille","lat":43.28939,"lon":5.38403,"is_reserved":false,"is_disabled":false,"rental_uris":{"android":"levelo://app?vid=79f95142-b2d2-49e8-801d-cb6dfb8253c7","ios":"levelo://app?vid=79f95142-b2d2-49e8-801d-cb6dfb8253c7"},"vehicle_type_id":"4","last_reported":1753805604,"current_range_meters":9200,"station_id":"ce4bh612rcd13ifvqe6g","pricing_plan_id":"cebpf4jnsgd1na2vs0mg"},{"bike_id":"2a3a9f20-00d1-4c95-a093-ba8e28724bc0","system_id":"levelo_inurba_marseille","lat":43.306569,"lon":5.375677,"is_reserved":false,"is_disabled":false,"rental_uris":{"android":"levelo://app?vid=2a3a9f20-00d1-4c95-a093-ba8e28724bc0","ios":"levelo://app?vid=2a3a9f20-00d1-4c95-a093-ba8e28724bc0"},"vehicle_type_id":"4","last_reported":1753805604,"current_range_meters":10000,"station_id":"","pricing_plan_id":"cebpf4jnsgd1na2vs0mg"},{"bike_id":"d796326e-2ce6-4404-99f5-26bd14af87f0","system_id":"levelo_inurba_marseille","lat":43.290081,"lon":5.356217,"is_reserved":false,"is_disabled":false,"rental_uris":{"android":"levelo://app?vid=d796326e-2ce6-4404-99f5-26bd14af87f0","ios":"levelo://app?vid=d796326e-2ce6-4404-99f5-26bd14af87f0"},"vehicle_type_id":"4","last_reported":1753805604,"current_range_meters":10800,"station_id":"ce4bhb92rcd13ifvqen0","pricing_plan_id":"cebpf4jnsgd1na2vs0mg"},{"bike_id":"3228cc4e-63dc-4df4-8684-e6cb8ee9c79f","system_id":"levelo_inurba_marseille","lat":43.282606,"lon":5.350597,"is_reserved":false,"is_disabled":false,"rental_uris":{"android":"levelo://app?vid=3228cc4e-63dc-4df4-8684-e6cb8ee9c79f","ios":"levelo://app?vid=3228cc4e-63dc-4df4-8684-e6cb8ee9c79f"},"vehicle_type_id":"4","last_reported":1753805604,"current_range_meters":10800,"station_id":"ce4bhb12rcd13ifvqel0","pricing_plan_id":"cebpf4jnsgd1na2vs0mg"},{"bike_id":"12aecde3-64c8-43cb-b27f-fc7122ab25a3","system_id":"levelo_inurba_marseille","lat":43.23963,"lon":5.36633,"is_reserved":false,"is_disabled":false,"rental_uris":{"android":"levelo://app?vid=12aecde3-64c8-43cb-b27f-fc7122ab25a3","ios":"levelo://app?vid=12aecde3-64c8-43cb-b27f-fc7122ab25a3"},"vehicle_type_id":"4","last_reported":1753805604,"current_range_meters":10800,"station_id":"ce4bhi12rcd13ifvqfp0","pricing_plan_id":"cebpf4jnsgd1na2vs0mg"},{"bike_id":"ded3ca32-79cf-499e-a93e-78e8e0a58def","system_id":"levelo_inurba_marseille","lat":43.29195,"lon":5.35796,"is_reserved":false,"is_disabled":true,"rental_uris":{"android":"levelo://app?vid=ded3ca32-79cf-499e-a93e-78e8e0a58def","ios":"levelo://app?vid=ded3ca32-79cf-499e-a93e-78e8e0a58def"},"vehicle_type_id":"4","last_reported":1753805604,"current_range_meters":10800,"station_id":"ce4bhb12rcd13ifvqel0","pricing_plan_id":"cebpf4jnsgd1na2vs0mg"},{"bike_id":"d4b0442d-37e3-4887-8827-87b59f4e9086","system_id":"levelo_inurba_marseille","lat":43.2977,"lon":5.38108,"is_reserved":false,"is_disabled":false,"rental_uris":{"android":"levelo://app?vid=d4b0442d-37e3-4887-8827-87b59f4e9086","ios":"levelo://app?vid=d4b0442d-37e3-4887-8827-87b59f4e9086"},"vehicle_type_id":"4","last_reported":1753805604,"current_range_meters":10800,"station_id":"","pricing_plan_id":"cebpf4jnsgd1na2vs0mg"},{"bike_id":"5af70030-0b3a-4f0e-9df5-9d12397b244f","system_id":"levelo_inurba_marseille","lat":43.217431,"lon":5.346035,"is_reserved":false,"is_disabled":false,"rental_uris":{"android":"levelo://app?vid=5af70030-0b3a-4f0e-9df5-9d12397b244f","ios":"levelo://app?vid=5af70030-0b3a-4f0e-9df5-9d12397b244f"},"vehicle_type_id":"4","last_reported":1753805604,"current_range_meters":10800,"station_id":"st_cvj6r9ubvosntc0bgbag","pricing_plan_id":"cebpf4jnsgd1na2vs0mg"},{"bike_id":"baebe4c9-a6e8-4d2b-9927-e45b3a953104","system_id":"levelo_inurba_marseille","lat":43.30609,"lon":5.372331,"is_reserved":false,"is_disabled":false,"rental_uris":{"android":"levelo://app?vid=baebe4c9-a6e8-4d2b-9927-e45b3a953104","ios":"levelo://app?vid=baebe4c9-a6e8-4d2b-9927-e45b3a953104"},"vehicle_type_id":"4","last_reported":1753805604,"current_range_meters":10000,"station_id":"ce4bgqh2rcd13ifvqc4g","pricing_plan_id":"cebpf4jnsgd1na2vs0mg"},{"bike_id":"da913aa8-3d8c-4ab2-b48f-187998fd2a99","system_id":"levelo_inurba_marseille","lat":43.33769,"lon":5.37493,"is_reserved":false,"is_disabled":false,"rental_uris":{"android":"levelo://app?vid=da913aa8-3d8c-4ab2-b48f-187998fd2a99","ios":"levelo://app?vid=da913aa8-3d8c-4ab2-b48f-187998fd2a99"},"vehicle_type_id":"4","last_reported":1753805604,"current_range_meters":11200,"station_id":"","pricing_plan_id":"cebpf4jnsgd1na2vs0mg"},{"bike_id":"b6107dbe-b2cc-4e60-8284-cb67a1211599","system_id":"levelo_inurba_marseille","lat":43.298461,"lon":5.383528,"is_reserved":false,"is_disabled":false,"rental_uris":{"android":"levelo://app?vid=b6107dbe-b2cc-4e60-8284-cb67a1211599","ios":"levelo://app?vid=b6107dbe-b2cc-4e60-8284-cb67a1211599"},"vehicle_type_id":"4","last_reported":1753805604,"current_range_meters":11200,"station_id":"","pricing_plan_id":"cebpf4jnsgd1na2vs0mg"},{"bike_id":"26c05e89-7358-4a2a-bdb9-f4015a94cc45","system_id":"levelo_inurba_marseille","lat":43.29438,"lon":5.39757,"is_reserved":false,"is_disabled":false,"rental_uris":{"android":"levelo://app?vid=26c05e89-7358-4a2a-bdb9-f4015a94cc45","ios":"levelo://app?vid=26c05e89-7358-4a2a-bdb9-f4015a94cc45"},"vehicle_type_id":"4","last_reported":1753805604,"current_range_meters":11200,"station_id":"ce4bh3h2rcd13ifvqdo0","pricing_plan_id":"cebpf4jnsgd1na2vs0mg"},{"bike_id":"0102d851-bdab-441a-b55f-0aca24b3f2aa","system_id":"levelo_inurba_marseille","lat":43.27203,"lon":5.39188,"is_reserved":false,"is_disabled":false,"rental_uris":{"android":"levelo://app?vid=0102d851-bdab-441a-b55f-0aca24b3f2aa","ios":"levelo://app?vid=0102d851-bdab-441a-b55f-0aca24b3f2aa"},"vehicle_type_id":"4","last_reported":1753805604,"current_range_meters":11600,"station_id":"ce4bhhp2rcd13ifvqfm0","pricing_plan_id":"cebpf4jnsgd1na2vs0mg"},{"bike_id":"45212c79-9ef8-4253-8b95-ad8f29b8aba0","system_id":"levelo_inurba_marseille","lat":43.27371,"lon":5.36261,"is_reserved":false,"is_disabled":false,"rental_uris":{"android":"levelo://app?vid=45212c79-9ef8-4253-8b95-ad8f29b8aba0","ios":"levelo://app?vid=45212c79-9ef8-4253-8b95-ad8f29b8aba0"},"vehicle_type_id":"4","last_reported":1753805604,"current_range_meters":11600,"station_id":"ce4bhbh2rcd13ifvqeo0","pricing_plan_id":"cebpf4jnsgd1na2vs0mg"},{"bike_id":"e8131d49-cb18-43af-9057-068c7e091cd0","system_id":"levelo_inurba_marseille","lat":43.29224,"lon":5.36065,"is_reserved":false,"is_disabled":false,"rental_uris":{"android":"levelo://app?vid=e8131d49-cb18-43af-9057-068c7e091cd0","ios":"levelo://app?vid=e8131d49-cb18-43af-9057-068c7e091cd0"},"vehicle_type_id":"4","last_reported":1753805604,"current_range_meters":11600,"station_id":"ce4bhbh2rcd13ifvqeqg","pricing_plan_id":"cebpf4jnsgd1na2vs0mg"},{"bike_id":"7cf62c04-91f9-4e0a-bdd9-c677d355fb11","system_id":"levelo_inurba_marseille","lat":43.29901,"lon":5.383,"is_reserved":false,"is_disabled":false,"rental_uris":{"android":"levelo://app?vid=7cf62c04-91f9-4e0a-bdd9-c677d355fb11","ios":"levelo://app?vid=7cf62c04-91f9-4e0a-bdd9-c677d355fb11"},"vehicle_type_id":"4","last_reported":1753805604,"current_range_meters":11600,"station_id":"","pricing_plan_id":"cebpf4jnsgd1na2vs0mg"},{"bike_id":"c7472721-591c-46d9-a968-82451b995536","system_id":"levelo_inurba_marseille","lat":43.28925,"lon":5.36379,"is_reserved":false,"is_disabled":false,"rental_uris":{"android":"levelo://app?vid=c7472721-591c-46d9-a968-82451b995536","ios":"levelo://app?vid=c7472721-591c-46d9-a968-82451b995536"},"vehicle_type_id":"4","last_reported":1753805604,"current_range_meters":12000,"station_id":"ce4bhc92rcd13ifvqetg","pricing_plan_id":"cebpf4jnsgd1na2vs0mg"},{"bike_id":"39cb3c84-5fe0-4473-8be0-9e8899ff66ca","system_id":"levelo_inurba_marseille","lat":43.29097,"lon":5.38119,"is_reserved":false,"is_disabled":false,"rental_uris":{"android":"levelo://app?vid=39cb3c84-5fe0-4473-8be0-9e8899ff66ca","ios":"levelo://app?vid=39cb3c84-5fe0-4473-8be0-9e8899ff66ca"},"vehicle_type_id":"4","last_reported":1753805604,"current_range_meters":12000,"station_id":"ce4bh512rcd13ifvqe2g","pricing_plan_id":"cebpf4jnsgd1na2vs0mg"},{"bike_id":"bda073ad-7102-4309-9aac-c13157d7045d","system_id":"levelo_inurba_marseille","lat":43.30887,"lon":5.39659,"is_reserved":false,"is_disabled":false,"rental_uris":{"android":"levelo://app?vid=bda073ad-7102-4309-9aac-c13157d7045d","ios":"levelo://app?vid=bda073ad-7102-4309-9aac-c13157d7045d"},"vehicle_type_id":"4","last_reported":1753805604,"current_range_meters":12000,"station_id":"ce4bh012rcd13ifvqcv0","pricing_plan_id":"cebpf4jnsgd1na2vs0mg"},{"bike_id":"cb1cc6ba-5b77-40fb-ad0c-c41a4d15d014","system_id":"levelo_inurba_marseille","lat":43.21767,"lon":5.34588,"is_reserved":false,"is_disabled":false,"rental_uris":{"android":"levelo://app?vid=cb1cc6ba-5b77-40fb-ad0c-c41a4d15d014","ios":"levelo://app?vid=cb1cc6ba-5b77-40fb-ad0c-c41a4d15d014"},"vehicle_type_id":"4","last_reported":1753805604,"current_range_meters":12000,"station_id":"st_cvj6r9ubvosntc0bgbag","pricing_plan_id":"cebpf4jnsgd1na2vs0mg"},{"bike_id":"ea581e86-2682-4dbb-8637-8228b6572931","system_id":"levelo_inurba_marseille","lat":43.31194,"lon":5.38728,"is_reserved":false,"is_disabled":false,"rental_uris":{"android":"levelo://app?vid=ea581e86-2682-4dbb-8637-8228b6572931","ios":"levelo://app?vid=ea581e86-2682-4dbb-8637-8228b6572931"},"vehicle_type_id":"4","last_reported":1753805604,"current_range_meters":12000,"station_id":"ce4bgv12rcd13ifvqcp0","pricing_plan_id":"cebpf4jnsgd1na2vs0mg"},{"bike_id":"62f5da51-1009-4002-b725-5765ccaaf3ec","system_id":"levelo_inurba_marseille","lat":43.294345,"lon":5.432517,"is_reserved":false,"is_disabled":false,"rental_uris":{"android":"levelo://app?vid=62f5da51-1009-4002-b725-5765ccaaf3ec","ios":"levelo://app?vid=62f5da51-1009-4002-b725-5765ccaaf3ec"},"vehicle_type_id":"4","last_reported":1753805604,"current_range_meters":12000,"station_id":"","pricing_plan_id":"cebpf4jnsgd1na2vs0mg"},{"bike_id":"149441a1-4a20-4aba-ad8b-5cb0f28aa1c9","system_id":"levelo_inurba_marseille","lat":43.230562,"lon":5.354918,"is_reserved":false,"is_disabled":false,"rental_uris":{"android":"levelo://app?vid=149441a1-4a20-4aba-ad8b-5cb0f28aa1c9","ios":"levelo://app?vid=149441a1-4a20-4aba-ad8b-5cb0f28aa1c9"},"vehicle_type_id":"4","last_reported":1753805604,"current_range_meters":12000,"station_id":"cpo3342slgdg3j2ifvpg","pricing_plan_id":"cebpf4jnsgd1na2vs0mg"},{"bike_id":"a3f6fcde-afcd-45f1-92b0-72893fa8786e","system_id":"levelo_inurba_marseille","lat":43.27375,"lon":5.36264,"is_reserved":false,"is_disabled":false,"rental_uris":{"android":"levelo://app?vid=a3f6fcde-afcd-45f1-92b0-72893fa8786e","ios":"levelo://app?vid=a3f6fcde-afcd-45f1-92b0-72893fa8786e"},"vehicle_type_id":"4","last_reported":1753805604,"current_range_meters":12000,"station_id":"ce4bhbh2rcd13ifvqeo0","pricing_plan_id":"cebpf4jnsgd1na2vs0mg"},{"bike_id":"50427cb4-f7c5-45fa-9402-39ede650aa5c","system_id":"levelo_inurba_marseille","lat":43.31294,"lon":5.40191,"is_reserved":false,"is_disabled":true,"rental_uris":{"android":"levelo://app?vid=50427cb4-f7c5-45fa-9402-39ede650aa5c","ios":"levelo://app?vid=50427cb4-f7c5-45fa-9402-39ede650aa5c"},"vehicle_type_id":"4","last_reported":1753805604,"current_range_meters":12400,"station_id":"ce4bh092rcd13ifvqd30","pricing_plan_id":"cebpf4jnsgd1na2vs0mg"},{"bike_id":"43348ea9-7f7d-45e7-9344-a5a742188c65","system_id":"levelo_inurba_marseille","lat":43.28709,"lon":5.37382,"is_reserved":false,"is_disabled":true,"rental_uris":{"android":"levelo://app?vid=43348ea9-7f7d-45e7-9344-a5a742188c65","ios":"levelo://app?vid=43348ea9-7f7d-45e7-9344-a5a742188c65"},"vehicle_type_id":"4","last_reported":1753805604,"current_range_meters":12400,"station_id":"ce4bh3p2rcd13ifvqdq0","pricing_plan_id":"cebpf4jnsgd1na2vs0mg"},{"bike_id":"ae458df4-626b-45c5-acc6-620aacd74151","system_id":"levelo_inurba_marseille","lat":43.28281,"lon":5.35061,"is_reserved":false,"is_disabled":false,"rental_uris":{"android":"levelo://app?vid=ae458df4-626b-45c5-acc6-620aacd74151","ios":"levelo://app?vid=ae458df4-626b-45c5-acc6-620aacd74151"},"vehicle_type_id":"4","last_reported":1753805604,"current_range_meters":12400,"station_id":"ce4bhbp2rcd13ifvqerg","pricing_plan_id":"cebpf4jnsgd1na2vs0mg"},{"bike_id":"3d9f2061-7fb9-4387-9262-8d2451911c2b","system_id":"levelo_inurba_marseille","lat":43.22914,"lon":5.35361,"is_reserved":false,"is_disabled":false,"rental_uris":{"android":"levelo://app?vid=3d9f2061-7fb9-4387-9262-8d2451911c2b","ios":"levelo://app?vid=3d9f2061-7fb9-4387-9262-8d2451911c2b"},"vehicle_type_id":"4","last_reported":1753805604,"current_range_meters":12400,"station_id":"cpo3532slgdg3j2ikp40","pricing_plan_id":"cebpf4jnsgd1na2vs0mg"},{"bike_id":"1578843f-6b75-4676-b917-8d17031c5a90","system_id":"levelo_inurba_marseille","lat":43.29936,"lon":5.3655,"is_reserved":false,"is_disabled":false,"rental_uris":{"android":"levelo://app?vid=1578843f-6b75-4676-b917-8d17031c5a90","ios":"levelo://app?vid=1578843f-6b75-4676-b917-8d17031c5a90"},"vehicle_type_id":"4","last_reported":1753805604,"current_range_meters":12400,"station_id":"ce4bgm92rcd13ifvqbr0","pricing_plan_id":"cebpf4jnsgd1na2vs0mg"},{"bike_id":"d92aa997-1672-489a-8f78-1c4c1cd84672","system_id":"levelo_inurba_marseille","lat":43.272094,"lon":5.391819,"is_reserved":false,"is_disabled":false,"rental_uris":{"android":"levelo://app?vid=d92aa997-1672-489a-8f78-1c4c1cd84672","ios":"levelo://app?vid=d92aa997-1672-489a-8f78-1c4c1cd84672"},"vehicle_type_id":"4","last_reported":1753805604,"current_range_meters":12800,"station_id":"","pricing_plan_id":"cebpf4jnsgd1na2vs0mg"},{"bike_id":"781d1b23-d4f9-4493-9221-7e7d3ffb798d","system_id":"levelo_inurba_marseille","lat":43.28423,"lon":5.3498,"is_reserved":false,"is_disabled":false,"rental_uris":{"android":"levelo://app?vid=781d1b23-d4f9-4493-9221-7e7d3ffb798d","ios":"levelo://app?vid=781d1b23-d4f9-4493-9221-7e7d3ffb798d"},"vehicle_type_id":"4","last_reported":1753805604,"current_range_meters":12800,"station_id":"ce4bhbh2rcd13ifvqepg","pricing_plan_id":"cebpf4jnsgd1na2vs0mg"},{"bike_id":"b0f2b2c1-b378-4164-a22b-6eceaa434acc","system_id":"levelo_inurba_marseille","lat":43.29332,"lon":5.42784,"is_reserved":false,"is_disabled":false,"rental_uris":{"android":"levelo://app?vid=b0f2b2c1-b378-4164-a22b-6eceaa434acc","ios":"levelo://app?vid=b0f2b2c1-b378-4164-a22b-6eceaa434acc"},"vehicle_type_id":"4","last_reported":1753805604,"current_range_meters":12800,"station_id":"","pricing_plan_id":"cebpf4jnsgd1na2vs0mg"},{"bike_id":"5e86d76b-d91e-4117-892d-2fc9519a61c9","system_id":"levelo_inurba_marseille","lat":43.29006,"lon":5.35612,"is_reserved":false,"is_disabled":false,"rental_uris":{"android":"levelo://app?vid=5e86d76b-d91e-4117-892d-2fc9519a61c9","ios":"levelo://app?vid=5e86d76b-d91e-4117-892d-2fc9519a61c9"},"vehicle_type_id":"4","last_reported":1753805604,"current_range_meters":12800,"station_id":"ce4bhb92rcd13ifvqen0","pricing_plan_id":"cebpf4jnsgd1na2vs0mg"},{"bike_id":"ae37bcc8-7e6f-424d-aeec-f2b9427c601c","system_id":"levelo_inurba_marseille","lat":43.28703,"lon":5.37404,"is_reserved":false,"is_disabled":false,"rental_uris":{"android":"levelo://app?vid=ae37bcc8-7e6f-424d-aeec-f2b9427c601c","ios":"levelo://app?vid=ae37bcc8-7e6f-424d-aeec-f2b9427c601c"},"vehicle_type_id":"4","last_reported":1753805604,"current_range_meters":12800,"station_id":"ce4bh3p2rcd13ifvqdq0","pricing_plan_id":"cebpf4jnsgd1na2vs0mg"},{"bike_id":"e0e6f85d-cbe2-4ea1-8a76-5c79a838094f","system_id":"levelo_inurba_marseille","lat":43.23082,"lon":5.35473,"is_reserved":false,"is_disabled":false,"rental_uris":{"android":"levelo://app?vid=e0e6f85d-cbe2-4ea1-8a76-5c79a838094f","ios":"levelo://app?vid=e0e6f85d-cbe2-4ea1-8a76-5c79a838094f"},"vehicle_type_id":"4","last_reported":1753805604,"current_range_meters":12800,"station_id":"cpo3342slgdg3j2ifvpg","pricing_plan_id":"cebpf4jnsgd1na2vs0mg"},{"bike_id":"65c83cbc-6298-42c5-9853-73a82e701f43","system_id":"levelo_inurba_marseille","lat":43.30428,"lon":5.397542,"is_reserved":false,"is_disabled":false,"rental_uris":{"android":"levelo://app?vid=65c83cbc-6298-42c5-9853-73a82e701f43","ios":"levelo://app?vid=65c83cbc-6298-42c5-9853-73a82e701f43"},"vehicle_type_id":"4","last_reported":1753805604,"current_range_meters":12800,"station_id":"ce4bh092rcd13ifvqd20","pricing_plan_id":"cebpf4jnsgd1na2vs0mg"},{"bike_id":"13886c75-e622-4209-9da9-5aeb03c3a8ea","system_id":"levelo_inurba_marseille","lat":43.2841,"lon":5.34992,"is_reserved":false,"is_disabled":false,"rental_uris":{"android":"levelo://app?vid=13886c75-e622-4209-9da9-5aeb03c3a8ea","ios":"levelo://app?vid=13886c75-e622-4209-9da9-5aeb03c3a8ea"},"vehicle_type_id":"4","last_reported":1753805604,"current_range_meters":13600,"station_id":"ce4bhbh2rcd13ifvqepg","pricing_plan_id":"cebpf4jnsgd1na2vs0mg"},{"bike_id":"1c2cee29-6d27-4bdf-b97c-eecf71616341","system_id":"levelo_inurba_marseille","lat":43.231898,"lon":5.355548,"is_reserved":false,"is_disabled":false,"rental_uris":{"android":"levelo://app?vid=1c2cee29-6d27-4bdf-b97c-eecf71616341","ios":"levelo://app?vid=1c2cee29-6d27-4bdf-b97c-eecf71616341"},"vehicle_type_id":"4","last_reported":1753805604,"current_range_meters":13600,"station_id":"ce4bhu92rcd13ifvqi70","pricing_plan_id":"cebpf4jnsgd1na2vs0mg"},{"bike_id":"e101e50b-21bd-45a0-b214-c938397e4d5c","system_id":"levelo_inurba_marseille","lat":43.26935,"lon":5.38918,"is_reserved":false,"is_disabled":false,"rental_uris":{"android":"levelo://app?vid=e101e50b-21bd-45a0-b214-c938397e4d5c","ios":"levelo://app?vid=e101e50b-21bd-45a0-b214-c938397e4d5c"},"vehicle_type_id":"4","last_reported":1753805604,"current_range_meters":13600,"station_id":"ce4bhhh2rcd13ifvqfl0","pricing_plan_id":"cebpf4jnsgd1na2vs0mg"},{"bike_id":"5dfabdc2-b806-44aa-94b4-47dba92b8204","system_id":"levelo_inurba_marseille","lat":43.229333,"lon":5.353863,"is_reserved":false,"is_disabled":false,"rental_uris":{"android":"levelo://app?vid=5dfabdc2-b806-44aa-94b4-47dba92b8204","ios":"levelo://app?vid=5dfabdc2-b806-44aa-94b4-47dba92b8204"},"vehicle_type_id":"4","last_reported":1753805604,"current_range_meters":13600,"station_id":"cpo3532slgdg3j2ikp40","pricing_plan_id":"cebpf4jnsgd1na2vs0mg"},{"bike_id":"75aa074a-8804-4fec-88d9-260a8abf5ca1","system_id":"levelo_inurba_marseille","lat":43.26555,"lon":5.37287,"is_reserved":false,"is_disabled":false,"rental_uris":{"android":"levelo://app?vid=75aa074a-8804-4fec-88d9-260a8abf5ca1","ios":"levelo://app?vid=75aa074a-8804-4fec-88d9-260a8abf5ca1"},"vehicle_type_id":"4","last_reported":1753805604,"current_range_meters":13600,"station_id":"ce4bhg12rcd13ifvqf70","pricing_plan_id":"cebpf4jnsgd1na2vs0mg"},{"bike_id":"38826a4e-39ce-4a5f-b77e-e56b36df68b7","system_id":"levelo_inurba_marseille","lat":43.31716,"lon":5.43709,"is_reserved":false,"is_disabled":false,"rental_uris":{"android":"levelo://app?vid=38826a4e-39ce-4a5f-b77e-e56b36df68b7","ios":"levelo://app?vid=38826a4e-39ce-4a5f-b77e-e56b36df68b7"},"vehicle_type_id":"4","last_reported":1753805604,"current_range_meters":13600,"station_id":"ce4bhp92rcd13ifvqhcg","pricing_plan_id":"cebpf4jnsgd1na2vs0mg"},{"bike_id":"e137dc03-26cf-440c-b3ea-1ea522645199","system_id":"levelo_inurba_marseille","lat":43.280815,"lon":5.396626,"is_reserved":false,"is_disabled":false,"rental_uris":{"android":"levelo://app?vid=e137dc03-26cf-440c-b3ea-1ea522645199","ios":"levelo://app?vid=e137dc03-26cf-440c-b3ea-1ea522645199"},"vehicle_type_id":"4","last_reported":1753805604,"current_range_meters":13600,"station_id":"","pricing_plan_id":"cebpf4jnsgd1na2vs0mg"},{"bike_id":"5bb0c23f-2d0b-4e08-ab7e-97bbd337c555","system_id":"levelo_inurba_marseille","lat":43.2926,"lon":5.38438,"is_reserved":false,"is_disabled":false,"rental_uris":{"android":"levelo://app?vid=5bb0c23f-2d0b-4e08-ab7e-97bbd337c555","ios":"levelo://app?vid=5bb0c23f-2d0b-4e08-ab7e-97bbd337c555"},"vehicle_type_id":"4","last_reported":1753805604,"current_range_meters":13600,"station_id":"ce4bh692rcd13ifvqea0","pricing_plan_id":"cebpf4jnsgd1na2vs0mg"},{"bike_id":"4ffc9d79-d56a-482d-b7d9-a5892348f435","system_id":"levelo_inurba_marseille","lat":43.28414,"lon":5.34991,"is_reserved":false,"is_disabled":false,"rental_uris":{"android":"levelo://app?vid=4ffc9d79-d56a-482d-b7d9-a5892348f435","ios":"levelo://app?vid=4ffc9d79-d56a-482d-b7d9-a5892348f435"},"vehicle_type_id":"4","last_reported":1753805604,"current_range_meters":14000,"station_id":"ce4bhbh2rcd13ifvqepg","pricing_plan_id":"cebpf4jnsgd1na2vs0mg"},{"bike_id":"0be31b6f-fc53-4eca-85af-db1572822452","system_id":"levelo_inurba_marseille","lat":43.29217,"lon":5.36054,"is_reserved":false,"is_disabled":false,"rental_uris":{"android":"levelo://app?vid=0be31b6f-fc53-4eca-85af-db1572822452","ios":"levelo://app?vid=0be31b6f-fc53-4eca-85af-db1572822452"},"vehicle_type_id":"4","last_reported":1753805604,"current_range_meters":14000,"station_id":"ce4bhbh2rcd13ifvqeqg","pricing_plan_id":"cebpf4jnsgd1na2vs0mg"},{"bike_id":"a5d21f19-a2f8-4c79-9341-84f97b97beb0","system_id":"levelo_inurba_marseille","lat":43.33423,"lon":5.40079,"is_reserved":false,"is_disabled":false,"rental_uris":{"android":"levelo://app?vid=a5d21f19-a2f8-4c79-9341-84f97b97beb0","ios":"levelo://app?vid=a5d21f19-a2f8-4c79-9341-84f97b97beb0"},"vehicle_type_id":"4","last_reported":1753805604,"current_range_meters":14000,"station_id":"","pricing_plan_id":"cebpf4jnsgd1na2vs0mg"},{"bike_id":"7f3262f8-b9db-4ce0-9f33-68bc0d73023a","system_id":"levelo_inurba_marseille","lat":43.29218,"lon":5.36044,"is_reserved":false,"is_disabled":false,"rental_uris":{"android":"levelo://app?vid=7f3262f8-b9db-4ce0-9f33-68bc0d73023a","ios":"levelo://app?vid=7f3262f8-b9db-4ce0-9f33-68bc0d73023a"},"vehicle_type_id":"4","last_reported":1753805604,"current_range_meters":14000,"station_id":"ce4bhbh2rcd13ifvqeqg","pricing_plan_id":"cebpf4jnsgd1na2vs0mg"},{"bike_id":"0dc99cab-1546-4588-8ef9-e9c6ae8e0a6f","system_id":"levelo_inurba_marseille","lat":43.23065,"lon":5.35501,"is_reserved":false,"is_disabled":false,"rental_uris":{"android":"levelo://app?vid=0dc99cab-1546-4588-8ef9-e9c6ae8e0a6f","ios":"levelo://app?vid=0dc99cab-1546-4588-8ef9-e9c6ae8e0a6f"},"vehicle_type_id":"4","last_reported":1753805604,"current_range_meters":14000,"station_id":"cpo3342slgdg3j2ifvpg","pricing_plan_id":"cebpf4jnsgd1na2vs0mg"},{"bike_id":"e9624a09-b572-4bcb-944b-ef4683557984","system_id":"levelo_inurba_marseille","lat":43.2306,"lon":5.3549,"is_reserved":false,"is_disabled":false,"rental_uris":{"android":"levelo://app?vid=e9624a09-b572-4bcb-944b-ef4683557984","ios":"levelo://app?vid=e9624a09-b572-4bcb-944b-ef4683557984"},"vehicle_type_id":"4","last_reported":1753805604,"current_range_meters":14000,"station_id":"cpo3342slgdg3j2ifvpg","pricing_plan_id":"cebpf4jnsgd1na2vs0mg"},{"bike_id":"590af998-9244-4ce2-be55-4177d8c9c195","system_id":"levelo_inurba_marseille","lat":43.308828,"lon":5.371927,"is_reserved":false,"is_disabled":false,"rental_uris":{"android":"levelo://app?vid=590af998-9244-4ce2-be55-4177d8c9c195","ios":"levelo://app?vid=590af998-9244-4ce2-be55-4177d8c9c195"},"vehicle_type_id":"4","last_reported":1753805604,"current_range_meters":14400,"station_id":"ce4bguh2rcd13ifvqckg","pricing_plan_id":"cebpf4jnsgd1na2vs0mg"},{"bike_id":"73c28b44-fb9a-4083-b9eb-e60de241e4cb","system_id":"levelo_inurba_marseille","lat":43.32356,"lon":5.38888,"is_reserved":false,"is_disabled":false,"rental_uris":{"android":"levelo://app?vid=73c28b44-fb9a-4083-b9eb-e60de241e4cb","ios":"levelo://app?vid=73c28b44-fb9a-4083-b9eb-e60de241e4cb"},"vehicle_type_id":"4","last_reported":1753805604,"current_range_meters":14400,"station_id":"ce4bhqp2rcd13ifvqhog","pricing_plan_id":"cebpf4jnsgd1na2vs0mg"},{"bike_id":"2f5a766e-3ece-4a36-9442-eef7b36a8a22","system_id":"levelo_inurba_marseille","lat":43.248105,"lon":5.374613,"is_reserved":false,"is_disabled":false,"rental_uris":{"android":"levelo://app?vid=2f5a766e-3ece-4a36-9442-eef7b36a8a22","ios":"levelo://app?vid=2f5a766e-3ece-4a36-9442-eef7b36a8a22"},"vehicle_type_id":"4","last_reported":1753805604,"current_range_meters":14400,"station_id":"ce4bhgh2rcd13ifvqfb0","pricing_plan_id":"cebpf4jnsgd1na2vs0mg"},{"bike_id":"7887f1f5-6e70-43f7-9388-01ef84d4cdc0","system_id":"levelo_inurba_marseille","lat":43.262133,"lon":5.374442,"is_reserved":false,"is_disabled":false,"rental_uris":{"android":"levelo://app?vid=7887f1f5-6e70-43f7-9388-01ef84d4cdc0","ios":"levelo://app?vid=7887f1f5-6e70-43f7-9388-01ef84d4cdc0"},"vehicle_type_id":"4","last_reported":1753805604,"current_range_meters":14400,"station_id":"ce4bgh92rcd13ifvqb40","pricing_plan_id":"cebpf4jnsgd1na2vs0mg"},{"bike_id":"d8e6094c-0de7-412e-bab8-3969f4a35524","system_id":"levelo_inurba_marseille","lat":43.29847,"lon":5.37574,"is_reserved":false,"is_disabled":false,"rental_uris":{"android":"levelo://app?vid=d8e6094c-0de7-412e-bab8-3969f4a35524","ios":"levelo://app?vid=d8e6094c-0de7-412e-bab8-3969f4a35524"},"vehicle_type_id":"4","last_reported":1753805604,"current_range_meters":14400,"station_id":"","pricing_plan_id":"cebpf4jnsgd1na2vs0mg"},{"bike_id":"b64c03c9-98bf-4c14-af5a-e2bfc4c819cd","system_id":"levelo_inurba_marseille","lat":43.29257,"lon":5.40898,"is_reserved":false,"is_disabled":false,"rental_uris":{"android":"levelo://app?vid=b64c03c9-98bf-4c14-af5a-e2bfc4c819cd","ios":"levelo://app?vid=b64c03c9-98bf-4c14-af5a-e2bfc4c819cd"},"vehicle_type_id":"4","last_reported":1753805604,"current_range_meters":14400,"station_id":"ce4bh192rcd13ifvqdc0","pricing_plan_id":"cebpf4jnsgd1na2vs0mg"},{"bike_id":"9df546d8-aea9-4e54-8d23-90a9c71c604f","system_id":"levelo_inurba_marseille","lat":43.2953,"lon":5.39048,"is_reserved":false,"is_disabled":false,"rental_uris":{"android":"levelo://app?vid=9df546d8-aea9-4e54-8d23-90a9c71c604f","ios":"levelo://app?vid=9df546d8-aea9-4e54-8d23-90a9c71c604f"},"vehicle_type_id":"4","last_reported":1753805604,"current_range_meters":14400,"station_id":"ce4bh3p2rcd13ifvqdp0","pricing_plan_id":"cebpf4jnsgd1na2vs0mg"},{"bike_id":"0284b153-ed18-4aff-854a-398618bd67fc","system_id":"levelo_inurba_marseille","lat":43.28423,"lon":5.34989,"is_reserved":false,"is_disabled":false,"rental_uris":{"android":"levelo://app?vid=0284b153-ed18-4aff-854a-398618bd67fc","ios":"levelo://app?vid=0284b153-ed18-4aff-854a-398618bd67fc"},"vehicle_type_id":"4","last_reported":1753805604,"current_range_meters":14400,"station_id":"ce4bhbh2rcd13ifvqepg","pricing_plan_id":"cebpf4jnsgd1na2vs0mg"},{"bike_id":"f0fbbbb7-36b7-4901-8e3f-29c0fbf6faf5","system_id":"levelo_inurba_marseille","lat":43.2318,"lon":5.39994,"is_reserved":false,"is_disabled":false,"rental_uris":{"android":"levelo://app?vid=f0fbbbb7-36b7-4901-8e3f-29c0fbf6faf5","ios":"levelo://app?vid=f0fbbbb7-36b7-4901-8e3f-29c0fbf6faf5"},"vehicle_type_id":"4","last_reported":1753805604,"current_range_meters":14400,"station_id":"ce4bhn12rcd13ifvqgqg","pricing_plan_id":"cebpf4jnsgd1na2vs0mg"},{"bike_id":"d15023d0-0c6a-4f07-a484-cecb9eb44674","system_id":"levelo_inurba_marseille","lat":43.28426,"lon":5.34987,"is_reserved":false,"is_disabled":false,"rental_uris":{"android":"levelo://app?vid=d15023d0-0c6a-4f07-a484-cecb9eb44674","ios":"levelo://app?vid=d15023d0-0c6a-4f07-a484-cecb9eb44674"},"vehicle_type_id":"4","last_reported":1753805604,"current_range_meters":14400,"station_id":"ce4bhbh2rcd13ifvqepg","pricing_plan_id":"cebpf4jnsgd1na2vs0mg"},{"bike_id":"82bde7ca-70b9-4f0e-a19f-f761e37d819e","system_id":"levelo_inurba_marseille","lat":43.28431,"lon":5.35001,"is_reserved":false,"is_disabled":false,"rental_uris":{"android":"levelo://app?vid=82bde7ca-70b9-4f0e-a19f-f761e37d819e","ios":"levelo://app?vid=82bde7ca-70b9-4f0e-a19f-f761e37d819e"},"vehicle_type_id":"4","last_reported":1753805604,"current_range_meters":14400,"station_id":"ce4bhbh2rcd13ifvqepg","pricing_plan_id":"cebpf4jnsgd1na2vs0mg"},{"bike_id":"7ae9a301-af81-4c61-b264-f97fbac78c92","system_id":"levelo_inurba_marseille","lat":43.24814,"lon":5.37455,"is_reserved":false,"is_disabled":false,"rental_uris":{"android":"levelo://app?vid=7ae9a301-af81-4c61-b264-f97fbac78c92","ios":"levelo://app?vid=7ae9a301-af81-4c61-b264-f97fbac78c92"},"vehicle_type_id":"4","last_reported":1753805604,"current_range_meters":14800,"station_id":"ce4bhgh2rcd13ifvqfb0","pricing_plan_id":"cebpf4jnsgd1na2vs0mg"},{"bike_id":"a027973f-c8c9-4811-a512-806c935b4c27","system_id":"levelo_inurba_marseille","lat":43.212008,"lon":5.350655,"is_reserved":false,"is_disabled":true,"rental_uris":{"android":"levelo://app?vid=a027973f-c8c9-4811-a512-806c935b4c27","ios":"levelo://app?vid=a027973f-c8c9-4811-a512-806c935b4c27"},"vehicle_type_id":"4","last_reported":1753805604,"current_range_meters":14800,"station_id":"st_cvj6sg6p6f1abm77japg","pricing_plan_id":"cebpf4jnsgd1na2vs0mg"},{"bike_id":"b7234136-bf62-4ef1-9964-a9c43529d354","system_id":"levelo_inurba_marseille","lat":43.318128,"lon":5.394275,"is_reserved":false,"is_disabled":false,"rental_uris":{"android":"levelo://app?vid=b7234136-bf62-4ef1-9964-a9c43529d354","ios":"levelo://app?vid=b7234136-bf62-4ef1-9964-a9c43529d354"},"vehicle_type_id":"4","last_reported":1753805604,"current_range_meters":14800,"station_id":"","pricing_plan_id":"cebpf4jnsgd1na2vs0mg"},{"bike_id":"ccbbb6b2-c2e6-4c4f-81c0-46ab59d6e432","system_id":"levelo_inurba_marseille","lat":43.26059,"lon":5.394,"is_reserved":false,"is_disabled":false,"rental_uris":{"android":"levelo://app?vid=ccbbb6b2-c2e6-4c4f-81c0-46ab59d6e432","ios":"levelo://app?vid=ccbbb6b2-c2e6-4c4f-81c0-46ab59d6e432"},"vehicle_type_id":"4","last_reported":1753805604,"current_range_meters":14800,"station_id":"ce4bhh92rcd13ifvqfj0","pricing_plan_id":"cebpf4jnsgd1na2vs0mg"},{"bike_id":"f8dc5321-8955-4a32-a70e-fa1dc7d0e8d6","system_id":"levelo_inurba_marseille","lat":43.28417,"lon":5.34974,"is_reserved":false,"is_disabled":false,"rental_uris":{"android":"levelo://app?vid=f8dc5321-8955-4a32-a70e-fa1dc7d0e8d6","ios":"levelo://app?vid=f8dc5321-8955-4a32-a70e-fa1dc7d0e8d6"},"vehicle_type_id":"4","last_reported":1753805604,"current_range_meters":14800,"station_id":"ce4bhbh2rcd13ifvqepg","pricing_plan_id":"cebpf4jnsgd1na2vs0mg"},{"bike_id":"9dcdbb96-73de-4515-900e-154f25c3586a","system_id":"levelo_inurba_marseille","lat":43.30419,"lon":5.38888,"is_reserved":false,"is_disabled":false,"rental_uris":{"android":"levelo://app?vid=9dcdbb96-73de-4515-900e-154f25c3586a","ios":"levelo://app?vid=9dcdbb96-73de-4515-900e-154f25c3586a"},"vehicle_type_id":"4","last_reported":1753805604,"current_range_meters":14800,"station_id":"ce4bgk12rcd13ifvqbi0","pricing_plan_id":"cebpf4jnsgd1na2vs0mg"},{"bike_id":"dfcd09aa-5e24-44b2-8bba-e3bd0f34e060","system_id":"levelo_inurba_marseille","lat":43.259604,"lon":5.393941,"is_reserved":false,"is_disabled":false,"rental_uris":{"android":"levelo://app?vid=dfcd09aa-5e24-44b2-8bba-e3bd0f34e060","ios":"levelo://app?vid=dfcd09aa-5e24-44b2-8bba-e3bd0f34e060"},"vehicle_type_id":"4","last_reported":1753805604,"current_range_meters":15200,"station_id":"ce4bhip2rcd13ifvqft0","pricing_plan_id":"cebpf4jnsgd1na2vs0mg"},{"bike_id":"e8a0c05d-7272-4138-a1f4-e9de17058e9b","system_id":"levelo_inurba_marseille","lat":43.28288,"lon":5.3505,"is_reserved":false,"is_disabled":true,"rental_uris":{"android":"levelo://app?vid=e8a0c05d-7272-4138-a1f4-e9de17058e9b","ios":"levelo://app?vid=e8a0c05d-7272-4138-a1f4-e9de17058e9b"},"vehicle_type_id":"4","last_reported":1753805604,"current_range_meters":15200,"station_id":"ce4bhbp2rcd13ifvqerg","pricing_plan_id":"cebpf4jnsgd1na2vs0mg"},{"bike_id":"b84ab913-a1f6-47c4-a923-4d4524fa7975","system_id":"levelo_inurba_marseille","lat":43.29194,"lon":5.358,"is_reserved":false,"is_disabled":false,"rental_uris":{"android":"levelo://app?vid=b84ab913-a1f6-47c4-a923-4d4524fa7975","ios":"levelo://app?vid=b84ab913-a1f6-47c4-a923-4d4524fa7975"},"vehicle_type_id":"4","last_reported":1753805604,"current_range_meters":15200,"station_id":"ce4bhb12rcd13ifvqel0","pricing_plan_id":"cebpf4jnsgd1na2vs0mg"},{"bike_id":"90074ab7-586d-4f5f-aade-62a0eee7173d","system_id":"levelo_inurba_marseille","lat":43.28695,"lon":5.39978,"is_reserved":false,"is_disabled":false,"rental_uris":{"android":"levelo://app?vid=90074ab7-586d-4f5f-aade-62a0eee7173d","ios":"levelo://app?vid=90074ab7-586d-4f5f-aade-62a0eee7173d"},"vehicle_type_id":"4","last_reported":1753805604,"current_range_meters":15200,"station_id":"ce4bho92rcd13ifvqh3g","pricing_plan_id":"cebpf4jnsgd1na2vs0mg"},{"bike_id":"6ad44a24-4533-4da0-9fd0-e52d1925d207","system_id":"levelo_inurba_marseille","lat":43.229254,"lon":5.353827,"is_reserved":false,"is_disabled":false,"rental_uris":{"android":"levelo://app?vid=6ad44a24-4533-4da0-9fd0-e52d1925d207","ios":"levelo://app?vid=6ad44a24-4533-4da0-9fd0-e52d1925d207"},"vehicle_type_id":"4","last_reported":1753805604,"current_range_meters":16000,"station_id":"cpo3532slgdg3j2ikp40","pricing_plan_id":"cebpf4jnsgd1na2vs0mg"},{"bike_id":"ab9c577b-9cc3-4d9b-9e71-2ee231744295","system_id":"levelo_inurba_marseille","lat":43.28107,"lon":5.38321,"is_reserved":false,"is_disabled":false,"rental_uris":{"android":"levelo://app?vid=ab9c577b-9cc3-4d9b-9e71-2ee231744295","ios":"levelo://app?vid=ab9c577b-9cc3-4d9b-9e71-2ee231744295"},"vehicle_type_id":"4","last_reported":1753805604,"current_range_meters":16000,"station_id":"","pricing_plan_id":"cebpf4jnsgd1na2vs0mg"},{"bike_id":"5942f817-0469-4d2a-8b7e-4446defa170c","system_id":"levelo_inurba_marseille","lat":43.25717,"lon":5.41115,"is_reserved":false,"is_disabled":false,"rental_uris":{"android":"levelo://app?vid=5942f817-0469-4d2a-8b7e-4446defa170c","ios":"levelo://app?vid=5942f817-0469-4d2a-8b7e-4446defa170c"},"vehicle_type_id":"4","last_reported":1753805604,"current_range_meters":16000,"station_id":"ce4bhkp2rcd13ifvqgd0","pricing_plan_id":"cebpf4jnsgd1na2vs0mg"},{"bike_id":"96f2817b-2168-4f43-87e5-f90384c5b505","system_id":"levelo_inurba_marseille","lat":43.23191,"lon":5.35552,"is_reserved":false,"is_disabled":false,"rental_uris":{"android":"levelo://app?vid=96f2817b-2168-4f43-87e5-f90384c5b505","ios":"levelo://app?vid=96f2817b-2168-4f43-87e5-f90384c5b505"},"vehicle_type_id":"4","last_reported":1753805604,"current_range_meters":16000,"station_id":"ce4bhu92rcd13ifvqi70","pricing_plan_id":"cebpf4jnsgd1na2vs0mg"},{"bike_id":"58d60ef7-501e-48a0-a97f-c0e09ff3aab0","system_id":"levelo_inurba_marseille","lat":43.222792,"lon":5.345958,"is_reserved":false,"is_disabled":false,"rental_uris":{"android":"levelo://app?vid=58d60ef7-501e-48a0-a97f-c0e09ff3aab0","ios":"levelo://app?vid=58d60ef7-501e-48a0-a97f-c0e09ff3aab0"},"vehicle_type_id":"4","last_reported":1753805604,"current_range_meters":16000,"station_id":"ce4bhp92rcd13ifvqhag","pricing_plan_id":"cebpf4jnsgd1na2vs0mg"},{"bike_id":"3e632e67-e785-475b-93e1-b0a668624c02","system_id":"levelo_inurba_marseille","lat":43.2815,"lon":5.42622,"is_reserved":false,"is_disabled":false,"rental_uris":{"android":"levelo://app?vid=3e632e67-e785-475b-93e1-b0a668624c02","ios":"levelo://app?vid=3e632e67-e785-475b-93e1-b0a668624c02"},"vehicle_type_id":"4","last_reported":1753805604,"current_range_meters":16000,"station_id":"ce4bhnh2rcd13ifvqgug","pricing_plan_id":"cebpf4jnsgd1na2vs0mg"},{"bike_id":"ef65f066-de96-432a-a3bf-b1b3ad0e62a1","system_id":"levelo_inurba_marseille","lat":43.32107,"lon":5.36746,"is_reserved":false,"is_disabled":false,"rental_uris":{"android":"levelo://app?vid=ef65f066-de96-432a-a3bf-b1b3ad0e62a1","ios":"levelo://app?vid=ef65f066-de96-432a-a3bf-b1b3ad0e62a1"},"vehicle_type_id":"4","last_reported":1753805604,"current_range_meters":16000,"station_id":"ce4bhrh2rcd13ifvqhug","pricing_plan_id":"cebpf4jnsgd1na2vs0mg"},{"bike_id":"e293ed13-a5f8-47d4-bbe1-9c9b52c0a2e5","system_id":"levelo_inurba_marseille","lat":43.2899,"lon":5.37828,"is_reserved":false,"is_disabled":true,"rental_uris":{"android":"levelo://app?vid=e293ed13-a5f8-47d4-bbe1-9c9b52c0a2e5","ios":"levelo://app?vid=e293ed13-a5f8-47d4-bbe1-9c9b52c0a2e5"},"vehicle_type_id":"4","last_reported":1753805604,"current_range_meters":16000,"station_id":"ce4bh9p2rcd13ifvqed0","pricing_plan_id":"cebpf4jnsgd1na2vs0mg"},{"bike_id":"5f6e13dc-5597-4b4c-ad63-9af510df5b66","system_id":"levelo_inurba_marseille","lat":43.31995,"lon":5.38171,"is_reserved":false,"is_disabled":false,"rental_uris":{"android":"levelo://app?vid=5f6e13dc-5597-4b4c-ad63-9af510df5b66","ios":"levelo://app?vid=5f6e13dc-5597-4b4c-ad63-9af510df5b66"},"vehicle_type_id":"4","last_reported":1753805604,"current_range_meters":16000,"station_id":"ce4bhr12rcd13ifvqhpg","pricing_plan_id":"cebpf4jnsgd1na2vs0mg"},{"bike_id":"1ae5d7eb-1e99-401d-bdff-f20d11a3625e","system_id":"levelo_inurba_marseille","lat":43.303291,"lon":5.40441,"is_reserved":false,"is_disabled":true,"rental_uris":{"android":"levelo://app?vid=1ae5d7eb-1e99-401d-bdff-f20d11a3625e","ios":"levelo://app?vid=1ae5d7eb-1e99-401d-bdff-f20d11a3625e"},"vehicle_type_id":"4","last_reported":1753805604,"current_range_meters":16000,"station_id":"","pricing_plan_id":"cebpf4jnsgd1na2vs0mg"},{"bike_id":"9381f2fb-081b-47c8-9994-18b7b997b470","system_id":"levelo_inurba_marseille","lat":43.32055,"lon":5.40949,"is_reserved":false,"is_disabled":false,"rental_uris":{"android":"levelo://app?vid=9381f2fb-081b-47c8-9994-18b7b997b470","ios":"levelo://app?vid=9381f2fb-081b-47c8-9994-18b7b997b470"},"vehicle_type_id":"4","last_reported":1753805604,"current_range_meters":16000,"station_id":"","pricing_plan_id":"cebpf4jnsgd1na2vs0mg"},{"bike_id":"bcd4db20-7cfd-4c69-92d5-9b1c35a388f7","system_id":"levelo_inurba_marseille","lat":43.23079,"lon":5.35484,"is_reserved":false,"is_disabled":false,"rental_uris":{"android":"levelo://app?vid=bcd4db20-7cfd-4c69-92d5-9b1c35a388f7","ios":"levelo://app?vid=bcd4db20-7cfd-4c69-92d5-9b1c35a388f7"},"vehicle_type_id":"4","last_reported":1753805604,"current_range_meters":16400,"station_id":"cpo3342slgdg3j2ifvpg","pricing_plan_id":"cebpf4jnsgd1na2vs0mg"},{"bike_id":"d9ac9517-2073-4e1f-bab2-fec9cdb65203","system_id":"levelo_inurba_marseille","lat":43.30289,"lon":5.36887,"is_reserved":false,"is_disabled":false,"rental_uris":{"android":"levelo://app?vid=d9ac9517-2073-4e1f-bab2-fec9cdb65203","ios":"levelo://app?vid=d9ac9517-2073-4e1f-bab2-fec9cdb65203"},"vehicle_type_id":"4","last_reported":1753805604,"current_range_meters":16400,"station_id":"ce4bgqh2rcd13ifvqc5g","pricing_plan_id":"cebpf4jnsgd1na2vs0mg"},{"bike_id":"5cc5e290-c9e6-44c9-bee3-ec494abe9db7","system_id":"levelo_inurba_marseille","lat":43.30442,"lon":5.38892,"is_reserved":false,"is_disabled":false,"rental_uris":{"android":"levelo://app?vid=5cc5e290-c9e6-44c9-bee3-ec494abe9db7","ios":"levelo://app?vid=5cc5e290-c9e6-44c9-bee3-ec494abe9db7"},"vehicle_type_id":"4","last_reported":1753805604,"current_range_meters":16400,"station_id":"ce4bgk12rcd13ifvqbi0","pricing_plan_id":"cebpf4jnsgd1na2vs0mg"},{"bike_id":"a16d408b-87b7-4ea5-b6d0-ce9b4fba403c","system_id":"levelo_inurba_marseille","lat":43.28619,"lon":5.37062,"is_reserved":false,"is_disabled":false,"rental_uris":{"android":"levelo://app?vid=a16d408b-87b7-4ea5-b6d0-ce9b4fba403c","ios":"levelo://app?vid=a16d408b-87b7-4ea5-b6d0-ce9b4fba403c"},"vehicle_type_id":"4","last_reported":1753805604,"current_range_meters":16400,"station_id":"ce4bht12rcd13ifvqi60","pricing_plan_id":"cebpf4jnsgd1na2vs0mg"},{"bike_id":"863b2e2b-1f2d-4c94-b7fc-5e3cf1d176ec","system_id":"levelo_inurba_marseille","lat":43.32122,"lon":5.36789,"is_reserved":false,"is_disabled":false,"rental_uris":{"android":"levelo://app?vid=863b2e2b-1f2d-4c94-b7fc-5e3cf1d176ec","ios":"levelo://app?vid=863b2e2b-1f2d-4c94-b7fc-5e3cf1d176ec"},"vehicle_type_id":"4","last_reported":1753805604,"current_range_meters":16400,"station_id":"ce4bhrh2rcd13ifvqhug","pricing_plan_id":"cebpf4jnsgd1na2vs0mg"},{"bike_id":"3c65e3a4-d98b-4db2-8d36-951b9612ba65","system_id":"levelo_inurba_marseille","lat":43.23185,"lon":5.35556,"is_reserved":false,"is_disabled":false,"rental_uris":{"android":"levelo://app?vid=3c65e3a4-d98b-4db2-8d36-951b9612ba65","ios":"levelo://app?vid=3c65e3a4-d98b-4db2-8d36-951b9612ba65"},"vehicle_type_id":"4","last_reported":1753805604,"current_range_meters":16400,"station_id":"ce4bhu92rcd13ifvqi70","pricing_plan_id":"cebpf4jnsgd1na2vs0mg"},{"bike_id":"45141418-1de7-4321-a5ac-3e73e63f79d2","system_id":"levelo_inurba_marseille","lat":43.28436,"lon":5.3498,"is_reserved":false,"is_disabled":false,"rental_uris":{"android":"levelo://app?vid=45141418-1de7-4321-a5ac-3e73e63f79d2","ios":"levelo://app?vid=45141418-1de7-4321-a5ac-3e73e63f79d2"},"vehicle_type_id":"4","last_reported":1753805604,"current_range_meters":16400,"station_id":"ce4bhbh2rcd13ifvqepg","pricing_plan_id":"cebpf4jnsgd1na2vs0mg"},{"bike_id":"006989d0-e964-4aa4-ad1e-5b81a65c337e","system_id":"levelo_inurba_marseille","lat":43.30834,"lon":5.38179,"is_reserved":false,"is_disabled":true,"rental_uris":{"android":"levelo://app?vid=006989d0-e964-4aa4-ad1e-5b81a65c337e","ios":"levelo://app?vid=006989d0-e964-4aa4-ad1e-5b81a65c337e"},"vehicle_type_id":"4","last_reported":1753805604,"current_range_meters":16400,"station_id":"ce4bgt12rcd13ifvqce0","pricing_plan_id":"cebpf4jnsgd1na2vs0mg"},{"bike_id":"00de3457-bb26-4f86-be97-d29604933a4d","system_id":"levelo_inurba_marseille","lat":43.28626,"lon":5.37187,"is_reserved":false,"is_disabled":false,"rental_uris":{"android":"levelo://app?vid=00de3457-bb26-4f86-be97-d29604933a4d","ios":"levelo://app?vid=00de3457-bb26-4f86-be97-d29604933a4d"},"vehicle_type_id":"4","last_reported":1753805604,"current_range_meters":16400,"station_id":"","pricing_plan_id":"cebpf4jnsgd1na2vs0mg"},{"bike_id":"d77a0db6-09c1-4add-9e54-6f6a5c0286b6","system_id":"levelo_inurba_marseille","lat":43.297218,"lon":5.38003,"is_reserved":false,"is_disabled":false,"rental_uris":{"android":"levelo://app?vid=d77a0db6-09c1-4add-9e54-6f6a5c0286b6","ios":"levelo://app?vid=d77a0db6-09c1-4add-9e54-6f6a5c0286b6"},"vehicle_type_id":"4","last_reported":1753805604,"current_range_meters":16400,"station_id":"ce4bh692rcd13ifvqea0","pricing_plan_id":"cebpf4jnsgd1na2vs0mg"},{"bike_id":"a7f66293-97bc-4b23-8aaf-9eda13062b9b","system_id":"levelo_inurba_marseille","lat":43.28732,"lon":5.35218,"is_reserved":false,"is_disabled":false,"rental_uris":{"android":"levelo://app?vid=a7f66293-97bc-4b23-8aaf-9eda13062b9b","ios":"levelo://app?vid=a7f66293-97bc-4b23-8aaf-9eda13062b9b"},"vehicle_type_id":"4","last_reported":1753805604,"current_range_meters":16800,"station_id":"","pricing_plan_id":"cebpf4jnsgd1na2vs0mg"},{"bike_id":"22a76ee8-f553-454b-8e2c-89c9a43fef04","system_id":"levelo_inurba_marseille","lat":43.25826,"lon":5.39425,"is_reserved":false,"is_disabled":false,"rental_uris":{"android":"levelo://app?vid=22a76ee8-f553-454b-8e2c-89c9a43fef04","ios":"levelo://app?vid=22a76ee8-f553-454b-8e2c-89c9a43fef04"},"vehicle_type_id":"4","last_reported":1753805604,"current_range_meters":16800,"station_id":"ce4bhip2rcd13ifvqft0","pricing_plan_id":"cebpf4jnsgd1na2vs0mg"},{"bike_id":"ca3a1d26-0243-44f1-b552-45f8182cdf30","system_id":"levelo_inurba_marseille","lat":43.23181,"lon":5.39988,"is_reserved":false,"is_disabled":false,"rental_uris":{"android":"levelo://app?vid=ca3a1d26-0243-44f1-b552-45f8182cdf30","ios":"levelo://app?vid=ca3a1d26-0243-44f1-b552-45f8182cdf30"},"vehicle_type_id":"4","last_reported":1753805604,"current_range_meters":16800,"station_id":"ce4bhn12rcd13ifvqgqg","pricing_plan_id":"cebpf4jnsgd1na2vs0mg"},{"bike_id":"e835e740-02a8-4b55-b83d-8f7e332e158e","system_id":"levelo_inurba_marseille","lat":43.23063,"lon":5.354722,"is_reserved":false,"is_disabled":false,"rental_uris":{"android":"levelo://app?vid=e835e740-02a8-4b55-b83d-8f7e332e158e","ios":"levelo://app?vid=e835e740-02a8-4b55-b83d-8f7e332e158e"},"vehicle_type_id":"4","last_reported":1753805604,"current_range_meters":16800,"station_id":"cpo3342slgdg3j2ifvpg","pricing_plan_id":"cebpf4jnsgd1na2vs0mg"},{"bike_id":"daabd21d-fe72-4bef-9caa-c5886e1b6fe4","system_id":"levelo_inurba_marseille","lat":43.320086,"lon":5.374306,"is_reserved":false,"is_disabled":false,"rental_uris":{"android":"levelo://app?vid=daabd21d-fe72-4bef-9caa-c5886e1b6fe4","ios":"levelo://app?vid=daabd21d-fe72-4bef-9caa-c5886e1b6fe4"},"vehicle_type_id":"4","last_reported":1753805604,"current_range_meters":16800,"station_id":"","pricing_plan_id":"cebpf4jnsgd1na2vs0mg"},{"bike_id":"5f170678-5a9b-4d0d-a1e5-13c55ac5f226","system_id":"levelo_inurba_marseille","lat":43.27498,"lon":5.42451,"is_reserved":false,"is_disabled":false,"rental_uris":{"android":"levelo://app?vid=5f170678-5a9b-4d0d-a1e5-13c55ac5f226","ios":"levelo://app?vid=5f170678-5a9b-4d0d-a1e5-13c55ac5f226"},"vehicle_type_id":"4","last_reported":1753805604,"current_range_meters":16800,"station_id":"ce4bhn92rcd13ifvqgrg","pricing_plan_id":"cebpf4jnsgd1na2vs0mg"},{"bike_id":"2b56dd2f-1315-46c9-84d9-d3b5d9d70db1","system_id":"levelo_inurba_marseille","lat":43.29261,"lon":5.3844,"is_reserved":false,"is_disabled":false,"rental_uris":{"android":"levelo://app?vid=2b56dd2f-1315-46c9-84d9-d3b5d9d70db1","ios":"levelo://app?vid=2b56dd2f-1315-46c9-84d9-d3b5d9d70db1"},"vehicle_type_id":"4","last_reported":1753805604,"current_range_meters":16800,"station_id":"ce4bh692rcd13ifvqea0","pricing_plan_id":"cebpf4jnsgd1na2vs0mg"},{"bike_id":"274d3467-3e1a-442d-b2f8-23988056a816","system_id":"levelo_inurba_marseille","lat":43.28404,"lon":5.37521,"is_reserved":false,"is_disabled":false,"rental_uris":{"android":"levelo://app?vid=274d3467-3e1a-442d-b2f8-23988056a816","ios":"levelo://app?vid=274d3467-3e1a-442d-b2f8-23988056a816"},"vehicle_type_id":"4","last_reported":1753805604,"current_range_meters":17200,"station_id":"ce4bh412rcd13ifvqds0","pricing_plan_id":"cebpf4jnsgd1na2vs0mg"},{"bike_id":"135ab1ea-fc9a-4785-9240-6bfa3adf7c7c","system_id":"levelo_inurba_marseille","lat":43.32376,"lon":5.36769,"is_reserved":false,"is_disabled":false,"rental_uris":{"android":"levelo://app?vid=135ab1ea-fc9a-4785-9240-6bfa3adf7c7c","ios":"levelo://app?vid=135ab1ea-fc9a-4785-9240-6bfa3adf7c7c"},"vehicle_type_id":"4","last_reported":1753805604,"current_range_meters":17200,"station_id":"ce4bhsh2rcd13ifvqi2g","pricing_plan_id":"cebpf4jnsgd1na2vs0mg"},{"bike_id":"6e1e5cfe-6b8f-40e3-bf8b-fc136d2c1024","system_id":"levelo_inurba_marseille","lat":43.2953,"lon":5.38544,"is_reserved":false,"is_disabled":false,"rental_uris":{"android":"levelo://app?vid=6e1e5cfe-6b8f-40e3-bf8b-fc136d2c1024","ios":"levelo://app?vid=6e1e5cfe-6b8f-40e3-bf8b-fc136d2c1024"},"vehicle_type_id":"4","last_reported":1753805604,"current_range_meters":17200,"station_id":"ce4bgih2rcd13ifvqba0","pricing_plan_id":"cebpf4jnsgd1na2vs0mg"},{"bike_id":"aec98c78-778c-4128-825e-8796208a0ea8","system_id":"levelo_inurba_marseille","lat":43.289426,"lon":5.366451,"is_reserved":false,"is_disabled":false,"rental_uris":{"android":"levelo://app?vid=aec98c78-778c-4128-825e-8796208a0ea8","ios":"levelo://app?vid=aec98c78-778c-4128-825e-8796208a0ea8"},"vehicle_type_id":"4","last_reported":1753805604,"current_range_meters":17200,"station_id":"ce4bhap2rcd13ifvqek0","pricing_plan_id":"cebpf4jnsgd1na2vs0mg"},{"bike_id":"d2a74895-e846-45f5-a706-f79dccbdde17","system_id":"levelo_inurba_marseille","lat":43.2863,"lon":5.35098,"is_reserved":false,"is_disabled":false,"rental_uris":{"android":"levelo://app?vid=d2a74895-e846-45f5-a706-f79dccbdde17","ios":"levelo://app?vid=d2a74895-e846-45f5-a706-f79dccbdde17"},"vehicle_type_id":"4","last_reported":1753805604,"current_range_meters":17200,"station_id":"ce4bhch2rcd13ifvqeug","pricing_plan_id":"cebpf4jnsgd1na2vs0mg"},{"bike_id":"6a8221ad-83c9-40bd-8997-bb175766af1b","system_id":"levelo_inurba_marseille","lat":43.28418,"lon":5.34977,"is_reserved":false,"is_disabled":false,"rental_uris":{"android":"levelo://app?vid=6a8221ad-83c9-40bd-8997-bb175766af1b","ios":"levelo://app?vid=6a8221ad-83c9-40bd-8997-bb175766af1b"},"vehicle_type_id":"4","last_reported":1753805604,"current_range_meters":17200,"station_id":"ce4bhbh2rcd13ifvqepg","pricing_plan_id":"cebpf4jnsgd1na2vs0mg"},{"bike_id":"54727b2f-ead4-414d-86bf-c04f16bf7a4b","system_id":"levelo_inurba_marseille","lat":43.30789,"lon":5.37639,"is_reserved":false,"is_disabled":false,"rental_uris":{"android":"levelo://app?vid=54727b2f-ead4-414d-86bf-c04f16bf7a4b","ios":"levelo://app?vid=54727b2f-ead4-414d-86bf-c04f16bf7a4b"},"vehicle_type_id":"4","last_reported":1753805604,"current_range_meters":17200,"station_id":"ce4bgv92rcd13ifvqcq0","pricing_plan_id":"cebpf4jnsgd1na2vs0mg"},{"bike_id":"24ddc855-9db1-447b-8cc7-fb33f85a47fb","system_id":"levelo_inurba_marseille","lat":43.30595,"lon":5.37213,"is_reserved":false,"is_disabled":false,"rental_uris":{"android":"levelo://app?vid=24ddc855-9db1-447b-8cc7-fb33f85a47fb","ios":"levelo://app?vid=24ddc855-9db1-447b-8cc7-fb33f85a47fb"},"vehicle_type_id":"4","last_reported":1753805604,"current_range_meters":17200,"station_id":"ce4bgqh2rcd13ifvqc4g","pricing_plan_id":"cebpf4jnsgd1na2vs0mg"},{"bike_id":"a0c385a4-8263-4c8e-819e-d34ee04a5c28","system_id":"levelo_inurba_marseille","lat":43.225112,"lon":5.347833,"is_reserved":false,"is_disabled":false,"rental_uris":{"android":"levelo://app?vid=a0c385a4-8263-4c8e-819e-d34ee04a5c28","ios":"levelo://app?vid=a0c385a4-8263-4c8e-819e-d34ee04a5c28"},"vehicle_type_id":"4","last_reported":1753805604,"current_range_meters":17200,"station_id":"","pricing_plan_id":"cebpf4jnsgd1na2vs0mg"},{"bike_id":"a6a46ae2-d764-44ee-baf2-a76e49bd9084","system_id":"levelo_inurba_marseille","lat":43.26981,"lon":5.40281,"is_reserved":false,"is_disabled":false,"rental_uris":{"android":"levelo://app?vid=a6a46ae2-d764-44ee-baf2-a76e49bd9084","ios":"levelo://app?vid=a6a46ae2-d764-44ee-baf2-a76e49bd9084"},"vehicle_type_id":"4","last_reported":1753805604,"current_range_meters":17200,"station_id":"cjm6bp8fraef2m0cb0m0","pricing_plan_id":"cebpf4jnsgd1na2vs0mg"},{"bike_id":"c686771c-e4d6-4ee5-934b-f3ca190b833e","system_id":"levelo_inurba_marseille","lat":43.32765,"lon":5.39204,"is_reserved":false,"is_disabled":false,"rental_uris":{"android":"levelo://app?vid=c686771c-e4d6-4ee5-934b-f3ca190b833e","ios":"levelo://app?vid=c686771c-e4d6-4ee5-934b-f3ca190b833e"},"vehicle_type_id":"4","last_reported":1753805604,"current_range_meters":17200,"station_id":"","pricing_plan_id":"cebpf4jnsgd1na2vs0mg"},{"bike_id":"387c87e1-c5b1-48c0-9404-1355c544d5a6","system_id":"levelo_inurba_marseille","lat":43.28618,"lon":5.35084,"is_reserved":false,"is_disabled":false,"rental_uris":{"android":"levelo://app?vid=387c87e1-c5b1-48c0-9404-1355c544d5a6","ios":"levelo://app?vid=387c87e1-c5b1-48c0-9404-1355c544d5a6"},"vehicle_type_id":"4","last_reported":1753805604,"current_range_meters":17600,"station_id":"ce4bhch2rcd13ifvqeug","pricing_plan_id":"cebpf4jnsgd1na2vs0mg"},{"bike_id":"23cb5642-15b1-4dff-8751-77349dab4204","system_id":"levelo_inurba_marseille","lat":43.22935,"lon":5.35379,"is_reserved":false,"is_disabled":false,"rental_uris":{"android":"levelo://app?vid=23cb5642-15b1-4dff-8751-77349dab4204","ios":"levelo://app?vid=23cb5642-15b1-4dff-8751-77349dab4204"},"vehicle_type_id":"4","last_reported":1753805604,"current_range_meters":17600,"station_id":"cpo3532slgdg3j2ikp40","pricing_plan_id":"cebpf4jnsgd1na2vs0mg"},{"bike_id":"b48f5dd0-6dba-4454-bab2-8fe0e77c0439","system_id":"levelo_inurba_marseille","lat":43.24164,"lon":5.36394,"is_reserved":false,"is_disabled":false,"rental_uris":{"android":"levelo://app?vid=b48f5dd0-6dba-4454-bab2-8fe0e77c0439","ios":"levelo://app?vid=b48f5dd0-6dba-4454-bab2-8fe0e77c0439"},"vehicle_type_id":"4","last_reported":1753805604,"current_range_meters":17600,"station_id":"cpo36qri1sfpv3e86is0","pricing_plan_id":"cebpf4jnsgd1na2vs0mg"},{"bike_id":"64c0f7db-806d-4f64-9223-4dc39c52a1ee","system_id":"levelo_inurba_marseille","lat":43.29615,"lon":5.37575,"is_reserved":false,"is_disabled":false,"rental_uris":{"android":"levelo://app?vid=64c0f7db-806d-4f64-9223-4dc39c52a1ee","ios":"levelo://app?vid=64c0f7db-806d-4f64-9223-4dc39c52a1ee"},"vehicle_type_id":"4","last_reported":1753805604,"current_range_meters":17600,"station_id":"","pricing_plan_id":"cebpf4jnsgd1na2vs0mg"},{"bike_id":"ae6c8428-e39e-40be-9df7-f418521aa777","system_id":"levelo_inurba_marseille","lat":43.22927,"lon":5.35378,"is_reserved":false,"is_disabled":false,"rental_uris":{"android":"levelo://app?vid=ae6c8428-e39e-40be-9df7-f418521aa777","ios":"levelo://app?vid=ae6c8428-e39e-40be-9df7-f418521aa777"},"vehicle_type_id":"4","last_reported":1753805604,"current_range_meters":17600,"station_id":"cpo3532slgdg3j2ikp40","pricing_plan_id":"cebpf4jnsgd1na2vs0mg"},{"bike_id":"4e8807a5-ee27-433d-8a4f-3121222ed8e2","system_id":"levelo_inurba_marseille","lat":43.29769,"lon":5.37104,"is_reserved":false,"is_disabled":false,"rental_uris":{"android":"levelo://app?vid=4e8807a5-ee27-433d-8a4f-3121222ed8e2","ios":"levelo://app?vid=4e8807a5-ee27-433d-8a4f-3121222ed8e2"},"vehicle_type_id":"4","last_reported":1753805604,"current_range_meters":17600,"station_id":"ce4bgop2rcd13ifvqc1g","pricing_plan_id":"cebpf4jnsgd1na2vs0mg"},{"bike_id":"98d83178-7faf-4c66-b9e2-3a5b2b3d14e3","system_id":"levelo_inurba_marseille","lat":43.23972,"lon":5.3663,"is_reserved":false,"is_disabled":false,"rental_uris":{"android":"levelo://app?vid=98d83178-7faf-4c66-b9e2-3a5b2b3d14e3","ios":"levelo://app?vid=98d83178-7faf-4c66-b9e2-3a5b2b3d14e3"},"vehicle_type_id":"4","last_reported":1753805604,"current_range_meters":17600,"station_id":"ce4bhi12rcd13ifvqfp0","pricing_plan_id":"cebpf4jnsgd1na2vs0mg"},{"bike_id":"a7305548-e2f5-4b08-a034-b68d2d653561","system_id":"levelo_inurba_marseille","lat":43.28425,"lon":5.3498,"is_reserved":false,"is_disabled":false,"rental_uris":{"android":"levelo://app?vid=a7305548-e2f5-4b08-a034-b68d2d653561","ios":"levelo://app?vid=a7305548-e2f5-4b08-a034-b68d2d653561"},"vehicle_type_id":"4","last_reported":1753805604,"current_range_meters":17600,"station_id":"ce4bhbh2rcd13ifvqepg","pricing_plan_id":"cebpf4jnsgd1na2vs0mg"},{"bike_id":"bab6ce7f-e82f-4860-8bae-5bc2c22dc3fc","system_id":"levelo_inurba_marseille","lat":43.25505,"lon":5.37651,"is_reserved":false,"is_disabled":false,"rental_uris":{"android":"levelo://app?vid=bab6ce7f-e82f-4860-8bae-5bc2c22dc3fc","ios":"levelo://app?vid=bab6ce7f-e82f-4860-8bae-5bc2c22dc3fc"},"vehicle_type_id":"4","last_reported":1753805604,"current_range_meters":17600,"station_id":"ce4bhh12rcd13ifvqff0","pricing_plan_id":"cebpf4jnsgd1na2vs0mg"},{"bike_id":"5aae0171-8e81-41e3-9059-0b6db07bd8e8","system_id":"levelo_inurba_marseille","lat":43.284342,"lon":5.349842,"is_reserved":false,"is_disabled":false,"rental_uris":{"android":"levelo://app?vid=5aae0171-8e81-41e3-9059-0b6db07bd8e8","ios":"levelo://app?vid=5aae0171-8e81-41e3-9059-0b6db07bd8e8"},"vehicle_type_id":"4","last_reported":1753805604,"current_range_meters":17600,"station_id":"ce4bhbh2rcd13ifvqepg","pricing_plan_id":"cebpf4jnsgd1na2vs0mg"},{"bike_id":"740410b0-a0cf-4072-92b4-cb60b455c65b","system_id":"levelo_inurba_marseille","lat":43.24083,"lon":5.37739,"is_reserved":false,"is_disabled":false,"rental_uris":{"android":"levelo://app?vid=740410b0-a0cf-4072-92b4-cb60b455c65b","ios":"levelo://app?vid=740410b0-a0cf-4072-92b4-cb60b455c65b"},"vehicle_type_id":"4","last_reported":1753805604,"current_range_meters":17600,"station_id":"ce4bhnp2rcd13ifvqgvg","pricing_plan_id":"cebpf4jnsgd1na2vs0mg"},{"bike_id":"3d60e95a-8706-4e13-b31f-ac7a913f607a","system_id":"levelo_inurba_marseille","lat":43.22936,"lon":5.35378,"is_reserved":false,"is_disabled":false,"rental_uris":{"android":"levelo://app?vid=3d60e95a-8706-4e13-b31f-ac7a913f607a","ios":"levelo://app?vid=3d60e95a-8706-4e13-b31f-ac7a913f607a"},"vehicle_type_id":"4","last_reported":1753805604,"current_range_meters":18000,"station_id":"cpo3532slgdg3j2ikp40","pricing_plan_id":"cebpf4jnsgd1na2vs0mg"},{"bike_id":"e64a8a0e-a8cd-4107-9a94-3ac44d65f200","system_id":"levelo_inurba_marseille","lat":43.285838,"lon":5.375737,"is_reserved":false,"is_disabled":false,"rental_uris":{"android":"levelo://app?vid=e64a8a0e-a8cd-4107-9a94-3ac44d65f200","ios":"levelo://app?vid=e64a8a0e-a8cd-4107-9a94-3ac44d65f200"},"vehicle_type_id":"4","last_reported":1753805604,"current_range_meters":18000,"station_id":"","pricing_plan_id":"cebpf4jnsgd1na2vs0mg"},{"bike_id":"3b0fc468-0f53-43b2-bdc9-2accbf6297e5","system_id":"levelo_inurba_marseille","lat":43.29627,"lon":5.37934,"is_reserved":false,"is_disabled":false,"rental_uris":{"android":"levelo://app?vid=3b0fc468-0f53-43b2-bdc9-2accbf6297e5","ios":"levelo://app?vid=3b0fc468-0f53-43b2-bdc9-2accbf6297e5"},"vehicle_type_id":"4","last_reported":1753805604,"current_range_meters":18000,"station_id":"","pricing_plan_id":"cebpf4jnsgd1na2vs0mg"},{"bike_id":"886bb3e8-befe-4194-bad0-5ad77f5653c8","system_id":"levelo_inurba_marseille","lat":43.24393,"lon":5.37066,"is_reserved":false,"is_disabled":true,"rental_uris":{"android":"levelo://app?vid=886bb3e8-befe-4194-bad0-5ad77f5653c8","ios":"levelo://app?vid=886bb3e8-befe-4194-bad0-5ad77f5653c8"},"vehicle_type_id":"4","last_reported":1753805604,"current_range_meters":18000,"station_id":"ce4bhhh2rcd13ifvqfk0","pricing_plan_id":"cebpf4jnsgd1na2vs0mg"},{"bike_id":"2fad1b6f-d0b7-4211-9b9d-661d7c090096","system_id":"levelo_inurba_marseille","lat":43.298134,"lon":5.433324,"is_reserved":false,"is_disabled":false,"rental_uris":{"android":"levelo://app?vid=2fad1b6f-d0b7-4211-9b9d-661d7c090096","ios":"levelo://app?vid=2fad1b6f-d0b7-4211-9b9d-661d7c090096"},"vehicle_type_id":"4","last_reported":1753805604,"current_range_meters":18000,"station_id":"","pricing_plan_id":"cebpf4jnsgd1na2vs0mg"},{"bike_id":"17b23f6f-8523-4ede-9192-841d6e39ec2d","system_id":"levelo_inurba_marseille","lat":43.31256,"lon":5.39522,"is_reserved":false,"is_disabled":false,"rental_uris":{"android":"levelo://app?vid=17b23f6f-8523-4ede-9192-841d6e39ec2d","ios":"levelo://app?vid=17b23f6f-8523-4ede-9192-841d6e39ec2d"},"vehicle_type_id":"4","last_reported":1753805604,"current_range_meters":18000,"station_id":"","pricing_plan_id":"cebpf4jnsgd1na2vs0mg"},{"bike_id":"7a2e82e0-8302-4549-adc9-89b5e6842920","system_id":"levelo_inurba_marseille","lat":43.32362,"lon":5.38887,"is_reserved":false,"is_disabled":false,"rental_uris":{"android":"levelo://app?vid=7a2e82e0-8302-4549-adc9-89b5e6842920","ios":"levelo://app?vid=7a2e82e0-8302-4549-adc9-89b5e6842920"},"vehicle_type_id":"4","last_reported":1753805604,"current_range_meters":18000,"station_id":"ce4bhqp2rcd13ifvqhog","pricing_plan_id":"cebpf4jnsgd1na2vs0mg"},{"bike_id":"900006bc-ae07-4ac4-b1c7-0d981bd2fdff","system_id":"levelo_inurba_marseille","lat":43.26934,"lon":5.38926,"is_reserved":false,"is_disabled":false,"rental_uris":{"android":"levelo://app?vid=900006bc-ae07-4ac4-b1c7-0d981bd2fdff","ios":"levelo://app?vid=900006bc-ae07-4ac4-b1c7-0d981bd2fdff"},"vehicle_type_id":"4","last_reported":1753805604,"current_range_meters":17600,"station_id":"ce4bhhh2rcd13ifvqfl0","pricing_plan_id":"cebpf4jnsgd1na2vs0mg"},{"bike_id":"915513aa-2ef0-4e1b-9aa3-73608a47efab","system_id":"levelo_inurba_marseille","lat":43.22527,"lon":5.34758,"is_reserved":false,"is_disabled":false,"rental_uris":{"android":"levelo://app?vid=915513aa-2ef0-4e1b-9aa3-73608a47efab","ios":"levelo://app?vid=915513aa-2ef0-4e1b-9aa3-73608a47efab"},"vehicle_type_id":"4","last_reported":1753805604,"current_range_meters":18000,"station_id":"st_cvj5dfep6f1abm77gieg","pricing_plan_id":"cebpf4jnsgd1na2vs0mg"},{"bike_id":"7d63cf5a-0da2-4b18-a94a-562fda8ccf0c","system_id":"levelo_inurba_marseille","lat":43.241694,"lon":5.364127,"is_reserved":false,"is_disabled":false,"rental_uris":{"android":"levelo://app?vid=7d63cf5a-0da2-4b18-a94a-562fda8ccf0c","ios":"levelo://app?vid=7d63cf5a-0da2-4b18-a94a-562fda8ccf0c"},"vehicle_type_id":"4","last_reported":1753805604,"current_range_meters":18000,"station_id":"cpo36qri1sfpv3e86is0","pricing_plan_id":"cebpf4jnsgd1na2vs0mg"},{"bike_id":"94b2f2a5-5f14-4f56-891c-f6b92168e3c0","system_id":"levelo_inurba_marseille","lat":43.30952,"lon":5.3903,"is_reserved":false,"is_disabled":false,"rental_uris":{"android":"levelo://app?vid=94b2f2a5-5f14-4f56-891c-f6b92168e3c0","ios":"levelo://app?vid=94b2f2a5-5f14-4f56-891c-f6b92168e3c0"},"vehicle_type_id":"4","last_reported":1753805604,"current_range_meters":17600,"station_id":"ce4bgup2rcd13ifvqco0","pricing_plan_id":"cebpf4jnsgd1na2vs0mg"},{"bike_id":"70857e80-0325-4048-9136-1091b6ccf658","system_id":"levelo_inurba_marseille","lat":43.29039,"lon":5.35933,"is_reserved":false,"is_disabled":false,"rental_uris":{"android":"levelo://app?vid=70857e80-0325-4048-9136-1091b6ccf658","ios":"levelo://app?vid=70857e80-0325-4048-9136-1091b6ccf658"},"vehicle_type_id":"4","last_reported":1753805604,"current_range_meters":18800,"station_id":"ce4bha92rcd13ifvqeg0","pricing_plan_id":"cebpf4jnsgd1na2vs0mg"},{"bike_id":"03cd958e-253a-4f87-a686-6d754b6ce96f","system_id":"levelo_inurba_marseille","lat":43.30314,"lon":5.40437,"is_reserved":false,"is_disabled":false,"rental_uris":{"android":"levelo://app?vid=03cd958e-253a-4f87-a686-6d754b6ce96f","ios":"levelo://app?vid=03cd958e-253a-4f87-a686-6d754b6ce96f"},"vehicle_type_id":"4","last_reported":1753805604,"current_range_meters":18800,"station_id":"ce4bh012rcd13ifvqd10","pricing_plan_id":"cebpf4jnsgd1na2vs0mg"},{"bike_id":"7057191e-62bc-424d-a2f2-091282267a37","system_id":"levelo_inurba_marseille","lat":43.23063,"lon":5.35485,"is_reserved":false,"is_disabled":false,"rental_uris":{"android":"levelo://app?vid=7057191e-62bc-424d-a2f2-091282267a37","ios":"levelo://app?vid=7057191e-62bc-424d-a2f2-091282267a37"},"vehicle_type_id":"4","last_reported":1753805604,"current_range_meters":18800,"station_id":"cpo3342slgdg3j2ifvpg","pricing_plan_id":"cebpf4jnsgd1na2vs0mg"},{"bike_id":"b44d763b-4f92-4731-b76a-85ebcd91acd5","system_id":"levelo_inurba_marseille","lat":43.30183,"lon":5.37084,"is_reserved":false,"is_disabled":false,"rental_uris":{"android":"levelo://app?vid=b44d763b-4f92-4731-b76a-85ebcd91acd5","ios":"levelo://app?vid=b44d763b-4f92-4731-b76a-85ebcd91acd5"},"vehicle_type_id":"4","last_reported":1753805604,"current_range_meters":18800,"station_id":"","pricing_plan_id":"cebpf4jnsgd1na2vs0mg"},{"bike_id":"94701e02-c6f1-443a-81ad-610be4f78b1d","system_id":"levelo_inurba_marseille","lat":43.281117,"lon":5.389226,"is_reserved":false,"is_disabled":false,"rental_uris":{"android":"levelo://app?vid=94701e02-c6f1-443a-81ad-610be4f78b1d","ios":"levelo://app?vid=94701e02-c6f1-443a-81ad-610be4f78b1d"},"vehicle_type_id":"4","last_reported":1753805604,"current_range_meters":18800,"station_id":"","pricing_plan_id":"cebpf4jnsgd1na2vs0mg"},{"bike_id":"d70313ff-3769-4032-bb32-06bcf89649ef","system_id":"levelo_inurba_marseille","lat":43.25581,"lon":5.38231,"is_reserved":false,"is_disabled":false,"rental_uris":{"android":"levelo://app?vid=d70313ff-3769-4032-bb32-06bcf89649ef","ios":"levelo://app?vid=d70313ff-3769-4032-bb32-06bcf89649ef"},"vehicle_type_id":"4","last_reported":1753805604,"current_range_meters":18800,"station_id":"ce4bhih2rcd13ifvqfs0","pricing_plan_id":"cebpf4jnsgd1na2vs0mg"},{"bike_id":"c54882ca-203c-491d-ad79-365faa01d205","system_id":"levelo_inurba_marseille","lat":43.28634,"lon":5.35081,"is_reserved":false,"is_disabled":false,"rental_uris":{"android":"levelo://app?vid=c54882ca-203c-491d-ad79-365faa01d205","ios":"levelo://app?vid=c54882ca-203c-491d-ad79-365faa01d205"},"vehicle_type_id":"4","last_reported":1753805604,"current_range_meters":18800,"station_id":"ce4bhch2rcd13ifvqeug","pricing_plan_id":"cebpf4jnsgd1na2vs0mg"},{"bike_id":"32f943ce-5440-4568-9e52-5afce16721c8","system_id":"levelo_inurba_marseille","lat":43.29609,"lon":5.37734,"is_reserved":false,"is_disabled":false,"rental_uris":{"android":"levelo://app?vid=32f943ce-5440-4568-9e52-5afce16721c8","ios":"levelo://app?vid=32f943ce-5440-4568-9e52-5afce16721c8"},"vehicle_type_id":"4","last_reported":1753805604,"current_range_meters":18800,"station_id":"ce4bgi92rcd13ifvqb90","pricing_plan_id":"cebpf4jnsgd1na2vs0mg"},{"bike_id":"5f0c408d-8382-4198-8ecc-af9eb4b01d19","system_id":"levelo_inurba_marseille","lat":43.28655,"lon":5.38649,"is_reserved":false,"is_disabled":false,"rental_uris":{"android":"levelo://app?vid=5f0c408d-8382-4198-8ecc-af9eb4b01d19","ios":"levelo://app?vid=5f0c408d-8382-4198-8ecc-af9eb4b01d19"},"vehicle_type_id":"4","last_reported":1753805604,"current_range_meters":18800,"station_id":"ce4bh492rcd13ifvqdug","pricing_plan_id":"cebpf4jnsgd1na2vs0mg"},{"bike_id":"5ff7b424-be72-460e-9279-c80ac3b388ac","system_id":"levelo_inurba_marseille","lat":43.2319,"lon":5.39987,"is_reserved":false,"is_disabled":false,"rental_uris":{"android":"levelo://app?vid=5ff7b424-be72-460e-9279-c80ac3b388ac","ios":"levelo://app?vid=5ff7b424-be72-460e-9279-c80ac3b388ac"},"vehicle_type_id":"4","last_reported":1753805604,"current_range_meters":18800,"station_id":"ce4bhn12rcd13ifvqgqg","pricing_plan_id":"cebpf4jnsgd1na2vs0mg"},{"bike_id":"166b0bdb-4f16-425c-a7f2-7ca8133e3d96","system_id":"levelo_inurba_marseille","lat":43.27211,"lon":5.3919,"is_reserved":false,"is_disabled":false,"rental_uris":{"android":"levelo://app?vid=166b0bdb-4f16-425c-a7f2-7ca8133e3d96","ios":"levelo://app?vid=166b0bdb-4f16-425c-a7f2-7ca8133e3d96"},"vehicle_type_id":"4","last_reported":1753805604,"current_range_meters":18800,"station_id":"ce4bhhp2rcd13ifvqfm0","pricing_plan_id":"cebpf4jnsgd1na2vs0mg"},{"bike_id":"4bf24824-712e-4879-9aea-8a3178a74908","system_id":"levelo_inurba_marseille","lat":43.281537,"lon":5.426482,"is_reserved":false,"is_disabled":false,"rental_uris":{"android":"levelo://app?vid=4bf24824-712e-4879-9aea-8a3178a74908","ios":"levelo://app?vid=4bf24824-712e-4879-9aea-8a3178a74908"},"vehicle_type_id":"4","last_reported":1753805604,"current_range_meters":18800,"station_id":"ce4bhnh2rcd13ifvqgug","pricing_plan_id":"cebpf4jnsgd1na2vs0mg"},{"bike_id":"28cae8c1-eb57-4b46-bd4b-a9b0d4d93038","system_id":"levelo_inurba_marseille","lat":43.24652,"lon":5.38897,"is_reserved":false,"is_disabled":false,"rental_uris":{"android":"levelo://app?vid=28cae8c1-eb57-4b46-bd4b-a9b0d4d93038","ios":"levelo://app?vid=28cae8c1-eb57-4b46-bd4b-a9b0d4d93038"},"vehicle_type_id":"4","last_reported":1753805604,"current_range_meters":18800,"station_id":"ce4bhg12rcd13ifvqf60","pricing_plan_id":"cebpf4jnsgd1na2vs0mg"},{"bike_id":"b4d6b6a3-6931-4781-bf55-bf30ede502da","system_id":"levelo_inurba_marseille","lat":43.28424,"lon":5.34976,"is_reserved":false,"is_disabled":false,"rental_uris":{"android":"levelo://app?vid=b4d6b6a3-6931-4781-bf55-bf30ede502da","ios":"levelo://app?vid=b4d6b6a3-6931-4781-bf55-bf30ede502da"},"vehicle_type_id":"4","last_reported":1753805604,"current_range_meters":18800,"station_id":"","pricing_plan_id":"cebpf4jnsgd1na2vs0mg"},{"bike_id":"0e3e2943-bb20-415e-a8dd-106d739b0af4","system_id":"levelo_inurba_marseille","lat":43.28698,"lon":5.37391,"is_reserved":false,"is_disabled":false,"rental_uris":{"android":"levelo://app?vid=0e3e2943-bb20-415e-a8dd-106d739b0af4","ios":"levelo://app?vid=0e3e2943-bb20-415e-a8dd-106d739b0af4"},"vehicle_type_id":"4","last_reported":1753805604,"current_range_meters":19200,"station_id":"ce4bh3p2rcd13ifvqdq0","pricing_plan_id":"cebpf4jnsgd1na2vs0mg"},{"bike_id":"cf5da371-739c-4c08-8c1e-4bab0bca165e","system_id":"levelo_inurba_marseille","lat":43.24821,"lon":5.37449,"is_reserved":false,"is_disabled":false,"rental_uris":{"android":"levelo://app?vid=cf5da371-739c-4c08-8c1e-4bab0bca165e","ios":"levelo://app?vid=cf5da371-739c-4c08-8c1e-4bab0bca165e"},"vehicle_type_id":"4","last_reported":1753805604,"current_range_meters":19200,"station_id":"ce4bhgh2rcd13ifvqfb0","pricing_plan_id":"cebpf4jnsgd1na2vs0mg"},{"bike_id":"3d140119-3299-44cc-abcd-36e3b66be92e","system_id":"levelo_inurba_marseille","lat":43.26067,"lon":5.39396,"is_reserved":false,"is_disabled":false,"rental_uris":{"android":"levelo://app?vid=3d140119-3299-44cc-abcd-36e3b66be92e","ios":"levelo://app?vid=3d140119-3299-44cc-abcd-36e3b66be92e"},