{"last_updated":1745467975,"ttl":60,"version":"2.2","data":{"bikes":[{"bike_id":"f96a0008-b171-45ef-9bb6-60e88eff0378","system_id":"levelo_inurba_marseille","lat":43.28008,"lon":5.40016,"is_reserved":false,"is_disabled":false,"rental_uris":{"android":"levelo://app?vid=f96a0008-b171-45ef-9bb6-60e88eff0378","ios":"levelo://app?vid=f96a0008-b171-45ef-9bb6-60e88eff0378"},"vehicle_type_id":"4","last_reported":1745467975,"current_range_meters":2800,"station_id":"ce4bho92rcd13ifvqh4g","pricing_plan_id":"cebpf4jnsgd1na2vs0mg"},{"bike_id":"53e76e69-542e-498c-be3c-54ee74e28889","system_id":"levelo_inurba_marseille","lat":43.29708,"lon":5.36636,"is_reserved":false,"is_disabled":true,"rental_uris":{"android":"levelo://app?vid=53e76e69-542e-498c-be3c-54ee74e28889","ios":"levelo://app?vid=53e76e69-542e-498c-be3c-54ee74e28889"},"vehicle_type_id":"4","last_reported":1745467975,"current_range_meters":2800,"station_id":"ce4bgn12rcd13ifvqbt0","pricing_plan_id":"cebpf4jnsgd1na2vs0mg"},{"bike_id":"8ce6e918-c045-4ee6-a981-d95d3d378534","system_id":"levelo_inurba_marseille","lat":43.29911,"lon":5.36556,"is_reserved":false,"is_disabled":false,"rental_uris":{"android":"levelo://app?vid=8ce6e918-c045-4ee6-a981-d95d3d378534","ios":"levelo://app?vid=8ce6e918-c045-4ee6-a981-d95d3d378534"},"vehicle_type_id":"4","last_reported":1745467975,"current_range_meters":3200,"station_id":"ce4bgm92rcd13ifvqbr0","pricing_plan_id":"cebpf4jnsgd1na2vs0mg"},{"bike_id":"67682fcc-bcb6-4aa9-944e-6887169df522","system_id":"levelo_inurba_marseille","lat":43.28936,"lon":5.36408,"is_reserved":false,"is_disabled":false,"rental_uris":{"android":"levelo://app?vid=67682fcc-bcb6-4aa9-944e-6887169df522","ios":"levelo://app?vid=67682fcc-bcb6-4aa9-944e-6887169df522"},"vehicle_type_id":"4","last_reported":1745467975,"current_range_meters":3200,"station_id":"ce4bhc92rcd13ifvqetg","pricing_plan_id":"cebpf4jnsgd1na2vs0mg"},{"bike_id":"8d2789be-d356-436f-bee5-111c80e6604e","system_id":"levelo_inurba_marseille","lat":43.24156,"lon":5.3642,"is_reserved":false,"is_disabled":false,"rental_uris":{"android":"levelo://app?vid=8d2789be-d356-436f-bee5-111c80e6604e","ios":"levelo://app?vid=8d2789be-d356-436f-bee5-111c80e6604e"},"vehicle_type_id":"4","last_reported":1745467975,"current_range_meters":3200,"station_id":"cpo36qri1sfpv3e86is0","pricing_plan_id":"cebpf4jnsgd1na2vs0mg"},{"bike_id":"0e956a52-9f1c-4373-9fd9-05b1de4dc5a0","system_id":"levelo_inurba_marseille","lat":43.308815,"lon":5.39649,"is_reserved":false,"is_disabled":true,"rental_uris":{"android":"levelo://app?vid=0e956a52-9f1c-4373-9fd9-05b1de4dc5a0","ios":"levelo://app?vid=0e956a52-9f1c-4373-9fd9-05b1de4dc5a0"},"vehicle_type_id":"4","last_reported":1745467975,"current_range_meters":4000,"station_id":"ce4bh012rcd13ifvqcv0","pricing_plan_id":"cebpf4jnsgd1na2vs0mg"},{"bike_id":"c94e26c1-7575-4802-86ec-0bd6f82482cc","system_id":"levelo_inurba_marseille","lat":43.28599,"lon":5.37075,"is_reserved":false,"is_disabled":false,"rental_uris":{"android":"levelo://app?vid=c94e26c1-7575-4802-86ec-0bd6f82482cc","ios":"levelo://app?vid=c94e26c1-7575-4802-86ec-0bd6f82482cc"},"vehicle_type_id":"4","last_reported":1745467975,"current_range_meters":4400,"station_id":"ce4bht12rcd13ifvqi60","pricing_plan_id":"cebpf4jnsgd1na2vs0mg"},{"bike_id":"e88ac0aa-172e-418f-9134-2e3c247b5863","system_id":"levelo_inurba_marseille","lat":43.23968,"lon":5.36644,"is_reserved":false,"is_disabled":false,"rental_uris":{"android":"levelo://app?vid=e88ac0aa-172e-418f-9134-2e3c247b5863","ios":"levelo://app?vid=e88ac0aa-172e-418f-9134-2e3c247b5863"},"vehicle_type_id":"4","last_reported":1745467975,"current_range_meters":4800,"station_id":"ce4bhi12rcd13ifvqfp0","pricing_plan_id":"cebpf4jnsgd1na2vs0mg"},{"bike_id":"e37792a6-f349-4512-8625-113ccd6f5c99","system_id":"levelo_inurba_marseille","lat":43.27989,"lon":5.40014,"is_reserved":false,"is_disabled":true,"rental_uris":{"android":"levelo://app?vid=e37792a6-f349-4512-8625-113ccd6f5c99","ios":"levelo://app?vid=e37792a6-f349-4512-8625-113ccd6f5c99"},"vehicle_type_id":"4","last_reported":1745467975,"current_range_meters":5600,"station_id":"ce4bho92rcd13ifvqh4g","pricing_plan_id":"cebpf4jnsgd1na2vs0mg"},{"bike_id":"fe198ad5-3ed5-4a50-a120-80605df2593b","system_id":"levelo_inurba_marseille","lat":43.255743,"lon":5.382599,"is_reserved":false,"is_disabled":false,"rental_uris":{"android":"levelo://app?vid=fe198ad5-3ed5-4a50-a120-80605df2593b","ios":"levelo://app?vid=fe198ad5-3ed5-4a50-a120-80605df2593b"},"vehicle_type_id":"4","last_reported":1745467975,"current_range_meters":5600,"station_id":"ce4bhih2rcd13ifvqfs0","pricing_plan_id":"cebpf4jnsgd1na2vs0mg"},{"bike_id":"adf4021e-176e-4b13-ac10-6ebb8cb1e100","system_id":"levelo_inurba_marseille","lat":43.28694,"lon":5.37382,"is_reserved":false,"is_disabled":false,"rental_uris":{"android":"levelo://app?vid=adf4021e-176e-4b13-ac10-6ebb8cb1e100","ios":"levelo://app?vid=adf4021e-176e-4b13-ac10-6ebb8cb1e100"},"vehicle_type_id":"4","last_reported":1745467975,"current_range_meters":6000,"station_id":"ce4bh3p2rcd13ifvqdq0","pricing_plan_id":"cebpf4jnsgd1na2vs0mg"},{"bike_id":"0b7a9109-7668-4db4-9724-d01cac3cc1a1","system_id":"levelo_inurba_marseille","lat":43.291655,"lon":5.410051,"is_reserved":false,"is_disabled":false,"rental_uris":{"android":"levelo://app?vid=0b7a9109-7668-4db4-9724-d01cac3cc1a1","ios":"levelo://app?vid=0b7a9109-7668-4db4-9724-d01cac3cc1a1"},"vehicle_type_id":"4","last_reported":1745467975,"current_range_meters":6000,"station_id":"","pricing_plan_id":"cebpf4jnsgd1na2vs0mg"},{"bike_id":"0f36c06d-b34a-4b6a-9c76-b87640418fc7","system_id":"levelo_inurba_marseille","lat":43.23081,"lon":5.35483,"is_reserved":false,"is_disabled":false,"rental_uris":{"android":"levelo://app?vid=0f36c06d-b34a-4b6a-9c76-b87640418fc7","ios":"levelo://app?vid=0f36c06d-b34a-4b6a-9c76-b87640418fc7"},"vehicle_type_id":"4","last_reported":1745467975,"current_range_meters":6000,"station_id":"cpo3342slgdg3j2ifvpg","pricing_plan_id":"cebpf4jnsgd1na2vs0mg"},{"bike_id":"ebd60230-852f-4552-befa-36dd36cec448","system_id":"levelo_inurba_marseille","lat":43.30913,"lon":5.38321,"is_reserved":false,"is_disabled":false,"rental_uris":{"android":"levelo://app?vid=ebd60230-852f-4552-befa-36dd36cec448","ios":"levelo://app?vid=ebd60230-852f-4552-befa-36dd36cec448"},"vehicle_type_id":"4","last_reported":1745467975,"current_range_meters":6000,"station_id":"","pricing_plan_id":"cebpf4jnsgd1na2vs0mg"},{"bike_id":"3dd50929-80e8-4861-abf3-0cc06f516279","system_id":"levelo_inurba_marseille","lat":43.24055,"lon":5.37763,"is_reserved":false,"is_disabled":false,"rental_uris":{"android":"levelo://app?vid=3dd50929-80e8-4861-abf3-0cc06f516279","ios":"levelo://app?vid=3dd50929-80e8-4861-abf3-0cc06f516279"},"vehicle_type_id":"4","last_reported":1745467975,"current_range_meters":6000,"station_id":"ce4bhnp2rcd13ifvqgvg","pricing_plan_id":"cebpf4jnsgd1na2vs0mg"},{"bike_id":"ee6fe346-129a-4352-b7c7-aefa1e451c7a","system_id":"levelo_inurba_marseille","lat":43.30658,"lon":5.40091,"is_reserved":false,"is_disabled":true,"rental_uris":{"android":"levelo://app?vid=ee6fe346-129a-4352-b7c7-aefa1e451c7a","ios":"levelo://app?vid=ee6fe346-129a-4352-b7c7-aefa1e451c7a"},"vehicle_type_id":"4","last_reported":1745467975,"current_range_meters":6400,"station_id":"ce4bh112rcd13ifvqda0","pricing_plan_id":"cebpf4jnsgd1na2vs0mg"},{"bike_id":"b7e3549c-066f-4860-82c6-ec049a468f26","system_id":"levelo_inurba_marseille","lat":43.30676,"lon":5.40086,"is_reserved":false,"is_disabled":false,"rental_uris":{"android":"levelo://app?vid=b7e3549c-066f-4860-82c6-ec049a468f26","ios":"levelo://app?vid=b7e3549c-066f-4860-82c6-ec049a468f26"},"vehicle_type_id":"4","last_reported":1745467975,"current_range_meters":6400,"station_id":"ce4bh112rcd13ifvqda0","pricing_plan_id":"cebpf4jnsgd1na2vs0mg"},{"bike_id":"f7889748-d9da-4a0d-a4b5-6ffb90fef077","system_id":"levelo_inurba_marseille","lat":43.31745,"lon":5.39035,"is_reserved":false,"is_disabled":true,"rental_uris":{"android":"levelo://app?vid=f7889748-d9da-4a0d-a4b5-6ffb90fef077","ios":"levelo://app?vid=f7889748-d9da-4a0d-a4b5-6ffb90fef077"},"vehicle_type_id":"4","last_reported":1745467975,"current_range_meters":6400,"station_id":"ce4bhqp2rcd13ifvqhng","pricing_plan_id":"cebpf4jnsgd1na2vs0mg"},{"bike_id":"c57f642b-1ae5-4a44-94e3-924f21538523","system_id":"levelo_inurba_marseille","lat":43.30855,"lon":5.39671,"is_reserved":false,"is_disabled":false,"rental_uris":{"android":"levelo://app?vid=c57f642b-1ae5-4a44-94e3-924f21538523","ios":"levelo://app?vid=c57f642b-1ae5-4a44-94e3-924f21538523"},"vehicle_type_id":"4","last_reported":1745467975,"current_range_meters":6400,"station_id":"","pricing_plan_id":"cebpf4jnsgd1na2vs0mg"},{"bike_id":"1c5ec038-935d-45d4-ab05-1768d5c6745a","system_id":"levelo_inurba_marseille","lat":43.24073,"lon":5.37759,"is_reserved":false,"is_disabled":false,"rental_uris":{"android":"levelo://app?vid=1c5ec038-935d-45d4-ab05-1768d5c6745a","ios":"levelo://app?vid=1c5ec038-935d-45d4-ab05-1768d5c6745a"},"vehicle_type_id":"4","last_reported":1745467975,"current_range_meters":6400,"station_id":"ce4bhnp2rcd13ifvqgvg","pricing_plan_id":"cebpf4jnsgd1na2vs0mg"},{"bike_id":"b6553d69-feb1-4f55-99dc-e45ef526cd58","system_id":"levelo_inurba_marseille","lat":43.29547,"lon":5.42284,"is_reserved":false,"is_disabled":true,"rental_uris":{"android":"levelo://app?vid=b6553d69-feb1-4f55-99dc-e45ef526cd58","ios":"levelo://app?vid=b6553d69-feb1-4f55-99dc-e45ef526cd58"},"vehicle_type_id":"4","last_reported":1745467975,"current_range_meters":6800,"station_id":"ce4bhph2rcd13ifvqhdg","pricing_plan_id":"cebpf4jnsgd1na2vs0mg"},{"bike_id":"66ad86ce-fc20-4e27-ae09-168f203aa7c0","system_id":"levelo_inurba_marseille","lat":43.29172,"lon":5.40944,"is_reserved":false,"is_disabled":false,"rental_uris":{"android":"levelo://app?vid=66ad86ce-fc20-4e27-ae09-168f203aa7c0","ios":"levelo://app?vid=66ad86ce-fc20-4e27-ae09-168f203aa7c0"},"vehicle_type_id":"4","last_reported":1745467975,"current_range_meters":6800,"station_id":"ce4bh192rcd13ifvqdc0","pricing_plan_id":"cebpf4jnsgd1na2vs0mg"},{"bike_id":"6d85eac8-2807-47cf-9f6e-8094fefcf027","system_id":"levelo_inurba_marseille","lat":43.305315,"lon":5.384367,"is_reserved":false,"is_disabled":false,"rental_uris":{"android":"levelo://app?vid=6d85eac8-2807-47cf-9f6e-8094fefcf027","ios":"levelo://app?vid=6d85eac8-2807-47cf-9f6e-8094fefcf027"},"vehicle_type_id":"4","last_reported":1745467975,"current_range_meters":6800,"station_id":"ce4bgg92rcd13ifvqb30","pricing_plan_id":"cebpf4jnsgd1na2vs0mg"},{"bike_id":"aa4399b4-8665-47b3-a72c-4b0b2ad2c7fa","system_id":"levelo_inurba_marseille","lat":43.287,"lon":5.3999,"is_reserved":false,"is_disabled":false,"rental_uris":{"android":"levelo://app?vid=aa4399b4-8665-47b3-a72c-4b0b2ad2c7fa","ios":"levelo://app?vid=aa4399b4-8665-47b3-a72c-4b0b2ad2c7fa"},"vehicle_type_id":"4","last_reported":1745467975,"current_range_meters":7200,"station_id":"ce4bho92rcd13ifvqh3g","pricing_plan_id":"cebpf4jnsgd1na2vs0mg"},{"bike_id":"3db46211-c999-430c-8329-f6c40a08ce14","system_id":"levelo_inurba_marseille","lat":43.31384,"lon":5.38495,"is_reserved":false,"is_disabled":false,"rental_uris":{"android":"levelo://app?vid=3db46211-c999-430c-8329-f6c40a08ce14","ios":"levelo://app?vid=3db46211-c999-430c-8329-f6c40a08ce14"},"vehicle_type_id":"4","last_reported":1745467975,"current_range_meters":7200,"station_id":"ce4bgt92rcd13ifvqcf0","pricing_plan_id":"cebpf4jnsgd1na2vs0mg"},{"bike_id":"9e413059-7cf1-4bcb-94d0-d441a1bc78ba","system_id":"levelo_inurba_marseille","lat":43.28696,"lon":5.37393,"is_reserved":false,"is_disabled":false,"rental_uris":{"android":"levelo://app?vid=9e413059-7cf1-4bcb-94d0-d441a1bc78ba","ios":"levelo://app?vid=9e413059-7cf1-4bcb-94d0-d441a1bc78ba"},"vehicle_type_id":"4","last_reported":1745467975,"current_range_meters":7200,"station_id":"ce4bh3p2rcd13ifvqdq0","pricing_plan_id":"cebpf4jnsgd1na2vs0mg"},{"bike_id":"49c0f902-eac7-4a79-adf0-d142aff51e11","system_id":"levelo_inurba_marseille","lat":43.24163,"lon":5.36395,"is_reserved":false,"is_disabled":false,"rental_uris":{"android":"levelo://app?vid=49c0f902-eac7-4a79-adf0-d142aff51e11","ios":"levelo://app?vid=49c0f902-eac7-4a79-adf0-d142aff51e11"},"vehicle_type_id":"4","last_reported":1745467975,"current_range_meters":7200,"station_id":"cpo36qri1sfpv3e86is0","pricing_plan_id":"cebpf4jnsgd1na2vs0mg"},{"bike_id":"b7f1465a-6f26-4295-b5e3-c42d825d4220","system_id":"levelo_inurba_marseille","lat":43.28424,"lon":5.35055,"is_reserved":false,"is_disabled":false,"rental_uris":{"android":"levelo://app?vid=b7f1465a-6f26-4295-b5e3-c42d825d4220","ios":"levelo://app?vid=b7f1465a-6f26-4295-b5e3-c42d825d4220"},"vehicle_type_id":"4","last_reported":1745467975,"current_range_meters":7200,"station_id":"ce4bhbh2rcd13ifvqepg","pricing_plan_id":"cebpf4jnsgd1na2vs0mg"},{"bike_id":"048dcf7c-5dc0-4a75-9e97-ed5666d8616a","system_id":"levelo_inurba_marseille","lat":43.26954,"lon":5.38643,"is_reserved":false,"is_disabled":false,"rental_uris":{"android":"levelo://app?vid=048dcf7c-5dc0-4a75-9e97-ed5666d8616a","ios":"levelo://app?vid=048dcf7c-5dc0-4a75-9e97-ed5666d8616a"},"vehicle_type_id":"4","last_reported":1745467975,"current_range_meters":7200,"station_id":"ce4bhh92rcd13ifvqfh0","pricing_plan_id":"cebpf4jnsgd1na2vs0mg"},{"bike_id":"2e084519-ee49-419e-abb9-0d7b32653da5","system_id":"levelo_inurba_marseille","lat":43.313196,"lon":5.397049,"is_reserved":false,"is_disabled":false,"rental_uris":{"android":"levelo://app?vid=2e084519-ee49-419e-abb9-0d7b32653da5","ios":"levelo://app?vid=2e084519-ee49-419e-abb9-0d7b32653da5"},"vehicle_type_id":"4","last_reported":1745467975,"current_range_meters":8000,"station_id":"ce4bgvp2rcd13ifvqcu0","pricing_plan_id":"cebpf4jnsgd1na2vs0mg"},{"bike_id":"67e80e12-0df0-47a3-a76c-955808049931","system_id":"levelo_inurba_marseille","lat":43.23151,"lon":5.40011,"is_reserved":false,"is_disabled":false,"rental_uris":{"android":"levelo://app?vid=67e80e12-0df0-47a3-a76c-955808049931","ios":"levelo://app?vid=67e80e12-0df0-47a3-a76c-955808049931"},"vehicle_type_id":"4","last_reported":1745467975,"current_range_meters":8000,"station_id":"ce4bhn12rcd13ifvqgqg","pricing_plan_id":"cebpf4jnsgd1na2vs0mg"},{"bike_id":"f881a57b-9c07-4d1f-b146-fc55e427d03d","system_id":"levelo_inurba_marseille","lat":43.295727,"lon":5.399877,"is_reserved":false,"is_disabled":false,"rental_uris":{"android":"levelo://app?vid=f881a57b-9c07-4d1f-b146-fc55e427d03d","ios":"levelo://app?vid=f881a57b-9c07-4d1f-b146-fc55e427d03d"},"vehicle_type_id":"4","last_reported":1745467975,"current_range_meters":8000,"station_id":"ce4bh312rcd13ifvqdj0","pricing_plan_id":"cebpf4jnsgd1na2vs0mg"},{"bike_id":"2444db48-73b9-4f67-9dc6-6e8bcceff093","system_id":"levelo_inurba_marseille","lat":43.29813,"lon":5.3814,"is_reserved":false,"is_disabled":true,"rental_uris":{"android":"levelo://app?vid=2444db48-73b9-4f67-9dc6-6e8bcceff093","ios":"levelo://app?vid=2444db48-73b9-4f67-9dc6-6e8bcceff093"},"vehicle_type_id":"4","last_reported":1745467975,"current_range_meters":8000,"station_id":"ce4bgip2rcd13ifvqbb0","pricing_plan_id":"cebpf4jnsgd1na2vs0mg"},{"bike_id":"7fc52449-6a37-4f24-930b-7b666a0972f0","system_id":"levelo_inurba_marseille","lat":43.28688,"lon":5.4,"is_reserved":false,"is_disabled":false,"rental_uris":{"android":"levelo://app?vid=7fc52449-6a37-4f24-930b-7b666a0972f0","ios":"levelo://app?vid=7fc52449-6a37-4f24-930b-7b666a0972f0"},"vehicle_type_id":"4","last_reported":1745467975,"current_range_meters":8000,"station_id":"ce4bho92rcd13ifvqh3g","pricing_plan_id":"cebpf4jnsgd1na2vs0mg"},{"bike_id":"fbb6be43-75ac-4697-af84-df6581464ee0","system_id":"levelo_inurba_marseille","lat":43.239631,"lon":5.366356,"is_reserved":false,"is_disabled":false,"rental_uris":{"android":"levelo://app?vid=fbb6be43-75ac-4697-af84-df6581464ee0","ios":"levelo://app?vid=fbb6be43-75ac-4697-af84-df6581464ee0"},"vehicle_type_id":"4","last_reported":1745467975,"current_range_meters":8000,"station_id":"ce4bhi12rcd13ifvqfp0","pricing_plan_id":"cebpf4jnsgd1na2vs0mg"},{"bike_id":"235f2bae-0a04-4484-8459-9c3ece0a1b2c","system_id":"levelo_inurba_marseille","lat":43.30732,"lon":5.424478,"is_reserved":false,"is_disabled":false,"rental_uris":{"android":"levelo://app?vid=235f2bae-0a04-4484-8459-9c3ece0a1b2c","ios":"levelo://app?vid=235f2bae-0a04-4484-8459-9c3ece0a1b2c"},"vehicle_type_id":"4","last_reported":1745467975,"current_range_meters":8400,"station_id":"st_cvj6ca6bvosntc0bfgr0","pricing_plan_id":"cebpf4jnsgd1na2vs0mg"},{"bike_id":"24db7984-1359-45eb-baef-06faf93e6ff6","system_id":"levelo_inurba_marseille","lat":43.3466,"lon":5.34574,"is_reserved":false,"is_disabled":false,"rental_uris":{"android":"levelo://app?vid=24db7984-1359-45eb-baef-06faf93e6ff6","ios":"levelo://app?vid=24db7984-1359-45eb-baef-06faf93e6ff6"},"vehicle_type_id":"4","last_reported":1745467975,"current_range_meters":8400,"station_id":"","pricing_plan_id":"cebpf4jnsgd1na2vs0mg"},{"bike_id":"4b5ad419-2a9e-4292-b343-3486796c2a93","system_id":"levelo_inurba_marseille","lat":43.28704,"lon":5.37386,"is_reserved":false,"is_disabled":false,"rental_uris":{"android":"levelo://app?vid=4b5ad419-2a9e-4292-b343-3486796c2a93","ios":"levelo://app?vid=4b5ad419-2a9e-4292-b343-3486796c2a93"},"vehicle_type_id":"4","last_reported":1745467975,"current_range_meters":8400,"station_id":"ce4bh3p2rcd13ifvqdq0","pricing_plan_id":"cebpf4jnsgd1na2vs0mg"},{"bike_id":"805ea2d5-ec08-4b13-ba23-87cc0a37bf03","system_id":"levelo_inurba_marseille","lat":43.24069,"lon":5.37748,"is_reserved":false,"is_disabled":false,"rental_uris":{"android":"levelo://app?vid=805ea2d5-ec08-4b13-ba23-87cc0a37bf03","ios":"levelo://app?vid=805ea2d5-ec08-4b13-ba23-87cc0a37bf03"},"vehicle_type_id":"4","last_reported":1745467975,"current_range_meters":8400,"station_id":"ce4bhnp2rcd13ifvqgvg","pricing_plan_id":"cebpf4jnsgd1na2vs0mg"},{"bike_id":"baf16995-e7d6-40d5-afca-58467ccd3dd8","system_id":"levelo_inurba_marseille","lat":43.279921,"lon":5.40016,"is_reserved":false,"is_disabled":false,"rental_uris":{"android":"levelo://app?vid=baf16995-e7d6-40d5-afca-58467ccd3dd8","ios":"levelo://app?vid=baf16995-e7d6-40d5-afca-58467ccd3dd8"},"vehicle_type_id":"4","last_reported":1745467975,"current_range_meters":8400,"station_id":"ce4bho92rcd13ifvqh4g","pricing_plan_id":"cebpf4jnsgd1na2vs0mg"},{"bike_id":"cbd0f7e4-e0e7-4c85-bfb0-0f7fd19ee508","system_id":"levelo_inurba_marseille","lat":43.28449,"lon":5.35887,"is_reserved":false,"is_disabled":false,"rental_uris":{"android":"levelo://app?vid=cbd0f7e4-e0e7-4c85-bfb0-0f7fd19ee508","ios":"levelo://app?vid=cbd0f7e4-e0e7-4c85-bfb0-0f7fd19ee508"},"vehicle_type_id":"4","last_reported":1745467975,"current_range_meters":8400,"station_id":"ce4bhah2rcd13ifvqei0","pricing_plan_id":"cebpf4jnsgd1na2vs0mg"},{"bike_id":"80066cef-5d64-4a49-9561-7e2ce806f875","system_id":"levelo_inurba_marseille","lat":43.31358,"lon":5.38503,"is_reserved":false,"is_disabled":false,"rental_uris":{"android":"levelo://app?vid=80066cef-5d64-4a49-9561-7e2ce806f875","ios":"levelo://app?vid=80066cef-5d64-4a49-9561-7e2ce806f875"},"vehicle_type_id":"4","last_reported":1745467975,"current_range_meters":8400,"station_id":"ce4bgt92rcd13ifvqcf0","pricing_plan_id":"cebpf4jnsgd1na2vs0mg"},{"bike_id":"009ef8fd-65f7-40c3-90d3-7dca1597284b","system_id":"levelo_inurba_marseille","lat":43.311721,"lon":5.387139,"is_reserved":false,"is_disabled":false,"rental_uris":{"android":"levelo://app?vid=009ef8fd-65f7-40c3-90d3-7dca1597284b","ios":"levelo://app?vid=009ef8fd-65f7-40c3-90d3-7dca1597284b"},"vehicle_type_id":"4","last_reported":1745467975,"current_range_meters":8800,"station_id":"","pricing_plan_id":"cebpf4jnsgd1na2vs0mg"},{"bike_id":"7affd995-e96b-402e-86ac-a786554a4a0f","system_id":"levelo_inurba_marseille","lat":43.307905,"lon":5.376602,"is_reserved":false,"is_disabled":false,"rental_uris":{"android":"levelo://app?vid=7affd995-e96b-402e-86ac-a786554a4a0f","ios":"levelo://app?vid=7affd995-e96b-402e-86ac-a786554a4a0f"},"vehicle_type_id":"4","last_reported":1745467975,"current_range_meters":8800,"station_id":"ce4bgv92rcd13ifvqcq0","pricing_plan_id":"cebpf4jnsgd1na2vs0mg"},{"bike_id":"28388528-8a23-4283-8e69-993639e56162","system_id":"levelo_inurba_marseille","lat":43.31358,"lon":5.38508,"is_reserved":false,"is_disabled":false,"rental_uris":{"android":"levelo://app?vid=28388528-8a23-4283-8e69-993639e56162","ios":"levelo://app?vid=28388528-8a23-4283-8e69-993639e56162"},"vehicle_type_id":"4","last_reported":1745467975,"current_range_meters":8800,"station_id":"ce4bgt92rcd13ifvqcf0","pricing_plan_id":"cebpf4jnsgd1na2vs0mg"},{"bike_id":"9c325fd4-f154-4a48-857e-569f4cc367f9","system_id":"levelo_inurba_marseille","lat":43.229253,"lon":5.353806,"is_reserved":false,"is_disabled":false,"rental_uris":{"android":"levelo://app?vid=9c325fd4-f154-4a48-857e-569f4cc367f9","ios":"levelo://app?vid=9c325fd4-f154-4a48-857e-569f4cc367f9"},"vehicle_type_id":"4","last_reported":1745467975,"current_range_meters":8800,"station_id":"cpo3532slgdg3j2ikp40","pricing_plan_id":"cebpf4jnsgd1na2vs0mg"},{"bike_id":"b5937484-6cf8-47d6-aa9f-590a6cb6bc39","system_id":"levelo_inurba_marseille","lat":43.302372,"lon":5.400541,"is_reserved":false,"is_disabled":false,"rental_uris":{"android":"levelo://app?vid=b5937484-6cf8-47d6-aa9f-590a6cb6bc39","ios":"levelo://app?vid=b5937484-6cf8-47d6-aa9f-590a6cb6bc39"},"vehicle_type_id":"4","last_reported":1745467975,"current_range_meters":8800,"station_id":"ce4bgvh2rcd13ifvqcs0","pricing_plan_id":"cebpf4jnsgd1na2vs0mg"},{"bike_id":"4f5ac7c4-fae3-469d-a49f-999fe327ce77","system_id":"levelo_inurba_marseille","lat":43.31981,"lon":5.3815,"is_reserved":false,"is_disabled":false,"rental_uris":{"android":"levelo://app?vid=4f5ac7c4-fae3-469d-a49f-999fe327ce77","ios":"levelo://app?vid=4f5ac7c4-fae3-469d-a49f-999fe327ce77"},"vehicle_type_id":"4","last_reported":1745467975,"current_range_meters":8800,"station_id":"ce4bhr12rcd13ifvqhpg","pricing_plan_id":"cebpf4jnsgd1na2vs0mg"},{"bike_id":"99f0cf1f-19a5-4a5d-b719-eed5390b70f8","system_id":"levelo_inurba_marseille","lat":43.28696,"lon":5.39981,"is_reserved":false,"is_disabled":false,"rental_uris":{"android":"levelo://app?vid=99f0cf1f-19a5-4a5d-b719-eed5390b70f8","ios":"levelo://app?vid=99f0cf1f-19a5-4a5d-b719-eed5390b70f8"},"vehicle_type_id":"4","last_reported":1745467975,"current_range_meters":8800,"station_id":"ce4bho92rcd13ifvqh3g","pricing_plan_id":"cebpf4jnsgd1na2vs0mg"},{"bike_id":"9ac3ef30-659b-4bfa-be03-8c5d23f92efb","system_id":"levelo_inurba_marseille","lat":43.21756,"lon":5.34608,"is_reserved":false,"is_disabled":false,"rental_uris":{"android":"levelo://app?vid=9ac3ef30-659b-4bfa-be03-8c5d23f92efb","ios":"levelo://app?vid=9ac3ef30-659b-4bfa-be03-8c5d23f92efb"},"vehicle_type_id":"4","last_reported":1745467975,"current_range_meters":8800,"station_id":"st_cvj6r9ubvosntc0bgbag","pricing_plan_id":"cebpf4jnsgd1na2vs0mg"},{"bike_id":"ec350b30-9b32-4c5f-aa22-3a10fc683fe2","system_id":"levelo_inurba_marseille","lat":43.29305,"lon":5.43435,"is_reserved":false,"is_disabled":false,"rental_uris":{"android":"levelo://app?vid=ec350b30-9b32-4c5f-aa22-3a10fc683fe2","ios":"levelo://app?vid=ec350b30-9b32-4c5f-aa22-3a10fc683fe2"},"vehicle_type_id":"4","last_reported":1745467975,"current_range_meters":8800,"station_id":"","pricing_plan_id":"cebpf4jnsgd1na2vs0mg"},{"bike_id":"8c7cba96-a3d5-439a-9e64-c18b09dd7aa5","system_id":"levelo_inurba_marseille","lat":43.29577,"lon":5.42234,"is_reserved":false,"is_disabled":false,"rental_uris":{"android":"levelo://app?vid=8c7cba96-a3d5-439a-9e64-c18b09dd7aa5","ios":"levelo://app?vid=8c7cba96-a3d5-439a-9e64-c18b09dd7aa5"},"vehicle_type_id":"4","last_reported":1745467975,"current_range_meters":8800,"station_id":"ce4bhph2rcd13ifvqhdg","pricing_plan_id":"cebpf4jnsgd1na2vs0mg"},{"bike_id":"92c3b340-d069-4f1c-b55b-44c52f19597b","system_id":"levelo_inurba_marseille","lat":43.282531,"lon":5.377951,"is_reserved":false,"is_disabled":false,"rental_uris":{"android":"levelo://app?vid=92c3b340-d069-4f1c-b55b-44c52f19597b","ios":"levelo://app?vid=92c3b340-d069-4f1c-b55b-44c52f19597b"},"vehicle_type_id":"4","last_reported":1745467975,"current_range_meters":9200,"station_id":"","pricing_plan_id":"cebpf4jnsgd1na2vs0mg"},{"bike_id":"c2af1cc3-8c6b-4f7b-a9e5-deaee2e35eee","system_id":"levelo_inurba_marseille","lat":43.310679,"lon":5.383506,"is_reserved":false,"is_disabled":false,"rental_uris":{"android":"levelo://app?vid=c2af1cc3-8c6b-4f7b-a9e5-deaee2e35eee","ios":"levelo://app?vid=c2af1cc3-8c6b-4f7b-a9e5-deaee2e35eee"},"vehicle_type_id":"4","last_reported":1745467975,"current_range_meters":9200,"station_id":"ce4bgv92rcd13ifvqcr0","pricing_plan_id":"cebpf4jnsgd1na2vs0mg"},{"bike_id":"b96d48d5-fc65-423b-9a30-5d2c864e8939","system_id":"levelo_inurba_marseille","lat":43.22508,"lon":5.34784,"is_reserved":false,"is_disabled":false,"rental_uris":{"android":"levelo://app?vid=b96d48d5-fc65-423b-9a30-5d2c864e8939","ios":"levelo://app?vid=b96d48d5-fc65-423b-9a30-5d2c864e8939"},"vehicle_type_id":"4","last_reported":1745467975,"current_range_meters":9200,"station_id":"st_cvj5dfep6f1abm77gieg","pricing_plan_id":"cebpf4jnsgd1na2vs0mg"},{"bike_id":"7e9d26b8-b748-4e10-b3e2-977d9fd05087","system_id":"levelo_inurba_marseille","lat":43.3259,"lon":5.36165,"is_reserved":false,"is_disabled":false,"rental_uris":{"android":"levelo://app?vid=7e9d26b8-b748-4e10-b3e2-977d9fd05087","ios":"levelo://app?vid=7e9d26b8-b748-4e10-b3e2-977d9fd05087"},"vehicle_type_id":"4","last_reported":1745467975,"current_range_meters":9200,"station_id":"","pricing_plan_id":"cebpf4jnsgd1na2vs0mg"},{"bike_id":"363e2595-b8c3-401e-8e09-27303f712a69","system_id":"levelo_inurba_marseille","lat":43.308853,"lon":5.396368,"is_reserved":false,"is_disabled":false,"rental_uris":{"android":"levelo://app?vid=363e2595-b8c3-401e-8e09-27303f712a69","ios":"levelo://app?vid=363e2595-b8c3-401e-8e09-27303f712a69"},"vehicle_type_id":"4","last_reported":1745467975,"current_range_meters":9200,"station_id":"ce4bh012rcd13ifvqcv0","pricing_plan_id":"cebpf4jnsgd1na2vs0mg"},{"bike_id":"5cec985c-475e-4a47-afd7-2118745a458f","system_id":"levelo_inurba_marseille","lat":43.229333,"lon":5.353907,"is_reserved":false,"is_disabled":false,"rental_uris":{"android":"levelo://app?vid=5cec985c-475e-4a47-afd7-2118745a458f","ios":"levelo://app?vid=5cec985c-475e-4a47-afd7-2118745a458f"},"vehicle_type_id":"4","last_reported":1745467975,"current_range_meters":9200,"station_id":"cpo3532slgdg3j2ikp40","pricing_plan_id":"cebpf4jnsgd1na2vs0mg"},{"bike_id":"3eda9883-68ee-4069-9984-1e581863d6d4","system_id":"levelo_inurba_marseille","lat":43.28091,"lon":5.37868,"is_reserved":false,"is_disabled":false,"rental_uris":{"android":"levelo://app?vid=3eda9883-68ee-4069-9984-1e581863d6d4","ios":"levelo://app?vid=3eda9883-68ee-4069-9984-1e581863d6d4"},"vehicle_type_id":"4","last_reported":1745467975,"current_range_meters":9200,"station_id":"ce4bha12rcd13ifvqee0","pricing_plan_id":"cebpf4jnsgd1na2vs0mg"},{"bike_id":"3a3bedf2-0adb-4d0d-9782-0a51518983df","system_id":"levelo_inurba_marseille","lat":43.28905,"lon":5.38434,"is_reserved":false,"is_disabled":true,"rental_uris":{"android":"levelo://app?vid=3a3bedf2-0adb-4d0d-9782-0a51518983df","ios":"levelo://app?vid=3a3bedf2-0adb-4d0d-9782-0a51518983df"},"vehicle_type_id":"4","last_reported":1745467975,"current_range_meters":9600,"station_id":"ce4bh612rcd13ifvqe6g","pricing_plan_id":"cebpf4jnsgd1na2vs0mg"},{"bike_id":"d6a00241-8f25-44db-ac6d-8e84872db2a8","system_id":"levelo_inurba_marseille","lat":43.337258,"lon":5.391879,"is_reserved":false,"is_disabled":false,"rental_uris":{"android":"levelo://app?vid=d6a00241-8f25-44db-ac6d-8e84872db2a8","ios":"levelo://app?vid=d6a00241-8f25-44db-ac6d-8e84872db2a8"},"vehicle_type_id":"4","last_reported":1745467975,"current_range_meters":9600,"station_id":"ce4bhr92rcd13ifvqhsg","pricing_plan_id":"cebpf4jnsgd1na2vs0mg"},{"bike_id":"61034bff-863b-4f17-b306-04653b14a109","system_id":"levelo_inurba_marseille","lat":43.3091,"lon":5.40162,"is_reserved":false,"is_disabled":true,"rental_uris":{"android":"levelo://app?vid=61034bff-863b-4f17-b306-04653b14a109","ios":"levelo://app?vid=61034bff-863b-4f17-b306-04653b14a109"},"vehicle_type_id":"4","last_reported":1745467975,"current_range_meters":9600,"station_id":"ce4bgvp2rcd13ifvqct0","pricing_plan_id":"cebpf4jnsgd1na2vs0mg"},{"bike_id":"d11778d2-405c-4d2c-baa1-e9db1690a962","system_id":"levelo_inurba_marseille","lat":43.28467,"lon":5.3589,"is_reserved":false,"is_disabled":false,"rental_uris":{"android":"levelo://app?vid=d11778d2-405c-4d2c-baa1-e9db1690a962","ios":"levelo://app?vid=d11778d2-405c-4d2c-baa1-e9db1690a962"},"vehicle_type_id":"4","last_reported":1745467975,"current_range_meters":9600,"station_id":"ce4bhah2rcd13ifvqei0","pricing_plan_id":"cebpf4jnsgd1na2vs0mg"},{"bike_id":"abd226a8-d003-4133-b9d2-b7c952b7ead1","system_id":"levelo_inurba_marseille","lat":43.230631,"lon":5.354865,"is_reserved":false,"is_disabled":false,"rental_uris":{"android":"levelo://app?vid=abd226a8-d003-4133-b9d2-b7c952b7ead1","ios":"levelo://app?vid=abd226a8-d003-4133-b9d2-b7c952b7ead1"},"vehicle_type_id":"4","last_reported":1745467975,"current_range_meters":9600,"station_id":"cpo3342slgdg3j2ifvpg","pricing_plan_id":"cebpf4jnsgd1na2vs0mg"},{"bike_id":"9e4499ec-11e0-4420-aa9c-7cd35460907d","system_id":"levelo_inurba_marseille","lat":43.25814,"lon":5.39446,"is_reserved":false,"is_disabled":false,"rental_uris":{"android":"levelo://app?vid=9e4499ec-11e0-4420-aa9c-7cd35460907d","ios":"levelo://app?vid=9e4499ec-11e0-4420-aa9c-7cd35460907d"},"vehicle_type_id":"4","last_reported":1745467975,"current_range_meters":9600,"station_id":"ce4bhip2rcd13ifvqft0","pricing_plan_id":"cebpf4jnsgd1na2vs0mg"},{"bike_id":"af42016f-15d4-422d-8074-f1c07d23aae2","system_id":"levelo_inurba_marseille","lat":43.30324,"lon":5.40461,"is_reserved":false,"is_disabled":false,"rental_uris":{"android":"levelo://app?vid=af42016f-15d4-422d-8074-f1c07d23aae2","ios":"levelo://app?vid=af42016f-15d4-422d-8074-f1c07d23aae2"},"vehicle_type_id":"4","last_reported":1745467975,"current_range_meters":9600,"station_id":"ce4bh012rcd13ifvqd10","pricing_plan_id":"cebpf4jnsgd1na2vs0mg"},{"bike_id":"1b8b7145-49a7-4fe1-96a2-72a1d6e84a54","system_id":"levelo_inurba_marseille","lat":43.230628,"lon":5.354903,"is_reserved":false,"is_disabled":false,"rental_uris":{"android":"levelo://app?vid=1b8b7145-49a7-4fe1-96a2-72a1d6e84a54","ios":"levelo://app?vid=1b8b7145-49a7-4fe1-96a2-72a1d6e84a54"},"vehicle_type_id":"4","last_reported":1745467975,"current_range_meters":9600,"station_id":"cpo3342slgdg3j2ifvpg","pricing_plan_id":"cebpf4jnsgd1na2vs0mg"},{"bike_id":"eac018cc-4244-4d34-9a05-c2e523bb3c57","system_id":"levelo_inurba_marseille","lat":43.2858,"lon":5.35697,"is_reserved":false,"is_disabled":false,"rental_uris":{"android":"levelo://app?vid=eac018cc-4244-4d34-9a05-c2e523bb3c57","ios":"levelo://app?vid=eac018cc-4244-4d34-9a05-c2e523bb3c57"},"vehicle_type_id":"4","last_reported":1745467975,"current_range_meters":9600,"station_id":"","pricing_plan_id":"cebpf4jnsgd1na2vs0mg"},{"bike_id":"730c7476-95c4-4e18-a1b3-3a935e74be04","system_id":"levelo_inurba_marseille","lat":43.290227,"lon":5.37558,"is_reserved":false,"is_disabled":true,"rental_uris":{"android":"levelo://app?vid=730c7476-95c4-4e18-a1b3-3a935e74be04","ios":"levelo://app?vid=730c7476-95c4-4e18-a1b3-3a935e74be04"},"vehicle_type_id":"4","last_reported":1745467975,"current_range_meters":10000,"station_id":"ce4bh692rcd13ifvqe90","pricing_plan_id":"cebpf4jnsgd1na2vs0mg"},{"bike_id":"1ed15132-6d7d-4abe-b136-71017b50be10","system_id":"levelo_inurba_marseille","lat":43.23959,"lon":5.36653,"is_reserved":false,"is_disabled":false,"rental_uris":{"android":"levelo://app?vid=1ed15132-6d7d-4abe-b136-71017b50be10","ios":"levelo://app?vid=1ed15132-6d7d-4abe-b136-71017b50be10"},"vehicle_type_id":"4","last_reported":1745467975,"current_range_meters":10000,"station_id":"ce4bhi12rcd13ifvqfp0","pricing_plan_id":"cebpf4jnsgd1na2vs0mg"},{"bike_id":"df59aaf0-3f00-4637-bcc4-f6ee01198ca7","system_id":"levelo_inurba_marseille","lat":43.29921,"lon":5.38155,"is_reserved":false,"is_disabled":false,"rental_uris":{"android":"levelo://app?vid=df59aaf0-3f00-4637-bcc4-f6ee01198ca7","ios":"levelo://app?vid=df59aaf0-3f00-4637-bcc4-f6ee01198ca7"},"vehicle_type_id":"4","last_reported":1745467975,"current_range_meters":10000,"station_id":"ce4bgj12rcd13ifvqbc0","pricing_plan_id":"cebpf4jnsgd1na2vs0mg"},{"bike_id":"8fb44261-49c3-4680-b8bd-36f293c27199","system_id":"levelo_inurba_marseille","lat":43.240667,"lon":5.377593,"is_reserved":false,"is_disabled":false,"rental_uris":{"android":"levelo://app?vid=8fb44261-49c3-4680-b8bd-36f293c27199","ios":"levelo://app?vid=8fb44261-49c3-4680-b8bd-36f293c27199"},"vehicle_type_id":"4","last_reported":1745467975,"current_range_meters":10000,"station_id":"ce4bhnp2rcd13ifvqgvg","pricing_plan_id":"cebpf4jnsgd1na2vs0mg"},{"bike_id":"f4240832-be75-486f-be90-a38ce111aeef","system_id":"levelo_inurba_marseille","lat":43.30778,"lon":5.37665,"is_reserved":false,"is_disabled":false,"rental_uris":{"android":"levelo://app?vid=f4240832-be75-486f-be90-a38ce111aeef","ios":"levelo://app?vid=f4240832-be75-486f-be90-a38ce111aeef"},"vehicle_type_id":"4","last_reported":1745467975,"current_range_meters":10000,"station_id":"ce4bgv92rcd13ifvqcq0","pricing_plan_id":"cebpf4jnsgd1na2vs0mg"},{"bike_id":"fd329d73-d91a-41c7-89cf-ed671cee0a8f","system_id":"levelo_inurba_marseille","lat":43.25584,"lon":5.3824,"is_reserved":false,"is_disabled":true,"rental_uris":{"android":"levelo://app?vid=fd329d73-d91a-41c7-89cf-ed671cee0a8f","ios":"levelo://app?vid=fd329d73-d91a-41c7-89cf-ed671cee0a8f"},"vehicle_type_id":"4","last_reported":1745467975,"current_range_meters":10000,"station_id":"ce4bhih2rcd13ifvqfs0","pricing_plan_id":"cebpf4jnsgd1na2vs0mg"},{"bike_id":"66d3f2a2-5910-443a-9c4a-b4c3a7c14e40","system_id":"levelo_inurba_marseille","lat":43.30021,"lon":5.4094,"is_reserved":false,"is_disabled":false,"rental_uris":{"android":"levelo://app?vid=66d3f2a2-5910-443a-9c4a-b4c3a7c14e40","ios":"levelo://app?vid=66d3f2a2-5910-443a-9c4a-b4c3a7c14e40"},"vehicle_type_id":"4","last_reported":1745467975,"current_range_meters":10000,"station_id":"","pricing_plan_id":"cebpf4jnsgd1na2vs0mg"},{"bike_id":"55cfd899-1002-4506-8659-42ac23e45317","system_id":"levelo_inurba_marseille","lat":43.29257,"lon":5.40896,"is_reserved":false,"is_disabled":false,"rental_uris":{"android":"levelo://app?vid=55cfd899-1002-4506-8659-42ac23e45317","ios":"levelo://app?vid=55cfd899-1002-4506-8659-42ac23e45317"},"vehicle_type_id":"4","last_reported":1745467975,"current_range_meters":10000,"station_id":"ce4bh192rcd13ifvqdc0","pricing_plan_id":"cebpf4jnsgd1na2vs0mg"},{"bike_id":"27c05df6-8a91-4ca8-984f-88f6525a00cd","system_id":"levelo_inurba_marseille","lat":43.24788,"lon":5.37349,"is_reserved":false,"is_disabled":false,"rental_uris":{"android":"levelo://app?vid=27c05df6-8a91-4ca8-984f-88f6525a00cd","ios":"levelo://app?vid=27c05df6-8a91-4ca8-984f-88f6525a00cd"},"vehicle_type_id":"4","last_reported":1745467975,"current_range_meters":10800,"station_id":"","pricing_plan_id":"cebpf4jnsgd1na2vs0mg"},{"bike_id":"527ab9af-1602-4e3b-a3d5-77f5acec1ebf","system_id":"levelo_inurba_marseille","lat":43.261872,"lon":5.374574,"is_reserved":false,"is_disabled":true,"rental_uris":{"android":"levelo://app?vid=527ab9af-1602-4e3b-a3d5-77f5acec1ebf","ios":"levelo://app?vid=527ab9af-1602-4e3b-a3d5-77f5acec1ebf"},"vehicle_type_id":"4","last_reported":1745467975,"current_range_meters":10800,"station_id":"ce4bhgp2rcd13ifvqfc0","pricing_plan_id":"cebpf4jnsgd1na2vs0mg"},{"bike_id":"e80d6036-1913-47ec-a939-60ef7b86907e","system_id":"levelo_inurba_marseille","lat":43.319954,"lon":5.381582,"is_reserved":false,"is_disabled":false,"rental_uris":{"android":"levelo://app?vid=e80d6036-1913-47ec-a939-60ef7b86907e","ios":"levelo://app?vid=e80d6036-1913-47ec-a939-60ef7b86907e"},"vehicle_type_id":"4","last_reported":1745467975,"current_range_meters":10800,"station_id":"ce4bhr12rcd13ifvqhpg","pricing_plan_id":"cebpf4jnsgd1na2vs0mg"},{"bike_id":"02bf776c-ab86-42fc-96a0-dd59c16e6d16","system_id":"levelo_inurba_marseille","lat":43.28939,"lon":5.3663,"is_reserved":false,"is_disabled":false,"rental_uris":{"android":"levelo://app?vid=02bf776c-ab86-42fc-96a0-dd59c16e6d16","ios":"levelo://app?vid=02bf776c-ab86-42fc-96a0-dd59c16e6d16"},"vehicle_type_id":"4","last_reported":1745467975,"current_range_meters":11200,"station_id":"ce4bhap2rcd13ifvqek0","pricing_plan_id":"cebpf4jnsgd1na2vs0mg"},{"bike_id":"813b8eef-27cc-4149-ab25-6bfc307f8052","system_id":"levelo_inurba_marseille","lat":43.28928,"lon":5.36664,"is_reserved":false,"is_disabled":false,"rental_uris":{"android":"levelo://app?vid=813b8eef-27cc-4149-ab25-6bfc307f8052","ios":"levelo://app?vid=813b8eef-27cc-4149-ab25-6bfc307f8052"},"vehicle_type_id":"4","last_reported":1745467975,"current_range_meters":11200,"station_id":"ce4bhap2rcd13ifvqek0","pricing_plan_id":"cebpf4jnsgd1na2vs0mg"},{"bike_id":"012b9d59-47c7-4faa-ac0c-d91c09e3e027","system_id":"levelo_inurba_marseille","lat":43.28469,"lon":5.35887,"is_reserved":false,"is_disabled":false,"rental_uris":{"android":"levelo://app?vid=012b9d59-47c7-4faa-ac0c-d91c09e3e027","ios":"levelo://app?vid=012b9d59-47c7-4faa-ac0c-d91c09e3e027"},"vehicle_type_id":"4","last_reported":1745467975,"current_range_meters":11200,"station_id":"ce4bhah2rcd13ifvqei0","pricing_plan_id":"cebpf4jnsgd1na2vs0mg"},{"bike_id":"6590828e-60a6-4c06-80e1-9a44bd6f3a16","system_id":"levelo_inurba_marseille","lat":43.31376,"lon":5.38496,"is_reserved":false,"is_disabled":false,"rental_uris":{"android":"levelo://app?vid=6590828e-60a6-4c06-80e1-9a44bd6f3a16","ios":"levelo://app?vid=6590828e-60a6-4c06-80e1-9a44bd6f3a16"},"vehicle_type_id":"4","last_reported":1745467975,"current_range_meters":12000,"station_id":"ce4bgt92rcd13ifvqcf0","pricing_plan_id":"cebpf4jnsgd1na2vs0mg"},{"bike_id":"7e168725-4d64-4302-a96b-dfc8d5097467","system_id":"levelo_inurba_marseille","lat":43.31177,"lon":5.38702,"is_reserved":false,"is_disabled":false,"rental_uris":{"android":"levelo://app?vid=7e168725-4d64-4302-a96b-dfc8d5097467","ios":"levelo://app?vid=7e168725-4d64-4302-a96b-dfc8d5097467"},"vehicle_type_id":"4","last_reported":1745467975,"current_range_meters":12000,"station_id":"ce4bgv12rcd13ifvqcp0","pricing_plan_id":"cebpf4jnsgd1na2vs0mg"},{"bike_id":"716b8428-36de-4a4e-bede-3f01e8feff4d","system_id":"levelo_inurba_marseille","lat":43.2799,"lon":5.40037,"is_reserved":false,"is_disabled":false,"rental_uris":{"android":"levelo://app?vid=716b8428-36de-4a4e-bede-3f01e8feff4d","ios":"levelo://app?vid=716b8428-36de-4a4e-bede-3f01e8feff4d"},"vehicle_type_id":"4","last_reported":1745467975,"current_range_meters":12400,"station_id":"ce4bho92rcd13ifvqh4g","pricing_plan_id":"cebpf4jnsgd1na2vs0mg"},{"bike_id":"11ce02ec-5de1-4d28-b35b-b9d2498a4135","system_id":"levelo_inurba_marseille","lat":43.23057,"lon":5.3552,"is_reserved":false,"is_disabled":false,"rental_uris":{"android":"levelo://app?vid=11ce02ec-5de1-4d28-b35b-b9d2498a4135","ios":"levelo://app?vid=11ce02ec-5de1-4d28-b35b-b9d2498a4135"},"vehicle_type_id":"4","last_reported":1745467975,"current_range_meters":12400,"station_id":"cpo3342slgdg3j2ifvpg","pricing_plan_id":"cebpf4jnsgd1na2vs0mg"},{"bike_id":"30e08c8c-a2b6-45d6-9704-9460af4f4d07","system_id":"levelo_inurba_marseille","lat":43.31054,"lon":5.42459,"is_reserved":false,"is_disabled":false,"rental_uris":{"android":"levelo://app?vid=30e08c8c-a2b6-45d6-9704-9460af4f4d07","ios":"levelo://app?vid=30e08c8c-a2b6-45d6-9704-9460af4f4d07"},"vehicle_type_id":"4","last_reported":1745467975,"current_range_meters":12400,"station_id":"ce4bhp92rcd13ifvqhag","pricing_plan_id":"cebpf4jnsgd1na2vs0mg"},{"bike_id":"162104c9-c9c3-41e8-9022-0f16a6a968c6","system_id":"levelo_inurba_marseille","lat":43.330208,"lon":5.390371,"is_reserved":false,"is_disabled":false,"rental_uris":{"android":"levelo://app?vid=162104c9-c9c3-41e8-9022-0f16a6a968c6","ios":"levelo://app?vid=162104c9-c9c3-41e8-9022-0f16a6a968c6"},"vehicle_type_id":"4","last_reported":1745467975,"current_range_meters":12800,"station_id":"ce4bhr92rcd13ifvqhrg","pricing_plan_id":"cebpf4jnsgd1na2vs0mg"},{"bike_id":"433e3771-4c74-457f-96d1-baa3b6ea0d40","system_id":"levelo_inurba_marseille","lat":43.287266,"lon":5.360809,"is_reserved":false,"is_disabled":false,"rental_uris":{"android":"levelo://app?vid=433e3771-4c74-457f-96d1-baa3b6ea0d40","ios":"levelo://app?vid=433e3771-4c74-457f-96d1-baa3b6ea0d40"},"vehicle_type_id":"4","last_reported":1745467975,"current_range_meters":12800,"station_id":"cki0cbj6b192h4jlfktg","pricing_plan_id":"cebpf4jnsgd1na2vs0mg"},{"bike_id":"eaedb804-0e7c-4c63-a1b3-fcbc9ec36df3","system_id":"levelo_inurba_marseille","lat":43.28702,"lon":5.37409,"is_reserved":false,"is_disabled":false,"rental_uris":{"android":"levelo://app?vid=eaedb804-0e7c-4c63-a1b3-fcbc9ec36df3","ios":"levelo://app?vid=eaedb804-0e7c-4c63-a1b3-fcbc9ec36df3"},"vehicle_type_id":"4","last_reported":1745467975,"current_range_meters":12800,"station_id":"ce4bh3p2rcd13ifvqdq0","pricing_plan_id":"cebpf4jnsgd1na2vs0mg"},{"bike_id":"46374c49-3adc-4c5a-8966-e00f056c0d57","system_id":"levelo_inurba_marseille","lat":43.27846,"lon":5.35442,"is_reserved":false,"is_disabled":false,"rental_uris":{"android":"levelo://app?vid=46374c49-3adc-4c5a-8966-e00f056c0d57","ios":"levelo://app?vid=46374c49-3adc-4c5a-8966-e00f056c0d57"},"vehicle_type_id":"4","last_reported":1745467975,"current_range_meters":13600,"station_id":"","pricing_plan_id":"cebpf4jnsgd1na2vs0mg"},{"bike_id":"c31fa7a6-3bef-4b6b-b437-db20cf09ba13","system_id":"levelo_inurba_marseille","lat":43.289393,"lon":5.366309,"is_reserved":false,"is_disabled":false,"rental_uris":{"android":"levelo://app?vid=c31fa7a6-3bef-4b6b-b437-db20cf09ba13","ios":"levelo://app?vid=c31fa7a6-3bef-4b6b-b437-db20cf09ba13"},"vehicle_type_id":"4","last_reported":1745467975,"current_range_meters":13600,"station_id":"ce4bhap2rcd13ifvqek0","pricing_plan_id":"cebpf4jnsgd1na2vs0mg"},{"bike_id":"29b27eb8-5b29-494c-b20a-f027c7d38195","system_id":"levelo_inurba_marseille","lat":43.31328,"lon":5.39707,"is_reserved":false,"is_disabled":false,"rental_uris":{"android":"levelo://app?vid=29b27eb8-5b29-494c-b20a-f027c7d38195","ios":"levelo://app?vid=29b27eb8-5b29-494c-b20a-f027c7d38195"},"vehicle_type_id":"4","last_reported":1745467975,"current_range_meters":13600,"station_id":"ce4bgvp2rcd13ifvqcu0","pricing_plan_id":"cebpf4jnsgd1na2vs0mg"},{"bike_id":"ffba0ba4-4b22-400f-b823-14c1532b754c","system_id":"levelo_inurba_marseille","lat":43.21746,"lon":5.34613,"is_reserved":false,"is_disabled":false,"rental_uris":{"android":"levelo://app?vid=ffba0ba4-4b22-400f-b823-14c1532b754c","ios":"levelo://app?vid=ffba0ba4-4b22-400f-b823-14c1532b754c"},"vehicle_type_id":"4","last_reported":1745467975,"current_range_meters":14000,"station_id":"","pricing_plan_id":"cebpf4jnsgd1na2vs0mg"},{"bike_id":"29c27f6c-b172-4d99-add3-c74bdfc6be20","system_id":"levelo_inurba_marseille","lat":43.33022,"lon":5.3904,"is_reserved":false,"is_disabled":false,"rental_uris":{"android":"levelo://app?vid=29c27f6c-b172-4d99-add3-c74bdfc6be20","ios":"levelo://app?vid=29c27f6c-b172-4d99-add3-c74bdfc6be20"},"vehicle_type_id":"4","last_reported":1745467975,"current_range_meters":14000,"station_id":"ce4bhr92rcd13ifvqhrg","pricing_plan_id":"cebpf4jnsgd1na2vs0mg"},{"bike_id":"bd4f0b28-c324-459c-8482-b4d9162923c5","system_id":"levelo_inurba_marseille","lat":43.28093,"lon":5.378471,"is_reserved":false,"is_disabled":false,"rental_uris":{"android":"levelo://app?vid=bd4f0b28-c324-459c-8482-b4d9162923c5","ios":"levelo://app?vid=bd4f0b28-c324-459c-8482-b4d9162923c5"},"vehicle_type_id":"4","last_reported":1745467975,"current_range_meters":14000,"station_id":"ce4bha12rcd13ifvqee0","pricing_plan_id":"cebpf4jnsgd1na2vs0mg"},{"bike_id":"35b85307-9a55-4a0e-890f-04ab631e7fc2","system_id":"levelo_inurba_marseille","lat":43.309,"lon":5.39601,"is_reserved":false,"is_disabled":false,"rental_uris":{"android":"levelo://app?vid=35b85307-9a55-4a0e-890f-04ab631e7fc2","ios":"levelo://app?vid=35b85307-9a55-4a0e-890f-04ab631e7fc2"},"vehicle_type_id":"4","last_reported":1745467975,"current_range_meters":14000,"station_id":"ce4bh012rcd13ifvqcv0","pricing_plan_id":"cebpf4jnsgd1na2vs0mg"},{"bike_id":"755abc1a-f797-479c-8e88-5f59f436c9d9","system_id":"levelo_inurba_marseille","lat":43.23962,"lon":5.36628,"is_reserved":false,"is_disabled":true,"rental_uris":{"android":"levelo://app?vid=755abc1a-f797-479c-8e88-5f59f436c9d9","ios":"levelo://app?vid=755abc1a-f797-479c-8e88-5f59f436c9d9"},"vehicle_type_id":"4","last_reported":1745467975,"current_range_meters":14000,"station_id":"ce4bhi12rcd13ifvqfp0","pricing_plan_id":"cebpf4jnsgd1na2vs0mg"},{"bike_id":"305a8662-bc62-4326-b66d-c6d8c543cba5","system_id":"levelo_inurba_marseille","lat":43.3117,"lon":5.38732,"is_reserved":false,"is_disabled":false,"rental_uris":{"android":"levelo://app?vid=305a8662-bc62-4326-b66d-c6d8c543cba5","ios":"levelo://app?vid=305a8662-bc62-4326-b66d-c6d8c543cba5"},"vehicle_type_id":"4","last_reported":1745467975,"current_range_meters":14400,"station_id":"ce4bgv12rcd13ifvqcp0","pricing_plan_id":"cebpf4jnsgd1na2vs0mg"},{"bike_id":"7d2633a5-2cb0-46eb-8c00-357bd5fadfef","system_id":"levelo_inurba_marseille","lat":43.25475,"lon":5.37666,"is_reserved":false,"is_disabled":true,"rental_uris":{"android":"levelo://app?vid=7d2633a5-2cb0-46eb-8c00-357bd5fadfef","ios":"levelo://app?vid=7d2633a5-2cb0-46eb-8c00-357bd5fadfef"},"vehicle_type_id":"4","last_reported":1745467975,"current_range_meters":14400,"station_id":"ce4bhh12rcd13ifvqff0","pricing_plan_id":"cebpf4jnsgd1na2vs0mg"},{"bike_id":"06dd8ac2-a46a-4aa4-ad9c-eafec922adfd","system_id":"levelo_inurba_marseille","lat":43.33012,"lon":5.3904,"is_reserved":false,"is_disabled":false,"rental_uris":{"android":"levelo://app?vid=06dd8ac2-a46a-4aa4-ad9c-eafec922adfd","ios":"levelo://app?vid=06dd8ac2-a46a-4aa4-ad9c-eafec922adfd"},"vehicle_type_id":"4","last_reported":1745467975,"current_range_meters":14400,"station_id":"ce4bhr92rcd13ifvqhrg","pricing_plan_id":"cebpf4jnsgd1na2vs0mg"},{"bike_id":"ebf1b236-2bb7-44a9-a6ad-9eab96bd4a12","system_id":"levelo_inurba_marseille","lat":43.28453,"lon":5.35875,"is_reserved":false,"is_disabled":false,"rental_uris":{"android":"levelo://app?vid=ebf1b236-2bb7-44a9-a6ad-9eab96bd4a12","ios":"levelo://app?vid=ebf1b236-2bb7-44a9-a6ad-9eab96bd4a12"},"vehicle_type_id":"4","last_reported":1745467975,"current_range_meters":14400,"station_id":"ce4bhah2rcd13ifvqei0","pricing_plan_id":"cebpf4jnsgd1na2vs0mg"},{"bike_id":"4c4334fd-83c9-4afe-b055-16cf90ed58e3","system_id":"levelo_inurba_marseille","lat":43.31333,"lon":5.39695,"is_reserved":false,"is_disabled":false,"rental_uris":{"android":"levelo://app?vid=4c4334fd-83c9-4afe-b055-16cf90ed58e3","ios":"levelo://app?vid=4c4334fd-83c9-4afe-b055-16cf90ed58e3"},"vehicle_type_id":"4","last_reported":1745467975,"current_range_meters":14400,"station_id":"ce4bgvp2rcd13ifvqcu0","pricing_plan_id":"cebpf4jnsgd1na2vs0mg"},{"bike_id":"a8f81d52-5e6c-4c5e-b13b-df55b6989d86","system_id":"levelo_inurba_marseille","lat":43.30328,"lon":5.37907,"is_reserved":false,"is_disabled":true,"rental_uris":{"android":"levelo://app?vid=a8f81d52-5e6c-4c5e-b13b-df55b6989d86","ios":"levelo://app?vid=a8f81d52-5e6c-4c5e-b13b-df55b6989d86"},"vehicle_type_id":"4","last_reported":1745467975,"current_range_meters":14800,"station_id":"","pricing_plan_id":"cebpf4jnsgd1na2vs0mg"},{"bike_id":"13306d83-ed88-476f-bce6-7a18094c5170","system_id":"levelo_inurba_marseille","lat":43.310716,"lon":5.383463,"is_reserved":false,"is_disabled":false,"rental_uris":{"android":"levelo://app?vid=13306d83-ed88-476f-bce6-7a18094c5170","ios":"levelo://app?vid=13306d83-ed88-476f-bce6-7a18094c5170"},"vehicle_type_id":"4","last_reported":1745467975,"current_range_meters":14800,"station_id":"ce4bgv92rcd13ifvqcr0","pricing_plan_id":"cebpf4jnsgd1na2vs0mg"},{"bike_id":"dfd69b24-961c-414b-a74c-3d3f365a3276","system_id":"levelo_inurba_marseille","lat":43.25811,"lon":5.39422,"is_reserved":false,"is_disabled":false,"rental_uris":{"android":"levelo://app?vid=dfd69b24-961c-414b-a74c-3d3f365a3276","ios":"levelo://app?vid=dfd69b24-961c-414b-a74c-3d3f365a3276"},"vehicle_type_id":"4","last_reported":1745467975,"current_range_meters":14800,"station_id":"ce4bhip2rcd13ifvqft0","pricing_plan_id":"cebpf4jnsgd1na2vs0mg"},{"bike_id":"5f2e326d-ebb6-456a-a343-1d2f4c5df84b","system_id":"levelo_inurba_marseille","lat":43.31225,"lon":5.36859,"is_reserved":false,"is_disabled":false,"rental_uris":{"android":"levelo://app?vid=5f2e326d-ebb6-456a-a343-1d2f4c5df84b","ios":"levelo://app?vid=5f2e326d-ebb6-456a-a343-1d2f4c5df84b"},"vehicle_type_id":"4","last_reported":1745467975,"current_range_meters":15200,"station_id":"ce4bgl92rcd13ifvqbq0","pricing_plan_id":"cebpf4jnsgd1na2vs0mg"},{"bike_id":"415b2609-c0ae-472a-aa20-d8c246fb2a5e","system_id":"levelo_inurba_marseille","lat":43.317035,"lon":5.377594,"is_reserved":false,"is_disabled":false,"rental_uris":{"android":"levelo://app?vid=415b2609-c0ae-472a-aa20-d8c246fb2a5e","ios":"levelo://app?vid=415b2609-c0ae-472a-aa20-d8c246fb2a5e"},"vehicle_type_id":"4","last_reported":1745467975,"current_range_meters":15200,"station_id":"ce4bgth2rcd13ifvqch0","pricing_plan_id":"cebpf4jnsgd1na2vs0mg"},{"bike_id":"8ab2ed8d-364c-4252-a36f-2dad9a4f2a15","system_id":"levelo_inurba_marseille","lat":43.23964,"lon":5.36635,"is_reserved":false,"is_disabled":false,"rental_uris":{"android":"levelo://app?vid=8ab2ed8d-364c-4252-a36f-2dad9a4f2a15","ios":"levelo://app?vid=8ab2ed8d-364c-4252-a36f-2dad9a4f2a15"},"vehicle_type_id":"4","last_reported":1745467975,"current_range_meters":15200,"station_id":"ce4bhi12rcd13ifvqfp0","pricing_plan_id":"cebpf4jnsgd1na2vs0mg"},{"bike_id":"d2f9ab38-d77b-417d-8e17-1403be698e41","system_id":"levelo_inurba_marseille","lat":43.24057,"lon":5.37768,"is_reserved":false,"is_disabled":false,"rental_uris":{"android":"levelo://app?vid=d2f9ab38-d77b-417d-8e17-1403be698e41","ios":"levelo://app?vid=d2f9ab38-d77b-417d-8e17-1403be698e41"},"vehicle_type_id":"4","last_reported":1745467975,"current_range_meters":15200,"station_id":"ce4bhnp2rcd13ifvqgvg","pricing_plan_id":"cebpf4jnsgd1na2vs0mg"},{"bike_id":"8d45bee7-bfce-433b-98c1-8f404b9b27b1","system_id":"levelo_inurba_marseille","lat":43.2993,"lon":5.39786,"is_reserved":false,"is_disabled":false,"rental_uris":{"android":"levelo://app?vid=8d45bee7-bfce-433b-98c1-8f404b9b27b1","ios":"levelo://app?vid=8d45bee7-bfce-433b-98c1-8f404b9b27b1"},"vehicle_type_id":"4","last_reported":1745467975,"current_range_meters":15200,"station_id":"ce4bh0h2rcd13ifvqd50","pricing_plan_id":"cebpf4jnsgd1na2vs0mg"},{"bike_id":"08d8024f-ca85-4aea-8a41-bf3abb5d15c0","system_id":"levelo_inurba_marseille","lat":43.28407,"lon":5.39271,"is_reserved":false,"is_disabled":false,"rental_uris":{"android":"levelo://app?vid=08d8024f-ca85-4aea-8a41-bf3abb5d15c0","ios":"levelo://app?vid=08d8024f-ca85-4aea-8a41-bf3abb5d15c0"},"vehicle_type_id":"4","last_reported":1745467975,"current_range_meters":15200,"station_id":"ce4bhoh2rcd13ifvqh5g","pricing_plan_id":"cebpf4jnsgd1na2vs0mg"},{"bike_id":"3f0168a4-867a-4a92-946b-96a59dc111ac","system_id":"levelo_inurba_marseille","lat":43.30144,"lon":5.38068,"is_reserved":false,"is_disabled":false,"rental_uris":{"android":"levelo://app?vid=3f0168a4-867a-4a92-946b-96a59dc111ac","ios":"levelo://app?vid=3f0168a4-867a-4a92-946b-96a59dc111ac"},"vehicle_type_id":"4","last_reported":1745467975,"current_range_meters":15200,"station_id":"ce4bgjp2rcd13ifvqbh0","pricing_plan_id":"cebpf4jnsgd1na2vs0mg"},{"bike_id":"87873093-27f5-49a2-8c34-ddd2205add84","system_id":"levelo_inurba_marseille","lat":43.284801,"lon":5.384333,"is_reserved":false,"is_disabled":true,"rental_uris":{"android":"levelo://app?vid=87873093-27f5-49a2-8c34-ddd2205add84","ios":"levelo://app?vid=87873093-27f5-49a2-8c34-ddd2205add84"},"vehicle_type_id":"4","last_reported":1745467975,"current_range_meters":16000,"station_id":"ce4bh512rcd13ifvqe3g","pricing_plan_id":"cebpf4jnsgd1na2vs0mg"},{"bike_id":"6b11b64e-78f5-4f05-8c63-c592e726ebe8","system_id":"levelo_inurba_marseille","lat":43.25118,"lon":5.40321,"is_reserved":false,"is_disabled":false,"rental_uris":{"android":"levelo://app?vid=6b11b64e-78f5-4f05-8c63-c592e726ebe8","ios":"levelo://app?vid=6b11b64e-78f5-4f05-8c63-c592e726ebe8"},"vehicle_type_id":"4","last_reported":1745467975,"current_range_meters":16000,"station_id":"ce4bhlh2rcd13ifvqgig","pricing_plan_id":"cebpf4jnsgd1na2vs0mg"},{"bike_id":"788f87a8-7cec-4429-95b8-581f88103984","system_id":"levelo_inurba_marseille","lat":43.313295,"lon":5.396953,"is_reserved":false,"is_disabled":false,"rental_uris":{"android":"levelo://app?vid=788f87a8-7cec-4429-95b8-581f88103984","ios":"levelo://app?vid=788f87a8-7cec-4429-95b8-581f88103984"},"vehicle_type_id":"4","last_reported":1745467975,"current_range_meters":16000,"station_id":"ce4bgvp2rcd13ifvqcu0","pricing_plan_id":"cebpf4jnsgd1na2vs0mg"},{"bike_id":"b217c7a4-92b6-4872-91fa-f2c2827250cc","system_id":"levelo_inurba_marseille","lat":43.288338,"lon":5.392343,"is_reserved":false,"is_disabled":false,"rental_uris":{"android":"levelo://app?vid=b217c7a4-92b6-4872-91fa-f2c2827250cc","ios":"levelo://app?vid=b217c7a4-92b6-4872-91fa-f2c2827250cc"},"vehicle_type_id":"4","last_reported":1745467975,"current_range_meters":16000,"station_id":"","pricing_plan_id":"cebpf4jnsgd1na2vs0mg"},{"bike_id":"fa8a552a-d2d3-4e8d-8d8e-02bdba037836","system_id":"levelo_inurba_marseille","lat":43.23039,"lon":5.35524,"is_reserved":false,"is_disabled":false,"rental_uris":{"android":"levelo://app?vid=fa8a552a-d2d3-4e8d-8d8e-02bdba037836","ios":"levelo://app?vid=fa8a552a-d2d3-4e8d-8d8e-02bdba037836"},"vehicle_type_id":"4","last_reported":1745467975,"current_range_meters":16000,"station_id":"cpo3342slgdg3j2ifvpg","pricing_plan_id":"cebpf4jnsgd1na2vs0mg"},{"bike_id":"bb64812a-8229-4b0a-ac25-77aa4fd66202","system_id":"levelo_inurba_marseille","lat":43.287,"lon":5.36105,"is_reserved":false,"is_disabled":false,"rental_uris":{"android":"levelo://app?vid=bb64812a-8229-4b0a-ac25-77aa4fd66202","ios":"levelo://app?vid=bb64812a-8229-4b0a-ac25-77aa4fd66202"},"vehicle_type_id":"4","last_reported":1745467975,"current_range_meters":16000,"station_id":"cki0cbj6b192h4jlfktg","pricing_plan_id":"cebpf4jnsgd1na2vs0mg"},{"bike_id":"708f6555-490b-40d4-a032-87f825a452ce","system_id":"levelo_inurba_marseille","lat":43.28023,"lon":5.3693,"is_reserved":false,"is_disabled":false,"rental_uris":{"android":"levelo://app?vid=708f6555-490b-40d4-a032-87f825a452ce","ios":"levelo://app?vid=708f6555-490b-40d4-a032-87f825a452ce"},"vehicle_type_id":"4","last_reported":1745467975,"current_range_meters":16400,"station_id":"ce4bha12rcd13ifvqef0","pricing_plan_id":"cebpf4jnsgd1na2vs0mg"},{"bike_id":"8dff3327-c704-4870-8401-73b9c1029785","system_id":"levelo_inurba_marseille","lat":43.25857,"lon":5.39908,"is_reserved":false,"is_disabled":true,"rental_uris":{"android":"levelo://app?vid=8dff3327-c704-4870-8401-73b9c1029785","ios":"levelo://app?vid=8dff3327-c704-4870-8401-73b9c1029785"},"vehicle_type_id":"4","last_reported":1745467975,"current_range_meters":16400,"station_id":"ce4bhl92rcd13ifvqghg","pricing_plan_id":"cebpf4jnsgd1na2vs0mg"},{"bike_id":"6d4d4cae-c0ce-4d66-94ac-cdce6c4dcd48","system_id":"levelo_inurba_marseille","lat":43.25707,"lon":5.41052,"is_reserved":false,"is_disabled":false,"rental_uris":{"android":"levelo://app?vid=6d4d4cae-c0ce-4d66-94ac-cdce6c4dcd48","ios":"levelo://app?vid=6d4d4cae-c0ce-4d66-94ac-cdce6c4dcd48"},"vehicle_type_id":"4","last_reported":1745467975,"current_range_meters":16400,"station_id":"ce4bhkp2rcd13ifvqgd0","pricing_plan_id":"cebpf4jnsgd1na2vs0mg"},{"bike_id":"6a1b385f-4c37-4399-89d8-2a1bce2af65b","system_id":"levelo_inurba_marseille","lat":43.337266,"lon":5.391796,"is_reserved":false,"is_disabled":false,"rental_uris":{"android":"levelo://app?vid=6a1b385f-4c37-4399-89d8-2a1bce2af65b","ios":"levelo://app?vid=6a1b385f-4c37-4399-89d8-2a1bce2af65b"},"vehicle_type_id":"4","last_reported":1745467975,"current_range_meters":16400,"station_id":"ce4bhr92rcd13ifvqhsg","pricing_plan_id":"cebpf4jnsgd1na2vs0mg"},{"bike_id":"caef2552-e2e3-41e9-a827-ac546470c0d7","system_id":"levelo_inurba_marseille","lat":43.23145,"lon":5.43715,"is_reserved":false,"is_disabled":false,"rental_uris":{"android":"levelo://app?vid=caef2552-e2e3-41e9-a827-ac546470c0d7","ios":"levelo://app?vid=caef2552-e2e3-41e9-a827-ac546470c0d7"},"vehicle_type_id":"4","last_reported":1745467975,"current_range_meters":16400,"station_id":"ce4bhmp2rcd13ifvqgog","pricing_plan_id":"cebpf4jnsgd1na2vs0mg"},{"bike_id":"bd14c086-b21e-4360-b45c-7cb79e1d9f0e","system_id":"levelo_inurba_marseille","lat":43.310752,"lon":5.383524,"is_reserved":false,"is_disabled":false,"rental_uris":{"android":"levelo://app?vid=bd14c086-b21e-4360-b45c-7cb79e1d9f0e","ios":"levelo://app?vid=bd14c086-b21e-4360-b45c-7cb79e1d9f0e"},"vehicle_type_id":"4","last_reported":1745467975,"current_range_meters":16400,"station_id":"ce4bgv92rcd13ifvqcr0","pricing_plan_id":"cebpf4jnsgd1na2vs0mg"},{"bike_id":"70f58000-b46f-4dea-9403-90f0fe1a02d2","system_id":"levelo_inurba_marseille","lat":43.2868,"lon":5.37412,"is_reserved":false,"is_disabled":false,"rental_uris":{"android":"levelo://app?vid=70f58000-b46f-4dea-9403-90f0fe1a02d2","ios":"levelo://app?vid=70f58000-b46f-4dea-9403-90f0fe1a02d2"},"vehicle_type_id":"4","last_reported":1745467975,"current_range_meters":16800,"station_id":"ce4bh3p2rcd13ifvqdq0","pricing_plan_id":"cebpf4jnsgd1na2vs0mg"},{"bike_id":"790dfe92-c557-4747-b888-16b9e5499646","system_id":"levelo_inurba_marseille","lat":43.3112,"lon":5.37768,"is_reserved":false,"is_disabled":false,"rental_uris":{"android":"levelo://app?vid=790dfe92-c557-4747-b888-16b9e5499646","ios":"levelo://app?vid=790dfe92-c557-4747-b888-16b9e5499646"},"vehicle_type_id":"4","last_reported":1745467975,"current_range_meters":16800,"station_id":"ce4bgt92rcd13ifvqcg0","pricing_plan_id":"cebpf4jnsgd1na2vs0mg"},{"bike_id":"c5260414-53ea-4c4b-84bd-1a38f855ebd9","system_id":"levelo_inurba_marseille","lat":43.310719,"lon":5.383573,"is_reserved":false,"is_disabled":true,"rental_uris":{"android":"levelo://app?vid=c5260414-53ea-4c4b-84bd-1a38f855ebd9","ios":"levelo://app?vid=c5260414-53ea-4c4b-84bd-1a38f855ebd9"},"vehicle_type_id":"4","last_reported":1745467975,"current_range_meters":16800,"station_id":"ce4bgv92rcd13ifvqcr0","pricing_plan_id":"cebpf4jnsgd1na2vs0mg"},{"bike_id":"6fa93a30-9477-472b-911d-f334fbcc0d65","system_id":"levelo_inurba_marseille","lat":43.3014,"lon":5.38803,"is_reserved":false,"is_disabled":true,"rental_uris":{"android":"levelo://app?vid=6fa93a30-9477-472b-911d-f334fbcc0d65","ios":"levelo://app?vid=6fa93a30-9477-472b-911d-f334fbcc0d65"},"vehicle_type_id":"4","last_reported":1745467975,"current_range_meters":16800,"station_id":"ce4bghh2rcd13ifvqb60","pricing_plan_id":"cebpf4jnsgd1na2vs0mg"},{"bike_id":"012d427e-5fec-42c5-b238-37bf14aab56b","system_id":"levelo_inurba_marseille","lat":43.31319,"lon":5.39709,"is_reserved":false,"is_disabled":false,"rental_uris":{"android":"levelo://app?vid=012d427e-5fec-42c5-b238-37bf14aab56b","ios":"levelo://app?vid=012d427e-5fec-42c5-b238-37bf14aab56b"},"vehicle_type_id":"4","last_reported":1745467975,"current_range_meters":16800,"station_id":"ce4bgvp2rcd13ifvqcu0","pricing_plan_id":"cebpf4jnsgd1na2vs0mg"},{"bike_id":"4f68919f-000c-4a19-8495-0f5b6db98860","system_id":"levelo_inurba_marseille","lat":43.246638,"lon":5.38158,"is_reserved":false,"is_disabled":false,"rental_uris":{"android":"levelo://app?vid=4f68919f-000c-4a19-8495-0f5b6db98860","ios":"levelo://app?vid=4f68919f-000c-4a19-8495-0f5b6db98860"},"vehicle_type_id":"4","last_reported":1745467975,"current_range_meters":17200,"station_id":"ce4bhih2rcd13ifvqfr0","pricing_plan_id":"cebpf4jnsgd1na2vs0mg"},{"bike_id":"007b8d99-d89d-47a6-9fef-850944abb7db","system_id":"levelo_inurba_marseille","lat":43.3116,"lon":5.38727,"is_reserved":false,"is_disabled":false,"rental_uris":{"android":"levelo://app?vid=007b8d99-d89d-47a6-9fef-850944abb7db","ios":"levelo://app?vid=007b8d99-d89d-47a6-9fef-850944abb7db"},"vehicle_type_id":"4","last_reported":1745467975,"current_range_meters":17200,"station_id":"ce4bgv12rcd13ifvqcp0","pricing_plan_id":"cebpf4jnsgd1na2vs0mg"},{"bike_id":"5dd12b3b-eef7-4dab-a6de-2ed4ff99da38","system_id":"levelo_inurba_marseille","lat":43.290269,"lon":5.375483,"is_reserved":false,"is_disabled":true,"rental_uris":{"android":"levelo://app?vid=5dd12b3b-eef7-4dab-a6de-2ed4ff99da38","ios":"levelo://app?vid=5dd12b3b-eef7-4dab-a6de-2ed4ff99da38"},"vehicle_type_id":"4","last_reported":1745467975,"current_range_meters":17200,"station_id":"ce4bh692rcd13ifvqe90","pricing_plan_id":"cebpf4jnsgd1na2vs0mg"},{"bike_id":"ab660249-0742-4ee6-9f3c-cbf7eabd0145","system_id":"levelo_inurba_marseille","lat":43.28604,"lon":5.37082,"is_reserved":false,"is_disabled":false,"rental_uris":{"android":"levelo://app?vid=ab660249-0742-4ee6-9f3c-cbf7eabd0145","ios":"levelo://app?vid=ab660249-0742-4ee6-9f3c-cbf7eabd0145"},"vehicle_type_id":"4","last_reported":1745467975,"current_range_meters":17200,"station_id":"ce4bht12rcd13ifvqi60","pricing_plan_id":"cebpf4jnsgd1na2vs0mg"},{"bike_id":"2655adba-5bd9-4da0-8cd3-5bc0123170f2","system_id":"levelo_inurba_marseille","lat":43.31364,"lon":5.38496,"is_reserved":false,"is_disabled":false,"rental_uris":{"android":"levelo://app?vid=2655adba-5bd9-4da0-8cd3-5bc0123170f2","ios":"levelo://app?vid=2655adba-5bd9-4da0-8cd3-5bc0123170f2"},"vehicle_type_id":"4","last_reported":1745467975,"current_range_meters":17200,"station_id":"ce4bgt92rcd13ifvqcf0","pricing_plan_id":"cebpf4jnsgd1na2vs0mg"},{"bike_id":"890ad4cd-fa56-473a-9b75-9a62637c50dc","system_id":"levelo_inurba_marseille","lat":43.326612,"lon":5.367123,"is_reserved":false,"is_disabled":false,"rental_uris":{"android":"levelo://app?vid=890ad4cd-fa56-473a-9b75-9a62637c50dc","ios":"levelo://app?vid=890ad4cd-fa56-473a-9b75-9a62637c50dc"},"vehicle_type_id":"4","last_reported":1745467975,"current_range_meters":17200,"station_id":"","pricing_plan_id":"cebpf4jnsgd1na2vs0mg"},{"bike_id":"e139658a-7edf-4768-8598-e719cf4aa58a","system_id":"levelo_inurba_marseille","lat":43.292521,"lon":5.409069,"is_reserved":false,"is_disabled":false,"rental_uris":{"android":"levelo://app?vid=e139658a-7edf-4768-8598-e719cf4aa58a","ios":"levelo://app?vid=e139658a-7edf-4768-8598-e719cf4aa58a"},"vehicle_type_id":"4","last_reported":1745467975,"current_range_meters":17200,"station_id":"ce4bh192rcd13ifvqdc0","pricing_plan_id":"cebpf4jnsgd1na2vs0mg"},{"bike_id":"d99abc64-fc5e-4365-b2fd-7591e88627e8","system_id":"levelo_inurba_marseille","lat":43.313584,"lon":5.384999,"is_reserved":false,"is_disabled":false,"rental_uris":{"android":"levelo://app?vid=d99abc64-fc5e-4365-b2fd-7591e88627e8","ios":"levelo://app?vid=d99abc64-fc5e-4365-b2fd-7591e88627e8"},"vehicle_type_id":"4","last_reported":1745467975,"current_range_meters":17200,"station_id":"ce4bgt92rcd13ifvqcf0","pricing_plan_id":"cebpf4jnsgd1na2vs0mg"},{"bike_id":"19b1e669-c0ec-46a9-8c21-4f491a13468c","system_id":"levelo_inurba_marseille","lat":43.29513,"lon":5.38579,"is_reserved":false,"is_disabled":true,"rental_uris":{"android":"levelo://app?vid=19b1e669-c0ec-46a9-8c21-4f491a13468c","ios":"levelo://app?vid=19b1e669-c0ec-46a9-8c21-4f491a13468c"},"vehicle_type_id":"4","last_reported":1745467975,"current_range_meters":17600,"station_id":"ce4bgih2rcd13ifvqba0","pricing_plan_id":"cebpf4jnsgd1na2vs0mg"},{"bike_id":"6d51da42-143e-4c42-8c35-29bec0272d31","system_id":"levelo_inurba_marseille","lat":43.279946,"lon":5.40025,"is_reserved":false,"is_disabled":false,"rental_uris":{"android":"levelo://app?vid=6d51da42-143e-4c42-8c35-29bec0272d31","ios":"levelo://app?vid=6d51da42-143e-4c42-8c35-29bec0272d31"},"vehicle_type_id":"4","last_reported":1745467975,"current_range_meters":17600,"station_id":"ce4bho92rcd13ifvqh4g","pricing_plan_id":"cebpf4jnsgd1na2vs0mg"},{"bike_id":"c8cc5bc6-4aee-4811-8513-2b242b7ce89b","system_id":"levelo_inurba_marseille","lat":43.23194,"lon":5.3555,"is_reserved":false,"is_disabled":false,"rental_uris":{"android":"levelo://app?vid=c8cc5bc6-4aee-4811-8513-2b242b7ce89b","ios":"levelo://app?vid=c8cc5bc6-4aee-4811-8513-2b242b7ce89b"},"vehicle_type_id":"4","last_reported":1745467975,"current_range_meters":17600,"station_id":"ce4bhu92rcd13ifvqi70","pricing_plan_id":"cebpf4jnsgd1na2vs0mg"},{"bike_id":"0a2f3df2-be5d-47f7-97b1-3871d48b5243","system_id":"levelo_inurba_marseille","lat":43.28462,"lon":5.35875,"is_reserved":false,"is_disabled":false,"rental_uris":{"android":"levelo://app?vid=0a2f3df2-be5d-47f7-97b1-3871d48b5243","ios":"levelo://app?vid=0a2f3df2-be5d-47f7-97b1-3871d48b5243"},"vehicle_type_id":"4","last_reported":1745467975,"current_range_meters":17600,"station_id":"ce4bhah2rcd13ifvqei0","pricing_plan_id":"cebpf4jnsgd1na2vs0mg"},{"bike_id":"cd906bce-52be-45be-8f08-cdeb623de131","system_id":"levelo_inurba_marseille","lat":43.281848,"lon":5.403761,"is_reserved":false,"is_disabled":false,"rental_uris":{"android":"levelo://app?vid=cd906bce-52be-45be-8f08-cdeb623de131","ios":"levelo://app?vid=cd906bce-52be-45be-8f08-cdeb623de131"},"vehicle_type_id":"4","last_reported":1745467975,"current_range_meters":18000,"station_id":"","pricing_plan_id":"cebpf4jnsgd1na2vs0mg"},{"bike_id":"83ce8635-e014-4d4b-b4bb-5f7a1fac789e","system_id":"levelo_inurba_marseille","lat":43.266895,"lon":5.382771,"is_reserved":false,"is_disabled":true,"rental_uris":{"android":"levelo://app?vid=83ce8635-e014-4d4b-b4bb-5f7a1fac789e","ios":"levelo://app?vid=83ce8635-e014-4d4b-b4bb-5f7a1fac789e"},"vehicle_type_id":"4","last_reported":1745467975,"current_range_meters":18000,"station_id":"ce4bhg92rcd13ifvqf90","pricing_plan_id":"cebpf4jnsgd1na2vs0mg"},{"bike_id":"ea107142-e81c-4f3d-9c73-3f6b6ac7d604","system_id":"levelo_inurba_marseille","lat":43.278103,"lon":5.407257,"is_reserved":false,"is_disabled":false,"rental_uris":{"android":"levelo://app?vid=ea107142-e81c-4f3d-9c73-3f6b6ac7d604","ios":"levelo://app?vid=ea107142-e81c-4f3d-9c73-3f6b6ac7d604"},"vehicle_type_id":"4","last_reported":1745467975,"current_range_meters":18000,"station_id":"ce4bhnh2rcd13ifvqgtg","pricing_plan_id":"cebpf4jnsgd1na2vs0mg"},{"bike_id":"ab8406b2-4f8d-4381-8821-3db52b0a4d4d","system_id":"levelo_inurba_marseille","lat":43.27355,"lon":5.3783,"is_reserved":false,"is_disabled":false,"rental_uris":{"android":"levelo://app?vid=ab8406b2-4f8d-4381-8821-3db52b0a4d4d","ios":"levelo://app?vid=ab8406b2-4f8d-4381-8821-3db52b0a4d4d"},"vehicle_type_id":"4","last_reported":1745467975,"current_range_meters":18000,"station_id":"","pricing_plan_id":"cebpf4jnsgd1na2vs0mg"},{"bike_id":"fbae3d13-4305-4309-b90d-8310a9527283","system_id":"levelo_inurba_marseille","lat":43.30757,"lon":5.37681,"is_reserved":false,"is_disabled":false,"rental_uris":{"android":"levelo://app?vid=fbae3d13-4305-4309-b90d-8310a9527283","ios":"levelo://app?vid=fbae3d13-4305-4309-b90d-8310a9527283"},"vehicle_type_id":"4","last_reported":1745467975,"current_range_meters":18000,"station_id":"ce4bgv92rcd13ifvqcq0","pricing_plan_id":"cebpf4jnsgd1na2vs0mg"},{"bike_id":"504b5f4c-cd96-44de-88d9-502ab54ae044","system_id":"levelo_inurba_marseille","lat":43.25496,"lon":5.37651,"is_reserved":false,"is_disabled":false,"rental_uris":{"android":"levelo://app?vid=504b5f4c-cd96-44de-88d9-502ab54ae044","ios":"levelo://app?vid=504b5f4c-cd96-44de-88d9-502ab54ae044"},"vehicle_type_id":"4","last_reported":1745467975,"current_range_meters":18000,"station_id":"ce4bhh12rcd13ifvqff0","pricing_plan_id":"cebpf4jnsgd1na2vs0mg"},{"bike_id":"05789d63-1a14-4489-aad6-4361ab4352d6","system_id":"levelo_inurba_marseille","lat":43.31337,"lon":5.39701,"is_reserved":false,"is_disabled":false,"rental_uris":{"android":"levelo://app?vid=05789d63-1a14-4489-aad6-4361ab4352d6","ios":"levelo://app?vid=05789d63-1a14-4489-aad6-4361ab4352d6"},"vehicle_type_id":"4","last_reported":1745467975,"current_range_meters":18000,"station_id":"ce4bgvp2rcd13ifvqcu0","pricing_plan_id":"cebpf4jnsgd1na2vs0mg"},{"bike_id":"cadd2a19-c37c-493d-b003-1c5753f859f2","system_id":"levelo_inurba_marseille","lat":43.305502,"lon":5.38429,"is_reserved":false,"is_disabled":true,"rental_uris":{"android":"levelo://app?vid=cadd2a19-c37c-493d-b003-1c5753f859f2","ios":"levelo://app?vid=cadd2a19-c37c-493d-b003-1c5753f859f2"},"vehicle_type_id":"4","last_reported":1745467975,"current_range_meters":18800,"station_id":"ce4bgg92rcd13ifvqb30","pricing_plan_id":"cebpf4jnsgd1na2vs0mg"},{"bike_id":"47190e3f-b500-4537-a213-0b80afe51449","system_id":"levelo_inurba_marseille","lat":43.24664,"lon":5.38162,"is_reserved":false,"is_disabled":false,"rental_uris":{"android":"levelo://app?vid=47190e3f-b500-4537-a213-0b80afe51449","ios":"levelo://app?vid=47190e3f-b500-4537-a213-0b80afe51449"},"vehicle_type_id":"4","last_reported":1745467975,"current_range_meters":18800,"station_id":"ce4bhih2rcd13ifvqfr0","pricing_plan_id":"cebpf4jnsgd1na2vs0mg"},{"bike_id":"f91a33e0-c093-4eda-8d2d-0b7850edc5d9","system_id":"levelo_inurba_marseille","lat":43.31173,"lon":5.38718,"is_reserved":false,"is_disabled":false,"rental_uris":{"android":"levelo://app?vid=f91a33e0-c093-4eda-8d2d-0b7850edc5d9","ios":"levelo://app?vid=f91a33e0-c093-4eda-8d2d-0b7850edc5d9"},"vehicle_type_id":"4","last_reported":1745467975,"current_range_meters":18800,"station_id":"ce4bgv12rcd13ifvqcp0","pricing_plan_id":"cebpf4jnsgd1na2vs0mg"},{"bike_id":"96f95ec8-2ec8-4f85-847e-9992741b9ee1","system_id":"levelo_inurba_marseille","lat":43.310693,"lon":5.383472,"is_reserved":false,"is_disabled":false,"rental_uris":{"android":"levelo://app?vid=96f95ec8-2ec8-4f85-847e-9992741b9ee1","ios":"levelo://app?vid=96f95ec8-2ec8-4f85-847e-9992741b9ee1"},"vehicle_type_id":"4","last_reported":1745467975,"current_range_meters":18800,"station_id":"ce4bgv92rcd13ifvqcr0","pricing_plan_id":"cebpf4jnsgd1na2vs0mg"},{"bike_id":"7a38cd50-7a93-4627-806c-1a69d66aceb3","system_id":"levelo_inurba_marseille","lat":43.3079,"lon":5.43539,"is_reserved":false,"is_disabled":false,"rental_uris":{"android":"levelo://app?vid=7a38cd50-7a93-4627-806c-1a69d66aceb3","ios":"levelo://app?vid=7a38cd50-7a93-4627-806c-1a69d66aceb3"},"vehicle_type_id":"4","last_reported":1745467975,"current_range_meters":18800,"station_id":"ce4bhph2rcd13ifvqheg","pricing_plan_id":"cebpf4jnsgd1na2vs0mg"},{"bike_id":"a5ccf778-40c7-43d1-8d46-99c2c68b3f38","system_id":"levelo_inurba_marseille","lat":43.28462,"lon":5.35893,"is_reserved":false,"is_disabled":false,"rental_uris":{"android":"levelo://app?vid=a5ccf778-40c7-43d1-8d46-99c2c68b3f38","ios":"levelo://app?vid=a5ccf778-40c7-43d1-8d46-99c2c68b3f38"},"vehicle_type_id":"4","last_reported":1745467975,"current_range_meters":19200,"station_id":"ce4bhah2rcd13ifvqei0","pricing_plan_id":"cebpf4jnsgd1na2vs0mg"},{"bike_id":"e0475622-ca3c-4cc9-8273-63b58a33d69d","system_id":"levelo_inurba_marseille","lat":43.31713,"lon":5.43699,"is_reserved":false,"is_disabled":false,"rental_uris":{"android":"levelo://app?vid=e0475622-ca3c-4cc9-8273-63b58a33d69d","ios":"levelo://app?vid=e0475622-ca3c-4cc9-8273-63b58a33d69d"},"vehicle_type_id":"4","last_reported":1745467975,"current_range_meters":19200,"station_id":"ce4bhp92rcd13ifvqhcg","pricing_plan_id":"cebpf4jnsgd1na2vs0mg"},{"bike_id":"129ea9c4-35d8-4d8a-97f1-d90eefdd4cf8","system_id":"levelo_inurba_marseille","lat":43.29193,"lon":5.39325,"is_reserved":false,"is_disabled":true,"rental_uris":{"android":"levelo://app?vid=129ea9c4-35d8-4d8a-97f1-d90eefdd4cf8","ios":"levelo://app?vid=129ea9c4-35d8-4d8a-97f1-d90eefdd4cf8"},"vehicle_type_id":"4","last_reported":1745467975,"current_range_meters":19200,"station_id":"ce4bh192rcd13ifvqdd0","pricing_plan_id":"cebpf4jnsgd1na2vs0mg"},{"bike_id":"9ce9ed10-eeed-4d45-8f84-41863276a87d","system_id":"levelo_inurba_marseille","lat":43.28866,"lon":5.35842,"is_reserved":false,"is_disabled":false,"rental_uris":{"android":"levelo://app?vid=9ce9ed10-eeed-4d45-8f84-41863276a87d","ios":"levelo://app?vid=9ce9ed10-eeed-4d45-8f84-41863276a87d"},"vehicle_type_id":"4","last_reported":1745467975,"current_range_meters":19200,"station_id":"ce4bhb12rcd13ifvqem0","pricing_plan_id":"cebpf4jnsgd1na2vs0mg"},{"bike_id":"30da752e-5450-4da3-965e-773778ce5d7d","system_id":"levelo_inurba_marseille","lat":43.24161,"lon":5.36434,"is_reserved":false,"is_disabled":false,"rental_uris":{"android":"levelo://app?vid=30da752e-5450-4da3-965e-773778ce5d7d","ios":"levelo://app?vid=30da752e-5450-4da3-965e-773778ce5d7d"},"vehicle_type_id":"4","last_reported":1745467975,"current_range_meters":19200,"station_id":"cpo36qri1sfpv3e86is0","pricing_plan_id":"cebpf4jnsgd1na2vs0mg"},{"bike_id":"4ef7e880-bca1-43f3-9034-4c5185e15e3c","system_id":"levelo_inurba_marseille","lat":43.30277,"lon":5.40036,"is_reserved":false,"is_disabled":false,"rental_uris":{"android":"levelo://app?vid=4ef7e880-bca1-43f3-9034-4c5185e15e3c","ios":"levelo://app?vid=4ef7e880-bca1-43f3-9034-4c5185e15e3c"},"vehicle_type_id":"4","last_reported":1745467975,"current_range_meters":19200,"station_id":"ce4bgvh2rcd13ifvqcs0","pricing_plan_id":"cebpf4jnsgd1na2vs0mg"},{"bike_id":"6f8110d9-0891-4a33-8a98-df34fa3c7719","system_id":"levelo_inurba_marseille","lat":43.295511,"lon":5.422888,"is_reserved":false,"is_disabled":false,"rental_uris":{"android":"levelo://app?vid=6f8110d9-0891-4a33-8a98-df34fa3c7719","ios":"levelo://app?vid=6f8110d9-0891-4a33-8a98-df34fa3c7719"},"vehicle_type_id":"4","last_reported":1745467975,"current_range_meters":19200,"station_id":"ce4bhph2rcd13ifvqhdg","pricing_plan_id":"cebpf4jnsgd1na2vs0mg"},{"bike_id":"73f40cff-bb71-4b7a-8ad7-f06c69fb0596","system_id":"levelo_inurba_marseille","lat":43.21195,"lon":5.35073,"is_reserved":false,"is_disabled":false,"rental_uris":{"android":"levelo://app?vid=73f40cff-bb71-4b7a-8ad7-f06c69fb0596","ios":"levelo://app?vid=73f40cff-bb71-4b7a-8ad7-f06c69fb0596"},"vehicle_type_id":"4","last_reported":1745467975,"current_range_meters":19600,"station_id":"st_cvj6sg6p6f1abm77japg","pricing_plan_id":"cebpf4jnsgd1na2vs0mg"},{"bike_id":"e2dcabcf-64d8-4394-bb9a-ff877bee611a","system_id":"levelo_inurba_marseille","lat":43.32043,"lon":5.4156,"is_reserved":false,"is_disabled":false,"rental_uris":{"android":"levelo://app?vid=e2dcabcf-64d8-4394-bb9a-ff877bee611a","ios":"levelo://app?vid=e2dcabcf-64d8-4394-bb9a-ff877bee611a"},"vehicle_type_id":"4","last_reported":1745467975,"current_range_meters":19600,"station_id":"ce4bhq92rcd13ifvqhkg","pricing_plan_id":"cebpf4jnsgd1na2vs0mg"},{"bike_id":"371d6345-ea86-4502-aa1e-73f213dac220","system_id":"levelo_inurba_marseille","lat":43.2788,"lon":5.38034,"is_reserved":false,"is_disabled":false,"rental_uris":{"android":"levelo://app?vid=371d6345-ea86-4502-aa1e-73f213dac220","ios":"levelo://app?vid=371d6345-ea86-4502-aa1e-73f213dac220"},"vehicle_type_id":"4","last_reported":1745467975,"current_range_meters":20000,"station_id":"ce4bhf92rcd13ifvqf50","pricing_plan_id":"cebpf4jnsgd1na2vs0mg"},{"bike_id":"3e17723d-5d2c-43fb-a55f-770e9c1b3f7b","system_id":"levelo_inurba_marseille","lat":43.310706,"lon":5.383468,"is_reserved":false,"is_disabled":false,"rental_uris":{"android":"levelo://app?vid=3e17723d-5d2c-43fb-a55f-770e9c1b3f7b","ios":"levelo://app?vid=3e17723d-5d2c-43fb-a55f-770e9c1b3f7b"},"vehicle_type_id":"4","last_reported":1745467975,"current_range_meters":20000,"station_id":"ce4bgv92rcd13ifvqcr0","pricing_plan_id":"cebpf4jnsgd1na2vs0mg"},{"bike_id":"a823ec9d-7d2e-4894-8bcc-79b308d25452","system_id":"levelo_inurba_marseille","lat":43.33715,"lon":5.39185,"is_reserved":false,"is_disabled":false,"rental_uris":{"android":"levelo://app?vid=a823ec9d-7d2e-4894-8bcc-79b308d25452","ios":"levelo://app?vid=a823ec9d-7d2e-4894-8bcc-79b308d25452"},"vehicle_type_id":"4","last_reported":1745467975,"current_range_meters":20000,"station_id":"ce4bhr92rcd13ifvqhsg","pricing_plan_id":"cebpf4jnsgd1na2vs0mg"},{"bike_id":"dc44daf3-15ba-4ec8-a038-6b6b7f6a4d2b","system_id":"levelo_inurba_marseille","lat":43.274916,"lon":5.424691,"is_reserved":false,"is_disabled":false,"rental_uris":{"android":"levelo://app?vid=dc44daf3-15ba-4ec8-a038-6b6b7f6a4d2b","ios":"levelo://app?vid=dc44daf3-15ba-4ec8-a038-6b6b7f6a4d2b"},"vehicle_type_id":"4","last_reported":1745467975,"current_range_meters":20000,"station_id":"ce4bhn92rcd13ifvqgrg","pricing_plan_id":"cebpf4jnsgd1na2vs0mg"},{"bike_id":"2ddb7626-06dc-4abf-976e-19ce121be91c","system_id":"levelo_inurba_marseille","lat":43.317,"lon":5.37779,"is_reserved":false,"is_disabled":false,"rental_uris":{"android":"levelo://app?vid=2ddb7626-06dc-4abf-976e-19ce121be91c","ios":"levelo://app?vid=2ddb7626-06dc-4abf-976e-19ce121be91c"},"vehicle_type_id":"4","last_reported":1745467975,"current_range_meters":20000,"station_id":"ce4bgth2rcd13ifvqch0","pricing_plan_id":"cebpf4jnsgd1na2vs0mg"},{"bike_id":"b0f845e7-d012-41b0-b1e3-cdd72e7e882b","system_id":"levelo_inurba_marseille","lat":43.30669,"lon":5.40077,"is_reserved":false,"is_disabled":false,"rental_uris":{"android":"levelo://app?vid=b0f845e7-d012-41b0-b1e3-cdd72e7e882b","ios":"levelo://app?vid=b0f845e7-d012-41b0-b1e3-cdd72e7e882b"},"vehicle_type_id":"4","last_reported":1745467975,"current_range_meters":20000,"station_id":"ce4bh112rcd13ifvqda0","pricing_plan_id":"cebpf4jnsgd1na2vs0mg"},{"bike_id":"4c5fde7b-971c-4007-b87e-dc9a0628c92d","system_id":"levelo_inurba_marseille","lat":43.29272,"lon":5.40126,"is_reserved":false,"is_disabled":false,"rental_uris":{"android":"levelo://app?vid=4c5fde7b-971c-4007-b87e-dc9a0628c92d","ios":"levelo://app?vid=4c5fde7b-971c-4007-b87e-dc9a0628c92d"},"vehicle_type_id":"4","last_reported":1745467975,"current_range_meters":20400,"station_id":"ce4bh312rcd13ifvqdk0","pricing_plan_id":"cebpf4jnsgd1na2vs0mg"},{"bike_id":"9db2f55e-ddf6-49f0-be93-8e8f02e6d221","system_id":"levelo_inurba_marseille","lat":43.29189,"lon":5.35807,"is_reserved":false,"is_disabled":false,"rental_uris":{"android":"levelo://app?vid=9db2f55e-ddf6-49f0-be93-8e8f02e6d221","ios":"levelo://app?vid=9db2f55e-ddf6-49f0-be93-8e8f02e6d221"},"vehicle_type_id":"4","last_reported":1745467975,"current_range_meters":20000,"station_id":"ce4bhb12rcd13ifvqel0","pricing_plan_id":"cebpf4jnsgd1na2vs0mg"},{"bike_id":"016d1c33-236f-4281-bd30-10c7bc88d5ce","system_id":"levelo_inurba_marseille","lat":43.24055,"lon":5.37759,"is_reserved":false,"is_disabled":false,"rental_uris":{"android":"levelo://app?vid=016d1c33-236f-4281-bd30-10c7bc88d5ce","ios":"levelo://app?vid=016d1c33-236f-4281-bd30-10c7bc88d5ce"},"vehicle_type_id":"4","last_reported":1745467975,"current_range_meters":20400,"station_id":"ce4bhnp2rcd13ifvqgvg","pricing_plan_id":"cebpf4jnsgd1na2vs0mg"},{"bike_id":"28523f24-26a0-45f9-8b34-f1fdb346c3d5","system_id":"levelo_inurba_marseille","lat":43.311175,"lon":5.377577,"is_reserved":false,"is_disabled":false,"rental_uris":{"android":"levelo://app?vid=28523f24-26a0-45f9-8b34-f1fdb346c3d5","ios":"levelo://app?vid=28523f24-26a0-45f9-8b34-f1fdb346c3d5"},"vehicle_type_id":"4","last_reported":1745467975,"current_range_meters":20400,"station_id":"ce4bgt92rcd13ifvqcg0","pricing_plan_id":"cebpf4jnsgd1na2vs0mg"},{"bike_id":"535ce4a1-1af3-4cbb-aa98-06d91ac25ff9","system_id":"levelo_inurba_marseille","lat":43.28719,"lon":5.36101,"is_reserved":false,"is_disabled":false,"rental_uris":{"android":"levelo://app?vid=535ce4a1-1af3-4cbb-aa98-06d91ac25ff9","ios":"levelo://app?vid=535ce4a1-1af3-4cbb-aa98-06d91ac25ff9"},"vehicle_type_id":"4","last_reported":1745467975,"current_range_meters":20400,"station_id":"cki0cbj6b192h4jlfktg","pricing_plan_id":"cebpf4jnsgd1na2vs0mg"},{"bike_id":"0bfff189-ec6a-4439-b345-e9dd168ab867","system_id":"levelo_inurba_marseille","lat":43.337216,"lon":5.391873,"is_reserved":false,"is_disabled":false,"rental_uris":{"android":"levelo://app?vid=0bfff189-ec6a-4439-b345-e9dd168ab867","ios":"levelo://app?vid=0bfff189-ec6a-4439-b345-e9dd168ab867"},"vehicle_type_id":"4","last_reported":1745467975,"current_range_meters":20400,"station_id":"ce4bhr92rcd13ifvqhsg","pricing_plan_id":"cebpf4jnsgd1na2vs0mg"},{"bike_id":"4d322af7-44ba-44ca-a5a4-8cf73450d35e","system_id":"levelo_inurba_marseille","lat":43.31746,"lon":5.39037,"is_reserved":false,"is_disabled":false,"rental_uris":{"android":"levelo://app?vid=4d322af7-44ba-44ca-a5a4-8cf73450d35e","ios":"levelo://app?vid=4d322af7-44ba-44ca-a5a4-8cf73450d35e"},"vehicle_type_id":"4","last_reported":1745467975,"current_range_meters":20800,"station_id":"ce4bhqp2rcd13ifvqhng","pricing_plan_id":"cebpf4jnsgd1na2vs0mg"},{"bike_id":"e7093a55-c5e1-4525-90b8-4f083a9c5863","system_id":"levelo_inurba_marseille","lat":43.287061,"lon":5.379467,"is_reserved":false,"is_disabled":true,"rental_uris":{"android":"levelo://app?vid=e7093a55-c5e1-4525-90b8-4f083a9c5863","ios":"levelo://app?vid=e7093a55-c5e1-4525-90b8-4f083a9c5863"},"vehicle_type_id":"4","last_reported":1745467975,"current_range_meters":20800,"station_id":"ce4bh9p2rcd13ifvqec0","pricing_plan_id":"cebpf4jnsgd1na2vs0mg"},{"bike_id":"74c29d04-5ede-4cb2-99de-40d66ea3223f","system_id":"levelo_inurba_marseille","lat":43.313254,"lon":5.396949,"is_reserved":false,"is_disabled":false,"rental_uris":{"android":"levelo://app?vid=74c29d04-5ede-4cb2-99de-40d66ea3223f","ios":"levelo://app?vid=74c29d04-5ede-4cb2-99de-40d66ea3223f"},"vehicle_type_id":"4","last_reported":1745467975,"current_range_meters":20800,"station_id":"ce4bgvp2rcd13ifvqcu0","pricing_plan_id":"cebpf4jnsgd1na2vs0mg"},{"bike_id":"029be3b4-a125-4665-b50b-4fa62ff8a56e","system_id":"levelo_inurba_marseille","lat":43.2926,"lon":5.38441,"is_reserved":false,"is_disabled":false,"rental_uris":{"android":"levelo://app?vid=029be3b4-a125-4665-b50b-4fa62ff8a56e","ios":"levelo://app?vid=029be3b4-a125-4665-b50b-4fa62ff8a56e"},"vehicle_type_id":"4","last_reported":1745467975,"current_range_meters":22000,"station_id":"ce4bh692rcd13ifvqea0","pricing_plan_id":"cebpf4jnsgd1na2vs0mg"},{"bike_id":"a697414b-0612-4f3e-8926-96de714115f6","system_id":"levelo_inurba_marseille","lat":43.29263,"lon":5.36875,"is_reserved":false,"is_disabled":false,"rental_uris":{"android":"levelo://app?vid=a697414b-0612-4f3e-8926-96de714115f6","ios":"levelo://app?vid=a697414b-0612-4f3e-8926-96de714115f6"},"vehicle_type_id":"4","last_reported":1745467975,"current_range_meters":22000,"station_id":"ce4bhbp2rcd13ifvqesg","pricing_plan_id":"cebpf4jnsgd1na2vs0mg"},{"bike_id":"151574eb-8589-4a05-a78a-7ee9d99a1265","system_id":"levelo_inurba_marseille","lat":43.31307,"lon":5.38533,"is_reserved":false,"is_disabled":false,"rental_uris":{"android":"levelo://app?vid=151574eb-8589-4a05-a78a-7ee9d99a1265","ios":"levelo://app?vid=151574eb-8589-4a05-a78a-7ee9d99a1265"},"vehicle_type_id":"4","last_reported":1745467975,"current_range_meters":22000,"station_id":"ce4bgt92rcd13ifvqcf0","pricing_plan_id":"cebpf4jnsgd1na2vs0mg"},{"bike_id":"18497f24-2e2c-47ad-a0e9-9c3c47a82942","system_id":"levelo_inurba_marseille","lat":43.280342,"lon":5.369452,"is_reserved":false,"is_disabled":false,"rental_uris":{"android":"levelo://app?vid=18497f24-2e2c-47ad-a0e9-9c3c47a82942","ios":"levelo://app?vid=18497f24-2e2c-47ad-a0e9-9c3c47a82942"},"vehicle_type_id":"4","last_reported":1745467975,"current_range_meters":22000,"station_id":"ce4bha12rcd13ifvqef0","pricing_plan_id":"cebpf4jnsgd1na2vs0mg"},{"bike_id":"5f669bf7-7759-4af1-9771-fb2f61cb56a8","system_id":"levelo_inurba_marseille","lat":43.28704,"lon":5.37381,"is_reserved":false,"is_disabled":false,"rental_uris":{"android":"levelo://app?vid=5f669bf7-7759-4af1-9771-fb2f61cb56a8","ios":"levelo://app?vid=5f669bf7-7759-4af1-9771-fb2f61cb56a8"},"vehicle_type_id":"4","last_reported":1745467975,"current_range_meters":22000,"station_id":"ce4bh3p2rcd13ifvqdq0","pricing_plan_id":"cebpf4jnsgd1na2vs0mg"},{"bike_id":"900032bf-b5df-495b-b826-170effbd2d99","system_id":"levelo_inurba_marseille","lat":43.307426,"lon":5.424409,"is_reserved":false,"is_disabled":false,"rental_uris":{"android":"levelo://app?vid=900032bf-b5df-495b-b826-170effbd2d99","ios":"levelo://app?vid=900032bf-b5df-495b-b826-170effbd2d99"},"vehicle_type_id":"4","last_reported":1745467975,"current_range_meters":22000,"station_id":"st_cvj6ca6bvosntc0bfgr0","pricing_plan_id":"cebpf4jnsgd1na2vs0mg"},{"bike_id":"78fdb1f2-201c-401d-9b37-2e0ecd708fff","system_id":"levelo_inurba_marseille","lat":43.299414,"lon":5.394726,"is_reserved":false,"is_disabled":false,"rental_uris":{"android":"levelo://app?vid=78fdb1f2-201c-401d-9b37-2e0ecd708fff","ios":"levelo://app?vid=78fdb1f2-201c-401d-9b37-2e0ecd708fff"},"vehicle_type_id":"4","last_reported":1745467975,"current_range_meters":22000,"station_id":"","pricing_plan_id":"cebpf4jnsgd1na2vs0mg"},{"bike_id":"0511eaef-e620-4443-8c39-8b9425063ec4","system_id":"levelo_inurba_marseille","lat":43.290914,"lon":5.381674,"is_reserved":false,"is_disabled":true,"rental_uris":{"android":"levelo://app?vid=0511eaef-e620-4443-8c39-8b9425063ec4","ios":"levelo://app?vid=0511eaef-e620-4443-8c39-8b9425063ec4"},"vehicle_type_id":"4","last_reported":1745467975,"current_range_meters":22000,"station_id":"ce4bh512rcd13ifvqe2g","pricing_plan_id":"cebpf4jnsgd1na2vs0mg"},{"bike_id":"cfa3005a-e229-4b19-ba9e-16ba83623768","system_id":"levelo_inurba_marseille","lat":43.280306,"lon":5.369409,"is_reserved":false,"is_disabled":false,"rental_uris":{"android":"levelo://app?vid=cfa3005a-e229-4b19-ba9e-16ba83623768","ios":"levelo://app?vid=cfa3005a-e229-4b19-ba9e-16ba83623768"},"vehicle_type_id":"4","last_reported":1745467975,"current_range_meters":22000,"station_id":"ce4bha12rcd13ifvqef0","pricing_plan_id":"cebpf4jnsgd1na2vs0mg"},{"bike_id":"444565c9-4a25-4a72-bd30-cb5147c4394a","system_id":"levelo_inurba_marseille","lat":43.28278,"lon":5.35076,"is_reserved":false,"is_disabled":false,"rental_uris":{"android":"levelo://app?vid=444565c9-4a25-4a72-bd30-cb5147c4394a","ios":"levelo://app?vid=444565c9-4a25-4a72-bd30-cb5147c4394a"},"vehicle_type_id":"4","last_reported":1745467975,"current_range_meters":22400,"station_id":"","pricing_plan_id":"cebpf4jnsgd1na2vs0mg"},{"bike_id":"97d8f187-f239-4f55-97ec-de779f8ce0b2","system_id":"levelo_inurba_marseille","lat":43.24801,"lon":5.37456,"is_reserved":false,"is_disabled":false,"rental_uris":{"android":"levelo://app?vid=97d8f187-f239-4f55-97ec-de779f8ce0b2","ios":"levelo://app?vid=97d8f187-f239-4f55-97ec-de779f8ce0b2"},"vehicle_type_id":"4","last_reported":1745467975,"current_range_meters":22400,"station_id":"ce4bhgh2rcd13ifvqfb0","pricing_plan_id":"cebpf4jnsgd1na2vs0mg"},{"bike_id":"06a6ec8d-f1b4-4120-8203-729d3c0a21f3","system_id":"levelo_inurba_marseille","lat":43.2407,"lon":5.37783,"is_reserved":false,"is_disabled":false,"rental_uris":{"android":"levelo://app?vid=06a6ec8d-f1b4-4120-8203-729d3c0a21f3","ios":"levelo://app?vid=06a6ec8d-f1b4-4120-8203-729d3c0a21f3"},"vehicle_type_id":"4","last_reported":1745467975,"current_range_meters":22400,"station_id":"ce4bhnp2rcd13ifvqgvg","pricing_plan_id":"cebpf4jnsgd1na2vs0mg"},{"bike_id":"9a1c0be7-bd1a-4081-ab84-3ef05258b407","system_id":"levelo_inurba_marseille","lat":43.23184,"lon":5.3558,"is_reserved":false,"is_disabled":false,"rental_uris":{"android":"levelo://app?vid=9a1c0be7-bd1a-4081-ab84-3ef05258b407","ios":"levelo://app?vid=9a1c0be7-bd1a-4081-ab84-3ef05258b407"},"vehicle_type_id":"4","last_reported":1745467975,"current_range_meters":22400,"station_id":"ce4bhu92rcd13ifvqi70","pricing_plan_id":"cebpf4jnsgd1na2vs0mg"},{"bike_id":"59d7b2f9-eef7-446f-93d2-cbed6ac37ae4","system_id":"levelo_inurba_marseille","lat":43.28718,"lon":5.36097,"is_reserved":false,"is_disabled":false,"rental_uris":{"android":"levelo://app?vid=59d7b2f9-eef7-446f-93d2-cbed6ac37ae4","ios":"levelo://app?vid=59d7b2f9-eef7-446f-93d2-cbed6ac37ae4"},"vehicle_type_id":"4","last_reported":1745467975,"current_range_meters":22400,"station_id":"cki0cbj6b192h4jlfktg","pricing_plan_id":"cebpf4jnsgd1na2vs0mg"},{"bike_id":"de176d11-fc50-43f3-85f2-db96c4b6be15","system_id":"levelo_inurba_marseille","lat":43.211905,"lon":5.350724,"is_reserved":false,"is_disabled":false,"rental_uris":{"android":"levelo://app?vid=de176d11-fc50-43f3-85f2-db96c4b6be15","ios":"levelo://app?vid=de176d11-fc50-43f3-85f2-db96c4b6be15"},"vehicle_type_id":"4","last_reported":1745467975,"current_range_meters":22400,"station_id":"st_cvj6sg6p6f1abm77japg","pricing_plan_id":"cebpf4jnsgd1na2vs0mg"},{"bike_id":"768baad3-7a55-4e3d-bc60-96f799eee7b3","system_id":"levelo_inurba_marseille","lat":43.27942,"lon":5.41035,"is_reserved":false,"is_disabled":false,"rental_uris":{"android":"levelo://app?vid=768baad3-7a55-4e3d-bc60-96f799eee7b3","ios":"levelo://app?vid=768baad3-7a55-4e3d-bc60-96f799eee7b3"},"vehicle_type_id":"4","last_reported":1745467975,"current_range_meters":22400,"station_id":"ce4bhnp2rcd13ifvqh0g","pricing_plan_id":"cebpf4jnsgd1na2vs0mg"},{"bike_id":"5d584120-3d7a-46eb-b9d8-af8f829c7495","system_id":"levelo_inurba_marseille","lat":43.303293,"lon":5.368832,"is_reserved":false,"is_disabled":false,"rental_uris":{"android":"levelo://app?vid=5d584120-3d7a-46eb-b9d8-af8f829c7495","ios":"levelo://app?vid=5d584120-3d7a-46eb-b9d8-af8f829c7495"},"vehicle_type_id":"4","last_reported":1745467975,"current_range_meters":22400,"station_id":"ce4bgqh2rcd13ifvqc5g","pricing_plan_id":"cebpf4jnsgd1na2vs0mg"},{"bike_id":"c1b304ff-56de-48e1-b027-d417ac8be7e3","system_id":"levelo_inurba_marseille","lat":43.28565,"lon":5.39489,"is_reserved":false,"is_disabled":false,"rental_uris":{"android":"levelo://app?vid=c1b304ff-56de-48e1-b027-d417ac8be7e3","ios":"levelo://app?vid=c1b304ff-56de-48e1-b027-d417ac8be7e3"},"vehicle_type_id":"4","last_reported":1745467975,"current_range_meters":22800,"station_id":"ce4bh292rcd13ifvqdg0","pricing_plan_id":"cebpf4jnsgd1na2vs0mg"},{"bike_id":"ab067ea7-cc51-4e99-bbb6-a1d1373a7c52","system_id":"levelo_inurba_marseille","lat":43.26784,"lon":5.39422,"is_reserved":false,"is_disabled":false,"rental_uris":{"android":"levelo://app?vid=ab067ea7-cc51-4e99-bbb6-a1d1373a7c52","ios":"levelo://app?vid=ab067ea7-cc51-4e99-bbb6-a1d1373a7c52"},"vehicle_type_id":"4","last_reported":1745467975,"current_range_meters":22800,"station_id":"ce4bhh12rcd13ifvqfg0","pricing_plan_id":"cebpf4jnsgd1na2vs0mg"},{"bike_id":"b9a0b8e1-f49f-4b78-864f-be5e25d4a18c","system_id":"levelo_inurba_marseille","lat":43.33061,"lon":5.40824,"is_reserved":false,"is_disabled":false,"rental_uris":{"android":"levelo://app?vid=b9a0b8e1-f49f-4b78-864f-be5e25d4a18c","ios":"levelo://app?vid=b9a0b8e1-f49f-4b78-864f-be5e25d4a18c"},"vehicle_type_id":"4","last_reported":1745467975,"current_range_meters":22800,"station_id":"","pricing_plan_id":"cebpf4jnsgd1na2vs0mg"},{"bike_id":"87e55178-58a6-4f1a-a715-c1351dd70777","system_id":"levelo_inurba_marseille","lat":43.302933,"lon":5.391731,"is_reserved":false,"is_disabled":false,"rental_uris":{"android":"levelo://app?vid=87e55178-58a6-4f1a-a715-c1351dd70777","ios":"levelo://app?vid=87e55178-58a6-4f1a-a715-c1351dd70777"},"vehicle_type_id":"4","last_reported":1745467975,"current_range_meters":22800,"station_id":"ce4bh392rcd13ifvqdm0","pricing_plan_id":"cebpf4jnsgd1na2vs0mg"},{"bike_id":"987d7900-bb2a-45cb-bed7-6d69f6fd4fa3","system_id":"levelo_inurba_marseille","lat":43.285003,"lon":5.384625,"is_reserved":false,"is_disabled":false,"rental_uris":{"android":"levelo://app?vid=987d7900-bb2a-45cb-bed7-6d69f6fd4fa3","ios":"levelo://app?vid=987d7900-bb2a-45cb-bed7-6d69f6fd4fa3"},"vehicle_type_id":"4","last_reported":1745467975,"current_range_meters":22800,"station_id":"","pricing_plan_id":"cebpf4jnsgd1na2vs0mg"},{"bike_id":"356be3c1-6b57-4778-9e55-546ba6e0b379","system_id":"levelo_inurba_marseille","lat":43.310734,"lon":5.383602,"is_reserved":false,"is_disabled":false,"rental_uris":{"android":"levelo://app?vid=356be3c1-6b57-4778-9e55-546ba6e0b379","ios":"levelo://app?vid=356be3c1-6b57-4778-9e55-546ba6e0b379"},"vehicle_type_id":"4","last_reported":1745467975,"current_range_meters":22800,"station_id":"ce4bgv92rcd13ifvqcr0","pricing_plan_id":"cebpf4jnsgd1na2vs0mg"},{"bike_id":"0e8a9765-9123-400a-9dde-c10a67829f39","system_id":"levelo_inurba_marseille","lat":43.290252,"lon":5.386439,"is_reserved":false,"is_disabled":true,"rental_uris":{"android":"levelo://app?vid=0e8a9765-9123-400a-9dde-c10a67829f39","ios":"levelo://app?vid=0e8a9765-9123-400a-9dde-c10a67829f39"},"vehicle_type_id":"4","last_reported":1745467975,"current_range_meters":22800,"station_id":"ce4bh4p2rcd13ifvqe0g","pricing_plan_id":"cebpf4jnsgd1na2vs0mg"},{"bike_id":"829e6027-c98c-4052-9336-7fe801b0bc22","system_id":"levelo_inurba_marseille","lat":43.23118,"lon":5.43756,"is_reserved":false,"is_disabled":true,"rental_uris":{"android":"levelo://app?vid=829e6027-c98c-4052-9336-7fe801b0bc22","ios":"levelo://app?vid=829e6027-c98c-4052-9336-7fe801b0bc22"},"vehicle_type_id":"4","last_reported":1745467975,"current_range_meters":23200,"station_id":"","pricing_plan_id":"cebpf4jnsgd1na2vs0mg"},{"bike_id":"24cc67cc-7c2f-416f-a41f-d6e69cf810ec","system_id":"levelo_inurba_marseille","lat":43.296367,"lon":5.406136,"is_reserved":false,"is_disabled":true,"rental_uris":{"android":"levelo://app?vid=24cc67cc-7c2f-416f-a41f-d6e69cf810ec","ios":"levelo://app?vid=24cc67cc-7c2f-416f-a41f-d6e69cf810ec"},"vehicle_type_id":"4","last_reported":1745467975,"current_range_meters":23200,"station_id":"ce4bh0h2rcd13ifvqd60","pricing_plan_id":"cebpf4jnsgd1na2vs0mg"},{"bike_id":"fb313e82-bee8-492f-ab28-51dfbc24fce3","system_id":"levelo_inurba_marseille","lat":43.3228,"lon":5.38267,"is_reserved":false,"is_disabled":false,"rental_uris":{"android":"levelo://app?vid=fb313e82-bee8-492f-ab28-51dfbc24fce3","ios":"levelo://app?vid=fb313e82-bee8-492f-ab28-51dfbc24fce3"},"vehicle_type_id":"4","last_reported":1745467975,"current_range_meters":23200,"station_id":"ce4bhr12rcd13ifvqhqg","pricing_plan_id":"cebpf4jnsgd1na2vs0mg"},{"bike_id":"f019f698-a424-42cc-9223-007ade2dfaa5","system_id":"levelo_inurba_marseille","lat":43.304603,"lon":5.379018,"is_reserved":false,"is_disabled":false,"rental_uris":{"android":"levelo://app?vid=f019f698-a424-42cc-9223-007ade2dfaa5","ios":"levelo://app?vid=f019f698-a424-42cc-9223-007ade2dfaa5"},"vehicle_type_id":"4","last_reported":1745467975,"current_range_meters":23200,"station_id":"","pricing_plan_id":"cebpf4jnsgd1na2vs0mg"},{"bike_id":"4438e0c9-c1fd-4e63-8f7f-fae2556e0e90","system_id":"levelo_inurba_marseille","lat":43.28465,"lon":5.35879,"is_reserved":false,"is_disabled":false,"rental_uris":{"android":"levelo://app?vid=4438e0c9-c1fd-4e63-8f7f-fae2556e0e90","ios":"levelo://app?vid=4438e0c9-c1fd-4e63-8f7f-fae2556e0e90"},"vehicle_type_id":"4","last_reported":1745467975,"current_range_meters":23200,"station_id":"ce4bhah2rcd13ifvqei0","pricing_plan_id":"cebpf4jnsgd1na2vs0mg"},{"bike_id":"2054c923-e81d-4a3f-8bec-385edda06d15","system_id":"levelo_inurba_marseille","lat":43.28085,"lon":5.37886,"is_reserved":false,"is_disabled":false,"rental_uris":{"android":"levelo://app?vid=2054c923-e81d-4a3f-8bec-385edda06d15","ios":"levelo://app?vid=2054c923-e81d-4a3f-8bec-385edda06d15"},"vehicle_type_id":"4","last_reported":1745467975,"current_range_meters":23200,"station_id":"ce4bha12rcd13ifvqee0","pricing_plan_id":"cebpf4jnsgd1na2vs0mg"},{"bike_id":"0353cfa8-d8fd-4689-b182-812735861369","system_id":"levelo_inurba_marseille","lat":43.31526,"lon":5.38062,"is_reserved":false,"is_disabled":false,"rental_uris":{"android":"levelo://app?vid=0353cfa8-d8fd-4689-b182-812735861369","ios":"levelo://app?vid=0353cfa8-d8fd-4689-b182-812735861369"},"vehicle_type_id":"4","last_reported":1745467975,"current_range_meters":24000,"station_id":"ce4bhsp2rcd13ifvqi50","pricing_plan_id":"cebpf4jnsgd1na2vs0mg"},{"bike_id":"e96dfb3c-31b1-4dfd-8da1-51257772d018","system_id":"levelo_inurba_marseille","lat":43.284589,"lon":5.358849,"is_reserved":false,"is_disabled":false,"rental_uris":{"android":"levelo://app?vid=e96dfb3c-31b1-4dfd-8da1-51257772d018","ios":"levelo://app?vid=e96dfb3c-31b1-4dfd-8da1-51257772d018"},"vehicle_type_id":"4","last_reported":1745467975,"current_range_meters":24000,"station_id":"ce4bhah2rcd13ifvqei0","pricing_plan_id":"cebpf4jnsgd1na2vs0mg"},{"bike_id":"90798060-3b9c-43cc-90d8-c0d5fd8352ca","system_id":"levelo_inurba_marseille","lat":43.30885,"lon":5.39623,"is_reserved":false,"is_disabled":false,"rental_uris":{"android":"levelo://app?vid=90798060-3b9c-43cc-90d8-c0d5fd8352ca","ios":"levelo://app?vid=90798060-3b9c-43cc-90d8-c0d5fd8352ca"},"vehicle_type_id":"4","last_reported":1745467975,"current_range_meters":24000,"station_id":"ce4bh012rcd13ifvqcv0","pricing_plan_id":"cebpf4jnsgd1na2vs0mg"},{"bike_id":"b7eeb9eb-38a3-47dd-aeb5-f4cbf8ae338a","system_id":"levelo_inurba_marseille","lat":43.24076,"lon":5.37754,"is_reserved":false,"is_disabled":false,"rental_uris":{"android":"levelo://app?vid=b7eeb9eb-38a3-47dd-aeb5-f4cbf8ae338a","ios":"levelo://app?vid=b7eeb9eb-38a3-47dd-aeb5-f4cbf8ae338a"},"vehicle_type_id":"4","last_reported":1745467975,"current_range_meters":24000,"station_id":"ce4bhnp2rcd13ifvqgvg","pricing_plan_id":"cebpf4jnsgd1na2vs0mg"},{"bike_id":"09456f2a-7e1e-45b9-91de-1dd8bf19bf22","system_id":"levelo_inurba_marseille","lat":43.28466,"lon":5.3588,"is_reserved":false,"is_disabled":false,"rental_uris":{"android":"levelo://app?vid=09456f2a-7e1e-45b9-91de-1dd8bf19bf22","ios":"levelo://app?vid=09456f2a-7e1e-45b9-91de-1dd8bf19bf22"},"vehicle_type_id":"4","last_reported":1745467975,"current_range_meters":24000,"station_id":"ce4bhah2rcd13ifvqei0","pricing_plan_id":"cebpf4jnsgd1na2vs0mg"},{"bike_id":"6b945acd-5f36-41d7-a997-d39f08b7255b","system_id":"levelo_inurba_marseille","lat":43.31894,"lon":5.40754,"is_reserved":false,"is_disabled":true,"rental_uris":{"android":"levelo://app?vid=6b945acd-5f36-41d7-a997-d39f08b7255b","ios":"levelo://app?vid=6b945acd-5f36-41d7-a997-d39f08b7255b"},"vehicle_type_id":"4","last_reported":1745467975,"current_range_meters":24000,"station_id":"ce4bhq12rcd13ifvqhig","pricing_plan_id":"cebpf4jnsgd1na2vs0mg"},{"bike_id":"717e60a5-2703-4f91-9dbe-fba7a2d13c97","system_id":"levelo_inurba_marseille","lat":43.31332,"lon":5.39687,"is_reserved":false,"is_disabled":false,"rental_uris":{"android":"levelo://app?vid=717e60a5-2703-4f91-9dbe-fba7a2d13c97","ios":"levelo://app?vid=717e60a5-2703-4f91-9dbe-fba7a2d13c97"},"vehicle_type_id":"4","last_reported":1745467975,"current_range_meters":24000,"station_id":"ce4bgvp2rcd13ifvqcu0","pricing_plan_id":"cebpf4jnsgd1na2vs0mg"},{"bike_id":"c161a87f-2be8-4ae7-9647-b5c784939fdd","system_id":"levelo_inurba_marseille","lat":43.30128,"lon":5.387913,"is_reserved":false,"is_disabled":true,"rental_uris":{"android":"levelo://app?vid=c161a87f-2be8-4ae7-9647-b5c784939fdd","ios":"levelo://app?vid=c161a87f-2be8-4ae7-9647-b5c784939fdd"},"vehicle_type_id":"4","last_reported":1745467975,"current_range_meters":24000,"station_id":"ce4bghh2rcd13ifvqb60","pricing_plan_id":"cebpf4jnsgd1na2vs0mg"},{"bike_id":"12ea0756-6241-4776-b578-933e20b9b9ad","system_id":"levelo_inurba_marseille","lat":43.3373,"lon":5.35546,"is_reserved":false,"is_disabled":false,"rental_uris":{"android":"levelo://app?vid=12ea0756-6241-4776-b578-933e20b9b9ad","ios":"levelo://app?vid=12ea0756-6241-4776-b578-933e20b9b9ad"},"vehicle_type_id":"4","last_reported":1745467975,"current_range_meters":24400,"station_id":"","pricing_plan_id":"cebpf4jnsgd1na2vs0mg"},{"bike_id":"5071009c-7e47-4e17-ac8c-89189b138d4f","system_id":"levelo_inurba_marseille","lat":43.3135,"lon":5.38503,"is_reserved":false,"is_disabled":false,"rental_uris":{"android":"levelo://app?vid=5071009c-7e47-4e17-ac8c-89189b138d4f","ios":"levelo://app?vid=5071009c-7e47-4e17-ac8c-89189b138d4f"},"vehicle_type_id":"4","last_reported":1745467975,"current_range_meters":24400,"station_id":"ce4bgt92rcd13ifvqcf0","pricing_plan_id":"cebpf4jnsgd1na2vs0mg"},{"bike_id":"e2f83181-5b43-4476-9ef3-a0ab243597db","system_id":"levelo_inurba_marseille","lat":43.31336,"lon":5.39721,"is_reserved":false,"is_disabled":false,"rental_uris":{"android":"levelo://app?vid=e2f83181-5b43-4476-9ef3-a0ab243597db","ios":"levelo://app?vid=e2f83181-5b43-4476-9ef3-a0ab243597db"},"vehicle_type_id":"4","last_reported":1745467975,"current_range_meters":24400,"station_id":"ce4bgvp2rcd13ifvqcu0","pricing_plan_id":"cebpf4jnsgd1na2vs0mg"},{"bike_id":"07e069df-f525-4ff5-9ef1-93e14fdc5d9c","system_id":"levelo_inurba_marseille","lat":43.28458,"lon":5.35887,"is_reserved":false,"is_disabled":false,"rental_uris":{"android":"levelo://app?vid=07e069df-f525-4ff5-9ef1-93e14fdc5d9c","ios":"levelo://app?vid=07e069df-f525-4ff5-9ef1-93e14fdc5d9c"},