{"last_updated":1733148583,"ttl":60,"version":"2.2","data":{"bikes":[{"bike_id":"59f582be-9e7d-452d-b47d-bdb6da759816","system_id":"levelo_inurba_marseille","lat":43.29706,"lon":5.36607,"is_reserved":false,"is_disabled":false,"rental_uris":{"android":"levelo://app?vid=59f582be-9e7d-452d-b47d-bdb6da759816","ios":"levelo://app?vid=59f582be-9e7d-452d-b47d-bdb6da759816"},"vehicle_type_id":"4","last_reported":1733148584,"current_range_meters":33200,"station_id":"ce4bgn12rcd13ifvqbt0","pricing_plan_id":"cebpf4jnsgd1na2vs0mg"},{"bike_id":"615dcf98-fdf1-4ba2-a809-e9c7814bb7c5","system_id":"levelo_inurba_marseille","lat":43.29187,"lon":5.35808,"is_reserved":false,"is_disabled":false,"rental_uris":{"android":"levelo://app?vid=615dcf98-fdf1-4ba2-a809-e9c7814bb7c5","ios":"levelo://app?vid=615dcf98-fdf1-4ba2-a809-e9c7814bb7c5"},"vehicle_type_id":"4","last_reported":1733148584,"current_range_meters":16400,"station_id":"ce4bhb12rcd13ifvqel0","pricing_plan_id":"cebpf4jnsgd1na2vs0mg"},{"bike_id":"7331fb02-9deb-4c6d-b8a0-c2bda223d540","system_id":"levelo_inurba_marseille","lat":43.29551,"lon":5.4228,"is_reserved":false,"is_disabled":false,"rental_uris":{"android":"levelo://app?vid=7331fb02-9deb-4c6d-b8a0-c2bda223d540","ios":"levelo://app?vid=7331fb02-9deb-4c6d-b8a0-c2bda223d540"},"vehicle_type_id":"4","last_reported":1733148584,"current_range_meters":22000,"station_id":"ce4bhph2rcd13ifvqhdg","pricing_plan_id":"cebpf4jnsgd1na2vs0mg"},{"bike_id":"6daf0f72-dd53-436c-b06b-3f28914acbee","system_id":"levelo_inurba_marseille","lat":43.30152,"lon":5.38102,"is_reserved":false,"is_disabled":true,"rental_uris":{"android":"levelo://app?vid=6daf0f72-dd53-436c-b06b-3f28914acbee","ios":"levelo://app?vid=6daf0f72-dd53-436c-b06b-3f28914acbee"},"vehicle_type_id":"4","last_reported":1733148584,"current_range_meters":0,"station_id":"ce4bgjp2rcd13ifvqbh0","pricing_plan_id":"cebpf4jnsgd1na2vs0mg"},{"bike_id":"df479c2c-35ac-44ad-b9d6-81c89ed769ce","system_id":"levelo_inurba_marseille","lat":43.29695,"lon":5.37055,"is_reserved":false,"is_disabled":true,"rental_uris":{"android":"levelo://app?vid=df479c2c-35ac-44ad-b9d6-81c89ed769ce","ios":"levelo://app?vid=df479c2c-35ac-44ad-b9d6-81c89ed769ce"},"vehicle_type_id":"4","last_reported":1733148584,"current_range_meters":0,"station_id":"","pricing_plan_id":"cebpf4jnsgd1na2vs0mg"},{"bike_id":"8e029eaf-e104-4c5d-858d-6cd39de73d09","system_id":"levelo_inurba_marseille","lat":43.2417,"lon":5.36406,"is_reserved":false,"is_disabled":false,"rental_uris":{"android":"levelo://app?vid=8e029eaf-e104-4c5d-858d-6cd39de73d09","ios":"levelo://app?vid=8e029eaf-e104-4c5d-858d-6cd39de73d09"},"vehicle_type_id":"4","last_reported":1733148584,"current_range_meters":20800,"station_id":"cpo36qri1sfpv3e86is0","pricing_plan_id":"cebpf4jnsgd1na2vs0mg"},{"bike_id":"329e3d09-dc6e-45a9-99f9-b05aa158dde7","system_id":"levelo_inurba_marseille","lat":43.25677,"lon":5.38275,"is_reserved":false,"is_disabled":false,"rental_uris":{"android":"levelo://app?vid=329e3d09-dc6e-45a9-99f9-b05aa158dde7","ios":"levelo://app?vid=329e3d09-dc6e-45a9-99f9-b05aa158dde7"},"vehicle_type_id":"4","last_reported":1733148584,"current_range_meters":30800,"station_id":"ce4bhih2rcd13ifvqfs0","pricing_plan_id":"cebpf4jnsgd1na2vs0mg"},{"bike_id":"bd8cd1c7-abef-42cd-bb74-c23362a9f370","system_id":"levelo_inurba_marseille","lat":43.29419,"lon":5.38614,"is_reserved":false,"is_disabled":true,"rental_uris":{"android":"levelo://app?vid=bd8cd1c7-abef-42cd-bb74-c23362a9f370","ios":"levelo://app?vid=bd8cd1c7-abef-42cd-bb74-c23362a9f370"},"vehicle_type_id":"4","last_reported":1733148584,"current_range_meters":23200,"station_id":"ce4bh2h2rcd13ifvqdh0","pricing_plan_id":"cebpf4jnsgd1na2vs0mg"},{"bike_id":"621ffdd4-8365-434b-87b4-0edd1e5b86bd","system_id":"levelo_inurba_marseille","lat":43.29255,"lon":5.40908,"is_reserved":false,"is_disabled":false,"rental_uris":{"android":"levelo://app?vid=621ffdd4-8365-434b-87b4-0edd1e5b86bd","ios":"levelo://app?vid=621ffdd4-8365-434b-87b4-0edd1e5b86bd"},"vehicle_type_id":"4","last_reported":1733148584,"current_range_meters":23200,"station_id":"ce4bh192rcd13ifvqdc0","pricing_plan_id":"cebpf4jnsgd1na2vs0mg"},{"bike_id":"db00d576-d71a-4e4c-846a-adaa82c19e39","system_id":"levelo_inurba_marseille","lat":43.26946,"lon":5.38642,"is_reserved":false,"is_disabled":false,"rental_uris":{"android":"levelo://app?vid=db00d576-d71a-4e4c-846a-adaa82c19e39","ios":"levelo://app?vid=db00d576-d71a-4e4c-846a-adaa82c19e39"},"vehicle_type_id":"4","last_reported":1733148584,"current_range_meters":18000,"station_id":"ce4bhh92rcd13ifvqfh0","pricing_plan_id":"cebpf4jnsgd1na2vs0mg"},{"bike_id":"f0a061cd-a932-4e22-ae3a-dd500779e50d","system_id":"levelo_inurba_marseille","lat":43.34145,"lon":5.40903,"is_reserved":false,"is_disabled":false,"rental_uris":{"android":"levelo://app?vid=f0a061cd-a932-4e22-ae3a-dd500779e50d","ios":"levelo://app?vid=f0a061cd-a932-4e22-ae3a-dd500779e50d"},"vehicle_type_id":"4","last_reported":1733148584,"current_range_meters":36400,"station_id":"ce4bhqh2rcd13ifvqhlg","pricing_plan_id":"cebpf4jnsgd1na2vs0mg"},{"bike_id":"08b3a2fc-7906-4067-99f0-5f916ea6cd75","system_id":"levelo_inurba_marseille","lat":43.30457,"lon":5.37906,"is_reserved":false,"is_disabled":true,"rental_uris":{"android":"levelo://app?vid=08b3a2fc-7906-4067-99f0-5f916ea6cd75","ios":"levelo://app?vid=08b3a2fc-7906-4067-99f0-5f916ea6cd75"},"vehicle_type_id":"4","last_reported":1733148584,"current_range_meters":0,"station_id":"ce4bgup2rcd13ifvqcn0","pricing_plan_id":"cebpf4jnsgd1na2vs0mg"},{"bike_id":"a6438f65-8099-4fc5-a68e-e00173986874","system_id":"levelo_inurba_marseille","lat":43.29528,"lon":5.38537,"is_reserved":false,"is_disabled":true,"rental_uris":{"android":"levelo://app?vid=a6438f65-8099-4fc5-a68e-e00173986874","ios":"levelo://app?vid=a6438f65-8099-4fc5-a68e-e00173986874"},"vehicle_type_id":"4","last_reported":1733148584,"current_range_meters":800,"station_id":"ce4bgih2rcd13ifvqba0","pricing_plan_id":"cebpf4jnsgd1na2vs0mg"},{"bike_id":"e6c1a994-2d4e-453e-be6a-197b9a54e995","system_id":"levelo_inurba_marseille","lat":43.23148,"lon":5.4372,"is_reserved":false,"is_disabled":false,"rental_uris":{"android":"levelo://app?vid=e6c1a994-2d4e-453e-be6a-197b9a54e995","ios":"levelo://app?vid=e6c1a994-2d4e-453e-be6a-197b9a54e995"},"vehicle_type_id":"4","last_reported":1733148584,"current_range_meters":12000,"station_id":"ce4bhmp2rcd13ifvqgog","pricing_plan_id":"cebpf4jnsgd1na2vs0mg"},{"bike_id":"8bd642b2-0279-44c7-9ee2-fc3b57332c83","system_id":"levelo_inurba_marseille","lat":43.27455,"lon":5.40073,"is_reserved":false,"is_disabled":true,"rental_uris":{"android":"levelo://app?vid=8bd642b2-0279-44c7-9ee2-fc3b57332c83","ios":"levelo://app?vid=8bd642b2-0279-44c7-9ee2-fc3b57332c83"},"vehicle_type_id":"4","last_reported":1733148584,"current_range_meters":0,"station_id":"","pricing_plan_id":"cebpf4jnsgd1na2vs0mg"},{"bike_id":"f8d1cbf9-cfbb-4836-98b9-df8242e0ed9a","system_id":"levelo_inurba_marseille","lat":43.30542,"lon":5.36713,"is_reserved":false,"is_disabled":false,"rental_uris":{"android":"levelo://app?vid=f8d1cbf9-cfbb-4836-98b9-df8242e0ed9a","ios":"levelo://app?vid=f8d1cbf9-cfbb-4836-98b9-df8242e0ed9a"},"vehicle_type_id":"4","last_reported":1733148584,"current_range_meters":38800,"station_id":"ce4bgrp2rcd13ifvqc9g","pricing_plan_id":"cebpf4jnsgd1na2vs0mg"},{"bike_id":"08e6e41d-88aa-4cfe-a22f-c7b5bb5aecee","system_id":"levelo_inurba_marseille","lat":43.29843,"lon":5.3627,"is_reserved":false,"is_disabled":false,"rental_uris":{"android":"levelo://app?vid=08e6e41d-88aa-4cfe-a22f-c7b5bb5aecee","ios":"levelo://app?vid=08e6e41d-88aa-4cfe-a22f-c7b5bb5aecee"},"vehicle_type_id":"4","last_reported":1733148584,"current_range_meters":20000,"station_id":"ce4bgpp2rcd13ifvqc3g","pricing_plan_id":"cebpf4jnsgd1na2vs0mg"},{"bike_id":"b798330f-bb1d-4466-9c60-8b20ac51ffdf","system_id":"levelo_inurba_marseille","lat":43.28351,"lon":5.38115,"is_reserved":false,"is_disabled":false,"rental_uris":{"android":"levelo://app?vid=b798330f-bb1d-4466-9c60-8b20ac51ffdf","ios":"levelo://app?vid=b798330f-bb1d-4466-9c60-8b20ac51ffdf"},"vehicle_type_id":"4","last_reported":1733148584,"current_range_meters":38800,"station_id":"ce4bh412rcd13ifvqdr0","pricing_plan_id":"cebpf4jnsgd1na2vs0mg"},{"bike_id":"b909ffca-30c9-47df-bc3a-15f402918252","system_id":"levelo_inurba_marseille","lat":43.29514,"lon":5.37511,"is_reserved":false,"is_disabled":false,"rental_uris":{"android":"levelo://app?vid=b909ffca-30c9-47df-bc3a-15f402918252","ios":"levelo://app?vid=b909ffca-30c9-47df-bc3a-15f402918252"},"vehicle_type_id":"4","last_reported":1733148584,"current_range_meters":26000,"station_id":"ce4bgkp2rcd13ifvqbmg","pricing_plan_id":"cebpf4jnsgd1na2vs0mg"},{"bike_id":"de9893e1-6527-4388-bc0e-90d89ada0a17","system_id":"levelo_inurba_marseille","lat":43.30125,"lon":5.38804,"is_reserved":false,"is_disabled":false,"rental_uris":{"android":"levelo://app?vid=de9893e1-6527-4388-bc0e-90d89ada0a17","ios":"levelo://app?vid=de9893e1-6527-4388-bc0e-90d89ada0a17"},"vehicle_type_id":"4","last_reported":1733148584,"current_range_meters":12400,"station_id":"ce4bghh2rcd13ifvqb60","pricing_plan_id":"cebpf4jnsgd1na2vs0mg"},{"bike_id":"36c6b4dc-0193-466b-926e-84dcd20c84a0","system_id":"levelo_inurba_marseille","lat":43.32043,"lon":5.41544,"is_reserved":false,"is_disabled":true,"rental_uris":{"android":"levelo://app?vid=36c6b4dc-0193-466b-926e-84dcd20c84a0","ios":"levelo://app?vid=36c6b4dc-0193-466b-926e-84dcd20c84a0"},"vehicle_type_id":"4","last_reported":1733148584,"current_range_meters":37600,"station_id":"ce4bhq92rcd13ifvqhkg","pricing_plan_id":"cebpf4jnsgd1na2vs0mg"},{"bike_id":"475b0e62-d2b9-43a0-a896-2541e3d26116","system_id":"levelo_inurba_marseille","lat":43.24647,"lon":5.3889,"is_reserved":false,"is_disabled":true,"rental_uris":{"android":"levelo://app?vid=475b0e62-d2b9-43a0-a896-2541e3d26116","ios":"levelo://app?vid=475b0e62-d2b9-43a0-a896-2541e3d26116"},"vehicle_type_id":"4","last_reported":1733148584,"current_range_meters":0,"station_id":"ce4bhg12rcd13ifvqf60","pricing_plan_id":"cebpf4jnsgd1na2vs0mg"},{"bike_id":"95cb17f8-20d8-42a1-b28b-fa0eeaeebf63","system_id":"levelo_inurba_marseille","lat":43.33748,"lon":5.37436,"is_reserved":false,"is_disabled":false,"rental_uris":{"android":"levelo://app?vid=95cb17f8-20d8-42a1-b28b-fa0eeaeebf63","ios":"levelo://app?vid=95cb17f8-20d8-42a1-b28b-fa0eeaeebf63"},"vehicle_type_id":"4","last_reported":1733148584,"current_range_meters":37600,"station_id":"","pricing_plan_id":"cebpf4jnsgd1na2vs0mg"},{"bike_id":"20fac0af-1969-4132-8677-5edee2122880","system_id":"levelo_inurba_marseille","lat":43.28151,"lon":5.42646,"is_reserved":false,"is_disabled":false,"rental_uris":{"android":"levelo://app?vid=20fac0af-1969-4132-8677-5edee2122880","ios":"levelo://app?vid=20fac0af-1969-4132-8677-5edee2122880"},"vehicle_type_id":"4","last_reported":1733148584,"current_range_meters":7200,"station_id":"ce4bhnh2rcd13ifvqgug","pricing_plan_id":"cebpf4jnsgd1na2vs0mg"},{"bike_id":"b3f478ac-3b05-4edf-bdbf-76399090f8e9","system_id":"levelo_inurba_marseille","lat":43.30004,"lon":5.37634,"is_reserved":false,"is_disabled":true,"rental_uris":{"android":"levelo://app?vid=b3f478ac-3b05-4edf-bdbf-76399090f8e9","ios":"levelo://app?vid=b3f478ac-3b05-4edf-bdbf-76399090f8e9"},"vehicle_type_id":"4","last_reported":1733148584,"current_range_meters":0,"station_id":"","pricing_plan_id":"cebpf4jnsgd1na2vs0mg"},{"bike_id":"c3587c28-5435-41c6-a9b7-aa468e6b19aa","system_id":"levelo_inurba_marseille","lat":43.29736,"lon":5.37937,"is_reserved":false,"is_disabled":true,"rental_uris":{"android":"levelo://app?vid=c3587c28-5435-41c6-a9b7-aa468e6b19aa","ios":"levelo://app?vid=c3587c28-5435-41c6-a9b7-aa468e6b19aa"},"vehicle_type_id":"4","last_reported":1733148584,"current_range_meters":0,"station_id":"","pricing_plan_id":"cebpf4jnsgd1na2vs0mg"},{"bike_id":"6306356d-6536-4f20-9b77-ba97bcdc46f3","system_id":"levelo_inurba_marseille","lat":43.23178,"lon":5.39988,"is_reserved":false,"is_disabled":false,"rental_uris":{"android":"levelo://app?vid=6306356d-6536-4f20-9b77-ba97bcdc46f3","ios":"levelo://app?vid=6306356d-6536-4f20-9b77-ba97bcdc46f3"},"vehicle_type_id":"4","last_reported":1733148584,"current_range_meters":38800,"station_id":"ce4bhn12rcd13ifvqgqg","pricing_plan_id":"cebpf4jnsgd1na2vs0mg"},{"bike_id":"e8d9fcd3-6c4c-4c2e-a87e-41c5e4dfa6d0","system_id":"levelo_inurba_marseille","lat":43.25438,"lon":5.38158,"is_reserved":false,"is_disabled":true,"rental_uris":{"android":"levelo://app?vid=e8d9fcd3-6c4c-4c2e-a87e-41c5e4dfa6d0","ios":"levelo://app?vid=e8d9fcd3-6c4c-4c2e-a87e-41c5e4dfa6d0"},"vehicle_type_id":"4","last_reported":1733148584,"current_range_meters":0,"station_id":"","pricing_plan_id":"cebpf4jnsgd1na2vs0mg"},{"bike_id":"9e4ed454-42e6-4088-a463-3af3d1983d77","system_id":"levelo_inurba_marseille","lat":43.298879,"lon":5.403444,"is_reserved":false,"is_disabled":true,"rental_uris":{"android":"levelo://app?vid=9e4ed454-42e6-4088-a463-3af3d1983d77","ios":"levelo://app?vid=9e4ed454-42e6-4088-a463-3af3d1983d77"},"vehicle_type_id":"4","last_reported":1733148584,"current_range_meters":0,"station_id":"","pricing_plan_id":"cebpf4jnsgd1na2vs0mg"},{"bike_id":"e940def4-a71d-4d28-aebe-15d141d827ae","system_id":"levelo_inurba_marseille","lat":43.31117,"lon":5.37769,"is_reserved":false,"is_disabled":false,"rental_uris":{"android":"levelo://app?vid=e940def4-a71d-4d28-aebe-15d141d827ae","ios":"levelo://app?vid=e940def4-a71d-4d28-aebe-15d141d827ae"},"vehicle_type_id":"4","last_reported":1733148584,"current_range_meters":38000,"station_id":"ce4bgt92rcd13ifvqcg0","pricing_plan_id":"cebpf4jnsgd1na2vs0mg"},{"bike_id":"b3b31257-686d-44bc-a3e5-534f680952c8","system_id":"levelo_inurba_marseille","lat":43.2958,"lon":5.36743,"is_reserved":false,"is_disabled":false,"rental_uris":{"android":"levelo://app?vid=b3b31257-686d-44bc-a3e5-534f680952c8","ios":"levelo://app?vid=b3b31257-686d-44bc-a3e5-534f680952c8"},"vehicle_type_id":"4","last_reported":1733148584,"current_range_meters":34800,"station_id":"ce4bgph2rcd13ifvqc2g","pricing_plan_id":"cebpf4jnsgd1na2vs0mg"},{"bike_id":"a5bd18ed-398e-4ee4-9fe8-8386df4f823a","system_id":"levelo_inurba_marseille","lat":43.28258,"lon":5.35074,"is_reserved":false,"is_disabled":false,"rental_uris":{"android":"levelo://app?vid=a5bd18ed-398e-4ee4-9fe8-8386df4f823a","ios":"levelo://app?vid=a5bd18ed-398e-4ee4-9fe8-8386df4f823a"},"vehicle_type_id":"4","last_reported":1733148584,"current_range_meters":38800,"station_id":"ce4bhbp2rcd13ifvqerg","pricing_plan_id":"cebpf4jnsgd1na2vs0mg"},{"bike_id":"b7bf8def-3b8d-421c-877c-c26c81b588e2","system_id":"levelo_inurba_marseille","lat":43.33702,"lon":5.39207,"is_reserved":false,"is_disabled":false,"rental_uris":{"android":"levelo://app?vid=b7bf8def-3b8d-421c-877c-c26c81b588e2","ios":"levelo://app?vid=b7bf8def-3b8d-421c-877c-c26c81b588e2"},"vehicle_type_id":"4","last_reported":1733148584,"current_range_meters":18000,"station_id":"ce4bhr92rcd13ifvqhsg","pricing_plan_id":"cebpf4jnsgd1na2vs0mg"},{"bike_id":"063cd878-9e83-4416-9713-f7801cf0d34a","system_id":"levelo_inurba_marseille","lat":43.28265,"lon":5.35072,"is_reserved":false,"is_disabled":false,"rental_uris":{"android":"levelo://app?vid=063cd878-9e83-4416-9713-f7801cf0d34a","ios":"levelo://app?vid=063cd878-9e83-4416-9713-f7801cf0d34a"},"vehicle_type_id":"4","last_reported":1733148584,"current_range_meters":38800,"station_id":"ce4bhbp2rcd13ifvqerg","pricing_plan_id":"cebpf4jnsgd1na2vs0mg"},{"bike_id":"7c708378-09cc-4e84-85ba-193109470cbf","system_id":"levelo_inurba_marseille","lat":43.25931,"lon":5.4091,"is_reserved":false,"is_disabled":true,"rental_uris":{"android":"levelo://app?vid=7c708378-09cc-4e84-85ba-193109470cbf","ios":"levelo://app?vid=7c708378-09cc-4e84-85ba-193109470cbf"},"vehicle_type_id":"4","last_reported":1733148584,"current_range_meters":30000,"station_id":"ce4bhm92rcd13ifvqglg","pricing_plan_id":"cebpf4jnsgd1na2vs0mg"},{"bike_id":"052a1e58-88fa-43c4-a493-9df8526488c7","system_id":"levelo_inurba_marseille","lat":43.29194,"lon":5.39312,"is_reserved":false,"is_disabled":true,"rental_uris":{"android":"levelo://app?vid=052a1e58-88fa-43c4-a493-9df8526488c7","ios":"levelo://app?vid=052a1e58-88fa-43c4-a493-9df8526488c7"},"vehicle_type_id":"4","last_reported":1733148584,"current_range_meters":12000,"station_id":"ce4bh192rcd13ifvqdd0","pricing_plan_id":"cebpf4jnsgd1na2vs0mg"},{"bike_id":"34ed7b16-e707-4c30-bb65-0c88ea055863","system_id":"levelo_inurba_marseille","lat":43.30806,"lon":5.43522,"is_reserved":false,"is_disabled":true,"rental_uris":{"android":"levelo://app?vid=34ed7b16-e707-4c30-bb65-0c88ea055863","ios":"levelo://app?vid=34ed7b16-e707-4c30-bb65-0c88ea055863"},"vehicle_type_id":"4","last_reported":1733148584,"current_range_meters":14400,"station_id":"ce4bhph2rcd13ifvqheg","pricing_plan_id":"cebpf4jnsgd1na2vs0mg"},{"bike_id":"7d1843c3-1534-4da9-994a-ad586549a50a","system_id":"levelo_inurba_marseille","lat":43.30545,"lon":5.36541,"is_reserved":false,"is_disabled":false,"rental_uris":{"android":"levelo://app?vid=7d1843c3-1534-4da9-994a-ad586549a50a","ios":"levelo://app?vid=7d1843c3-1534-4da9-994a-ad586549a50a"},"vehicle_type_id":"4","last_reported":1733148584,"current_range_meters":38800,"station_id":"ce4bgs12rcd13ifvqcag","pricing_plan_id":"cebpf4jnsgd1na2vs0mg"},{"bike_id":"eafa3a1b-468f-431a-a326-63c26d4f8ace","system_id":"levelo_inurba_marseille","lat":43.24178,"lon":5.39724,"is_reserved":false,"is_disabled":false,"rental_uris":{"android":"levelo://app?vid=eafa3a1b-468f-431a-a326-63c26d4f8ace","ios":"levelo://app?vid=eafa3a1b-468f-431a-a326-63c26d4f8ace"},"vehicle_type_id":"4","last_reported":1733148584,"current_range_meters":36800,"station_id":"ce4bhn12rcd13ifvqgpg","pricing_plan_id":"cebpf4jnsgd1na2vs0mg"},{"bike_id":"ba87a08e-fb79-4e36-9095-7de2667010b8","system_id":"levelo_inurba_marseille","lat":43.23961,"lon":5.36647,"is_reserved":false,"is_disabled":false,"rental_uris":{"android":"levelo://app?vid=ba87a08e-fb79-4e36-9095-7de2667010b8","ios":"levelo://app?vid=ba87a08e-fb79-4e36-9095-7de2667010b8"},"vehicle_type_id":"4","last_reported":1733148584,"current_range_meters":38800,"station_id":"ce4bhi12rcd13ifvqfp0","pricing_plan_id":"cebpf4jnsgd1na2vs0mg"},{"bike_id":"688a64ac-dd38-447c-9b27-a6b32837ca8c","system_id":"levelo_inurba_marseille","lat":43.27491,"lon":5.42449,"is_reserved":false,"is_disabled":false,"rental_uris":{"android":"levelo://app?vid=688a64ac-dd38-447c-9b27-a6b32837ca8c","ios":"levelo://app?vid=688a64ac-dd38-447c-9b27-a6b32837ca8c"},"vehicle_type_id":"4","last_reported":1733148584,"current_range_meters":10000,"station_id":"ce4bhn92rcd13ifvqgrg","pricing_plan_id":"cebpf4jnsgd1na2vs0mg"},{"bike_id":"f2942c8a-c881-4459-bf29-3b1e817012ec","system_id":"levelo_inurba_marseille","lat":43.28714,"lon":5.37379,"is_reserved":false,"is_disabled":false,"rental_uris":{"android":"levelo://app?vid=f2942c8a-c881-4459-bf29-3b1e817012ec","ios":"levelo://app?vid=f2942c8a-c881-4459-bf29-3b1e817012ec"},"vehicle_type_id":"4","last_reported":1733148584,"current_range_meters":6000,"station_id":"ce4bh3p2rcd13ifvqdq0","pricing_plan_id":"cebpf4jnsgd1na2vs0mg"},{"bike_id":"1c832794-0e84-48c4-824a-273066b59290","system_id":"levelo_inurba_marseille","lat":43.26684,"lon":5.38274,"is_reserved":false,"is_disabled":true,"rental_uris":{"android":"levelo://app?vid=1c832794-0e84-48c4-824a-273066b59290","ios":"levelo://app?vid=1c832794-0e84-48c4-824a-273066b59290"},"vehicle_type_id":"4","last_reported":1733148584,"current_range_meters":30400,"station_id":"ce4bhg92rcd13ifvqf90","pricing_plan_id":"cebpf4jnsgd1na2vs0mg"},{"bike_id":"d66223f3-82e5-48f2-be03-89072b07839a","system_id":"levelo_inurba_marseille","lat":43.29224,"lon":5.36072,"is_reserved":false,"is_disabled":false,"rental_uris":{"android":"levelo://app?vid=d66223f3-82e5-48f2-be03-89072b07839a","ios":"levelo://app?vid=d66223f3-82e5-48f2-be03-89072b07839a"},"vehicle_type_id":"4","last_reported":1733148584,"current_range_meters":36000,"station_id":"ce4bhbh2rcd13ifvqeqg","pricing_plan_id":"cebpf4jnsgd1na2vs0mg"},{"bike_id":"a7377870-4589-4a11-ba61-082f5a8ef32a","system_id":"levelo_inurba_marseille","lat":43.31223,"lon":5.36862,"is_reserved":false,"is_disabled":false,"rental_uris":{"android":"levelo://app?vid=a7377870-4589-4a11-ba61-082f5a8ef32a","ios":"levelo://app?vid=a7377870-4589-4a11-ba61-082f5a8ef32a"},"vehicle_type_id":"4","last_reported":1733148584,"current_range_meters":32000,"station_id":"ce4bgl92rcd13ifvqbq0","pricing_plan_id":"cebpf4jnsgd1na2vs0mg"},{"bike_id":"54c0ff12-5ade-4a6a-929f-de2e00e66e15","system_id":"levelo_inurba_marseille","lat":43.29705,"lon":5.36609,"is_reserved":false,"is_disabled":false,"rental_uris":{"android":"levelo://app?vid=54c0ff12-5ade-4a6a-929f-de2e00e66e15","ios":"levelo://app?vid=54c0ff12-5ade-4a6a-929f-de2e00e66e15"},"vehicle_type_id":"4","last_reported":1733148584,"current_range_meters":18800,"station_id":"ce4bgn12rcd13ifvqbt0","pricing_plan_id":"cebpf4jnsgd1na2vs0mg"},{"bike_id":"749cb1cb-4d4c-4e48-bab8-f0f8d049f6fc","system_id":"levelo_inurba_marseille","lat":43.26686,"lon":5.38269,"is_reserved":false,"is_disabled":true,"rental_uris":{"android":"levelo://app?vid=749cb1cb-4d4c-4e48-bab8-f0f8d049f6fc","ios":"levelo://app?vid=749cb1cb-4d4c-4e48-bab8-f0f8d049f6fc"},"vehicle_type_id":"4","last_reported":1733148584,"current_range_meters":10800,"station_id":"ce4bhg92rcd13ifvqf90","pricing_plan_id":"cebpf4jnsgd1na2vs0mg"},{"bike_id":"64d9fec6-d690-42b1-825e-b674cd0805f7","system_id":"levelo_inurba_marseille","lat":43.32019,"lon":5.41553,"is_reserved":false,"is_disabled":false,"rental_uris":{"android":"levelo://app?vid=64d9fec6-d690-42b1-825e-b674cd0805f7","ios":"levelo://app?vid=64d9fec6-d690-42b1-825e-b674cd0805f7"},"vehicle_type_id":"4","last_reported":1733148584,"current_range_meters":36800,"station_id":"ce4bhq92rcd13ifvqhkg","pricing_plan_id":"cebpf4jnsgd1na2vs0mg"},{"bike_id":"68ed98af-d559-4713-8f27-a58ea254ad89","system_id":"levelo_inurba_marseille","lat":43.31219,"lon":5.3681,"is_reserved":false,"is_disabled":true,"rental_uris":{"android":"levelo://app?vid=68ed98af-d559-4713-8f27-a58ea254ad89","ios":"levelo://app?vid=68ed98af-d559-4713-8f27-a58ea254ad89"},"vehicle_type_id":"4","last_reported":1733148584,"current_range_meters":800,"station_id":"ce4bgl92rcd13ifvqbq0","pricing_plan_id":"cebpf4jnsgd1na2vs0mg"},{"bike_id":"92c77e41-5d46-4e2c-b91b-80c06397e5ef","system_id":"levelo_inurba_marseille","lat":43.29774,"lon":5.39342,"is_reserved":false,"is_disabled":false,"rental_uris":{"android":"levelo://app?vid=92c77e41-5d46-4e2c-b91b-80c06397e5ef","ios":"levelo://app?vid=92c77e41-5d46-4e2c-b91b-80c06397e5ef"},"vehicle_type_id":"4","last_reported":1733148584,"current_range_meters":21600,"station_id":"chh1huq6cuj3fo74tm60","pricing_plan_id":"cebpf4jnsgd1na2vs0mg"},{"bike_id":"3ee47065-0faf-44bc-9a2e-dd1c4aa759a8","system_id":"levelo_inurba_marseille","lat":43.28656,"lon":5.36361,"is_reserved":false,"is_disabled":false,"rental_uris":{"android":"levelo://app?vid=3ee47065-0faf-44bc-9a2e-dd1c4aa759a8","ios":"levelo://app?vid=3ee47065-0faf-44bc-9a2e-dd1c4aa759a8"},"vehicle_type_id":"4","last_reported":1733148584,"current_range_meters":18800,"station_id":"ce4bhah2rcd13ifvqej0","pricing_plan_id":"cebpf4jnsgd1na2vs0mg"},{"bike_id":"72d081cd-b784-4256-934d-8b870188128d","system_id":"levelo_inurba_marseille","lat":43.29202,"lon":5.39316,"is_reserved":false,"is_disabled":false,"rental_uris":{"android":"levelo://app?vid=72d081cd-b784-4256-934d-8b870188128d","ios":"levelo://app?vid=72d081cd-b784-4256-934d-8b870188128d"},"vehicle_type_id":"4","last_reported":1733148584,"current_range_meters":37600,"station_id":"ce4bh192rcd13ifvqdd0","pricing_plan_id":"cebpf4jnsgd1na2vs0mg"},{"bike_id":"f109bd80-5f00-4b4e-a065-d73ca7131c87","system_id":"levelo_inurba_marseille","lat":43.27496,"lon":5.42454,"is_reserved":false,"is_disabled":false,"rental_uris":{"android":"levelo://app?vid=f109bd80-5f00-4b4e-a065-d73ca7131c87","ios":"levelo://app?vid=f109bd80-5f00-4b4e-a065-d73ca7131c87"},"vehicle_type_id":"4","last_reported":1733148584,"current_range_meters":28400,"station_id":"ce4bhn92rcd13ifvqgrg","pricing_plan_id":"cebpf4jnsgd1na2vs0mg"},{"bike_id":"7932e894-60e4-4259-ad2b-e25a6bbb7ae7","system_id":"levelo_inurba_marseille","lat":43.28406,"lon":5.37525,"is_reserved":false,"is_disabled":false,"rental_uris":{"android":"levelo://app?vid=7932e894-60e4-4259-ad2b-e25a6bbb7ae7","ios":"levelo://app?vid=7932e894-60e4-4259-ad2b-e25a6bbb7ae7"},"vehicle_type_id":"4","last_reported":1733148584,"current_range_meters":28400,"station_id":"ce4bh412rcd13ifvqds0","pricing_plan_id":"cebpf4jnsgd1na2vs0mg"},{"bike_id":"fb5cfc21-857d-4a5d-b7e9-dc28b4e721c6","system_id":"levelo_inurba_marseille","lat":43.28154,"lon":5.42643,"is_reserved":false,"is_disabled":false,"rental_uris":{"android":"levelo://app?vid=fb5cfc21-857d-4a5d-b7e9-dc28b4e721c6","ios":"levelo://app?vid=fb5cfc21-857d-4a5d-b7e9-dc28b4e721c6"},"vehicle_type_id":"4","last_reported":1733148584,"current_range_meters":38000,"station_id":"ce4bhnh2rcd13ifvqgug","pricing_plan_id":"cebpf4jnsgd1na2vs0mg"},{"bike_id":"6c26b0bc-0f7f-4a90-b019-435bf7dc71a5","system_id":"levelo_inurba_marseille","lat":43.31216,"lon":5.36849,"is_reserved":false,"is_disabled":false,"rental_uris":{"android":"levelo://app?vid=6c26b0bc-0f7f-4a90-b019-435bf7dc71a5","ios":"levelo://app?vid=6c26b0bc-0f7f-4a90-b019-435bf7dc71a5"},"vehicle_type_id":"4","last_reported":1733148584,"current_range_meters":30400,"station_id":"ce4bgl92rcd13ifvqbq0","pricing_plan_id":"cebpf4jnsgd1na2vs0mg"},{"bike_id":"1501ee21-6282-4dd7-9f58-da4daad9a9cb","system_id":"levelo_inurba_marseille","lat":43.26483,"lon":5.39556,"is_reserved":false,"is_disabled":false,"rental_uris":{"android":"levelo://app?vid=1501ee21-6282-4dd7-9f58-da4daad9a9cb","ios":"levelo://app?vid=1501ee21-6282-4dd7-9f58-da4daad9a9cb"},"vehicle_type_id":"4","last_reported":1733148584,"current_range_meters":38000,"station_id":"ce4bhi12rcd13ifvqfq0","pricing_plan_id":"cebpf4jnsgd1na2vs0mg"},{"bike_id":"606a6077-d9ba-437a-9fc0-56ad8db26f37","system_id":"levelo_inurba_marseille","lat":43.26036,"lon":5.3755,"is_reserved":false,"is_disabled":false,"rental_uris":{"android":"levelo://app?vid=606a6077-d9ba-437a-9fc0-56ad8db26f37","ios":"levelo://app?vid=606a6077-d9ba-437a-9fc0-56ad8db26f37"},"vehicle_type_id":"4","last_reported":1733148584,"current_range_meters":37600,"station_id":"ce4bhgh2rcd13ifvqfa0","pricing_plan_id":"cebpf4jnsgd1na2vs0mg"},{"bike_id":"070eec91-1159-4768-bccf-5885e5144220","system_id":"levelo_inurba_marseille","lat":43.33605,"lon":5.41033,"is_reserved":false,"is_disabled":false,"rental_uris":{"android":"levelo://app?vid=070eec91-1159-4768-bccf-5885e5144220","ios":"levelo://app?vid=070eec91-1159-4768-bccf-5885e5144220"},"vehicle_type_id":"4","last_reported":1733148584,"current_range_meters":12000,"station_id":"ce4bhqh2rcd13ifvqhmg","pricing_plan_id":"cebpf4jnsgd1na2vs0mg"},{"bike_id":"0b7a5d71-bb71-4b7d-8b42-0ebfc1a18067","system_id":"levelo_inurba_marseille","lat":43.26937,"lon":5.38922,"is_reserved":false,"is_disabled":true,"rental_uris":{"android":"levelo://app?vid=0b7a5d71-bb71-4b7d-8b42-0ebfc1a18067","ios":"levelo://app?vid=0b7a5d71-bb71-4b7d-8b42-0ebfc1a18067"},"vehicle_type_id":"4","last_reported":1733148584,"current_range_meters":0,"station_id":"ce4bhhh2rcd13ifvqfl0","pricing_plan_id":"cebpf4jnsgd1na2vs0mg"},{"bike_id":"9c49799e-ddf2-4d3c-8d79-24f0e51f626a","system_id":"levelo_inurba_marseille","lat":43.29225,"lon":5.36067,"is_reserved":false,"is_disabled":false,"rental_uris":{"android":"levelo://app?vid=9c49799e-ddf2-4d3c-8d79-24f0e51f626a","ios":"levelo://app?vid=9c49799e-ddf2-4d3c-8d79-24f0e51f626a"},"vehicle_type_id":"4","last_reported":1733148584,"current_range_meters":33600,"station_id":"ce4bhbh2rcd13ifvqeqg","pricing_plan_id":"cebpf4jnsgd1na2vs0mg"},{"bike_id":"af27f481-9feb-4d2d-b5b2-442660fa60e0","system_id":"levelo_inurba_marseille","lat":43.27491,"lon":5.42453,"is_reserved":false,"is_disabled":false,"rental_uris":{"android":"levelo://app?vid=af27f481-9feb-4d2d-b5b2-442660fa60e0","ios":"levelo://app?vid=af27f481-9feb-4d2d-b5b2-442660fa60e0"},"vehicle_type_id":"4","last_reported":1733148584,"current_range_meters":27600,"station_id":"ce4bhn92rcd13ifvqgrg","pricing_plan_id":"cebpf4jnsgd1na2vs0mg"},{"bike_id":"0295701c-b153-46a2-82e9-189b5350b17c","system_id":"levelo_inurba_marseille","lat":43.30274,"lon":5.37704,"is_reserved":false,"is_disabled":false,"rental_uris":{"android":"levelo://app?vid=0295701c-b153-46a2-82e9-189b5350b17c","ios":"levelo://app?vid=0295701c-b153-46a2-82e9-189b5350b17c"},"vehicle_type_id":"4","last_reported":1733148584,"current_range_meters":38800,"station_id":"ce4bguh2rcd13ifvqcj0","pricing_plan_id":"cebpf4jnsgd1na2vs0mg"},{"bike_id":"24fdc168-ebb3-455e-9a84-fc7b79cc9f1c","system_id":"levelo_inurba_marseille","lat":43.29275,"lon":5.36853,"is_reserved":false,"is_disabled":true,"rental_uris":{"android":"levelo://app?vid=24fdc168-ebb3-455e-9a84-fc7b79cc9f1c","ios":"levelo://app?vid=24fdc168-ebb3-455e-9a84-fc7b79cc9f1c"},"vehicle_type_id":"4","last_reported":1733148584,"current_range_meters":26800,"station_id":"","pricing_plan_id":"cebpf4jnsgd1na2vs0mg"},{"bike_id":"4a76a161-7ab3-4304-b063-efabdf2fa44f","system_id":"levelo_inurba_marseille","lat":43.29796,"lon":5.38088,"is_reserved":false,"is_disabled":false,"rental_uris":{"android":"levelo://app?vid=4a76a161-7ab3-4304-b063-efabdf2fa44f","ios":"levelo://app?vid=4a76a161-7ab3-4304-b063-efabdf2fa44f"},"vehicle_type_id":"4","last_reported":1733148584,"current_range_meters":25200,"station_id":"ce4bgip2rcd13ifvqbb0","pricing_plan_id":"cebpf4jnsgd1na2vs0mg"},{"bike_id":"e9a6c9be-e1f4-4138-97bd-5da0e0014169","system_id":"levelo_inurba_marseille","lat":43.23955,"lon":5.36636,"is_reserved":false,"is_disabled":false,"rental_uris":{"android":"levelo://app?vid=e9a6c9be-e1f4-4138-97bd-5da0e0014169","ios":"levelo://app?vid=e9a6c9be-e1f4-4138-97bd-5da0e0014169"},"vehicle_type_id":"4","last_reported":1733148584,"current_range_meters":38400,"station_id":"ce4bhi12rcd13ifvqfp0","pricing_plan_id":"cebpf4jnsgd1na2vs0mg"},{"bike_id":"cdfe6590-4984-4014-86c8-6dd70747c27a","system_id":"levelo_inurba_marseille","lat":43.29735,"lon":5.37422,"is_reserved":false,"is_disabled":true,"rental_uris":{"android":"levelo://app?vid=cdfe6590-4984-4014-86c8-6dd70747c27a","ios":"levelo://app?vid=cdfe6590-4984-4014-86c8-6dd70747c27a"},"vehicle_type_id":"4","last_reported":1733148584,"current_range_meters":0,"station_id":"","pricing_plan_id":"cebpf4jnsgd1na2vs0mg"},{"bike_id":"05cecbbc-d928-48d6-bb9e-6db3f5e00983","system_id":"levelo_inurba_marseille","lat":43.23193,"lon":5.35554,"is_reserved":false,"is_disabled":false,"rental_uris":{"android":"levelo://app?vid=05cecbbc-d928-48d6-bb9e-6db3f5e00983","ios":"levelo://app?vid=05cecbbc-d928-48d6-bb9e-6db3f5e00983"},"vehicle_type_id":"4","last_reported":1733148584,"current_range_meters":14800,"station_id":"ce4bhu92rcd13ifvqi70","pricing_plan_id":"cebpf4jnsgd1na2vs0mg"},{"bike_id":"74957034-57b6-42dd-a96f-f856c96802e7","system_id":"levelo_inurba_marseille","lat":43.31713,"lon":5.3775,"is_reserved":false,"is_disabled":false,"rental_uris":{"android":"levelo://app?vid=74957034-57b6-42dd-a96f-f856c96802e7","ios":"levelo://app?vid=74957034-57b6-42dd-a96f-f856c96802e7"},"vehicle_type_id":"4","last_reported":1733148584,"current_range_meters":38800,"station_id":"ce4bgth2rcd13ifvqch0","pricing_plan_id":"cebpf4jnsgd1na2vs0mg"},{"bike_id":"961e92d4-8e1c-4ad1-bb13-3f4a6ffbd522","system_id":"levelo_inurba_marseille","lat":43.23154,"lon":5.43708,"is_reserved":false,"is_disabled":false,"rental_uris":{"android":"levelo://app?vid=961e92d4-8e1c-4ad1-bb13-3f4a6ffbd522","ios":"levelo://app?vid=961e92d4-8e1c-4ad1-bb13-3f4a6ffbd522"},"vehicle_type_id":"4","last_reported":1733148584,"current_range_meters":16400,"station_id":"ce4bhmp2rcd13ifvqgog","pricing_plan_id":"cebpf4jnsgd1na2vs0mg"},{"bike_id":"6ae164eb-ec63-46ae-bec8-186300b6f326","system_id":"levelo_inurba_marseille","lat":43.28659,"lon":5.36359,"is_reserved":false,"is_disabled":true,"rental_uris":{"android":"levelo://app?vid=6ae164eb-ec63-46ae-bec8-186300b6f326","ios":"levelo://app?vid=6ae164eb-ec63-46ae-bec8-186300b6f326"},"vehicle_type_id":"4","last_reported":1733148584,"current_range_meters":36400,"station_id":"ce4bhah2rcd13ifvqej0","pricing_plan_id":"cebpf4jnsgd1na2vs0mg"},{"bike_id":"3e762295-e52d-483f-8654-ca00b8495b74","system_id":"levelo_inurba_marseille","lat":43.27447,"lon":5.40718,"is_reserved":false,"is_disabled":false,"rental_uris":{"android":"levelo://app?vid=3e762295-e52d-483f-8654-ca00b8495b74","ios":"levelo://app?vid=3e762295-e52d-483f-8654-ca00b8495b74"},"vehicle_type_id":"4","last_reported":1733148584,"current_range_meters":12800,"station_id":"","pricing_plan_id":"cebpf4jnsgd1na2vs0mg"},{"bike_id":"451c3bed-aead-4425-9112-4c776fe28cba","system_id":"levelo_inurba_marseille","lat":43.28152,"lon":5.42638,"is_reserved":false,"is_disabled":false,"rental_uris":{"android":"levelo://app?vid=451c3bed-aead-4425-9112-4c776fe28cba","ios":"levelo://app?vid=451c3bed-aead-4425-9112-4c776fe28cba"},"vehicle_type_id":"4","last_reported":1733148584,"current_range_meters":25200,"station_id":"ce4bhnh2rcd13ifvqgug","pricing_plan_id":"cebpf4jnsgd1na2vs0mg"},{"bike_id":"987a5ab4-d60c-480c-94b6-7cab38975402","system_id":"levelo_inurba_marseille","lat":43.29748,"lon":5.37971,"is_reserved":false,"is_disabled":true,"rental_uris":{"android":"levelo://app?vid=987a5ab4-d60c-480c-94b6-7cab38975402","ios":"levelo://app?vid=987a5ab4-d60c-480c-94b6-7cab38975402"},"vehicle_type_id":"4","last_reported":1733148584,"current_range_meters":0,"station_id":"","pricing_plan_id":"cebpf4jnsgd1na2vs0mg"},{"bike_id":"c971ede0-41c7-461a-bc29-ae50a8251821","system_id":"levelo_inurba_marseille","lat":43.32291,"lon":5.38262,"is_reserved":false,"is_disabled":false,"rental_uris":{"android":"levelo://app?vid=c971ede0-41c7-461a-bc29-ae50a8251821","ios":"levelo://app?vid=c971ede0-41c7-461a-bc29-ae50a8251821"},"vehicle_type_id":"4","last_reported":1733148584,"current_range_meters":18800,"station_id":"ce4bhr12rcd13ifvqhqg","pricing_plan_id":"cebpf4jnsgd1na2vs0mg"},{"bike_id":"2a72893f-0632-4b3d-ac4f-7e06b3af576b","system_id":"levelo_inurba_marseille","lat":43.2996,"lon":5.41324,"is_reserved":false,"is_disabled":false,"rental_uris":{"android":"levelo://app?vid=2a72893f-0632-4b3d-ac4f-7e06b3af576b","ios":"levelo://app?vid=2a72893f-0632-4b3d-ac4f-7e06b3af576b"},"vehicle_type_id":"4","last_reported":1733148584,"current_range_meters":38000,"station_id":"ce4bhp12rcd13ifvqh9g","pricing_plan_id":"cebpf4jnsgd1na2vs0mg"},{"bike_id":"1f28300c-d8be-4d08-b5ea-d3aadf1e301d","system_id":"levelo_inurba_marseille","lat":43.26237,"lon":5.42135,"is_reserved":false,"is_disabled":false,"rental_uris":{"android":"levelo://app?vid=1f28300c-d8be-4d08-b5ea-d3aadf1e301d","ios":"levelo://app?vid=1f28300c-d8be-4d08-b5ea-d3aadf1e301d"},"vehicle_type_id":"4","last_reported":1733148584,"current_range_meters":24000,"station_id":"","pricing_plan_id":"cebpf4jnsgd1na2vs0mg"},{"bike_id":"b7ab8c01-033f-4395-8276-23c850ad3d02","system_id":"levelo_inurba_marseille","lat":43.30327,"lon":5.36583,"is_reserved":false,"is_disabled":true,"rental_uris":{"android":"levelo://app?vid=b7ab8c01-033f-4395-8276-23c850ad3d02","ios":"levelo://app?vid=b7ab8c01-033f-4395-8276-23c850ad3d02"},"vehicle_type_id":"4","last_reported":1733148584,"current_range_meters":0,"station_id":"","pricing_plan_id":"cebpf4jnsgd1na2vs0mg"},{"bike_id":"f8176d29-b70d-4dcd-9fcc-91123779aefa","system_id":"levelo_inurba_marseille","lat":43.25932,"lon":5.40913,"is_reserved":false,"is_disabled":false,"rental_uris":{"android":"levelo://app?vid=f8176d29-b70d-4dcd-9fcc-91123779aefa","ios":"levelo://app?vid=f8176d29-b70d-4dcd-9fcc-91123779aefa"},"vehicle_type_id":"4","last_reported":1733148584,"current_range_meters":38800,"station_id":"ce4bhm92rcd13ifvqglg","pricing_plan_id":"cebpf4jnsgd1na2vs0mg"},{"bike_id":"bec5abb3-c87c-4bf2-92eb-9b277b9974e8","system_id":"levelo_inurba_marseille","lat":43.29883,"lon":5.38912,"is_reserved":false,"is_disabled":false,"rental_uris":{"android":"levelo://app?vid=bec5abb3-c87c-4bf2-92eb-9b277b9974e8","ios":"levelo://app?vid=bec5abb3-c87c-4bf2-92eb-9b277b9974e8"},"vehicle_type_id":"4","last_reported":1733148584,"current_range_meters":38000,"station_id":"ce4bh392rcd13ifvqdl0","pricing_plan_id":"cebpf4jnsgd1na2vs0mg"},{"bike_id":"7f605fb6-28a5-4333-80f6-8484a84b0b5c","system_id":"levelo_inurba_marseille","lat":43.31356,"lon":5.36716,"is_reserved":false,"is_disabled":false,"rental_uris":{"android":"levelo://app?vid=7f605fb6-28a5-4333-80f6-8484a84b0b5c","ios":"levelo://app?vid=7f605fb6-28a5-4333-80f6-8484a84b0b5c"},"vehicle_type_id":"4","last_reported":1733148584,"current_range_meters":38800,"station_id":"ce4bgr92rcd13ifvqc6g","pricing_plan_id":"cebpf4jnsgd1na2vs0mg"},{"bike_id":"6b2b901e-5d96-4afc-b9a5-a7594ae72748","system_id":"levelo_inurba_marseille","lat":43.27277,"lon":5.39192,"is_reserved":false,"is_disabled":true,"rental_uris":{"android":"levelo://app?vid=6b2b901e-5d96-4afc-b9a5-a7594ae72748","ios":"levelo://app?vid=6b2b901e-5d96-4afc-b9a5-a7594ae72748"},"vehicle_type_id":"4","last_reported":1733148584,"current_range_meters":0,"station_id":"","pricing_plan_id":"cebpf4jnsgd1na2vs0mg"},{"bike_id":"00f789b5-7c55-4703-9a37-b71d303b06f7","system_id":"levelo_inurba_marseille","lat":43.30941,"lon":5.36852,"is_reserved":false,"is_disabled":false,"rental_uris":{"android":"levelo://app?vid=00f789b5-7c55-4703-9a37-b71d303b06f7","ios":"levelo://app?vid=00f789b5-7c55-4703-9a37-b71d303b06f7"},"vehicle_type_id":"4","last_reported":1733148584,"current_range_meters":27600,"station_id":"ce4bgn92rcd13ifvqbvg","pricing_plan_id":"cebpf4jnsgd1na2vs0mg"},{"bike_id":"3e9cd132-d957-4086-ac08-1c6d3c118aa3","system_id":"levelo_inurba_marseille","lat":43.30533,"lon":5.36543,"is_reserved":false,"is_disabled":false,"rental_uris":{"android":"levelo://app?vid=3e9cd132-d957-4086-ac08-1c6d3c118aa3","ios":"levelo://app?vid=3e9cd132-d957-4086-ac08-1c6d3c118aa3"},"vehicle_type_id":"4","last_reported":1733148584,"current_range_meters":31200,"station_id":"ce4bgs12rcd13ifvqcag","pricing_plan_id":"cebpf4jnsgd1na2vs0mg"},{"bike_id":"0ca60af7-be25-4cec-9d4d-395d419cb6aa","system_id":"levelo_inurba_marseille","lat":43.31225,"lon":5.36861,"is_reserved":false,"is_disabled":false,"rental_uris":{"android":"levelo://app?vid=0ca60af7-be25-4cec-9d4d-395d419cb6aa","ios":"levelo://app?vid=0ca60af7-be25-4cec-9d4d-395d419cb6aa"},"vehicle_type_id":"4","last_reported":1733148584,"current_range_meters":34000,"station_id":"ce4bgl92rcd13ifvqbq0","pricing_plan_id":"cebpf4jnsgd1na2vs0mg"},{"bike_id":"2fb9cb2b-4fcd-4856-90b9-86c9c4bd2dd1","system_id":"levelo_inurba_marseille","lat":43.2695,"lon":5.38623,"is_reserved":false,"is_disabled":false,"rental_uris":{"android":"levelo://app?vid=2fb9cb2b-4fcd-4856-90b9-86c9c4bd2dd1","ios":"levelo://app?vid=2fb9cb2b-4fcd-4856-90b9-86c9c4bd2dd1"},"vehicle_type_id":"4","last_reported":1733148584,"current_range_meters":28400,"station_id":"ce4bhh92rcd13ifvqfh0","pricing_plan_id":"cebpf4jnsgd1na2vs0mg"},{"bike_id":"ce3594f7-312c-46d6-841c-0f9ba1ae71f5","system_id":"levelo_inurba_marseille","lat":43.25,"lon":5.38928,"is_reserved":false,"is_disabled":false,"rental_uris":{"android":"levelo://app?vid=ce3594f7-312c-46d6-841c-0f9ba1ae71f5","ios":"levelo://app?vid=ce3594f7-312c-46d6-841c-0f9ba1ae71f5"},"vehicle_type_id":"4","last_reported":1733148584,"current_range_meters":39200,"station_id":"ce4bhgp2rcd13ifvqfd0","pricing_plan_id":"cebpf4jnsgd1na2vs0mg"},{"bike_id":"1e21ee7c-ab02-4877-817e-5d83de000297","system_id":"levelo_inurba_marseille","lat":43.30908,"lon":5.36857,"is_reserved":false,"is_disabled":true,"rental_uris":{"android":"levelo://app?vid=1e21ee7c-ab02-4877-817e-5d83de000297","ios":"levelo://app?vid=1e21ee7c-ab02-4877-817e-5d83de000297"},"vehicle_type_id":"4","last_reported":1733148584,"current_range_meters":38800,"station_id":"ce4bgn92rcd13ifvqbvg","pricing_plan_id":"cebpf4jnsgd1na2vs0mg"},{"bike_id":"8d1c8b92-79bb-4181-b0d2-5e94db1a14d0","system_id":"levelo_inurba_marseille","lat":43.30001,"lon":5.38276,"is_reserved":false,"is_disabled":true,"rental_uris":{"android":"levelo://app?vid=8d1c8b92-79bb-4181-b0d2-5e94db1a14d0","ios":"levelo://app?vid=8d1c8b92-79bb-4181-b0d2-5e94db1a14d0"},"vehicle_type_id":"4","last_reported":1733148584,"current_range_meters":0,"station_id":"","pricing_plan_id":"cebpf4jnsgd1na2vs0mg"},{"bike_id":"b393e343-ccc2-4e09-a3d5-b33fb6d87dbf","system_id":"levelo_inurba_marseille","lat":43.30126,"lon":5.38799,"is_reserved":false,"is_disabled":true,"rental_uris":{"android":"levelo://app?vid=b393e343-ccc2-4e09-a3d5-b33fb6d87dbf","ios":"levelo://app?vid=b393e343-ccc2-4e09-a3d5-b33fb6d87dbf"},"vehicle_type_id":"4","last_reported":1733148584,"current_range_meters":34000,"station_id":"ce4bghh2rcd13ifvqb60","pricing_plan_id":"cebpf4jnsgd1na2vs0mg"},{"bike_id":"1beb3bac-1f59-41bc-a280-277f2a9b322b","system_id":"levelo_inurba_marseille","lat":43.29264,"lon":5.36841,"is_reserved":false,"is_disabled":false,"rental_uris":{"android":"levelo://app?vid=1beb3bac-1f59-41bc-a280-277f2a9b322b","ios":"levelo://app?vid=1beb3bac-1f59-41bc-a280-277f2a9b322b"},"vehicle_type_id":"4","last_reported":1733148584,"current_range_meters":36000,"station_id":"ce4bhbp2rcd13ifvqesg","pricing_plan_id":"cebpf4jnsgd1na2vs0mg"},{"bike_id":"29bc5a03-4a8f-46f4-a448-e94d7df65434","system_id":"levelo_inurba_marseille","lat":43.29199,"lon":5.39324,"is_reserved":false,"is_disabled":false,"rental_uris":{"android":"levelo://app?vid=29bc5a03-4a8f-46f4-a448-e94d7df65434","ios":"levelo://app?vid=29bc5a03-4a8f-46f4-a448-e94d7df65434"},"vehicle_type_id":"4","last_reported":1733148584,"current_range_meters":38800,"station_id":"ce4bh192rcd13ifvqdd0","pricing_plan_id":"cebpf4jnsgd1na2vs0mg"},{"bike_id":"1c7ae222-8f70-4487-a2f7-9ce97d44aead","system_id":"levelo_inurba_marseille","lat":43.26553,"lon":5.37281,"is_reserved":false,"is_disabled":true,"rental_uris":{"android":"levelo://app?vid=1c7ae222-8f70-4487-a2f7-9ce97d44aead","ios":"levelo://app?vid=1c7ae222-8f70-4487-a2f7-9ce97d44aead"},"vehicle_type_id":"4","last_reported":1733148584,"current_range_meters":0,"station_id":"ce4bhg12rcd13ifvqf70","pricing_plan_id":"cebpf4jnsgd1na2vs0mg"},{"bike_id":"d5ad7d28-47b1-46b2-b0eb-b7f96a03c22a","system_id":"levelo_inurba_marseille","lat":43.29843,"lon":5.36275,"is_reserved":false,"is_disabled":true,"rental_uris":{"android":"levelo://app?vid=d5ad7d28-47b1-46b2-b0eb-b7f96a03c22a","ios":"levelo://app?vid=d5ad7d28-47b1-46b2-b0eb-b7f96a03c22a"},"vehicle_type_id":"4","last_reported":1733148584,"current_range_meters":38800,"station_id":"ce4bgpp2rcd13ifvqc3g","pricing_plan_id":"cebpf4jnsgd1na2vs0mg"},{"bike_id":"5a32d715-8390-4000-b34a-96857a5677b7","system_id":"levelo_inurba_marseille","lat":43.29584,"lon":5.37503,"is_reserved":false,"is_disabled":false,"rental_uris":{"android":"levelo://app?vid=5a32d715-8390-4000-b34a-96857a5677b7","ios":"levelo://app?vid=5a32d715-8390-4000-b34a-96857a5677b7"},"vehicle_type_id":"4","last_reported":1733148584,"current_range_meters":9200,"station_id":"ce4bgh92rcd13ifvqb50","pricing_plan_id":"cebpf4jnsgd1na2vs0mg"},{"bike_id":"4c12e38c-1a3a-4ae8-986f-0ac45e38999b","system_id":"levelo_inurba_marseille","lat":43.33728,"lon":5.39184,"is_reserved":false,"is_disabled":true,"rental_uris":{"android":"levelo://app?vid=4c12e38c-1a3a-4ae8-986f-0ac45e38999b","ios":"levelo://app?vid=4c12e38c-1a3a-4ae8-986f-0ac45e38999b"},"vehicle_type_id":"4","last_reported":1733148584,"current_range_meters":20800,"station_id":"ce4bhr92rcd13ifvqhsg","pricing_plan_id":"cebpf4jnsgd1na2vs0mg"},{"bike_id":"3175d20c-c4d9-4d75-bb57-8da8fe2bfa5e","system_id":"levelo_inurba_marseille","lat":43.23962,"lon":5.36645,"is_reserved":false,"is_disabled":false,"rental_uris":{"android":"levelo://app?vid=3175d20c-c4d9-4d75-bb57-8da8fe2bfa5e","ios":"levelo://app?vid=3175d20c-c4d9-4d75-bb57-8da8fe2bfa5e"},"vehicle_type_id":"4","last_reported":1733148584,"current_range_meters":32000,"station_id":"ce4bhi12rcd13ifvqfp0","pricing_plan_id":"cebpf4jnsgd1na2vs0mg"},{"bike_id":"a79d3deb-4fb8-4e3e-8555-dfa46134ae86","system_id":"levelo_inurba_marseille","lat":43.28032,"lon":5.36946,"is_reserved":false,"is_disabled":true,"rental_uris":{"android":"levelo://app?vid=a79d3deb-4fb8-4e3e-8555-dfa46134ae86","ios":"levelo://app?vid=a79d3deb-4fb8-4e3e-8555-dfa46134ae86"},"vehicle_type_id":"4","last_reported":1733148584,"current_range_meters":0,"station_id":"ce4bha12rcd13ifvqef0","pricing_plan_id":"cebpf4jnsgd1na2vs0mg"},{"bike_id":"64de2643-9aa0-46ed-98ba-214ec77448f5","system_id":"levelo_inurba_marseille","lat":43.28496,"lon":5.3852,"is_reserved":false,"is_disabled":false,"rental_uris":{"android":"levelo://app?vid=64de2643-9aa0-46ed-98ba-214ec77448f5","ios":"levelo://app?vid=64de2643-9aa0-46ed-98ba-214ec77448f5"},"vehicle_type_id":"4","last_reported":1733148584,"current_range_meters":37600,"station_id":"ce4bh8p2rcd13ifvqeb0","pricing_plan_id":"cebpf4jnsgd1na2vs0mg"},{"bike_id":"502a96ab-17c2-4054-85b0-d3158c661de7","system_id":"levelo_inurba_marseille","lat":43.29193,"lon":5.39314,"is_reserved":false,"is_disabled":true,"rental_uris":{"android":"levelo://app?vid=502a96ab-17c2-4054-85b0-d3158c661de7","ios":"levelo://app?vid=502a96ab-17c2-4054-85b0-d3158c661de7"},"vehicle_type_id":"4","last_reported":1733148584,"current_range_meters":18800,"station_id":"ce4bh192rcd13ifvqdd0","pricing_plan_id":"cebpf4jnsgd1na2vs0mg"},{"bike_id":"f78a695f-1e51-496d-a80d-f5757164d6e4","system_id":"levelo_inurba_marseille","lat":43.26681,"lon":5.38272,"is_reserved":false,"is_disabled":true,"rental_uris":{"android":"levelo://app?vid=f78a695f-1e51-496d-a80d-f5757164d6e4","ios":"levelo://app?vid=f78a695f-1e51-496d-a80d-f5757164d6e4"},"vehicle_type_id":"4","last_reported":1733148584,"current_range_meters":33600,"station_id":"ce4bhg92rcd13ifvqf90","pricing_plan_id":"cebpf4jnsgd1na2vs0mg"},{"bike_id":"b64660f9-f799-42df-9a3d-2d85cb46b886","system_id":"levelo_inurba_marseille","lat":43.31875,"lon":5.40734,"is_reserved":false,"is_disabled":false,"rental_uris":{"android":"levelo://app?vid=b64660f9-f799-42df-9a3d-2d85cb46b886","ios":"levelo://app?vid=b64660f9-f799-42df-9a3d-2d85cb46b886"},"vehicle_type_id":"4","last_reported":1733148584,"current_range_meters":38800,"station_id":"ce4bhq12rcd13ifvqhig","pricing_plan_id":"cebpf4jnsgd1na2vs0mg"},{"bike_id":"86d3537a-3a53-46e2-aea1-c8e772e5ade6","system_id":"levelo_inurba_marseille","lat":43.29622,"lon":5.37711,"is_reserved":false,"is_disabled":false,"rental_uris":{"android":"levelo://app?vid=86d3537a-3a53-46e2-aea1-c8e772e5ade6","ios":"levelo://app?vid=86d3537a-3a53-46e2-aea1-c8e772e5ade6"},"vehicle_type_id":"4","last_reported":1733148584,"current_range_meters":24800,"station_id":"ce4bgi92rcd13ifvqb90","pricing_plan_id":"cebpf4jnsgd1na2vs0mg"},{"bike_id":"f542ab27-ff27-4d29-ae48-4a41f193c197","system_id":"levelo_inurba_marseille","lat":43.28853,"lon":5.35848,"is_reserved":false,"is_disabled":false,"rental_uris":{"android":"levelo://app?vid=f542ab27-ff27-4d29-ae48-4a41f193c197","ios":"levelo://app?vid=f542ab27-ff27-4d29-ae48-4a41f193c197"},"vehicle_type_id":"4","last_reported":1733148584,"current_range_meters":36800,"station_id":"ce4bhb12rcd13ifvqem0","pricing_plan_id":"cebpf4jnsgd1na2vs0mg"},{"bike_id":"91e49ce8-9f52-47b6-96f1-c095f5081e00","system_id":"levelo_inurba_marseille","lat":43.30555,"lon":5.36549,"is_reserved":false,"is_disabled":false,"rental_uris":{"android":"levelo://app?vid=91e49ce8-9f52-47b6-96f1-c095f5081e00","ios":"levelo://app?vid=91e49ce8-9f52-47b6-96f1-c095f5081e00"},"vehicle_type_id":"4","last_reported":1733148584,"current_range_meters":38000,"station_id":"ce4bgs12rcd13ifvqcag","pricing_plan_id":"cebpf4jnsgd1na2vs0mg"},{"bike_id":"c59e598b-f6d9-41a1-ae6e-9ba138b277b9","system_id":"levelo_inurba_marseille","lat":43.30443,"lon":5.37911,"is_reserved":false,"is_disabled":true,"rental_uris":{"android":"levelo://app?vid=c59e598b-f6d9-41a1-ae6e-9ba138b277b9","ios":"levelo://app?vid=c59e598b-f6d9-41a1-ae6e-9ba138b277b9"},"vehicle_type_id":"4","last_reported":1733148584,"current_range_meters":38800,"station_id":"ce4bgup2rcd13ifvqcn0","pricing_plan_id":"cebpf4jnsgd1na2vs0mg"},{"bike_id":"e2de66c9-5ec1-4b67-bee8-35917fe10f0c","system_id":"levelo_inurba_marseille","lat":43.30892,"lon":5.37204,"is_reserved":false,"is_disabled":false,"rental_uris":{"android":"levelo://app?vid=e2de66c9-5ec1-4b67-bee8-35917fe10f0c","ios":"levelo://app?vid=e2de66c9-5ec1-4b67-bee8-35917fe10f0c"},"vehicle_type_id":"4","last_reported":1733148584,"current_range_meters":27600,"station_id":"ce4bguh2rcd13ifvqckg","pricing_plan_id":"cebpf4jnsgd1na2vs0mg"},{"bike_id":"0e3aad63-7f63-4a42-9d6e-45d54f61bdbe","system_id":"levelo_inurba_marseille","lat":43.27805,"lon":5.40714,"is_reserved":false,"is_disabled":false,"rental_uris":{"android":"levelo://app?vid=0e3aad63-7f63-4a42-9d6e-45d54f61bdbe","ios":"levelo://app?vid=0e3aad63-7f63-4a42-9d6e-45d54f61bdbe"},"vehicle_type_id":"4","last_reported":1733148584,"current_range_meters":13600,"station_id":"ce4bhnh2rcd13ifvqgtg","pricing_plan_id":"cebpf4jnsgd1na2vs0mg"},{"bike_id":"9c77a68d-2e99-44e9-b903-950fb6644d35","system_id":"levelo_inurba_marseille","lat":43.25282,"lon":5.39453,"is_reserved":false,"is_disabled":true,"rental_uris":{"android":"levelo://app?vid=9c77a68d-2e99-44e9-b903-950fb6644d35","ios":"levelo://app?vid=9c77a68d-2e99-44e9-b903-950fb6644d35"},"vehicle_type_id":"4","last_reported":1733148584,"current_range_meters":0,"station_id":"","pricing_plan_id":"cebpf4jnsgd1na2vs0mg"},{"bike_id":"aae2d4a3-7370-4792-b4a3-37c2915bfc04","system_id":"levelo_inurba_marseille","lat":43.3013,"lon":5.39864,"is_reserved":false,"is_disabled":false,"rental_uris":{"android":"levelo://app?vid=aae2d4a3-7370-4792-b4a3-37c2915bfc04","ios":"levelo://app?vid=aae2d4a3-7370-4792-b4a3-37c2915bfc04"},"vehicle_type_id":"4","last_reported":1733148584,"current_range_meters":24000,"station_id":"ce4bh0h2rcd13ifvqd40","pricing_plan_id":"cebpf4jnsgd1na2vs0mg"},{"bike_id":"ef21c035-bb49-424f-9bea-f5275d76500c","system_id":"levelo_inurba_marseille","lat":43.29844,"lon":5.36271,"is_reserved":false,"is_disabled":false,"rental_uris":{"android":"levelo://app?vid=ef21c035-bb49-424f-9bea-f5275d76500c","ios":"levelo://app?vid=ef21c035-bb49-424f-9bea-f5275d76500c"},"vehicle_type_id":"4","last_reported":1733148584,"current_range_meters":25600,"station_id":"ce4bgpp2rcd13ifvqc3g","pricing_plan_id":"cebpf4jnsgd1na2vs0mg"},{"bike_id":"c6d4d1da-4890-4677-beff-6d8312f9d18f","system_id":"levelo_inurba_marseille","lat":43.30258,"lon":5.40081,"is_reserved":false,"is_disabled":false,"rental_uris":{"android":"levelo://app?vid=c6d4d1da-4890-4677-beff-6d8312f9d18f","ios":"levelo://app?vid=c6d4d1da-4890-4677-beff-6d8312f9d18f"},"vehicle_type_id":"4","last_reported":1733148584,"current_range_meters":7200,"station_id":"ce4bgvh2rcd13ifvqcs0","pricing_plan_id":"cebpf4jnsgd1na2vs0mg"},{"bike_id":"b506175b-e3b3-4ff6-94de-89fbcaee662e","system_id":"levelo_inurba_marseille","lat":43.30831,"lon":5.3819,"is_reserved":false,"is_disabled":false,"rental_uris":{"android":"levelo://app?vid=b506175b-e3b3-4ff6-94de-89fbcaee662e","ios":"levelo://app?vid=b506175b-e3b3-4ff6-94de-89fbcaee662e"},"vehicle_type_id":"4","last_reported":1733148584,"current_range_meters":20800,"station_id":"ce4bgt12rcd13ifvqce0","pricing_plan_id":"cebpf4jnsgd1na2vs0mg"},{"bike_id":"4ea402f6-45b0-4846-84f5-29270e62c818","system_id":"levelo_inurba_marseille","lat":43.30828,"lon":5.374,"is_reserved":false,"is_disabled":true,"rental_uris":{"android":"levelo://app?vid=4ea402f6-45b0-4846-84f5-29270e62c818","ios":"levelo://app?vid=4ea402f6-45b0-4846-84f5-29270e62c818"},"vehicle_type_id":"4","last_reported":1733148584,"current_range_meters":0,"station_id":"","pricing_plan_id":"cebpf4jnsgd1na2vs0mg"},{"bike_id":"9faa23bf-6cc4-462c-b41b-652107d3a2b8","system_id":"levelo_inurba_marseille","lat":43.31222,"lon":5.36863,"is_reserved":false,"is_disabled":false,"rental_uris":{"android":"levelo://app?vid=9faa23bf-6cc4-462c-b41b-652107d3a2b8","ios":"levelo://app?vid=9faa23bf-6cc4-462c-b41b-652107d3a2b8"},"vehicle_type_id":"4","last_reported":1733148584,"current_range_meters":4800,"station_id":"ce4bgl92rcd13ifvqbq0","pricing_plan_id":"cebpf4jnsgd1na2vs0mg"},{"bike_id":"3b2dd834-4eba-41be-a3f1-dc1d1e0c84a1","system_id":"levelo_inurba_marseille","lat":43.30952,"lon":5.39037,"is_reserved":false,"is_disabled":false,"rental_uris":{"android":"levelo://app?vid=3b2dd834-4eba-41be-a3f1-dc1d1e0c84a1","ios":"levelo://app?vid=3b2dd834-4eba-41be-a3f1-dc1d1e0c84a1"},"vehicle_type_id":"4","last_reported":1733148584,"current_range_meters":16800,"station_id":"ce4bgup2rcd13ifvqco0","pricing_plan_id":"cebpf4jnsgd1na2vs0mg"},{"bike_id":"32c5601e-da81-4b8a-9307-a00f962ba8ea","system_id":"levelo_inurba_marseille","lat":43.29787,"lon":5.38119,"is_reserved":false,"is_disabled":true,"rental_uris":{"android":"levelo://app?vid=32c5601e-da81-4b8a-9307-a00f962ba8ea","ios":"levelo://app?vid=32c5601e-da81-4b8a-9307-a00f962ba8ea"},"vehicle_type_id":"4","last_reported":1733148584,"current_range_meters":0,"station_id":"ce4bgip2rcd13ifvqbb0","pricing_plan_id":"cebpf4jnsgd1na2vs0mg"},{"bike_id":"4f5e55ea-1124-4dd0-8efa-8ecf5c9aca9e","system_id":"levelo_inurba_marseille","lat":43.32278,"lon":5.38288,"is_reserved":false,"is_disabled":false,"rental_uris":{"android":"levelo://app?vid=4f5e55ea-1124-4dd0-8efa-8ecf5c9aca9e","ios":"levelo://app?vid=4f5e55ea-1124-4dd0-8efa-8ecf5c9aca9e"},"vehicle_type_id":"4","last_reported":1733148584,"current_range_meters":38000,"station_id":"ce4bhr12rcd13ifvqhqg","pricing_plan_id":"cebpf4jnsgd1na2vs0mg"},{"bike_id":"f61c00f8-69c7-4148-b75b-9ae748af5441","system_id":"levelo_inurba_marseille","lat":43.25728,"lon":5.41109,"is_reserved":false,"is_disabled":false,"rental_uris":{"android":"levelo://app?vid=f61c00f8-69c7-4148-b75b-9ae748af5441","ios":"levelo://app?vid=f61c00f8-69c7-4148-b75b-9ae748af5441"},"vehicle_type_id":"4","last_reported":1733148584,"current_range_meters":29600,"station_id":"ce4bhkp2rcd13ifvqgd0","pricing_plan_id":"cebpf4jnsgd1na2vs0mg"},{"bike_id":"941eeae1-8936-4a86-b31a-ea87d84b2048","system_id":"levelo_inurba_marseille","lat":43.28064,"lon":5.35632,"is_reserved":false,"is_disabled":false,"rental_uris":{"android":"levelo://app?vid=941eeae1-8936-4a86-b31a-ea87d84b2048","ios":"levelo://app?vid=941eeae1-8936-4a86-b31a-ea87d84b2048"},"vehicle_type_id":"4","last_reported":1733148584,"current_range_meters":11200,"station_id":"","pricing_plan_id":"cebpf4jnsgd1na2vs0mg"},{"bike_id":"c57d2727-f1a5-40ae-93e9-f4be556c6fcc","system_id":"levelo_inurba_marseille","lat":43.3089,"lon":5.37195,"is_reserved":false,"is_disabled":false,"rental_uris":{"android":"levelo://app?vid=c57d2727-f1a5-40ae-93e9-f4be556c6fcc","ios":"levelo://app?vid=c57d2727-f1a5-40ae-93e9-f4be556c6fcc"},"vehicle_type_id":"4","last_reported":1733148584,"current_range_meters":24800,"station_id":"ce4bguh2rcd13ifvqckg","pricing_plan_id":"cebpf4jnsgd1na2vs0mg"},{"bike_id":"247f4792-2f5b-4c2a-82cc-83507ff3687d","system_id":"levelo_inurba_marseille","lat":43.30232,"lon":5.40055,"is_reserved":false,"is_disabled":false,"rental_uris":{"android":"levelo://app?vid=247f4792-2f5b-4c2a-82cc-83507ff3687d","ios":"levelo://app?vid=247f4792-2f5b-4c2a-82cc-83507ff3687d"},"vehicle_type_id":"4","last_reported":1733148584,"current_range_meters":38800,"station_id":"ce4bgvh2rcd13ifvqcs0","pricing_plan_id":"cebpf4jnsgd1na2vs0mg"},{"bike_id":"1176e033-efc4-474e-af61-8d3a0d5f5ccf","system_id":"levelo_inurba_marseille","lat":43.25886,"lon":5.39954,"is_reserved":false,"is_disabled":true,"rental_uris":{"android":"levelo://app?vid=1176e033-efc4-474e-af61-8d3a0d5f5ccf","ios":"levelo://app?vid=1176e033-efc4-474e-af61-8d3a0d5f5ccf"},"vehicle_type_id":"4","last_reported":1733148584,"current_range_meters":0,"station_id":"","pricing_plan_id":"cebpf4jnsgd1na2vs0mg"},{"bike_id":"3cdc01b7-8de6-4d81-8ccb-5d5abfd9879d","system_id":"levelo_inurba_marseille","lat":43.29575,"lon":5.37499,"is_reserved":false,"is_disabled":false,"rental_uris":{"android":"levelo://app?vid=3cdc01b7-8de6-4d81-8ccb-5d5abfd9879d","ios":"levelo://app?vid=3cdc01b7-8de6-4d81-8ccb-5d5abfd9879d"},"vehicle_type_id":"4","last_reported":1733148584,"current_range_meters":37600,"station_id":"ce4bgh92rcd13ifvqb50","pricing_plan_id":"cebpf4jnsgd1na2vs0mg"},{"bike_id":"77191356-6794-48b3-9e62-f8690c8d296a","system_id":"levelo_inurba_marseille","lat":43.28858,"lon":5.35841,"is_reserved":false,"is_disabled":false,"rental_uris":{"android":"levelo://app?vid=77191356-6794-48b3-9e62-f8690c8d296a","ios":"levelo://app?vid=77191356-6794-48b3-9e62-f8690c8d296a"},"vehicle_type_id":"4","last_reported":1733148584,"current_range_meters":36800,"station_id":"ce4bhb12rcd13ifvqem0","pricing_plan_id":"cebpf4jnsgd1na2vs0mg"},{"bike_id":"17561cbc-9dc9-4eba-bf10-323c6c053f21","system_id":"levelo_inurba_marseille","lat":43.29098,"lon":5.38134,"is_reserved":false,"is_disabled":false,"rental_uris":{"android":"levelo://app?vid=17561cbc-9dc9-4eba-bf10-323c6c053f21","ios":"levelo://app?vid=17561cbc-9dc9-4eba-bf10-323c6c053f21"},"vehicle_type_id":"4","last_reported":1733148584,"current_range_meters":22800,"station_id":"ce4bh512rcd13ifvqe2g","pricing_plan_id":"cebpf4jnsgd1na2vs0mg"},{"bike_id":"d968385f-de2b-44eb-96a8-54efc707caa9","system_id":"levelo_inurba_marseille","lat":43.232,"lon":5.35552,"is_reserved":false,"is_disabled":false,"rental_uris":{"android":"levelo://app?vid=d968385f-de2b-44eb-96a8-54efc707caa9","ios":"levelo://app?vid=d968385f-de2b-44eb-96a8-54efc707caa9"},"vehicle_type_id":"4","last_reported":1733148584,"current_range_meters":38800,"station_id":"ce4bhu92rcd13ifvqi70","pricing_plan_id":"cebpf4jnsgd1na2vs0mg"},{"bike_id":"27b81edd-fc9b-4623-8d27-e8a9d39b6785","system_id":"levelo_inurba_marseille","lat":43.32049,"lon":5.41547,"is_reserved":false,"is_disabled":false,"rental_uris":{"android":"levelo://app?vid=27b81edd-fc9b-4623-8d27-e8a9d39b6785","ios":"levelo://app?vid=27b81edd-fc9b-4623-8d27-e8a9d39b6785"},"vehicle_type_id":"4","last_reported":1733148584,"current_range_meters":16400,"station_id":"ce4bhq92rcd13ifvqhkg","pricing_plan_id":"cebpf4jnsgd1na2vs0mg"},{"bike_id":"e218f52a-3c8a-490a-99d9-5af7196625b0","system_id":"levelo_inurba_marseille","lat":43.23193,"lon":5.35557,"is_reserved":false,"is_disabled":true,"rental_uris":{"android":"levelo://app?vid=e218f52a-3c8a-490a-99d9-5af7196625b0","ios":"levelo://app?vid=e218f52a-3c8a-490a-99d9-5af7196625b0"},"vehicle_type_id":"4","last_reported":1733148584,"current_range_meters":800,"station_id":"ce4bhu92rcd13ifvqi70","pricing_plan_id":"cebpf4jnsgd1na2vs0mg"},{"bike_id":"8b41c47b-4dec-46d4-b18a-17e751cfc96a","system_id":"levelo_inurba_marseille","lat":43.29039,"lon":5.39965,"is_reserved":false,"is_disabled":false,"rental_uris":{"android":"levelo://app?vid=8b41c47b-4dec-46d4-b18a-17e751cfc96a","ios":"levelo://app?vid=8b41c47b-4dec-46d4-b18a-17e751cfc96a"},"vehicle_type_id":"4","last_reported":1733148584,"current_range_meters":22400,"station_id":"ce4bh392rcd13ifvqdm0","pricing_plan_id":"cebpf4jnsgd1na2vs0mg"},{"bike_id":"f2dd53a7-a17b-4a70-bb0c-d38cd0312b11","system_id":"levelo_inurba_marseille","lat":43.24073,"lon":5.37755,"is_reserved":false,"is_disabled":true,"rental_uris":{"android":"levelo://app?vid=f2dd53a7-a17b-4a70-bb0c-d38cd0312b11","ios":"levelo://app?vid=f2dd53a7-a17b-4a70-bb0c-d38cd0312b11"},"vehicle_type_id":"4","last_reported":1733148584,"current_range_meters":0,"station_id":"ce4bhnp2rcd13ifvqgvg","pricing_plan_id":"cebpf4jnsgd1na2vs0mg"},{"bike_id":"9211c3d1-be1f-4677-9a82-b98349c83108","system_id":"levelo_inurba_marseille","lat":43.29451,"lon":5.3976,"is_reserved":false,"is_disabled":true,"rental_uris":{"android":"levelo://app?vid=9211c3d1-be1f-4677-9a82-b98349c83108","ios":"levelo://app?vid=9211c3d1-be1f-4677-9a82-b98349c83108"},"vehicle_type_id":"4","last_reported":1733148584,"current_range_meters":11600,"station_id":"ce4bh3h2rcd13ifvqdo0","pricing_plan_id":"cebpf4jnsgd1na2vs0mg"},{"bike_id":"6d494479-0711-4c7e-9dd7-4c129cea7f98","system_id":"levelo_inurba_marseille","lat":43.2657,"lon":5.39006,"is_reserved":false,"is_disabled":false,"rental_uris":{"android":"levelo://app?vid=6d494479-0711-4c7e-9dd7-4c129cea7f98","ios":"levelo://app?vid=6d494479-0711-4c7e-9dd7-4c129cea7f98"},"vehicle_type_id":"4","last_reported":1733148584,"current_range_meters":32800,"station_id":"ce4bhe12rcd13ifvqf30","pricing_plan_id":"cebpf4jnsgd1na2vs0mg"},{"bike_id":"9202c63e-372c-4469-a5c1-8e35757d1940","system_id":"levelo_inurba_marseille","lat":43.30053,"lon":5.38832,"is_reserved":false,"is_disabled":true,"rental_uris":{"android":"levelo://app?vid=9202c63e-372c-4469-a5c1-8e35757d1940","ios":"levelo://app?vid=9202c63e-372c-4469-a5c1-8e35757d1940"},"vehicle_type_id":"4","last_reported":1733148584,"current_range_meters":0,"station_id":"","pricing_plan_id":"cebpf4jnsgd1na2vs0mg"},{"bike_id":"41ac4f03-0cd0-4503-b09e-463183cca2fe","system_id":"levelo_inurba_marseille","lat":43.32654,"lon":5.40994,"is_reserved":false,"is_disabled":false,"rental_uris":{"android":"levelo://app?vid=41ac4f03-0cd0-4503-b09e-463183cca2fe","ios":"levelo://app?vid=41ac4f03-0cd0-4503-b09e-463183cca2fe"},"vehicle_type_id":"4","last_reported":1733148584,"current_range_meters":38800,"station_id":"ce4bhpp2rcd13ifvqhgg","pricing_plan_id":"cebpf4jnsgd1na2vs0mg"},{"bike_id":"59d51a55-3e28-4f77-bc6d-5c6155d01aba","system_id":"levelo_inurba_marseille","lat":43.30547,"lon":5.36532,"is_reserved":false,"is_disabled":false,"rental_uris":{"android":"levelo://app?vid=59d51a55-3e28-4f77-bc6d-5c6155d01aba","ios":"levelo://app?vid=59d51a55-3e28-4f77-bc6d-5c6155d01aba"},"vehicle_type_id":"4","last_reported":1733148584,"current_range_meters":38800,"station_id":"ce4bgs12rcd13ifvqcag","pricing_plan_id":"cebpf4jnsgd1na2vs0mg"},{"bike_id":"fa878b43-ea5b-4537-b3cc-bbce4597e2e1","system_id":"levelo_inurba_marseille","lat":43.23034,"lon":5.35531,"is_reserved":false,"is_disabled":false,"rental_uris":{"android":"levelo://app?vid=fa878b43-ea5b-4537-b3cc-bbce4597e2e1","ios":"levelo://app?vid=fa878b43-ea5b-4537-b3cc-bbce4597e2e1"},"vehicle_type_id":"4","last_reported":1733148584,"current_range_meters":25600,"station_id":"cpo3342slgdg3j2ifvpg","pricing_plan_id":"cebpf4jnsgd1na2vs0mg"},{"bike_id":"b5ad2eda-49e4-4e05-91f5-435548087a21","system_id":"levelo_inurba_marseille","lat":43.29024,"lon":5.3996,"is_reserved":false,"is_disabled":false,"rental_uris":{"android":"levelo://app?vid=b5ad2eda-49e4-4e05-91f5-435548087a21","ios":"levelo://app?vid=b5ad2eda-49e4-4e05-91f5-435548087a21"},"vehicle_type_id":"4","last_reported":1733148584,"current_range_meters":6800,"station_id":"ce4bh392rcd13ifvqdm0","pricing_plan_id":"cebpf4jnsgd1na2vs0mg"},{"bike_id":"692691a9-bd4a-4c62-91e1-a89a2833f61b","system_id":"levelo_inurba_marseille","lat":43.26807,"lon":5.40259,"is_reserved":false,"is_disabled":false,"rental_uris":{"android":"levelo://app?vid=692691a9-bd4a-4c62-91e1-a89a2833f61b","ios":"levelo://app?vid=692691a9-bd4a-4c62-91e1-a89a2833f61b"},"vehicle_type_id":"4","last_reported":1733148584,"current_range_meters":27600,"station_id":"ce501612rcd8frsf0b60","pricing_plan_id":"cebpf4jnsgd1na2vs0mg"},{"bike_id":"c60adda5-892d-4c27-89ba-5261cfbacea9","system_id":"levelo_inurba_marseille","lat":43.30149,"lon":5.38104,"is_reserved":false,"is_disabled":false,"rental_uris":{"android":"levelo://app?vid=c60adda5-892d-4c27-89ba-5261cfbacea9","ios":"levelo://app?vid=c60adda5-892d-4c27-89ba-5261cfbacea9"},"vehicle_type_id":"4","last_reported":1733148584,"current_range_meters":33200,"station_id":"ce4bgjp2rcd13ifvqbh0","pricing_plan_id":"cebpf4jnsgd1na2vs0mg"},{"bike_id":"363badec-b695-40c5-8e17-322396197360","system_id":"levelo_inurba_marseille","lat":43.32545,"lon":5.41428,"is_reserved":false,"is_disabled":false,"rental_uris":{"android":"levelo://app?vid=363badec-b695-40c5-8e17-322396197360","ios":"levelo://app?vid=363badec-b695-40c5-8e17-322396197360"},"vehicle_type_id":"4","last_reported":1733148584,"current_range_meters":24800,"station_id":"ce4bhq12rcd13ifvqhhg","pricing_plan_id":"cebpf4jnsgd1na2vs0mg"},{"bike_id":"bcd93344-397a-41ff-815e-1f62408400d8","system_id":"levelo_inurba_marseille","lat":43.29913,"lon":5.37463,"is_reserved":false,"is_disabled":false,"rental_uris":{"android":"levelo://app?vid=bcd93344-397a-41ff-815e-1f62408400d8","ios":"levelo://app?vid=bcd93344-397a-41ff-815e-1f62408400d8"},"vehicle_type_id":"4","last_reported":1733148584,"current_range_meters":25600,"station_id":"ce4bgjh2rcd13ifvqbg0","pricing_plan_id":"cebpf4jnsgd1na2vs0mg"},{"bike_id":"b0a10e59-1558-4b66-ac50-631e60659534","system_id":"levelo_inurba_marseille","lat":43.30245,"lon":5.40063,"is_reserved":false,"is_disabled":false,"rental_uris":{"android":"levelo://app?vid=b0a10e59-1558-4b66-ac50-631e60659534","ios":"levelo://app?vid=b0a10e59-1558-4b66-ac50-631e60659534"},"vehicle_type_id":"4","last_reported":1733148584,"current_range_meters":25200,"station_id":"ce4bgvh2rcd13ifvqcs0","pricing_plan_id":"cebpf4jnsgd1na2vs0mg"},{"bike_id":"dd6cad31-8801-4a6a-ab13-69ee4690be64","system_id":"levelo_inurba_marseille","lat":43.26942,"lon":5.40252,"is_reserved":false,"is_disabled":false,"rental_uris":{"android":"levelo://app?vid=dd6cad31-8801-4a6a-ab13-69ee4690be64","ios":"levelo://app?vid=dd6cad31-8801-4a6a-ab13-69ee4690be64"},"vehicle_type_id":"4","last_reported":1733148584,"current_range_meters":16800,"station_id":"cjm6bp8fraef2m0cb0m0","pricing_plan_id":"cebpf4jnsgd1na2vs0mg"},{"bike_id":"16ebf7b5-f5c0-4627-80b2-c506facfa757","system_id":"levelo_inurba_marseille","lat":43.27811,"lon":5.40716,"is_reserved":false,"is_disabled":true,"rental_uris":{"android":"levelo://app?vid=16ebf7b5-f5c0-4627-80b2-c506facfa757","ios":"levelo://app?vid=16ebf7b5-f5c0-4627-80b2-c506facfa757"},"vehicle_type_id":"4","last_reported":1733148584,"current_range_meters":0,"station_id":"","pricing_plan_id":"cebpf4jnsgd1na2vs0mg"},{"bike_id":"719e509a-25e4-4b1b-9830-f708d85d7593","system_id":"levelo_inurba_marseille","lat":43.29569,"lon":5.37512,"is_reserved":false,"is_disabled":true,"rental_uris":{"android":"levelo://app?vid=719e509a-25e4-4b1b-9830-f708d85d7593","ios":"levelo://app?vid=719e509a-25e4-4b1b-9830-f708d85d7593"},"vehicle_type_id":"4","last_reported":1733148584,"current_range_meters":0,"station_id":"ce4bgh92rcd13ifvqb50","pricing_plan_id":"cebpf4jnsgd1na2vs0mg"},{"bike_id":"f89025c6-ad9e-4cd4-b0c3-35c687dc3f63","system_id":"levelo_inurba_marseille","lat":43.24181,"lon":5.39729,"is_reserved":false,"is_disabled":false,"rental_uris":{"android":"levelo://app?vid=f89025c6-ad9e-4cd4-b0c3-35c687dc3f63","ios":"levelo://app?vid=f89025c6-ad9e-4cd4-b0c3-35c687dc3f63"},"vehicle_type_id":"4","last_reported":1733148584,"current_range_meters":38800,"station_id":"ce4bhn12rcd13ifvqgpg","pricing_plan_id":"cebpf4jnsgd1na2vs0mg"},{"bike_id":"99086a8a-33bd-4fc2-a353-a6c05a78f680","system_id":"levelo_inurba_marseille","lat":43.28721,"lon":5.36089,"is_reserved":false,"is_disabled":false,"rental_uris":{"android":"levelo://app?vid=99086a8a-33bd-4fc2-a353-a6c05a78f680","ios":"levelo://app?vid=99086a8a-33bd-4fc2-a353-a6c05a78f680"},"vehicle_type_id":"4","last_reported":1733148584,"current_range_meters":38400,"station_id":"cki0cbj6b192h4jlfktg","pricing_plan_id":"cebpf4jnsgd1na2vs0mg"},{"bike_id":"acb28bcd-cd90-482d-99bf-4944d15c38ad","system_id":"levelo_inurba_marseille","lat":43.32432,"lon":5.38228,"is_reserved":false,"is_disabled":false,"rental_uris":{"android":"levelo://app?vid=acb28bcd-cd90-482d-99bf-4944d15c38ad","ios":"levelo://app?vid=acb28bcd-cd90-482d-99bf-4944d15c38ad"},"vehicle_type_id":"4","last_reported":1733148584,"current_range_meters":22400,"station_id":"ce4bhr92rcd13ifvqhrg","pricing_plan_id":"cebpf4jnsgd1na2vs0mg"},{"bike_id":"6cce76d2-f183-4ad0-95d0-832b24dd2ca1","system_id":"levelo_inurba_marseille","lat":43.26685,"lon":5.38273,"is_reserved":false,"is_disabled":false,"rental_uris":{"android":"levelo://app?vid=6cce76d2-f183-4ad0-95d0-832b24dd2ca1","ios":"levelo://app?vid=6cce76d2-f183-4ad0-95d0-832b24dd2ca1"},"vehicle_type_id":"4","last_reported":1733148584,"current_range_meters":38000,"station_id":"ce4bhg92rcd13ifvqf90","pricing_plan_id":"cebpf4jnsgd1na2vs0mg"},{"bike_id":"2cf65095-36e5-4949-abae-c54c2895d97b","system_id":"levelo_inurba_marseille","lat":43.32533,"lon":5.41455,"is_reserved":false,"is_disabled":true,"rental_uris":{"android":"levelo://app?vid=2cf65095-36e5-4949-abae-c54c2895d97b","ios":"levelo://app?vid=2cf65095-36e5-4949-abae-c54c2895d97b"},"vehicle_type_id":"4","last_reported":1733148584,"current_range_meters":1600,"station_id":"ce4bhq12rcd13ifvqhhg","pricing_plan_id":"cebpf4jnsgd1na2vs0mg"},{"bike_id":"f8de6c35-1a81-4bd1-a68b-12d685bb1cb2","system_id":"levelo_inurba_marseille","lat":43.30901,"lon":5.36853,"is_reserved":false,"is_disabled":false,"rental_uris":{"android":"levelo://app?vid=f8de6c35-1a81-4bd1-a68b-12d685bb1cb2","ios":"levelo://app?vid=f8de6c35-1a81-4bd1-a68b-12d685bb1cb2"},"vehicle_type_id":"4","last_reported":1733148584,"current_range_meters":36000,"station_id":"ce4bgn92rcd13ifvqbvg","pricing_plan_id":"cebpf4jnsgd1na2vs0mg"},{"bike_id":"ebd27932-7a46-4182-bb2a-f2e563a432e2","system_id":"levelo_inurba_marseille","lat":43.27948,"lon":5.41044,"is_reserved":false,"is_disabled":false,"rental_uris":{"android":"levelo://app?vid=ebd27932-7a46-4182-bb2a-f2e563a432e2","ios":"levelo://app?vid=ebd27932-7a46-4182-bb2a-f2e563a432e2"},"vehicle_type_id":"4","last_reported":1733148584,"current_range_meters":25600,"station_id":"ce4bhnp2rcd13ifvqh0g","pricing_plan_id":"cebpf4jnsgd1na2vs0mg"},{"bike_id":"af516152-669f-4127-a90e-b75be119992d","system_id":"levelo_inurba_marseille","lat":43.30128,"lon":5.38803,"is_reserved":false,"is_disabled":false,"rental_uris":{"android":"levelo://app?vid=af516152-669f-4127-a90e-b75be119992d","ios":"levelo://app?vid=af516152-669f-4127-a90e-b75be119992d"},"vehicle_type_id":"4","last_reported":1733148584,"current_range_meters":11600,"station_id":"ce4bghh2rcd13ifvqb60","pricing_plan_id":"cebpf4jnsgd1na2vs0mg"},{"bike_id":"0cd1de82-d0e4-4320-87ee-c296eefb4071","system_id":"levelo_inurba_marseille","lat":43.29192,"lon":5.35813,"is_reserved":false,"is_disabled":false,"rental_uris":{"android":"levelo://app?vid=0cd1de82-d0e4-4320-87ee-c296eefb4071","ios":"levelo://app?vid=0cd1de82-d0e4-4320-87ee-c296eefb4071"},"vehicle_type_id":"4","last_reported":1733148584,"current_range_meters":22000,"station_id":"ce4bhb12rcd13ifvqel0","pricing_plan_id":"cebpf4jnsgd1na2vs0mg"},{"bike_id":"d1327370-d660-4e70-9935-d89769ac9ee5","system_id":"levelo_inurba_marseille","lat":43.26928,"lon":5.38923,"is_reserved":false,"is_disabled":false,"rental_uris":{"android":"levelo://app?vid=d1327370-d660-4e70-9935-d89769ac9ee5","ios":"levelo://app?vid=d1327370-d660-4e70-9935-d89769ac9ee5"},"vehicle_type_id":"4","last_reported":1733148584,"current_range_meters":38800,"station_id":"ce4bhhh2rcd13ifvqfl0","pricing_plan_id":"cebpf4jnsgd1na2vs0mg"},{"bike_id":"f14d1153-657b-478e-9ea5-75740c7bb469","system_id":"levelo_inurba_marseille","lat":43.27058,"lon":5.40259,"is_reserved":false,"is_disabled":false,"rental_uris":{"android":"levelo://app?vid=f14d1153-657b-478e-9ea5-75740c7bb469","ios":"levelo://app?vid=f14d1153-657b-478e-9ea5-75740c7bb469"},"vehicle_type_id":"4","last_reported":1733148584,"current_range_meters":16000,"station_id":"ce4bhk92rcd13ifvqgc0","pricing_plan_id":"cebpf4jnsgd1na2vs0mg"},{"bike_id":"f48eb107-5694-4943-909d-fb34609ea37c","system_id":"levelo_inurba_marseille","lat":43.27305,"lon":5.39089,"is_reserved":false,"is_disabled":false,"rental_uris":{"android":"levelo://app?vid=f48eb107-5694-4943-909d-fb34609ea37c","ios":"levelo://app?vid=f48eb107-5694-4943-909d-fb34609ea37c"},"vehicle_type_id":"4","last_reported":1733148584,"current_range_meters":6000,"station_id":"ce4bhgp2rcd13ifvqfe0","pricing_plan_id":"cebpf4jnsgd1na2vs0mg"},{"bike_id":"97b7c312-234a-4b9e-a8b6-7ed786afd86d","system_id":"levelo_inurba_marseille","lat":43.28458,"lon":5.3589,"is_reserved":false,"is_disabled":false,"rental_uris":{"android":"levelo://app?vid=97b7c312-234a-4b9e-a8b6-7ed786afd86d","ios":"levelo://app?vid=97b7c312-234a-4b9e-a8b6-7ed786afd86d"},"vehicle_type_id":"4","last_reported":1733148584,"current_range_meters":27600,"station_id":"ce4bhah2rcd13ifvqei0","pricing_plan_id":"cebpf4jnsgd1na2vs0mg"},{"bike_id":"493671c4-390f-4f42-84d2-88b193c1b02c","system_id":"levelo_inurba_marseille","lat":43.28848,"lon":5.39308,"is_reserved":false,"is_disabled":false,"rental_uris":{"android":"levelo://app?vid=493671c4-390f-4f42-84d2-88b193c1b02c","ios":"levelo://app?vid=493671c4-390f-4f42-84d2-88b193c1b02c"},"vehicle_type_id":"4","last_reported":1733148584,"current_range_meters":26800,"station_id":"ce4bh2p2rcd13ifvqdi0","pricing_plan_id":"cebpf4jnsgd1na2vs0mg"},{"bike_id":"a9fa8ed0-879a-454c-97af-bceb52aff443","system_id":"levelo_inurba_marseille","lat":43.30944,"lon":5.39045,"is_reserved":false,"is_disabled":true,"rental_uris":{"android":"levelo://app?vid=a9fa8ed0-879a-454c-97af-bceb52aff443","ios":"levelo://app?vid=a9fa8ed0-879a-454c-97af-bceb52aff443"},"vehicle_type_id":"4","last_reported":1733148584,"current_range_meters":0,"station_id":"ce4bgup2rcd13ifvqco0","pricing_plan_id":"cebpf4jnsgd1na2vs0mg"},{"bike_id":"73108df9-99dc-46f7-8d9f-7b797bc9b1fa","system_id":"levelo_inurba_marseille","lat":43.30322,"lon":5.36926,"is_reserved":false,"is_disabled":false,"rental_uris":{"android":"levelo://app?vid=73108df9-99dc-46f7-8d9f-7b797bc9b1fa","ios":"levelo://app?vid=73108df9-99dc-46f7-8d9f-7b797bc9b1fa"},"vehicle_type_id":"4","last_reported":1733148584,"current_range_meters":28000,"station_id":"ce4bgqh2rcd13ifvqc5g","pricing_plan_id":"cebpf4jnsgd1na2vs0mg"},{"bike_id":"589b7359-9a1d-47be-95be-c2555703c258","system_id":"levelo_inurba_marseille","lat":43.28153,"lon":5.42641,"is_reserved":false,"is_disabled":false,"rental_uris":{"android":"levelo://app?vid=589b7359-9a1d-47be-95be-c2555703c258","ios":"levelo://app?vid=589b7359-9a1d-47be-95be-c2555703c258"},"vehicle_type_id":"4","last_reported":1733148584,"current_range_meters":37600,"station_id":"ce4bhnh2rcd13ifvqgug","pricing_plan_id":"cebpf4jnsgd1na2vs0mg"},{"bike_id":"fbea491b-7a53-4808-8ebe-d322f1f74651","system_id":"levelo_inurba_marseille","lat":43.27378,"lon":5.36259,"is_reserved":false,"is_disabled":true,"rental_uris":{"android":"levelo://app?vid=fbea491b-7a53-4808-8ebe-d322f1f74651","ios":"levelo://app?vid=fbea491b-7a53-4808-8ebe-d322f1f74651"},"vehicle_type_id":"4","last_reported":1733148584,"current_range_meters":0,"station_id":"ce4bhbh2rcd13ifvqeo0","pricing_plan_id":"cebpf4jnsgd1na2vs0mg"},{"bike_id":"1e76eb1b-c7f7-43de-869f-ca02335171a5","system_id":"levelo_inurba_marseille","lat":43.24082,"lon":5.3775,"is_reserved":false,"is_disabled":false,"rental_uris":{"android":"levelo://app?vid=1e76eb1b-c7f7-43de-869f-ca02335171a5","ios":"levelo://app?vid=1e76eb1b-c7f7-43de-869f-ca02335171a5"},"vehicle_type_id":"4","last_reported":1733148584,"current_range_meters":39200,"station_id":"ce4bhnp2rcd13ifvqgvg","pricing_plan_id":"cebpf4jnsgd1na2vs0mg"},{"bike_id":"7d7af96a-2e59-4178-aa08-720d699bebbb","system_id":"levelo_inurba_marseille","lat":43.30135,"lon":5.37417,"is_reserved":false,"is_disabled":false,"rental_uris":{"android":"levelo://app?vid=7d7af96a-2e59-4178-aa08-720d699bebbb","ios":"levelo://app?vid=7d7af96a-2e59-4178-aa08-720d699bebbb"},"vehicle_type_id":"4","last_reported":1733148584,"current_range_meters":38800,"station_id":"ce4bgs92rcd13ifvqcc0","pricing_plan_id":"cebpf4jnsgd1na2vs0mg"},{"bike_id":"a49b68d9-3a47-4a03-b2ff-dc8ed44a9407","system_id":"levelo_inurba_marseille","lat":43.29627,"lon":5.37724,"is_reserved":false,"is_disabled":false,"rental_uris":{"android":"levelo://app?vid=a49b68d9-3a47-4a03-b2ff-dc8ed44a9407","ios":"levelo://app?vid=a49b68d9-3a47-4a03-b2ff-dc8ed44a9407"},"vehicle_type_id":"4","last_reported":1733148584,"current_range_meters":20400,"station_id":"ce4bgi92rcd13ifvqb90","pricing_plan_id":"cebpf4jnsgd1na2vs0mg"},{"bike_id":"3b2f9956-2747-41be-b149-acbbec934615","system_id":"levelo_inurba_marseille","lat":43.30149,"lon":5.38089,"is_reserved":false,"is_disabled":false,"rental_uris":{"android":"levelo://app?vid=3b2f9956-2747-41be-b149-acbbec934615","ios":"levelo://app?vid=3b2f9956-2747-41be-b149-acbbec934615"},"vehicle_type_id":"4","last_reported":1733148584,"current_range_meters":22000,"station_id":"ce4bgjp2rcd13ifvqbh0","pricing_plan_id":"cebpf4jnsgd1na2vs0mg"},{"bike_id":"9c12d6c1-1145-4a66-b58a-107268325d93","system_id":"levelo_inurba_marseille","lat":43.23152,"lon":5.43723,"is_reserved":false,"is_disabled":false,"rental_uris":{"android":"levelo://app?vid=9c12d6c1-1145-4a66-b58a-107268325d93","ios":"levelo://app?vid=9c12d6c1-1145-4a66-b58a-107268325d93"},"vehicle_type_id":"4","last_reported":1733148584,"current_range_meters":23200,"station_id":"ce4bhmp2rcd13ifvqgog","pricing_plan_id":"cebpf4jnsgd1na2vs0mg"},{"bike_id":"bf848401-5fb7-4ba7-a88e-440d6aea76cb","system_id":"levelo_inurba_marseille","lat":43.2844,"lon":5.39189,"is_reserved":false,"is_disabled":true,"rental_uris":{"android":"levelo://app?vid=bf848401-5fb7-4ba7-a88e-440d6aea76cb","ios":"levelo://app?vid=bf848401-5fb7-4ba7-a88e-440d6aea76cb"},"vehicle_type_id":"4","last_reported":1733148584,"current_range_meters":32000,"station_id":"ce4bhoh2rcd13ifvqh5g","pricing_plan_id":"cebpf4jnsgd1na2vs0mg"},{"bike_id":"c2d304a3-0873-4f1f-ada8-c9a8e56f70ea","system_id":"levelo_inurba_marseille","lat":43.27493,"lon":5.4245,"is_reserved":false,"is_disabled":false,"rental_uris":{"android":"levelo://app?vid=c2d304a3-0873-4f1f-ada8-c9a8e56f70ea","ios":"levelo://app?vid=c2d304a3-0873-4f1f-ada8-c9a8e56f70ea"},"vehicle_type_id":"4","last_reported":1733148584,"current_range_meters":38800,"station_id":"ce4bhn92rcd13ifvqgrg","pricing_plan_id":"cebpf4jnsgd1na2vs0mg"},{"bike_id":"79c8ea6d-5102-4a1e-b941-afdabc095945","system_id":"levelo_inurba_marseille","lat":43.29067,"lon":5.38348,"is_reserved":false,"is_disabled":true,"rental_uris":{"android":"levelo://app?vid=79c8ea6d-5102-4a1e-b941-afdabc095945","ios":"levelo://app?vid=79c8ea6d-5102-4a1e-b941-afdabc095945"},"vehicle_type_id":"4","last_reported":1733148584,"current_range_meters":29600,"station_id":"","pricing_plan_id":"cebpf4jnsgd1na2vs0mg"},{"bike_id":"d364ceb6-9666-4605-b953-7cf720117e03","system_id":"levelo_inurba_marseille","lat":43.30941,"lon":5.39049,"is_reserved":false,"is_disabled":false,"rental_uris":{"android":"levelo://app?vid=d364ceb6-9666-4605-b953-7cf720117e03","ios":"levelo://app?vid=d364ceb6-9666-4605-b953-7cf720117e03"},"vehicle_type_id":"4","last_reported":1733148584,"current_range_meters":13600,"station_id":"ce4bgup2rcd13ifvqco0","pricing_plan_id":"cebpf4jnsgd1na2vs0mg"},{"bike_id":"71eb750b-4ac0-40ae-81e0-d4f4060508ef","system_id":"levelo_inurba_marseille","lat":43.29559,"lon":5.42292,"is_reserved":false,"is_disabled":false,"rental_uris":{"android":"levelo://app?vid=71eb750b-4ac0-40ae-81e0-d4f4060508ef","ios":"levelo://app?vid=71eb750b-4ac0-40ae-81e0-d4f4060508ef"},"vehicle_type_id":"4","last_reported":1733148584,"current_range_meters":30000,"station_id":"ce4bhph2rcd13ifvqhdg","pricing_plan_id":"cebpf4jnsgd1na2vs0mg"},{"bike_id":"f2e68029-efe7-42bf-a24d-0d567b4427d9","system_id":"levelo_inurba_marseille","lat":43.2674,"lon":5.39469,"is_reserved":false,"is_disabled":false,"rental_uris":{"android":"levelo://app?vid=f2e68029-efe7-42bf-a24d-0d567b4427d9","ios":"levelo://app?vid=f2e68029-efe7-42bf-a24d-0d567b4427d9"},"vehicle_type_id":"4","last_reported":1733148584,"current_range_meters":38800,"station_id":"","pricing_plan_id":"cebpf4jnsgd1na2vs0mg"},{"bike_id":"bb280c75-35c4-4f24-ab27-c699523c853d","system_id":"levelo_inurba_marseille","lat":43.27495,"lon":5.4245,"is_reserved":false,"is_disabled":false,"rental_uris":{"android":"levelo://app?vid=bb280c75-35c4-4f24-ab27-c699523c853d","ios":"levelo://app?vid=bb280c75-35c4-4f24-ab27-c699523c853d"},"vehicle_type_id":"4","last_reported":1733148584,"current_range_meters":38000,"station_id":"ce4bhn92rcd13ifvqgrg","pricing_plan_id":"cebpf4jnsgd1na2vs0mg"},{"bike_id":"f273e556-2441-4cfd-9bbf-f6770b9f009b","system_id":"levelo_inurba_marseille","lat":43.27887,"lon":5.38019,"is_reserved":false,"is_disabled":false,"rental_uris":{"android":"levelo://app?vid=f273e556-2441-4cfd-9bbf-f6770b9f009b","ios":"levelo://app?vid=f273e556-2441-4cfd-9bbf-f6770b9f009b"},"vehicle_type_id":"4","last_reported":1733148584,"current_range_meters":38800,"station_id":"ce4bhf92rcd13ifvqf50","pricing_plan_id":"cebpf4jnsgd1na2vs0mg"},{"bike_id":"4e938e06-f64a-40b5-988b-e244d4a82283","system_id":"levelo_inurba_marseille","lat":43.29846,"lon":5.36278,"is_reserved":false,"is_disabled":false,"rental_uris":{"android":"levelo://app?vid=4e938e06-f64a-40b5-988b-e244d4a82283","ios":"levelo://app?vid=4e938e06-f64a-40b5-988b-e244d4a82283"},"vehicle_type_id":"4","last_reported":1733148584,"current_range_meters":37600,"station_id":"ce4bgpp2rcd13ifvqc3g","pricing_plan_id":"cebpf4jnsgd1na2vs0mg"},{"bike_id":"8f5567cb-2287-4a4b-9d55-2172c31b814b","system_id":"levelo_inurba_marseille","lat":43.2847,"lon":5.35882,"is_reserved":false,"is_disabled":false,"rental_uris":{"android":"levelo://app?vid=8f5567cb-2287-4a4b-9d55-2172c31b814b","ios":"levelo://app?vid=8f5567cb-2287-4a4b-9d55-2172c31b814b"},"vehicle_type_id":"4","last_reported":1733148584,"current_range_meters":39200,"station_id":"ce4bhah2rcd13ifvqei0","pricing_plan_id":"cebpf4jnsgd1na2vs0mg"},{"bike_id":"c6cc6cce-9096-4ecb-ab55-ca6b547eb560","system_id":"levelo_inurba_marseille","lat":43.23161,"lon":5.43698,"is_reserved":false,"is_disabled":false,"rental_uris":{"android":"levelo://app?vid=c6cc6cce-9096-4ecb-ab55-ca6b547eb560","ios":"levelo://app?vid=c6cc6cce-9096-4ecb-ab55-ca6b547eb560"},"vehicle_type_id":"4","last_reported":1733148584,"current_range_meters":36800,"station_id":"ce4bhmp2rcd13ifvqgog","pricing_plan_id":"cebpf4jnsgd1na2vs0mg"},{"bike_id":"d1ed5b4c-f0be-46f5-ae8e-8d8665733e30","system_id":"levelo_inurba_marseille","lat":43.28719,"lon":5.37942,"is_reserved":false,"is_disabled":false,"rental_uris":{"android":"levelo://app?vid=d1ed5b4c-f0be-46f5-ae8e-8d8665733e30","ios":"levelo://app?vid=d1ed5b4c-f0be-46f5-ae8e-8d8665733e30"},"vehicle_type_id":"4","last_reported":1733148584,"current_range_meters":37600,"station_id":"ce4bh9p2rcd13ifvqec0","pricing_plan_id":"cebpf4jnsgd1na2vs0mg"},{"bike_id":"6e1bb336-0993-4d92-bcbd-f8a3a380ed06","system_id":"levelo_inurba_marseille","lat":43.32483,"lon":5.36563,"is_reserved":false,"is_disabled":false,"rental_uris":{"android":"levelo://app?vid=6e1bb336-0993-4d92-bcbd-f8a3a380ed06","ios":"levelo://app?vid=6e1bb336-0993-4d92-bcbd-f8a3a380ed06"},"vehicle_type_id":"4","last_reported":1733148584,"current_range_meters":37600,"station_id":"ce4bhs12rcd13ifvqhvg","pricing_plan_id":"cebpf4jnsgd1na2vs0mg"},{"bike_id":"c31638b4-530c-4e75-b170-f72fafc13129","system_id":"levelo_inurba_marseille","lat":43.3266,"lon":5.40993,"is_reserved":false,"is_disabled":false,"rental_uris":{"android":"levelo://app?vid=c31638b4-530c-4e75-b170-f72fafc13129","ios":"levelo://app?vid=c31638b4-530c-4e75-b170-f72fafc13129"},"vehicle_type_id":"4","last_reported":1733148584,"current_range_meters":38400,"station_id":"ce4bhpp2rcd13ifvqhgg","pricing_plan_id":"cebpf4jnsgd1na2vs0mg"},{"bike_id":"a4b9e425-64b8-4ce2-a5ab-5fcc5d1230a4","system_id":"levelo_inurba_marseille","lat":43.32104,"lon":5.3678,"is_reserved":false,"is_disabled":false,"rental_uris":{"android":"levelo://app?vid=a4b9e425-64b8-4ce2-a5ab-5fcc5d1230a4","ios":"levelo://app?vid=a4b9e425-64b8-4ce2-a5ab-5fcc5d1230a4"},"vehicle_type_id":"4","last_reported":1733148584,"current_range_meters":17200,"station_id":"ce4bhrh2rcd13ifvqhug","pricing_plan_id":"cebpf4jnsgd1na2vs0mg"},{"bike_id":"6c382c19-96c0-41ad-8f4b-2aa254ac0ecb","system_id":"levelo_inurba_marseille","lat":43.3066,"lon":5.40094,"is_reserved":false,"is_disabled":true,"rental_uris":{"android":"levelo://app?vid=6c382c19-96c0-41ad-8f4b-2aa254ac0ecb","ios":"levelo://app?vid=6c382c19-96c0-41ad-8f4b-2aa254ac0ecb"},"vehicle_type_id":"4","last_reported":1733148584,"current_range_meters":38400,"station_id":"ce4bh112rcd13ifvqda0","pricing_plan_id":"cebpf4jnsgd1na2vs0mg"},{"bike_id":"e9bee98d-aead-465a-a5be-aa6852b07739","system_id":"levelo_inurba_marseille","lat":43.26564,"lon":5.39007,"is_reserved":false,"is_disabled":false,"rental_uris":{"android":"levelo://app?vid=e9bee98d-aead-465a-a5be-aa6852b07739","ios":"levelo://app?vid=e9bee98d-aead-465a-a5be-aa6852b07739"},"vehicle_type_id":"4","last_reported":1733148584,"current_range_meters":28000,"station_id":"ce4bhe12rcd13ifvqf30","pricing_plan_id":"cebpf4jnsgd1na2vs0mg"},{"bike_id":"e6698643-3f16-4336-a7c2-ea0cb6def508","system_id":"levelo_inurba_marseille","lat":43.269304,"lon":5.389207,"is_reserved":false,"is_disabled":true,"rental_uris":{"android":"levelo://app?vid=e6698643-3f16-4336-a7c2-ea0cb6def508","ios":"levelo://app?vid=e6698643-3f16-4336-a7c2-ea0cb6def508"},"vehicle_type_id":"4","last_reported":1733148584,"current_range_meters":0,"station_id":"ce4bhhh2rcd13ifvqfl0","pricing_plan_id":"cebpf4jnsgd1na2vs0mg"},{"bike_id":"b4c361fe-b50e-411c-a481-fb0aa6758b40","system_id":"levelo_inurba_marseille","lat":43.33604,"lon":5.41028,"is_reserved":false,"is_disabled":false,"rental_uris":{"android":"levelo://app?vid=b4c361fe-b50e-411c-a481-fb0aa6758b40","ios":"levelo://app?vid=b4c361fe-b50e-411c-a481-fb0aa6758b40"},"vehicle_type_id":"4","last_reported":1733148584,"current_range_meters":37600,"station_id":"ce4bhqh2rcd13ifvqhmg","pricing_plan_id":"cebpf4jnsgd1na2vs0mg"},{"bike_id":"0f889f2c-e6c2-47bc-8748-8be883930119","system_id":"levelo_inurba_marseille","lat":43.30535,"lon":5.38429,"is_reserved":false,"is_disabled":false,"rental_uris":{"android":"levelo://app?vid=0f889f2c-e6c2-47bc-8748-8be883930119","ios":"levelo://app?vid=0f889f2c-e6c2-47bc-8748-8be883930119"},"vehicle_type_id":"4","last_reported":1733148584,"current_range_meters":7200,"station_id":"ce4bgg92rcd13ifvqb30","pricing_plan_id":"cebpf4jnsgd1na2vs0mg"},{"bike_id":"f40db097-d003-4be1-9da0-41ac3f4245e5","system_id":"levelo_inurba_marseille","lat":43.29627,"lon":5.37714,"is_reserved":false,"is_disabled":false,"rental_uris":{"android":"levelo://app?vid=f40db097-d003-4be1-9da0-41ac3f4245e5","ios":"levelo://app?vid=f40db097-d003-4be1-9da0-41ac3f4245e5"},"vehicle_type_id":"4","last_reported":1733148584,"current_range_meters":14800,"station_id":"ce4bgi92rcd13ifvqb90","pricing_plan_id":"cebpf4jnsgd1na2vs0mg"},{"bike_id":"d44b0368-00be-4d57-a135-fbc6d4303bca","system_id":"levelo_inurba_marseille","lat":43.26687,"lon":5.38274,"is_reserved":false,"is_disabled":true,"rental_uris":{"android":"levelo://app?vid=d44b0368-00be-4d57-a135-fbc6d4303bca","ios":"levelo://app?vid=d44b0368-00be-4d57-a135-fbc6d4303bca"},"vehicle_type_id":"4","last_reported":1733148584,"current_range_meters":12000,"station_id":"ce4bhg92rcd13ifvqf90","pricing_plan_id":"cebpf4jnsgd1na2vs0mg"},{"bike_id":"c366a3aa-ae77-436b-bba4-31e7d701efae","system_id":"levelo_inurba_marseille","lat":43.30609,"lon":5.37183,"is_reserved":false,"is_disabled":false,"rental_uris":{"android":"levelo://app?vid=c366a3aa-ae77-436b-bba4-31e7d701efae","ios":"levelo://app?vid=c366a3aa-ae77-436b-bba4-31e7d701efae"},"vehicle_type_id":"4","last_reported":1733148584,"current_range_meters":38800,"station_id":"ce4bgg92rcd13ifvqb30","pricing_plan_id":"cebpf4jnsgd1na2vs0mg"},{"bike_id":"59d32da7-d68f-45ad-9ab0-eda81d34e270","system_id":"levelo_inurba_marseille","lat":43.28291,"lon":5.3818,"is_reserved":false,"is_disabled":false,"rental_uris":{"android":"levelo://app?vid=59d32da7-d68f-45ad-9ab0-eda81d34e270","ios":"levelo://app?vid=59d32da7-d68f-45ad-9ab0-eda81d34e270"},"vehicle_type_id":"4","last_reported":1733148584,"current_range_meters":37600,"station_id":"ce4bh412rcd13ifvqdr0","pricing_plan_id":"cebpf4jnsgd1na2vs0mg"},{"bike_id":"55085621-390a-41dc-9fb2-04e726231b97","system_id":"levelo_inurba_marseille","lat":43.29523,"lon":5.38552,"is_reserved":false,"is_disabled":false,"rental_uris":{"android":"levelo://app?vid=55085621-390a-41dc-9fb2-04e726231b97","ios":"levelo://app?vid=55085621-390a-41dc-9fb2-04e726231b97"},"vehicle_type_id":"4","last_reported":1733148584,"current_range_meters":7200,"station_id":"ce4bgih2rcd13ifvqba0","pricing_plan_id":"cebpf4jnsgd1na2vs0mg"},{"bike_id":"9d8acbfd-bfb5-4053-a5ae-9b0565280637","system_id":"levelo_inurba_marseille","lat":43.27303,"lon":5.39102,"is_reserved":false,"is_disabled":false,"rental_uris":{"android":"levelo://app?vid=9d8acbfd-bfb5-4053-a5ae-9b0565280637","ios":"levelo://app?vid=9d8acbfd-bfb5-4053-a5ae-9b0565280637"},"vehicle_type_id":"4","last_reported":1733148584,"current_range_meters":37600,"station_id":"ce4bhgp2rcd13ifvqfe0","pricing_plan_id":"cebpf4jnsgd1na2vs0mg"},{"bike_id":"9f6372a6-065a-4e4e-a232-8f126a87f16a","system_id":"levelo_inurba_marseille","lat":43.27919,"lon":5.39581,"is_reserved":false,"is_disabled":true,"rental_uris":{"android":"levelo://app?vid=9f6372a6-065a-4e4e-a232-8f126a87f16a","ios":"levelo://app?vid=9f6372a6-065a-4e4e-a232-8f126a87f16a"},"vehicle_type_id":"4","last_reported":1733148584,"current_range_meters":2000,"station_id":"ce4bhf92rcd13ifvqf40","pricing_plan_id":"cebpf4jnsgd1na2vs0mg"},{"bike_id":"32b70fda-b289-4635-a389-ca325e2916cc","system_id":"levelo_inurba_marseille","lat":43.29225,"lon":5.36071,"is_reserved":false,"is_disabled":false,"rental_uris":{"android":"levelo://app?vid=32b70fda-b289-4635-a389-ca325e2916cc","ios":"levelo://app?vid=32b70fda-b289-4635-a389-ca325e2916cc"},"vehicle_type_id":"4","last_reported":1733148584,"current_range_meters":36000,"station_id":"ce4bhbh2rcd13ifvqeqg","pricing_plan_id":"cebpf4jnsgd1na2vs0mg"},{"bike_id":"e0bf35cd-f021-4cf8-9fbe-43d3d63aef46","system_id":"levelo_inurba_marseille","lat":43.30548,"lon":5.36714,"is_reserved":false,"is_disabled":false,"rental_uris":{"android":"levelo://app?vid=e0bf35cd-f021-4cf8-9fbe-43d3d63aef46","ios":"levelo://app?vid=e0bf35cd-f021-4cf8-9fbe-43d3d63aef46"},"vehicle_type_id":"4","last_reported":1733148584,"current_range_meters":16400,"station_id":"ce4bgrp2rcd13ifvqc9g","pricing_plan_id":"cebpf4jnsgd1na2vs0mg"},{"bike_id":"eddf9349-81b8-4b0c-899b-f235bcb390e2","system_id":"levelo_inurba_marseille","lat":43.29935,"lon":5.36549,"is_reserved":false,"is_disabled":true,"rental_uris":{"android":"levelo://app?vid=eddf9349-81b8-4b0c-899b-f235bcb390e2","ios":"levelo://app?vid=eddf9349-81b8-4b0c-899b-f235bcb390e2"},"vehicle_type_id":"4","last_reported":1733148584,"current_range_meters":8800,"station_id":"ce4bgm92rcd13ifvqbr0","pricing_plan_id":"cebpf4jnsgd1na2vs0mg"},{"bike_id":"f1f256ce-97b0-40dc-a01e-21efa6af9a7a","system_id":"levelo_inurba_marseille","lat":43.30322,"lon":5.40426,"is_reserved":false,"is_disabled":false,"rental_uris":{"android":"levelo://app?vid=f1f256ce-97b0-40dc-a01e-21efa6af9a7a","ios":"levelo://app?vid=f1f256ce-97b0-40dc-a01e-21efa6af9a7a"},"vehicle_type_id":"4","last_reported":1733148584,"current_range_meters":17200,"station_id":"ce4bh012rcd13ifvqd10","pricing_plan_id":"cebpf4jnsgd1na2vs0mg"},{"bike_id":"160898fc-3993-4cbf-a1d2-f27060d4f34f","system_id":"levelo_inurba_marseille","lat":43.28272,"lon":5.35077,"is_reserved":false,"is_disabled":false,"rental_uris":{"android":"levelo://app?vid=160898fc-3993-4cbf-a1d2-f27060d4f34f","ios":"levelo://app?vid=160898fc-3993-4cbf-a1d2-f27060d4f34f"},"vehicle_type_id":"4","last_reported":1733148584,"current_range_meters":24800,"station_id":"ce4bhbp2rcd13ifvqerg","pricing_plan_id":"cebpf4jnsgd1na2vs0mg"},{"bike_id":"9c51d8a2-940e-42ed-9468-b49e00e54dfe","system_id":"levelo_inurba_marseille","lat":43.30551,"lon":5.36712,"is_reserved":false,"is_disabled":false,"rental_uris":{"android":"levelo://app?vid=9c51d8a2-940e-42ed-9468-b49e00e54dfe","ios":"levelo://app?vid=9c51d8a2-940e-42ed-9468-b49e00e54dfe"},"vehicle_type_id":"4","last_reported":1733148584,"current_range_meters":38800,"station_id":"ce4bgrp2rcd13ifvqc9g","pricing_plan_id":"cebpf4jnsgd1na2vs0mg"},{"bike_id":"5e160b8e-5c83-4423-b051-bd2cf577003d","system_id":"levelo_inurba_marseille","lat":43.23189,"lon":5.35552,"is_reserved":false,"is_disabled":false,"rental_uris":{"android":"levelo://app?vid=5e160b8e-5c83-4423-b051-bd2cf577003d","ios":"levelo://app?vid=5e160b8e-5c83-4423-b051-bd2cf577003d"},"vehicle_type_id":"4","last_reported":1733148584,"current_range_meters":29600,"station_id":"ce4bhu92rcd13ifvqi70","pricing_plan_id":"cebpf4jnsgd1na2vs0mg"},{"bike_id":"322cf6fe-0822-422b-95a4-35c4bd952f62","system_id":"levelo_inurba_marseille","lat":43.27189,"lon":5.40988,"is_reserved":false,"is_disabled":false,"rental_uris":{"android":"levelo://app?vid=322cf6fe-0822-422b-95a4-35c4bd952f62","ios":"levelo://app?vid=322cf6fe-0822-422b-95a4-35c4bd952f62"},"vehicle_type_id":"4","last_reported":1733148584,"current_range_meters":28400,"station_id":"ce4bhl12rcd13ifvqgf0","pricing_plan_id":"cebpf4jnsgd1na2vs0mg"},{"bike_id":"df282ba8-17eb-4fce-abd3-e1ba704dcef4","system_id":"levelo_inurba_marseille","lat":43.295723,"lon":5.399681,"is_reserved":false,"is_disabled":true,"rental_uris":{"android":"levelo://app?vid=df282ba8-17eb-4fce-abd3-e1ba704dcef4","ios":"levelo://app?vid=df282ba8-17eb-4fce-abd3-e1ba704dcef4"},"vehicle_type_id":"4","last_reported":1733148584,"current_range_meters":19600,"station_id":"ce4bh312rcd13ifvqdj0","pricing_plan_id":"cebpf4jnsgd1na2vs0mg"},{"bike_id":"d9dc3481-e32b-4ecd-a165-29185a716819","system_id":"levelo_inurba_marseille","lat":43.29784,"lon":5.38108,"is_reserved":false,"is_disabled":false,"rental_uris":{"android":"levelo://app?vid=d9dc3481-e32b-4ecd-a165-29185a716819","ios":"levelo://app?vid=d9dc3481-e32b-4ecd-a165-29185a716819"},"vehicle_type_id":"4","last_reported":1733148584,"current_range_meters":19600,"station_id":"ce4bgip2rcd13ifvqbb0","pricing_plan_id":"cebpf4jnsgd1na2vs0mg"},{"bike_id":"95572b21-879a-4263-bb3f-4ee2d9590ba6","system_id":"levelo_inurba_marseille","lat":43.30541,"lon":5.36544,"is_reserved":false,"is_disabled":false,"rental_uris":{"android":"levelo://app?vid=95572b21-879a-4263-bb3f-4ee2d9590ba6","ios":"levelo://app?vid=95572b21-879a-4263-bb3f-4ee2d9590ba6"},"vehicle_type_id":"4","last_reported":1733148584,"current_range_meters":38800,"station_id":"ce4bgs12rcd13ifvqcag","pricing_plan_id":"cebpf4jnsgd1na2vs0mg"},{"bike_id":"3a5e58b5-3c98-4f3b-ae37-c37e0cc0f0fd","system_id":"levelo_inurba_marseille","lat":43.29932,"lon":5.36549,"is_reserved":false,"is_disabled":false,"rental_uris":{"android":"levelo://app?vid=3a5e58b5-3c98-4f3b-ae37-c37e0cc0f0fd","ios":"levelo://app?vid=3a5e58b5-3c98-4f3b-ae37-c37e0cc0f0fd"},"vehicle_type_id":"4","last_reported":1733148584,"current_range_meters":17600,"station_id":"ce4bgm92rcd13ifvqbr0","pricing_plan_id":"cebpf4jnsgd1na2vs0mg"},{"bike_id":"70fac8b3-ff8d-4f80-b320-d5f976b2f736","system_id":"levelo_inurba_marseille","lat":43.25503,"lon":5.37645,"is_reserved":false,"is_disabled":false,"rental_uris":{"android":"levelo://app?vid=70fac8b3-ff8d-4f80-b320-d5f976b2f736","ios":"levelo://app?vid=70fac8b3-ff8d-4f80-b320-d5f976b2f736"},"vehicle_type_id":"4","last_reported":1733148584,"current_range_meters":26000,"station_id":"ce4bhh12rcd13ifvqff0","pricing_plan_id":"cebpf4jnsgd1na2vs0mg"},{"bike_id":"73440d83-0497-47ab-b047-2b8a403f3b17","system_id":"levelo_inurba_marseille","lat":43.30532,"lon":5.38423,"is_reserved":false,"is_disabled":false,"rental_uris":{"android":"levelo://app?vid=73440d83-0497-47ab-b047-2b8a403f3b17","ios":"levelo://app?vid=73440d83-0497-47ab-b047-2b8a403f3b17"},"vehicle_type_id":"4","last_reported":1733148584,"current_range_meters":37600,"station_id":"ce4bgg92rcd13ifvqb30","pricing_plan_id":"cebpf4jnsgd1na2vs0mg"},{"bike_id":"36cd6868-7658-4f13-aa8a-d723e48c165c","system_id":"levelo_inurba_marseille","lat":43.31361,"lon":5.36714,"is_reserved":false,"is_disabled":false,"rental_uris":{"android":"levelo://app?vid=36cd6868-7658-4f13-aa8a-d723e48c165c","ios":"levelo://app?vid=36cd6868-7658-4f13-aa8a-d723e48c165c"},"vehicle_type_id":"4","last_reported":1733148584,"current_range_meters":21600,"station_id":"ce4bgr92rcd13ifvqc6g","pricing_plan_id":"cebpf4jnsgd1na2vs0mg"},{"bike_id":"7af4ac07-34a5-4344-80e3-8cd43d0bd39f","system_id":"levelo_inurba_marseille","lat":43.27959,"lon":5.38719,"is_reserved":false,"is_disabled":false,"rental_uris":{"android":"levelo://app?vid=7af4ac07-34a5-4344-80e3-8cd43d0bd39f","ios":"levelo://app?vid=7af4ac07-34a5-4344-80e3-8cd43d0bd39f"},"vehicle_type_id":"4","last_reported":1733148584,"current_range_meters":27600,"station_id":"ce4bhg12rcd13ifvqf80","pricing_plan_id":"cebpf4jnsgd1na2vs0mg"},{"bike_id":"b2b52eed-b6b0-423f-b350-b37dd95fe81c","system_id":"levelo_inurba_marseille","lat":43.29842,"lon":5.36258,"is_reserved":false,"is_disabled":false,"rental_uris":{"android":"levelo://app?vid=b2b52eed-b6b0-423f-b350-b37dd95fe81c","ios":"levelo://app?vid=b2b52eed-b6b0-423f-b350-b37dd95fe81c"},"vehicle_type_id":"4","last_reported":1733148584,"current_range_meters":38800,"station_id":"ce4bgpp2rcd13ifvqc3g","pricing_plan_id":"cebpf4jnsgd1na2vs0mg"},{"bike_id":"e63aa962-a242-44bd-8328-31cf6c0d9d3d","system_id":"levelo_inurba_marseille","lat":43.29301,"lon":5.37178,"is_reserved":false,"is_disabled":true,"rental_uris":{"android":"levelo://app?vid=e63aa962-a242-44bd-8328-31cf6c0d9d3d","ios":"levelo://app?vid=e63aa962-a242-44bd-8328-31cf6c0d9d3d"},"vehicle_type_id":"4","last_reported":1733148584,"current_range_meters":0,"station_id":"ce4bgh92rcd13ifvqb40","pricing_plan_id":"cebpf4jnsgd1na2vs0mg"},{"bike_id":"91edee77-9f26-4173-ab2e-f00447a2b965","system_id":"levelo_inurba_marseille","lat":43.29223,"lon":5.36071,"is_reserved":false,"is_disabled":false,"rental_uris":{"android":"levelo://app?vid=91edee77-9f26-4173-ab2e-f00447a2b965","ios":"levelo://app?vid=91edee77-9f26-4173-ab2e-f00447a2b965"},"vehicle_type_id":"4","last_reported":1733148584,"current_range_meters":17200,"station_id":"ce4bhbh2rcd13ifvqeqg","pricing_plan_id":"cebpf4jnsgd1na2vs0mg"},{"bike_id":"aad28021-3456-4cf9-bc29-eabcfa6f6b14","system_id":"levelo_inurba_marseille","lat":43.329009,"lon":5.36446,"is_reserved":false,"is_disabled":false,"rental_uris":{"android":"levelo://app?vid=aad28021-3456-4cf9-bc29-eabcfa6f6b14","ios":"levelo://app?vid=aad28021-3456-4cf9-bc29-eabcfa6f6b14"},"vehicle_type_id":"4","last_reported":1733148584,"current_range_meters":9600,"station_id":"","pricing_plan_id":"cebpf4jnsgd1na2vs0mg"},{"bike_id":"3bc3f585-d130-4e68-aa87-793fdd897875","system_id":"levelo_inurba_marseille","lat":43.25497,"lon":5.37649,"is_reserved":false,"is_disabled":false,"rental_uris":{"android":"levelo://app?vid=3bc3f585-d130-4e68-aa87-793fdd897875","ios":"levelo://app?vid=3bc3f585-d130-4e68-aa87-793fdd897875"},"vehicle_type_id":"4","last_reported":1733148584,"current_range_meters":16400,"station_id":"ce4bhh12rcd13ifvqff0","pricing_plan_id":"cebpf4jnsgd1na2vs0mg"},{"bike_id":"63dd93b9-34c6-495e-91ab-0614537649c7","system_id":"levelo_inurba_marseille","lat":43.32288,"lon":5.38272,"is_reserved":false,"is_disabled":false,"rental_uris":{"android":"levelo://app?vid=63dd93b9-34c6-495e-91ab-0614537649c7","ios":"levelo://app?vid=63dd93b9-34c6-495e-91ab-0614537649c7"},"vehicle_type_id":"4","last_reported":1733148584,"current_range_meters":38800,"station_id":"ce4bhr12rcd13ifvqhqg","pricing_plan_id":"cebpf4jnsgd1na2vs0mg"},{"bike_id":"db3350c1-c25d-4348-9a3c-eecb318b29cc","system_id":"levelo_inurba_marseille","lat":43.31821,"lon":5.424,"is_reserved":false,"is_disabled":false,"rental_uris":{"android":"levelo://app?vid=db3350c1-c25d-4348-9a3c-eecb318b29cc","ios":"levelo://app?vid=db3350c1-c25d-4348-9a3c-eecb318b29cc"},"vehicle_type_id":"4","last_reported":1733148584,"current_range_meters":38400,"station_id":"","pricing_plan_id":"cebpf4jnsgd1na2vs0mg"},{"bike_id":"ea3106cb-0d51-4c9d-a4ad-a91b724fe177","system_id":"levelo_inurba_marseille","lat":43.29571,"lon":5.3997,"is_reserved":false,"is_disabled":true,"rental_uris":{"android":"levelo://app?vid=ea3106cb-0d51-4c9d-a4ad-a91b724fe177","ios":"levelo://app?vid=ea3106cb-0d51-4c9d-a4ad-a91b724fe177"},"vehicle_type_id":"4","last_reported":1733148584,"current_range_meters":32400,"station_id":"ce4bh312rcd13ifvqdj0","pricing_plan_id":"cebpf4jnsgd1na2vs0mg"},