{"last_updated":1743836944,"ttl":60,"version":"2.2","data":{"bikes":[{"bike_id":"c5fb124f-c45e-494b-9136-b3c0ddb09fe1","system_id":"levelo_inurba_marseille","lat":43.29275,"lon":5.36855,"is_reserved":false,"is_disabled":false,"rental_uris":{"android":"levelo://app?vid=c5fb124f-c45e-494b-9136-b3c0ddb09fe1","ios":"levelo://app?vid=c5fb124f-c45e-494b-9136-b3c0ddb09fe1"},"vehicle_type_id":"4","last_reported":1743836944,"current_range_meters":2800,"station_id":"ce4bhbp2rcd13ifvqesg","pricing_plan_id":"cebpf4jnsgd1na2vs0mg"},{"bike_id":"0938da3a-ec86-44a3-9381-0634dc32daf0","system_id":"levelo_inurba_marseille","lat":43.29267,"lon":5.384431,"is_reserved":false,"is_disabled":false,"rental_uris":{"android":"levelo://app?vid=0938da3a-ec86-44a3-9381-0634dc32daf0","ios":"levelo://app?vid=0938da3a-ec86-44a3-9381-0634dc32daf0"},"vehicle_type_id":"4","last_reported":1743836944,"current_range_meters":2800,"station_id":"ce4bh692rcd13ifvqea0","pricing_plan_id":"cebpf4jnsgd1na2vs0mg"},{"bike_id":"fedcbb9c-0656-4248-8cb7-d9a2bd0e5e5e","system_id":"levelo_inurba_marseille","lat":43.30274,"lon":5.37722,"is_reserved":false,"is_disabled":false,"rental_uris":{"android":"levelo://app?vid=fedcbb9c-0656-4248-8cb7-d9a2bd0e5e5e","ios":"levelo://app?vid=fedcbb9c-0656-4248-8cb7-d9a2bd0e5e5e"},"vehicle_type_id":"4","last_reported":1743836944,"current_range_meters":2800,"station_id":"ce4bguh2rcd13ifvqcj0","pricing_plan_id":"cebpf4jnsgd1na2vs0mg"},{"bike_id":"98085950-e471-460e-9c58-2f06c316b261","system_id":"levelo_inurba_marseille","lat":43.27972,"lon":5.38712,"is_reserved":false,"is_disabled":false,"rental_uris":{"android":"levelo://app?vid=98085950-e471-460e-9c58-2f06c316b261","ios":"levelo://app?vid=98085950-e471-460e-9c58-2f06c316b261"},"vehicle_type_id":"4","last_reported":1743836944,"current_range_meters":2800,"station_id":"ce4bhg12rcd13ifvqf80","pricing_plan_id":"cebpf4jnsgd1na2vs0mg"},{"bike_id":"715eff50-001a-413a-8e2d-3344911b1ca7","system_id":"levelo_inurba_marseille","lat":43.33327,"lon":5.39871,"is_reserved":false,"is_disabled":false,"rental_uris":{"android":"levelo://app?vid=715eff50-001a-413a-8e2d-3344911b1ca7","ios":"levelo://app?vid=715eff50-001a-413a-8e2d-3344911b1ca7"},"vehicle_type_id":"4","last_reported":1743836944,"current_range_meters":3200,"station_id":"","pricing_plan_id":"cebpf4jnsgd1na2vs0mg"},{"bike_id":"56189cf7-dd04-4b63-861f-85c89fc0cb1b","system_id":"levelo_inurba_marseille","lat":43.29229,"lon":5.36069,"is_reserved":false,"is_disabled":false,"rental_uris":{"android":"levelo://app?vid=56189cf7-dd04-4b63-861f-85c89fc0cb1b","ios":"levelo://app?vid=56189cf7-dd04-4b63-861f-85c89fc0cb1b"},"vehicle_type_id":"4","last_reported":1743836944,"current_range_meters":3200,"station_id":"ce4bhbh2rcd13ifvqeqg","pricing_plan_id":"cebpf4jnsgd1na2vs0mg"},{"bike_id":"80160bc7-9dd0-4d7e-bec6-1cf3edc169b8","system_id":"levelo_inurba_marseille","lat":43.25816,"lon":5.39426,"is_reserved":false,"is_disabled":true,"rental_uris":{"android":"levelo://app?vid=80160bc7-9dd0-4d7e-bec6-1cf3edc169b8","ios":"levelo://app?vid=80160bc7-9dd0-4d7e-bec6-1cf3edc169b8"},"vehicle_type_id":"4","last_reported":1743836944,"current_range_meters":3600,"station_id":"ce4bhip2rcd13ifvqft0","pricing_plan_id":"cebpf4jnsgd1na2vs0mg"},{"bike_id":"e3a29d38-a611-4b12-87ef-2fb8a21c41d5","system_id":"levelo_inurba_marseille","lat":43.229232,"lon":5.353749,"is_reserved":false,"is_disabled":false,"rental_uris":{"android":"levelo://app?vid=e3a29d38-a611-4b12-87ef-2fb8a21c41d5","ios":"levelo://app?vid=e3a29d38-a611-4b12-87ef-2fb8a21c41d5"},"vehicle_type_id":"4","last_reported":1743836944,"current_range_meters":3600,"station_id":"cpo3532slgdg3j2ikp40","pricing_plan_id":"cebpf4jnsgd1na2vs0mg"},{"bike_id":"71b5f888-6463-4795-aba7-c343056e2940","system_id":"levelo_inurba_marseille","lat":43.31116,"lon":5.37766,"is_reserved":false,"is_disabled":false,"rental_uris":{"android":"levelo://app?vid=71b5f888-6463-4795-aba7-c343056e2940","ios":"levelo://app?vid=71b5f888-6463-4795-aba7-c343056e2940"},"vehicle_type_id":"4","last_reported":1743836944,"current_range_meters":3600,"station_id":"ce4bgt92rcd13ifvqcg0","pricing_plan_id":"cebpf4jnsgd1na2vs0mg"},{"bike_id":"d053ce73-3294-48d7-893d-d68ec20a4fe9","system_id":"levelo_inurba_marseille","lat":43.231982,"lon":5.355476,"is_reserved":false,"is_disabled":false,"rental_uris":{"android":"levelo://app?vid=d053ce73-3294-48d7-893d-d68ec20a4fe9","ios":"levelo://app?vid=d053ce73-3294-48d7-893d-d68ec20a4fe9"},"vehicle_type_id":"4","last_reported":1743836944,"current_range_meters":3600,"station_id":"ce4bhu92rcd13ifvqi70","pricing_plan_id":"cebpf4jnsgd1na2vs0mg"},{"bike_id":"0e88f134-2423-4b08-bc3c-5f7a38937552","system_id":"levelo_inurba_marseille","lat":43.2319,"lon":5.39984,"is_reserved":false,"is_disabled":false,"rental_uris":{"android":"levelo://app?vid=0e88f134-2423-4b08-bc3c-5f7a38937552","ios":"levelo://app?vid=0e88f134-2423-4b08-bc3c-5f7a38937552"},"vehicle_type_id":"4","last_reported":1743836944,"current_range_meters":4000,"station_id":"ce4bhn12rcd13ifvqgqg","pricing_plan_id":"cebpf4jnsgd1na2vs0mg"},{"bike_id":"ac763f37-3cd2-440c-b42a-fc3efbb304a2","system_id":"levelo_inurba_marseille","lat":43.24387,"lon":5.37051,"is_reserved":false,"is_disabled":false,"rental_uris":{"android":"levelo://app?vid=ac763f37-3cd2-440c-b42a-fc3efbb304a2","ios":"levelo://app?vid=ac763f37-3cd2-440c-b42a-fc3efbb304a2"},"vehicle_type_id":"4","last_reported":1743836944,"current_range_meters":4000,"station_id":"ce4bhhh2rcd13ifvqfk0","pricing_plan_id":"cebpf4jnsgd1na2vs0mg"},{"bike_id":"2c584e93-10f6-4054-a15a-076ac673fc06","system_id":"levelo_inurba_marseille","lat":43.30385,"lon":5.42526,"is_reserved":false,"is_disabled":true,"rental_uris":{"android":"levelo://app?vid=2c584e93-10f6-4054-a15a-076ac673fc06","ios":"levelo://app?vid=2c584e93-10f6-4054-a15a-076ac673fc06"},"vehicle_type_id":"4","last_reported":1743836944,"current_range_meters":4400,"station_id":"ce4bhoh2rcd13ifvqh6g","pricing_plan_id":"cebpf4jnsgd1na2vs0mg"},{"bike_id":"2d3cfe1c-173b-4184-80ec-d0dc33750349","system_id":"levelo_inurba_marseille","lat":43.2622,"lon":5.37477,"is_reserved":false,"is_disabled":false,"rental_uris":{"android":"levelo://app?vid=2d3cfe1c-173b-4184-80ec-d0dc33750349","ios":"levelo://app?vid=2d3cfe1c-173b-4184-80ec-d0dc33750349"},"vehicle_type_id":"4","last_reported":1743836944,"current_range_meters":4400,"station_id":"","pricing_plan_id":"cebpf4jnsgd1na2vs0mg"},{"bike_id":"c13336a2-47ce-488c-b5b6-77c01a3ac1d1","system_id":"levelo_inurba_marseille","lat":43.31898,"lon":5.40744,"is_reserved":false,"is_disabled":true,"rental_uris":{"android":"levelo://app?vid=c13336a2-47ce-488c-b5b6-77c01a3ac1d1","ios":"levelo://app?vid=c13336a2-47ce-488c-b5b6-77c01a3ac1d1"},"vehicle_type_id":"4","last_reported":1743836944,"current_range_meters":4400,"station_id":"ce4bhq12rcd13ifvqhig","pricing_plan_id":"cebpf4jnsgd1na2vs0mg"},{"bike_id":"6e7e8bd0-971a-4bf5-a521-0d1053f36753","system_id":"levelo_inurba_marseille","lat":43.31079,"lon":5.4245,"is_reserved":false,"is_disabled":true,"rental_uris":{"android":"levelo://app?vid=6e7e8bd0-971a-4bf5-a521-0d1053f36753","ios":"levelo://app?vid=6e7e8bd0-971a-4bf5-a521-0d1053f36753"},"vehicle_type_id":"4","last_reported":1743836944,"current_range_meters":4400,"station_id":"ce4bhp92rcd13ifvqhag","pricing_plan_id":"cebpf4jnsgd1na2vs0mg"},{"bike_id":"d76832c4-3604-4de9-b7a5-182f7c6e995c","system_id":"levelo_inurba_marseille","lat":43.31369,"lon":5.38514,"is_reserved":false,"is_disabled":true,"rental_uris":{"android":"levelo://app?vid=d76832c4-3604-4de9-b7a5-182f7c6e995c","ios":"levelo://app?vid=d76832c4-3604-4de9-b7a5-182f7c6e995c"},"vehicle_type_id":"4","last_reported":1743836944,"current_range_meters":4800,"station_id":"ce4bgt92rcd13ifvqcf0","pricing_plan_id":"cebpf4jnsgd1na2vs0mg"},{"bike_id":"5f46717b-05d1-4f34-a220-8087932d755b","system_id":"levelo_inurba_marseille","lat":43.30113,"lon":5.36933,"is_reserved":false,"is_disabled":false,"rental_uris":{"android":"levelo://app?vid=5f46717b-05d1-4f34-a220-8087932d755b","ios":"levelo://app?vid=5f46717b-05d1-4f34-a220-8087932d755b"},"vehicle_type_id":"4","last_reported":1743836944,"current_range_meters":4800,"station_id":"","pricing_plan_id":"cebpf4jnsgd1na2vs0mg"},{"bike_id":"58824411-7845-46b8-abf6-d59167b89c01","system_id":"levelo_inurba_marseille","lat":43.30154,"lon":5.38029,"is_reserved":false,"is_disabled":false,"rental_uris":{"android":"levelo://app?vid=58824411-7845-46b8-abf6-d59167b89c01","ios":"levelo://app?vid=58824411-7845-46b8-abf6-d59167b89c01"},"vehicle_type_id":"4","last_reported":1743836944,"current_range_meters":5600,"station_id":"ce4bgjp2rcd13ifvqbh0","pricing_plan_id":"cebpf4jnsgd1na2vs0mg"},{"bike_id":"cc2f94e7-44a5-4674-9e1f-4b2123ee686a","system_id":"levelo_inurba_marseille","lat":43.31358,"lon":5.38489,"is_reserved":false,"is_disabled":false,"rental_uris":{"android":"levelo://app?vid=cc2f94e7-44a5-4674-9e1f-4b2123ee686a","ios":"levelo://app?vid=cc2f94e7-44a5-4674-9e1f-4b2123ee686a"},"vehicle_type_id":"4","last_reported":1743836944,"current_range_meters":5600,"station_id":"ce4bgt92rcd13ifvqcf0","pricing_plan_id":"cebpf4jnsgd1na2vs0mg"},{"bike_id":"1049ba71-fb41-4dc5-8c5a-67fbc6fe8421","system_id":"levelo_inurba_marseille","lat":43.25523,"lon":5.37661,"is_reserved":false,"is_disabled":true,"rental_uris":{"android":"levelo://app?vid=1049ba71-fb41-4dc5-8c5a-67fbc6fe8421","ios":"levelo://app?vid=1049ba71-fb41-4dc5-8c5a-67fbc6fe8421"},"vehicle_type_id":"4","last_reported":1743836944,"current_range_meters":5600,"station_id":"ce4bhh12rcd13ifvqff0","pricing_plan_id":"cebpf4jnsgd1na2vs0mg"},{"bike_id":"426af549-07ec-4b87-8397-e705745ce2c9","system_id":"levelo_inurba_marseille","lat":43.25137,"lon":5.40322,"is_reserved":false,"is_disabled":false,"rental_uris":{"android":"levelo://app?vid=426af549-07ec-4b87-8397-e705745ce2c9","ios":"levelo://app?vid=426af549-07ec-4b87-8397-e705745ce2c9"},"vehicle_type_id":"4","last_reported":1743836944,"current_range_meters":5600,"station_id":"ce4bhlh2rcd13ifvqgig","pricing_plan_id":"cebpf4jnsgd1na2vs0mg"},{"bike_id":"1314e27e-2011-45ad-b8e0-a3faba718da1","system_id":"levelo_inurba_marseille","lat":43.33329,"lon":5.397335,"is_reserved":false,"is_disabled":false,"rental_uris":{"android":"levelo://app?vid=1314e27e-2011-45ad-b8e0-a3faba718da1","ios":"levelo://app?vid=1314e27e-2011-45ad-b8e0-a3faba718da1"},"vehicle_type_id":"4","last_reported":1743836944,"current_range_meters":5600,"station_id":"","pricing_plan_id":"cebpf4jnsgd1na2vs0mg"},{"bike_id":"87fe484c-094e-4486-8fa5-efad50ec7d81","system_id":"levelo_inurba_marseille","lat":43.25113,"lon":5.40327,"is_reserved":false,"is_disabled":false,"rental_uris":{"android":"levelo://app?vid=87fe484c-094e-4486-8fa5-efad50ec7d81","ios":"levelo://app?vid=87fe484c-094e-4486-8fa5-efad50ec7d81"},"vehicle_type_id":"4","last_reported":1743836944,"current_range_meters":5600,"station_id":"ce4bhlh2rcd13ifvqgig","pricing_plan_id":"cebpf4jnsgd1na2vs0mg"},{"bike_id":"2c80f587-4d4d-4836-945e-3795e287c08b","system_id":"levelo_inurba_marseille","lat":43.23146,"lon":5.43728,"is_reserved":false,"is_disabled":false,"rental_uris":{"android":"levelo://app?vid=2c80f587-4d4d-4836-945e-3795e287c08b","ios":"levelo://app?vid=2c80f587-4d4d-4836-945e-3795e287c08b"},"vehicle_type_id":"4","last_reported":1743836944,"current_range_meters":5600,"station_id":"ce4bhmp2rcd13ifvqgog","pricing_plan_id":"cebpf4jnsgd1na2vs0mg"},{"bike_id":"428c3385-3758-45ef-a6a7-443e16c34fe3","system_id":"levelo_inurba_marseille","lat":43.31075,"lon":5.37735,"is_reserved":false,"is_disabled":false,"rental_uris":{"android":"levelo://app?vid=428c3385-3758-45ef-a6a7-443e16c34fe3","ios":"levelo://app?vid=428c3385-3758-45ef-a6a7-443e16c34fe3"},"vehicle_type_id":"4","last_reported":1743836944,"current_range_meters":5600,"station_id":"ce4bgt92rcd13ifvqcg0","pricing_plan_id":"cebpf4jnsgd1na2vs0mg"},{"bike_id":"0d4d6691-b3a3-49d8-8eac-677370bcc341","system_id":"levelo_inurba_marseille","lat":43.281539,"lon":5.426428,"is_reserved":false,"is_disabled":false,"rental_uris":{"android":"levelo://app?vid=0d4d6691-b3a3-49d8-8eac-677370bcc341","ios":"levelo://app?vid=0d4d6691-b3a3-49d8-8eac-677370bcc341"},"vehicle_type_id":"4","last_reported":1743836944,"current_range_meters":6000,"station_id":"","pricing_plan_id":"cebpf4jnsgd1na2vs0mg"},{"bike_id":"908b5a48-c991-459d-8edc-39a6ce48f51f","system_id":"levelo_inurba_marseille","lat":43.32102,"lon":5.36784,"is_reserved":false,"is_disabled":false,"rental_uris":{"android":"levelo://app?vid=908b5a48-c991-459d-8edc-39a6ce48f51f","ios":"levelo://app?vid=908b5a48-c991-459d-8edc-39a6ce48f51f"},"vehicle_type_id":"4","last_reported":1743836944,"current_range_meters":6000,"station_id":"ce4bhrh2rcd13ifvqhug","pricing_plan_id":"cebpf4jnsgd1na2vs0mg"},{"bike_id":"69d8d8c6-dbe1-4675-a824-89ddebcc86ed","system_id":"levelo_inurba_marseille","lat":43.28989,"lon":5.37835,"is_reserved":false,"is_disabled":false,"rental_uris":{"android":"levelo://app?vid=69d8d8c6-dbe1-4675-a824-89ddebcc86ed","ios":"levelo://app?vid=69d8d8c6-dbe1-4675-a824-89ddebcc86ed"},"vehicle_type_id":"4","last_reported":1743836944,"current_range_meters":6000,"station_id":"ce4bh9p2rcd13ifvqed0","pricing_plan_id":"cebpf4jnsgd1na2vs0mg"},{"bike_id":"8a526347-100b-49fd-a458-e9e10b3c7fc4","system_id":"levelo_inurba_marseille","lat":43.30799,"lon":5.43529,"is_reserved":false,"is_disabled":false,"rental_uris":{"android":"levelo://app?vid=8a526347-100b-49fd-a458-e9e10b3c7fc4","ios":"levelo://app?vid=8a526347-100b-49fd-a458-e9e10b3c7fc4"},"vehicle_type_id":"4","last_reported":1743836944,"current_range_meters":6000,"station_id":"ce4bhph2rcd13ifvqheg","pricing_plan_id":"cebpf4jnsgd1na2vs0mg"},{"bike_id":"41b45839-ada1-45dc-b7f8-d5280a9f336a","system_id":"levelo_inurba_marseille","lat":43.24069,"lon":5.37757,"is_reserved":false,"is_disabled":false,"rental_uris":{"android":"levelo://app?vid=41b45839-ada1-45dc-b7f8-d5280a9f336a","ios":"levelo://app?vid=41b45839-ada1-45dc-b7f8-d5280a9f336a"},"vehicle_type_id":"4","last_reported":1743836944,"current_range_meters":6400,"station_id":"ce4bhnp2rcd13ifvqgvg","pricing_plan_id":"cebpf4jnsgd1na2vs0mg"},{"bike_id":"36a207c1-12d8-479b-900c-01221303b430","system_id":"levelo_inurba_marseille","lat":43.31523,"lon":5.37301,"is_reserved":false,"is_disabled":false,"rental_uris":{"android":"levelo://app?vid=36a207c1-12d8-479b-900c-01221303b430","ios":"levelo://app?vid=36a207c1-12d8-479b-900c-01221303b430"},"vehicle_type_id":"4","last_reported":1743836944,"current_range_meters":6400,"station_id":"ce4bgt12rcd13ifvqcd0","pricing_plan_id":"cebpf4jnsgd1na2vs0mg"},{"bike_id":"12f59b50-8a80-44b7-b314-f0894b21bd8a","system_id":"levelo_inurba_marseille","lat":43.29238,"lon":5.4018,"is_reserved":false,"is_disabled":false,"rental_uris":{"android":"levelo://app?vid=12f59b50-8a80-44b7-b314-f0894b21bd8a","ios":"levelo://app?vid=12f59b50-8a80-44b7-b314-f0894b21bd8a"},"vehicle_type_id":"4","last_reported":1743836944,"current_range_meters":6400,"station_id":"ce4bh312rcd13ifvqdk0","pricing_plan_id":"cebpf4jnsgd1na2vs0mg"},{"bike_id":"24c36f1a-0923-4db7-830b-c7b1d0a0271d","system_id":"levelo_inurba_marseille","lat":43.28402,"lon":5.35882,"is_reserved":false,"is_disabled":false,"rental_uris":{"android":"levelo://app?vid=24c36f1a-0923-4db7-830b-c7b1d0a0271d","ios":"levelo://app?vid=24c36f1a-0923-4db7-830b-c7b1d0a0271d"},"vehicle_type_id":"4","last_reported":1743836944,"current_range_meters":6400,"station_id":"","pricing_plan_id":"cebpf4jnsgd1na2vs0mg"},{"bike_id":"09db4a91-984c-497c-b272-724cdd009a67","system_id":"levelo_inurba_marseille","lat":43.31364,"lon":5.38507,"is_reserved":false,"is_disabled":false,"rental_uris":{"android":"levelo://app?vid=09db4a91-984c-497c-b272-724cdd009a67","ios":"levelo://app?vid=09db4a91-984c-497c-b272-724cdd009a67"},"vehicle_type_id":"4","last_reported":1743836944,"current_range_meters":6400,"station_id":"ce4bgt92rcd13ifvqcf0","pricing_plan_id":"cebpf4jnsgd1na2vs0mg"},{"bike_id":"5065addd-37b5-4e4f-97c6-f100daef7252","system_id":"levelo_inurba_marseille","lat":43.31129,"lon":5.37775,"is_reserved":false,"is_disabled":false,"rental_uris":{"android":"levelo://app?vid=5065addd-37b5-4e4f-97c6-f100daef7252","ios":"levelo://app?vid=5065addd-37b5-4e4f-97c6-f100daef7252"},"vehicle_type_id":"4","last_reported":1743836944,"current_range_meters":6400,"station_id":"ce4bgt92rcd13ifvqcg0","pricing_plan_id":"cebpf4jnsgd1na2vs0mg"},{"bike_id":"69c0db05-6ded-4dc6-9720-2452c83c1020","system_id":"levelo_inurba_marseille","lat":43.22953,"lon":5.35396,"is_reserved":false,"is_disabled":false,"rental_uris":{"android":"levelo://app?vid=69c0db05-6ded-4dc6-9720-2452c83c1020","ios":"levelo://app?vid=69c0db05-6ded-4dc6-9720-2452c83c1020"},"vehicle_type_id":"4","last_reported":1743836944,"current_range_meters":6400,"station_id":"cpo3532slgdg3j2ikp40","pricing_plan_id":"cebpf4jnsgd1na2vs0mg"},{"bike_id":"36d996d1-147d-4367-84e7-9ff54765b37a","system_id":"levelo_inurba_marseille","lat":43.23162,"lon":5.35592,"is_reserved":false,"is_disabled":false,"rental_uris":{"android":"levelo://app?vid=36d996d1-147d-4367-84e7-9ff54765b37a","ios":"levelo://app?vid=36d996d1-147d-4367-84e7-9ff54765b37a"},"vehicle_type_id":"4","last_reported":1743836944,"current_range_meters":6800,"station_id":"ce4bhu92rcd13ifvqi70","pricing_plan_id":"cebpf4jnsgd1na2vs0mg"},{"bike_id":"d10efccb-9ead-4d91-b11e-143789098618","system_id":"levelo_inurba_marseille","lat":43.306122,"lon":5.372244,"is_reserved":false,"is_disabled":false,"rental_uris":{"android":"levelo://app?vid=d10efccb-9ead-4d91-b11e-143789098618","ios":"levelo://app?vid=d10efccb-9ead-4d91-b11e-143789098618"},"vehicle_type_id":"4","last_reported":1743836944,"current_range_meters":6800,"station_id":"ce4bgqh2rcd13ifvqc4g","pricing_plan_id":"cebpf4jnsgd1na2vs0mg"},{"bike_id":"4046576f-9f9f-46d7-8fd9-cddb0fb1dd02","system_id":"levelo_inurba_marseille","lat":43.25087,"lon":5.39525,"is_reserved":false,"is_disabled":false,"rental_uris":{"android":"levelo://app?vid=4046576f-9f9f-46d7-8fd9-cddb0fb1dd02","ios":"levelo://app?vid=4046576f-9f9f-46d7-8fd9-cddb0fb1dd02"},"vehicle_type_id":"4","last_reported":1743836944,"current_range_meters":6800,"station_id":"ce4bhm12rcd13ifvqgkg","pricing_plan_id":"cebpf4jnsgd1na2vs0mg"},{"bike_id":"758c2355-846a-4f3d-bcd8-eac4b3145cd6","system_id":"levelo_inurba_marseille","lat":43.23207,"lon":5.35563,"is_reserved":false,"is_disabled":false,"rental_uris":{"android":"levelo://app?vid=758c2355-846a-4f3d-bcd8-eac4b3145cd6","ios":"levelo://app?vid=758c2355-846a-4f3d-bcd8-eac4b3145cd6"},"vehicle_type_id":"4","last_reported":1743836944,"current_range_meters":6800,"station_id":"ce4bhu92rcd13ifvqi70","pricing_plan_id":"cebpf4jnsgd1na2vs0mg"},{"bike_id":"ed034283-1492-4da7-9409-35bdead80f30","system_id":"levelo_inurba_marseille","lat":43.30142,"lon":5.38816,"is_reserved":false,"is_disabled":true,"rental_uris":{"android":"levelo://app?vid=ed034283-1492-4da7-9409-35bdead80f30","ios":"levelo://app?vid=ed034283-1492-4da7-9409-35bdead80f30"},"vehicle_type_id":"4","last_reported":1743836944,"current_range_meters":6800,"station_id":"ce4bghh2rcd13ifvqb60","pricing_plan_id":"cebpf4jnsgd1na2vs0mg"},{"bike_id":"30801e32-e486-425c-b6e1-9bed190597c2","system_id":"levelo_inurba_marseille","lat":43.27046,"lon":5.40278,"is_reserved":false,"is_disabled":false,"rental_uris":{"android":"levelo://app?vid=30801e32-e486-425c-b6e1-9bed190597c2","ios":"levelo://app?vid=30801e32-e486-425c-b6e1-9bed190597c2"},"vehicle_type_id":"4","last_reported":1743836944,"current_range_meters":6800,"station_id":"ce4bhk92rcd13ifvqgc0","pricing_plan_id":"cebpf4jnsgd1na2vs0mg"},{"bike_id":"cdb7e4b1-8ea1-4a1d-91f3-73a8b3b493a5","system_id":"levelo_inurba_marseille","lat":43.310703,"lon":5.42455,"is_reserved":false,"is_disabled":false,"rental_uris":{"android":"levelo://app?vid=cdb7e4b1-8ea1-4a1d-91f3-73a8b3b493a5","ios":"levelo://app?vid=cdb7e4b1-8ea1-4a1d-91f3-73a8b3b493a5"},"vehicle_type_id":"4","last_reported":1743836944,"current_range_meters":6800,"station_id":"ce4bhp92rcd13ifvqhag","pricing_plan_id":"cebpf4jnsgd1na2vs0mg"},{"bike_id":"8a6c6f3e-a0ca-426b-926a-9bac537f3981","system_id":"levelo_inurba_marseille","lat":43.31491,"lon":5.37306,"is_reserved":false,"is_disabled":false,"rental_uris":{"android":"levelo://app?vid=8a6c6f3e-a0ca-426b-926a-9bac537f3981","ios":"levelo://app?vid=8a6c6f3e-a0ca-426b-926a-9bac537f3981"},"vehicle_type_id":"4","last_reported":1743836944,"current_range_meters":7200,"station_id":"ce4bgt12rcd13ifvqcd0","pricing_plan_id":"cebpf4jnsgd1na2vs0mg"},{"bike_id":"b7fc6fee-18f2-4847-8e71-e05735f414b1","system_id":"levelo_inurba_marseille","lat":43.30881,"lon":5.37221,"is_reserved":false,"is_disabled":false,"rental_uris":{"android":"levelo://app?vid=b7fc6fee-18f2-4847-8e71-e05735f414b1","ios":"levelo://app?vid=b7fc6fee-18f2-4847-8e71-e05735f414b1"},"vehicle_type_id":"4","last_reported":1743836944,"current_range_meters":7200,"station_id":"ce4bguh2rcd13ifvqckg","pricing_plan_id":"cebpf4jnsgd1na2vs0mg"},{"bike_id":"c26c0bf0-d03f-4dc2-800a-cc0ce613595e","system_id":"levelo_inurba_marseille","lat":43.27941,"lon":5.41048,"is_reserved":false,"is_disabled":false,"rental_uris":{"android":"levelo://app?vid=c26c0bf0-d03f-4dc2-800a-cc0ce613595e","ios":"levelo://app?vid=c26c0bf0-d03f-4dc2-800a-cc0ce613595e"},"vehicle_type_id":"4","last_reported":1743836944,"current_range_meters":7200,"station_id":"ce4bhnp2rcd13ifvqh0g","pricing_plan_id":"cebpf4jnsgd1na2vs0mg"},{"bike_id":"a7d25e4f-2da3-42fe-8518-f5570ba8c5ed","system_id":"levelo_inurba_marseille","lat":43.30527,"lon":5.38427,"is_reserved":false,"is_disabled":true,"rental_uris":{"android":"levelo://app?vid=a7d25e4f-2da3-42fe-8518-f5570ba8c5ed","ios":"levelo://app?vid=a7d25e4f-2da3-42fe-8518-f5570ba8c5ed"},"vehicle_type_id":"4","last_reported":1743836944,"current_range_meters":7200,"station_id":"ce4bgg92rcd13ifvqb30","pricing_plan_id":"cebpf4jnsgd1na2vs0mg"},{"bike_id":"50297066-959d-45c5-a71e-b062cc3724ec","system_id":"levelo_inurba_marseille","lat":43.308097,"lon":5.373021,"is_reserved":false,"is_disabled":false,"rental_uris":{"android":"levelo://app?vid=50297066-959d-45c5-a71e-b062cc3724ec","ios":"levelo://app?vid=50297066-959d-45c5-a71e-b062cc3724ec"},"vehicle_type_id":"4","last_reported":1743836944,"current_range_meters":7200,"station_id":"","pricing_plan_id":"cebpf4jnsgd1na2vs0mg"},{"bike_id":"9ec7d284-5a6c-4264-a0ee-e4a74bd6f8ec","system_id":"levelo_inurba_marseille","lat":43.303193,"lon":5.404431,"is_reserved":false,"is_disabled":false,"rental_uris":{"android":"levelo://app?vid=9ec7d284-5a6c-4264-a0ee-e4a74bd6f8ec","ios":"levelo://app?vid=9ec7d284-5a6c-4264-a0ee-e4a74bd6f8ec"},"vehicle_type_id":"4","last_reported":1743836944,"current_range_meters":8000,"station_id":"ce4bh012rcd13ifvqd10","pricing_plan_id":"cebpf4jnsgd1na2vs0mg"},{"bike_id":"890d198d-366a-40f9-b504-46cf6364dec2","system_id":"levelo_inurba_marseille","lat":43.30101,"lon":5.39077,"is_reserved":false,"is_disabled":false,"rental_uris":{"android":"levelo://app?vid=890d198d-366a-40f9-b504-46cf6364dec2","ios":"levelo://app?vid=890d198d-366a-40f9-b504-46cf6364dec2"},"vehicle_type_id":"4","last_reported":1743836944,"current_range_meters":8000,"station_id":"ce4bh192rcd13ifvqdb0","pricing_plan_id":"cebpf4jnsgd1na2vs0mg"},{"bike_id":"3a673a01-13fc-4ed6-b9b1-08a0faf2fd75","system_id":"levelo_inurba_marseille","lat":43.23172,"lon":5.39988,"is_reserved":false,"is_disabled":false,"rental_uris":{"android":"levelo://app?vid=3a673a01-13fc-4ed6-b9b1-08a0faf2fd75","ios":"levelo://app?vid=3a673a01-13fc-4ed6-b9b1-08a0faf2fd75"},"vehicle_type_id":"4","last_reported":1743836944,"current_range_meters":8000,"station_id":"ce4bhn12rcd13ifvqgqg","pricing_plan_id":"cebpf4jnsgd1na2vs0mg"},{"bike_id":"74a13a18-430a-4f50-ba26-e7dfbad23482","system_id":"levelo_inurba_marseille","lat":43.2307,"lon":5.35501,"is_reserved":false,"is_disabled":false,"rental_uris":{"android":"levelo://app?vid=74a13a18-430a-4f50-ba26-e7dfbad23482","ios":"levelo://app?vid=74a13a18-430a-4f50-ba26-e7dfbad23482"},"vehicle_type_id":"4","last_reported":1743836944,"current_range_meters":8000,"station_id":"cpo3342slgdg3j2ifvpg","pricing_plan_id":"cebpf4jnsgd1na2vs0mg"},{"bike_id":"b55d0657-ba93-4de3-af3e-e3f6dd7418c6","system_id":"levelo_inurba_marseille","lat":43.297333,"lon":5.397692,"is_reserved":false,"is_disabled":false,"rental_uris":{"android":"levelo://app?vid=b55d0657-ba93-4de3-af3e-e3f6dd7418c6","ios":"levelo://app?vid=b55d0657-ba93-4de3-af3e-e3f6dd7418c6"},"vehicle_type_id":"4","last_reported":1743836944,"current_range_meters":7200,"station_id":"ce4bh4p2rcd13ifvqe1g","pricing_plan_id":"cebpf4jnsgd1na2vs0mg"},{"bike_id":"fb348b09-6abb-47a4-a266-91f2eeaee291","system_id":"levelo_inurba_marseille","lat":43.321005,"lon":5.367677,"is_reserved":false,"is_disabled":false,"rental_uris":{"android":"levelo://app?vid=fb348b09-6abb-47a4-a266-91f2eeaee291","ios":"levelo://app?vid=fb348b09-6abb-47a4-a266-91f2eeaee291"},"vehicle_type_id":"4","last_reported":1743836944,"current_range_meters":8400,"station_id":"","pricing_plan_id":"cebpf4jnsgd1na2vs0mg"},{"bike_id":"afd0cb81-42fd-44ba-9989-2d131ba4acb2","system_id":"levelo_inurba_marseille","lat":43.30095,"lon":5.39102,"is_reserved":false,"is_disabled":true,"rental_uris":{"android":"levelo://app?vid=afd0cb81-42fd-44ba-9989-2d131ba4acb2","ios":"levelo://app?vid=afd0cb81-42fd-44ba-9989-2d131ba4acb2"},"vehicle_type_id":"4","last_reported":1743836944,"current_range_meters":8400,"station_id":"ce4bh192rcd13ifvqdb0","pricing_plan_id":"cebpf4jnsgd1na2vs0mg"},{"bike_id":"ed562682-b9c4-45a5-a5d9-628992c2c17c","system_id":"levelo_inurba_marseille","lat":43.33022,"lon":5.390435,"is_reserved":false,"is_disabled":false,"rental_uris":{"android":"levelo://app?vid=ed562682-b9c4-45a5-a5d9-628992c2c17c","ios":"levelo://app?vid=ed562682-b9c4-45a5-a5d9-628992c2c17c"},"vehicle_type_id":"4","last_reported":1743836944,"current_range_meters":8400,"station_id":"ce4bhr92rcd13ifvqhrg","pricing_plan_id":"cebpf4jnsgd1na2vs0mg"},{"bike_id":"69ce2717-07f4-49be-8035-79dfd2778e94","system_id":"levelo_inurba_marseille","lat":43.24071,"lon":5.37758,"is_reserved":false,"is_disabled":false,"rental_uris":{"android":"levelo://app?vid=69ce2717-07f4-49be-8035-79dfd2778e94","ios":"levelo://app?vid=69ce2717-07f4-49be-8035-79dfd2778e94"},"vehicle_type_id":"4","last_reported":1743836944,"current_range_meters":8400,"station_id":"ce4bhnp2rcd13ifvqgvg","pricing_plan_id":"cebpf4jnsgd1na2vs0mg"},{"bike_id":"9b02f742-f038-4739-9c1b-418a3e5904eb","system_id":"levelo_inurba_marseille","lat":43.31337,"lon":5.36709,"is_reserved":false,"is_disabled":false,"rental_uris":{"android":"levelo://app?vid=9b02f742-f038-4739-9c1b-418a3e5904eb","ios":"levelo://app?vid=9b02f742-f038-4739-9c1b-418a3e5904eb"},"vehicle_type_id":"4","last_reported":1743836944,"current_range_meters":8400,"station_id":"ce4bgr92rcd13ifvqc6g","pricing_plan_id":"cebpf4jnsgd1na2vs0mg"},{"bike_id":"ad4ec1b0-092f-4af8-b574-4cb3c926f944","system_id":"levelo_inurba_marseille","lat":43.260562,"lon":5.394017,"is_reserved":false,"is_disabled":false,"rental_uris":{"android":"levelo://app?vid=ad4ec1b0-092f-4af8-b574-4cb3c926f944","ios":"levelo://app?vid=ad4ec1b0-092f-4af8-b574-4cb3c926f944"},"vehicle_type_id":"4","last_reported":1743836944,"current_range_meters":8000,"station_id":"ce4bhh92rcd13ifvqfj0","pricing_plan_id":"cebpf4jnsgd1na2vs0mg"},{"bike_id":"85569c5e-792a-4809-8948-6b3410ae7c98","system_id":"levelo_inurba_marseille","lat":43.24698,"lon":5.4122,"is_reserved":false,"is_disabled":false,"rental_uris":{"android":"levelo://app?vid=85569c5e-792a-4809-8948-6b3410ae7c98","ios":"levelo://app?vid=85569c5e-792a-4809-8948-6b3410ae7c98"},"vehicle_type_id":"4","last_reported":1743836944,"current_range_meters":8400,"station_id":"","pricing_plan_id":"cebpf4jnsgd1na2vs0mg"},{"bike_id":"8c5ae141-19c6-4c54-bf95-51e5687b5b5a","system_id":"levelo_inurba_marseille","lat":43.30538,"lon":5.36712,"is_reserved":false,"is_disabled":false,"rental_uris":{"android":"levelo://app?vid=8c5ae141-19c6-4c54-bf95-51e5687b5b5a","ios":"levelo://app?vid=8c5ae141-19c6-4c54-bf95-51e5687b5b5a"},"vehicle_type_id":"4","last_reported":1743836944,"current_range_meters":8000,"station_id":"ce4bgrp2rcd13ifvqc9g","pricing_plan_id":"cebpf4jnsgd1na2vs0mg"},{"bike_id":"ef076cc9-b478-41aa-802a-ed7212300556","system_id":"levelo_inurba_marseille","lat":43.229279,"lon":5.353986,"is_reserved":false,"is_disabled":false,"rental_uris":{"android":"levelo://app?vid=ef076cc9-b478-41aa-802a-ed7212300556","ios":"levelo://app?vid=ef076cc9-b478-41aa-802a-ed7212300556"},"vehicle_type_id":"4","last_reported":1743836944,"current_range_meters":8800,"station_id":"cpo3532slgdg3j2ikp40","pricing_plan_id":"cebpf4jnsgd1na2vs0mg"},{"bike_id":"7634f76b-156d-4d0e-abf4-b32c3017ad01","system_id":"levelo_inurba_marseille","lat":43.29597,"lon":5.40585,"is_reserved":false,"is_disabled":false,"rental_uris":{"android":"levelo://app?vid=7634f76b-156d-4d0e-abf4-b32c3017ad01","ios":"levelo://app?vid=7634f76b-156d-4d0e-abf4-b32c3017ad01"},"vehicle_type_id":"4","last_reported":1743836944,"current_range_meters":8800,"station_id":"ce4bh0h2rcd13ifvqd60","pricing_plan_id":"cebpf4jnsgd1na2vs0mg"},{"bike_id":"35da84c8-70f0-4e2f-b773-2c76f93429fd","system_id":"levelo_inurba_marseille","lat":43.29877,"lon":5.39739,"is_reserved":false,"is_disabled":false,"rental_uris":{"android":"levelo://app?vid=35da84c8-70f0-4e2f-b773-2c76f93429fd","ios":"levelo://app?vid=35da84c8-70f0-4e2f-b773-2c76f93429fd"},"vehicle_type_id":"4","last_reported":1743836944,"current_range_meters":8800,"station_id":"ce4bh0h2rcd13ifvqd50","pricing_plan_id":"cebpf4jnsgd1na2vs0mg"},{"bike_id":"9f3f6909-e34a-4eb9-b68c-a7ffbcc4e9ba","system_id":"levelo_inurba_marseille","lat":43.295364,"lon":5.390335,"is_reserved":false,"is_disabled":false,"rental_uris":{"android":"levelo://app?vid=9f3f6909-e34a-4eb9-b68c-a7ffbcc4e9ba","ios":"levelo://app?vid=9f3f6909-e34a-4eb9-b68c-a7ffbcc4e9ba"},"vehicle_type_id":"4","last_reported":1743836944,"current_range_meters":8800,"station_id":"ce4bh3p2rcd13ifvqdp0","pricing_plan_id":"cebpf4jnsgd1na2vs0mg"},{"bike_id":"908c0033-ebf3-400a-acb3-0a621b83539f","system_id":"levelo_inurba_marseille","lat":43.23172,"lon":5.39983,"is_reserved":false,"is_disabled":false,"rental_uris":{"android":"levelo://app?vid=908c0033-ebf3-400a-acb3-0a621b83539f","ios":"levelo://app?vid=908c0033-ebf3-400a-acb3-0a621b83539f"},"vehicle_type_id":"4","last_reported":1743836944,"current_range_meters":8800,"station_id":"ce4bhn12rcd13ifvqgqg","pricing_plan_id":"cebpf4jnsgd1na2vs0mg"},{"bike_id":"537b22cc-0a30-4648-919c-41c693b64fdd","system_id":"levelo_inurba_marseille","lat":43.28923,"lon":5.38397,"is_reserved":false,"is_disabled":false,"rental_uris":{"android":"levelo://app?vid=537b22cc-0a30-4648-919c-41c693b64fdd","ios":"levelo://app?vid=537b22cc-0a30-4648-919c-41c693b64fdd"},"vehicle_type_id":"4","last_reported":1743836944,"current_range_meters":8800,"station_id":"ce4bh612rcd13ifvqe6g","pricing_plan_id":"cebpf4jnsgd1na2vs0mg"},{"bike_id":"998aae2e-ce99-48eb-af2b-fc3dd60b4083","system_id":"levelo_inurba_marseille","lat":43.30303,"lon":5.36923,"is_reserved":false,"is_disabled":false,"rental_uris":{"android":"levelo://app?vid=998aae2e-ce99-48eb-af2b-fc3dd60b4083","ios":"levelo://app?vid=998aae2e-ce99-48eb-af2b-fc3dd60b4083"},"vehicle_type_id":"4","last_reported":1743836944,"current_range_meters":8800,"station_id":"ce4bgqh2rcd13ifvqc5g","pricing_plan_id":"cebpf4jnsgd1na2vs0mg"},{"bike_id":"ae85a7a4-7c38-4e25-9e50-a9a925b58789","system_id":"levelo_inurba_marseille","lat":43.31087,"lon":5.42443,"is_reserved":false,"is_disabled":false,"rental_uris":{"android":"levelo://app?vid=ae85a7a4-7c38-4e25-9e50-a9a925b58789","ios":"levelo://app?vid=ae85a7a4-7c38-4e25-9e50-a9a925b58789"},"vehicle_type_id":"4","last_reported":1743836944,"current_range_meters":8800,"station_id":"ce4bhp92rcd13ifvqhag","pricing_plan_id":"cebpf4jnsgd1na2vs0mg"},{"bike_id":"a1f66c63-fb79-4a08-b9d9-b4fd1607ac88","system_id":"levelo_inurba_marseille","lat":43.30657,"lon":5.40088,"is_reserved":false,"is_disabled":false,"rental_uris":{"android":"levelo://app?vid=a1f66c63-fb79-4a08-b9d9-b4fd1607ac88","ios":"levelo://app?vid=a1f66c63-fb79-4a08-b9d9-b4fd1607ac88"},"vehicle_type_id":"4","last_reported":1743836944,"current_range_meters":8800,"station_id":"ce4bh112rcd13ifvqda0","pricing_plan_id":"cebpf4jnsgd1na2vs0mg"},{"bike_id":"c91a6301-d46d-458e-a0a6-5762e813d6dd","system_id":"levelo_inurba_marseille","lat":43.29515,"lon":5.3855,"is_reserved":false,"is_disabled":true,"rental_uris":{"android":"levelo://app?vid=c91a6301-d46d-458e-a0a6-5762e813d6dd","ios":"levelo://app?vid=c91a6301-d46d-458e-a0a6-5762e813d6dd"},"vehicle_type_id":"4","last_reported":1743836944,"current_range_meters":9200,"station_id":"ce4bgih2rcd13ifvqba0","pricing_plan_id":"cebpf4jnsgd1na2vs0mg"},{"bike_id":"016ced08-6ab5-4efc-93b1-84b65e3e0ec3","system_id":"levelo_inurba_marseille","lat":43.27498,"lon":5.42463,"is_reserved":false,"is_disabled":false,"rental_uris":{"android":"levelo://app?vid=016ced08-6ab5-4efc-93b1-84b65e3e0ec3","ios":"levelo://app?vid=016ced08-6ab5-4efc-93b1-84b65e3e0ec3"},"vehicle_type_id":"4","last_reported":1743836944,"current_range_meters":9200,"station_id":"ce4bhn92rcd13ifvqgrg","pricing_plan_id":"cebpf4jnsgd1na2vs0mg"},{"bike_id":"a183770d-d0ab-4f82-8e51-09298d13fee6","system_id":"levelo_inurba_marseille","lat":43.31187,"lon":5.38718,"is_reserved":false,"is_disabled":false,"rental_uris":{"android":"levelo://app?vid=a183770d-d0ab-4f82-8e51-09298d13fee6","ios":"levelo://app?vid=a183770d-d0ab-4f82-8e51-09298d13fee6"},"vehicle_type_id":"4","last_reported":1743836944,"current_range_meters":9200,"station_id":"ce4bgv12rcd13ifvqcp0","pricing_plan_id":"cebpf4jnsgd1na2vs0mg"},{"bike_id":"c9ab5bfd-fa91-4b45-8fa2-52813c43fa45","system_id":"levelo_inurba_marseille","lat":43.23062,"lon":5.35497,"is_reserved":false,"is_disabled":false,"rental_uris":{"android":"levelo://app?vid=c9ab5bfd-fa91-4b45-8fa2-52813c43fa45","ios":"levelo://app?vid=c9ab5bfd-fa91-4b45-8fa2-52813c43fa45"},"vehicle_type_id":"4","last_reported":1743836944,"current_range_meters":9200,"station_id":"cpo3342slgdg3j2ifvpg","pricing_plan_id":"cebpf4jnsgd1na2vs0mg"},{"bike_id":"783ef245-163c-4c81-b038-df23059b7c57","system_id":"levelo_inurba_marseille","lat":43.310755,"lon":5.383546,"is_reserved":false,"is_disabled":false,"rental_uris":{"android":"levelo://app?vid=783ef245-163c-4c81-b038-df23059b7c57","ios":"levelo://app?vid=783ef245-163c-4c81-b038-df23059b7c57"},"vehicle_type_id":"4","last_reported":1743836944,"current_range_meters":9200,"station_id":"","pricing_plan_id":"cebpf4jnsgd1na2vs0mg"},{"bike_id":"a1cc8429-7f5d-4c98-838c-0dbc6d7c247e","system_id":"levelo_inurba_marseille","lat":43.281481,"lon":5.426466,"is_reserved":false,"is_disabled":false,"rental_uris":{"android":"levelo://app?vid=a1cc8429-7f5d-4c98-838c-0dbc6d7c247e","ios":"levelo://app?vid=a1cc8429-7f5d-4c98-838c-0dbc6d7c247e"},"vehicle_type_id":"4","last_reported":1743836944,"current_range_meters":9200,"station_id":"ce4bhnh2rcd13ifvqgug","pricing_plan_id":"cebpf4jnsgd1na2vs0mg"},{"bike_id":"ccbaad60-ee1e-4837-a1f8-1af8e79dfa40","system_id":"levelo_inurba_marseille","lat":43.30605,"lon":5.39373,"is_reserved":false,"is_disabled":true,"rental_uris":{"android":"levelo://app?vid=ccbaad60-ee1e-4837-a1f8-1af8e79dfa40","ios":"levelo://app?vid=ccbaad60-ee1e-4837-a1f8-1af8e79dfa40"},"vehicle_type_id":"4","last_reported":1743836944,"current_range_meters":9200,"station_id":"ce4bh0p2rcd13ifvqd80","pricing_plan_id":"cebpf4jnsgd1na2vs0mg"},{"bike_id":"5ad625c2-341a-4de8-8cf2-038a98c0b024","system_id":"levelo_inurba_marseille","lat":43.27971,"lon":5.38738,"is_reserved":false,"is_disabled":false,"rental_uris":{"android":"levelo://app?vid=5ad625c2-341a-4de8-8cf2-038a98c0b024","ios":"levelo://app?vid=5ad625c2-341a-4de8-8cf2-038a98c0b024"},"vehicle_type_id":"4","last_reported":1743836944,"current_range_meters":9200,"station_id":"ce4bhg12rcd13ifvqf80","pricing_plan_id":"cebpf4jnsgd1na2vs0mg"},{"bike_id":"706fc506-2aa0-4db5-833c-3cdac573bb9a","system_id":"levelo_inurba_marseille","lat":43.29043,"lon":5.38664,"is_reserved":false,"is_disabled":true,"rental_uris":{"android":"levelo://app?vid=706fc506-2aa0-4db5-833c-3cdac573bb9a","ios":"levelo://app?vid=706fc506-2aa0-4db5-833c-3cdac573bb9a"},"vehicle_type_id":"4","last_reported":1743836944,"current_range_meters":9200,"station_id":"ce4bh4p2rcd13ifvqe0g","pricing_plan_id":"cebpf4jnsgd1na2vs0mg"},{"bike_id":"60466e0c-a8b9-4bc7-92be-d68e779f1109","system_id":"levelo_inurba_marseille","lat":43.30407,"lon":5.39741,"is_reserved":false,"is_disabled":false,"rental_uris":{"android":"levelo://app?vid=60466e0c-a8b9-4bc7-92be-d68e779f1109","ios":"levelo://app?vid=60466e0c-a8b9-4bc7-92be-d68e779f1109"},"vehicle_type_id":"4","last_reported":1743836944,"current_range_meters":9200,"station_id":"ce4bh092rcd13ifvqd20","pricing_plan_id":"cebpf4jnsgd1na2vs0mg"},{"bike_id":"8980209c-4b8c-4f30-a818-89a0aaa71deb","system_id":"levelo_inurba_marseille","lat":43.243858,"lon":5.37058,"is_reserved":false,"is_disabled":false,"rental_uris":{"android":"levelo://app?vid=8980209c-4b8c-4f30-a818-89a0aaa71deb","ios":"levelo://app?vid=8980209c-4b8c-4f30-a818-89a0aaa71deb"},"vehicle_type_id":"4","last_reported":1743836944,"current_range_meters":9600,"station_id":"ce4bhhh2rcd13ifvqfk0","pricing_plan_id":"cebpf4jnsgd1na2vs0mg"},{"bike_id":"a07480da-f5a9-4597-b3e6-cc405effeae7","system_id":"levelo_inurba_marseille","lat":43.2896,"lon":5.39649,"is_reserved":false,"is_disabled":false,"rental_uris":{"android":"levelo://app?vid=a07480da-f5a9-4597-b3e6-cc405effeae7","ios":"levelo://app?vid=a07480da-f5a9-4597-b3e6-cc405effeae7"},"vehicle_type_id":"4","last_reported":1743836944,"current_range_meters":9600,"station_id":"ce4bh3h2rcd13ifvqdn0","pricing_plan_id":"cebpf4jnsgd1na2vs0mg"},{"bike_id":"b62ef708-e84e-45f5-bff1-4b77e16d948c","system_id":"levelo_inurba_marseille","lat":43.3012,"lon":5.39077,"is_reserved":false,"is_disabled":false,"rental_uris":{"android":"levelo://app?vid=b62ef708-e84e-45f5-bff1-4b77e16d948c","ios":"levelo://app?vid=b62ef708-e84e-45f5-bff1-4b77e16d948c"},"vehicle_type_id":"4","last_reported":1743836944,"current_range_meters":9200,"station_id":"ce4bh192rcd13ifvqdb0","pricing_plan_id":"cebpf4jnsgd1na2vs0mg"},{"bike_id":"3b4ad8c6-6244-4378-90d7-dac703d1508d","system_id":"levelo_inurba_marseille","lat":43.23192,"lon":5.35556,"is_reserved":false,"is_disabled":false,"rental_uris":{"android":"levelo://app?vid=3b4ad8c6-6244-4378-90d7-dac703d1508d","ios":"levelo://app?vid=3b4ad8c6-6244-4378-90d7-dac703d1508d"},"vehicle_type_id":"4","last_reported":1743836944,"current_range_meters":9600,"station_id":"ce4bhu92rcd13ifvqi70","pricing_plan_id":"cebpf4jnsgd1na2vs0mg"},{"bike_id":"203176fb-52f7-45ec-88b4-caa4115f7b7b","system_id":"levelo_inurba_marseille","lat":43.296218,"lon":5.400251,"is_reserved":false,"is_disabled":false,"rental_uris":{"android":"levelo://app?vid=203176fb-52f7-45ec-88b4-caa4115f7b7b","ios":"levelo://app?vid=203176fb-52f7-45ec-88b4-caa4115f7b7b"},"vehicle_type_id":"4","last_reported":1743836944,"current_range_meters":9600,"station_id":"","pricing_plan_id":"cebpf4jnsgd1na2vs0mg"},{"bike_id":"6b8df6c6-e69f-416d-869f-6c58b572d426","system_id":"levelo_inurba_marseille","lat":43.23195,"lon":5.39986,"is_reserved":false,"is_disabled":false,"rental_uris":{"android":"levelo://app?vid=6b8df6c6-e69f-416d-869f-6c58b572d426","ios":"levelo://app?vid=6b8df6c6-e69f-416d-869f-6c58b572d426"},"vehicle_type_id":"4","last_reported":1743836944,"current_range_meters":9600,"station_id":"ce4bhn12rcd13ifvqgqg","pricing_plan_id":"cebpf4jnsgd1na2vs0mg"},{"bike_id":"829acafc-221e-41d2-b87e-1eaa511b3313","system_id":"levelo_inurba_marseille","lat":43.29043,"lon":5.39953,"is_reserved":false,"is_disabled":true,"rental_uris":{"android":"levelo://app?vid=829acafc-221e-41d2-b87e-1eaa511b3313","ios":"levelo://app?vid=829acafc-221e-41d2-b87e-1eaa511b3313"},"vehicle_type_id":"4","last_reported":1743836944,"current_range_meters":9600,"station_id":"ce4bh392rcd13ifvqdm0","pricing_plan_id":"cebpf4jnsgd1na2vs0mg"},{"bike_id":"fb0d4993-67fa-4314-9525-ef2ba9197c72","system_id":"levelo_inurba_marseille","lat":43.30321,"lon":5.4059,"is_reserved":false,"is_disabled":false,"rental_uris":{"android":"levelo://app?vid=fb0d4993-67fa-4314-9525-ef2ba9197c72","ios":"levelo://app?vid=fb0d4993-67fa-4314-9525-ef2ba9197c72"},"vehicle_type_id":"4","last_reported":1743836944,"current_range_meters":9600,"station_id":"","pricing_plan_id":"cebpf4jnsgd1na2vs0mg"},{"bike_id":"82094fca-82b5-45b4-81a5-df2e6ffd6728","system_id":"levelo_inurba_marseille","lat":43.323378,"lon":5.406305,"is_reserved":false,"is_disabled":false,"rental_uris":{"android":"levelo://app?vid=82094fca-82b5-45b4-81a5-df2e6ffd6728","ios":"levelo://app?vid=82094fca-82b5-45b4-81a5-df2e6ffd6728"},"vehicle_type_id":"4","last_reported":1743836944,"current_range_meters":9600,"station_id":"ce4bhq92rcd13ifvqhjg","pricing_plan_id":"cebpf4jnsgd1na2vs0mg"},{"bike_id":"0eb30f16-826e-404e-9494-cbd59d704ab7","system_id":"levelo_inurba_marseille","lat":43.29029,"lon":5.38634,"is_reserved":false,"is_disabled":true,"rental_uris":{"android":"levelo://app?vid=0eb30f16-826e-404e-9494-cbd59d704ab7","ios":"levelo://app?vid=0eb30f16-826e-404e-9494-cbd59d704ab7"},"vehicle_type_id":"4","last_reported":1743836944,"current_range_meters":9600,"station_id":"ce4bh4p2rcd13ifvqe0g","pricing_plan_id":"cebpf4jnsgd1na2vs0mg"},{"bike_id":"682f7ec8-5529-42b7-a265-aaa70f95d362","system_id":"levelo_inurba_marseille","lat":43.31363,"lon":5.38504,"is_reserved":false,"is_disabled":false,"rental_uris":{"android":"levelo://app?vid=682f7ec8-5529-42b7-a265-aaa70f95d362","ios":"levelo://app?vid=682f7ec8-5529-42b7-a265-aaa70f95d362"},"vehicle_type_id":"4","last_reported":1743836944,"current_range_meters":9600,"station_id":"ce4bgt92rcd13ifvqcf0","pricing_plan_id":"cebpf4jnsgd1na2vs0mg"},{"bike_id":"c2055a2a-1cff-4f19-a52d-9b52baeaa63f","system_id":"levelo_inurba_marseille","lat":43.31993,"lon":5.38167,"is_reserved":false,"is_disabled":true,"rental_uris":{"android":"levelo://app?vid=c2055a2a-1cff-4f19-a52d-9b52baeaa63f","ios":"levelo://app?vid=c2055a2a-1cff-4f19-a52d-9b52baeaa63f"},"vehicle_type_id":"4","last_reported":1743836944,"current_range_meters":10000,"station_id":"ce4bhr12rcd13ifvqhpg","pricing_plan_id":"cebpf4jnsgd1na2vs0mg"},{"bike_id":"d305d118-c379-494a-a499-22d121e5ecc7","system_id":"levelo_inurba_marseille","lat":43.31125,"lon":5.37766,"is_reserved":false,"is_disabled":false,"rental_uris":{"android":"levelo://app?vid=d305d118-c379-494a-a499-22d121e5ecc7","ios":"levelo://app?vid=d305d118-c379-494a-a499-22d121e5ecc7"},"vehicle_type_id":"4","last_reported":1743836944,"current_range_meters":9600,"station_id":"ce4bgt92rcd13ifvqcg0","pricing_plan_id":"cebpf4jnsgd1na2vs0mg"},{"bike_id":"883b5c19-b9c3-441b-a6c9-b48bb59fef42","system_id":"levelo_inurba_marseille","lat":43.27964,"lon":5.38734,"is_reserved":false,"is_disabled":false,"rental_uris":{"android":"levelo://app?vid=883b5c19-b9c3-441b-a6c9-b48bb59fef42","ios":"levelo://app?vid=883b5c19-b9c3-441b-a6c9-b48bb59fef42"},"vehicle_type_id":"4","last_reported":1743836944,"current_range_meters":10000,"station_id":"ce4bhg12rcd13ifvqf80","pricing_plan_id":"cebpf4jnsgd1na2vs0mg"},{"bike_id":"2ac6a623-063c-4fc4-8bde-f17112b0788e","system_id":"levelo_inurba_marseille","lat":43.234209,"lon":5.406168,"is_reserved":false,"is_disabled":false,"rental_uris":{"android":"levelo://app?vid=2ac6a623-063c-4fc4-8bde-f17112b0788e","ios":"levelo://app?vid=2ac6a623-063c-4fc4-8bde-f17112b0788e"},"vehicle_type_id":"4","last_reported":1743836944,"current_range_meters":10000,"station_id":"","pricing_plan_id":"cebpf4jnsgd1na2vs0mg"},{"bike_id":"4bafe163-a991-4191-abce-cde0d9a599d1","system_id":"levelo_inurba_marseille","lat":43.272102,"lon":5.391805,"is_reserved":false,"is_disabled":false,"rental_uris":{"android":"levelo://app?vid=4bafe163-a991-4191-abce-cde0d9a599d1","ios":"levelo://app?vid=4bafe163-a991-4191-abce-cde0d9a599d1"},"vehicle_type_id":"4","last_reported":1743836944,"current_range_meters":9600,"station_id":"ce4bhhp2rcd13ifvqfm0","pricing_plan_id":"cebpf4jnsgd1na2vs0mg"},{"bike_id":"48ec1fe3-fdf4-49a5-977a-526829b4e2e3","system_id":"levelo_inurba_marseille","lat":43.230588,"lon":5.354909,"is_reserved":false,"is_disabled":false,"rental_uris":{"android":"levelo://app?vid=48ec1fe3-fdf4-49a5-977a-526829b4e2e3","ios":"levelo://app?vid=48ec1fe3-fdf4-49a5-977a-526829b4e2e3"},"vehicle_type_id":"4","last_reported":1743836944,"current_range_meters":10000,"station_id":"cpo3342slgdg3j2ifvpg","pricing_plan_id":"cebpf4jnsgd1na2vs0mg"},{"bike_id":"95df1b46-4651-4e01-99a6-3ccb43dd586c","system_id":"levelo_inurba_marseille","lat":43.28944,"lon":5.39647,"is_reserved":false,"is_disabled":false,"rental_uris":{"android":"levelo://app?vid=95df1b46-4651-4e01-99a6-3ccb43dd586c","ios":"levelo://app?vid=95df1b46-4651-4e01-99a6-3ccb43dd586c"},"vehicle_type_id":"4","last_reported":1743836944,"current_range_meters":10000,"station_id":"ce4bh3h2rcd13ifvqdn0","pricing_plan_id":"cebpf4jnsgd1na2vs0mg"},{"bike_id":"26bd561b-7d34-41ee-b9f0-d1fdd42a031c","system_id":"levelo_inurba_marseille","lat":43.30324,"lon":5.40447,"is_reserved":false,"is_disabled":false,"rental_uris":{"android":"levelo://app?vid=26bd561b-7d34-41ee-b9f0-d1fdd42a031c","ios":"levelo://app?vid=26bd561b-7d34-41ee-b9f0-d1fdd42a031c"},"vehicle_type_id":"4","last_reported":1743836944,"current_range_meters":10000,"station_id":"ce4bh012rcd13ifvqd10","pricing_plan_id":"cebpf4jnsgd1na2vs0mg"},{"bike_id":"97adf43a-9c28-46b9-91c3-3f96aedd7fce","system_id":"levelo_inurba_marseille","lat":43.26064,"lon":5.39405,"is_reserved":false,"is_disabled":false,"rental_uris":{"android":"levelo://app?vid=97adf43a-9c28-46b9-91c3-3f96aedd7fce","ios":"levelo://app?vid=97adf43a-9c28-46b9-91c3-3f96aedd7fce"},"vehicle_type_id":"4","last_reported":1743836944,"current_range_meters":10000,"station_id":"ce4bhh92rcd13ifvqfj0","pricing_plan_id":"cebpf4jnsgd1na2vs0mg"},{"bike_id":"d68bb49e-ae67-46b9-9113-2f1b9eefff70","system_id":"levelo_inurba_marseille","lat":43.31991,"lon":5.38157,"is_reserved":false,"is_disabled":true,"rental_uris":{"android":"levelo://app?vid=d68bb49e-ae67-46b9-9113-2f1b9eefff70","ios":"levelo://app?vid=d68bb49e-ae67-46b9-9113-2f1b9eefff70"},"vehicle_type_id":"4","last_reported":1743836944,"current_range_meters":10000,"station_id":"ce4bhr12rcd13ifvqhpg","pricing_plan_id":"cebpf4jnsgd1na2vs0mg"},{"bike_id":"1d5ef6d0-a413-45b3-8100-7222d11689f2","system_id":"levelo_inurba_marseille","lat":43.289244,"lon":5.383956,"is_reserved":false,"is_disabled":true,"rental_uris":{"android":"levelo://app?vid=1d5ef6d0-a413-45b3-8100-7222d11689f2","ios":"levelo://app?vid=1d5ef6d0-a413-45b3-8100-7222d11689f2"},"vehicle_type_id":"4","last_reported":1743836944,"current_range_meters":10000,"station_id":"ce4bh612rcd13ifvqe6g","pricing_plan_id":"cebpf4jnsgd1na2vs0mg"},{"bike_id":"6fe5edb4-df2e-4d1e-ad96-6974e9dff0b8","system_id":"levelo_inurba_marseille","lat":43.28936,"lon":5.39635,"is_reserved":false,"is_disabled":false,"rental_uris":{"android":"levelo://app?vid=6fe5edb4-df2e-4d1e-ad96-6974e9dff0b8","ios":"levelo://app?vid=6fe5edb4-df2e-4d1e-ad96-6974e9dff0b8"},"vehicle_type_id":"4","last_reported":1743836944,"current_range_meters":10800,"station_id":"ce4bh3h2rcd13ifvqdn0","pricing_plan_id":"cebpf4jnsgd1na2vs0mg"},{"bike_id":"eb79d1f9-7c91-4ea2-b5f8-796189743e1a","system_id":"levelo_inurba_marseille","lat":43.33719,"lon":5.39188,"is_reserved":false,"is_disabled":false,"rental_uris":{"android":"levelo://app?vid=eb79d1f9-7c91-4ea2-b5f8-796189743e1a","ios":"levelo://app?vid=eb79d1f9-7c91-4ea2-b5f8-796189743e1a"},"vehicle_type_id":"4","last_reported":1743836944,"current_range_meters":10800,"station_id":"ce4bhr92rcd13ifvqhsg","pricing_plan_id":"cebpf4jnsgd1na2vs0mg"},{"bike_id":"8cfb302e-8924-429d-b39f-c3584d80bd58","system_id":"levelo_inurba_marseille","lat":43.29635,"lon":5.40605,"is_reserved":false,"is_disabled":false,"rental_uris":{"android":"levelo://app?vid=8cfb302e-8924-429d-b39f-c3584d80bd58","ios":"levelo://app?vid=8cfb302e-8924-429d-b39f-c3584d80bd58"},"vehicle_type_id":"4","last_reported":1743836944,"current_range_meters":10800,"station_id":"ce4bh0h2rcd13ifvqd60","pricing_plan_id":"cebpf4jnsgd1na2vs0mg"},{"bike_id":"d89bb348-a2b2-475f-b66f-22fe74c882fd","system_id":"levelo_inurba_marseille","lat":43.23174,"lon":5.39988,"is_reserved":false,"is_disabled":false,"rental_uris":{"android":"levelo://app?vid=d89bb348-a2b2-475f-b66f-22fe74c882fd","ios":"levelo://app?vid=d89bb348-a2b2-475f-b66f-22fe74c882fd"},"vehicle_type_id":"4","last_reported":1743836944,"current_range_meters":10800,"station_id":"ce4bhn12rcd13ifvqgqg","pricing_plan_id":"cebpf4jnsgd1na2vs0mg"},{"bike_id":"fdad6e5e-1467-4616-9d72-68b29d343e00","system_id":"levelo_inurba_marseille","lat":43.32284,"lon":5.38289,"is_reserved":false,"is_disabled":false,"rental_uris":{"android":"levelo://app?vid=fdad6e5e-1467-4616-9d72-68b29d343e00","ios":"levelo://app?vid=fdad6e5e-1467-4616-9d72-68b29d343e00"},"vehicle_type_id":"4","last_reported":1743836944,"current_range_meters":10800,"station_id":"ce4bhr12rcd13ifvqhqg","pricing_plan_id":"cebpf4jnsgd1na2vs0mg"},{"bike_id":"da98834e-7628-4e36-8261-884578fb56e3","system_id":"levelo_inurba_marseille","lat":43.246605,"lon":5.381726,"is_reserved":false,"is_disabled":false,"rental_uris":{"android":"levelo://app?vid=da98834e-7628-4e36-8261-884578fb56e3","ios":"levelo://app?vid=da98834e-7628-4e36-8261-884578fb56e3"},"vehicle_type_id":"4","last_reported":1743836944,"current_range_meters":10800,"station_id":"ce4bhih2rcd13ifvqfr0","pricing_plan_id":"cebpf4jnsgd1na2vs0mg"},{"bike_id":"41296888-352e-4ce3-b582-026d48019870","system_id":"levelo_inurba_marseille","lat":43.29161,"lon":5.37912,"is_reserved":false,"is_disabled":false,"rental_uris":{"android":"levelo://app?vid=41296888-352e-4ce3-b582-026d48019870","ios":"levelo://app?vid=41296888-352e-4ce3-b582-026d48019870"},"vehicle_type_id":"4","last_reported":1743836944,"current_range_meters":10800,"station_id":"","pricing_plan_id":"cebpf4jnsgd1na2vs0mg"},{"bike_id":"3719d63c-6535-40a3-9206-8644906174c4","system_id":"levelo_inurba_marseille","lat":43.299009,"lon":5.436842,"is_reserved":false,"is_disabled":false,"rental_uris":{"android":"levelo://app?vid=3719d63c-6535-40a3-9206-8644906174c4","ios":"levelo://app?vid=3719d63c-6535-40a3-9206-8644906174c4"},"vehicle_type_id":"4","last_reported":1743836944,"current_range_meters":11200,"station_id":"ce4bhpp2rcd13ifvqhfg","pricing_plan_id":"cebpf4jnsgd1na2vs0mg"},{"bike_id":"c1a94544-4b06-43dd-a06c-82ac0efedeb1","system_id":"levelo_inurba_marseille","lat":43.29193,"lon":5.35803,"is_reserved":false,"is_disabled":false,"rental_uris":{"android":"levelo://app?vid=c1a94544-4b06-43dd-a06c-82ac0efedeb1","ios":"levelo://app?vid=c1a94544-4b06-43dd-a06c-82ac0efedeb1"},"vehicle_type_id":"4","last_reported":1743836944,"current_range_meters":10800,"station_id":"ce4bhb12rcd13ifvqel0","pricing_plan_id":"cebpf4jnsgd1na2vs0mg"},{"bike_id":"e22f0623-37c0-42c0-ade5-cc379bd64a05","system_id":"levelo_inurba_marseille","lat":43.28943,"lon":5.39626,"is_reserved":false,"is_disabled":false,"rental_uris":{"android":"levelo://app?vid=e22f0623-37c0-42c0-ade5-cc379bd64a05","ios":"levelo://app?vid=e22f0623-37c0-42c0-ade5-cc379bd64a05"},"vehicle_type_id":"4","last_reported":1743836944,"current_range_meters":11200,"station_id":"ce4bh3h2rcd13ifvqdn0","pricing_plan_id":"cebpf4jnsgd1na2vs0mg"},{"bike_id":"eaf859a6-ff3d-4281-be3e-7de787fa533a","system_id":"levelo_inurba_marseille","lat":43.30319,"lon":5.39202,"is_reserved":false,"is_disabled":true,"rental_uris":{"android":"levelo://app?vid=eaf859a6-ff3d-4281-be3e-7de787fa533a","ios":"levelo://app?vid=eaf859a6-ff3d-4281-be3e-7de787fa533a"},"vehicle_type_id":"4","last_reported":1743836944,"current_range_meters":11600,"station_id":"ce4bgkh2rcd13ifvqbk0","pricing_plan_id":"cebpf4jnsgd1na2vs0mg"},{"bike_id":"30e26119-64c6-4abe-8ece-4f6f9d0e22fc","system_id":"levelo_inurba_marseille","lat":43.28668,"lon":5.36358,"is_reserved":false,"is_disabled":false,"rental_uris":{"android":"levelo://app?vid=30e26119-64c6-4abe-8ece-4f6f9d0e22fc","ios":"levelo://app?vid=30e26119-64c6-4abe-8ece-4f6f9d0e22fc"},"vehicle_type_id":"4","last_reported":1743836944,"current_range_meters":11600,"station_id":"ce4bhah2rcd13ifvqej0","pricing_plan_id":"cebpf4jnsgd1na2vs0mg"},{"bike_id":"88122bdf-e454-4295-87eb-4f2b4f98db61","system_id":"levelo_inurba_marseille","lat":43.31064,"lon":5.38347,"is_reserved":false,"is_disabled":false,"rental_uris":{"android":"levelo://app?vid=88122bdf-e454-4295-87eb-4f2b4f98db61","ios":"levelo://app?vid=88122bdf-e454-4295-87eb-4f2b4f98db61"},"vehicle_type_id":"4","last_reported":1743836944,"current_range_meters":11600,"station_id":"ce4bgv92rcd13ifvqcr0","pricing_plan_id":"cebpf4jnsgd1na2vs0mg"},{"bike_id":"e3d508b8-0e68-49ae-aafd-28aecc05e1e2","system_id":"levelo_inurba_marseille","lat":43.295321,"lon":5.390468,"is_reserved":false,"is_disabled":false,"rental_uris":{"android":"levelo://app?vid=e3d508b8-0e68-49ae-aafd-28aecc05e1e2","ios":"levelo://app?vid=e3d508b8-0e68-49ae-aafd-28aecc05e1e2"},"vehicle_type_id":"4","last_reported":1743836944,"current_range_meters":11600,"station_id":"ce4bh3p2rcd13ifvqdp0","pricing_plan_id":"cebpf4jnsgd1na2vs0mg"},{"bike_id":"e0025ce5-fe29-4293-8000-c88ee2bac657","system_id":"levelo_inurba_marseille","lat":43.31475,"lon":5.39224,"is_reserved":false,"is_disabled":false,"rental_uris":{"android":"levelo://app?vid=e0025ce5-fe29-4293-8000-c88ee2bac657","ios":"levelo://app?vid=e0025ce5-fe29-4293-8000-c88ee2bac657"},"vehicle_type_id":"4","last_reported":1743836944,"current_range_meters":11600,"station_id":"","pricing_plan_id":"cebpf4jnsgd1na2vs0mg"},{"bike_id":"553252c4-7cb9-4577-9f30-769c22424688","system_id":"levelo_inurba_marseille","lat":43.311199,"lon":5.377561,"is_reserved":false,"is_disabled":false,"rental_uris":{"android":"levelo://app?vid=553252c4-7cb9-4577-9f30-769c22424688","ios":"levelo://app?vid=553252c4-7cb9-4577-9f30-769c22424688"},"vehicle_type_id":"4","last_reported":1743836944,"current_range_meters":11600,"station_id":"ce4bgt92rcd13ifvqcg0","pricing_plan_id":"cebpf4jnsgd1na2vs0mg"},{"bike_id":"156737a5-e872-489c-8f5b-97ea8abe042b","system_id":"levelo_inurba_marseille","lat":43.25119,"lon":5.40324,"is_reserved":false,"is_disabled":false,"rental_uris":{"android":"levelo://app?vid=156737a5-e872-489c-8f5b-97ea8abe042b","ios":"levelo://app?vid=156737a5-e872-489c-8f5b-97ea8abe042b"},"vehicle_type_id":"4","last_reported":1743836944,"current_range_meters":11600,"station_id":"ce4bhlh2rcd13ifvqgig","pricing_plan_id":"cebpf4jnsgd1na2vs0mg"},{"bike_id":"30b57730-cb66-4122-bd93-7dabcaba84e7","system_id":"levelo_inurba_marseille","lat":43.24905,"lon":5.40667,"is_reserved":false,"is_disabled":false,"rental_uris":{"android":"levelo://app?vid=30b57730-cb66-4122-bd93-7dabcaba84e7","ios":"levelo://app?vid=30b57730-cb66-4122-bd93-7dabcaba84e7"},"vehicle_type_id":"4","last_reported":1743836944,"current_range_meters":12000,"station_id":"","pricing_plan_id":"cebpf4jnsgd1na2vs0mg"},{"bike_id":"8969ed25-c9d4-4070-8211-c460c3573d18","system_id":"levelo_inurba_marseille","lat":43.293701,"lon":5.378543,"is_reserved":false,"is_disabled":false,"rental_uris":{"android":"levelo://app?vid=8969ed25-c9d4-4070-8211-c460c3573d18","ios":"levelo://app?vid=8969ed25-c9d4-4070-8211-c460c3573d18"},"vehicle_type_id":"4","last_reported":1743836944,"current_range_meters":12000,"station_id":"ce4bgjh2rcd13ifvqbf0","pricing_plan_id":"cebpf4jnsgd1na2vs0mg"},{"bike_id":"727a5d65-d84f-4ae0-a752-9320462583ab","system_id":"levelo_inurba_marseille","lat":43.23196,"lon":5.39989,"is_reserved":false,"is_disabled":false,"rental_uris":{"android":"levelo://app?vid=727a5d65-d84f-4ae0-a752-9320462583ab","ios":"levelo://app?vid=727a5d65-d84f-4ae0-a752-9320462583ab"},"vehicle_type_id":"4","last_reported":1743836944,"current_range_meters":12000,"station_id":"ce4bhn12rcd13ifvqgqg","pricing_plan_id":"cebpf4jnsgd1na2vs0mg"},{"bike_id":"7a3cd935-e309-44d8-a3c4-a75980111808","system_id":"levelo_inurba_marseille","lat":43.29405,"lon":5.37858,"is_reserved":false,"is_disabled":true,"rental_uris":{"android":"levelo://app?vid=7a3cd935-e309-44d8-a3c4-a75980111808","ios":"levelo://app?vid=7a3cd935-e309-44d8-a3c4-a75980111808"},"vehicle_type_id":"4","last_reported":1743836944,"current_range_meters":12000,"station_id":"","pricing_plan_id":"cebpf4jnsgd1na2vs0mg"},{"bike_id":"ba311037-5d6d-49dc-9af7-06638a37bf38","system_id":"levelo_inurba_marseille","lat":43.24098,"lon":5.37736,"is_reserved":false,"is_disabled":false,"rental_uris":{"android":"levelo://app?vid=ba311037-5d6d-49dc-9af7-06638a37bf38","ios":"levelo://app?vid=ba311037-5d6d-49dc-9af7-06638a37bf38"},"vehicle_type_id":"4","last_reported":1743836944,"current_range_meters":12400,"station_id":"ce4bhnp2rcd13ifvqgvg","pricing_plan_id":"cebpf4jnsgd1na2vs0mg"},{"bike_id":"771f8f1e-cd87-4047-b3ff-87a86b8218fe","system_id":"levelo_inurba_marseille","lat":43.3081,"lon":5.38178,"is_reserved":false,"is_disabled":false,"rental_uris":{"android":"levelo://app?vid=771f8f1e-cd87-4047-b3ff-87a86b8218fe","ios":"levelo://app?vid=771f8f1e-cd87-4047-b3ff-87a86b8218fe"},"vehicle_type_id":"4","last_reported":1743836944,"current_range_meters":12400,"station_id":"ce4bgt12rcd13ifvqce0","pricing_plan_id":"cebpf4jnsgd1na2vs0mg"},{"bike_id":"b646ace8-08b7-485e-abcd-2b6b162d14dc","system_id":"levelo_inurba_marseille","lat":43.29893,"lon":5.43657,"is_reserved":false,"is_disabled":false,"rental_uris":{"android":"levelo://app?vid=b646ace8-08b7-485e-abcd-2b6b162d14dc","ios":"levelo://app?vid=b646ace8-08b7-485e-abcd-2b6b162d14dc"},"vehicle_type_id":"4","last_reported":1743836944,"current_range_meters":12400,"station_id":"ce4bhpp2rcd13ifvqhfg","pricing_plan_id":"cebpf4jnsgd1na2vs0mg"},{"bike_id":"d5e984d3-343e-4e16-bd54-bc3ebbd48639","system_id":"levelo_inurba_marseille","lat":43.30157,"lon":5.38813,"is_reserved":false,"is_disabled":true,"rental_uris":{"android":"levelo://app?vid=d5e984d3-343e-4e16-bd54-bc3ebbd48639","ios":"levelo://app?vid=d5e984d3-343e-4e16-bd54-bc3ebbd48639"},"vehicle_type_id":"4","last_reported":1743836944,"current_range_meters":12800,"station_id":"ce4bghh2rcd13ifvqb60","pricing_plan_id":"cebpf4jnsgd1na2vs0mg"},{"bike_id":"a058f5d4-511f-4c92-a3e5-742831067ae0","system_id":"levelo_inurba_marseille","lat":43.30135,"lon":5.37674,"is_reserved":false,"is_disabled":false,"rental_uris":{"android":"levelo://app?vid=a058f5d4-511f-4c92-a3e5-742831067ae0","ios":"levelo://app?vid=a058f5d4-511f-4c92-a3e5-742831067ae0"},"vehicle_type_id":"4","last_reported":1743836944,"current_range_meters":12800,"station_id":"","pricing_plan_id":"cebpf4jnsgd1na2vs0mg"},{"bike_id":"b0b014ad-5ede-4af3-86b6-2dd480528f10","system_id":"levelo_inurba_marseille","lat":43.31693,"lon":5.40443,"is_reserved":false,"is_disabled":false,"rental_uris":{"android":"levelo://app?vid=b0b014ad-5ede-4af3-86b6-2dd480528f10","ios":"levelo://app?vid=b0b014ad-5ede-4af3-86b6-2dd480528f10"},"vehicle_type_id":"4","last_reported":1743836944,"current_range_meters":12800,"station_id":"ce4bh012rcd13ifvqd00","pricing_plan_id":"cebpf4jnsgd1na2vs0mg"},{"bike_id":"7ae928d1-8ce2-4ef2-8244-058415c1adf3","system_id":"levelo_inurba_marseille","lat":43.27923,"lon":5.39598,"is_reserved":false,"is_disabled":false,"rental_uris":{"android":"levelo://app?vid=7ae928d1-8ce2-4ef2-8244-058415c1adf3","ios":"levelo://app?vid=7ae928d1-8ce2-4ef2-8244-058415c1adf3"},"vehicle_type_id":"4","last_reported":1743836944,"current_range_meters":12800,"station_id":"ce4bhf92rcd13ifvqf40","pricing_plan_id":"cebpf4jnsgd1na2vs0mg"},{"bike_id":"571e3573-115d-45f0-be34-7a09c1088906","system_id":"levelo_inurba_marseille","lat":43.30423,"lon":5.39749,"is_reserved":false,"is_disabled":false,"rental_uris":{"android":"levelo://app?vid=571e3573-115d-45f0-be34-7a09c1088906","ios":"levelo://app?vid=571e3573-115d-45f0-be34-7a09c1088906"},"vehicle_type_id":"4","last_reported":1743836944,"current_range_meters":12800,"station_id":"ce4bh092rcd13ifvqd20","pricing_plan_id":"cebpf4jnsgd1na2vs0mg"},{"bike_id":"c596b7d7-015e-434a-84ea-dc7cb589c92b","system_id":"levelo_inurba_marseille","lat":43.292572,"lon":5.409041,"is_reserved":false,"is_disabled":false,"rental_uris":{"android":"levelo://app?vid=c596b7d7-015e-434a-84ea-dc7cb589c92b","ios":"levelo://app?vid=c596b7d7-015e-434a-84ea-dc7cb589c92b"},"vehicle_type_id":"4","last_reported":1743836944,"current_range_meters":11200,"station_id":"ce4bh192rcd13ifvqdc0","pricing_plan_id":"cebpf4jnsgd1na2vs0mg"},{"bike_id":"4a772168-9ca5-48d4-a381-d0d984a984d8","system_id":"levelo_inurba_marseille","lat":43.28677,"lon":5.39989,"is_reserved":false,"is_disabled":false,"rental_uris":{"android":"levelo://app?vid=4a772168-9ca5-48d4-a381-d0d984a984d8","ios":"levelo://app?vid=4a772168-9ca5-48d4-a381-d0d984a984d8"},"vehicle_type_id":"4","last_reported":1743836944,"current_range_meters":12800,"station_id":"ce4bho92rcd13ifvqh3g","pricing_plan_id":"cebpf4jnsgd1na2vs0mg"},{"bike_id":"a9a91d70-b914-448a-88d6-f82967a4a92a","system_id":"levelo_inurba_marseille","lat":43.270708,"lon":5.422846,"is_reserved":false,"is_disabled":false,"rental_uris":{"android":"levelo://app?vid=a9a91d70-b914-448a-88d6-f82967a4a92a","ios":"levelo://app?vid=a9a91d70-b914-448a-88d6-f82967a4a92a"},"vehicle_type_id":"4","last_reported":1743836944,"current_range_meters":12400,"station_id":"ce4bhlh2rcd13ifvqgig","pricing_plan_id":"cebpf4jnsgd1na2vs0mg"},{"bike_id":"f6e033d8-796b-4611-81fd-4ba95f2ddc38","system_id":"levelo_inurba_marseille","lat":43.23071,"lon":5.35537,"is_reserved":false,"is_disabled":false,"rental_uris":{"android":"levelo://app?vid=f6e033d8-796b-4611-81fd-4ba95f2ddc38","ios":"levelo://app?vid=f6e033d8-796b-4611-81fd-4ba95f2ddc38"},"vehicle_type_id":"4","last_reported":1743836944,"current_range_meters":12800,"station_id":"cpo3342slgdg3j2ifvpg","pricing_plan_id":"cebpf4jnsgd1na2vs0mg"},{"bike_id":"f9f65b77-3335-4538-8acd-61a6cc60fe05","system_id":"levelo_inurba_marseille","lat":43.30118,"lon":5.39077,"is_reserved":false,"is_disabled":false,"rental_uris":{"android":"levelo://app?vid=f9f65b77-3335-4538-8acd-61a6cc60fe05","ios":"levelo://app?vid=f9f65b77-3335-4538-8acd-61a6cc60fe05"},"vehicle_type_id":"4","last_reported":1743836944,"current_range_meters":13600,"station_id":"ce4bh192rcd13ifvqdb0","pricing_plan_id":"cebpf4jnsgd1na2vs0mg"},{"bike_id":"a45393b3-6b7b-4fca-b601-50b1af1dbd9d","system_id":"levelo_inurba_marseille","lat":43.31996,"lon":5.3815,"is_reserved":false,"is_disabled":true,"rental_uris":{"android":"levelo://app?vid=a45393b3-6b7b-4fca-b601-50b1af1dbd9d","ios":"levelo://app?vid=a45393b3-6b7b-4fca-b601-50b1af1dbd9d"},"vehicle_type_id":"4","last_reported":1743836944,"current_range_meters":13600,"station_id":"ce4bhr12rcd13ifvqhpg","pricing_plan_id":"cebpf4jnsgd1na2vs0mg"},{"bike_id":"3f0d38e6-3bc0-460b-b1cd-2dff4e888875","system_id":"levelo_inurba_marseille","lat":43.29252,"lon":5.4093,"is_reserved":false,"is_disabled":false,"rental_uris":{"android":"levelo://app?vid=3f0d38e6-3bc0-460b-b1cd-2dff4e888875","ios":"levelo://app?vid=3f0d38e6-3bc0-460b-b1cd-2dff4e888875"},"vehicle_type_id":"4","last_reported":1743836944,"current_range_meters":13600,"station_id":"ce4bh192rcd13ifvqdc0","pricing_plan_id":"cebpf4jnsgd1na2vs0mg"},{"bike_id":"00de5d9d-417e-4f3b-b5cd-dfc0421e4a5e","system_id":"levelo_inurba_marseille","lat":43.306436,"lon":5.400781,"is_reserved":false,"is_disabled":false,"rental_uris":{"android":"levelo://app?vid=00de5d9d-417e-4f3b-b5cd-dfc0421e4a5e","ios":"levelo://app?vid=00de5d9d-417e-4f3b-b5cd-dfc0421e4a5e"},"vehicle_type_id":"4","last_reported":1743836944,"current_range_meters":13600,"station_id":"ce4bh112rcd13ifvqda0","pricing_plan_id":"cebpf4jnsgd1na2vs0mg"},{"bike_id":"47d5c92f-a526-4b2f-b92f-5a0d982037e0","system_id":"levelo_inurba_marseille","lat":43.231854,"lon":5.355772,"is_reserved":false,"is_disabled":false,"rental_uris":{"android":"levelo://app?vid=47d5c92f-a526-4b2f-b92f-5a0d982037e0","ios":"levelo://app?vid=47d5c92f-a526-4b2f-b92f-5a0d982037e0"},"vehicle_type_id":"4","last_reported":1743836944,"current_range_meters":13600,"station_id":"ce4bhu92rcd13ifvqi70","pricing_plan_id":"cebpf4jnsgd1na2vs0mg"},{"bike_id":"f419f11d-3d0a-4291-90df-d07a4add2d11","system_id":"levelo_inurba_marseille","lat":43.28079,"lon":5.39654,"is_reserved":false,"is_disabled":false,"rental_uris":{"android":"levelo://app?vid=f419f11d-3d0a-4291-90df-d07a4add2d11","ios":"levelo://app?vid=f419f11d-3d0a-4291-90df-d07a4add2d11"},"vehicle_type_id":"4","last_reported":1743836944,"current_range_meters":12800,"station_id":"ce4bho12rcd13ifvqh2g","pricing_plan_id":"cebpf4jnsgd1na2vs0mg"},{"bike_id":"78fc5e48-dd61-4930-8a2c-4d4519ab7122","system_id":"levelo_inurba_marseille","lat":43.2891,"lon":5.35958,"is_reserved":false,"is_disabled":false,"rental_uris":{"android":"levelo://app?vid=78fc5e48-dd61-4930-8a2c-4d4519ab7122","ios":"levelo://app?vid=78fc5e48-dd61-4930-8a2c-4d4519ab7122"},"vehicle_type_id":"4","last_reported":1743836944,"current_range_meters":13600,"station_id":"ce4bha92rcd13ifvqeg0","pricing_plan_id":"cebpf4jnsgd1na2vs0mg"},{"bike_id":"ed81289f-b9f3-4d86-9f8f-d8896cd8f07f","system_id":"levelo_inurba_marseille","lat":43.304246,"lon":5.397566,"is_reserved":false,"is_disabled":true,"rental_uris":{"android":"levelo://app?vid=ed81289f-b9f3-4d86-9f8f-d8896cd8f07f","ios":"levelo://app?vid=ed81289f-b9f3-4d86-9f8f-d8896cd8f07f"},"vehicle_type_id":"4","last_reported":1743836944,"current_range_meters":14000,"station_id":"ce4bh092rcd13ifvqd20","pricing_plan_id":"cebpf4jnsgd1na2vs0mg"},{"bike_id":"ee49b77a-73fa-4f01-a630-a6ca9d3615ba","system_id":"levelo_inurba_marseille","lat":43.27671,"lon":5.38889,"is_reserved":false,"is_disabled":false,"rental_uris":{"android":"levelo://app?vid=ee49b77a-73fa-4f01-a630-a6ca9d3615ba","ios":"levelo://app?vid=ee49b77a-73fa-4f01-a630-a6ca9d3615ba"},"vehicle_type_id":"4","last_reported":1743836944,"current_range_meters":13600,"station_id":"ce4bhi12rcd13ifvqfo0","pricing_plan_id":"cebpf4jnsgd1na2vs0mg"},{"bike_id":"34fa0ed0-cf6e-4ef5-a984-813fdfb79d3e","system_id":"levelo_inurba_marseille","lat":43.290253,"lon":5.377983,"is_reserved":false,"is_disabled":true,"rental_uris":{"android":"levelo://app?vid=34fa0ed0-cf6e-4ef5-a984-813fdfb79d3e","ios":"levelo://app?vid=34fa0ed0-cf6e-4ef5-a984-813fdfb79d3e"},"vehicle_type_id":"4","last_reported":1743836944,"current_range_meters":14000,"station_id":"ce4bh9p2rcd13ifvqed0","pricing_plan_id":"cebpf4jnsgd1na2vs0mg"},{"bike_id":"7ec1c536-4bee-4456-af37-38cee5757d79","system_id":"levelo_inurba_marseille","lat":43.3118,"lon":5.38723,"is_reserved":false,"is_disabled":false,"rental_uris":{"android":"levelo://app?vid=7ec1c536-4bee-4456-af37-38cee5757d79","ios":"levelo://app?vid=7ec1c536-4bee-4456-af37-38cee5757d79"},"vehicle_type_id":"4","last_reported":1743836944,"current_range_meters":14000,"station_id":"ce4bgv12rcd13ifvqcp0","pricing_plan_id":"cebpf4jnsgd1na2vs0mg"},{"bike_id":"c99047a6-45c2-49f7-a623-afb91aa2108c","system_id":"levelo_inurba_marseille","lat":43.29531,"lon":5.39035,"is_reserved":false,"is_disabled":false,"rental_uris":{"android":"levelo://app?vid=c99047a6-45c2-49f7-a623-afb91aa2108c","ios":"levelo://app?vid=c99047a6-45c2-49f7-a623-afb91aa2108c"},"vehicle_type_id":"4","last_reported":1743836944,"current_range_meters":14000,"station_id":"ce4bh3p2rcd13ifvqdp0","pricing_plan_id":"cebpf4jnsgd1na2vs0mg"},{"bike_id":"d2a07d60-57ab-498a-9a05-2527f7931b4d","system_id":"levelo_inurba_marseille","lat":43.23047,"lon":5.35493,"is_reserved":false,"is_disabled":false,"rental_uris":{"android":"levelo://app?vid=d2a07d60-57ab-498a-9a05-2527f7931b4d","ios":"levelo://app?vid=d2a07d60-57ab-498a-9a05-2527f7931b4d"},"vehicle_type_id":"4","last_reported":1743836944,"current_range_meters":14400,"station_id":"cpo3342slgdg3j2ifvpg","pricing_plan_id":"cebpf4jnsgd1na2vs0mg"},{"bike_id":"4b61c2b8-d1d7-474c-bcb9-2b38ba179ddd","system_id":"levelo_inurba_marseille","lat":43.30145,"lon":5.38087,"is_reserved":false,"is_disabled":false,"rental_uris":{"android":"levelo://app?vid=4b61c2b8-d1d7-474c-bcb9-2b38ba179ddd","ios":"levelo://app?vid=4b61c2b8-d1d7-474c-bcb9-2b38ba179ddd"},"vehicle_type_id":"4","last_reported":1743836944,"current_range_meters":14400,"station_id":"ce4bgjp2rcd13ifvqbh0","pricing_plan_id":"cebpf4jnsgd1na2vs0mg"},{"bike_id":"4c364a14-a14f-4fad-ae4a-d1fa8696b548","system_id":"levelo_inurba_marseille","lat":43.25129,"lon":5.40344,"is_reserved":false,"is_disabled":true,"rental_uris":{"android":"levelo://app?vid=4c364a14-a14f-4fad-ae4a-d1fa8696b548","ios":"levelo://app?vid=4c364a14-a14f-4fad-ae4a-d1fa8696b548"},"vehicle_type_id":"4","last_reported":1743836944,"current_range_meters":14400,"station_id":"ce4bhlh2rcd13ifvqgig","pricing_plan_id":"cebpf4jnsgd1na2vs0mg"},{"bike_id":"94bbf571-4919-4cea-8c50-79e346f7dc11","system_id":"levelo_inurba_marseille","lat":43.32452,"lon":5.39121,"is_reserved":false,"is_disabled":false,"rental_uris":{"android":"levelo://app?vid=94bbf571-4919-4cea-8c50-79e346f7dc11","ios":"levelo://app?vid=94bbf571-4919-4cea-8c50-79e346f7dc11"},"vehicle_type_id":"4","last_reported":1743836944,"current_range_meters":14800,"station_id":"","pricing_plan_id":"cebpf4jnsgd1na2vs0mg"},{"bike_id":"a6303451-5b45-435c-bf0e-748f94cc010d","system_id":"levelo_inurba_marseille","lat":43.231928,"lon":5.355465,"is_reserved":false,"is_disabled":false,"rental_uris":{"android":"levelo://app?vid=a6303451-5b45-435c-bf0e-748f94cc010d","ios":"levelo://app?vid=a6303451-5b45-435c-bf0e-748f94cc010d"},"vehicle_type_id":"4","last_reported":1743836944,"current_range_meters":14800,"station_id":"ce4bhu92rcd13ifvqi70","pricing_plan_id":"cebpf4jnsgd1na2vs0mg"},{"bike_id":"595d1bd1-e4dc-4a12-8ac0-f6061505db03","system_id":"levelo_inurba_marseille","lat":43.27963,"lon":5.38756,"is_reserved":false,"is_disabled":false,"rental_uris":{"android":"levelo://app?vid=595d1bd1-e4dc-4a12-8ac0-f6061505db03","ios":"levelo://app?vid=595d1bd1-e4dc-4a12-8ac0-f6061505db03"},"vehicle_type_id":"4","last_reported":1743836944,"current_range_meters":14800,"station_id":"ce4bhg12rcd13ifvqf80","pricing_plan_id":"cebpf4jnsgd1na2vs0mg"},{"bike_id":"4791ecc1-dfdd-46f4-a8f7-d810aaeb8961","system_id":"levelo_inurba_marseille","lat":43.262843,"lon":5.3744,"is_reserved":false,"is_disabled":false,"rental_uris":{"android":"levelo://app?vid=4791ecc1-dfdd-46f4-a8f7-d810aaeb8961","ios":"levelo://app?vid=4791ecc1-dfdd-46f4-a8f7-d810aaeb8961"},"vehicle_type_id":"4","last_reported":1743836944,"current_range_meters":15200,"station_id":"ce4bhjp2rcd13ifvqg90","pricing_plan_id":"cebpf4jnsgd1na2vs0mg"},{"bike_id":"6840c31b-ff24-4826-8023-51fa05a7b83b","system_id":"levelo_inurba_marseille","lat":43.2708,"lon":5.40296,"is_reserved":false,"is_disabled":false,"rental_uris":{"android":"levelo://app?vid=6840c31b-ff24-4826-8023-51fa05a7b83b","ios":"levelo://app?vid=6840c31b-ff24-4826-8023-51fa05a7b83b"},"vehicle_type_id":"4","last_reported":1743836944,"current_range_meters":15200,"station_id":"ce4bhk92rcd13ifvqgc0","pricing_plan_id":"cebpf4jnsgd1na2vs0mg"},{"bike_id":"fcb07a14-84a8-4133-81bd-0f4c923d4172","system_id":"levelo_inurba_marseille","lat":43.31173,"lon":5.3872,"is_reserved":false,"is_disabled":false,"rental_uris":{"android":"levelo://app?vid=fcb07a14-84a8-4133-81bd-0f4c923d4172","ios":"levelo://app?vid=fcb07a14-84a8-4133-81bd-0f4c923d4172"},"vehicle_type_id":"4","last_reported":1743836944,"current_range_meters":15200,"station_id":"ce4bgv12rcd13ifvqcp0","pricing_plan_id":"cebpf4jnsgd1na2vs0mg"},{"bike_id":"73272853-088e-4b39-8e6e-94fe10fc353c","system_id":"levelo_inurba_marseille","lat":43.3377,"lon":5.37549,"is_reserved":false,"is_disabled":false,"rental_uris":{"android":"levelo://app?vid=73272853-088e-4b39-8e6e-94fe10fc353c","ios":"levelo://app?vid=73272853-088e-4b39-8e6e-94fe10fc353c"},"vehicle_type_id":"4","last_reported":1743836944,"current_range_meters":15200,"station_id":"","pricing_plan_id":"cebpf4jnsgd1na2vs0mg"},{"bike_id":"92347d5d-2674-42d3-9761-ce30662a0e5c","system_id":"levelo_inurba_marseille","lat":43.26561,"lon":5.39007,"is_reserved":false,"is_disabled":false,"rental_uris":{"android":"levelo://app?vid=92347d5d-2674-42d3-9761-ce30662a0e5c","ios":"levelo://app?vid=92347d5d-2674-42d3-9761-ce30662a0e5c"},"vehicle_type_id":"4","last_reported":1743836944,"current_range_meters":15200,"station_id":"ce4bhe12rcd13ifvqf30","pricing_plan_id":"cebpf4jnsgd1na2vs0mg"},{"bike_id":"20b252e5-00ba-43de-9011-ac387e05a2a8","system_id":"levelo_inurba_marseille","lat":43.29033,"lon":5.39969,"is_reserved":false,"is_disabled":false,"rental_uris":{"android":"levelo://app?vid=20b252e5-00ba-43de-9011-ac387e05a2a8","ios":"levelo://app?vid=20b252e5-00ba-43de-9011-ac387e05a2a8"},"vehicle_type_id":"4","last_reported":1743836944,"current_range_meters":15200,"station_id":"ce4bh392rcd13ifvqdm0","pricing_plan_id":"cebpf4jnsgd1na2vs0mg"},{"bike_id":"36317d50-6103-4b9f-8256-955471ca70b1","system_id":"levelo_inurba_marseille","lat":43.30669,"lon":5.36852,"is_reserved":false,"is_disabled":false,"rental_uris":{"android":"levelo://app?vid=36317d50-6103-4b9f-8256-955471ca70b1","ios":"levelo://app?vid=36317d50-6103-4b9f-8256-955471ca70b1"},"vehicle_type_id":"4","last_reported":1743836944,"current_range_meters":15200,"station_id":"","pricing_plan_id":"cebpf4jnsgd1na2vs0mg"},{"bike_id":"c4f55e83-61f1-43ac-ad95-35a36ac88013","system_id":"levelo_inurba_marseille","lat":43.28687,"lon":5.40007,"is_reserved":false,"is_disabled":true,"rental_uris":{"android":"levelo://app?vid=c4f55e83-61f1-43ac-ad95-35a36ac88013","ios":"levelo://app?vid=c4f55e83-61f1-43ac-ad95-35a36ac88013"},"vehicle_type_id":"4","last_reported":1743836944,"current_range_meters":15200,"station_id":"ce4bho92rcd13ifvqh3g","pricing_plan_id":"cebpf4jnsgd1na2vs0mg"},{"bike_id":"c9b6cf5c-01e8-4fcb-a4fb-c1012941b6ec","system_id":"levelo_inurba_marseille","lat":43.2417,"lon":5.36429,"is_reserved":false,"is_disabled":false,"rental_uris":{"android":"levelo://app?vid=c9b6cf5c-01e8-4fcb-a4fb-c1012941b6ec","ios":"levelo://app?vid=c9b6cf5c-01e8-4fcb-a4fb-c1012941b6ec"},"vehicle_type_id":"4","last_reported":1743836944,"current_range_meters":15200,"station_id":"cpo36qri1sfpv3e86is0","pricing_plan_id":"cebpf4jnsgd1na2vs0mg"},{"bike_id":"8ee8a071-ee3c-4e6e-b1b2-0e8120beb7f4","system_id":"levelo_inurba_marseille","lat":43.25943,"lon":5.40927,"is_reserved":false,"is_disabled":false,"rental_uris":{"android":"levelo://app?vid=8ee8a071-ee3c-4e6e-b1b2-0e8120beb7f4","ios":"levelo://app?vid=8ee8a071-ee3c-4e6e-b1b2-0e8120beb7f4"},"vehicle_type_id":"4","last_reported":1743836944,"current_range_meters":16000,"station_id":"ce4bhm92rcd13ifvqglg","pricing_plan_id":"cebpf4jnsgd1na2vs0mg"},{"bike_id":"933ae856-3202-459e-8d65-8f27293835bd","system_id":"levelo_inurba_marseille","lat":43.29906,"lon":5.43648,"is_reserved":false,"is_disabled":false,"rental_uris":{"android":"levelo://app?vid=933ae856-3202-459e-8d65-8f27293835bd","ios":"levelo://app?vid=933ae856-3202-459e-8d65-8f27293835bd"},"vehicle_type_id":"4","last_reported":1743836944,"current_range_meters":16000,"station_id":"ce4bhpp2rcd13ifvqhfg","pricing_plan_id":"cebpf4jnsgd1na2vs0mg"},{"bike_id":"44d637cb-864f-409d-add6-6713a128c125","system_id":"levelo_inurba_marseille","lat":43.23058,"lon":5.35492,"is_reserved":false,"is_disabled":false,"rental_uris":{"android":"levelo://app?vid=44d637cb-864f-409d-add6-6713a128c125","ios":"levelo://app?vid=44d637cb-864f-409d-add6-6713a128c125"},"vehicle_type_id":"4","last_reported":1743836944,"current_range_meters":16000,"station_id":"cpo3342slgdg3j2ifvpg","pricing_plan_id":"cebpf4jnsgd1na2vs0mg"},{"bike_id":"97d77224-5748-4443-848a-6ab951c45d6d","system_id":"levelo_inurba_marseille","lat":43.32277,"lon":5.38281,"is_reserved":false,"is_disabled":false,"rental_uris":{"android":"levelo://app?vid=97d77224-5748-4443-848a-6ab951c45d6d","ios":"levelo://app?vid=97d77224-5748-4443-848a-6ab951c45d6d"},"vehicle_type_id":"4","last_reported":1743836944,"current_range_meters":16000,"station_id":"ce4bhr12rcd13ifvqhqg","pricing_plan_id":"cebpf4jnsgd1na2vs0mg"},{"bike_id":"ec69afed-7960-4351-b531-d8c33447618f","system_id":"levelo_inurba_marseille","lat":43.31993,"lon":5.38152,"is_reserved":false,"is_disabled":true,"rental_uris":{"android":"levelo://app?vid=ec69afed-7960-4351-b531-d8c33447618f","ios":"levelo://app?vid=ec69afed-7960-4351-b531-d8c33447618f"},"vehicle_type_id":"4","last_reported":1743836944,"current_range_meters":16000,"station_id":"ce4bhr12rcd13ifvqhpg","pricing_plan_id":"cebpf4jnsgd1na2vs0mg"},{"bike_id":"35be927c-526a-4cfc-a741-c2e7451c94d4","system_id":"levelo_inurba_marseille","lat":43.27956,"lon":5.38721,"is_reserved":false,"is_disabled":true,"rental_uris":{"android":"levelo://app?vid=35be927c-526a-4cfc-a741-c2e7451c94d4","ios":"levelo://app?vid=35be927c-526a-4cfc-a741-c2e7451c94d4"},"vehicle_type_id":"4","last_reported":1743836944,"current_range_meters":16000,"station_id":"ce4bhg12rcd13ifvqf80","pricing_plan_id":"cebpf4jnsgd1na2vs0mg"},{"bike_id":"a611ad77-223c-4d7d-a6da-1b42c4d245f9","system_id":"levelo_inurba_marseille","lat":43.29976,"lon":5.41312,"is_reserved":false,"is_disabled":false,"rental_uris":{"android":"levelo://app?vid=a611ad77-223c-4d7d-a6da-1b42c4d245f9","ios":"levelo://app?vid=a611ad77-223c-4d7d-a6da-1b42c4d245f9"},"vehicle_type_id":"4","last_reported":1743836944,"current_range_meters":16000,"station_id":"ce4bhp12rcd13ifvqh9g","pricing_plan_id":"cebpf4jnsgd1na2vs0mg"},{"bike_id":"65f37ce6-0181-4877-8938-e5bab611c301","system_id":"levelo_inurba_marseille","lat":43.298567,"lon":5.362939,"is_reserved":false,"is_disabled":true,"rental_uris":{"android":"levelo://app?vid=65f37ce6-0181-4877-8938-e5bab611c301","ios":"levelo://app?vid=65f37ce6-0181-4877-8938-e5bab611c301"},"vehicle_type_id":"4","last_reported":1743836944,"current_range_meters":16400,"station_id":"ce4bgpp2rcd13ifvqc3g","pricing_plan_id":"cebpf4jnsgd1na2vs0mg"},{"bike_id":"87908f94-d8aa-4a33-8565-205213af20b1","system_id":"levelo_inurba_marseille","lat":43.32122,"lon":5.36781,"is_reserved":false,"is_disabled":false,"rental_uris":{"android":"levelo://app?vid=87908f94-d8aa-4a33-8565-205213af20b1","ios":"levelo://app?vid=87908f94-d8aa-4a33-8565-205213af20b1"},"vehicle_type_id":"4","last_reported":1743836944,"current_range_meters":16400,"station_id":"ce4bhrh2rcd13ifvqhug","pricing_plan_id":"cebpf4jnsgd1na2vs0mg"},{"bike_id":"7e5adb93-50e0-46c9-bfef-5ef89b40e5a6","system_id":"levelo_inurba_marseille","lat":43.29312,"lon":5.37187,"is_reserved":false,"is_disabled":true,"rental_uris":{"android":"levelo://app?vid=7e5adb93-50e0-46c9-bfef-5ef89b40e5a6","ios":"levelo://app?vid=7e5adb93-50e0-46c9-bfef-5ef89b40e5a6"},"vehicle_type_id":"4","last_reported":1743836944,"current_range_meters":16400,"station_id":"ce4bgh92rcd13ifvqb40","pricing_plan_id":"cebpf4jnsgd1na2vs0mg"},{"bike_id":"6082a6d8-29f3-4441-bd82-d0f95ead75d7","system_id":"levelo_inurba_marseille","lat":43.23194,"lon":5.35558,"is_reserved":false,"is_disabled":false,"rental_uris":{"android":"levelo://app?vid=6082a6d8-29f3-4441-bd82-d0f95ead75d7","ios":"levelo://app?vid=6082a6d8-29f3-4441-bd82-d0f95ead75d7"},"vehicle_type_id":"4","last_reported":1743836944,"current_range_meters":16400,"station_id":"ce4bhu92rcd13ifvqi70","pricing_plan_id":"cebpf4jnsgd1na2vs0mg"},{"bike_id":"09374775-fc39-4944-9d3f-fd7900f65d60","system_id":"levelo_inurba_marseille","lat":43.27305,"lon":5.39101,"is_reserved":false,"is_disabled":false,"rental_uris":{"android":"levelo://app?vid=09374775-fc39-4944-9d3f-fd7900f65d60","ios":"levelo://app?vid=09374775-fc39-4944-9d3f-fd7900f65d60"},"vehicle_type_id":"4","last_reported":1743836944,"current_range_meters":16400,"station_id":"ce4bhgp2rcd13ifvqfe0","pricing_plan_id":"cebpf4jnsgd1na2vs0mg"},{"bike_id":"4a3de4dc-b9de-436c-adfc-4dbbdf7bf001","system_id":"levelo_inurba_marseille","lat":43.25127,"lon":5.40369,"is_reserved":false,"is_disabled":false,"rental_uris":{"android":"levelo://app?vid=4a3de4dc-b9de-436c-adfc-4dbbdf7bf001","ios":"levelo://app?vid=4a3de4dc-b9de-436c-adfc-4dbbdf7bf001"},"vehicle_type_id":"4","last_reported":1743836944,"current_range_meters":16400,"station_id":"ce4bhlh2rcd13ifvqgig","pricing_plan_id":"cebpf4jnsgd1na2vs0mg"},{"bike_id":"735e7a9d-ddc2-4dfd-a962-98d8f86bf24a","system_id":"levelo_inurba_marseille","lat":43.30597,"lon":5.39359,"is_reserved":false,"is_disabled":true,"rental_uris":{"android":"levelo://app?vid=735e7a9d-ddc2-4dfd-a962-98d8f86bf24a","ios":"levelo://app?vid=735e7a9d-ddc2-4dfd-a962-98d8f86bf24a"},"vehicle_type_id":"4","last_reported":1743836944,"current_range_meters":16400,"station_id":"ce4bh0p2rcd13ifvqd80","pricing_plan_id":"cebpf4jnsgd1na2vs0mg"},{"bike_id":"3a26c4e7-3add-4c6a-8312-4cb7ec76cb68","system_id":"levelo_inurba_marseille","lat":43.31504,"lon":5.37294,"is_reserved":false,"is_disabled":false,"rental_uris":{"android":"levelo://app?vid=3a26c4e7-3add-4c6a-8312-4cb7ec76cb68","ios":"levelo://app?vid=3a26c4e7-3add-4c6a-8312-4cb7ec76cb68"},"vehicle_type_id":"4","last_reported":1743836944,"current_range_meters":16400,"station_id":"ce4bgt12rcd13ifvqcd0","pricing_plan_id":"cebpf4jnsgd1na2vs0mg"},{"bike_id":"767778be-b45c-4e36-b245-9fd70511378d","system_id":"levelo_inurba_marseille","lat":43.23186,"lon":5.35552,"is_reserved":false,"is_disabled":false,"rental_uris":{"android":"levelo://app?vid=767778be-b45c-4e36-b245-9fd70511378d","ios":"levelo://app?vid=767778be-b45c-4e36-b245-9fd70511378d"},"vehicle_type_id":"4","last_reported":1743836944,"current_range_meters":16400,"station_id":"ce4bhu92rcd13ifvqi70","pricing_plan_id":"cebpf4jnsgd1na2vs0mg"},{"bike_id":"78866eb4-e4f8-4233-8032-726a392d2e7b","system_id":"levelo_inurba_marseille","lat":43.30662,"lon":5.40095,"is_reserved":false,"is_disabled":false,"rental_uris":{"android":"levelo://app?vid=78866eb4-e4f8-4233-8032-726a392d2e7b","ios":"levelo://app?vid=78866eb4-e4f8-4233-8032-726a392d2e7b"},"vehicle_type_id":"4","last_reported":1743836944,"current_range_meters":16800,"station_id":"ce4bh112rcd13ifvqda0","pricing_plan_id":"cebpf4jnsgd1na2vs0mg"},{"bike_id":"638792ac-2425-4a46-9c1a-3640bf2c73a6","system_id":"levelo_inurba_marseille","lat":43.31074,"lon":5.38357,"is_reserved":false,"is_disabled":false,"rental_uris":{"android":"levelo://app?vid=638792ac-2425-4a46-9c1a-3640bf2c73a6","ios":"levelo://app?vid=638792ac-2425-4a46-9c1a-3640bf2c73a6"},"vehicle_type_id":"4","last_reported":1743836944,"current_range_meters":16800,"station_id":"ce4bgv92rcd13ifvqcr0","pricing_plan_id":"cebpf4jnsgd1na2vs0mg"},{"bike_id":"ee872a6d-4f6c-43cd-8bea-24a8111c8233","system_id":"levelo_inurba_marseille","lat":43.30268,"lon":5.40079,"is_reserved":false,"is_disabled":false,"rental_uris":{"android":"levelo://app?vid=ee872a6d-4f6c-43cd-8bea-24a8111c8233","ios":"levelo://app?vid=ee872a6d-4f6c-43cd-8bea-24a8111c8233"},"vehicle_type_id":"4","last_reported":1743836944,"current_range_meters":16800,"station_id":"ce4bgvh2rcd13ifvqcs0","pricing_plan_id":"cebpf4jnsgd1na2vs0mg"},{"bike_id":"d40436bc-a917-47da-a93b-8c4c56a63210","system_id":"levelo_inurba_marseille","lat":43.31697,"lon":5.40468,"is_reserved":false,"is_disabled":false,"rental_uris":{"android":"levelo://app?vid=d40436bc-a917-47da-a93b-8c4c56a63210","ios":"levelo://app?vid=d40436bc-a917-47da-a93b-8c4c56a63210"},"vehicle_type_id":"4","last_reported":1743836944,"current_range_meters":16800,"station_id":"ce4bh012rcd13ifvqd00","pricing_plan_id":"cebpf4jnsgd1na2vs0mg"},{"bike_id":"cbcd6962-34cc-46d8-8983-fb10fb40e453","system_id":"levelo_inurba_marseille","lat":43.29652,"lon":5.40639,"is_reserved":false,"is_disabled":false,"rental_uris":{"android":"levelo://app?vid=cbcd6962-34cc-46d8-8983-fb10fb40e453","ios":"levelo://app?vid=cbcd6962-34cc-46d8-8983-fb10fb40e453"},"vehicle_type_id":"4","last_reported":1743836944,"current_range_meters":16800,"station_id":"ce4bh0h2rcd13ifvqd60","pricing_plan_id":"cebpf4jnsgd1na2vs0mg"},{"bike_id":"e60b96fd-4f71-4447-bca1-6271368ebd58","system_id":"levelo_inurba_marseille","lat":43.286171,"lon":5.351079,"is_reserved":false,"is_disabled":false,"rental_uris":{"android":"levelo://app?vid=e60b96fd-4f71-4447-bca1-6271368ebd58","ios":"levelo://app?vid=e60b96fd-4f71-4447-bca1-6271368ebd58"},"vehicle_type_id":"4","last_reported":1743836944,"current_range_meters":16800,"station_id":"ce4bhch2rcd13ifvqeug","pricing_plan_id":"cebpf4jnsgd1na2vs0mg"},{"bike_id":"8b561c23-5677-46f7-a586-e22c29792709","system_id":"levelo_inurba_marseille","lat":43.287087,"lon":5.400019,"is_reserved":false,"is_disabled":true,"rental_uris":{"android":"levelo://app?vid=8b561c23-5677-46f7-a586-e22c29792709","ios":"levelo://app?vid=8b561c23-5677-46f7-a586-e22c29792709"},"vehicle_type_id":"4","last_reported":1743836944,"current_range_meters":16800,"station_id":"ce4bho92rcd13ifvqh3g","pricing_plan_id":"cebpf4jnsgd1na2vs0mg"},{"bike_id":"8fe1097a-5424-4481-bc57-836ff4c5702e","system_id":"levelo_inurba_marseille","lat":43.319968,"lon":5.381491,"is_reserved":false,"is_disabled":false,"rental_uris":{"android":"levelo://app?vid=8fe1097a-5424-4481-bc57-836ff4c5702e","ios":"levelo://app?vid=8fe1097a-5424-4481-bc57-836ff4c5702e"},"vehicle_type_id":"4","last_reported":1743836944,"current_range_meters":16800,"station_id":"ce4bhr12rcd13ifvqhpg","pricing_plan_id":"cebpf4jnsgd1na2vs0mg"},{"bike_id":"406a7bca-4ceb-466d-a160-87b7d554f857","system_id":"levelo_inurba_marseille","lat":43.31084,"lon":5.42436,"is_reserved":false,"is_disabled":false,"rental_uris":{"android":"levelo://app?vid=406a7bca-4ceb-466d-a160-87b7d554f857","ios":"levelo://app?vid=406a7bca-4ceb-466d-a160-87b7d554f857"},"vehicle_type_id":"4","last_reported":1743836944,"current_range_meters":16800,"station_id":"ce4bhp92rcd13ifvqhag","pricing_plan_id":"cebpf4jnsgd1na2vs0mg"},{"bike_id":"8c55ab12-c75f-4c11-8841-4207039ae30c","system_id":"levelo_inurba_marseille","lat":43.29278,"lon":5.38426,"is_reserved":false,"is_disabled":true,"rental_uris":{"android":"levelo://app?vid=8c55ab12-c75f-4c11-8841-4207039ae30c","ios":"levelo://app?vid=8c55ab12-c75f-4c11-8841-4207039ae30c"},"vehicle_type_id":"4","last_reported":1743836944,"current_range_meters":16800,"station_id":"ce4bh692rcd13ifvqea0","pricing_plan_id":"cebpf4jnsgd1na2vs0mg"},{"bike_id":"7fa13819-6de4-4024-b3c8-1cd974b0ab81","system_id":"levelo_inurba_marseille","lat":43.29255,"lon":5.409109,"is_reserved":false,"is_disabled":false,"rental_uris":{"android":"levelo://app?vid=7fa13819-6de4-4024-b3c8-1cd974b0ab81","ios":"levelo://app?vid=7fa13819-6de4-4024-b3c8-1cd974b0ab81"},"vehicle_type_id":"4","last_reported":1743836944,"current_range_meters":17200,"station_id":"ce4bh412rcd13ifvqdr0","pricing_plan_id":"cebpf4jnsgd1na2vs0mg"},{"bike_id":"17a75963-0886-450e-8396-6c79a6be8fef","system_id":"levelo_inurba_marseille","lat":43.29551,"lon":5.42293,"is_reserved":false,"is_disabled":false,"rental_uris":{"android":"levelo://app?vid=17a75963-0886-450e-8396-6c79a6be8fef","ios":"levelo://app?vid=17a75963-0886-450e-8396-6c79a6be8fef"},"vehicle_type_id":"4","last_reported":1743836944,"current_range_meters":17200,"station_id":"ce4bhph2rcd13ifvqhdg","pricing_plan_id":"cebpf4jnsgd1na2vs0mg"},{"bike_id":"b0bdbe2b-0e37-4502-bf4b-e140e62bdf83","system_id":"levelo_inurba_marseille","lat":43.23951,"lon":5.36652,"is_reserved":false,"is_disabled":false,"rental_uris":{"android":"levelo://app?vid=b0bdbe2b-0e37-4502-bf4b-e140e62bdf83","ios":"levelo://app?vid=b0bdbe2b-0e37-4502-bf4b-e140e62bdf83"},"vehicle_type_id":"4","last_reported":1743836944,"current_range_meters":17200,"station_id":"ce4bhi12rcd13ifvqfp0","pricing_plan_id":"cebpf4jnsgd1na2vs0mg"},{"bike_id":"2afd77e6-e4fe-4277-8c6d-e55c37f54d70","system_id":"levelo_inurba_marseille","lat":43.30126,"lon":5.39094,"is_reserved":false,"is_disabled":false,"rental_uris":{"android":"levelo://app?vid=2afd77e6-e4fe-4277-8c6d-e55c37f54d70","ios":"levelo://app?vid=2afd77e6-e4fe-4277-8c6d-e55c37f54d70"},"vehicle_type_id":"4","last_reported":1743836944,"current_range_meters":17200,"station_id":"ce4bh192rcd13ifvqdb0","pricing_plan_id":"cebpf4jnsgd1na2vs0mg"},{"bike_id":"e8eedd67-3599-4a7f-9137-12df97d8da06","system_id":"levelo_inurba_marseille","lat":43.297852,"lon":5.381182,"is_reserved":false,"is_disabled":false,"rental_uris":{"android":"levelo://app?vid=e8eedd67-3599-4a7f-9137-12df97d8da06","ios":"levelo://app?vid=e8eedd67-3599-4a7f-9137-12df97d8da06"},"vehicle_type_id":"4","last_reported":1743836944,"current_range_meters":17200,"station_id":"ce4bho92rcd13ifvqh3g","pricing_plan_id":"cebpf4jnsgd1na2vs0mg"},{"bike_id":"85ff35b1-334a-490b-9c95-a63029d7bd30","system_id":"levelo_inurba_marseille","lat":43.28709,"lon":5.37392,"is_reserved":false,"is_disabled":true,"rental_uris":{"android":"levelo://app?vid=85ff35b1-334a-490b-9c95-a63029d7bd30","ios":"levelo://app?vid=85ff35b1-334a-490b-9c95-a63029d7bd30"},"vehicle_type_id":"4","last_reported":1743836944,"current_range_meters":17200,"station_id":"ce4bh3p2rcd13ifvqdq0","pricing_plan_id":"cebpf4jnsgd1na2vs0mg"},{"bike_id":"9cddfbbd-db93-4445-9dda-235393630247","system_id":"levelo_inurba_marseille","lat":43.29411,"lon":5.38604,"is_reserved":false,"is_disabled":true,"rental_uris":{"android":"levelo://app?vid=9cddfbbd-db93-4445-9dda-235393630247","ios":"levelo://app?vid=9cddfbbd-db93-4445-9dda-235393630247"},"vehicle_type_id":"4","last_reported":1743836944,"current_range_meters":17200,"station_id":"ce4bh2h2rcd13ifvqdh0","pricing_plan_id":"cebpf4jnsgd1na2vs0mg"},{"bike_id":"9221e722-1757-4ba8-a561-d21da11f6770","system_id":"levelo_inurba_marseille","lat":43.282743,"lon":5.350725,"is_reserved":false,"is_disabled":false,"rental_uris":{"android":"levelo://app?vid=9221e722-1757-4ba8-a561-d21da11f6770","ios":"levelo://app?vid=9221e722-1757-4ba8-a561-d21da11f6770"},"vehicle_type_id":"4","last_reported":1743836944,"current_range_meters":17200,"station_id":"ce4bhbp2rcd13ifvqerg","pricing_plan_id":"cebpf4jnsgd1na2vs0mg"},{"bike_id":"7fd0635d-68ad-4ce6-a52b-daef56987b4b","system_id":"levelo_inurba_marseille","lat":43.30824,"lon":5.38558,"is_reserved":false,"is_disabled":false,"rental_uris":{"android":"levelo://app?vid=7fd0635d-68ad-4ce6-a52b-daef56987b4b","ios":"levelo://app?vid=7fd0635d-68ad-4ce6-a52b-daef56987b4b"},"vehicle_type_id":"4","last_reported":1743836944,"current_range_meters":17200,"station_id":"","pricing_plan_id":"cebpf4jnsgd1na2vs0mg"},{"bike_id":"fd5b75d5-175b-452f-b8c8-5f4e1fbd71d0","system_id":"levelo_inurba_marseille","lat":43.22949,"lon":5.35422,"is_reserved":false,"is_disabled":false,"rental_uris":{"android":"levelo://app?vid=fd5b75d5-175b-452f-b8c8-5f4e1fbd71d0","ios":"levelo://app?vid=fd5b75d5-175b-452f-b8c8-5f4e1fbd71d0"},"vehicle_type_id":"4","last_reported":1743836944,"current_range_meters":17200,"station_id":"cpo3532slgdg3j2ikp40","pricing_plan_id":"cebpf4jnsgd1na2vs0mg"},{"bike_id":"136b6e45-ee21-453e-aa22-e07947db9071","system_id":"levelo_inurba_marseille","lat":43.23163,"lon":5.4372,"is_reserved":false,"is_disabled":true,"rental_uris":{"android":"levelo://app?vid=136b6e45-ee21-453e-aa22-e07947db9071","ios":"levelo://app?vid=136b6e45-ee21-453e-aa22-e07947db9071"},"vehicle_type_id":"4","last_reported":1743836944,"current_range_meters":17200,"station_id":"ce4bhmp2rcd13ifvqgog","pricing_plan_id":"cebpf4jnsgd1na2vs0mg"},{"bike_id":"f006cd22-7779-4f98-a2fb-66004797fcb5","system_id":"levelo_inurba_marseille","lat":43.33768,"lon":5.37484,"is_reserved":false,"is_disabled":false,"rental_uris":{"android":"levelo://app?vid=f006cd22-7779-4f98-a2fb-66004797fcb5","ios":"levelo://app?vid=f006cd22-7779-4f98-a2fb-66004797fcb5"},"vehicle_type_id":"4","last_reported":1743836944,"current_range_meters":17600,"station_id":"","pricing_plan_id":"cebpf4jnsgd1na2vs0mg"},{"bike_id":"64723ed1-d23d-4a0d-a2d0-b3af72b7c6d2","system_id":"levelo_inurba_marseille","lat":43.28146,"lon":5.42622,"is_reserved":false,"is_disabled":false,"rental_uris":{"android":"levelo://app?vid=64723ed1-d23d-4a0d-a2d0-b3af72b7c6d2","ios":"levelo://app?vid=64723ed1-d23d-4a0d-a2d0-b3af72b7c6d2"},"vehicle_type_id":"4","last_reported":1743836944,"current_range_meters":17600,"station_id":"ce4bhnh2rcd13ifvqgug","pricing_plan_id":"cebpf4jnsgd1na2vs0mg"},{"bike_id":"2c04b46b-e82d-4a28-9873-a1e7f8f4ed1d","system_id":"levelo_inurba_marseille","lat":43.24384,"lon":5.3706,"is_reserved":false,"is_disabled":false,"rental_uris":{"android":"levelo://app?vid=2c04b46b-e82d-4a28-9873-a1e7f8f4ed1d","ios":"levelo://app?vid=2c04b46b-e82d-4a28-9873-a1e7f8f4ed1d"},"vehicle_type_id":"4","last_reported":1743836944,"current_range_meters":17600,"station_id":"ce4bhhh2rcd13ifvqfk0","pricing_plan_id":"cebpf4jnsgd1na2vs0mg"},{"bike_id":"b58949c5-9b6b-4b23-acf9-7a6e20d0c1d1","system_id":"levelo_inurba_marseille","lat":43.29252,"lon":5.36858,"is_reserved":false,"is_disabled":false,"rental_uris":{"android":"levelo://app?vid=b58949c5-9b6b-4b23-acf9-7a6e20d0c1d1","ios":"levelo://app?vid=b58949c5-9b6b-4b23-acf9-7a6e20d0c1d1"},"vehicle_type_id":"4","last_reported":1743836944,"current_range_meters":17600,"station_id":"ce4bhbp2rcd13ifvqesg","pricing_plan_id":"cebpf4jnsgd1na2vs0mg"},{"bike_id":"722a4041-7067-4e65-bc1b-4e3df1455f3a","system_id":"levelo_inurba_marseille","lat":43.26804,"lon":5.40246,"is_reserved":false,"is_disabled":true,"rental_uris":{"android":"levelo://app?vid=722a4041-7067-4e65-bc1b-4e3df1455f3a","ios":"levelo://app?vid=722a4041-7067-4e65-bc1b-4e3df1455f3a"},"vehicle_type_id":"4","last_reported":1743836944,"current_range_meters":17600,"station_id":"ce501612rcd8frsf0b60","pricing_plan_id":"cebpf4jnsgd1na2vs0mg"},{"bike_id":"2416a225-8ab5-4a6d-bc89-416518a5e6f3","system_id":"levelo_inurba_marseille","lat":43.30807,"lon":5.38146,"is_reserved":false,"is_disabled":false,"rental_uris":{"android":"levelo://app?vid=2416a225-8ab5-4a6d-bc89-416518a5e6f3","ios":"levelo://app?vid=2416a225-8ab5-4a6d-bc89-416518a5e6f3"},"vehicle_type_id":"4","last_reported":1743836944,"current_range_meters":17600,"station_id":"ce4bgt12rcd13ifvqce0","pricing_plan_id":"cebpf4jnsgd1na2vs0mg"},{"bike_id":"a6184825-f174-4978-bbaf-24d87ac55787","system_id":"levelo_inurba_marseille","lat":43.308019,"lon":5.435306,"is_reserved":false,"is_disabled":false,"rental_uris":{"android":"levelo://app?vid=a6184825-f174-4978-bbaf-24d87ac55787","ios":"levelo://app?vid=a6184825-f174-4978-bbaf-24d87ac55787"},"vehicle_type_id":"4","last_reported":1743836944,"current_range_meters":17600,"station_id":"ce4bhph2rcd13ifvqheg","pricing_plan_id":"cebpf4jnsgd1na2vs0mg"},{"bike_id":"dd020ded-de29-4aff-8b23-0c66c67a1fe0","system_id":"levelo_inurba_marseille","lat":43.28911,"lon":5.36453,"is_reserved":false,"is_disabled":false,"rental_uris":{"android":"levelo://app?vid=dd020ded-de29-4aff-8b23-0c66c67a1fe0","ios":"levelo://app?vid=dd020ded-de29-4aff-8b23-0c66c67a1fe0"},"vehicle_type_id":"4","last_reported":1743836944,"current_range_meters":17600,"station_id":"","pricing_plan_id":"cebpf4jnsgd1na2vs0mg"},{"bike_id":"865b0b89-b514-4d1e-9ef7-2088bda23035","system_id":"levelo_inurba_marseille","lat":43.29578,"lon":5.36738,"is_reserved":false,"is_disabled":false,"rental_uris":{"android":"levelo://app?vid=865b0b89-b514-4d1e-9ef7-2088bda23035","ios":"levelo://app?vid=865b0b89-b514-4d1e-9ef7-2088bda23035"},"vehicle_type_id":"4","last_reported":1743836944,"current_range_meters":18000,"station_id":"ce4bgph2rcd13ifvqc2g","pricing_plan_id":"cebpf4jnsgd1na2vs0mg"},{"bike_id":"40cd2254-5751-46d4-993b-9470588013f5","system_id":"levelo_inurba_marseille","lat":43.26202,"lon":5.40458,"is_reserved":false,"is_disabled":false,"rental_uris":{"android":"levelo://app?vid=40cd2254-5751-46d4-993b-9470588013f5","ios":"levelo://app?vid=40cd2254-5751-46d4-993b-9470588013f5"},"vehicle_type_id":"4","last_reported":1743836944,"current_range_meters":18000,"station_id":"ce4bhmh2rcd13ifvqgmg","pricing_plan_id":"cebpf4jnsgd1na2vs0mg"},{"bike_id":"a409c3f0-8991-4228-afb5-57b19bb06658","system_id":"levelo_inurba_marseille","lat":43.32379,"lon":5.38918,"is_reserved":false,"is_disabled":false,"rental_uris":{"android":"levelo://app?vid=a409c3f0-8991-4228-afb5-57b19bb06658","ios":"levelo://app?vid=a409c3f0-8991-4228-afb5-57b19bb06658"},"vehicle_type_id":"4","last_reported":1743836944,"current_range_meters":18000,"station_id":"ce4bhqp2rcd13ifvqhog","pricing_plan_id":"cebpf4jnsgd1na2vs0mg"},{"bike_id":"1b4ebc9a-7fa1-4e8d-b0f8-d88cac3ee274","system_id":"levelo_inurba_marseille","lat":43.28461,"lon":5.35892,"is_reserved":false,"is_disabled":false,"rental_uris":{"android":"levelo://app?vid=1b4ebc9a-7fa1-4e8d-b0f8-d88cac3ee274","ios":"levelo://app?vid=1b4ebc9a-7fa1-4e8d-b0f8-d88cac3ee274"},"vehicle_type_id":"4","last_reported":1743836944,"current_range_meters":18000,"station_id":"ce4bhah2rcd13ifvqei0","pricing_plan_id":"cebpf4jnsgd1na2vs0mg"},{"bike_id":"36f6fa25-615d-4e6f-b8bf-9bb620854e1b","system_id":"levelo_inurba_marseille","lat":43.31724,"lon":5.42398,"is_reserved":false,"is_disabled":false,"rental_uris":{"android":"levelo://app?vid=36f6fa25-615d-4e6f-b8bf-9bb620854e1b","ios":"levelo://app?vid=36f6fa25-615d-4e6f-b8bf-9bb620854e1b"},"vehicle_type_id":"4","last_reported":1743836944,"current_range_meters":18000,"station_id":"ce4bhp92rcd13ifvqhbg","pricing_plan_id":"cebpf4jnsgd1na2vs0mg"},{"bike_id":"39f686d1-f6e1-424a-b4fa-e188b9c4f1e4","system_id":"levelo_inurba_marseille","lat":43.23061,"lon":5.3549,"is_reserved":false,"is_disabled":false,"rental_uris":{"android":"levelo://app?vid=39f686d1-f6e1-424a-b4fa-e188b9c4f1e4","ios":"levelo://app?vid=39f686d1-f6e1-424a-b4fa-e188b9c4f1e4"},"vehicle_type_id":"4","last_reported":1743836944,"current_range_meters":18000,"station_id":"cpo3342slgdg3j2ifvpg","pricing_plan_id":"cebpf4jnsgd1na2vs0mg"},{"bike_id":"98ee2576-9f44-464e-8f7c-56d0dadf3912","system_id":"levelo_inurba_marseille","lat":43.29282,"lon":5.38444,"is_reserved":false,"is_disabled":false,"rental_uris":{"android":"levelo://app?vid=98ee2576-9f44-464e-8f7c-56d0dadf3912","ios":"levelo://app?vid=98ee2576-9f44-464e-8f7c-56d0dadf3912"},"vehicle_type_id":"4","last_reported":1743836944,"current_range_meters":18000,"station_id":"ce4bh692rcd13ifvqea0","pricing_plan_id":"cebpf4jnsgd1na2vs0mg"},{"bike_id":"908cf791-7a95-4b19-87db-6ab531dc84b6","system_id":"levelo_inurba_marseille","lat":43.231938,"lon":5.35553,"is_reserved":false,"is_disabled":false,"rental_uris":{"android":"levelo://app?vid=908cf791-7a95-4b19-87db-6ab531dc84b6","ios":"levelo://app?vid=908cf791-7a95-4b19-87db-6ab531dc84b6"},"vehicle_type_id":"4","last_reported":1743836944,"current_range_meters":18000,"station_id":"","pricing_plan_id":"cebpf4jnsgd1na2vs0mg"},{"bike_id":"95dd15bd-8f90-42d9-8a0e-e8821a5d478f","system_id":"levelo_inurba_marseille","lat":43.292799,"lon":5.401399,"is_reserved":false,"is_disabled":false,"rental_uris":{"android":"levelo://app?vid=95dd15bd-8f90-42d9-8a0e-e8821a5d478f","ios":"levelo://app?vid=95dd15bd-8f90-42d9-8a0e-e8821a5d478f"},"vehicle_type_id":"4","last_reported":1743836944,"current_range_meters":18000,"station_id":"ce4bh312rcd13ifvqdk0","pricing_plan_id":"cebpf4jnsgd1na2vs0mg"},{"bike_id":"6bf0d690-a3f2-4ea0-b4d5-e4fa7f134a82","system_id":"levelo_inurba_marseille","lat":43.29003,"lon":5.35619,"is_reserved":false,"is_disabled":true,"rental_uris":{"android":"levelo://app?vid=6bf0d690-a3f2-4ea0-b4d5-e4fa7f134a82","ios":"levelo://app?vid=6bf0d690-a3f2-4ea0-b4d5-e4fa7f134a82"},"vehicle_type_id":"4","last_reported":1743836944,"current_range_meters":18000,"station_id":"ce4bhb92rcd13ifvqen0","pricing_plan_id":"cebpf4jnsgd1na2vs0mg"},{"bike_id":"c2c71d11-54ca-4d7a-a6c4-c8d5e795eda0","system_id":"levelo_inurba_marseille","lat":43.29002,"lon":5.35606,"is_reserved":false,"is_disabled":false,"rental_uris":{"android":"levelo://app?vid=c2c71d11-54ca-4d7a-a6c4-c8d5e795eda0","ios":"levelo://app?vid=c2c71d11-54ca-4d7a-a6c4-c8d5e795eda0"},"vehicle_type_id":"4","last_reported":1743836944,"current_range_meters":18000,"station_id":"ce4bhb92rcd13ifvqen0","pricing_plan_id":"cebpf4jnsgd1na2vs0mg"},{"bike_id":"5b8d1103-1921-4c53-912e-93d122cd3cdc","system_id":"levelo_inurba_marseille","lat":43.244003,"lon":5.370581,"is_reserved":false,"is_disabled":true,"rental_uris":{"android":"levelo://app?vid=5b8d1103-1921-4c53-912e-93d122cd3cdc","ios":"levelo://app?vid=5b8d1103-1921-4c53-912e-93d122cd3cdc"},