{"last_updated":1708275927,"ttl":30,"version":"2.2","data":{"bikes":[{"bike_id":"3cc213c2-b23c-4c6f-8a64-31c20cac9d1a","system_id":"levelo_inurba_marseille","lat":43.312239,"lon":5.368562,"is_reserved":false,"is_disabled":false,"rental_uris":{"android":"levelo://app?vid=3cc213c2-b23c-4c6f-8a64-31c20cac9d1a","ios":"levelo://app?vid=3cc213c2-b23c-4c6f-8a64-31c20cac9d1a"},"vehicle_type_id":"4","last_reported":1708275927,"current_range_meters":26800,"station_id":"ce4bgl92rcd13ifvqbq0","pricing_plan_id":"cebpf4jnsgd1na2vs0mg"},{"bike_id":"8b9c844c-699a-4c8a-b468-67ac509bb339","system_id":"levelo_inurba_marseille","lat":43.309076,"lon":5.368465,"is_reserved":false,"is_disabled":false,"rental_uris":{"android":"levelo://app?vid=8b9c844c-699a-4c8a-b468-67ac509bb339","ios":"levelo://app?vid=8b9c844c-699a-4c8a-b468-67ac509bb339"},"vehicle_type_id":"4","last_reported":1708275927,"current_range_meters":4800,"station_id":"ce4bgn92rcd13ifvqbvg","pricing_plan_id":"cebpf4jnsgd1na2vs0mg"},{"bike_id":"0b2435f9-027c-4264-9a29-00d49c500763","system_id":"levelo_inurba_marseille","lat":43.30881,"lon":5.37138,"is_reserved":false,"is_disabled":false,"rental_uris":{"android":"levelo://app?vid=0b2435f9-027c-4264-9a29-00d49c500763","ios":"levelo://app?vid=0b2435f9-027c-4264-9a29-00d49c500763"},"vehicle_type_id":"4","last_reported":1708275927,"current_range_meters":24000,"station_id":"ce4bguh2rcd13ifvqckg","pricing_plan_id":"cebpf4jnsgd1na2vs0mg"},{"bike_id":"5bb8e613-fa6a-4b91-bb6b-fd6722e5b8be","system_id":"levelo_inurba_marseille","lat":43.305714,"lon":5.365633,"is_reserved":false,"is_disabled":false,"rental_uris":{"android":"levelo://app?vid=5bb8e613-fa6a-4b91-bb6b-fd6722e5b8be","ios":"levelo://app?vid=5bb8e613-fa6a-4b91-bb6b-fd6722e5b8be"},"vehicle_type_id":"4","last_reported":1708275927,"current_range_meters":0,"station_id":"ce4bgs12rcd13ifvqcag","pricing_plan_id":"cebpf4jnsgd1na2vs0mg"},{"bike_id":"6167846e-1706-4b58-885e-489439cc147d","system_id":"levelo_inurba_marseille","lat":43.305368,"lon":5.367343,"is_reserved":false,"is_disabled":false,"rental_uris":{"android":"levelo://app?vid=6167846e-1706-4b58-885e-489439cc147d","ios":"levelo://app?vid=6167846e-1706-4b58-885e-489439cc147d"},"vehicle_type_id":"4","last_reported":1708275927,"current_range_meters":3200,"station_id":"ce4bgrp2rcd13ifvqc9g","pricing_plan_id":"cebpf4jnsgd1na2vs0mg"},{"bike_id":"cfc96d87-91ed-4aa0-960b-d12538ebb00c","system_id":"levelo_inurba_marseille","lat":43.305368,"lon":5.367343,"is_reserved":false,"is_disabled":false,"rental_uris":{"android":"levelo://app?vid=cfc96d87-91ed-4aa0-960b-d12538ebb00c","ios":"levelo://app?vid=cfc96d87-91ed-4aa0-960b-d12538ebb00c"},"vehicle_type_id":"4","last_reported":1708275927,"current_range_meters":3600,"station_id":"ce4bgrp2rcd13ifvqc9g","pricing_plan_id":"cebpf4jnsgd1na2vs0mg"},{"bike_id":"d4955da3-42ce-4601-be8c-2ec4559e12d8","system_id":"levelo_inurba_marseille","lat":43.305706,"lon":5.365654,"is_reserved":false,"is_disabled":false,"rental_uris":{"android":"levelo://app?vid=d4955da3-42ce-4601-be8c-2ec4559e12d8","ios":"levelo://app?vid=d4955da3-42ce-4601-be8c-2ec4559e12d8"},"vehicle_type_id":"4","last_reported":1708275927,"current_range_meters":23600,"station_id":"ce4bgs12rcd13ifvqcag","pricing_plan_id":"cebpf4jnsgd1na2vs0mg"},{"bike_id":"4ca86fc6-5268-4e61-885d-8a9ea3de2f7e","system_id":"levelo_inurba_marseille","lat":43.305989,"lon":5.37225,"is_reserved":false,"is_disabled":false,"rental_uris":{"android":"levelo://app?vid=4ca86fc6-5268-4e61-885d-8a9ea3de2f7e","ios":"levelo://app?vid=4ca86fc6-5268-4e61-885d-8a9ea3de2f7e"},"vehicle_type_id":"4","last_reported":1708275927,"current_range_meters":18000,"station_id":"ce4bgqh2rcd13ifvqc4g","pricing_plan_id":"cebpf4jnsgd1na2vs0mg"},{"bike_id":"911caa48-856a-4232-acf3-f6070c836620","system_id":"levelo_inurba_marseille","lat":43.305989,"lon":5.37225,"is_reserved":false,"is_disabled":false,"rental_uris":{"android":"levelo://app?vid=911caa48-856a-4232-acf3-f6070c836620","ios":"levelo://app?vid=911caa48-856a-4232-acf3-f6070c836620"},"vehicle_type_id":"4","last_reported":1708275927,"current_range_meters":29200,"station_id":"ce4bgqh2rcd13ifvqc4g","pricing_plan_id":"cebpf4jnsgd1na2vs0mg"},{"bike_id":"b051a4dc-f6b4-42b8-baf8-5709f2bc92f5","system_id":"levelo_inurba_marseille","lat":43.305989,"lon":5.37225,"is_reserved":false,"is_disabled":false,"rental_uris":{"android":"levelo://app?vid=b051a4dc-f6b4-42b8-baf8-5709f2bc92f5","ios":"levelo://app?vid=b051a4dc-f6b4-42b8-baf8-5709f2bc92f5"},"vehicle_type_id":"4","last_reported":1708275927,"current_range_meters":21200,"station_id":"ce4bgqh2rcd13ifvqc4g","pricing_plan_id":"cebpf4jnsgd1na2vs0mg"},{"bike_id":"281a63d0-3eae-4e3f-94bf-024d8cbf063c","system_id":"levelo_inurba_marseille","lat":43.311125,"lon":5.377624,"is_reserved":false,"is_disabled":false,"rental_uris":{"android":"levelo://app?vid=281a63d0-3eae-4e3f-94bf-024d8cbf063c","ios":"levelo://app?vid=281a63d0-3eae-4e3f-94bf-024d8cbf063c"},"vehicle_type_id":"4","last_reported":1708275927,"current_range_meters":15600,"station_id":"ce4bgt92rcd13ifvqcg0","pricing_plan_id":"cebpf4jnsgd1na2vs0mg"},{"bike_id":"d631fea2-840d-4df6-946a-a1d835c50c88","system_id":"levelo_inurba_marseille","lat":43.31647,"lon":5.37678,"is_reserved":false,"is_disabled":false,"rental_uris":{"android":"levelo://app?vid=d631fea2-840d-4df6-946a-a1d835c50c88","ios":"levelo://app?vid=d631fea2-840d-4df6-946a-a1d835c50c88"},"vehicle_type_id":"4","last_reported":1708275927,"current_range_meters":2400,"station_id":"","pricing_plan_id":"cebpf4jnsgd1na2vs0mg"},{"bike_id":"f859dc8a-8daa-4d89-a097-0dc870b2e915","system_id":"levelo_inurba_marseille","lat":43.3079,"lon":5.37642,"is_reserved":false,"is_disabled":false,"rental_uris":{"android":"levelo://app?vid=f859dc8a-8daa-4d89-a097-0dc870b2e915","ios":"levelo://app?vid=f859dc8a-8daa-4d89-a097-0dc870b2e915"},"vehicle_type_id":"4","last_reported":1708275927,"current_range_meters":25200,"station_id":"ce4bgv92rcd13ifvqcq0","pricing_plan_id":"cebpf4jnsgd1na2vs0mg"},{"bike_id":"e93332c8-71cb-4a70-a2cb-8dae89f30527","system_id":"levelo_inurba_marseille","lat":43.317075,"lon":5.377367,"is_reserved":false,"is_disabled":false,"rental_uris":{"android":"levelo://app?vid=e93332c8-71cb-4a70-a2cb-8dae89f30527","ios":"levelo://app?vid=e93332c8-71cb-4a70-a2cb-8dae89f30527"},"vehicle_type_id":"4","last_reported":1708275927,"current_range_meters":27200,"station_id":"ce4bgth2rcd13ifvqch0","pricing_plan_id":"cebpf4jnsgd1na2vs0mg"},{"bike_id":"df5bf416-a9f9-4be7-8c25-237c40cc2bb2","system_id":"levelo_inurba_marseille","lat":43.30394,"lon":5.36698,"is_reserved":false,"is_disabled":false,"rental_uris":{"android":"levelo://app?vid=df5bf416-a9f9-4be7-8c25-237c40cc2bb2","ios":"levelo://app?vid=df5bf416-a9f9-4be7-8c25-237c40cc2bb2"},"vehicle_type_id":"4","last_reported":1708275927,"current_range_meters":9600,"station_id":"","pricing_plan_id":"cebpf4jnsgd1na2vs0mg"},{"bike_id":"e32017e6-fcab-4f95-aac7-5920f428e2e7","system_id":"levelo_inurba_marseille","lat":43.30314,"lon":5.36908,"is_reserved":false,"is_disabled":false,"rental_uris":{"android":"levelo://app?vid=e32017e6-fcab-4f95-aac7-5920f428e2e7","ios":"levelo://app?vid=e32017e6-fcab-4f95-aac7-5920f428e2e7"},"vehicle_type_id":"4","last_reported":1708275927,"current_range_meters":31200,"station_id":"ce4bgqh2rcd13ifvqc5g","pricing_plan_id":"cebpf4jnsgd1na2vs0mg"},{"bike_id":"ad3cf2a5-3f64-4a2a-96fe-fab739bc86e2","system_id":"levelo_inurba_marseille","lat":43.301939,"lon":5.366286,"is_reserved":false,"is_disabled":false,"rental_uris":{"android":"levelo://app?vid=ad3cf2a5-3f64-4a2a-96fe-fab739bc86e2","ios":"levelo://app?vid=ad3cf2a5-3f64-4a2a-96fe-fab739bc86e2"},"vehicle_type_id":"4","last_reported":1708275927,"current_range_meters":14400,"station_id":"ce4bgrh2rcd13ifvqc8g","pricing_plan_id":"cebpf4jnsgd1na2vs0mg"},{"bike_id":"5ee10f9e-5760-46f1-9fe9-cb9e96f2d315","system_id":"levelo_inurba_marseille","lat":43.301939,"lon":5.366286,"is_reserved":false,"is_disabled":false,"rental_uris":{"android":"levelo://app?vid=5ee10f9e-5760-46f1-9fe9-cb9e96f2d315","ios":"levelo://app?vid=5ee10f9e-5760-46f1-9fe9-cb9e96f2d315"},"vehicle_type_id":"4","last_reported":1708275927,"current_range_meters":16800,"station_id":"ce4bgrh2rcd13ifvqc8g","pricing_plan_id":"cebpf4jnsgd1na2vs0mg"},{"bike_id":"682b6ba0-3c30-4e55-968f-d154ec68cd76","system_id":"levelo_inurba_marseille","lat":43.301939,"lon":5.366286,"is_reserved":false,"is_disabled":false,"rental_uris":{"android":"levelo://app?vid=682b6ba0-3c30-4e55-968f-d154ec68cd76","ios":"levelo://app?vid=682b6ba0-3c30-4e55-968f-d154ec68cd76"},"vehicle_type_id":"4","last_reported":1708275927,"current_range_meters":5600,"station_id":"ce4bgrh2rcd13ifvqc8g","pricing_plan_id":"cebpf4jnsgd1na2vs0mg"},{"bike_id":"c6eeca5b-1675-437e-848a-73179cdfc1da","system_id":"levelo_inurba_marseille","lat":43.30145,"lon":5.36998,"is_reserved":false,"is_disabled":false,"rental_uris":{"android":"levelo://app?vid=c6eeca5b-1675-437e-848a-73179cdfc1da","ios":"levelo://app?vid=c6eeca5b-1675-437e-848a-73179cdfc1da"},"vehicle_type_id":"4","last_reported":1708275927,"current_range_meters":19600,"station_id":"","pricing_plan_id":"cebpf4jnsgd1na2vs0mg"},{"bike_id":"8950e754-8b6b-4556-9fc8-6a36bd61d137","system_id":"levelo_inurba_marseille","lat":43.30808,"lon":5.38151,"is_reserved":false,"is_disabled":false,"rental_uris":{"android":"levelo://app?vid=8950e754-8b6b-4556-9fc8-6a36bd61d137","ios":"levelo://app?vid=8950e754-8b6b-4556-9fc8-6a36bd61d137"},"vehicle_type_id":"4","last_reported":1708275927,"current_range_meters":1600,"station_id":"ce4bgt12rcd13ifvqce0","pricing_plan_id":"cebpf4jnsgd1na2vs0mg"},{"bike_id":"661c9029-34fc-4f70-aec3-2fff6ba15de6","system_id":"levelo_inurba_marseille","lat":43.308012,"lon":5.381511,"is_reserved":false,"is_disabled":false,"rental_uris":{"android":"levelo://app?vid=661c9029-34fc-4f70-aec3-2fff6ba15de6","ios":"levelo://app?vid=661c9029-34fc-4f70-aec3-2fff6ba15de6"},"vehicle_type_id":"4","last_reported":1708275927,"current_range_meters":17200,"station_id":"ce4bgt12rcd13ifvqce0","pricing_plan_id":"cebpf4jnsgd1na2vs0mg"},{"bike_id":"9d3d390f-4dd3-40ae-b01f-af154fa5e5cf","system_id":"levelo_inurba_marseille","lat":43.304606,"lon":5.379026,"is_reserved":false,"is_disabled":false,"rental_uris":{"android":"levelo://app?vid=9d3d390f-4dd3-40ae-b01f-af154fa5e5cf","ios":"levelo://app?vid=9d3d390f-4dd3-40ae-b01f-af154fa5e5cf"},"vehicle_type_id":"4","last_reported":1708275927,"current_range_meters":9200,"station_id":"ce4bgup2rcd13ifvqcn0","pricing_plan_id":"cebpf4jnsgd1na2vs0mg"},{"bike_id":"7c66a11a-bea8-4a2a-98be-7794b214389b","system_id":"levelo_inurba_marseille","lat":43.324771,"lon":5.36557,"is_reserved":false,"is_disabled":false,"rental_uris":{"android":"levelo://app?vid=7c66a11a-bea8-4a2a-98be-7794b214389b","ios":"levelo://app?vid=7c66a11a-bea8-4a2a-98be-7794b214389b"},"vehicle_type_id":"4","last_reported":1708275927,"current_range_meters":8000,"station_id":"ce4bhs12rcd13ifvqhvg","pricing_plan_id":"cebpf4jnsgd1na2vs0mg"},{"bike_id":"63bc16d4-b7f9-4b45-a0c3-b9a2c2b94897","system_id":"levelo_inurba_marseille","lat":43.324771,"lon":5.36557,"is_reserved":false,"is_disabled":false,"rental_uris":{"android":"levelo://app?vid=63bc16d4-b7f9-4b45-a0c3-b9a2c2b94897","ios":"levelo://app?vid=63bc16d4-b7f9-4b45-a0c3-b9a2c2b94897"},"vehicle_type_id":"4","last_reported":1708275927,"current_range_meters":21600,"station_id":"ce4bhs12rcd13ifvqhvg","pricing_plan_id":"cebpf4jnsgd1na2vs0mg"},{"bike_id":"4947c796-ceb0-4a1c-ad5c-1d2fc61a8eef","system_id":"levelo_inurba_marseille","lat":43.324771,"lon":5.36557,"is_reserved":false,"is_disabled":false,"rental_uris":{"android":"levelo://app?vid=4947c796-ceb0-4a1c-ad5c-1d2fc61a8eef","ios":"levelo://app?vid=4947c796-ceb0-4a1c-ad5c-1d2fc61a8eef"},"vehicle_type_id":"4","last_reported":1708275927,"current_range_meters":2000,"station_id":"ce4bhs12rcd13ifvqhvg","pricing_plan_id":"cebpf4jnsgd1na2vs0mg"},{"bike_id":"730cb85b-e026-4d4f-b0ad-0d39bcf211a8","system_id":"levelo_inurba_marseille","lat":43.31066,"lon":5.383463,"is_reserved":false,"is_disabled":false,"rental_uris":{"android":"levelo://app?vid=730cb85b-e026-4d4f-b0ad-0d39bcf211a8","ios":"levelo://app?vid=730cb85b-e026-4d4f-b0ad-0d39bcf211a8"},"vehicle_type_id":"4","last_reported":1708275927,"current_range_meters":12400,"station_id":"","pricing_plan_id":"cebpf4jnsgd1na2vs0mg"},{"bike_id":"8a0be6e3-c512-4c9d-b13b-939e4f85d02a","system_id":"levelo_inurba_marseille","lat":43.310804,"lon":5.38359,"is_reserved":false,"is_disabled":false,"rental_uris":{"android":"levelo://app?vid=8a0be6e3-c512-4c9d-b13b-939e4f85d02a","ios":"levelo://app?vid=8a0be6e3-c512-4c9d-b13b-939e4f85d02a"},"vehicle_type_id":"4","last_reported":1708275927,"current_range_meters":0,"station_id":"ce4bgv92rcd13ifvqcr0","pricing_plan_id":"cebpf4jnsgd1na2vs0mg"},{"bike_id":"52c7d0c2-438e-4f7d-9db4-ea70d4682f97","system_id":"levelo_inurba_marseille","lat":43.324771,"lon":5.36557,"is_reserved":false,"is_disabled":false,"rental_uris":{"android":"levelo://app?vid=52c7d0c2-438e-4f7d-9db4-ea70d4682f97","ios":"levelo://app?vid=52c7d0c2-438e-4f7d-9db4-ea70d4682f97"},"vehicle_type_id":"4","last_reported":1708275927,"current_range_meters":6800,"station_id":"ce4bhs12rcd13ifvqhvg","pricing_plan_id":"cebpf4jnsgd1na2vs0mg"},{"bike_id":"e64f5b1f-91bb-4859-9b71-2f24bd7e4983","system_id":"levelo_inurba_marseille","lat":43.310804,"lon":5.38359,"is_reserved":false,"is_disabled":false,"rental_uris":{"android":"levelo://app?vid=e64f5b1f-91bb-4859-9b71-2f24bd7e4983","ios":"levelo://app?vid=e64f5b1f-91bb-4859-9b71-2f24bd7e4983"},"vehicle_type_id":"4","last_reported":1708275927,"current_range_meters":400,"station_id":"ce4bgv92rcd13ifvqcr0","pricing_plan_id":"cebpf4jnsgd1na2vs0mg"},{"bike_id":"ef3c96d2-00fb-463f-82ea-7574a25412c1","system_id":"levelo_inurba_marseille","lat":43.301429,"lon":5.37413,"is_reserved":false,"is_disabled":false,"rental_uris":{"android":"levelo://app?vid=ef3c96d2-00fb-463f-82ea-7574a25412c1","ios":"levelo://app?vid=ef3c96d2-00fb-463f-82ea-7574a25412c1"},"vehicle_type_id":"4","last_reported":1708275927,"current_range_meters":18400,"station_id":"ce4bgs92rcd13ifvqcc0","pricing_plan_id":"cebpf4jnsgd1na2vs0mg"},{"bike_id":"2961e93e-d0d3-44db-9cd3-01acedcfaedb","system_id":"levelo_inurba_marseille","lat":43.310804,"lon":5.38359,"is_reserved":false,"is_disabled":false,"rental_uris":{"android":"levelo://app?vid=2961e93e-d0d3-44db-9cd3-01acedcfaedb","ios":"levelo://app?vid=2961e93e-d0d3-44db-9cd3-01acedcfaedb"},"vehicle_type_id":"4","last_reported":1708275927,"current_range_meters":23200,"station_id":"ce4bgv92rcd13ifvqcr0","pricing_plan_id":"cebpf4jnsgd1na2vs0mg"},{"bike_id":"0196681f-363b-49ff-b7b3-79225a187892","system_id":"levelo_inurba_marseille","lat":43.313571,"lon":5.384829,"is_reserved":false,"is_disabled":false,"rental_uris":{"android":"levelo://app?vid=0196681f-363b-49ff-b7b3-79225a187892","ios":"levelo://app?vid=0196681f-363b-49ff-b7b3-79225a187892"},"vehicle_type_id":"4","last_reported":1708275927,"current_range_meters":9200,"station_id":"ce4bgt92rcd13ifvqcf0","pricing_plan_id":"cebpf4jnsgd1na2vs0mg"},{"bike_id":"ce985ac4-1ea6-4db8-bb44-20a72c153fb9","system_id":"levelo_inurba_marseille","lat":43.313571,"lon":5.384829,"is_reserved":false,"is_disabled":false,"rental_uris":{"android":"levelo://app?vid=ce985ac4-1ea6-4db8-bb44-20a72c153fb9","ios":"levelo://app?vid=ce985ac4-1ea6-4db8-bb44-20a72c153fb9"},"vehicle_type_id":"4","last_reported":1708275927,"current_range_meters":7200,"station_id":"ce4bgt92rcd13ifvqcf0","pricing_plan_id":"cebpf4jnsgd1na2vs0mg"},{"bike_id":"7234e1ac-a40e-4dff-92c3-42fd39a6a833","system_id":"levelo_inurba_marseille","lat":43.313571,"lon":5.384829,"is_reserved":false,"is_disabled":false,"rental_uris":{"android":"levelo://app?vid=7234e1ac-a40e-4dff-92c3-42fd39a6a833","ios":"levelo://app?vid=7234e1ac-a40e-4dff-92c3-42fd39a6a833"},"vehicle_type_id":"4","last_reported":1708275927,"current_range_meters":13200,"station_id":"ce4bgt92rcd13ifvqcf0","pricing_plan_id":"cebpf4jnsgd1na2vs0mg"},{"bike_id":"e0de01a9-1f44-4959-9398-706123042c64","system_id":"levelo_inurba_marseille","lat":43.313571,"lon":5.384829,"is_reserved":false,"is_disabled":false,"rental_uris":{"android":"levelo://app?vid=e0de01a9-1f44-4959-9398-706123042c64","ios":"levelo://app?vid=e0de01a9-1f44-4959-9398-706123042c64"},"vehicle_type_id":"4","last_reported":1708275927,"current_range_meters":16400,"station_id":"ce4bgt92rcd13ifvqcf0","pricing_plan_id":"cebpf4jnsgd1na2vs0mg"},{"bike_id":"62d6bdaa-0236-4588-9113-62962fb28b79","system_id":"levelo_inurba_marseille","lat":43.299724,"lon":5.371829,"is_reserved":false,"is_disabled":false,"rental_uris":{"android":"levelo://app?vid=62d6bdaa-0236-4588-9113-62962fb28b79","ios":"levelo://app?vid=62d6bdaa-0236-4588-9113-62962fb28b79"},"vehicle_type_id":"4","last_reported":1708275927,"current_range_meters":0,"station_id":"ce4bgr92rcd13ifvqc7g","pricing_plan_id":"cebpf4jnsgd1na2vs0mg"},{"bike_id":"adc9fbaa-3a7f-488a-a544-30de9732175d","system_id":"levelo_inurba_marseille","lat":43.299724,"lon":5.371829,"is_reserved":false,"is_disabled":false,"rental_uris":{"android":"levelo://app?vid=adc9fbaa-3a7f-488a-a544-30de9732175d","ios":"levelo://app?vid=adc9fbaa-3a7f-488a-a544-30de9732175d"},"vehicle_type_id":"4","last_reported":1708275927,"current_range_meters":13600,"station_id":"ce4bgr92rcd13ifvqc7g","pricing_plan_id":"cebpf4jnsgd1na2vs0mg"},{"bike_id":"ef455d7a-c38a-4608-bd2e-0e5f13d14300","system_id":"levelo_inurba_marseille","lat":43.29964,"lon":5.37163,"is_reserved":false,"is_disabled":false,"rental_uris":{"android":"levelo://app?vid=ef455d7a-c38a-4608-bd2e-0e5f13d14300","ios":"levelo://app?vid=ef455d7a-c38a-4608-bd2e-0e5f13d14300"},"vehicle_type_id":"4","last_reported":1708275927,"current_range_meters":400,"station_id":"ce4bgr92rcd13ifvqc7g","pricing_plan_id":"cebpf4jnsgd1na2vs0mg"},{"bike_id":"4b9fdef8-1992-41c2-b1e5-9a155a3fa05e","system_id":"levelo_inurba_marseille","lat":43.299724,"lon":5.371829,"is_reserved":false,"is_disabled":false,"rental_uris":{"android":"levelo://app?vid=4b9fdef8-1992-41c2-b1e5-9a155a3fa05e","ios":"levelo://app?vid=4b9fdef8-1992-41c2-b1e5-9a155a3fa05e"},"vehicle_type_id":"4","last_reported":1708275927,"current_range_meters":0,"station_id":"ce4bgr92rcd13ifvqc7g","pricing_plan_id":"cebpf4jnsgd1na2vs0mg"},{"bike_id":"c775e795-d84b-4552-b6e6-a67b7e8b6f88","system_id":"levelo_inurba_marseille","lat":43.299243,"lon":5.37481,"is_reserved":false,"is_disabled":false,"rental_uris":{"android":"levelo://app?vid=c775e795-d84b-4552-b6e6-a67b7e8b6f88","ios":"levelo://app?vid=c775e795-d84b-4552-b6e6-a67b7e8b6f88"},"vehicle_type_id":"4","last_reported":1708275927,"current_range_meters":13200,"station_id":"ce4bgjh2rcd13ifvqbg0","pricing_plan_id":"cebpf4jnsgd1na2vs0mg"},{"bike_id":"008009b1-09c5-43a8-b233-fdcb1ba4277a","system_id":"levelo_inurba_marseille","lat":43.299243,"lon":5.37481,"is_reserved":false,"is_disabled":false,"rental_uris":{"android":"levelo://app?vid=008009b1-09c5-43a8-b233-fdcb1ba4277a","ios":"levelo://app?vid=008009b1-09c5-43a8-b233-fdcb1ba4277a"},"vehicle_type_id":"4","last_reported":1708275927,"current_range_meters":6400,"station_id":"ce4bgjh2rcd13ifvqbg0","pricing_plan_id":"cebpf4jnsgd1na2vs0mg"},{"bike_id":"ca77914a-091c-4f3f-a492-cf9c26827f5a","system_id":"levelo_inurba_marseille","lat":43.305364,"lon":5.384119,"is_reserved":false,"is_disabled":false,"rental_uris":{"android":"levelo://app?vid=ca77914a-091c-4f3f-a492-cf9c26827f5a","ios":"levelo://app?vid=ca77914a-091c-4f3f-a492-cf9c26827f5a"},"vehicle_type_id":"4","last_reported":1708275927,"current_range_meters":9600,"station_id":"ce4bgg92rcd13ifvqb30","pricing_plan_id":"cebpf4jnsgd1na2vs0mg"},{"bike_id":"206e7b73-93fd-4548-b13e-26f3a2a959e8","system_id":"levelo_inurba_marseille","lat":43.31168,"lon":5.38717,"is_reserved":false,"is_disabled":false,"rental_uris":{"android":"levelo://app?vid=206e7b73-93fd-4548-b13e-26f3a2a959e8","ios":"levelo://app?vid=206e7b73-93fd-4548-b13e-26f3a2a959e8"},"vehicle_type_id":"4","last_reported":1708275927,"current_range_meters":20000,"station_id":"ce4bgv12rcd13ifvqcp0","pricing_plan_id":"cebpf4jnsgd1na2vs0mg"},{"bike_id":"410a532b-f4d9-44b0-bece-5fd8115e2fc4","system_id":"levelo_inurba_marseille","lat":43.322872,"lon":5.382756,"is_reserved":false,"is_disabled":false,"rental_uris":{"android":"levelo://app?vid=410a532b-f4d9-44b0-bece-5fd8115e2fc4","ios":"levelo://app?vid=410a532b-f4d9-44b0-bece-5fd8115e2fc4"},"vehicle_type_id":"4","last_reported":1708275927,"current_range_meters":20000,"station_id":"ce4bhr12rcd13ifvqhqg","pricing_plan_id":"cebpf4jnsgd1na2vs0mg"},{"bike_id":"c141ce68-b77e-46f1-8770-70ce92b66810","system_id":"levelo_inurba_marseille","lat":43.322872,"lon":5.382756,"is_reserved":false,"is_disabled":false,"rental_uris":{"android":"levelo://app?vid=c141ce68-b77e-46f1-8770-70ce92b66810","ios":"levelo://app?vid=c141ce68-b77e-46f1-8770-70ce92b66810"},"vehicle_type_id":"4","last_reported":1708275927,"current_range_meters":400,"station_id":"ce4bhr12rcd13ifvqhqg","pricing_plan_id":"cebpf4jnsgd1na2vs0mg"},{"bike_id":"9af28949-3abe-4ee4-a57a-c236655c3362","system_id":"levelo_inurba_marseille","lat":43.322872,"lon":5.382756,"is_reserved":false,"is_disabled":false,"rental_uris":{"android":"levelo://app?vid=9af28949-3abe-4ee4-a57a-c236655c3362","ios":"levelo://app?vid=9af28949-3abe-4ee4-a57a-c236655c3362"},"vehicle_type_id":"4","last_reported":1708275927,"current_range_meters":31200,"station_id":"ce4bhr12rcd13ifvqhqg","pricing_plan_id":"cebpf4jnsgd1na2vs0mg"},{"bike_id":"56e39d4e-cf47-4284-9a5f-c7eda237067f","system_id":"levelo_inurba_marseille","lat":43.328218,"lon":5.366871,"is_reserved":false,"is_disabled":false,"rental_uris":{"android":"levelo://app?vid=56e39d4e-cf47-4284-9a5f-c7eda237067f","ios":"levelo://app?vid=56e39d4e-cf47-4284-9a5f-c7eda237067f"},"vehicle_type_id":"4","last_reported":1708275927,"current_range_meters":25600,"station_id":"ce4bhs92rcd13ifvqi0g","pricing_plan_id":"cebpf4jnsgd1na2vs0mg"},{"bike_id":"5195dc94-0b55-41c8-9198-580992dd67c5","system_id":"levelo_inurba_marseille","lat":43.32822,"lon":5.36691,"is_reserved":false,"is_disabled":false,"rental_uris":{"android":"levelo://app?vid=5195dc94-0b55-41c8-9198-580992dd67c5","ios":"levelo://app?vid=5195dc94-0b55-41c8-9198-580992dd67c5"},"vehicle_type_id":"4","last_reported":1708275927,"current_range_meters":16000,"station_id":"ce4bhs92rcd13ifvqi0g","pricing_plan_id":"cebpf4jnsgd1na2vs0mg"},{"bike_id":"af3702dc-bfcf-40f0-8af4-2af3a27a51f2","system_id":"levelo_inurba_marseille","lat":43.32822,"lon":5.36676,"is_reserved":false,"is_disabled":false,"rental_uris":{"android":"levelo://app?vid=af3702dc-bfcf-40f0-8af4-2af3a27a51f2","ios":"levelo://app?vid=af3702dc-bfcf-40f0-8af4-2af3a27a51f2"},"vehicle_type_id":"4","last_reported":1708275927,"current_range_meters":5600,"station_id":"ce4bhs92rcd13ifvqi0g","pricing_plan_id":"cebpf4jnsgd1na2vs0mg"},{"bike_id":"85a36e5b-6015-49e9-8ce2-bd78d546dff8","system_id":"levelo_inurba_marseille","lat":43.32826,"lon":5.36687,"is_reserved":false,"is_disabled":false,"rental_uris":{"android":"levelo://app?vid=85a36e5b-6015-49e9-8ce2-bd78d546dff8","ios":"levelo://app?vid=85a36e5b-6015-49e9-8ce2-bd78d546dff8"},"vehicle_type_id":"4","last_reported":1708275927,"current_range_meters":27200,"station_id":"ce4bhs92rcd13ifvqi0g","pricing_plan_id":"cebpf4jnsgd1na2vs0mg"},{"bike_id":"ee7dd371-368a-440e-b6db-3978fbf82094","system_id":"levelo_inurba_marseille","lat":43.328371,"lon":5.366909,"is_reserved":false,"is_disabled":false,"rental_uris":{"android":"levelo://app?vid=ee7dd371-368a-440e-b6db-3978fbf82094","ios":"levelo://app?vid=ee7dd371-368a-440e-b6db-3978fbf82094"},"vehicle_type_id":"4","last_reported":1708275927,"current_range_meters":800,"station_id":"ce4bhs92rcd13ifvqi0g","pricing_plan_id":"cebpf4jnsgd1na2vs0mg"},{"bike_id":"45a7a14e-9b1e-4a1b-ad54-93a32f013a67","system_id":"levelo_inurba_marseille","lat":43.32826,"lon":5.36675,"is_reserved":false,"is_disabled":false,"rental_uris":{"android":"levelo://app?vid=45a7a14e-9b1e-4a1b-ad54-93a32f013a67","ios":"levelo://app?vid=45a7a14e-9b1e-4a1b-ad54-93a32f013a67"},"vehicle_type_id":"4","last_reported":1708275927,"current_range_meters":7200,"station_id":"ce4bhs92rcd13ifvqi0g","pricing_plan_id":"cebpf4jnsgd1na2vs0mg"},{"bike_id":"45fe6c6c-2569-4aee-9c18-3f3586004f23","system_id":"levelo_inurba_marseille","lat":43.328261,"lon":5.36678,"is_reserved":false,"is_disabled":false,"rental_uris":{"android":"levelo://app?vid=45fe6c6c-2569-4aee-9c18-3f3586004f23","ios":"levelo://app?vid=45fe6c6c-2569-4aee-9c18-3f3586004f23"},"vehicle_type_id":"4","last_reported":1708275927,"current_range_meters":18400,"station_id":"ce4bhs92rcd13ifvqi0g","pricing_plan_id":"cebpf4jnsgd1na2vs0mg"},{"bike_id":"55f2d4b0-8802-4bd2-8697-0f012dcc25c1","system_id":"levelo_inurba_marseille","lat":43.32827,"lon":5.3669,"is_reserved":false,"is_disabled":false,"rental_uris":{"android":"levelo://app?vid=55f2d4b0-8802-4bd2-8697-0f012dcc25c1","ios":"levelo://app?vid=55f2d4b0-8802-4bd2-8697-0f012dcc25c1"},"vehicle_type_id":"4","last_reported":1708275927,"current_range_meters":30000,"station_id":"ce4bhs92rcd13ifvqi0g","pricing_plan_id":"cebpf4jnsgd1na2vs0mg"},{"bike_id":"c63f5776-29a6-4124-856b-96d9c7ed370b","system_id":"levelo_inurba_marseille","lat":43.328371,"lon":5.366909,"is_reserved":false,"is_disabled":false,"rental_uris":{"android":"levelo://app?vid=c63f5776-29a6-4124-856b-96d9c7ed370b","ios":"levelo://app?vid=c63f5776-29a6-4124-856b-96d9c7ed370b"},"vehicle_type_id":"4","last_reported":1708275927,"current_range_meters":20800,"station_id":"ce4bhs92rcd13ifvqi0g","pricing_plan_id":"cebpf4jnsgd1na2vs0mg"},{"bike_id":"2459963a-9a41-477a-9f46-310730d184fe","system_id":"levelo_inurba_marseille","lat":43.32827,"lon":5.36677,"is_reserved":false,"is_disabled":false,"rental_uris":{"android":"levelo://app?vid=2459963a-9a41-477a-9f46-310730d184fe","ios":"levelo://app?vid=2459963a-9a41-477a-9f46-310730d184fe"},"vehicle_type_id":"4","last_reported":1708275927,"current_range_meters":13200,"station_id":"ce4bhs92rcd13ifvqi0g","pricing_plan_id":"cebpf4jnsgd1na2vs0mg"},{"bike_id":"cf46b51b-8d1b-4837-abcf-a321ebbf97b3","system_id":"levelo_inurba_marseille","lat":43.32828,"lon":5.36681,"is_reserved":false,"is_disabled":false,"rental_uris":{"android":"levelo://app?vid=cf46b51b-8d1b-4837-abcf-a321ebbf97b3","ios":"levelo://app?vid=cf46b51b-8d1b-4837-abcf-a321ebbf97b3"},"vehicle_type_id":"4","last_reported":1708275927,"current_range_meters":800,"station_id":"","pricing_plan_id":"cebpf4jnsgd1na2vs0mg"},{"bike_id":"0c35a0a7-ef87-411a-89ed-fbe37a1a4729","system_id":"levelo_inurba_marseille","lat":43.32829,"lon":5.36691,"is_reserved":false,"is_disabled":false,"rental_uris":{"android":"levelo://app?vid=0c35a0a7-ef87-411a-89ed-fbe37a1a4729","ios":"levelo://app?vid=0c35a0a7-ef87-411a-89ed-fbe37a1a4729"},"vehicle_type_id":"4","last_reported":1708275927,"current_range_meters":22800,"station_id":"ce4bhs92rcd13ifvqi0g","pricing_plan_id":"cebpf4jnsgd1na2vs0mg"},{"bike_id":"9d581643-e2ff-41be-a0c9-d3c7b5936636","system_id":"levelo_inurba_marseille","lat":43.29719,"lon":5.36631,"is_reserved":false,"is_disabled":false,"rental_uris":{"android":"levelo://app?vid=9d581643-e2ff-41be-a0c9-d3c7b5936636","ios":"levelo://app?vid=9d581643-e2ff-41be-a0c9-d3c7b5936636"},"vehicle_type_id":"4","last_reported":1708275927,"current_range_meters":1200,"station_id":"ce4bgop2rcd13ifvqc1g","pricing_plan_id":"cebpf4jnsgd1na2vs0mg"},{"bike_id":"c9ca704a-95d9-467c-ad5a-5403d53c76ed","system_id":"levelo_inurba_marseille","lat":43.3283,"lon":5.36672,"is_reserved":false,"is_disabled":false,"rental_uris":{"android":"levelo://app?vid=c9ca704a-95d9-467c-ad5a-5403d53c76ed","ios":"levelo://app?vid=c9ca704a-95d9-467c-ad5a-5403d53c76ed"},"vehicle_type_id":"4","last_reported":1708275927,"current_range_meters":2800,"station_id":"ce4bhs92rcd13ifvqi0g","pricing_plan_id":"cebpf4jnsgd1na2vs0mg"},{"bike_id":"d125619a-6ae6-4def-8c67-f1352fae5a27","system_id":"levelo_inurba_marseille","lat":43.32831,"lon":5.36685,"is_reserved":false,"is_disabled":false,"rental_uris":{"android":"levelo://app?vid=d125619a-6ae6-4def-8c67-f1352fae5a27","ios":"levelo://app?vid=d125619a-6ae6-4def-8c67-f1352fae5a27"},"vehicle_type_id":"4","last_reported":1708275927,"current_range_meters":14000,"station_id":"ce4bhs92rcd13ifvqi0g","pricing_plan_id":"cebpf4jnsgd1na2vs0mg"},{"bike_id":"798e1c77-cdb6-49fb-b2e4-2a646e449b0a","system_id":"levelo_inurba_marseille","lat":43.32831,"lon":5.36682,"is_reserved":false,"is_disabled":false,"rental_uris":{"android":"levelo://app?vid=798e1c77-cdb6-49fb-b2e4-2a646e449b0a","ios":"levelo://app?vid=798e1c77-cdb6-49fb-b2e4-2a646e449b0a"},"vehicle_type_id":"4","last_reported":1708275927,"current_range_meters":1200,"station_id":"ce4bhs92rcd13ifvqi0g","pricing_plan_id":"cebpf4jnsgd1na2vs0mg"},{"bike_id":"3ce3bf05-0e26-4ba4-9a11-4781ff3d0eb6","system_id":"levelo_inurba_marseille","lat":43.32831,"lon":5.36679,"is_reserved":false,"is_disabled":false,"rental_uris":{"android":"levelo://app?vid=3ce3bf05-0e26-4ba4-9a11-4781ff3d0eb6","ios":"levelo://app?vid=3ce3bf05-0e26-4ba4-9a11-4781ff3d0eb6"},"vehicle_type_id":"4","last_reported":1708275927,"current_range_meters":0,"station_id":"ce4bhs92rcd13ifvqi0g","pricing_plan_id":"cebpf4jnsgd1na2vs0mg"},{"bike_id":"fcbb72e3-aeee-4031-b1db-dc05c41736e9","system_id":"levelo_inurba_marseille","lat":43.32831,"lon":5.36671,"is_reserved":false,"is_disabled":false,"rental_uris":{"android":"levelo://app?vid=fcbb72e3-aeee-4031-b1db-dc05c41736e9","ios":"levelo://app?vid=fcbb72e3-aeee-4031-b1db-dc05c41736e9"},"vehicle_type_id":"4","last_reported":1708275927,"current_range_meters":9600,"station_id":"ce4bhs92rcd13ifvqi0g","pricing_plan_id":"cebpf4jnsgd1na2vs0mg"},{"bike_id":"34fc8288-d0e5-48b2-a9cc-73a49eaa90e8","system_id":"levelo_inurba_marseille","lat":43.29716,"lon":5.36625,"is_reserved":false,"is_disabled":false,"rental_uris":{"android":"levelo://app?vid=34fc8288-d0e5-48b2-a9cc-73a49eaa90e8","ios":"levelo://app?vid=34fc8288-d0e5-48b2-a9cc-73a49eaa90e8"},"vehicle_type_id":"4","last_reported":1708275927,"current_range_meters":8800,"station_id":"ce4bgn12rcd13ifvqbt0","pricing_plan_id":"cebpf4jnsgd1na2vs0mg"},{"bike_id":"8357adb4-6d1c-4f9d-91b2-bdac5a6f5eba","system_id":"levelo_inurba_marseille","lat":43.297163,"lon":5.365866,"is_reserved":false,"is_disabled":false,"rental_uris":{"android":"levelo://app?vid=8357adb4-6d1c-4f9d-91b2-bdac5a6f5eba","ios":"levelo://app?vid=8357adb4-6d1c-4f9d-91b2-bdac5a6f5eba"},"vehicle_type_id":"4","last_reported":1708275927,"current_range_meters":8000,"station_id":"ce4bgn12rcd13ifvqbt0","pricing_plan_id":"cebpf4jnsgd1na2vs0mg"},{"bike_id":"8a61b4fb-f943-4dc8-aa87-a200fa42cd44","system_id":"levelo_inurba_marseille","lat":43.29707,"lon":5.36613,"is_reserved":false,"is_disabled":false,"rental_uris":{"android":"levelo://app?vid=8a61b4fb-f943-4dc8-aa87-a200fa42cd44","ios":"levelo://app?vid=8a61b4fb-f943-4dc8-aa87-a200fa42cd44"},"vehicle_type_id":"4","last_reported":1708275927,"current_range_meters":14000,"station_id":"ce4bgn12rcd13ifvqbt0","pricing_plan_id":"cebpf4jnsgd1na2vs0mg"},{"bike_id":"7123b128-45d4-4657-a621-f31c43a0d58a","system_id":"levelo_inurba_marseille","lat":43.296984,"lon":5.366073,"is_reserved":false,"is_disabled":false,"rental_uris":{"android":"levelo://app?vid=7123b128-45d4-4657-a621-f31c43a0d58a","ios":"levelo://app?vid=7123b128-45d4-4657-a621-f31c43a0d58a"},"vehicle_type_id":"4","last_reported":1708275927,"current_range_meters":23600,"station_id":"","pricing_plan_id":"cebpf4jnsgd1na2vs0mg"},{"bike_id":"fc73ceb6-7722-4fe1-92a3-e1cd90f65005","system_id":"levelo_inurba_marseille","lat":43.2963,"lon":5.36791,"is_reserved":false,"is_disabled":false,"rental_uris":{"android":"levelo://app?vid=fc73ceb6-7722-4fe1-92a3-e1cd90f65005","ios":"levelo://app?vid=fc73ceb6-7722-4fe1-92a3-e1cd90f65005"},"vehicle_type_id":"4","last_reported":1708275927,"current_range_meters":24000,"station_id":"","pricing_plan_id":"cebpf4jnsgd1na2vs0mg"},{"bike_id":"74fa110e-adfb-43c9-848a-197041f2eecb","system_id":"levelo_inurba_marseille","lat":43.2964,"lon":5.37146,"is_reserved":false,"is_disabled":false,"rental_uris":{"android":"levelo://app?vid=74fa110e-adfb-43c9-848a-197041f2eecb","ios":"levelo://app?vid=74fa110e-adfb-43c9-848a-197041f2eecb"},"vehicle_type_id":"4","last_reported":1708275927,"current_range_meters":1600,"station_id":"","pricing_plan_id":"cebpf4jnsgd1na2vs0mg"},{"bike_id":"f7676988-60a8-49be-b432-4e4cc44ed745","system_id":"levelo_inurba_marseille","lat":43.296243,"lon":5.371551,"is_reserved":false,"is_disabled":false,"rental_uris":{"android":"levelo://app?vid=f7676988-60a8-49be-b432-4e4cc44ed745","ios":"levelo://app?vid=f7676988-60a8-49be-b432-4e4cc44ed745"},"vehicle_type_id":"4","last_reported":1708275927,"current_range_meters":5600,"station_id":"ce4bgnh2rcd13ifvqc0g","pricing_plan_id":"cebpf4jnsgd1na2vs0mg"},{"bike_id":"86d4e2e5-f013-4df5-9958-823360520d25","system_id":"levelo_inurba_marseille","lat":43.29573,"lon":5.367355,"is_reserved":false,"is_disabled":false,"rental_uris":{"android":"levelo://app?vid=86d4e2e5-f013-4df5-9958-823360520d25","ios":"levelo://app?vid=86d4e2e5-f013-4df5-9958-823360520d25"},"vehicle_type_id":"4","last_reported":1708275927,"current_range_meters":16800,"station_id":"ce4bgph2rcd13ifvqc2g","pricing_plan_id":"cebpf4jnsgd1na2vs0mg"},{"bike_id":"ba772cd1-44d6-4daf-8cdf-4037c21d066b","system_id":"levelo_inurba_marseille","lat":43.29573,"lon":5.367355,"is_reserved":false,"is_disabled":false,"rental_uris":{"android":"levelo://app?vid=ba772cd1-44d6-4daf-8cdf-4037c21d066b","ios":"levelo://app?vid=ba772cd1-44d6-4daf-8cdf-4037c21d066b"},"vehicle_type_id":"4","last_reported":1708275927,"current_range_meters":25600,"station_id":"ce4bgph2rcd13ifvqc2g","pricing_plan_id":"cebpf4jnsgd1na2vs0mg"},{"bike_id":"e2953d31-3ec5-4587-9a10-3407ba5c6888","system_id":"levelo_inurba_marseille","lat":43.309589,"lon":5.390258,"is_reserved":false,"is_disabled":false,"rental_uris":{"android":"levelo://app?vid=e2953d31-3ec5-4587-9a10-3407ba5c6888","ios":"levelo://app?vid=e2953d31-3ec5-4587-9a10-3407ba5c6888"},"vehicle_type_id":"4","last_reported":1708275927,"current_range_meters":19200,"station_id":"ce4bgup2rcd13ifvqco0","pricing_plan_id":"cebpf4jnsgd1na2vs0mg"},{"bike_id":"5c5ae590-5c18-4684-824c-73340111f3dc","system_id":"levelo_inurba_marseille","lat":43.299028,"lon":5.381509,"is_reserved":false,"is_disabled":false,"rental_uris":{"android":"levelo://app?vid=5c5ae590-5c18-4684-824c-73340111f3dc","ios":"levelo://app?vid=5c5ae590-5c18-4684-824c-73340111f3dc"},"vehicle_type_id":"4","last_reported":1708275927,"current_range_meters":31200,"station_id":"ce4bgj12rcd13ifvqbc0","pricing_plan_id":"cebpf4jnsgd1na2vs0mg"},{"bike_id":"c35e5277-b202-4110-b491-f1e7ebcea1e4","system_id":"levelo_inurba_marseille","lat":43.31756,"lon":5.38998,"is_reserved":false,"is_disabled":false,"rental_uris":{"android":"levelo://app?vid=c35e5277-b202-4110-b491-f1e7ebcea1e4","ios":"levelo://app?vid=c35e5277-b202-4110-b491-f1e7ebcea1e4"},"vehicle_type_id":"4","last_reported":1708275927,"current_range_meters":5200,"station_id":"ce4bhqp2rcd13ifvqhng","pricing_plan_id":"cebpf4jnsgd1na2vs0mg"},{"bike_id":"7d56fc82-31de-4bfd-a344-8c5cafa592f4","system_id":"levelo_inurba_marseille","lat":43.31762,"lon":5.39017,"is_reserved":false,"is_disabled":false,"rental_uris":{"android":"levelo://app?vid=7d56fc82-31de-4bfd-a344-8c5cafa592f4","ios":"levelo://app?vid=7d56fc82-31de-4bfd-a344-8c5cafa592f4"},"vehicle_type_id":"4","last_reported":1708275927,"current_range_meters":30000,"station_id":"ce4bhqp2rcd13ifvqhng","pricing_plan_id":"cebpf4jnsgd1na2vs0mg"},{"bike_id":"943320c6-f54d-4901-b0c2-a97c6e257270","system_id":"levelo_inurba_marseille","lat":43.298037,"lon":5.381066,"is_reserved":false,"is_disabled":false,"rental_uris":{"android":"levelo://app?vid=943320c6-f54d-4901-b0c2-a97c6e257270","ios":"levelo://app?vid=943320c6-f54d-4901-b0c2-a97c6e257270"},"vehicle_type_id":"4","last_reported":1708275927,"current_range_meters":5200,"station_id":"ce4bgip2rcd13ifvqbb0","pricing_plan_id":"cebpf4jnsgd1na2vs0mg"},{"bike_id":"cc4b6679-30b0-4bc7-ba9b-18c5c5c93104","system_id":"levelo_inurba_marseille","lat":43.29803,"lon":5.380856,"is_reserved":false,"is_disabled":false,"rental_uris":{"android":"levelo://app?vid=cc4b6679-30b0-4bc7-ba9b-18c5c5c93104","ios":"levelo://app?vid=cc4b6679-30b0-4bc7-ba9b-18c5c5c93104"},"vehicle_type_id":"4","last_reported":1708275927,"current_range_meters":27600,"station_id":"ce4bgip2rcd13ifvqbb0","pricing_plan_id":"cebpf4jnsgd1na2vs0mg"},{"bike_id":"e6d72938-4b59-4e49-9e4b-de9b51da77c5","system_id":"levelo_inurba_marseille","lat":43.296277,"lon":5.377108,"is_reserved":false,"is_disabled":false,"rental_uris":{"android":"levelo://app?vid=e6d72938-4b59-4e49-9e4b-de9b51da77c5","ios":"levelo://app?vid=e6d72938-4b59-4e49-9e4b-de9b51da77c5"},"vehicle_type_id":"4","last_reported":1708275927,"current_range_meters":12400,"station_id":"ce4bgi92rcd13ifvqb90","pricing_plan_id":"cebpf4jnsgd1na2vs0mg"},{"bike_id":"3700baac-8000-43a9-91be-2a080bbf6881","system_id":"levelo_inurba_marseille","lat":43.298037,"lon":5.381066,"is_reserved":false,"is_disabled":false,"rental_uris":{"android":"levelo://app?vid=3700baac-8000-43a9-91be-2a080bbf6881","ios":"levelo://app?vid=3700baac-8000-43a9-91be-2a080bbf6881"},"vehicle_type_id":"4","last_reported":1708275927,"current_range_meters":30000,"station_id":"ce4bgip2rcd13ifvqbb0","pricing_plan_id":"cebpf4jnsgd1na2vs0mg"},{"bike_id":"b0dea5d0-9528-4e72-93e7-343e3d0fe4f8","system_id":"levelo_inurba_marseille","lat":43.29802,"lon":5.38128,"is_reserved":false,"is_disabled":false,"rental_uris":{"android":"levelo://app?vid=b0dea5d0-9528-4e72-93e7-343e3d0fe4f8","ios":"levelo://app?vid=b0dea5d0-9528-4e72-93e7-343e3d0fe4f8"},"vehicle_type_id":"4","last_reported":1708275927,"current_range_meters":31200,"station_id":"ce4bgip2rcd13ifvqbb0","pricing_plan_id":"cebpf4jnsgd1na2vs0mg"},{"bike_id":"2fe742a3-c205-4290-b2d0-ffb49ee05edb","system_id":"levelo_inurba_marseille","lat":43.296277,"lon":5.377108,"is_reserved":false,"is_disabled":false,"rental_uris":{"android":"levelo://app?vid=2fe742a3-c205-4290-b2d0-ffb49ee05edb","ios":"levelo://app?vid=2fe742a3-c205-4290-b2d0-ffb49ee05edb"},"vehicle_type_id":"4","last_reported":1708275927,"current_range_meters":4800,"station_id":"ce4bgi92rcd13ifvqb90","pricing_plan_id":"cebpf4jnsgd1na2vs0mg"},{"bike_id":"10bb6323-c628-4406-b700-b76f0bc5b328","system_id":"levelo_inurba_marseille","lat":43.296263,"lon":5.377094,"is_reserved":false,"is_disabled":false,"rental_uris":{"android":"levelo://app?vid=10bb6323-c628-4406-b700-b76f0bc5b328","ios":"levelo://app?vid=10bb6323-c628-4406-b700-b76f0bc5b328"},"vehicle_type_id":"4","last_reported":1708275927,"current_range_meters":29600,"station_id":"ce4bgi92rcd13ifvqb90","pricing_plan_id":"cebpf4jnsgd1na2vs0mg"},{"bike_id":"de407ac5-8b8f-441f-adc6-0bef8c784724","system_id":"levelo_inurba_marseille","lat":43.296263,"lon":5.377094,"is_reserved":false,"is_disabled":false,"rental_uris":{"android":"levelo://app?vid=de407ac5-8b8f-441f-adc6-0bef8c784724","ios":"levelo://app?vid=de407ac5-8b8f-441f-adc6-0bef8c784724"},"vehicle_type_id":"4","last_reported":1708275927,"current_range_meters":30000,"station_id":"ce4bgi92rcd13ifvqb90","pricing_plan_id":"cebpf4jnsgd1na2vs0mg"},{"bike_id":"fb6a91ac-4ea6-42da-96ff-2930db92761c","system_id":"levelo_inurba_marseille","lat":43.297785,"lon":5.381325,"is_reserved":false,"is_disabled":false,"rental_uris":{"android":"levelo://app?vid=fb6a91ac-4ea6-42da-96ff-2930db92761c","ios":"levelo://app?vid=fb6a91ac-4ea6-42da-96ff-2930db92761c"},"vehicle_type_id":"4","last_reported":1708275927,"current_range_meters":9600,"station_id":"","pricing_plan_id":"cebpf4jnsgd1na2vs0mg"},{"bike_id":"61fd1ec9-f266-4541-8b7b-80589070244d","system_id":"levelo_inurba_marseille","lat":43.295279,"lon":5.375048,"is_reserved":false,"is_disabled":false,"rental_uris":{"android":"levelo://app?vid=61fd1ec9-f266-4541-8b7b-80589070244d","ios":"levelo://app?vid=61fd1ec9-f266-4541-8b7b-80589070244d"},"vehicle_type_id":"4","last_reported":1708275927,"current_range_meters":23200,"station_id":"ce4bgkp2rcd13ifvqbmg","pricing_plan_id":"cebpf4jnsgd1na2vs0mg"},{"bike_id":"e71971b1-d480-4ffa-a801-62f1f7a949cf","system_id":"levelo_inurba_marseille","lat":43.29977,"lon":5.38486,"is_reserved":false,"is_disabled":false,"rental_uris":{"android":"levelo://app?vid=e71971b1-d480-4ffa-a801-62f1f7a949cf","ios":"levelo://app?vid=e71971b1-d480-4ffa-a801-62f1f7a949cf"},"vehicle_type_id":"4","last_reported":1708275927,"current_range_meters":3600,"station_id":"ce4bgj92rcd13ifvqbd0","pricing_plan_id":"cebpf4jnsgd1na2vs0mg"},{"bike_id":"4e85bc5f-1ab4-4de1-9c69-945962801ca0","system_id":"levelo_inurba_marseille","lat":43.299707,"lon":5.384859,"is_reserved":false,"is_disabled":false,"rental_uris":{"android":"levelo://app?vid=4e85bc5f-1ab4-4de1-9c69-945962801ca0","ios":"levelo://app?vid=4e85bc5f-1ab4-4de1-9c69-945962801ca0"},"vehicle_type_id":"4","last_reported":1708275927,"current_range_meters":22400,"station_id":"ce4bgj92rcd13ifvqbd0","pricing_plan_id":"cebpf4jnsgd1na2vs0mg"},{"bike_id":"41cbc969-f0a1-46c7-91b9-4652a2210e5f","system_id":"levelo_inurba_marseille","lat":43.295279,"lon":5.375048,"is_reserved":false,"is_disabled":false,"rental_uris":{"android":"levelo://app?vid=41cbc969-f0a1-46c7-91b9-4652a2210e5f","ios":"levelo://app?vid=41cbc969-f0a1-46c7-91b9-4652a2210e5f"},"vehicle_type_id":"4","last_reported":1708275927,"current_range_meters":12800,"station_id":"ce4bgkp2rcd13ifvqbmg","pricing_plan_id":"cebpf4jnsgd1na2vs0mg"},{"bike_id":"373cca65-6795-4be5-ad3e-d17cb4fd7e94","system_id":"levelo_inurba_marseille","lat":43.29525,"lon":5.37517,"is_reserved":false,"is_disabled":false,"rental_uris":{"android":"levelo://app?vid=373cca65-6795-4be5-ad3e-d17cb4fd7e94","ios":"levelo://app?vid=373cca65-6795-4be5-ad3e-d17cb4fd7e94"},"vehicle_type_id":"4","last_reported":1708275927,"current_range_meters":0,"station_id":"ce4bgkp2rcd13ifvqbmg","pricing_plan_id":"cebpf4jnsgd1na2vs0mg"},{"bike_id":"9deb10e8-2e4b-4c37-bc9f-bb25ea1a4323","system_id":"levelo_inurba_marseille","lat":43.299717,"lon":5.384845,"is_reserved":false,"is_disabled":false,"rental_uris":{"android":"levelo://app?vid=9deb10e8-2e4b-4c37-bc9f-bb25ea1a4323","ios":"levelo://app?vid=9deb10e8-2e4b-4c37-bc9f-bb25ea1a4323"},"vehicle_type_id":"4","last_reported":1708275927,"current_range_meters":10000,"station_id":"ce4bgj92rcd13ifvqbd0","pricing_plan_id":"cebpf4jnsgd1na2vs0mg"},{"bike_id":"329e5632-3980-4310-b710-ef3ea54c1cc1","system_id":"levelo_inurba_marseille","lat":43.29602,"lon":5.381084,"is_reserved":false,"is_disabled":false,"rental_uris":{"android":"levelo://app?vid=329e5632-3980-4310-b710-ef3ea54c1cc1","ios":"levelo://app?vid=329e5632-3980-4310-b710-ef3ea54c1cc1"},"vehicle_type_id":"4","last_reported":1708275927,"current_range_meters":5600,"station_id":"ce4bgl12rcd13ifvqbo0","pricing_plan_id":"cebpf4jnsgd1na2vs0mg"},{"bike_id":"fba36f51-0ae3-4708-b5d9-42b6d8522aa7","system_id":"levelo_inurba_marseille","lat":43.29602,"lon":5.381084,"is_reserved":false,"is_disabled":false,"rental_uris":{"android":"levelo://app?vid=fba36f51-0ae3-4708-b5d9-42b6d8522aa7","ios":"levelo://app?vid=fba36f51-0ae3-4708-b5d9-42b6d8522aa7"},"vehicle_type_id":"4","last_reported":1708275927,"current_range_meters":12800,"station_id":"ce4bgl12rcd13ifvqbo0","pricing_plan_id":"cebpf4jnsgd1na2vs0mg"},{"bike_id":"77034b9c-e48a-4809-861d-5ec7d2f8af9f","system_id":"levelo_inurba_marseille","lat":43.29602,"lon":5.381084,"is_reserved":false,"is_disabled":false,"rental_uris":{"android":"levelo://app?vid=77034b9c-e48a-4809-861d-5ec7d2f8af9f","ios":"levelo://app?vid=77034b9c-e48a-4809-861d-5ec7d2f8af9f"},"vehicle_type_id":"4","last_reported":1708275927,"current_range_meters":800,"station_id":"ce4bgl12rcd13ifvqbo0","pricing_plan_id":"cebpf4jnsgd1na2vs0mg"},{"bike_id":"e30b5766-139a-4ca3-8c44-a91808c842c6","system_id":"levelo_inurba_marseille","lat":43.29398,"lon":5.37601,"is_reserved":false,"is_disabled":false,"rental_uris":{"android":"levelo://app?vid=e30b5766-139a-4ca3-8c44-a91808c842c6","ios":"levelo://app?vid=e30b5766-139a-4ca3-8c44-a91808c842c6"},"vehicle_type_id":"4","last_reported":1708275927,"current_range_meters":18800,"station_id":"","pricing_plan_id":"cebpf4jnsgd1na2vs0mg"},{"bike_id":"70325e11-bc95-4a67-8ddb-ff20dba0bd17","system_id":"levelo_inurba_marseille","lat":43.29311,"lon":5.37179,"is_reserved":false,"is_disabled":false,"rental_uris":{"android":"levelo://app?vid=70325e11-bc95-4a67-8ddb-ff20dba0bd17","ios":"levelo://app?vid=70325e11-bc95-4a67-8ddb-ff20dba0bd17"},"vehicle_type_id":"4","last_reported":1708275927,"current_range_meters":22000,"station_id":"ce4bgh92rcd13ifvqb40","pricing_plan_id":"cebpf4jnsgd1na2vs0mg"},{"bike_id":"70e24fa1-17fc-43bc-8a7b-a29939c13a3e","system_id":"levelo_inurba_marseille","lat":43.293249,"lon":5.371578,"is_reserved":false,"is_disabled":false,"rental_uris":{"android":"levelo://app?vid=70e24fa1-17fc-43bc-8a7b-a29939c13a3e","ios":"levelo://app?vid=70e24fa1-17fc-43bc-8a7b-a29939c13a3e"},"vehicle_type_id":"4","last_reported":1708275927,"current_range_meters":5200,"station_id":"ce4bgh92rcd13ifvqb40","pricing_plan_id":"cebpf4jnsgd1na2vs0mg"},{"bike_id":"dca1bc3a-5b0c-4bb5-8ab8-0b2a0436757f","system_id":"levelo_inurba_marseille","lat":43.292749,"lon":5.368398,"is_reserved":false,"is_disabled":false,"rental_uris":{"android":"levelo://app?vid=dca1bc3a-5b0c-4bb5-8ab8-0b2a0436757f","ios":"levelo://app?vid=dca1bc3a-5b0c-4bb5-8ab8-0b2a0436757f"},"vehicle_type_id":"4","last_reported":1708275927,"current_range_meters":8800,"station_id":"ce4bhbp2rcd13ifvqesg","pricing_plan_id":"cebpf4jnsgd1na2vs0mg"},{"bike_id":"a162a956-6904-4d5a-b929-2cee9459ab8d","system_id":"levelo_inurba_marseille","lat":43.29306,"lon":5.37165,"is_reserved":false,"is_disabled":false,"rental_uris":{"android":"levelo://app?vid=a162a956-6904-4d5a-b929-2cee9459ab8d","ios":"levelo://app?vid=a162a956-6904-4d5a-b929-2cee9459ab8d"},"vehicle_type_id":"4","last_reported":1708275927,"current_range_meters":0,"station_id":"ce4bgh92rcd13ifvqb40","pricing_plan_id":"cebpf4jnsgd1na2vs0mg"},{"bike_id":"124e8420-f148-4b47-961e-53732b52471e","system_id":"levelo_inurba_marseille","lat":43.2928,"lon":5.36865,"is_reserved":false,"is_disabled":false,"rental_uris":{"android":"levelo://app?vid=124e8420-f148-4b47-961e-53732b52471e","ios":"levelo://app?vid=124e8420-f148-4b47-961e-53732b52471e"},"vehicle_type_id":"4","last_reported":1708275927,"current_range_meters":18400,"station_id":"","pricing_plan_id":"cebpf4jnsgd1na2vs0mg"},{"bike_id":"56fb3ae0-5138-49d0-88fc-1be308280c32","system_id":"levelo_inurba_marseille","lat":43.292762,"lon":5.368413,"is_reserved":false,"is_disabled":false,"rental_uris":{"android":"levelo://app?vid=56fb3ae0-5138-49d0-88fc-1be308280c32","ios":"levelo://app?vid=56fb3ae0-5138-49d0-88fc-1be308280c32"},"vehicle_type_id":"4","last_reported":1708275927,"current_range_meters":0,"station_id":"ce4bhbp2rcd13ifvqesg","pricing_plan_id":"cebpf4jnsgd1na2vs0mg"},{"bike_id":"1db30b73-5877-4d86-8df0-3d3df79a1efc","system_id":"levelo_inurba_marseille","lat":43.2927,"lon":5.36784,"is_reserved":false,"is_disabled":false,"rental_uris":{"android":"levelo://app?vid=1db30b73-5877-4d86-8df0-3d3df79a1efc","ios":"levelo://app?vid=1db30b73-5877-4d86-8df0-3d3df79a1efc"},"vehicle_type_id":"4","last_reported":1708275927,"current_range_meters":800,"station_id":"","pricing_plan_id":"cebpf4jnsgd1na2vs0mg"},{"bike_id":"8a556a90-c80d-488f-8c5d-61f698574cf8","system_id":"levelo_inurba_marseille","lat":43.298628,"lon":5.38669,"is_reserved":false,"is_disabled":false,"rental_uris":{"android":"levelo://app?vid=8a556a90-c80d-488f-8c5d-61f698574cf8","ios":"levelo://app?vid=8a556a90-c80d-488f-8c5d-61f698574cf8"},"vehicle_type_id":"4","last_reported":1708275927,"current_range_meters":4800,"station_id":"","pricing_plan_id":"cebpf4jnsgd1na2vs0mg"},{"bike_id":"3e88f2e7-e30e-483a-a5ca-d2803fcc5dc0","system_id":"levelo_inurba_marseille","lat":43.29309,"lon":5.37465,"is_reserved":false,"is_disabled":false,"rental_uris":{"android":"levelo://app?vid=3e88f2e7-e30e-483a-a5ca-d2803fcc5dc0","ios":"levelo://app?vid=3e88f2e7-e30e-483a-a5ca-d2803fcc5dc0"},"vehicle_type_id":"4","last_reported":1708275927,"current_range_meters":10000,"station_id":"ce4bgi12rcd13ifvqb70","pricing_plan_id":"cebpf4jnsgd1na2vs0mg"},{"bike_id":"c3561c5c-e305-4c56-b51c-e400edb29b62","system_id":"levelo_inurba_marseille","lat":43.293009,"lon":5.374584,"is_reserved":false,"is_disabled":false,"rental_uris":{"android":"levelo://app?vid=c3561c5c-e305-4c56-b51c-e400edb29b62","ios":"levelo://app?vid=c3561c5c-e305-4c56-b51c-e400edb29b62"},"vehicle_type_id":"4","last_reported":1708275927,"current_range_meters":21600,"station_id":"ce4bgi12rcd13ifvqb70","pricing_plan_id":"cebpf4jnsgd1na2vs0mg"},{"bike_id":"e52ae781-df79-4f3d-9c90-149eb2a0cba5","system_id":"levelo_inurba_marseille","lat":43.293009,"lon":5.374584,"is_reserved":false,"is_disabled":false,"rental_uris":{"android":"levelo://app?vid=e52ae781-df79-4f3d-9c90-149eb2a0cba5","ios":"levelo://app?vid=e52ae781-df79-4f3d-9c90-149eb2a0cba5"},"vehicle_type_id":"4","last_reported":1708275927,"current_range_meters":24400,"station_id":"ce4bgi12rcd13ifvqb70","pricing_plan_id":"cebpf4jnsgd1na2vs0mg"},{"bike_id":"7dbf363f-7ef1-4093-832e-011aee0a3ed2","system_id":"levelo_inurba_marseille","lat":43.30191,"lon":5.39087,"is_reserved":false,"is_disabled":false,"rental_uris":{"android":"levelo://app?vid=7dbf363f-7ef1-4093-832e-011aee0a3ed2","ios":"levelo://app?vid=7dbf363f-7ef1-4093-832e-011aee0a3ed2"},"vehicle_type_id":"4","last_reported":1708275927,"current_range_meters":19600,"station_id":"","pricing_plan_id":"cebpf4jnsgd1na2vs0mg"},{"bike_id":"3ac76e30-bf34-4990-a4c0-54e4decbc696","system_id":"levelo_inurba_marseille","lat":43.293009,"lon":5.374584,"is_reserved":false,"is_disabled":false,"rental_uris":{"android":"levelo://app?vid=3ac76e30-bf34-4990-a4c0-54e4decbc696","ios":"levelo://app?vid=3ac76e30-bf34-4990-a4c0-54e4decbc696"},"vehicle_type_id":"4","last_reported":1708275927,"current_range_meters":6800,"station_id":"ce4bgi12rcd13ifvqb70","pricing_plan_id":"cebpf4jnsgd1na2vs0mg"},{"bike_id":"c0ecbcd0-a7bc-4db3-8a53-7c0bb261a6d3","system_id":"levelo_inurba_marseille","lat":43.29419,"lon":5.37918,"is_reserved":false,"is_disabled":false,"rental_uris":{"android":"levelo://app?vid=c0ecbcd0-a7bc-4db3-8a53-7c0bb261a6d3","ios":"levelo://app?vid=c0ecbcd0-a7bc-4db3-8a53-7c0bb261a6d3"},"vehicle_type_id":"4","last_reported":1708275927,"current_range_meters":22000,"station_id":"","pricing_plan_id":"cebpf4jnsgd1na2vs0mg"},{"bike_id":"b1a71e1e-dc0a-49f8-9735-bfde12e702e6","system_id":"levelo_inurba_marseille","lat":43.305994,"lon":5.393687,"is_reserved":false,"is_disabled":false,"rental_uris":{"android":"levelo://app?vid=b1a71e1e-dc0a-49f8-9735-bfde12e702e6","ios":"levelo://app?vid=b1a71e1e-dc0a-49f8-9735-bfde12e702e6"},"vehicle_type_id":"4","last_reported":1708275927,"current_range_meters":23200,"station_id":"ce4bh0p2rcd13ifvqd80","pricing_plan_id":"cebpf4jnsgd1na2vs0mg"},{"bike_id":"80b1105f-4802-4bc5-af92-3a61cbe517a3","system_id":"levelo_inurba_marseille","lat":43.2936,"lon":5.37835,"is_reserved":false,"is_disabled":false,"rental_uris":{"android":"levelo://app?vid=80b1105f-4802-4bc5-af92-3a61cbe517a3","ios":"levelo://app?vid=80b1105f-4802-4bc5-af92-3a61cbe517a3"},"vehicle_type_id":"4","last_reported":1708275927,"current_range_meters":12400,"station_id":"ce4bgjh2rcd13ifvqbf0","pricing_plan_id":"cebpf4jnsgd1na2vs0mg"},{"bike_id":"f001b6f1-25d0-4cc0-894e-c582f746bbaa","system_id":"levelo_inurba_marseille","lat":43.303002,"lon":5.392142,"is_reserved":false,"is_disabled":false,"rental_uris":{"android":"levelo://app?vid=f001b6f1-25d0-4cc0-894e-c582f746bbaa","ios":"levelo://app?vid=f001b6f1-25d0-4cc0-894e-c582f746bbaa"},"vehicle_type_id":"4","last_reported":1708275927,"current_range_meters":25200,"station_id":"ce4bgkh2rcd13ifvqbk0","pricing_plan_id":"cebpf4jnsgd1na2vs0mg"},{"bike_id":"1cad443e-dcb8-41d3-9846-19268efc4405","system_id":"levelo_inurba_marseille","lat":43.30302,"lon":5.39213,"is_reserved":false,"is_disabled":false,"rental_uris":{"android":"levelo://app?vid=1cad443e-dcb8-41d3-9846-19268efc4405","ios":"levelo://app?vid=1cad443e-dcb8-41d3-9846-19268efc4405"},"vehicle_type_id":"4","last_reported":1708275927,"current_range_meters":3600,"station_id":"ce4bgkh2rcd13ifvqbk0","pricing_plan_id":"cebpf4jnsgd1na2vs0mg"},{"bike_id":"dc9d8985-59d2-4447-86a7-04a9538ee706","system_id":"levelo_inurba_marseille","lat":43.30304,"lon":5.39215,"is_reserved":false,"is_disabled":false,"rental_uris":{"android":"levelo://app?vid=dc9d8985-59d2-4447-86a7-04a9538ee706","ios":"levelo://app?vid=dc9d8985-59d2-4447-86a7-04a9538ee706"},"vehicle_type_id":"4","last_reported":1708275927,"current_range_meters":0,"station_id":"ce4bgkh2rcd13ifvqbk0","pricing_plan_id":"cebpf4jnsgd1na2vs0mg"},{"bike_id":"69231666-8ca4-4207-8812-859d7970b745","system_id":"levelo_inurba_marseille","lat":43.29231,"lon":5.36185,"is_reserved":false,"is_disabled":false,"rental_uris":{"android":"levelo://app?vid=69231666-8ca4-4207-8812-859d7970b745","ios":"levelo://app?vid=69231666-8ca4-4207-8812-859d7970b745"},"vehicle_type_id":"4","last_reported":1708275927,"current_range_meters":7200,"station_id":"","pricing_plan_id":"cebpf4jnsgd1na2vs0mg"},{"bike_id":"65530478-152f-465a-adaf-d695a4c53167","system_id":"levelo_inurba_marseille","lat":43.2936,"lon":5.37835,"is_reserved":false,"is_disabled":false,"rental_uris":{"android":"levelo://app?vid=65530478-152f-465a-adaf-d695a4c53167","ios":"levelo://app?vid=65530478-152f-465a-adaf-d695a4c53167"},"vehicle_type_id":"4","last_reported":1708275927,"current_range_meters":27600,"station_id":"ce4bgjh2rcd13ifvqbf0","pricing_plan_id":"cebpf4jnsgd1na2vs0mg"},{"bike_id":"63a42a5b-dad6-4343-b5f9-089f4b918b6b","system_id":"levelo_inurba_marseille","lat":43.2936,"lon":5.37835,"is_reserved":false,"is_disabled":false,"rental_uris":{"android":"levelo://app?vid=63a42a5b-dad6-4343-b5f9-089f4b918b6b","ios":"levelo://app?vid=63a42a5b-dad6-4343-b5f9-089f4b918b6b"},"vehicle_type_id":"4","last_reported":1708275927,"current_range_meters":25600,"station_id":"ce4bgjh2rcd13ifvqbf0","pricing_plan_id":"cebpf4jnsgd1na2vs0mg"},{"bike_id":"b271bb5f-7acd-4ee4-b4b9-96796dc2e0ec","system_id":"levelo_inurba_marseille","lat":43.303002,"lon":5.392142,"is_reserved":false,"is_disabled":false,"rental_uris":{"android":"levelo://app?vid=b271bb5f-7acd-4ee4-b4b9-96796dc2e0ec","ios":"levelo://app?vid=b271bb5f-7acd-4ee4-b4b9-96796dc2e0ec"},"vehicle_type_id":"4","last_reported":1708275927,"current_range_meters":6800,"station_id":"ce4bgkh2rcd13ifvqbk0","pricing_plan_id":"cebpf4jnsgd1na2vs0mg"},{"bike_id":"1eac02bc-4386-4414-a743-c15e70dd1319","system_id":"levelo_inurba_marseille","lat":43.30303,"lon":5.39223,"is_reserved":false,"is_disabled":false,"rental_uris":{"android":"levelo://app?vid=1eac02bc-4386-4414-a743-c15e70dd1319","ios":"levelo://app?vid=1eac02bc-4386-4414-a743-c15e70dd1319"},"vehicle_type_id":"4","last_reported":1708275927,"current_range_meters":0,"station_id":"ce4bgkh2rcd13ifvqbk0","pricing_plan_id":"cebpf4jnsgd1na2vs0mg"},{"bike_id":"c90d6059-ca94-407e-94cb-36071138ccb9","system_id":"levelo_inurba_marseille","lat":43.2936,"lon":5.3782,"is_reserved":false,"is_disabled":false,"rental_uris":{"android":"levelo://app?vid=c90d6059-ca94-407e-94cb-36071138ccb9","ios":"levelo://app?vid=c90d6059-ca94-407e-94cb-36071138ccb9"},"vehicle_type_id":"4","last_reported":1708275927,"current_range_meters":12000,"station_id":"","pricing_plan_id":"cebpf4jnsgd1na2vs0mg"},{"bike_id":"256388d8-8c5e-420d-bee5-ea70a474688d","system_id":"levelo_inurba_marseille","lat":43.3031,"lon":5.39239,"is_reserved":false,"is_disabled":false,"rental_uris":{"android":"levelo://app?vid=256388d8-8c5e-420d-bee5-ea70a474688d","ios":"levelo://app?vid=256388d8-8c5e-420d-bee5-ea70a474688d"},"vehicle_type_id":"4","last_reported":1708275927,"current_range_meters":4400,"station_id":"ce4bgkh2rcd13ifvqbk0","pricing_plan_id":"cebpf4jnsgd1na2vs0mg"},{"bike_id":"6b760248-e77d-4275-9d1d-a3c56ef1fbdf","system_id":"levelo_inurba_marseille","lat":43.29233,"lon":5.36067,"is_reserved":false,"is_disabled":false,"rental_uris":{"android":"levelo://app?vid=6b760248-e77d-4275-9d1d-a3c56ef1fbdf","ios":"levelo://app?vid=6b760248-e77d-4275-9d1d-a3c56ef1fbdf"},"vehicle_type_id":"4","last_reported":1708275927,"current_range_meters":0,"station_id":"ce4bhbh2rcd13ifvqeqg","pricing_plan_id":"cebpf4jnsgd1na2vs0mg"},{"bike_id":"390c42ac-96f7-40a6-a708-5746ad19bfcf","system_id":"levelo_inurba_marseille","lat":43.300852,"lon":5.390859,"is_reserved":false,"is_disabled":false,"rental_uris":{"android":"levelo://app?vid=390c42ac-96f7-40a6-a708-5746ad19bfcf","ios":"levelo://app?vid=390c42ac-96f7-40a6-a708-5746ad19bfcf"},"vehicle_type_id":"4","last_reported":1708275927,"current_range_meters":3600,"station_id":"ce4bh192rcd13ifvqdb0","pricing_plan_id":"cebpf4jnsgd1na2vs0mg"},{"bike_id":"c4dc2296-315b-4537-be61-2515fd73a8eb","system_id":"levelo_inurba_marseille","lat":43.292311,"lon":5.360731,"is_reserved":false,"is_disabled":false,"rental_uris":{"android":"levelo://app?vid=c4dc2296-315b-4537-be61-2515fd73a8eb","ios":"levelo://app?vid=c4dc2296-315b-4537-be61-2515fd73a8eb"},"vehicle_type_id":"4","last_reported":1708275927,"current_range_meters":0,"station_id":"ce4bhbh2rcd13ifvqeqg","pricing_plan_id":"cebpf4jnsgd1na2vs0mg"},{"bike_id":"14345bae-cc4b-46ba-bc1b-d448340d0598","system_id":"levelo_inurba_marseille","lat":43.30319,"lon":5.39261,"is_reserved":false,"is_disabled":false,"rental_uris":{"android":"levelo://app?vid=14345bae-cc4b-46ba-bc1b-d448340d0598","ios":"levelo://app?vid=14345bae-cc4b-46ba-bc1b-d448340d0598"},"vehicle_type_id":"4","last_reported":1708275927,"current_range_meters":28800,"station_id":"ce4bgkh2rcd13ifvqbk0","pricing_plan_id":"cebpf4jnsgd1na2vs0mg"},{"bike_id":"764b1ac0-51e2-4df1-8e2a-33e13fd0f35a","system_id":"levelo_inurba_marseille","lat":43.30085,"lon":5.390856,"is_reserved":false,"is_disabled":false,"rental_uris":{"android":"levelo://app?vid=764b1ac0-51e2-4df1-8e2a-33e13fd0f35a","ios":"levelo://app?vid=764b1ac0-51e2-4df1-8e2a-33e13fd0f35a"},"vehicle_type_id":"4","last_reported":1708275927,"current_range_meters":8400,"station_id":"ce4bh192rcd13ifvqdb0","pricing_plan_id":"cebpf4jnsgd1na2vs0mg"},{"bike_id":"b2841036-f0a4-4100-8f63-082dfe7f4d15","system_id":"levelo_inurba_marseille","lat":43.29172,"lon":5.37146,"is_reserved":false,"is_disabled":false,"rental_uris":{"android":"levelo://app?vid=b2841036-f0a4-4100-8f63-082dfe7f4d15","ios":"levelo://app?vid=b2841036-f0a4-4100-8f63-082dfe7f4d15"},"vehicle_type_id":"4","last_reported":1708275927,"current_range_meters":2800,"station_id":"","pricing_plan_id":"cebpf4jnsgd1na2vs0mg"},{"bike_id":"fdb25caf-6523-41bb-aaf5-9a75813c1de7","system_id":"levelo_inurba_marseille","lat":43.298764,"lon":5.388973,"is_reserved":false,"is_disabled":false,"rental_uris":{"android":"levelo://app?vid=fdb25caf-6523-41bb-aaf5-9a75813c1de7","ios":"levelo://app?vid=fdb25caf-6523-41bb-aaf5-9a75813c1de7"},"vehicle_type_id":"4","last_reported":1708275927,"current_range_meters":800,"station_id":"ce4bh392rcd13ifvqdl0","pricing_plan_id":"cebpf4jnsgd1na2vs0mg"},{"bike_id":"4717824a-9eb0-4f5c-b4b6-99f2e9cf7e67","system_id":"levelo_inurba_marseille","lat":43.298764,"lon":5.388973,"is_reserved":false,"is_disabled":false,"rental_uris":{"android":"levelo://app?vid=4717824a-9eb0-4f5c-b4b6-99f2e9cf7e67","ios":"levelo://app?vid=4717824a-9eb0-4f5c-b4b6-99f2e9cf7e67"},"vehicle_type_id":"4","last_reported":1708275927,"current_range_meters":0,"station_id":"ce4bh392rcd13ifvqdl0","pricing_plan_id":"cebpf4jnsgd1na2vs0mg"},{"bike_id":"b5269aeb-61a8-4c21-b3da-0547043acb67","system_id":"levelo_inurba_marseille","lat":43.298764,"lon":5.388973,"is_reserved":false,"is_disabled":false,"rental_uris":{"android":"levelo://app?vid=b5269aeb-61a8-4c21-b3da-0547043acb67","ios":"levelo://app?vid=b5269aeb-61a8-4c21-b3da-0547043acb67"},"vehicle_type_id":"4","last_reported":1708275927,"current_range_meters":14400,"station_id":"ce4bh392rcd13ifvqdl0","pricing_plan_id":"cebpf4jnsgd1na2vs0mg"},{"bike_id":"657e0a4f-750d-4156-91cc-cbcef4871f4a","system_id":"levelo_inurba_marseille","lat":43.298764,"lon":5.388973,"is_reserved":false,"is_disabled":false,"rental_uris":{"android":"levelo://app?vid=657e0a4f-750d-4156-91cc-cbcef4871f4a","ios":"levelo://app?vid=657e0a4f-750d-4156-91cc-cbcef4871f4a"},"vehicle_type_id":"4","last_reported":1708275927,"current_range_meters":23600,"station_id":"ce4bh392rcd13ifvqdl0","pricing_plan_id":"cebpf4jnsgd1na2vs0mg"},{"bike_id":"0e8d472e-7f31-48ee-9545-6ad0503dcfc5","system_id":"levelo_inurba_marseille","lat":43.298764,"lon":5.388973,"is_reserved":false,"is_disabled":false,"rental_uris":{"android":"levelo://app?vid=0e8d472e-7f31-48ee-9545-6ad0503dcfc5","ios":"levelo://app?vid=0e8d472e-7f31-48ee-9545-6ad0503dcfc5"},"vehicle_type_id":"4","last_reported":1708275927,"current_range_meters":6000,"station_id":"ce4bh392rcd13ifvqdl0","pricing_plan_id":"cebpf4jnsgd1na2vs0mg"},{"bike_id":"cb236881-7189-45c3-99cc-1abe4585cfd7","system_id":"levelo_inurba_marseille","lat":43.298764,"lon":5.388973,"is_reserved":false,"is_disabled":false,"rental_uris":{"android":"levelo://app?vid=cb236881-7189-45c3-99cc-1abe4585cfd7","ios":"levelo://app?vid=cb236881-7189-45c3-99cc-1abe4585cfd7"},"vehicle_type_id":"4","last_reported":1708275927,"current_range_meters":26800,"station_id":"ce4bh392rcd13ifvqdl0","pricing_plan_id":"cebpf4jnsgd1na2vs0mg"},{"bike_id":"b817dbd2-7e98-4a8f-b8c1-06b002cc01a1","system_id":"levelo_inurba_marseille","lat":43.298764,"lon":5.388973,"is_reserved":false,"is_disabled":false,"rental_uris":{"android":"levelo://app?vid=b817dbd2-7e98-4a8f-b8c1-06b002cc01a1","ios":"levelo://app?vid=b817dbd2-7e98-4a8f-b8c1-06b002cc01a1"},"vehicle_type_id":"4","last_reported":1708275927,"current_range_meters":12400,"station_id":"ce4bh392rcd13ifvqdl0","pricing_plan_id":"cebpf4jnsgd1na2vs0mg"},{"bike_id":"17660850-f38a-4e26-a7bb-c419331db331","system_id":"levelo_inurba_marseille","lat":43.29209,"lon":5.35805,"is_reserved":false,"is_disabled":false,"rental_uris":{"android":"levelo://app?vid=17660850-f38a-4e26-a7bb-c419331db331","ios":"levelo://app?vid=17660850-f38a-4e26-a7bb-c419331db331"},"vehicle_type_id":"4","last_reported":1708275927,"current_range_meters":0,"station_id":"ce4bhb12rcd13ifvqel0","pricing_plan_id":"cebpf4jnsgd1na2vs0mg"},{"bike_id":"8aa05565-6f1b-4abc-9dc6-41ac6e42b8dc","system_id":"levelo_inurba_marseille","lat":43.301117,"lon":5.398795,"is_reserved":false,"is_disabled":false,"rental_uris":{"android":"levelo://app?vid=8aa05565-6f1b-4abc-9dc6-41ac6e42b8dc","ios":"levelo://app?vid=8aa05565-6f1b-4abc-9dc6-41ac6e42b8dc"},"vehicle_type_id":"4","last_reported":1708275927,"current_range_meters":9600,"station_id":"ce4bh0h2rcd13ifvqd40","pricing_plan_id":"cebpf4jnsgd1na2vs0mg"},{"bike_id":"ffbbdfd5-4ac9-4f3b-8a3d-142cddccd607","system_id":"levelo_inurba_marseille","lat":43.291994,"lon":5.357886,"is_reserved":false,"is_disabled":false,"rental_uris":{"android":"levelo://app?vid=ffbbdfd5-4ac9-4f3b-8a3d-142cddccd607","ios":"levelo://app?vid=ffbbdfd5-4ac9-4f3b-8a3d-142cddccd607"},"vehicle_type_id":"4","last_reported":1708275927,"current_range_meters":0,"station_id":"ce4bhb12rcd13ifvqel0","pricing_plan_id":"cebpf4jnsgd1na2vs0mg"},{"bike_id":"ffccd2ba-e2fd-4d0d-b735-026b4de825b0","system_id":"levelo_inurba_marseille","lat":43.291959,"lon":5.358102,"is_reserved":false,"is_disabled":false,"rental_uris":{"android":"levelo://app?vid=ffccd2ba-e2fd-4d0d-b735-026b4de825b0","ios":"levelo://app?vid=ffccd2ba-e2fd-4d0d-b735-026b4de825b0"},"vehicle_type_id":"4","last_reported":1708275927,"current_range_meters":11600,"station_id":"","pricing_plan_id":"cebpf4jnsgd1na2vs0mg"},{"bike_id":"d73c2b9f-e8ef-443d-af6e-65a1d7585b7e","system_id":"levelo_inurba_marseille","lat":43.291994,"lon":5.357886,"is_reserved":false,"is_disabled":false,"rental_uris":{"android":"levelo://app?vid=d73c2b9f-e8ef-443d-af6e-65a1d7585b7e","ios":"levelo://app?vid=d73c2b9f-e8ef-443d-af6e-65a1d7585b7e"},"vehicle_type_id":"4","last_reported":1708275927,"current_range_meters":400,"station_id":"ce4bhb12rcd13ifvqel0","pricing_plan_id":"cebpf4jnsgd1na2vs0mg"},{"bike_id":"e2134e10-fcf4-4881-884f-a207ef35b3eb","system_id":"levelo_inurba_marseille","lat":43.291971,"lon":5.358002,"is_reserved":false,"is_disabled":false,"rental_uris":{"android":"levelo://app?vid=e2134e10-fcf4-4881-884f-a207ef35b3eb","ios":"levelo://app?vid=e2134e10-fcf4-4881-884f-a207ef35b3eb"},"vehicle_type_id":"4","last_reported":1708275927,"current_range_meters":0,"station_id":"ce4bhb12rcd13ifvqel0","pricing_plan_id":"cebpf4jnsgd1na2vs0mg"},{"bike_id":"5984e654-e82d-46b1-8a27-1ba8eed87c4e","system_id":"levelo_inurba_marseille","lat":43.29163,"lon":5.37516,"is_reserved":false,"is_disabled":false,"rental_uris":{"android":"levelo://app?vid=5984e654-e82d-46b1-8a27-1ba8eed87c4e","ios":"levelo://app?vid=5984e654-e82d-46b1-8a27-1ba8eed87c4e"},"vehicle_type_id":"4","last_reported":1708275927,"current_range_meters":2000,"station_id":"","pricing_plan_id":"cebpf4jnsgd1na2vs0mg"},{"bike_id":"b1e8cfc7-11c5-45f8-804a-ce2447bb1bda","system_id":"levelo_inurba_marseille","lat":43.295367,"lon":5.385437,"is_reserved":false,"is_disabled":false,"rental_uris":{"android":"levelo://app?vid=b1e8cfc7-11c5-45f8-804a-ce2447bb1bda","ios":"levelo://app?vid=b1e8cfc7-11c5-45f8-804a-ce2447bb1bda"},"vehicle_type_id":"4","last_reported":1708275927,"current_range_meters":7600,"station_id":"ce4bgih2rcd13ifvqba0","pricing_plan_id":"cebpf4jnsgd1na2vs0mg"},{"bike_id":"e65fe6bd-7e82-4808-af70-30f04d635e8f","system_id":"levelo_inurba_marseille","lat":43.29529,"lon":5.385581,"is_reserved":false,"is_disabled":false,"rental_uris":{"android":"levelo://app?vid=e65fe6bd-7e82-4808-af70-30f04d635e8f","ios":"levelo://app?vid=e65fe6bd-7e82-4808-af70-30f04d635e8f"},"vehicle_type_id":"4","last_reported":1708275927,"current_range_meters":3600,"station_id":"ce4bgih2rcd13ifvqba0","pricing_plan_id":"cebpf4jnsgd1na2vs0mg"},{"bike_id":"d9ce6c1a-9583-451e-9e11-57d3000b67e7","system_id":"levelo_inurba_marseille","lat":43.29319,"lon":5.38089,"is_reserved":false,"is_disabled":false,"rental_uris":{"android":"levelo://app?vid=d9ce6c1a-9583-451e-9e11-57d3000b67e7","ios":"levelo://app?vid=d9ce6c1a-9583-451e-9e11-57d3000b67e7"},"vehicle_type_id":"4","last_reported":1708275927,"current_range_meters":22800,"station_id":"","pricing_plan_id":"cebpf4jnsgd1na2vs0mg"},{"bike_id":"ecdcfa31-6e66-40c6-a8b6-c7f6a6c510a5","system_id":"levelo_inurba_marseille","lat":43.290779,"lon":5.371482,"is_reserved":false,"is_disabled":false,"rental_uris":{"android":"levelo://app?vid=ecdcfa31-6e66-40c6-a8b6-c7f6a6c510a5","ios":"levelo://app?vid=ecdcfa31-6e66-40c6-a8b6-c7f6a6c510a5"},"vehicle_type_id":"4","last_reported":1708275927,"current_range_meters":1200,"station_id":"ce4bh5p2rcd13ifvqe4g","pricing_plan_id":"cebpf4jnsgd1na2vs0mg"},{"bike_id":"dd1c3137-f4ce-4a7d-939a-0d0077e75553","system_id":"levelo_inurba_marseille","lat":43.29063,"lon":5.37056,"is_reserved":false,"is_disabled":false,"rental_uris":{"android":"levelo://app?vid=dd1c3137-f4ce-4a7d-939a-0d0077e75553","ios":"levelo://app?vid=dd1c3137-f4ce-4a7d-939a-0d0077e75553"},"vehicle_type_id":"4","last_reported":1708275927,"current_range_meters":27200,"station_id":"","pricing_plan_id":"cebpf4jnsgd1na2vs0mg"},{"bike_id":"cda175fc-6484-4f89-86c2-e963cc8b8054","system_id":"levelo_inurba_marseille","lat":43.290779,"lon":5.371482,"is_reserved":false,"is_disabled":false,"rental_uris":{"android":"levelo://app?vid=cda175fc-6484-4f89-86c2-e963cc8b8054","ios":"levelo://app?vid=cda175fc-6484-4f89-86c2-e963cc8b8054"},"vehicle_type_id":"4","last_reported":1708275927,"current_range_meters":1600,"station_id":"ce4bh5p2rcd13ifvqe4g","pricing_plan_id":"cebpf4jnsgd1na2vs0mg"},{"bike_id":"e6b561f8-e82b-4bee-882a-3ad3794114c0","system_id":"levelo_inurba_marseille","lat":43.30213,"lon":5.39465,"is_reserved":false,"is_disabled":false,"rental_uris":{"android":"levelo://app?vid=e6b561f8-e82b-4bee-882a-3ad3794114c0","ios":"levelo://app?vid=e6b561f8-e82b-4bee-882a-3ad3794114c0"},"vehicle_type_id":"4","last_reported":1708275927,"current_range_meters":24000,"station_id":"","pricing_plan_id":"cebpf4jnsgd1na2vs0mg"},{"bike_id":"3b8dc770-757f-4fb3-bc29-61ca9ae0380a","system_id":"levelo_inurba_marseille","lat":43.294162,"lon":5.386292,"is_reserved":false,"is_disabled":false,"rental_uris":{"android":"levelo://app?vid=3b8dc770-757f-4fb3-bc29-61ca9ae0380a","ios":"levelo://app?vid=3b8dc770-757f-4fb3-bc29-61ca9ae0380a"},"vehicle_type_id":"4","last_reported":1708275927,"current_range_meters":7600,"station_id":"ce4bh2h2rcd13ifvqdh0","pricing_plan_id":"cebpf4jnsgd1na2vs0mg"},{"bike_id":"8af55350-f0cc-49f6-bb0e-979ec6b6e435","system_id":"levelo_inurba_marseille","lat":43.294162,"lon":5.386292,"is_reserved":false,"is_disabled":false,"rental_uris":{"android":"levelo://app?vid=8af55350-f0cc-49f6-bb0e-979ec6b6e435","ios":"levelo://app?vid=8af55350-f0cc-49f6-bb0e-979ec6b6e435"},"vehicle_type_id":"4","last_reported":1708275927,"current_range_meters":15200,"station_id":"ce4bh2h2rcd13ifvqdh0","pricing_plan_id":"cebpf4jnsgd1na2vs0mg"},{"bike_id":"89b79941-fff7-4131-9e98-5606c289ec77","system_id":"levelo_inurba_marseille","lat":43.30262,"lon":5.39608,"is_reserved":false,"is_disabled":false,"rental_uris":{"android":"levelo://app?vid=89b79941-fff7-4131-9e98-5606c289ec77","ios":"levelo://app?vid=89b79941-fff7-4131-9e98-5606c289ec77"},"vehicle_type_id":"4","last_reported":1708275927,"current_range_meters":14000,"station_id":"","pricing_plan_id":"cebpf4jnsgd1na2vs0mg"},{"bike_id":"acd058db-b727-4fc7-9f97-ed0d220c5a2f","system_id":"levelo_inurba_marseille","lat":43.29046,"lon":5.37796,"is_reserved":false,"is_disabled":false,"rental_uris":{"android":"levelo://app?vid=acd058db-b727-4fc7-9f97-ed0d220c5a2f","ios":"levelo://app?vid=acd058db-b727-4fc7-9f97-ed0d220c5a2f"},"vehicle_type_id":"4","last_reported":1708275927,"current_range_meters":0,"station_id":"","pricing_plan_id":"cebpf4jnsgd1na2vs0mg"},{"bike_id":"b351422d-269c-4e8d-b93c-4dded2afed3c","system_id":"levelo_inurba_marseille","lat":43.29269,"lon":5.38432,"is_reserved":false,"is_disabled":false,"rental_uris":{"android":"levelo://app?vid=b351422d-269c-4e8d-b93c-4dded2afed3c","ios":"levelo://app?vid=b351422d-269c-4e8d-b93c-4dded2afed3c"},"vehicle_type_id":"4","last_reported":1708275927,"current_range_meters":16000,"station_id":"ce4bh692rcd13ifvqea0","pricing_plan_id":"cebpf4jnsgd1na2vs0mg"},{"bike_id":"d577d029-9d9c-4e3a-8f2a-1776be2c9e91","system_id":"levelo_inurba_marseille","lat":43.29272,"lon":5.38442,"is_reserved":false,"is_disabled":false,"rental_uris":{"android":"levelo://app?vid=d577d029-9d9c-4e3a-8f2a-1776be2c9e91","ios":"levelo://app?vid=d577d029-9d9c-4e3a-8f2a-1776be2c9e91"},"vehicle_type_id":"4","last_reported":1708275927,"current_range_meters":19200,"station_id":"ce4bh692rcd13ifvqea0","pricing_plan_id":"cebpf4jnsgd1na2vs0mg"},{"bike_id":"3ee12d5a-5175-4ff7-9166-ffd2d3e36cc7","system_id":"levelo_inurba_marseille","lat":43.29265,"lon":5.38427,"is_reserved":false,"is_disabled":false,"rental_uris":{"android":"levelo://app?vid=3ee12d5a-5175-4ff7-9166-ffd2d3e36cc7","ios":"levelo://app?vid=3ee12d5a-5175-4ff7-9166-ffd2d3e36cc7"},"vehicle_type_id":"4","last_reported":1708275927,"current_range_meters":6400,"station_id":"ce4bh692rcd13ifvqea0","pricing_plan_id":"cebpf4jnsgd1na2vs0mg"},{"bike_id":"7976152a-ed9b-42d0-88ac-9bb56b0689e4","system_id":"levelo_inurba_marseille","lat":43.292642,"lon":5.384254,"is_reserved":false,"is_disabled":false,"rental_uris":{"android":"levelo://app?vid=7976152a-ed9b-42d0-88ac-9bb56b0689e4","ios":"levelo://app?vid=7976152a-ed9b-42d0-88ac-9bb56b0689e4"},"vehicle_type_id":"4","last_reported":1708275927,"current_range_meters":1200,"station_id":"ce4bh692rcd13ifvqea0","pricing_plan_id":"cebpf4jnsgd1na2vs0mg"},{"bike_id":"fd3e874a-dbb2-4944-a47d-7013e141d2f8","system_id":"levelo_inurba_marseille","lat":43.29272,"lon":5.3845,"is_reserved":false,"is_disabled":false,"rental_uris":{"android":"levelo://app?vid=fd3e874a-dbb2-4944-a47d-7013e141d2f8","ios":"levelo://app?vid=fd3e874a-dbb2-4944-a47d-7013e141d2f8"},"vehicle_type_id":"4","last_reported":1708275927,"current_range_meters":16400,"station_id":"ce4bh692rcd13ifvqea0","pricing_plan_id":"cebpf4jnsgd1na2vs0mg"},{"bike_id":"be4e2c45-ca60-4fb1-917b-50cf759cb8d9","system_id":"levelo_inurba_marseille","lat":43.292642,"lon":5.384254,"is_reserved":false,"is_disabled":false,"rental_uris":{"android":"levelo://app?vid=be4e2c45-ca60-4fb1-917b-50cf759cb8d9","ios":"levelo://app?vid=be4e2c45-ca60-4fb1-917b-50cf759cb8d9"},"vehicle_type_id":"4","last_reported":1708275927,"current_range_meters":4800,"station_id":"ce4bh692rcd13ifvqea0","pricing_plan_id":"cebpf4jnsgd1na2vs0mg"},{"bike_id":"1970c3e6-5484-4570-b67a-d1db6f957d99","system_id":"levelo_inurba_marseille","lat":43.304296,"lon":5.397513,"is_reserved":false,"is_disabled":false,"rental_uris":{"android":"levelo://app?vid=1970c3e6-5484-4570-b67a-d1db6f957d99","ios":"levelo://app?vid=1970c3e6-5484-4570-b67a-d1db6f957d99"},"vehicle_type_id":"4","last_reported":1708275927,"current_range_meters":18800,"station_id":"ce4bh092rcd13ifvqd20","pricing_plan_id":"cebpf4jnsgd1na2vs0mg"},{"bike_id":"32663827-0cd0-4c7b-b68f-7fe62798f78b","system_id":"levelo_inurba_marseille","lat":43.30432,"lon":5.39755,"is_reserved":false,"is_disabled":false,"rental_uris":{"android":"levelo://app?vid=32663827-0cd0-4c7b-b68f-7fe62798f78b","ios":"levelo://app?vid=32663827-0cd0-4c7b-b68f-7fe62798f78b"},"vehicle_type_id":"4","last_reported":1708275927,"current_range_meters":2800,"station_id":"","pricing_plan_id":"cebpf4jnsgd1na2vs0mg"},{"bike_id":"89d6b1cd-8c75-4147-83fd-99868843f697","system_id":"levelo_inurba_marseille","lat":43.304296,"lon":5.397513,"is_reserved":false,"is_disabled":false,"rental_uris":{"android":"levelo://app?vid=89d6b1cd-8c75-4147-83fd-99868843f697","ios":"levelo://app?vid=89d6b1cd-8c75-4147-83fd-99868843f697"},"vehicle_type_id":"4","last_reported":1708275927,"current_range_meters":5200,"station_id":"ce4bh092rcd13ifvqd20","pricing_plan_id":"cebpf4jnsgd1na2vs0mg"},{"bike_id":"4665e06d-9ec4-4f70-8a9a-d0fb83457f79","system_id":"levelo_inurba_marseille","lat":43.30427,"lon":5.39754,"is_reserved":false,"is_disabled":false,"rental_uris":{"android":"levelo://app?vid=4665e06d-9ec4-4f70-8a9a-d0fb83457f79","ios":"levelo://app?vid=4665e06d-9ec4-4f70-8a9a-d0fb83457f79"},"vehicle_type_id":"4","last_reported":1708275927,"current_range_meters":22800,"station_id":"ce4bh092rcd13ifvqd20","pricing_plan_id":"cebpf4jnsgd1na2vs0mg"},{"bike_id":"64c8a977-e817-4529-bbbf-d54830de4873","system_id":"levelo_inurba_marseille","lat":43.29103,"lon":5.38085,"is_reserved":false,"is_disabled":false,"rental_uris":{"android":"levelo://app?vid=64c8a977-e817-4529-bbbf-d54830de4873","ios":"levelo://app?vid=64c8a977-e817-4529-bbbf-d54830de4873"},"vehicle_type_id":"4","last_reported":1708275927,"current_range_meters":20000,"station_id":"","pricing_plan_id":"cebpf4jnsgd1na2vs0mg"},{"bike_id":"04a6c215-636d-419f-8eff-a5557d9bc533","system_id":"levelo_inurba_marseille","lat":43.290104,"lon":5.356111,"is_reserved":false,"is_disabled":false,"rental_uris":{"android":"levelo://app?vid=04a6c215-636d-419f-8eff-a5557d9bc533","ios":"levelo://app?vid=04a6c215-636d-419f-8eff-a5557d9bc533"},"vehicle_type_id":"4","last_reported":1708275927,"current_range_meters":0,"station_id":"ce4bhb92rcd13ifvqen0","pricing_plan_id":"cebpf4jnsgd1na2vs0mg"},{"bike_id":"6736c922-4c01-45b4-acfb-6786797ebde3","system_id":"levelo_inurba_marseille","lat":43.290103,"lon":5.356114,"is_reserved":false,"is_disabled":false,"rental_uris":{"android":"levelo://app?vid=6736c922-4c01-45b4-acfb-6786797ebde3","ios":"levelo://app?vid=6736c922-4c01-45b4-acfb-6786797ebde3"},"vehicle_type_id":"4","last_reported":1708275927,"current_range_meters":0,"station_id":"ce4bhb92rcd13ifvqen0","pricing_plan_id":"cebpf4jnsgd1na2vs0mg"},{"bike_id":"4f5d96f3-3cfc-49ee-9e76-509956a01519","system_id":"levelo_inurba_marseille","lat":43.290103,"lon":5.356114,"is_reserved":false,"is_disabled":false,"rental_uris":{"android":"levelo://app?vid=4f5d96f3-3cfc-49ee-9e76-509956a01519","ios":"levelo://app?vid=4f5d96f3-3cfc-49ee-9e76-509956a01519"},"vehicle_type_id":"4","last_reported":1708275927,"current_range_meters":0,"station_id":"ce4bhb92rcd13ifvqen0","pricing_plan_id":"cebpf4jnsgd1na2vs0mg"},{"bike_id":"8c29a510-698b-4470-bfcb-30870b976b48","system_id":"levelo_inurba_marseille","lat":43.290104,"lon":5.356111,"is_reserved":false,"is_disabled":false,"rental_uris":{"android":"levelo://app?vid=8c29a510-698b-4470-bfcb-30870b976b48","ios":"levelo://app?vid=8c29a510-698b-4470-bfcb-30870b976b48"},"vehicle_type_id":"4","last_reported":1708275927,"current_range_meters":0,"station_id":"ce4bhb92rcd13ifvqen0","pricing_plan_id":"cebpf4jnsgd1na2vs0mg"},{"bike_id":"0034036d-4212-45f5-b615-3cd94b222a68","system_id":"levelo_inurba_marseille","lat":43.290103,"lon":5.356114,"is_reserved":false,"is_disabled":false,"rental_uris":{"android":"levelo://app?vid=0034036d-4212-45f5-b615-3cd94b222a68","ios":"levelo://app?vid=0034036d-4212-45f5-b615-3cd94b222a68"},"vehicle_type_id":"4","last_reported":1708275927,"current_range_meters":0,"station_id":"ce4bhb92rcd13ifvqen0","pricing_plan_id":"cebpf4jnsgd1na2vs0mg"},{"bike_id":"6243bb1c-6174-4b7d-8340-34146f61ff2d","system_id":"levelo_inurba_marseille","lat":43.290104,"lon":5.356111,"is_reserved":false,"is_disabled":false,"rental_uris":{"android":"levelo://app?vid=6243bb1c-6174-4b7d-8340-34146f61ff2d","ios":"levelo://app?vid=6243bb1c-6174-4b7d-8340-34146f61ff2d"},"vehicle_type_id":"4","last_reported":1708275927,"current_range_meters":14400,"station_id":"ce4bhb92rcd13ifvqen0","pricing_plan_id":"cebpf4jnsgd1na2vs0mg"},{"bike_id":"07c3e1d7-c764-46fd-a1db-d7cbba37dc52","system_id":"levelo_inurba_marseille","lat":43.290995,"lon":5.381361,"is_reserved":false,"is_disabled":false,"rental_uris":{"android":"levelo://app?vid=07c3e1d7-c764-46fd-a1db-d7cbba37dc52","ios":"levelo://app?vid=07c3e1d7-c764-46fd-a1db-d7cbba37dc52"},"vehicle_type_id":"4","last_reported":1708275927,"current_range_meters":8400,"station_id":"ce4bh512rcd13ifvqe2g","pricing_plan_id":"cebpf4jnsgd1na2vs0mg"},{"bike_id":"9ea0bd64-e90b-4adf-94bf-522bbf1d5786","system_id":"levelo_inurba_marseille","lat":43.289756,"lon":5.378326,"is_reserved":false,"is_disabled":false,"rental_uris":{"android":"levelo://app?vid=9ea0bd64-e90b-4adf-94bf-522bbf1d5786","ios":"levelo://app?vid=9ea0bd64-e90b-4adf-94bf-522bbf1d5786"},"vehicle_type_id":"4","last_reported":1708275927,"current_range_meters":0,"station_id":"ce4bh9p2rcd13ifvqed0","pricing_plan_id":"cebpf4jnsgd1na2vs0mg"},{"bike_id":"c6b08f03-13dc-403b-9262-1328a82993ac","system_id":"levelo_inurba_marseille","lat":43.33027,"lon":5.39036,"is_reserved":false,"is_disabled":false,"rental_uris":{"android":"levelo://app?vid=c6b08f03-13dc-403b-9262-1328a82993ac","ios":"levelo://app?vid=c6b08f03-13dc-403b-9262-1328a82993ac"},"vehicle_type_id":"4","last_reported":1708275927,"current_range_meters":31200,"station_id":"ce4bhr92rcd13ifvqhrg","pricing_plan_id":"cebpf4jnsgd1na2vs0mg"},{"bike_id":"12b42430-53a6-4032-a505-9fbcf28295fe","system_id":"levelo_inurba_marseille","lat":43.2897,"lon":5.37821,"is_reserved":false,"is_disabled":false,"rental_uris":{"android":"levelo://app?vid=12b42430-53a6-4032-a505-9fbcf28295fe","ios":"levelo://app?vid=12b42430-53a6-4032-a505-9fbcf28295fe"},"vehicle_type_id":"4","last_reported":1708275927,"current_range_meters":20400,"station_id":"ce4bh9p2rcd13ifvqed0","pricing_plan_id":"cebpf4jnsgd1na2vs0mg"},{"bike_id":"9b4b435d-840f-423e-b53e-ab011e1419d4","system_id":"levelo_inurba_marseille","lat":43.33025,"lon":5.39041,"is_reserved":false,"is_disabled":false,"rental_uris":{"android":"levelo://app?vid=9b4b435d-840f-423e-b53e-ab011e1419d4","ios":"levelo://app?vid=9b4b435d-840f-423e-b53e-ab011e1419d4"},"vehicle_type_id":"4","last_reported":1708275927,"current_range_meters":14000,"station_id":"ce4bhr92rcd13ifvqhrg","pricing_plan_id":"cebpf4jnsgd1na2vs0mg"},{"bike_id":"38ad32d8-b2f5-489f-95c0-f6d8ef3b4f84","system_id":"levelo_inurba_marseille","lat":43.295169,"lon":5.390426,"is_reserved":false,"is_disabled":false,"rental_uris":{"android":"levelo://app?vid=38ad32d8-b2f5-489f-95c0-f6d8ef3b4f84","ios":"levelo://app?vid=38ad32d8-b2f5-489f-95c0-f6d8ef3b4f84"},"vehicle_type_id":"4","last_reported":1708275927,"current_range_meters":29200,"station_id":"ce4bh3p2rcd13ifvqdp0","pricing_plan_id":"cebpf4jnsgd1na2vs0mg"},{"bike_id":"09cd995e-3805-4e82-881c-e509a8a81542","system_id":"levelo_inurba_marseille","lat":43.295323,"lon":5.390763,"is_reserved":false,"is_disabled":false,"rental_uris":{"android":"levelo://app?vid=09cd995e-3805-4e82-881c-e509a8a81542","ios":"levelo://app?vid=09cd995e-3805-4e82-881c-e509a8a81542"},"vehicle_type_id":"4","last_reported":1708275927,"current_range_meters":1600,"station_id":"","pricing_plan_id":"cebpf4jnsgd1na2vs0mg"},{"bike_id":"4e3e747b-1083-4b10-b77c-5430a15fb872","system_id":"levelo_inurba_marseille","lat":43.29525,"lon":5.39107,"is_reserved":false,"is_disabled":false,"rental_uris":{"android":"levelo://app?vid=4e3e747b-1083-4b10-b77c-5430a15fb872","ios":"levelo://app?vid=4e3e747b-1083-4b10-b77c-5430a15fb872"},"vehicle_type_id":"4","last_reported":1708275927,"current_range_meters":3600,"station_id":"ce4bh3p2rcd13ifvqdp0","pricing_plan_id":"cebpf4jnsgd1na2vs0mg"},{"bike_id":"72508282-7422-46f0-a374-776a7b6f9f6a","system_id":"levelo_inurba_marseille","lat":43.28871,"lon":5.35853,"is_reserved":false,"is_disabled":false,"rental_uris":{"android":"levelo://app?vid=72508282-7422-46f0-a374-776a7b6f9f6a","ios":"levelo://app?vid=72508282-7422-46f0-a374-776a7b6f9f6a"},"vehicle_type_id":"4","last_reported":1708275927,"current_range_meters":0,"station_id":"ce4bhb12rcd13ifvqem0","pricing_plan_id":"cebpf4jnsgd1na2vs0mg"},{"bike_id":"128ec28c-0fcb-44da-9e07-bbae00bfd670","system_id":"levelo_inurba_marseille","lat":43.310944,"lon":5.400979,"is_reserved":false,"is_disabled":false,"rental_uris":{"android":"levelo://app?vid=128ec28c-0fcb-44da-9e07-bbae00bfd670","ios":"levelo://app?vid=128ec28c-0fcb-44da-9e07-bbae00bfd670"},"vehicle_type_id":"4","last_reported":1708275927,"current_range_meters":0,"station_id":"","pricing_plan_id":"cebpf4jnsgd1na2vs0mg"},{"bike_id":"e9932874-6a66-4b12-8884-ed4627fa7f3b","system_id":"levelo_inurba_marseille","lat":43.290094,"lon":5.381264,"is_reserved":false,"is_disabled":false,"rental_uris":{"android":"levelo://app?vid=e9932874-6a66-4b12-8884-ed4627fa7f3b","ios":"levelo://app?vid=e9932874-6a66-4b12-8884-ed4627fa7f3b"},"vehicle_type_id":"4","last_reported":1708275927,"current_range_meters":0,"station_id":"ce4bh4p2rcd13ifvqe1g","pricing_plan_id":"cebpf4jnsgd1na2vs0mg"},{"bike_id":"944e31b8-8cee-44ae-abbb-466be8578662","system_id":"levelo_inurba_marseille","lat":43.286961,"lon":5.373785,"is_reserved":false,"is_disabled":false,"rental_uris":{"android":"levelo://app?vid=944e31b8-8cee-44ae-abbb-466be8578662","ios":"levelo://app?vid=944e31b8-8cee-44ae-abbb-466be8578662"},"vehicle_type_id":"4","last_reported":1708275927,"current_range_meters":0,"station_id":"ce4bh3p2rcd13ifvqdq0","pricing_plan_id":"cebpf4jnsgd1na2vs0mg"},{"bike_id":"c824b3df-300d-4cad-a8f8-737768589e7f","system_id":"levelo_inurba_marseille","lat":43.33744,"lon":5.37458,"is_reserved":false,"is_disabled":false,"rental_uris":{"android":"levelo://app?vid=c824b3df-300d-4cad-a8f8-737768589e7f","ios":"levelo://app?vid=c824b3df-300d-4cad-a8f8-737768589e7f"},"vehicle_type_id":"4","last_reported":1708275927,"current_range_meters":19600,"station_id":"","pricing_plan_id":"cebpf4jnsgd1na2vs0mg"},{"bike_id":"d5c4f98b-29a6-4220-a01f-fc77d2f26a9d","system_id":"levelo_inurba_marseille","lat":43.312609,"lon":5.401662,"is_reserved":false,"is_disabled":false,"rental_uris":{"android":"levelo://app?vid=d5c4f98b-29a6-4220-a01f-fc77d2f26a9d","ios":"levelo://app?vid=d5c4f98b-29a6-4220-a01f-fc77d2f26a9d"},"vehicle_type_id":"4","last_reported":1708275927,"current_range_meters":31200,"station_id":"ce4bh092rcd13ifvqd30","pricing_plan_id":"cebpf4jnsgd1na2vs0mg"},{"bike_id":"81c19107-5d28-4a1f-aaeb-c623ec6d4ee0","system_id":"levelo_inurba_marseille","lat":43.301117,"lon":5.398795,"is_reserved":false,"is_disabled":false,"rental_uris":{"android":"levelo://app?vid=81c19107-5d28-4a1f-aaeb-c623ec6d4ee0","ios":"levelo://app?vid=81c19107-5d28-4a1f-aaeb-c623ec6d4ee0"},"vehicle_type_id":"4","last_reported":1708275927,"current_range_meters":26800,"station_id":"ce4bh0h2rcd13ifvqd40","pricing_plan_id":"cebpf4jnsgd1na2vs0mg"},{"bike_id":"611cfef1-eda7-46f4-b1b7-62960fb74c1c","system_id":"levelo_inurba_marseille","lat":43.33779,"lon":5.3743,"is_reserved":false,"is_disabled":false,"rental_uris":{"android":"levelo://app?vid=611cfef1-eda7-46f4-b1b7-62960fb74c1c","ios":"levelo://app?vid=611cfef1-eda7-46f4-b1b7-62960fb74c1c"},"vehicle_type_id":"4","last_reported":1708275927,"current_range_meters":20000,"station_id":"","pricing_plan_id":"cebpf4jnsgd1na2vs0mg"},{"bike_id":"3009b6fb-1e9d-4f72-979e-745795b9a5f9","system_id":"levelo_inurba_marseille","lat":43.28727,"lon":5.36078,"is_reserved":false,"is_disabled":false,"rental_uris":{"android":"levelo://app?vid=3009b6fb-1e9d-4f72-979e-745795b9a5f9","ios":"levelo://app?vid=3009b6fb-1e9d-4f72-979e-745795b9a5f9"},"vehicle_type_id":"4","last_reported":1708275927,"current_range_meters":2000,"station_id":"cki0cbj6b192h4jlfktg","pricing_plan_id":"cebpf4jnsgd1na2vs0mg"},{"bike_id":"9c4c08ed-2dc8-476c-9770-b85303124254","system_id":"levelo_inurba_marseille","lat":43.33167,"lon":5.39101,"is_reserved":false,"is_disabled":false,"rental_uris":{"android":"levelo://app?vid=9c4c08ed-2dc8-476c-9770-b85303124254","ios":"levelo://app?vid=9c4c08ed-2dc8-476c-9770-b85303124254"},"vehicle_type_id":"4","last_reported":1708275927,"current_range_meters":29600,"station_id":"","pricing_plan_id":"cebpf4jnsgd1na2vs0mg"},{"bike_id":"6d48aa79-6a0c-4bc2-ae3d-0a86952ca326","system_id":"levelo_inurba_marseille","lat":43.294162,"lon":5.386292,"is_reserved":false,"is_disabled":false,"rental_uris":{"android":"levelo://app?vid=6d48aa79-6a0c-4bc2-ae3d-0a86952ca326","ios":"levelo://app?vid=6d48aa79-6a0c-4bc2-ae3d-0a86952ca326"},"vehicle_type_id":"4","last_reported":1708275927,"current_range_meters":4800,"station_id":"ce4bh2h2rcd13ifvqdh0","pricing_plan_id":"cebpf4jnsgd1na2vs0mg"},{"bike_id":"f8d0e563-503f-4936-9d7b-ed458f81b248","system_id":"levelo_inurba_marseille","lat":43.298681,"lon":5.397225,"is_reserved":false,"is_disabled":false,"rental_uris":{"android":"levelo://app?vid=f8d0e563-503f-4936-9d7b-ed458f81b248","ios":"levelo://app?vid=f8d0e563-503f-4936-9d7b-ed458f81b248"},"vehicle_type_id":"4","last_reported":1708275927,"current_range_meters":22000,"station_id":"ce4bh0h2rcd13ifvqd50","pricing_plan_id":"cebpf4jnsgd1na2vs0mg"},{"bike_id":"777e8e24-dbae-4fe2-ab11-5887bd91cdca","system_id":"levelo_inurba_marseille","lat":43.286593,"lon":5.363346,"is_reserved":false,"is_disabled":false,"rental_uris":{"android":"levelo://app?vid=777e8e24-dbae-4fe2-ab11-5887bd91cdca","ios":"levelo://app?vid=777e8e24-dbae-4fe2-ab11-5887bd91cdca"},"vehicle_type_id":"4","last_reported":1708275927,"current_range_meters":2000,"station_id":"ce4bhah2rcd13ifvqej0","pricing_plan_id":"cebpf4jnsgd1na2vs0mg"},{"bike_id":"74406db7-eb84-4ab7-989a-d29b0d334087","system_id":"levelo_inurba_marseille","lat":43.295196,"lon":5.39397,"is_reserved":false,"is_disabled":false,"rental_uris":{"android":"levelo://app?vid=74406db7-eb84-4ab7-989a-d29b0d334087","ios":"levelo://app?vid=74406db7-eb84-4ab7-989a-d29b0d334087"},"vehicle_type_id":"4","last_reported":1708275927,"current_range_meters":9600,"station_id":"ce4bh292rcd13ifvqdf0","pricing_plan_id":"cebpf4jnsgd1na2vs0mg"},{"bike_id":"41dd13a7-13f3-48a1-9c7e-66e3cbe1728c","system_id":"levelo_inurba_marseille","lat":43.28668,"lon":5.36349,"is_reserved":false,"is_disabled":false,"rental_uris":{"android":"levelo://app?vid=41dd13a7-13f3-48a1-9c7e-66e3cbe1728c","ios":"levelo://app?vid=41dd13a7-13f3-48a1-9c7e-66e3cbe1728c"},"vehicle_type_id":"4","last_reported":1708275927,"current_range_meters":12800,"station_id":"ce4bhah2rcd13ifvqej0","pricing_plan_id":"cebpf4jnsgd1na2vs0mg"},{"bike_id":"3f4b9081-4999-47b1-b2d4-3289cd6f98ae","system_id":"levelo_inurba_marseille","lat":43.29878,"lon":5.39738,"is_reserved":false,"is_disabled":false,"rental_uris":{"android":"levelo://app?vid=3f4b9081-4999-47b1-b2d4-3289cd6f98ae","ios":"levelo://app?vid=3f4b9081-4999-47b1-b2d4-3289cd6f98ae"},"vehicle_type_id":"4","last_reported":1708275927,"current_range_meters":25200,"station_id":"ce4bh0h2rcd13ifvqd50","pricing_plan_id":"cebpf4jnsgd1na2vs0mg"},{"bike_id":"986826c0-e193-4161-958c-f184573d953b","system_id":"levelo_inurba_marseille","lat":43.298681,"lon":5.397225,"is_reserved":false,"is_disabled":false,"rental_uris":{"android":"levelo://app?vid=986826c0-e193-4161-958c-f184573d953b","ios":"levelo://app?vid=986826c0-e193-4161-958c-f184573d953b"},"vehicle_type_id":"4","last_reported":1708275927,"current_range_meters":24800,"station_id":"ce4bh0h2rcd13ifvqd50","pricing_plan_id":"cebpf4jnsgd1na2vs0mg"},{"bike_id":"5b31a2e9-a37a-46f9-a509-27ddada4a44b","system_id":"levelo_inurba_marseille","lat":43.295196,"lon":5.39397,"is_reserved":false,"is_disabled":false,"rental_uris":{"android":"levelo://app?vid=5b31a2e9-a37a-46f9-a509-27ddada4a44b","ios":"levelo://app?vid=5b31a2e9-a37a-46f9-a509-27ddada4a44b"},"vehicle_type_id":"4","last_reported":1708275927,"current_range_meters":4800,"station_id":"ce4bh292rcd13ifvqdf0","pricing_plan_id":"cebpf4jnsgd1na2vs0mg"},{"bike_id":"6d27bc20-df8c-4e80-b3e1-65fe25656ead","system_id":"levelo_inurba_marseille","lat":43.2866,"lon":5.3636,"is_reserved":false,"is_disabled":false,"rental_uris":{"android":"levelo://app?vid=6d27bc20-df8c-4e80-b3e1-65fe25656ead","ios":"levelo://app?vid=6d27bc20-df8c-4e80-b3e1-65fe25656ead"},"vehicle_type_id":"4","last_reported":1708275927,"current_range_meters":17600,"station_id":"ce4bhah2rcd13ifvqej0","pricing_plan_id":"cebpf4jnsgd1na2vs0mg"},{"bike_id":"d433aae3-febd-4ca6-a12a-331fe4675b8f","system_id":"levelo_inurba_marseille","lat":43.29864,"lon":5.39741,"is_reserved":false,"is_disabled":false,"rental_uris":{"android":"levelo://app?vid=d433aae3-febd-4ca6-a12a-331fe4675b8f","ios":"levelo://app?vid=d433aae3-febd-4ca6-a12a-331fe4675b8f"},"vehicle_type_id":"4","last_reported":1708275927,"current_range_meters":19200,"station_id":"ce4bh0h2rcd13ifvqd50","pricing_plan_id":"cebpf4jnsgd1na2vs0mg"},{"bike_id":"e56b1e1b-f4c0-4430-bf89-e28141288ce1","system_id":"levelo_inurba_marseille","lat":43.286961,"lon":5.373785,"is_reserved":false,"is_disabled":false,"rental_uris":{"android":"levelo://app?vid=e56b1e1b-f4c0-4430-bf89-e28141288ce1","ios":"levelo://app?vid=e56b1e1b-f4c0-4430-bf89-e28141288ce1"},"vehicle_type_id":"4","last_reported":1708275927,"current_range_meters":7200,"station_id":"ce4bh3p2rcd13ifvqdq0","pricing_plan_id":"cebpf4jnsgd1na2vs0mg"},{"bike_id":"75c2a466-2833-4ffa-9445-9ef6e1274a1c","system_id":"levelo_inurba_marseille","lat":43.295196,"lon":5.39397,"is_reserved":false,"is_disabled":false,"rental_uris":{"android":"levelo://app?vid=75c2a466-2833-4ffa-9445-9ef6e1274a1c","ios":"levelo://app?vid=75c2a466-2833-4ffa-9445-9ef6e1274a1c"},"vehicle_type_id":"4","last_reported":1708275927,"current_range_meters":12400,"station_id":"ce4bh292rcd13ifvqdf0","pricing_plan_id":"cebpf4jnsgd1na2vs0mg"},{"bike_id":"d4eb14af-b701-4ccf-a6bd-026e5424397b","system_id":"levelo_inurba_marseille","lat":43.28835,"lon":5.35306,"is_reserved":false,"is_disabled":false,"rental_uris":{"android":"levelo://app?vid=d4eb14af-b701-4ccf-a6bd-026e5424397b","ios":"levelo://app?vid=d4eb14af-b701-4ccf-a6bd-026e5424397b"},"vehicle_type_id":"4","last_reported":1708275927,"current_range_meters":2800,"station_id":"","pricing_plan_id":"cebpf4jnsgd1na2vs0mg"},{"bike_id":"ad0db636-d00d-4472-b702-5c2480bef0f9","system_id":"levelo_inurba_marseille","lat":43.28736,"lon":5.37698,"is_reserved":false,"is_disabled":false,"rental_uris":{"android":"levelo://app?vid=ad0db636-d00d-4472-b702-5c2480bef0f9","ios":"levelo://app?vid=ad0db636-d00d-4472-b702-5c2480bef0f9"},"vehicle_type_id":"4","last_reported":1708275927,"current_range_meters":1600,"station_id":"","pricing_plan_id":"cebpf4jnsgd1na2vs0mg"},{"bike_id":"5013f490-7905-4708-865b-6e7a696ca7a1","system_id":"levelo_inurba_marseille","lat":43.29522,"lon":5.39409,"is_reserved":false,"is_disabled":false,"rental_uris":{"android":"levelo://app?vid=5013f490-7905-4708-865b-6e7a696ca7a1","ios":"levelo://app?vid=5013f490-7905-4708-865b-6e7a696ca7a1"},"vehicle_type_id":"4","last_reported":1708275927,"current_range_meters":8400,"station_id":"ce4bh292rcd13ifvqdf0","pricing_plan_id":"cebpf4jnsgd1na2vs0mg"},{"bike_id":"47cee5b5-d9a6-4054-9206-d90bc46bc308","system_id":"levelo_inurba_marseille","lat":43.295194,"lon":5.39397,"is_reserved":false,"is_disabled":false,"rental_uris":{"android":"levelo://app?vid=47cee5b5-d9a6-4054-9206-d90bc46bc308","ios":"levelo://app?vid=47cee5b5-d9a6-4054-9206-d90bc46bc308"},"vehicle_type_id":"4","last_reported":1708275927,"current_range_meters":0,"station_id":"ce4bh292rcd13ifvqdf0","pricing_plan_id":"cebpf4jnsgd1na2vs0mg"},{"bike_id":"342d8c54-3986-46df-8f54-e1cd217fdc78","system_id":"levelo_inurba_marseille","lat":43.290345,"lon":5.38646,"is_reserved":false,"is_disabled":false,"rental_uris":{"android":"levelo://app?vid=342d8c54-3986-46df-8f54-e1cd217fdc78","ios":"levelo://app?vid=342d8c54-3986-46df-8f54-e1cd217fdc78"},"vehicle_type_id":"4","last_reported":1708275927,"current_range_meters":400,"station_id":"ce4bh4p2rcd13ifvqe0g","pricing_plan_id":"cebpf4jnsgd1na2vs0mg"},{"bike_id":"cf273e6f-606f-4053-bb8e-8963b28adc89","system_id":"levelo_inurba_marseille","lat":43.286039,"lon":5.370681,"is_reserved":false,"is_disabled":false,"rental_uris":{"android":"levelo://app?vid=cf273e6f-606f-4053-bb8e-8963b28adc89","ios":"levelo://app?vid=cf273e6f-606f-4053-bb8e-8963b28adc89"},"vehicle_type_id":"4","last_reported":1708275927,"current_range_meters":10000,"station_id":"ce4bht12rcd13ifvqi60","pricing_plan_id":"cebpf4jnsgd1na2vs0mg"},{"bike_id":"edb22bc1-066b-47ac-94b2-04d33a75afa1","system_id":"levelo_inurba_marseille","lat":43.290336,"lon":5.386425,"is_reserved":false,"is_disabled":false,"rental_uris":{"android":"levelo://app?vid=edb22bc1-066b-47ac-94b2-04d33a75afa1","ios":"levelo://app?vid=edb22bc1-066b-47ac-94b2-04d33a75afa1"},"vehicle_type_id":"4","last_reported":1708275927,"current_range_meters":20800,"station_id":"ce4bh4p2rcd13ifvqe0g","pricing_plan_id":"cebpf4jnsgd1na2vs0mg"},{"bike_id":"b9ac65f6-dc62-4eb8-800c-aed6c9435fa2","system_id":"levelo_inurba_marseille","lat":43.289307,"lon":5.38406,"is_reserved":false,"is_disabled":false,"rental_uris":{"android":"levelo://app?vid=b9ac65f6-dc62-4eb8-800c-aed6c9435fa2","ios":"levelo://app?vid=b9ac65f6-dc62-4eb8-800c-aed6c9435fa2"},"vehicle_type_id":"4","last_reported":1708275927,"current_range_meters":22400,"station_id":"ce4bh612rcd13ifvqe6g","pricing_plan_id":"cebpf4jnsgd1na2vs0mg"},{"bike_id":"a5a9b896-e347-4ee9-92f8-852a1cb9ae41","system_id":"levelo_inurba_marseille","lat":43.28676,"lon":5.37492,"is_reserved":false,"is_disabled":false,"rental_uris":{"android":"levelo://app?vid=a5a9b896-e347-4ee9-92f8-852a1cb9ae41","ios":"levelo://app?vid=a5a9b896-e347-4ee9-92f8-852a1cb9ae41"},"vehicle_type_id":"4","last_reported":1708275927,"current_range_meters":2000,"station_id":"","pricing_plan_id":"cebpf4jnsgd1na2vs0mg"},{"bike_id":"0eab0f86-206f-4df4-9c51-ec6022b38c24","system_id":"levelo_inurba_marseille","lat":43.302759,"lon":5.400793,"is_reserved":false,"is_disabled":false,"rental_uris":{"android":"levelo://app?vid=0eab0f86-206f-4df4-9c51-ec6022b38c24","ios":"levelo://app?vid=0eab0f86-206f-4df4-9c51-ec6022b38c24"},"vehicle_type_id":"4","last_reported":1708275927,"current_range_meters":6000,"station_id":"ce4bgvh2rcd13ifvqcs0","pricing_plan_id":"cebpf4jnsgd1na2vs0mg"},{"bike_id":"910e8942-191f-4849-8dbf-46970185d1e7","system_id":"levelo_inurba_marseille","lat":43.286039,"lon":5.370681,"is_reserved":false,"is_disabled":false,"rental_uris":{"android":"levelo://app?vid=910e8942-191f-4849-8dbf-46970185d1e7","ios":"levelo://app?vid=910e8942-191f-4849-8dbf-46970185d1e7"},"vehicle_type_id":"4","last_reported":1708275927,"current_range_meters":5600,"station_id":"ce4bht12rcd13ifvqi60","pricing_plan_id":"cebpf4jnsgd1na2vs0mg"},{"bike_id":"89b4cfbb-34cf-4473-b98a-f00a6d0be0aa","system_id":"levelo_inurba_marseille","lat":43.28611,"lon":5.37064,"is_reserved":false,"is_disabled":false,"rental_uris":{"android":"levelo://app?vid=89b4cfbb-34cf-4473-b98a-f00a6d0be0aa","ios":"levelo://app?vid=89b4cfbb-34cf-4473-b98a-f00a6d0be0aa"},"vehicle_type_id":"4","last_reported":1708275927,"current_range_meters":0,"station_id":"ce4bht12rcd13ifvqi60","pricing_plan_id":"cebpf4jnsgd1na2vs0mg"},{"bike_id":"fb409c4c-783c-470e-8525-24b44d4f1876","system_id":"levelo_inurba_marseille","lat":43.28611,"lon":5.37064,"is_reserved":false,"is_disabled":false,"rental_uris":{"android":"levelo://app?vid=fb409c4c-783c-470e-8525-24b44d4f1876","ios":"levelo://app?vid=fb409c4c-783c-470e-8525-24b44d4f1876"},"vehicle_type_id":"4","last_reported":1708275927,"current_range_meters":0,"station_id":"ce4bht12rcd13ifvqi60","pricing_plan_id":"cebpf4jnsgd1na2vs0mg"},{"bike_id":"c58c57a9-fe91-42c5-ac42-4fb73a1c5929","system_id":"levelo_inurba_marseille","lat":43.30156,"lon":5.40062,"is_reserved":false,"is_disabled":false,"rental_uris":{"android":"levelo://app?vid=c58c57a9-fe91-42c5-ac42-4fb73a1c5929","ios":"levelo://app?vid=c58c57a9-fe91-42c5-ac42-4fb73a1c5929"},"vehicle_type_id":"4","last_reported":1708275927,"current_range_meters":4800,"station_id":"","pricing_plan_id":"cebpf4jnsgd1na2vs0mg"},{"bike_id":"68aed06c-cc2c-4b94-ab39-df1b7e8826c1","system_id":"levelo_inurba_marseille","lat":43.316828,"lon":5.404723,"is_reserved":false,"is_disabled":false,"rental_uris":{"android":"levelo://app?vid=68aed06c-cc2c-4b94-ab39-df1b7e8826c1","ios":"levelo://app?vid=68aed06c-cc2c-4b94-ab39-df1b7e8826c1"},"vehicle_type_id":"4","last_reported":1708275927,"current_range_meters":29200,"station_id":"ce4bh012rcd13ifvqd00","pricing_plan_id":"cebpf4jnsgd1na2vs0mg"},{"bike_id":"81b63fe0-34bd-40ea-b7a3-e51dd0af707d","system_id":"levelo_inurba_marseille","lat":43.29212,"lon":5.39329,"is_reserved":false,"is_disabled":false,"rental_uris":{"android":"levelo://app?vid=81b63fe0-34bd-40ea-b7a3-e51dd0af707d","ios":"levelo://app?vid=81b63fe0-34bd-40ea-b7a3-e51dd0af707d"},"vehicle_type_id":"4","last_reported":1708275927,"current_range_meters":0,"station_id":"ce4bh192rcd13ifvqdd0","pricing_plan_id":"cebpf4jnsgd1na2vs0mg"},{"bike_id":"7063429b-8fde-4ac4-82fd-165cd7702f3c","system_id":"levelo_inurba_marseille","lat":43.291994,"lon":5.392907,"is_reserved":false,"is_disabled":false,"rental_uris":{"android":"levelo://app?vid=7063429b-8fde-4ac4-82fd-165cd7702f3c","ios":"levelo://app?vid=7063429b-8fde-4ac4-82fd-165cd7702f3c"},"vehicle_type_id":"4","last_reported":1708275927,"current_range_meters":8400,"station_id":"ce4bh192rcd13ifvqdd0","pricing_plan_id":"cebpf4jnsgd1na2vs0mg"},{"bike_id":"17daf89c-6e1f-4dad-b4a0-b15c2e7c35fa","system_id":"levelo_inurba_marseille","lat":43.291994,"lon":5.392907,"is_reserved":false,"is_disabled":false,"rental_uris":{"android":"levelo://app?vid=17daf89c-6e1f-4dad-b4a0-b15c2e7c35fa","ios":"levelo://app?vid=17daf89c-6e1f-4dad-b4a0-b15c2e7c35fa"},"vehicle_type_id":"4","last_reported":1708275927,"current_range_meters":18400,"station_id":"ce4bh192rcd13ifvqdd0","pricing_plan_id":"cebpf4jnsgd1na2vs0mg"},{"bike_id":"a0dc9d7e-3a26-46a9-9149-6e1dbf31ebf7","system_id":"levelo_inurba_marseille","lat":43.291994,"lon":5.392907,"is_reserved":false,"is_disabled":false,"rental_uris":{"android":"levelo://app?vid=a0dc9d7e-3a26-46a9-9149-6e1dbf31ebf7","ios":"levelo://app?vid=a0dc9d7e-3a26-46a9-9149-6e1dbf31ebf7"},"vehicle_type_id":"4","last_reported":1708275927,"current_range_meters":15600,"station_id":"ce4bh192rcd13ifvqdd0","pricing_plan_id":"cebpf4jnsgd1na2vs0mg"},