{"last_updated":1741810229,"ttl":60,"version":"2.2","data":{"bikes":[{"bike_id":"34966712-9697-4baa-9597-b965cf1f5e4e","system_id":"levelo_inurba_marseille","lat":43.29913,"lon":5.37482,"is_reserved":false,"is_disabled":false,"rental_uris":{"android":"levelo://app?vid=34966712-9697-4baa-9597-b965cf1f5e4e","ios":"levelo://app?vid=34966712-9697-4baa-9597-b965cf1f5e4e"},"vehicle_type_id":"4","last_reported":1741810230,"current_range_meters":2800,"station_id":"ce4bgjh2rcd13ifvqbg0","pricing_plan_id":"cebpf4jnsgd1na2vs0mg"},{"bike_id":"30692acb-d1ed-463b-80ba-7db2b1ab8a9a","system_id":"levelo_inurba_marseille","lat":43.31769,"lon":5.39019,"is_reserved":false,"is_disabled":false,"rental_uris":{"android":"levelo://app?vid=30692acb-d1ed-463b-80ba-7db2b1ab8a9a","ios":"levelo://app?vid=30692acb-d1ed-463b-80ba-7db2b1ab8a9a"},"vehicle_type_id":"4","last_reported":1741810230,"current_range_meters":2800,"station_id":"ce4bhqp2rcd13ifvqhng","pricing_plan_id":"cebpf4jnsgd1na2vs0mg"},{"bike_id":"316b5bae-02d2-4251-b498-740119368ac5","system_id":"levelo_inurba_marseille","lat":43.30648,"lon":5.40102,"is_reserved":false,"is_disabled":false,"rental_uris":{"android":"levelo://app?vid=316b5bae-02d2-4251-b498-740119368ac5","ios":"levelo://app?vid=316b5bae-02d2-4251-b498-740119368ac5"},"vehicle_type_id":"4","last_reported":1741810230,"current_range_meters":3200,"station_id":"ce4bh112rcd13ifvqda0","pricing_plan_id":"cebpf4jnsgd1na2vs0mg"},{"bike_id":"83df1759-a7b4-4aca-907a-29becad66863","system_id":"levelo_inurba_marseille","lat":43.2835,"lon":5.38627,"is_reserved":false,"is_disabled":false,"rental_uris":{"android":"levelo://app?vid=83df1759-a7b4-4aca-907a-29becad66863","ios":"levelo://app?vid=83df1759-a7b4-4aca-907a-29becad66863"},"vehicle_type_id":"4","last_reported":1741810230,"current_range_meters":3200,"station_id":"","pricing_plan_id":"cebpf4jnsgd1na2vs0mg"},{"bike_id":"bf2feb02-4272-4476-92f9-9420844c4078","system_id":"levelo_inurba_marseille","lat":43.31204,"lon":5.37647,"is_reserved":false,"is_disabled":false,"rental_uris":{"android":"levelo://app?vid=bf2feb02-4272-4476-92f9-9420844c4078","ios":"levelo://app?vid=bf2feb02-4272-4476-92f9-9420844c4078"},"vehicle_type_id":"4","last_reported":1741810230,"current_range_meters":3200,"station_id":"","pricing_plan_id":"cebpf4jnsgd1na2vs0mg"},{"bike_id":"8d148f9c-d435-4123-bd0e-8d7ebd73846f","system_id":"levelo_inurba_marseille","lat":43.27045,"lon":5.40262,"is_reserved":false,"is_disabled":true,"rental_uris":{"android":"levelo://app?vid=8d148f9c-d435-4123-bd0e-8d7ebd73846f","ios":"levelo://app?vid=8d148f9c-d435-4123-bd0e-8d7ebd73846f"},"vehicle_type_id":"4","last_reported":1741810230,"current_range_meters":3200,"station_id":"ce4bhk92rcd13ifvqgc0","pricing_plan_id":"cebpf4jnsgd1na2vs0mg"},{"bike_id":"0db9b13e-8ffc-4535-aa2b-ab84b5cfc43d","system_id":"levelo_inurba_marseille","lat":43.30929,"lon":5.40149,"is_reserved":false,"is_disabled":false,"rental_uris":{"android":"levelo://app?vid=0db9b13e-8ffc-4535-aa2b-ab84b5cfc43d","ios":"levelo://app?vid=0db9b13e-8ffc-4535-aa2b-ab84b5cfc43d"},"vehicle_type_id":"4","last_reported":1741810230,"current_range_meters":3600,"station_id":"ce4bgvp2rcd13ifvqct0","pricing_plan_id":"cebpf4jnsgd1na2vs0mg"},{"bike_id":"4c4023c9-2e0f-4e3f-921e-1fa41c1118e8","system_id":"levelo_inurba_marseille","lat":43.285217,"lon":5.383944,"is_reserved":false,"is_disabled":false,"rental_uris":{"android":"levelo://app?vid=4c4023c9-2e0f-4e3f-921e-1fa41c1118e8","ios":"levelo://app?vid=4c4023c9-2e0f-4e3f-921e-1fa41c1118e8"},"vehicle_type_id":"4","last_reported":1741810230,"current_range_meters":800,"station_id":"ce4bho92rcd13ifvqh4g","pricing_plan_id":"cebpf4jnsgd1na2vs0mg"},{"bike_id":"73ec5b48-643f-485f-a254-9a90befd3a79","system_id":"levelo_inurba_marseille","lat":43.2657,"lon":5.39023,"is_reserved":false,"is_disabled":true,"rental_uris":{"android":"levelo://app?vid=73ec5b48-643f-485f-a254-9a90befd3a79","ios":"levelo://app?vid=73ec5b48-643f-485f-a254-9a90befd3a79"},"vehicle_type_id":"4","last_reported":1741810230,"current_range_meters":3600,"station_id":"ce4bhe12rcd13ifvqf30","pricing_plan_id":"cebpf4jnsgd1na2vs0mg"},{"bike_id":"8d4bf0a4-cd38-4e92-8c90-69533c6f2a5d","system_id":"levelo_inurba_marseille","lat":43.23958,"lon":5.36637,"is_reserved":false,"is_disabled":false,"rental_uris":{"android":"levelo://app?vid=8d4bf0a4-cd38-4e92-8c90-69533c6f2a5d","ios":"levelo://app?vid=8d4bf0a4-cd38-4e92-8c90-69533c6f2a5d"},"vehicle_type_id":"4","last_reported":1741810230,"current_range_meters":3600,"station_id":"ce4bhi12rcd13ifvqfp0","pricing_plan_id":"cebpf4jnsgd1na2vs0mg"},{"bike_id":"4cc33604-a423-4582-befb-487fb012f465","system_id":"levelo_inurba_marseille","lat":43.27655,"lon":5.38888,"is_reserved":false,"is_disabled":false,"rental_uris":{"android":"levelo://app?vid=4cc33604-a423-4582-befb-487fb012f465","ios":"levelo://app?vid=4cc33604-a423-4582-befb-487fb012f465"},"vehicle_type_id":"4","last_reported":1741810230,"current_range_meters":4000,"station_id":"ce4bhi12rcd13ifvqfo0","pricing_plan_id":"cebpf4jnsgd1na2vs0mg"},{"bike_id":"5be62f5c-b4d5-490f-97d7-7d11c616d8af","system_id":"levelo_inurba_marseille","lat":43.23064,"lon":5.35525,"is_reserved":false,"is_disabled":false,"rental_uris":{"android":"levelo://app?vid=5be62f5c-b4d5-490f-97d7-7d11c616d8af","ios":"levelo://app?vid=5be62f5c-b4d5-490f-97d7-7d11c616d8af"},"vehicle_type_id":"4","last_reported":1741810230,"current_range_meters":3600,"station_id":"cpo3342slgdg3j2ifvpg","pricing_plan_id":"cebpf4jnsgd1na2vs0mg"},{"bike_id":"c5ede2a7-446d-45c0-822c-0083901af476","system_id":"levelo_inurba_marseille","lat":43.3041,"lon":5.41295,"is_reserved":false,"is_disabled":false,"rental_uris":{"android":"levelo://app?vid=c5ede2a7-446d-45c0-822c-0083901af476","ios":"levelo://app?vid=c5ede2a7-446d-45c0-822c-0083901af476"},"vehicle_type_id":"4","last_reported":1741810230,"current_range_meters":4000,"station_id":"ce4bhop2rcd13ifvqh8g","pricing_plan_id":"cebpf4jnsgd1na2vs0mg"},{"bike_id":"79db7139-7ee9-4fc2-b211-f8b0058e4ba2","system_id":"levelo_inurba_marseille","lat":43.30923,"lon":5.40143,"is_reserved":false,"is_disabled":false,"rental_uris":{"android":"levelo://app?vid=79db7139-7ee9-4fc2-b211-f8b0058e4ba2","ios":"levelo://app?vid=79db7139-7ee9-4fc2-b211-f8b0058e4ba2"},"vehicle_type_id":"4","last_reported":1741810230,"current_range_meters":4000,"station_id":"ce4bgvp2rcd13ifvqct0","pricing_plan_id":"cebpf4jnsgd1na2vs0mg"},{"bike_id":"3b41a26c-8e5a-414f-b3a5-4f3f861c1cdf","system_id":"levelo_inurba_marseille","lat":43.26273,"lon":5.40441,"is_reserved":false,"is_disabled":false,"rental_uris":{"android":"levelo://app?vid=3b41a26c-8e5a-414f-b3a5-4f3f861c1cdf","ios":"levelo://app?vid=3b41a26c-8e5a-414f-b3a5-4f3f861c1cdf"},"vehicle_type_id":"4","last_reported":1741810230,"current_range_meters":4000,"station_id":"","pricing_plan_id":"cebpf4jnsgd1na2vs0mg"},{"bike_id":"45d8d7b0-29eb-4eaf-9ec9-00efd0738f1e","system_id":"levelo_inurba_marseille","lat":43.311863,"lon":5.37391,"is_reserved":false,"is_disabled":false,"rental_uris":{"android":"levelo://app?vid=45d8d7b0-29eb-4eaf-9ec9-00efd0738f1e","ios":"levelo://app?vid=45d8d7b0-29eb-4eaf-9ec9-00efd0738f1e"},"vehicle_type_id":"4","last_reported":1741810230,"current_range_meters":4000,"station_id":"","pricing_plan_id":"cebpf4jnsgd1na2vs0mg"},{"bike_id":"80771939-f406-42f7-81c5-33180fd8a338","system_id":"levelo_inurba_marseille","lat":43.2319,"lon":5.35542,"is_reserved":false,"is_disabled":false,"rental_uris":{"android":"levelo://app?vid=80771939-f406-42f7-81c5-33180fd8a338","ios":"levelo://app?vid=80771939-f406-42f7-81c5-33180fd8a338"},"vehicle_type_id":"4","last_reported":1741810230,"current_range_meters":4000,"station_id":"ce4bhu92rcd13ifvqi70","pricing_plan_id":"cebpf4jnsgd1na2vs0mg"},{"bike_id":"ef202d0e-dca9-4b8a-b2ef-a3e69d908c04","system_id":"levelo_inurba_marseille","lat":43.26225,"lon":5.40459,"is_reserved":false,"is_disabled":false,"rental_uris":{"android":"levelo://app?vid=ef202d0e-dca9-4b8a-b2ef-a3e69d908c04","ios":"levelo://app?vid=ef202d0e-dca9-4b8a-b2ef-a3e69d908c04"},"vehicle_type_id":"4","last_reported":1741810230,"current_range_meters":4400,"station_id":"","pricing_plan_id":"cebpf4jnsgd1na2vs0mg"},{"bike_id":"646c7497-e2cc-4e72-b093-ef25a5493843","system_id":"levelo_inurba_marseille","lat":43.30143,"lon":5.3986,"is_reserved":false,"is_disabled":false,"rental_uris":{"android":"levelo://app?vid=646c7497-e2cc-4e72-b093-ef25a5493843","ios":"levelo://app?vid=646c7497-e2cc-4e72-b093-ef25a5493843"},"vehicle_type_id":"4","last_reported":1741810230,"current_range_meters":4400,"station_id":"ce4bh0h2rcd13ifvqd40","pricing_plan_id":"cebpf4jnsgd1na2vs0mg"},{"bike_id":"12092776-d95f-46d8-b8e1-acedea970a94","system_id":"levelo_inurba_marseille","lat":43.330287,"lon":5.39031,"is_reserved":false,"is_disabled":false,"rental_uris":{"android":"levelo://app?vid=12092776-d95f-46d8-b8e1-acedea970a94","ios":"levelo://app?vid=12092776-d95f-46d8-b8e1-acedea970a94"},"vehicle_type_id":"4","last_reported":1741810230,"current_range_meters":4400,"station_id":"ce4bhr92rcd13ifvqhrg","pricing_plan_id":"cebpf4jnsgd1na2vs0mg"},{"bike_id":"8447b2d4-400b-4f74-8048-25cf7f1ca261","system_id":"levelo_inurba_marseille","lat":43.2319,"lon":5.399787,"is_reserved":false,"is_disabled":false,"rental_uris":{"android":"levelo://app?vid=8447b2d4-400b-4f74-8048-25cf7f1ca261","ios":"levelo://app?vid=8447b2d4-400b-4f74-8048-25cf7f1ca261"},"vehicle_type_id":"4","last_reported":1741810230,"current_range_meters":4800,"station_id":"ce4bhn12rcd13ifvqgqg","pricing_plan_id":"cebpf4jnsgd1na2vs0mg"},{"bike_id":"0e13eaa4-9218-468c-aab4-9d42b806daeb","system_id":"levelo_inurba_marseille","lat":43.30793,"lon":5.38142,"is_reserved":false,"is_disabled":false,"rental_uris":{"android":"levelo://app?vid=0e13eaa4-9218-468c-aab4-9d42b806daeb","ios":"levelo://app?vid=0e13eaa4-9218-468c-aab4-9d42b806daeb"},"vehicle_type_id":"4","last_reported":1741810230,"current_range_meters":4800,"station_id":"ce4bgt12rcd13ifvqce0","pricing_plan_id":"cebpf4jnsgd1na2vs0mg"},{"bike_id":"89f5252d-ca6b-4c4a-8924-1e95cb6ec267","system_id":"levelo_inurba_marseille","lat":43.23965,"lon":5.3666,"is_reserved":false,"is_disabled":false,"rental_uris":{"android":"levelo://app?vid=89f5252d-ca6b-4c4a-8924-1e95cb6ec267","ios":"levelo://app?vid=89f5252d-ca6b-4c4a-8924-1e95cb6ec267"},"vehicle_type_id":"4","last_reported":1741810230,"current_range_meters":4800,"station_id":"ce4bhi12rcd13ifvqfp0","pricing_plan_id":"cebpf4jnsgd1na2vs0mg"},{"bike_id":"220e2787-c788-4091-968f-a5459ad70094","system_id":"levelo_inurba_marseille","lat":43.27069,"lon":5.42278,"is_reserved":false,"is_disabled":false,"rental_uris":{"android":"levelo://app?vid=220e2787-c788-4091-968f-a5459ad70094","ios":"levelo://app?vid=220e2787-c788-4091-968f-a5459ad70094"},"vehicle_type_id":"4","last_reported":1741810230,"current_range_meters":4800,"station_id":"ce4bhk92rcd13ifvqgb0","pricing_plan_id":"cebpf4jnsgd1na2vs0mg"},{"bike_id":"317f83c5-1f6f-423e-89b1-de9e85655a1e","system_id":"levelo_inurba_marseille","lat":43.300179,"lon":5.385884,"is_reserved":false,"is_disabled":false,"rental_uris":{"android":"levelo://app?vid=317f83c5-1f6f-423e-89b1-de9e85655a1e","ios":"levelo://app?vid=317f83c5-1f6f-423e-89b1-de9e85655a1e"},"vehicle_type_id":"4","last_reported":1741810230,"current_range_meters":4800,"station_id":"ce4bh0h2rcd13ifvqd40","pricing_plan_id":"cebpf4jnsgd1na2vs0mg"},{"bike_id":"94eb9559-8c4f-4d60-98ac-469a5ce58b64","system_id":"levelo_inurba_marseille","lat":43.24654,"lon":5.3893,"is_reserved":false,"is_disabled":false,"rental_uris":{"android":"levelo://app?vid=94eb9559-8c4f-4d60-98ac-469a5ce58b64","ios":"levelo://app?vid=94eb9559-8c4f-4d60-98ac-469a5ce58b64"},"vehicle_type_id":"4","last_reported":1741810230,"current_range_meters":4800,"station_id":"ce4bhg12rcd13ifvqf60","pricing_plan_id":"cebpf4jnsgd1na2vs0mg"},{"bike_id":"58d1b5b3-d322-4418-97d0-3066ec3d9afc","system_id":"levelo_inurba_marseille","lat":43.23196,"lon":5.35539,"is_reserved":false,"is_disabled":false,"rental_uris":{"android":"levelo://app?vid=58d1b5b3-d322-4418-97d0-3066ec3d9afc","ios":"levelo://app?vid=58d1b5b3-d322-4418-97d0-3066ec3d9afc"},"vehicle_type_id":"4","last_reported":1741810230,"current_range_meters":4800,"station_id":"ce4bhu92rcd13ifvqi70","pricing_plan_id":"cebpf4jnsgd1na2vs0mg"},{"bike_id":"7897ed63-4f21-4db4-b932-6ec1073d9ede","system_id":"levelo_inurba_marseille","lat":43.25006,"lon":5.38959,"is_reserved":false,"is_disabled":false,"rental_uris":{"android":"levelo://app?vid=7897ed63-4f21-4db4-b932-6ec1073d9ede","ios":"levelo://app?vid=7897ed63-4f21-4db4-b932-6ec1073d9ede"},"vehicle_type_id":"4","last_reported":1741810230,"current_range_meters":5600,"station_id":"ce4bhgp2rcd13ifvqfd0","pricing_plan_id":"cebpf4jnsgd1na2vs0mg"},{"bike_id":"21c763d3-ed9d-428d-8a01-ae3af6de39fb","system_id":"levelo_inurba_marseille","lat":43.3302,"lon":5.39051,"is_reserved":false,"is_disabled":false,"rental_uris":{"android":"levelo://app?vid=21c763d3-ed9d-428d-8a01-ae3af6de39fb","ios":"levelo://app?vid=21c763d3-ed9d-428d-8a01-ae3af6de39fb"},"vehicle_type_id":"4","last_reported":1741810230,"current_range_meters":5600,"station_id":"ce4bhr92rcd13ifvqhrg","pricing_plan_id":"cebpf4jnsgd1na2vs0mg"},{"bike_id":"82cd5ea9-3de1-4625-91cd-cc7216ebca60","system_id":"levelo_inurba_marseille","lat":43.25585,"lon":5.38251,"is_reserved":false,"is_disabled":false,"rental_uris":{"android":"levelo://app?vid=82cd5ea9-3de1-4625-91cd-cc7216ebca60","ios":"levelo://app?vid=82cd5ea9-3de1-4625-91cd-cc7216ebca60"},"vehicle_type_id":"4","last_reported":1741810230,"current_range_meters":5600,"station_id":"ce4bhih2rcd13ifvqfs0","pricing_plan_id":"cebpf4jnsgd1na2vs0mg"},{"bike_id":"02ef198d-2b45-41ca-9831-84d19ac633cd","system_id":"levelo_inurba_marseille","lat":43.24808,"lon":5.37455,"is_reserved":false,"is_disabled":false,"rental_uris":{"android":"levelo://app?vid=02ef198d-2b45-41ca-9831-84d19ac633cd","ios":"levelo://app?vid=02ef198d-2b45-41ca-9831-84d19ac633cd"},"vehicle_type_id":"4","last_reported":1741810230,"current_range_meters":6000,"station_id":"ce4bhgh2rcd13ifvqfb0","pricing_plan_id":"cebpf4jnsgd1na2vs0mg"},{"bike_id":"6d00e3ad-461d-46dc-a418-2daa9b3fc079","system_id":"levelo_inurba_marseille","lat":43.24079,"lon":5.37766,"is_reserved":false,"is_disabled":false,"rental_uris":{"android":"levelo://app?vid=6d00e3ad-461d-46dc-a418-2daa9b3fc079","ios":"levelo://app?vid=6d00e3ad-461d-46dc-a418-2daa9b3fc079"},"vehicle_type_id":"4","last_reported":1741810230,"current_range_meters":6000,"station_id":"ce4bhnp2rcd13ifvqgvg","pricing_plan_id":"cebpf4jnsgd1na2vs0mg"},{"bike_id":"e649e2d0-af54-4ce5-b5f7-1fd68a3b0a85","system_id":"levelo_inurba_marseille","lat":43.28174,"lon":5.4264,"is_reserved":false,"is_disabled":false,"rental_uris":{"android":"levelo://app?vid=e649e2d0-af54-4ce5-b5f7-1fd68a3b0a85","ios":"levelo://app?vid=e649e2d0-af54-4ce5-b5f7-1fd68a3b0a85"},"vehicle_type_id":"4","last_reported":1741810230,"current_range_meters":6000,"station_id":"ce4bhnh2rcd13ifvqgug","pricing_plan_id":"cebpf4jnsgd1na2vs0mg"},{"bike_id":"7c25226e-9ca8-4a5f-af3f-246f6b1df853","system_id":"levelo_inurba_marseille","lat":43.23072,"lon":5.35529,"is_reserved":false,"is_disabled":false,"rental_uris":{"android":"levelo://app?vid=7c25226e-9ca8-4a5f-af3f-246f6b1df853","ios":"levelo://app?vid=7c25226e-9ca8-4a5f-af3f-246f6b1df853"},"vehicle_type_id":"4","last_reported":1741810230,"current_range_meters":6000,"station_id":"cpo3342slgdg3j2ifvpg","pricing_plan_id":"cebpf4jnsgd1na2vs0mg"},{"bike_id":"b8785a4d-9125-4dcf-9521-8aa540b40cb4","system_id":"levelo_inurba_marseille","lat":43.24802,"lon":5.37463,"is_reserved":false,"is_disabled":false,"rental_uris":{"android":"levelo://app?vid=b8785a4d-9125-4dcf-9521-8aa540b40cb4","ios":"levelo://app?vid=b8785a4d-9125-4dcf-9521-8aa540b40cb4"},"vehicle_type_id":"4","last_reported":1741810230,"current_range_meters":6000,"station_id":"ce4bhgh2rcd13ifvqfb0","pricing_plan_id":"cebpf4jnsgd1na2vs0mg"},{"bike_id":"3f034010-0f0b-4a73-aa5f-fd005f333a62","system_id":"levelo_inurba_marseille","lat":43.29031,"lon":5.3865,"is_reserved":false,"is_disabled":false,"rental_uris":{"android":"levelo://app?vid=3f034010-0f0b-4a73-aa5f-fd005f333a62","ios":"levelo://app?vid=3f034010-0f0b-4a73-aa5f-fd005f333a62"},"vehicle_type_id":"4","last_reported":1741810230,"current_range_meters":6000,"station_id":"ce4bh4p2rcd13ifvqe0g","pricing_plan_id":"cebpf4jnsgd1na2vs0mg"},{"bike_id":"5eef5338-ff8a-466a-999e-0f162b00ff22","system_id":"levelo_inurba_marseille","lat":43.245471,"lon":5.395296,"is_reserved":false,"is_disabled":false,"rental_uris":{"android":"levelo://app?vid=5eef5338-ff8a-466a-999e-0f162b00ff22","ios":"levelo://app?vid=5eef5338-ff8a-466a-999e-0f162b00ff22"},"vehicle_type_id":"4","last_reported":1741810230,"current_range_meters":6000,"station_id":"ce4bhlp2rcd13ifvqgjg","pricing_plan_id":"cebpf4jnsgd1na2vs0mg"},{"bike_id":"a144fd25-3ad3-4984-8975-5e50b1ea4ef8","system_id":"levelo_inurba_marseille","lat":43.30322,"lon":5.40442,"is_reserved":false,"is_disabled":false,"rental_uris":{"android":"levelo://app?vid=a144fd25-3ad3-4984-8975-5e50b1ea4ef8","ios":"levelo://app?vid=a144fd25-3ad3-4984-8975-5e50b1ea4ef8"},"vehicle_type_id":"4","last_reported":1741810230,"current_range_meters":6400,"station_id":"ce4bh012rcd13ifvqd10","pricing_plan_id":"cebpf4jnsgd1na2vs0mg"},{"bike_id":"491686d9-e8bc-421b-b9e5-1ce7fb48454d","system_id":"levelo_inurba_marseille","lat":43.28721,"lon":5.361,"is_reserved":false,"is_disabled":false,"rental_uris":{"android":"levelo://app?vid=491686d9-e8bc-421b-b9e5-1ce7fb48454d","ios":"levelo://app?vid=491686d9-e8bc-421b-b9e5-1ce7fb48454d"},"vehicle_type_id":"4","last_reported":1741810230,"current_range_meters":6400,"station_id":"cki0cbj6b192h4jlfktg","pricing_plan_id":"cebpf4jnsgd1na2vs0mg"},{"bike_id":"c8424a2d-efd9-4ccf-9fc2-6fdb41afc986","system_id":"levelo_inurba_marseille","lat":43.28149,"lon":5.42643,"is_reserved":false,"is_disabled":false,"rental_uris":{"android":"levelo://app?vid=c8424a2d-efd9-4ccf-9fc2-6fdb41afc986","ios":"levelo://app?vid=c8424a2d-efd9-4ccf-9fc2-6fdb41afc986"},"vehicle_type_id":"4","last_reported":1741810230,"current_range_meters":6400,"station_id":"ce4bhnh2rcd13ifvqgug","pricing_plan_id":"cebpf4jnsgd1na2vs0mg"},{"bike_id":"d5c6aead-0b4b-49f9-954e-22cf9b9962ba","system_id":"levelo_inurba_marseille","lat":43.31734,"lon":5.37811,"is_reserved":false,"is_disabled":false,"rental_uris":{"android":"levelo://app?vid=d5c6aead-0b4b-49f9-954e-22cf9b9962ba","ios":"levelo://app?vid=d5c6aead-0b4b-49f9-954e-22cf9b9962ba"},"vehicle_type_id":"4","last_reported":1741810230,"current_range_meters":6400,"station_id":"","pricing_plan_id":"cebpf4jnsgd1na2vs0mg"},{"bike_id":"ba3fe920-5434-4622-95af-18ad697e771e","system_id":"levelo_inurba_marseille","lat":43.292543,"lon":5.384412,"is_reserved":false,"is_disabled":false,"rental_uris":{"android":"levelo://app?vid=ba3fe920-5434-4622-95af-18ad697e771e","ios":"levelo://app?vid=ba3fe920-5434-4622-95af-18ad697e771e"},"vehicle_type_id":"4","last_reported":1741810230,"current_range_meters":6400,"station_id":"","pricing_plan_id":"cebpf4jnsgd1na2vs0mg"},{"bike_id":"241d79a7-8164-4ee5-8d3f-2565e2e0b3e8","system_id":"levelo_inurba_marseille","lat":43.31365,"lon":5.37984,"is_reserved":false,"is_disabled":false,"rental_uris":{"android":"levelo://app?vid=241d79a7-8164-4ee5-8d3f-2565e2e0b3e8","ios":"levelo://app?vid=241d79a7-8164-4ee5-8d3f-2565e2e0b3e8"},"vehicle_type_id":"4","last_reported":1741810230,"current_range_meters":6400,"station_id":"","pricing_plan_id":"cebpf4jnsgd1na2vs0mg"},{"bike_id":"1bb5dae5-2cdb-43ae-b04c-dad911982ded","system_id":"levelo_inurba_marseille","lat":43.25114,"lon":5.40316,"is_reserved":false,"is_disabled":false,"rental_uris":{"android":"levelo://app?vid=1bb5dae5-2cdb-43ae-b04c-dad911982ded","ios":"levelo://app?vid=1bb5dae5-2cdb-43ae-b04c-dad911982ded"},"vehicle_type_id":"4","last_reported":1741810230,"current_range_meters":6400,"station_id":"ce4bhlh2rcd13ifvqgig","pricing_plan_id":"cebpf4jnsgd1na2vs0mg"},{"bike_id":"23dc0a7a-ba20-46d2-a451-961ef46474f1","system_id":"levelo_inurba_marseille","lat":43.317564,"lon":5.390474,"is_reserved":false,"is_disabled":false,"rental_uris":{"android":"levelo://app?vid=23dc0a7a-ba20-46d2-a451-961ef46474f1","ios":"levelo://app?vid=23dc0a7a-ba20-46d2-a451-961ef46474f1"},"vehicle_type_id":"4","last_reported":1741810230,"current_range_meters":6400,"station_id":"ce4bhqp2rcd13ifvqhng","pricing_plan_id":"cebpf4jnsgd1na2vs0mg"},{"bike_id":"548caab8-1d2c-4b84-963b-f8217af52e80","system_id":"levelo_inurba_marseille","lat":43.29034,"lon":5.37549,"is_reserved":false,"is_disabled":true,"rental_uris":{"android":"levelo://app?vid=548caab8-1d2c-4b84-963b-f8217af52e80","ios":"levelo://app?vid=548caab8-1d2c-4b84-963b-f8217af52e80"},"vehicle_type_id":"4","last_reported":1741810230,"current_range_meters":6400,"station_id":"ce4bh692rcd13ifvqe90","pricing_plan_id":"cebpf4jnsgd1na2vs0mg"},{"bike_id":"f640465e-8c9e-425a-8e36-08d8d5201bf6","system_id":"levelo_inurba_marseille","lat":43.23191,"lon":5.35542,"is_reserved":false,"is_disabled":false,"rental_uris":{"android":"levelo://app?vid=f640465e-8c9e-425a-8e36-08d8d5201bf6","ios":"levelo://app?vid=f640465e-8c9e-425a-8e36-08d8d5201bf6"},"vehicle_type_id":"4","last_reported":1741810230,"current_range_meters":6400,"station_id":"ce4bhu92rcd13ifvqi70","pricing_plan_id":"cebpf4jnsgd1na2vs0mg"},{"bike_id":"966a843b-2687-4bd7-ad0f-8d17709f0fda","system_id":"levelo_inurba_marseille","lat":43.31076,"lon":5.3836,"is_reserved":false,"is_disabled":false,"rental_uris":{"android":"levelo://app?vid=966a843b-2687-4bd7-ad0f-8d17709f0fda","ios":"levelo://app?vid=966a843b-2687-4bd7-ad0f-8d17709f0fda"},"vehicle_type_id":"4","last_reported":1741810230,"current_range_meters":6800,"station_id":"ce4bgv92rcd13ifvqcr0","pricing_plan_id":"cebpf4jnsgd1na2vs0mg"},{"bike_id":"c47abed3-463e-4702-b23e-85563cf7923d","system_id":"levelo_inurba_marseille","lat":43.31086,"lon":5.4245,"is_reserved":false,"is_disabled":false,"rental_uris":{"android":"levelo://app?vid=c47abed3-463e-4702-b23e-85563cf7923d","ios":"levelo://app?vid=c47abed3-463e-4702-b23e-85563cf7923d"},"vehicle_type_id":"4","last_reported":1741810230,"current_range_meters":6800,"station_id":"ce4bhp92rcd13ifvqhag","pricing_plan_id":"cebpf4jnsgd1na2vs0mg"},{"bike_id":"53bbc677-f662-4a74-ab20-889cce9f6bff","system_id":"levelo_inurba_marseille","lat":43.23197,"lon":5.39996,"is_reserved":false,"is_disabled":false,"rental_uris":{"android":"levelo://app?vid=53bbc677-f662-4a74-ab20-889cce9f6bff","ios":"levelo://app?vid=53bbc677-f662-4a74-ab20-889cce9f6bff"},"vehicle_type_id":"4","last_reported":1741810230,"current_range_meters":6800,"station_id":"ce4bhn12rcd13ifvqgqg","pricing_plan_id":"cebpf4jnsgd1na2vs0mg"},{"bike_id":"0413bf20-894d-4a93-a797-b6134ae0d72f","system_id":"levelo_inurba_marseille","lat":43.33031,"lon":5.3905,"is_reserved":false,"is_disabled":false,"rental_uris":{"android":"levelo://app?vid=0413bf20-894d-4a93-a797-b6134ae0d72f","ios":"levelo://app?vid=0413bf20-894d-4a93-a797-b6134ae0d72f"},"vehicle_type_id":"4","last_reported":1741810230,"current_range_meters":6800,"station_id":"ce4bhr92rcd13ifvqhrg","pricing_plan_id":"cebpf4jnsgd1na2vs0mg"},{"bike_id":"6ad86d5a-76fb-46d5-a748-0ff75bbbed78","system_id":"levelo_inurba_marseille","lat":43.31321,"lon":5.39675,"is_reserved":false,"is_disabled":false,"rental_uris":{"android":"levelo://app?vid=6ad86d5a-76fb-46d5-a748-0ff75bbbed78","ios":"levelo://app?vid=6ad86d5a-76fb-46d5-a748-0ff75bbbed78"},"vehicle_type_id":"4","last_reported":1741810230,"current_range_meters":6800,"station_id":"ce4bgvp2rcd13ifvqcu0","pricing_plan_id":"cebpf4jnsgd1na2vs0mg"},{"bike_id":"7c253b93-b8df-4e2c-8b02-f2088c573708","system_id":"levelo_inurba_marseille","lat":43.25742,"lon":5.41128,"is_reserved":false,"is_disabled":false,"rental_uris":{"android":"levelo://app?vid=7c253b93-b8df-4e2c-8b02-f2088c573708","ios":"levelo://app?vid=7c253b93-b8df-4e2c-8b02-f2088c573708"},"vehicle_type_id":"4","last_reported":1741810230,"current_range_meters":6800,"station_id":"ce4bhkp2rcd13ifvqgd0","pricing_plan_id":"cebpf4jnsgd1na2vs0mg"},{"bike_id":"f1c0d483-c580-4378-87bc-d11122fe1b18","system_id":"levelo_inurba_marseille","lat":43.29254,"lon":5.38439,"is_reserved":false,"is_disabled":true,"rental_uris":{"android":"levelo://app?vid=f1c0d483-c580-4378-87bc-d11122fe1b18","ios":"levelo://app?vid=f1c0d483-c580-4378-87bc-d11122fe1b18"},"vehicle_type_id":"4","last_reported":1741810230,"current_range_meters":6800,"station_id":"ce4bh692rcd13ifvqea0","pricing_plan_id":"cebpf4jnsgd1na2vs0mg"},{"bike_id":"83ce6271-ffa3-4e21-8aee-eef24c3cb1c8","system_id":"levelo_inurba_marseille","lat":43.2587,"lon":5.39898,"is_reserved":false,"is_disabled":false,"rental_uris":{"android":"levelo://app?vid=83ce6271-ffa3-4e21-8aee-eef24c3cb1c8","ios":"levelo://app?vid=83ce6271-ffa3-4e21-8aee-eef24c3cb1c8"},"vehicle_type_id":"4","last_reported":1741810230,"current_range_meters":6800,"station_id":"ce4bhl92rcd13ifvqghg","pricing_plan_id":"cebpf4jnsgd1na2vs0mg"},{"bike_id":"985ba300-542a-4309-8532-765e28bc8981","system_id":"levelo_inurba_marseille","lat":43.30808,"lon":5.36967,"is_reserved":false,"is_disabled":false,"rental_uris":{"android":"levelo://app?vid=985ba300-542a-4309-8532-765e28bc8981","ios":"levelo://app?vid=985ba300-542a-4309-8532-765e28bc8981"},"vehicle_type_id":"4","last_reported":1741810230,"current_range_meters":6800,"station_id":"","pricing_plan_id":"cebpf4jnsgd1na2vs0mg"},{"bike_id":"95c4f609-4057-4688-9b5c-93c1039e1099","system_id":"levelo_inurba_marseille","lat":43.24543,"lon":5.39527,"is_reserved":false,"is_disabled":false,"rental_uris":{"android":"levelo://app?vid=95c4f609-4057-4688-9b5c-93c1039e1099","ios":"levelo://app?vid=95c4f609-4057-4688-9b5c-93c1039e1099"},"vehicle_type_id":"4","last_reported":1741810230,"current_range_meters":6800,"station_id":"ce4bhlp2rcd13ifvqgjg","pricing_plan_id":"cebpf4jnsgd1na2vs0mg"},{"bike_id":"a58f07f0-b33f-4953-ab0c-f29dc5595b36","system_id":"levelo_inurba_marseille","lat":43.29086,"lon":5.3817,"is_reserved":false,"is_disabled":true,"rental_uris":{"android":"levelo://app?vid=a58f07f0-b33f-4953-ab0c-f29dc5595b36","ios":"levelo://app?vid=a58f07f0-b33f-4953-ab0c-f29dc5595b36"},"vehicle_type_id":"4","last_reported":1741810230,"current_range_meters":7200,"station_id":"ce4bh512rcd13ifvqe2g","pricing_plan_id":"cebpf4jnsgd1na2vs0mg"},{"bike_id":"415e7a31-245d-4ead-9f33-dad092a04302","system_id":"levelo_inurba_marseille","lat":43.23056,"lon":5.35499,"is_reserved":false,"is_disabled":false,"rental_uris":{"android":"levelo://app?vid=415e7a31-245d-4ead-9f33-dad092a04302","ios":"levelo://app?vid=415e7a31-245d-4ead-9f33-dad092a04302"},"vehicle_type_id":"4","last_reported":1741810230,"current_range_meters":7200,"station_id":"cpo3342slgdg3j2ifvpg","pricing_plan_id":"cebpf4jnsgd1na2vs0mg"},{"bike_id":"ec7636d9-c431-41af-a857-6c3774ce8c27","system_id":"levelo_inurba_marseille","lat":43.300227,"lon":5.382939,"is_reserved":false,"is_disabled":false,"rental_uris":{"android":"levelo://app?vid=ec7636d9-c431-41af-a857-6c3774ce8c27","ios":"levelo://app?vid=ec7636d9-c431-41af-a857-6c3774ce8c27"},"vehicle_type_id":"4","last_reported":1741810230,"current_range_meters":7200,"station_id":"ce4bgup2rcd13ifvqcn0","pricing_plan_id":"cebpf4jnsgd1na2vs0mg"},{"bike_id":"fc5a7c45-870a-405a-84fc-1dd285385011","system_id":"levelo_inurba_marseille","lat":43.29201,"lon":5.39322,"is_reserved":false,"is_disabled":false,"rental_uris":{"android":"levelo://app?vid=fc5a7c45-870a-405a-84fc-1dd285385011","ios":"levelo://app?vid=fc5a7c45-870a-405a-84fc-1dd285385011"},"vehicle_type_id":"4","last_reported":1741810230,"current_range_meters":7200,"station_id":"ce4bh192rcd13ifvqdd0","pricing_plan_id":"cebpf4jnsgd1na2vs0mg"},{"bike_id":"da440fc7-ae9a-4b21-83c8-a8e662a14c16","system_id":"levelo_inurba_marseille","lat":43.254928,"lon":5.376514,"is_reserved":false,"is_disabled":true,"rental_uris":{"android":"levelo://app?vid=da440fc7-ae9a-4b21-83c8-a8e662a14c16","ios":"levelo://app?vid=da440fc7-ae9a-4b21-83c8-a8e662a14c16"},"vehicle_type_id":"4","last_reported":1741810230,"current_range_meters":7200,"station_id":"ce4bhh12rcd13ifvqff0","pricing_plan_id":"cebpf4jnsgd1na2vs0mg"},{"bike_id":"05388ace-665a-4114-a828-939b708a2589","system_id":"levelo_inurba_marseille","lat":43.23192,"lon":5.39986,"is_reserved":false,"is_disabled":false,"rental_uris":{"android":"levelo://app?vid=05388ace-665a-4114-a828-939b708a2589","ios":"levelo://app?vid=05388ace-665a-4114-a828-939b708a2589"},"vehicle_type_id":"4","last_reported":1741810230,"current_range_meters":7200,"station_id":"ce4bhn12rcd13ifvqgqg","pricing_plan_id":"cebpf4jnsgd1na2vs0mg"},{"bike_id":"4842aa1d-bfa9-45d0-b715-b6d91aa65720","system_id":"levelo_inurba_marseille","lat":43.29265,"lon":5.38438,"is_reserved":false,"is_disabled":false,"rental_uris":{"android":"levelo://app?vid=4842aa1d-bfa9-45d0-b715-b6d91aa65720","ios":"levelo://app?vid=4842aa1d-bfa9-45d0-b715-b6d91aa65720"},"vehicle_type_id":"4","last_reported":1741810230,"current_range_meters":7200,"station_id":"ce4bh692rcd13ifvqea0","pricing_plan_id":"cebpf4jnsgd1na2vs0mg"},{"bike_id":"e12be538-6dde-4604-98c7-f66a323a5270","system_id":"levelo_inurba_marseille","lat":43.23059,"lon":5.35492,"is_reserved":false,"is_disabled":false,"rental_uris":{"android":"levelo://app?vid=e12be538-6dde-4604-98c7-f66a323a5270","ios":"levelo://app?vid=e12be538-6dde-4604-98c7-f66a323a5270"},"vehicle_type_id":"4","last_reported":1741810230,"current_range_meters":7200,"station_id":"cpo3342slgdg3j2ifvpg","pricing_plan_id":"cebpf4jnsgd1na2vs0mg"},{"bike_id":"feb4b9df-ca5a-441d-8892-405597e7da99","system_id":"levelo_inurba_marseille","lat":43.2305,"lon":5.35489,"is_reserved":false,"is_disabled":false,"rental_uris":{"android":"levelo://app?vid=feb4b9df-ca5a-441d-8892-405597e7da99","ios":"levelo://app?vid=feb4b9df-ca5a-441d-8892-405597e7da99"},"vehicle_type_id":"4","last_reported":1741810230,"current_range_meters":7200,"station_id":"cpo3342slgdg3j2ifvpg","pricing_plan_id":"cebpf4jnsgd1na2vs0mg"},{"bike_id":"85190d16-c224-48dc-8802-8ebd72f08a4c","system_id":"levelo_inurba_marseille","lat":43.25116,"lon":5.40321,"is_reserved":false,"is_disabled":false,"rental_uris":{"android":"levelo://app?vid=85190d16-c224-48dc-8802-8ebd72f08a4c","ios":"levelo://app?vid=85190d16-c224-48dc-8802-8ebd72f08a4c"},"vehicle_type_id":"4","last_reported":1741810230,"current_range_meters":8000,"station_id":"ce4bhlh2rcd13ifvqgig","pricing_plan_id":"cebpf4jnsgd1na2vs0mg"},{"bike_id":"ed596a7c-cda2-45ef-b25e-62c3bde0748a","system_id":"levelo_inurba_marseille","lat":43.24984,"lon":5.38923,"is_reserved":false,"is_disabled":false,"rental_uris":{"android":"levelo://app?vid=ed596a7c-cda2-45ef-b25e-62c3bde0748a","ios":"levelo://app?vid=ed596a7c-cda2-45ef-b25e-62c3bde0748a"},"vehicle_type_id":"4","last_reported":1741810230,"current_range_meters":8000,"station_id":"ce4bhgp2rcd13ifvqfd0","pricing_plan_id":"cebpf4jnsgd1na2vs0mg"},{"bike_id":"efab6700-508c-45e7-a250-bfb1d4670a97","system_id":"levelo_inurba_marseille","lat":43.31349,"lon":5.39709,"is_reserved":false,"is_disabled":false,"rental_uris":{"android":"levelo://app?vid=efab6700-508c-45e7-a250-bfb1d4670a97","ios":"levelo://app?vid=efab6700-508c-45e7-a250-bfb1d4670a97"},"vehicle_type_id":"4","last_reported":1741810230,"current_range_meters":8000,"station_id":"ce4bgvp2rcd13ifvqcu0","pricing_plan_id":"cebpf4jnsgd1na2vs0mg"},{"bike_id":"72de4c85-7223-490f-9219-5d9d46436df5","system_id":"levelo_inurba_marseille","lat":43.33175,"lon":5.39468,"is_reserved":false,"is_disabled":false,"rental_uris":{"android":"levelo://app?vid=72de4c85-7223-490f-9219-5d9d46436df5","ios":"levelo://app?vid=72de4c85-7223-490f-9219-5d9d46436df5"},"vehicle_type_id":"4","last_reported":1741810230,"current_range_meters":8000,"station_id":"","pricing_plan_id":"cebpf4jnsgd1na2vs0mg"},{"bike_id":"614fad4b-6502-494f-a7a0-83469c67f655","system_id":"levelo_inurba_marseille","lat":43.29491,"lon":5.37755,"is_reserved":false,"is_disabled":false,"rental_uris":{"android":"levelo://app?vid=614fad4b-6502-494f-a7a0-83469c67f655","ios":"levelo://app?vid=614fad4b-6502-494f-a7a0-83469c67f655"},"vehicle_type_id":"4","last_reported":1741810230,"current_range_meters":8000,"station_id":"","pricing_plan_id":"cebpf4jnsgd1na2vs0mg"},{"bike_id":"5690ec94-ec16-4589-91cd-123f3d47282d","system_id":"levelo_inurba_marseille","lat":43.28922,"lon":5.38407,"is_reserved":false,"is_disabled":false,"rental_uris":{"android":"levelo://app?vid=5690ec94-ec16-4589-91cd-123f3d47282d","ios":"levelo://app?vid=5690ec94-ec16-4589-91cd-123f3d47282d"},"vehicle_type_id":"4","last_reported":1741810230,"current_range_meters":8000,"station_id":"ce4bh612rcd13ifvqe6g","pricing_plan_id":"cebpf4jnsgd1na2vs0mg"},{"bike_id":"c1883f69-20d3-4090-b7ad-cadabe4aa4fd","system_id":"levelo_inurba_marseille","lat":43.25874,"lon":5.39906,"is_reserved":false,"is_disabled":false,"rental_uris":{"android":"levelo://app?vid=c1883f69-20d3-4090-b7ad-cadabe4aa4fd","ios":"levelo://app?vid=c1883f69-20d3-4090-b7ad-cadabe4aa4fd"},"vehicle_type_id":"4","last_reported":1741810230,"current_range_meters":8000,"station_id":"ce4bhl92rcd13ifvqghg","pricing_plan_id":"cebpf4jnsgd1na2vs0mg"},{"bike_id":"7a187301-a7c5-4037-8f37-5b7c3770439a","system_id":"levelo_inurba_marseille","lat":43.29832,"lon":5.38127,"is_reserved":false,"is_disabled":false,"rental_uris":{"android":"levelo://app?vid=7a187301-a7c5-4037-8f37-5b7c3770439a","ios":"levelo://app?vid=7a187301-a7c5-4037-8f37-5b7c3770439a"},"vehicle_type_id":"4","last_reported":1741810230,"current_range_meters":8000,"station_id":"ce4bgip2rcd13ifvqbb0","pricing_plan_id":"cebpf4jnsgd1na2vs0mg"},{"bike_id":"8b6c96b0-c180-4024-b6d1-b96a5d1b6e43","system_id":"levelo_inurba_marseille","lat":43.29871,"lon":5.38903,"is_reserved":false,"is_disabled":false,"rental_uris":{"android":"levelo://app?vid=8b6c96b0-c180-4024-b6d1-b96a5d1b6e43","ios":"levelo://app?vid=8b6c96b0-c180-4024-b6d1-b96a5d1b6e43"},"vehicle_type_id":"4","last_reported":1741810230,"current_range_meters":8400,"station_id":"ce4bh392rcd13ifvqdl0","pricing_plan_id":"cebpf4jnsgd1na2vs0mg"},{"bike_id":"2931d81f-abb3-45b8-9224-dc3fce2fae31","system_id":"levelo_inurba_marseille","lat":43.32373,"lon":5.3676,"is_reserved":false,"is_disabled":false,"rental_uris":{"android":"levelo://app?vid=2931d81f-abb3-45b8-9224-dc3fce2fae31","ios":"levelo://app?vid=2931d81f-abb3-45b8-9224-dc3fce2fae31"},"vehicle_type_id":"4","last_reported":1741810230,"current_range_meters":8400,"station_id":"ce4bhsh2rcd13ifvqi2g","pricing_plan_id":"cebpf4jnsgd1na2vs0mg"},{"bike_id":"15bb1926-a5ea-48bf-9297-7a13c2ebbc48","system_id":"levelo_inurba_marseille","lat":43.30312,"lon":5.36907,"is_reserved":false,"is_disabled":false,"rental_uris":{"android":"levelo://app?vid=15bb1926-a5ea-48bf-9297-7a13c2ebbc48","ios":"levelo://app?vid=15bb1926-a5ea-48bf-9297-7a13c2ebbc48"},"vehicle_type_id":"4","last_reported":1741810230,"current_range_meters":8400,"station_id":"ce4bgqh2rcd13ifvqc5g","pricing_plan_id":"cebpf4jnsgd1na2vs0mg"},{"bike_id":"29845dc5-37a0-4fe4-ad83-a244b4c5c8a7","system_id":"levelo_inurba_marseille","lat":43.28147,"lon":5.42669,"is_reserved":false,"is_disabled":false,"rental_uris":{"android":"levelo://app?vid=29845dc5-37a0-4fe4-ad83-a244b4c5c8a7","ios":"levelo://app?vid=29845dc5-37a0-4fe4-ad83-a244b4c5c8a7"},"vehicle_type_id":"4","last_reported":1741810230,"current_range_meters":8400,"station_id":"ce4bhnh2rcd13ifvqgug","pricing_plan_id":"cebpf4jnsgd1na2vs0mg"},{"bike_id":"4bd1d516-27fc-4a7a-a82b-0dd452c88ab3","system_id":"levelo_inurba_marseille","lat":43.27493,"lon":5.42466,"is_reserved":false,"is_disabled":false,"rental_uris":{"android":"levelo://app?vid=4bd1d516-27fc-4a7a-a82b-0dd452c88ab3","ios":"levelo://app?vid=4bd1d516-27fc-4a7a-a82b-0dd452c88ab3"},"vehicle_type_id":"4","last_reported":1741810230,"current_range_meters":8400,"station_id":"ce4bhn92rcd13ifvqgrg","pricing_plan_id":"cebpf4jnsgd1na2vs0mg"},{"bike_id":"c4df4535-7d31-495a-82fb-c042b3676ebe","system_id":"levelo_inurba_marseille","lat":43.32344,"lon":5.40616,"is_reserved":false,"is_disabled":false,"rental_uris":{"android":"levelo://app?vid=c4df4535-7d31-495a-82fb-c042b3676ebe","ios":"levelo://app?vid=c4df4535-7d31-495a-82fb-c042b3676ebe"},"vehicle_type_id":"4","last_reported":1741810230,"current_range_meters":8400,"station_id":"ce4bhq92rcd13ifvqhjg","pricing_plan_id":"cebpf4jnsgd1na2vs0mg"},{"bike_id":"d1309957-921e-405b-b003-407a2d70e92c","system_id":"levelo_inurba_marseille","lat":43.29092,"lon":5.38165,"is_reserved":false,"is_disabled":false,"rental_uris":{"android":"levelo://app?vid=d1309957-921e-405b-b003-407a2d70e92c","ios":"levelo://app?vid=d1309957-921e-405b-b003-407a2d70e92c"},"vehicle_type_id":"4","last_reported":1741810230,"current_range_meters":8400,"station_id":"ce4bh512rcd13ifvqe2g","pricing_plan_id":"cebpf4jnsgd1na2vs0mg"},{"bike_id":"ed99b5a4-565a-48f2-a378-7a7756ae714a","system_id":"levelo_inurba_marseille","lat":43.24543,"lon":5.39534,"is_reserved":false,"is_disabled":false,"rental_uris":{"android":"levelo://app?vid=ed99b5a4-565a-48f2-a378-7a7756ae714a","ios":"levelo://app?vid=ed99b5a4-565a-48f2-a378-7a7756ae714a"},"vehicle_type_id":"4","last_reported":1741810230,"current_range_meters":8400,"station_id":"ce4bhlp2rcd13ifvqgjg","pricing_plan_id":"cebpf4jnsgd1na2vs0mg"},{"bike_id":"f15f3c20-ad0e-4529-827f-c670e6f61edd","system_id":"levelo_inurba_marseille","lat":43.29626,"lon":5.37743,"is_reserved":false,"is_disabled":false,"rental_uris":{"android":"levelo://app?vid=f15f3c20-ad0e-4529-827f-c670e6f61edd","ios":"levelo://app?vid=f15f3c20-ad0e-4529-827f-c670e6f61edd"},"vehicle_type_id":"4","last_reported":1741810230,"current_range_meters":8000,"station_id":"ce4bgi92rcd13ifvqb90","pricing_plan_id":"cebpf4jnsgd1na2vs0mg"},{"bike_id":"03a1a681-1ea8-4891-8277-9498f705c251","system_id":"levelo_inurba_marseille","lat":43.2997,"lon":5.38518,"is_reserved":false,"is_disabled":false,"rental_uris":{"android":"levelo://app?vid=03a1a681-1ea8-4891-8277-9498f705c251","ios":"levelo://app?vid=03a1a681-1ea8-4891-8277-9498f705c251"},"vehicle_type_id":"4","last_reported":1741810230,"current_range_meters":8400,"station_id":"ce4bgj92rcd13ifvqbd0","pricing_plan_id":"cebpf4jnsgd1na2vs0mg"},{"bike_id":"f829a819-671e-4b71-9c22-56c5f8047725","system_id":"levelo_inurba_marseille","lat":43.32372,"lon":5.36733,"is_reserved":false,"is_disabled":false,"rental_uris":{"android":"levelo://app?vid=f829a819-671e-4b71-9c22-56c5f8047725","ios":"levelo://app?vid=f829a819-671e-4b71-9c22-56c5f8047725"},"vehicle_type_id":"4","last_reported":1741810230,"current_range_meters":8400,"station_id":"ce4bhsh2rcd13ifvqi2g","pricing_plan_id":"cebpf4jnsgd1na2vs0mg"},{"bike_id":"ece86757-6640-491c-a421-ba8c6be1515c","system_id":"levelo_inurba_marseille","lat":43.25113,"lon":5.40315,"is_reserved":false,"is_disabled":false,"rental_uris":{"android":"levelo://app?vid=ece86757-6640-491c-a421-ba8c6be1515c","ios":"levelo://app?vid=ece86757-6640-491c-a421-ba8c6be1515c"},"vehicle_type_id":"4","last_reported":1741810230,"current_range_meters":8000,"station_id":"ce4bhlh2rcd13ifvqgig","pricing_plan_id":"cebpf4jnsgd1na2vs0mg"},{"bike_id":"f076f6f7-e4b4-48be-92db-c2ec27c500f6","system_id":"levelo_inurba_marseille","lat":43.231935,"lon":5.399895,"is_reserved":false,"is_disabled":false,"rental_uris":{"android":"levelo://app?vid=f076f6f7-e4b4-48be-92db-c2ec27c500f6","ios":"levelo://app?vid=f076f6f7-e4b4-48be-92db-c2ec27c500f6"},"vehicle_type_id":"4","last_reported":1741810230,"current_range_meters":8800,"station_id":"ce4bhn12rcd13ifvqgqg","pricing_plan_id":"cebpf4jnsgd1na2vs0mg"},{"bike_id":"95583956-9373-403e-a9b7-af095ab52947","system_id":"levelo_inurba_marseille","lat":43.30921,"lon":5.40152,"is_reserved":false,"is_disabled":false,"rental_uris":{"android":"levelo://app?vid=95583956-9373-403e-a9b7-af095ab52947","ios":"levelo://app?vid=95583956-9373-403e-a9b7-af095ab52947"},"vehicle_type_id":"4","last_reported":1741810230,"current_range_meters":8800,"station_id":"ce4bgvp2rcd13ifvqct0","pricing_plan_id":"cebpf4jnsgd1na2vs0mg"},{"bike_id":"385dd9cb-1d33-48e9-8250-88818c623a92","system_id":"levelo_inurba_marseille","lat":43.26072,"lon":5.39401,"is_reserved":false,"is_disabled":false,"rental_uris":{"android":"levelo://app?vid=385dd9cb-1d33-48e9-8250-88818c623a92","ios":"levelo://app?vid=385dd9cb-1d33-48e9-8250-88818c623a92"},"vehicle_type_id":"4","last_reported":1741810230,"current_range_meters":8800,"station_id":"ce4bhh92rcd13ifvqfj0","pricing_plan_id":"cebpf4jnsgd1na2vs0mg"},{"bike_id":"dc038e5c-17ee-4ef4-9523-3c21813a7ccf","system_id":"levelo_inurba_marseille","lat":43.29785,"lon":5.39346,"is_reserved":false,"is_disabled":false,"rental_uris":{"android":"levelo://app?vid=dc038e5c-17ee-4ef4-9523-3c21813a7ccf","ios":"levelo://app?vid=dc038e5c-17ee-4ef4-9523-3c21813a7ccf"},"vehicle_type_id":"4","last_reported":1741810230,"current_range_meters":8800,"station_id":"chh1huq6cuj3fo74tm60","pricing_plan_id":"cebpf4jnsgd1na2vs0mg"},{"bike_id":"37bbdeca-efb1-47cc-a6d0-2b6f1de12cf4","system_id":"levelo_inurba_marseille","lat":43.28034,"lon":5.36947,"is_reserved":false,"is_disabled":false,"rental_uris":{"android":"levelo://app?vid=37bbdeca-efb1-47cc-a6d0-2b6f1de12cf4","ios":"levelo://app?vid=37bbdeca-efb1-47cc-a6d0-2b6f1de12cf4"},"vehicle_type_id":"4","last_reported":1741810230,"current_range_meters":8800,"station_id":"ce4bha12rcd13ifvqef0","pricing_plan_id":"cebpf4jnsgd1na2vs0mg"},{"bike_id":"8dee66dd-a753-4e90-9df0-a75f60b0d66f","system_id":"levelo_inurba_marseille","lat":43.28576,"lon":5.42498,"is_reserved":false,"is_disabled":false,"rental_uris":{"android":"levelo://app?vid=8dee66dd-a753-4e90-9df0-a75f60b0d66f","ios":"levelo://app?vid=8dee66dd-a753-4e90-9df0-a75f60b0d66f"},"vehicle_type_id":"4","last_reported":1741810230,"current_range_meters":8800,"station_id":"","pricing_plan_id":"cebpf4jnsgd1na2vs0mg"},{"bike_id":"d7aaef38-7eff-471c-ba72-07e0eabbfe50","system_id":"levelo_inurba_marseille","lat":43.27951,"lon":5.41042,"is_reserved":false,"is_disabled":false,"rental_uris":{"android":"levelo://app?vid=d7aaef38-7eff-471c-ba72-07e0eabbfe50","ios":"levelo://app?vid=d7aaef38-7eff-471c-ba72-07e0eabbfe50"},"vehicle_type_id":"4","last_reported":1741810230,"current_range_meters":8800,"station_id":"ce4bhnp2rcd13ifvqh0g","pricing_plan_id":"cebpf4jnsgd1na2vs0mg"},{"bike_id":"03fcef79-f017-4d15-a10d-891c5cd96db2","system_id":"levelo_inurba_marseille","lat":43.23058,"lon":5.35495,"is_reserved":false,"is_disabled":false,"rental_uris":{"android":"levelo://app?vid=03fcef79-f017-4d15-a10d-891c5cd96db2","ios":"levelo://app?vid=03fcef79-f017-4d15-a10d-891c5cd96db2"},"vehicle_type_id":"4","last_reported":1741810230,"current_range_meters":8800,"station_id":"cpo3342slgdg3j2ifvpg","pricing_plan_id":"cebpf4jnsgd1na2vs0mg"},{"bike_id":"a4ce6389-69c8-41eb-a2cb-27e113df5153","system_id":"levelo_inurba_marseille","lat":43.28606,"lon":5.35072,"is_reserved":false,"is_disabled":false,"rental_uris":{"android":"levelo://app?vid=a4ce6389-69c8-41eb-a2cb-27e113df5153","ios":"levelo://app?vid=a4ce6389-69c8-41eb-a2cb-27e113df5153"},"vehicle_type_id":"4","last_reported":1741810230,"current_range_meters":9200,"station_id":"ce4bhch2rcd13ifvqeug","pricing_plan_id":"cebpf4jnsgd1na2vs0mg"},{"bike_id":"d4901050-ed00-405e-bcc8-0016550800c4","system_id":"levelo_inurba_marseille","lat":43.30093,"lon":5.39085,"is_reserved":false,"is_disabled":false,"rental_uris":{"android":"levelo://app?vid=d4901050-ed00-405e-bcc8-0016550800c4","ios":"levelo://app?vid=d4901050-ed00-405e-bcc8-0016550800c4"},"vehicle_type_id":"4","last_reported":1741810230,"current_range_meters":9200,"station_id":"ce4bh192rcd13ifvqdb0","pricing_plan_id":"cebpf4jnsgd1na2vs0mg"},{"bike_id":"707f97a7-32db-422b-bfa8-ef8d193a1bb4","system_id":"levelo_inurba_marseille","lat":43.22928,"lon":5.35394,"is_reserved":false,"is_disabled":false,"rental_uris":{"android":"levelo://app?vid=707f97a7-32db-422b-bfa8-ef8d193a1bb4","ios":"levelo://app?vid=707f97a7-32db-422b-bfa8-ef8d193a1bb4"},"vehicle_type_id":"4","last_reported":1741810230,"current_range_meters":9200,"station_id":"cpo3532slgdg3j2ikp40","pricing_plan_id":"cebpf4jnsgd1na2vs0mg"},{"bike_id":"aeca8d61-61f7-41ab-a0ef-f49a44bca5c8","system_id":"levelo_inurba_marseille","lat":43.28982,"lon":5.35609,"is_reserved":false,"is_disabled":true,"rental_uris":{"android":"levelo://app?vid=aeca8d61-61f7-41ab-a0ef-f49a44bca5c8","ios":"levelo://app?vid=aeca8d61-61f7-41ab-a0ef-f49a44bca5c8"},"vehicle_type_id":"4","last_reported":1741810230,"current_range_meters":9200,"station_id":"ce4bhb92rcd13ifvqen0","pricing_plan_id":"cebpf4jnsgd1na2vs0mg"},{"bike_id":"f4f6951d-a3fd-42a9-86a0-c61cdb750c82","system_id":"levelo_inurba_marseille","lat":43.25092,"lon":5.39518,"is_reserved":false,"is_disabled":false,"rental_uris":{"android":"levelo://app?vid=f4f6951d-a3fd-42a9-86a0-c61cdb750c82","ios":"levelo://app?vid=f4f6951d-a3fd-42a9-86a0-c61cdb750c82"},"vehicle_type_id":"4","last_reported":1741810230,"current_range_meters":9200,"station_id":"ce4bhm12rcd13ifvqgkg","pricing_plan_id":"cebpf4jnsgd1na2vs0mg"},{"bike_id":"f82b5a4a-3803-4ccc-a27e-93c32c4ac78b","system_id":"levelo_inurba_marseille","lat":43.3043,"lon":5.41281,"is_reserved":false,"is_disabled":false,"rental_uris":{"android":"levelo://app?vid=f82b5a4a-3803-4ccc-a27e-93c32c4ac78b","ios":"levelo://app?vid=f82b5a4a-3803-4ccc-a27e-93c32c4ac78b"},"vehicle_type_id":"4","last_reported":1741810230,"current_range_meters":9200,"station_id":"ce4bhop2rcd13ifvqh8g","pricing_plan_id":"cebpf4jnsgd1na2vs0mg"},{"bike_id":"276d27e1-7373-4064-b633-207b606ee1fb","system_id":"levelo_inurba_marseille","lat":43.2924,"lon":5.38441,"is_reserved":false,"is_disabled":false,"rental_uris":{"android":"levelo://app?vid=276d27e1-7373-4064-b633-207b606ee1fb","ios":"levelo://app?vid=276d27e1-7373-4064-b633-207b606ee1fb"},"vehicle_type_id":"4","last_reported":1741810230,"current_range_meters":9200,"station_id":"ce4bh692rcd13ifvqea0","pricing_plan_id":"cebpf4jnsgd1na2vs0mg"},{"bike_id":"6190eac7-4d69-4aee-8885-569caf678aef","system_id":"levelo_inurba_marseille","lat":43.25708,"lon":5.41051,"is_reserved":false,"is_disabled":false,"rental_uris":{"android":"levelo://app?vid=6190eac7-4d69-4aee-8885-569caf678aef","ios":"levelo://app?vid=6190eac7-4d69-4aee-8885-569caf678aef"},"vehicle_type_id":"4","last_reported":1741810230,"current_range_meters":9200,"station_id":"ce4bhkp2rcd13ifvqgd0","pricing_plan_id":"cebpf4jnsgd1na2vs0mg"},{"bike_id":"8ca3f336-10d2-4fd1-806d-fe3fa7c2deb3","system_id":"levelo_inurba_marseille","lat":43.29405,"lon":5.3858,"is_reserved":false,"is_disabled":false,"rental_uris":{"android":"levelo://app?vid=8ca3f336-10d2-4fd1-806d-fe3fa7c2deb3","ios":"levelo://app?vid=8ca3f336-10d2-4fd1-806d-fe3fa7c2deb3"},"vehicle_type_id":"4","last_reported":1741810230,"current_range_meters":9200,"station_id":"ce4bh2h2rcd13ifvqdh0","pricing_plan_id":"cebpf4jnsgd1na2vs0mg"},{"bike_id":"1bb0937d-9ba1-4ef6-b9f0-674b69c5806f","system_id":"levelo_inurba_marseille","lat":43.29552,"lon":5.39434,"is_reserved":false,"is_disabled":false,"rental_uris":{"android":"levelo://app?vid=1bb0937d-9ba1-4ef6-b9f0-674b69c5806f","ios":"levelo://app?vid=1bb0937d-9ba1-4ef6-b9f0-674b69c5806f"},"vehicle_type_id":"4","last_reported":1741810230,"current_range_meters":9200,"station_id":"ce4bh292rcd13ifvqdf0","pricing_plan_id":"cebpf4jnsgd1na2vs0mg"},{"bike_id":"099ad1e3-df62-4f4a-b229-3d61f5426fff","system_id":"levelo_inurba_marseille","lat":43.28106,"lon":5.37843,"is_reserved":false,"is_disabled":false,"rental_uris":{"android":"levelo://app?vid=099ad1e3-df62-4f4a-b229-3d61f5426fff","ios":"levelo://app?vid=099ad1e3-df62-4f4a-b229-3d61f5426fff"},"vehicle_type_id":"4","last_reported":1741810230,"current_range_meters":9600,"station_id":"ce4bha12rcd13ifvqee0","pricing_plan_id":"cebpf4jnsgd1na2vs0mg"},{"bike_id":"46f2e81a-8d75-4b81-a3ee-d46e23c0fa4e","system_id":"levelo_inurba_marseille","lat":43.24569,"lon":5.3955,"is_reserved":false,"is_disabled":false,"rental_uris":{"android":"levelo://app?vid=46f2e81a-8d75-4b81-a3ee-d46e23c0fa4e","ios":"levelo://app?vid=46f2e81a-8d75-4b81-a3ee-d46e23c0fa4e"},"vehicle_type_id":"4","last_reported":1741810230,"current_range_meters":9600,"station_id":"ce4bhlp2rcd13ifvqgjg","pricing_plan_id":"cebpf4jnsgd1na2vs0mg"},{"bike_id":"fbf18425-256c-43c4-8e97-eb510980f875","system_id":"levelo_inurba_marseille","lat":43.31984,"lon":5.38142,"is_reserved":false,"is_disabled":false,"rental_uris":{"android":"levelo://app?vid=fbf18425-256c-43c4-8e97-eb510980f875","ios":"levelo://app?vid=fbf18425-256c-43c4-8e97-eb510980f875"},"vehicle_type_id":"4","last_reported":1741810230,"current_range_meters":9600,"station_id":"ce4bhr12rcd13ifvqhpg","pricing_plan_id":"cebpf4jnsgd1na2vs0mg"},{"bike_id":"600a8b1d-91ce-4fc9-92cd-846d63d5cb51","system_id":"levelo_inurba_marseille","lat":43.24997,"lon":5.38934,"is_reserved":false,"is_disabled":false,"rental_uris":{"android":"levelo://app?vid=600a8b1d-91ce-4fc9-92cd-846d63d5cb51","ios":"levelo://app?vid=600a8b1d-91ce-4fc9-92cd-846d63d5cb51"},"vehicle_type_id":"4","last_reported":1741810230,"current_range_meters":9600,"station_id":"ce4bhgp2rcd13ifvqfd0","pricing_plan_id":"cebpf4jnsgd1na2vs0mg"},{"bike_id":"485f1510-a973-46b6-8b2d-6d22ffc60cae","system_id":"levelo_inurba_marseille","lat":43.2417,"lon":5.36407,"is_reserved":false,"is_disabled":false,"rental_uris":{"android":"levelo://app?vid=485f1510-a973-46b6-8b2d-6d22ffc60cae","ios":"levelo://app?vid=485f1510-a973-46b6-8b2d-6d22ffc60cae"},"vehicle_type_id":"4","last_reported":1741810230,"current_range_meters":9600,"station_id":"cpo36qri1sfpv3e86is0","pricing_plan_id":"cebpf4jnsgd1na2vs0mg"},{"bike_id":"3750202c-1673-48c3-8854-ea428bd1d5e2","system_id":"levelo_inurba_marseille","lat":43.33017,"lon":5.39036,"is_reserved":false,"is_disabled":false,"rental_uris":{"android":"levelo://app?vid=3750202c-1673-48c3-8854-ea428bd1d5e2","ios":"levelo://app?vid=3750202c-1673-48c3-8854-ea428bd1d5e2"},"vehicle_type_id":"4","last_reported":1741810230,"current_range_meters":9600,"station_id":"ce4bhr92rcd13ifvqhrg","pricing_plan_id":"cebpf4jnsgd1na2vs0mg"},{"bike_id":"ec5d08ce-934d-49b5-9a73-c20b44942d11","system_id":"levelo_inurba_marseille","lat":43.314248,"lon":5.375391,"is_reserved":false,"is_disabled":false,"rental_uris":{"android":"levelo://app?vid=ec5d08ce-934d-49b5-9a73-c20b44942d11","ios":"levelo://app?vid=ec5d08ce-934d-49b5-9a73-c20b44942d11"},"vehicle_type_id":"4","last_reported":1741810230,"current_range_meters":9600,"station_id":"","pricing_plan_id":"cebpf4jnsgd1na2vs0mg"},{"bike_id":"c16477d5-7793-4073-b158-0eaf5052f2dc","system_id":"levelo_inurba_marseille","lat":43.2831,"lon":5.4326,"is_reserved":false,"is_disabled":false,"rental_uris":{"android":"levelo://app?vid=c16477d5-7793-4073-b158-0eaf5052f2dc","ios":"levelo://app?vid=c16477d5-7793-4073-b158-0eaf5052f2dc"},"vehicle_type_id":"4","last_reported":1741810230,"current_range_meters":9600,"station_id":"","pricing_plan_id":"cebpf4jnsgd1na2vs0mg"},{"bike_id":"65b3e6ee-260e-4a65-a75b-07984abceef3","system_id":"levelo_inurba_marseille","lat":43.330253,"lon":5.390528,"is_reserved":false,"is_disabled":false,"rental_uris":{"android":"levelo://app?vid=65b3e6ee-260e-4a65-a75b-07984abceef3","ios":"levelo://app?vid=65b3e6ee-260e-4a65-a75b-07984abceef3"},"vehicle_type_id":"4","last_reported":1741810230,"current_range_meters":9600,"station_id":"ce4bhr92rcd13ifvqhrg","pricing_plan_id":"cebpf4jnsgd1na2vs0mg"},{"bike_id":"2d16443d-ed2e-4c48-af94-4deffe2479f1","system_id":"levelo_inurba_marseille","lat":43.25021,"lon":5.38921,"is_reserved":false,"is_disabled":false,"rental_uris":{"android":"levelo://app?vid=2d16443d-ed2e-4c48-af94-4deffe2479f1","ios":"levelo://app?vid=2d16443d-ed2e-4c48-af94-4deffe2479f1"},"vehicle_type_id":"4","last_reported":1741810230,"current_range_meters":9600,"station_id":"ce4bhgp2rcd13ifvqfd0","pricing_plan_id":"cebpf4jnsgd1na2vs0mg"},{"bike_id":"12d8c0d4-6abc-4053-9c8c-690abca02735","system_id":"levelo_inurba_marseille","lat":43.31203,"lon":5.37435,"is_reserved":false,"is_disabled":false,"rental_uris":{"android":"levelo://app?vid=12d8c0d4-6abc-4053-9c8c-690abca02735","ios":"levelo://app?vid=12d8c0d4-6abc-4053-9c8c-690abca02735"},"vehicle_type_id":"4","last_reported":1741810230,"current_range_meters":9600,"station_id":"","pricing_plan_id":"cebpf4jnsgd1na2vs0mg"},{"bike_id":"e59dfd2a-6724-4e77-b6b3-0f0dfc37aab3","system_id":"levelo_inurba_marseille","lat":43.30805,"lon":5.3816,"is_reserved":false,"is_disabled":false,"rental_uris":{"android":"levelo://app?vid=e59dfd2a-6724-4e77-b6b3-0f0dfc37aab3","ios":"levelo://app?vid=e59dfd2a-6724-4e77-b6b3-0f0dfc37aab3"},"vehicle_type_id":"4","last_reported":1741810230,"current_range_meters":9600,"station_id":"ce4bgt12rcd13ifvqce0","pricing_plan_id":"cebpf4jnsgd1na2vs0mg"},{"bike_id":"cf16dec3-3347-40cc-be03-a3cd79c5b809","system_id":"levelo_inurba_marseille","lat":43.2943,"lon":5.38649,"is_reserved":false,"is_disabled":false,"rental_uris":{"android":"levelo://app?vid=cf16dec3-3347-40cc-be03-a3cd79c5b809","ios":"levelo://app?vid=cf16dec3-3347-40cc-be03-a3cd79c5b809"},"vehicle_type_id":"4","last_reported":1741810230,"current_range_meters":9600,"station_id":"ce4bh2h2rcd13ifvqdh0","pricing_plan_id":"cebpf4jnsgd1na2vs0mg"},{"bike_id":"0a995a9a-6122-4f4b-b298-a8b06cbca7e2","system_id":"levelo_inurba_marseille","lat":43.25017,"lon":5.38924,"is_reserved":false,"is_disabled":false,"rental_uris":{"android":"levelo://app?vid=0a995a9a-6122-4f4b-b298-a8b06cbca7e2","ios":"levelo://app?vid=0a995a9a-6122-4f4b-b298-a8b06cbca7e2"},"vehicle_type_id":"4","last_reported":1741810230,"current_range_meters":10000,"station_id":"ce4bhgp2rcd13ifvqfd0","pricing_plan_id":"cebpf4jnsgd1na2vs0mg"},{"bike_id":"f83b1590-73f8-4900-a667-6c005eb9b249","system_id":"levelo_inurba_marseille","lat":43.29582,"lon":5.39971,"is_reserved":false,"is_disabled":false,"rental_uris":{"android":"levelo://app?vid=f83b1590-73f8-4900-a667-6c005eb9b249","ios":"levelo://app?vid=f83b1590-73f8-4900-a667-6c005eb9b249"},"vehicle_type_id":"4","last_reported":1741810230,"current_range_meters":10000,"station_id":"ce4bh312rcd13ifvqdj0","pricing_plan_id":"cebpf4jnsgd1na2vs0mg"},{"bike_id":"20719e7d-e656-4d2f-a019-3cbf98c17c5e","system_id":"levelo_inurba_marseille","lat":43.28617,"lon":5.35104,"is_reserved":false,"is_disabled":false,"rental_uris":{"android":"levelo://app?vid=20719e7d-e656-4d2f-a019-3cbf98c17c5e","ios":"levelo://app?vid=20719e7d-e656-4d2f-a019-3cbf98c17c5e"},"vehicle_type_id":"4","last_reported":1741810230,"current_range_meters":10000,"station_id":"ce4bhch2rcd13ifvqeug","pricing_plan_id":"cebpf4jnsgd1na2vs0mg"},{"bike_id":"55fe5d5a-17ad-4e56-ad62-6cc28a264c81","system_id":"levelo_inurba_marseille","lat":43.25007,"lon":5.38922,"is_reserved":false,"is_disabled":false,"rental_uris":{"android":"levelo://app?vid=55fe5d5a-17ad-4e56-ad62-6cc28a264c81","ios":"levelo://app?vid=55fe5d5a-17ad-4e56-ad62-6cc28a264c81"},"vehicle_type_id":"4","last_reported":1741810230,"current_range_meters":10000,"station_id":"ce4bhgp2rcd13ifvqfd0","pricing_plan_id":"cebpf4jnsgd1na2vs0mg"},{"bike_id":"9f25a6ad-433a-45b0-a0d0-4a619d769e26","system_id":"levelo_inurba_marseille","lat":43.23188,"lon":5.35563,"is_reserved":false,"is_disabled":false,"rental_uris":{"android":"levelo://app?vid=9f25a6ad-433a-45b0-a0d0-4a619d769e26","ios":"levelo://app?vid=9f25a6ad-433a-45b0-a0d0-4a619d769e26"},"vehicle_type_id":"4","last_reported":1741810230,"current_range_meters":10800,"station_id":"ce4bhu92rcd13ifvqi70","pricing_plan_id":"cebpf4jnsgd1na2vs0mg"},{"bike_id":"b413bdb5-a86c-4c32-9333-f91b4be57925","system_id":"levelo_inurba_marseille","lat":43.24652,"lon":5.38894,"is_reserved":false,"is_disabled":false,"rental_uris":{"android":"levelo://app?vid=b413bdb5-a86c-4c32-9333-f91b4be57925","ios":"levelo://app?vid=b413bdb5-a86c-4c32-9333-f91b4be57925"},"vehicle_type_id":"4","last_reported":1741810230,"current_range_meters":10000,"station_id":"ce4bhg12rcd13ifvqf60","pricing_plan_id":"cebpf4jnsgd1na2vs0mg"},{"bike_id":"234f837a-7327-4b92-8f17-adec428df1b9","system_id":"levelo_inurba_marseille","lat":43.25929,"lon":5.40915,"is_reserved":false,"is_disabled":false,"rental_uris":{"android":"levelo://app?vid=234f837a-7327-4b92-8f17-adec428df1b9","ios":"levelo://app?vid=234f837a-7327-4b92-8f17-adec428df1b9"},"vehicle_type_id":"4","last_reported":1741810230,"current_range_meters":10000,"station_id":"ce4bhm92rcd13ifvqglg","pricing_plan_id":"cebpf4jnsgd1na2vs0mg"},{"bike_id":"013f9f0a-a5f3-4139-8086-451cb3895860","system_id":"levelo_inurba_marseille","lat":43.29715,"lon":5.36575,"is_reserved":false,"is_disabled":false,"rental_uris":{"android":"levelo://app?vid=013f9f0a-a5f3-4139-8086-451cb3895860","ios":"levelo://app?vid=013f9f0a-a5f3-4139-8086-451cb3895860"},"vehicle_type_id":"4","last_reported":1741810230,"current_range_meters":10000,"station_id":"ce4bgn12rcd13ifvqbt0","pricing_plan_id":"cebpf4jnsgd1na2vs0mg"},{"bike_id":"7d4aedfe-c4d1-46e1-9530-386849f612f8","system_id":"levelo_inurba_marseille","lat":43.30374,"lon":5.425,"is_reserved":false,"is_disabled":false,"rental_uris":{"android":"levelo://app?vid=7d4aedfe-c4d1-46e1-9530-386849f612f8","ios":"levelo://app?vid=7d4aedfe-c4d1-46e1-9530-386849f612f8"},"vehicle_type_id":"4","last_reported":1741810230,"current_range_meters":10000,"station_id":"ce4bghh2rcd13ifvqb60","pricing_plan_id":"cebpf4jnsgd1na2vs0mg"},{"bike_id":"58162fa4-21cd-4f49-aab7-1f0e64f7ff45","system_id":"levelo_inurba_marseille","lat":43.29252,"lon":5.38448,"is_reserved":false,"is_disabled":false,"rental_uris":{"android":"levelo://app?vid=58162fa4-21cd-4f49-aab7-1f0e64f7ff45","ios":"levelo://app?vid=58162fa4-21cd-4f49-aab7-1f0e64f7ff45"},"vehicle_type_id":"4","last_reported":1741810230,"current_range_meters":10000,"station_id":"ce4bh692rcd13ifvqea0","pricing_plan_id":"cebpf4jnsgd1na2vs0mg"},{"bike_id":"545e730c-0f6f-4069-a4c5-5b73f4bc206a","system_id":"levelo_inurba_marseille","lat":43.30948,"lon":5.39032,"is_reserved":false,"is_disabled":false,"rental_uris":{"android":"levelo://app?vid=545e730c-0f6f-4069-a4c5-5b73f4bc206a","ios":"levelo://app?vid=545e730c-0f6f-4069-a4c5-5b73f4bc206a"},"vehicle_type_id":"4","last_reported":1741810230,"current_range_meters":10000,"station_id":"ce4bgup2rcd13ifvqco0","pricing_plan_id":"cebpf4jnsgd1na2vs0mg"},{"bike_id":"6c83aba9-eb1e-4e35-add9-1ed6c49a74fd","system_id":"levelo_inurba_marseille","lat":43.28006,"lon":5.41667,"is_reserved":false,"is_disabled":false,"rental_uris":{"android":"levelo://app?vid=6c83aba9-eb1e-4e35-add9-1ed6c49a74fd","ios":"levelo://app?vid=6c83aba9-eb1e-4e35-add9-1ed6c49a74fd"},"vehicle_type_id":"4","last_reported":1741810230,"current_range_meters":10000,"station_id":"ce4bho12rcd13ifvqh1g","pricing_plan_id":"cebpf4jnsgd1na2vs0mg"},{"bike_id":"3baf227d-0be9-4b96-8721-684a3fb14c35","system_id":"levelo_inurba_marseille","lat":43.31821,"lon":5.37318,"is_reserved":false,"is_disabled":false,"rental_uris":{"android":"levelo://app?vid=3baf227d-0be9-4b96-8721-684a3fb14c35","ios":"levelo://app?vid=3baf227d-0be9-4b96-8721-684a3fb14c35"},"vehicle_type_id":"4","last_reported":1741810230,"current_range_meters":10800,"station_id":"","pricing_plan_id":"cebpf4jnsgd1na2vs0mg"},{"bike_id":"9c9b4fe2-0c24-4e47-8858-2d4973e49f79","system_id":"levelo_inurba_marseille","lat":43.27585,"lon":5.38463,"is_reserved":false,"is_disabled":false,"rental_uris":{"android":"levelo://app?vid=9c9b4fe2-0c24-4e47-8858-2d4973e49f79","ios":"levelo://app?vid=9c9b4fe2-0c24-4e47-8858-2d4973e49f79"},"vehicle_type_id":"4","last_reported":1741810230,"current_range_meters":10800,"station_id":"ce4bhh92rcd13ifvqfi0","pricing_plan_id":"cebpf4jnsgd1na2vs0mg"},{"bike_id":"4ba92e91-2340-474d-9340-f7b21657d567","system_id":"levelo_inurba_marseille","lat":43.26549,"lon":5.39016,"is_reserved":false,"is_disabled":false,"rental_uris":{"android":"levelo://app?vid=4ba92e91-2340-474d-9340-f7b21657d567","ios":"levelo://app?vid=4ba92e91-2340-474d-9340-f7b21657d567"},"vehicle_type_id":"4","last_reported":1741810230,"current_range_meters":10800,"station_id":"ce4bhe12rcd13ifvqf30","pricing_plan_id":"cebpf4jnsgd1na2vs0mg"},{"bike_id":"92d43dae-3551-41d5-8a85-36f0642a11da","system_id":"levelo_inurba_marseille","lat":43.29609,"lon":5.38119,"is_reserved":false,"is_disabled":false,"rental_uris":{"android":"levelo://app?vid=92d43dae-3551-41d5-8a85-36f0642a11da","ios":"levelo://app?vid=92d43dae-3551-41d5-8a85-36f0642a11da"},"vehicle_type_id":"4","last_reported":1741810230,"current_range_meters":10800,"station_id":"ce4bgl12rcd13ifvqbo0","pricing_plan_id":"cebpf4jnsgd1na2vs0mg"},{"bike_id":"df6b060b-9f9e-4288-bcc1-ae0d53050642","system_id":"levelo_inurba_marseille","lat":43.2293,"lon":5.35388,"is_reserved":false,"is_disabled":false,"rental_uris":{"android":"levelo://app?vid=df6b060b-9f9e-4288-bcc1-ae0d53050642","ios":"levelo://app?vid=df6b060b-9f9e-4288-bcc1-ae0d53050642"},"vehicle_type_id":"4","last_reported":1741810230,"current_range_meters":10800,"station_id":"cpo3532slgdg3j2ikp40","pricing_plan_id":"cebpf4jnsgd1na2vs0mg"},{"bike_id":"99099f32-d68d-4a8f-92e1-a43fbc6a961f","system_id":"levelo_inurba_marseille","lat":43.28953,"lon":5.36634,"is_reserved":false,"is_disabled":false,"rental_uris":{"android":"levelo://app?vid=99099f32-d68d-4a8f-92e1-a43fbc6a961f","ios":"levelo://app?vid=99099f32-d68d-4a8f-92e1-a43fbc6a961f"},"vehicle_type_id":"4","last_reported":1741810230,"current_range_meters":10800,"station_id":"ce4bhap2rcd13ifvqek0","pricing_plan_id":"cebpf4jnsgd1na2vs0mg"},{"bike_id":"1e420d25-72bf-413d-a5c6-fa519ce043ca","system_id":"levelo_inurba_marseille","lat":43.2891,"lon":5.36582,"is_reserved":false,"is_disabled":false,"rental_uris":{"android":"levelo://app?vid=1e420d25-72bf-413d-a5c6-fa519ce043ca","ios":"levelo://app?vid=1e420d25-72bf-413d-a5c6-fa519ce043ca"},"vehicle_type_id":"4","last_reported":1741810230,"current_range_meters":10800,"station_id":"ce4bhap2rcd13ifvqek0","pricing_plan_id":"cebpf4jnsgd1na2vs0mg"},{"bike_id":"ddc4e18c-8f32-414f-b54d-dab0f725381f","system_id":"levelo_inurba_marseille","lat":43.30886,"lon":5.39654,"is_reserved":false,"is_disabled":false,"rental_uris":{"android":"levelo://app?vid=ddc4e18c-8f32-414f-b54d-dab0f725381f","ios":"levelo://app?vid=ddc4e18c-8f32-414f-b54d-dab0f725381f"},"vehicle_type_id":"4","last_reported":1741810230,"current_range_meters":10800,"station_id":"ce4bh012rcd13ifvqcv0","pricing_plan_id":"cebpf4jnsgd1na2vs0mg"},{"bike_id":"6dbc9b4a-c5a1-4dbf-a00f-5bb7462d2694","system_id":"levelo_inurba_marseille","lat":43.28103,"lon":5.39857,"is_reserved":false,"is_disabled":false,"rental_uris":{"android":"levelo://app?vid=6dbc9b4a-c5a1-4dbf-a00f-5bb7462d2694","ios":"levelo://app?vid=6dbc9b4a-c5a1-4dbf-a00f-5bb7462d2694"},"vehicle_type_id":"4","last_reported":1741810230,"current_range_meters":10800,"station_id":"","pricing_plan_id":"cebpf4jnsgd1na2vs0mg"},{"bike_id":"f89b9f3b-9595-4d0e-acf5-ac5f650bb50c","system_id":"levelo_inurba_marseille","lat":43.30376,"lon":5.42487,"is_reserved":false,"is_disabled":false,"rental_uris":{"android":"levelo://app?vid=f89b9f3b-9595-4d0e-acf5-ac5f650bb50c","ios":"levelo://app?vid=f89b9f3b-9595-4d0e-acf5-ac5f650bb50c"},"vehicle_type_id":"4","last_reported":1741810230,"current_range_meters":10800,"station_id":"ce4bghh2rcd13ifvqb60","pricing_plan_id":"cebpf4jnsgd1na2vs0mg"},{"bike_id":"739c23eb-a4e9-41c0-a809-99b4c3dbbc60","system_id":"levelo_inurba_marseille","lat":43.29288,"lon":5.37442,"is_reserved":false,"is_disabled":false,"rental_uris":{"android":"levelo://app?vid=739c23eb-a4e9-41c0-a809-99b4c3dbbc60","ios":"levelo://app?vid=739c23eb-a4e9-41c0-a809-99b4c3dbbc60"},"vehicle_type_id":"4","last_reported":1741810230,"current_range_meters":10800,"station_id":"ce4bgi12rcd13ifvqb70","pricing_plan_id":"cebpf4jnsgd1na2vs0mg"},{"bike_id":"754c237d-5821-4330-866f-75f381380385","system_id":"levelo_inurba_marseille","lat":43.2894,"lon":5.3838,"is_reserved":false,"is_disabled":false,"rental_uris":{"android":"levelo://app?vid=754c237d-5821-4330-866f-75f381380385","ios":"levelo://app?vid=754c237d-5821-4330-866f-75f381380385"},"vehicle_type_id":"4","last_reported":1741810230,"current_range_meters":10800,"station_id":"ce4bh612rcd13ifvqe6g","pricing_plan_id":"cebpf4jnsgd1na2vs0mg"},{"bike_id":"c2fdc035-3896-46f1-aee2-5294a5907071","system_id":"levelo_inurba_marseille","lat":43.25015,"lon":5.38941,"is_reserved":false,"is_disabled":false,"rental_uris":{"android":"levelo://app?vid=c2fdc035-3896-46f1-aee2-5294a5907071","ios":"levelo://app?vid=c2fdc035-3896-46f1-aee2-5294a5907071"},"vehicle_type_id":"4","last_reported":1741810230,"current_range_meters":10800,"station_id":"ce4bhgp2rcd13ifvqfd0","pricing_plan_id":"cebpf4jnsgd1na2vs0mg"},{"bike_id":"cee55c77-24c5-4877-af98-7bc5aef60e81","system_id":"levelo_inurba_marseille","lat":43.280602,"lon":5.387746,"is_reserved":false,"is_disabled":false,"rental_uris":{"android":"levelo://app?vid=cee55c77-24c5-4877-af98-7bc5aef60e81","ios":"levelo://app?vid=cee55c77-24c5-4877-af98-7bc5aef60e81"},"vehicle_type_id":"4","last_reported":1741810230,"current_range_meters":11200,"station_id":"ce4bh192rcd13ifvqdb0","pricing_plan_id":"cebpf4jnsgd1na2vs0mg"},{"bike_id":"46a916bd-57dd-4dd4-880a-f914dd2ac6e7","system_id":"levelo_inurba_marseille","lat":43.29423,"lon":5.38634,"is_reserved":false,"is_disabled":false,"rental_uris":{"android":"levelo://app?vid=46a916bd-57dd-4dd4-880a-f914dd2ac6e7","ios":"levelo://app?vid=46a916bd-57dd-4dd4-880a-f914dd2ac6e7"},"vehicle_type_id":"4","last_reported":1741810230,"current_range_meters":11200,"station_id":"ce4bh2h2rcd13ifvqdh0","pricing_plan_id":"cebpf4jnsgd1na2vs0mg"},{"bike_id":"27978618-6a05-41e9-b500-4c9c04aec95f","system_id":"levelo_inurba_marseille","lat":43.28147,"lon":5.42648,"is_reserved":false,"is_disabled":false,"rental_uris":{"android":"levelo://app?vid=27978618-6a05-41e9-b500-4c9c04aec95f","ios":"levelo://app?vid=27978618-6a05-41e9-b500-4c9c04aec95f"},"vehicle_type_id":"4","last_reported":1741810230,"current_range_meters":11200,"station_id":"ce4bhnh2rcd13ifvqgug","pricing_plan_id":"cebpf4jnsgd1na2vs0mg"},{"bike_id":"23667599-c39f-4b94-a83e-082050eb199c","system_id":"levelo_inurba_marseille","lat":43.28398,"lon":5.37535,"is_reserved":false,"is_disabled":false,"rental_uris":{"android":"levelo://app?vid=23667599-c39f-4b94-a83e-082050eb199c","ios":"levelo://app?vid=23667599-c39f-4b94-a83e-082050eb199c"},"vehicle_type_id":"4","last_reported":1741810230,"current_range_meters":11200,"station_id":"ce4bh412rcd13ifvqds0","pricing_plan_id":"cebpf4jnsgd1na2vs0mg"},{"bike_id":"2a8abf73-9a49-44da-8f3f-23b922ee4d9a","system_id":"levelo_inurba_marseille","lat":43.30921,"lon":5.39674,"is_reserved":false,"is_disabled":false,"rental_uris":{"android":"levelo://app?vid=2a8abf73-9a49-44da-8f3f-23b922ee4d9a","ios":"levelo://app?vid=2a8abf73-9a49-44da-8f3f-23b922ee4d9a"},"vehicle_type_id":"4","last_reported":1741810230,"current_range_meters":11200,"station_id":"ce4bh012rcd13ifvqcv0","pricing_plan_id":"cebpf4jnsgd1na2vs0mg"},{"bike_id":"4a9749ff-9763-423f-bd26-59e79de25618","system_id":"levelo_inurba_marseille","lat":43.30416,"lon":5.41316,"is_reserved":false,"is_disabled":false,"rental_uris":{"android":"levelo://app?vid=4a9749ff-9763-423f-bd26-59e79de25618","ios":"levelo://app?vid=4a9749ff-9763-423f-bd26-59e79de25618"},"vehicle_type_id":"4","last_reported":1741810230,"current_range_meters":11200,"station_id":"ce4bhop2rcd13ifvqh8g","pricing_plan_id":"cebpf4jnsgd1na2vs0mg"},{"bike_id":"c8f5a7aa-328f-49c1-a785-9624fa888d07","system_id":"levelo_inurba_marseille","lat":43.24998,"lon":5.38914,"is_reserved":false,"is_disabled":false,"rental_uris":{"android":"levelo://app?vid=c8f5a7aa-328f-49c1-a785-9624fa888d07","ios":"levelo://app?vid=c8f5a7aa-328f-49c1-a785-9624fa888d07"},"vehicle_type_id":"4","last_reported":1741810230,"current_range_meters":11200,"station_id":"ce4bhgp2rcd13ifvqfd0","pricing_plan_id":"cebpf4jnsgd1na2vs0mg"},{"bike_id":"127fed04-fe1d-4143-a0f1-08353951ebd0","system_id":"levelo_inurba_marseille","lat":43.31277,"lon":5.40161,"is_reserved":false,"is_disabled":false,"rental_uris":{"android":"levelo://app?vid=127fed04-fe1d-4143-a0f1-08353951ebd0","ios":"levelo://app?vid=127fed04-fe1d-4143-a0f1-08353951ebd0"},"vehicle_type_id":"4","last_reported":1741810230,"current_range_meters":11200,"station_id":"ce4bh092rcd13ifvqd30","pricing_plan_id":"cebpf4jnsgd1na2vs0mg"},{"bike_id":"2214eca3-ab97-4506-b860-b288639ca218","system_id":"levelo_inurba_marseille","lat":43.28664,"lon":5.36361,"is_reserved":false,"is_disabled":false,"rental_uris":{"android":"levelo://app?vid=2214eca3-ab97-4506-b860-b288639ca218","ios":"levelo://app?vid=2214eca3-ab97-4506-b860-b288639ca218"},"vehicle_type_id":"4","last_reported":1741810230,"current_range_meters":11600,"station_id":"ce4bhah2rcd13ifvqej0","pricing_plan_id":"cebpf4jnsgd1na2vs0mg"},{"bike_id":"4ad9c640-704f-4648-a12d-b5105947d193","system_id":"levelo_inurba_marseille","lat":43.27821,"lon":5.40724,"is_reserved":false,"is_disabled":false,"rental_uris":{"android":"levelo://app?vid=4ad9c640-704f-4648-a12d-b5105947d193","ios":"levelo://app?vid=4ad9c640-704f-4648-a12d-b5105947d193"},"vehicle_type_id":"4","last_reported":1741810230,"current_range_meters":11600,"station_id":"ce4bhnh2rcd13ifvqgtg","pricing_plan_id":"cebpf4jnsgd1na2vs0mg"},{"bike_id":"3e324922-7e94-4c82-beed-e3913e49651f","system_id":"levelo_inurba_marseille","lat":43.31498,"lon":5.37297,"is_reserved":false,"is_disabled":false,"rental_uris":{"android":"levelo://app?vid=3e324922-7e94-4c82-beed-e3913e49651f","ios":"levelo://app?vid=3e324922-7e94-4c82-beed-e3913e49651f"},"vehicle_type_id":"4","last_reported":1741810230,"current_range_meters":11600,"station_id":"ce4bgt12rcd13ifvqcd0","pricing_plan_id":"cebpf4jnsgd1na2vs0mg"},{"bike_id":"e61c3ae4-3e49-4e64-8b8c-cebfd878485c","system_id":"levelo_inurba_marseille","lat":43.2873,"lon":5.36096,"is_reserved":false,"is_disabled":false,"rental_uris":{"android":"levelo://app?vid=e61c3ae4-3e49-4e64-8b8c-cebfd878485c","ios":"levelo://app?vid=e61c3ae4-3e49-4e64-8b8c-cebfd878485c"},"vehicle_type_id":"4","last_reported":1741810230,"current_range_meters":11200,"station_id":"cki0cbj6b192h4jlfktg","pricing_plan_id":"cebpf4jnsgd1na2vs0mg"},{"bike_id":"79397302-4916-493d-9bc0-e5035ae3c476","system_id":"levelo_inurba_marseille","lat":43.22933,"lon":5.35386,"is_reserved":false,"is_disabled":false,"rental_uris":{"android":"levelo://app?vid=79397302-4916-493d-9bc0-e5035ae3c476","ios":"levelo://app?vid=79397302-4916-493d-9bc0-e5035ae3c476"},"vehicle_type_id":"4","last_reported":1741810230,"current_range_meters":11600,"station_id":"cpo3532slgdg3j2ikp40","pricing_plan_id":"cebpf4jnsgd1na2vs0mg"},{"bike_id":"0234a9c0-0d92-4771-9dd1-5abbd3156dde","system_id":"levelo_inurba_marseille","lat":43.24088,"lon":5.37777,"is_reserved":false,"is_disabled":false,"rental_uris":{"android":"levelo://app?vid=0234a9c0-0d92-4771-9dd1-5abbd3156dde","ios":"levelo://app?vid=0234a9c0-0d92-4771-9dd1-5abbd3156dde"},"vehicle_type_id":"4","last_reported":1741810230,"current_range_meters":11600,"station_id":"ce4bhnp2rcd13ifvqgvg","pricing_plan_id":"cebpf4jnsgd1na2vs0mg"},{"bike_id":"4d3226c1-daea-40e3-a694-b0b0717bc1cf","system_id":"levelo_inurba_marseille","lat":43.28656,"lon":5.36356,"is_reserved":false,"is_disabled":false,"rental_uris":{"android":"levelo://app?vid=4d3226c1-daea-40e3-a694-b0b0717bc1cf","ios":"levelo://app?vid=4d3226c1-daea-40e3-a694-b0b0717bc1cf"},"vehicle_type_id":"4","last_reported":1741810230,"current_range_meters":11600,"station_id":"ce4bhah2rcd13ifvqej0","pricing_plan_id":"cebpf4jnsgd1na2vs0mg"},{"bike_id":"80904c37-4fe5-4957-8235-a48b45c8319a","system_id":"levelo_inurba_marseille","lat":43.29264,"lon":5.38443,"is_reserved":false,"is_disabled":false,"rental_uris":{"android":"levelo://app?vid=80904c37-4fe5-4957-8235-a48b45c8319a","ios":"levelo://app?vid=80904c37-4fe5-4957-8235-a48b45c8319a"},"vehicle_type_id":"4","last_reported":1741810230,"current_range_meters":11600,"station_id":"ce4bh692rcd13ifvqea0","pricing_plan_id":"cebpf4jnsgd1na2vs0mg"},{"bike_id":"f2a487ce-1e2d-4d9e-876f-c35b8506e8aa","system_id":"levelo_inurba_marseille","lat":43.298635,"lon":5.397303,"is_reserved":false,"is_disabled":false,"rental_uris":{"android":"levelo://app?vid=f2a487ce-1e2d-4d9e-876f-c35b8506e8aa","ios":"levelo://app?vid=f2a487ce-1e2d-4d9e-876f-c35b8506e8aa"},"vehicle_type_id":"4","last_reported":1741810230,"current_range_meters":12000,"station_id":"ce4bh0h2rcd13ifvqd50","pricing_plan_id":"cebpf4jnsgd1na2vs0mg"},{"bike_id":"9dc8ba98-3de9-4f14-81e1-9a5589e794de","system_id":"levelo_inurba_marseille","lat":43.25891,"lon":5.39952,"is_reserved":false,"is_disabled":true,"rental_uris":{"android":"levelo://app?vid=9dc8ba98-3de9-4f14-81e1-9a5589e794de","ios":"levelo://app?vid=9dc8ba98-3de9-4f14-81e1-9a5589e794de"},"vehicle_type_id":"4","last_reported":1741810230,"current_range_meters":12000,"station_id":"","pricing_plan_id":"cebpf4jnsgd1na2vs0mg"},{"bike_id":"73b66310-291a-451f-8603-5129c4f3461f","system_id":"levelo_inurba_marseille","lat":43.29525,"lon":5.39042,"is_reserved":false,"is_disabled":false,"rental_uris":{"android":"levelo://app?vid=73b66310-291a-451f-8603-5129c4f3461f","ios":"levelo://app?vid=73b66310-291a-451f-8603-5129c4f3461f"},"vehicle_type_id":"4","last_reported":1741810230,"current_range_meters":12000,"station_id":"ce4bh3p2rcd13ifvqdp0","pricing_plan_id":"cebpf4jnsgd1na2vs0mg"},{"bike_id":"2330c8ca-a4ed-483d-ac93-67ea1f9c0511","system_id":"levelo_inurba_marseille","lat":43.32652,"lon":5.40992,"is_reserved":false,"is_disabled":false,"rental_uris":{"android":"levelo://app?vid=2330c8ca-a4ed-483d-ac93-67ea1f9c0511","ios":"levelo://app?vid=2330c8ca-a4ed-483d-ac93-67ea1f9c0511"},"vehicle_type_id":"4","last_reported":1741810230,"current_range_meters":12000,"station_id":"ce4bhpp2rcd13ifvqhgg","pricing_plan_id":"cebpf4jnsgd1na2vs0mg"},{"bike_id":"f0b77c38-1b7e-4ab3-9c62-552cff203eee","system_id":"levelo_inurba_marseille","lat":43.2583,"lon":5.39429,"is_reserved":false,"is_disabled":false,"rental_uris":{"android":"levelo://app?vid=f0b77c38-1b7e-4ab3-9c62-552cff203eee","ios":"levelo://app?vid=f0b77c38-1b7e-4ab3-9c62-552cff203eee"},"vehicle_type_id":"4","last_reported":1741810230,"current_range_meters":12000,"station_id":"ce4bhip2rcd13ifvqft0","pricing_plan_id":"cebpf4jnsgd1na2vs0mg"},{"bike_id":"4c607265-c996-4d9b-81fd-daa80dd99e32","system_id":"levelo_inurba_marseille","lat":43.28778,"lon":5.38451,"is_reserved":false,"is_disabled":false,"rental_uris":{"android":"levelo://app?vid=4c607265-c996-4d9b-81fd-daa80dd99e32","ios":"levelo://app?vid=4c607265-c996-4d9b-81fd-daa80dd99e32"},"vehicle_type_id":"4","last_reported":1741810230,"current_range_meters":12000,"station_id":"","pricing_plan_id":"cebpf4jnsgd1na2vs0mg"},{"bike_id":"e7b25e36-0a83-4dda-88d0-c2926bc1cbb4","system_id":"levelo_inurba_marseille","lat":43.29877,"lon":5.36239,"is_reserved":false,"is_disabled":true,"rental_uris":{"android":"levelo://app?vid=e7b25e36-0a83-4dda-88d0-c2926bc1cbb4","ios":"levelo://app?vid=e7b25e36-0a83-4dda-88d0-c2926bc1cbb4"},"vehicle_type_id":"4","last_reported":1741810230,"current_range_meters":12000,"station_id":"ce4bgpp2rcd13ifvqc3g","pricing_plan_id":"cebpf4jnsgd1na2vs0mg"},{"bike_id":"79e732be-e7d8-4dc9-8c8f-89d56717d799","system_id":"levelo_inurba_marseille","lat":43.29029,"lon":5.37565,"is_reserved":false,"is_disabled":true,"rental_uris":{"android":"levelo://app?vid=79e732be-e7d8-4dc9-8c8f-89d56717d799","ios":"levelo://app?vid=79e732be-e7d8-4dc9-8c8f-89d56717d799"},"vehicle_type_id":"4","last_reported":1741810230,"current_range_meters":12000,"station_id":"ce4bh692rcd13ifvqe90","pricing_plan_id":"cebpf4jnsgd1na2vs0mg"},{"bike_id":"443a3fb1-e6f8-4551-9dcb-92b2072390e6","system_id":"levelo_inurba_marseille","lat":43.30141,"lon":5.37687,"is_reserved":false,"is_disabled":false,"rental_uris":{"android":"levelo://app?vid=443a3fb1-e6f8-4551-9dcb-92b2072390e6","ios":"levelo://app?vid=443a3fb1-e6f8-4551-9dcb-92b2072390e6"},"vehicle_type_id":"4","last_reported":1741810230,"current_range_meters":12000,"station_id":"","pricing_plan_id":"cebpf4jnsgd1na2vs0mg"},{"bike_id":"04b6b0f6-d318-40e6-a023-347d481d621c","system_id":"levelo_inurba_marseille","lat":43.29217,"lon":5.37571,"is_reserved":false,"is_disabled":false,"rental_uris":{"android":"levelo://app?vid=04b6b0f6-d318-40e6-a023-347d481d621c","ios":"levelo://app?vid=04b6b0f6-d318-40e6-a023-347d481d621c"},"vehicle_type_id":"4","last_reported":1741810230,"current_range_meters":12400,"station_id":"","pricing_plan_id":"cebpf4jnsgd1na2vs0mg"},{"bike_id":"c61d7311-00e7-457a-bb0a-9e28cea8b49c","system_id":"levelo_inurba_marseille","lat":43.29908,"lon":5.38127,"is_reserved":false,"is_disabled":false,"rental_uris":{"android":"levelo://app?vid=c61d7311-00e7-457a-bb0a-9e28cea8b49c","ios":"levelo://app?vid=c61d7311-00e7-457a-bb0a-9e28cea8b49c"},"vehicle_type_id":"4","last_reported":1741810230,"current_range_meters":12400,"station_id":"ce4bgj12rcd13ifvqbc0","pricing_plan_id":"cebpf4jnsgd1na2vs0mg"},{"bike_id":"b19e22dd-31fc-4fce-8462-cd4e2072aa52","system_id":"levelo_inurba_marseille","lat":43.29524,"lon":5.39042,"is_reserved":false,"is_disabled":false,"rental_uris":{"android":"levelo://app?vid=b19e22dd-31fc-4fce-8462-cd4e2072aa52","ios":"levelo://app?vid=b19e22dd-31fc-4fce-8462-cd4e2072aa52"},"vehicle_type_id":"4","last_reported":1741810230,"current_range_meters":12400,"station_id":"ce4bh3p2rcd13ifvqdp0","pricing_plan_id":"cebpf4jnsgd1na2vs0mg"},{"bike_id":"559d880c-413b-4bec-b478-ce00f72287ce","system_id":"levelo_inurba_marseille","lat":43.3174,"lon":5.37815,"is_reserved":false,"is_disabled":false,"rental_uris":{"android":"levelo://app?vid=559d880c-413b-4bec-b478-ce00f72287ce","ios":"levelo://app?vid=559d880c-413b-4bec-b478-ce00f72287ce"},"vehicle_type_id":"4","last_reported":1741810230,"current_range_meters":12400,"station_id":"ce4bgth2rcd13ifvqch0","pricing_plan_id":"cebpf4jnsgd1na2vs0mg"},{"bike_id":"2c7213de-1d2d-4b17-ab38-ba3bb19fab23","system_id":"levelo_inurba_marseille","lat":43.28936,"lon":5.36628,"is_reserved":false,"is_disabled":false,"rental_uris":{"android":"levelo://app?vid=2c7213de-1d2d-4b17-ab38-ba3bb19fab23","ios":"levelo://app?vid=2c7213de-1d2d-4b17-ab38-ba3bb19fab23"},"vehicle_type_id":"4","last_reported":1741810230,"current_range_meters":12400,"station_id":"ce4bhap2rcd13ifvqek0","pricing_plan_id":"cebpf4jnsgd1na2vs0mg"},{"bike_id":"86fc146c-4af9-49a2-9b65-b6b8fa03c722","system_id":"levelo_inurba_marseille","lat":43.29189,"lon":5.39312,"is_reserved":false,"is_disabled":false,"rental_uris":{"android":"levelo://app?vid=86fc146c-4af9-49a2-9b65-b6b8fa03c722","ios":"levelo://app?vid=86fc146c-4af9-49a2-9b65-b6b8fa03c722"},"vehicle_type_id":"4","last_reported":1741810230,"current_range_meters":12400,"station_id":"ce4bh192rcd13ifvqdd0","pricing_plan_id":"cebpf4jnsgd1na2vs0mg"},{"bike_id":"5412c073-a21a-4f09-b8b3-6e8cd885fd55","system_id":"levelo_inurba_marseille","lat":43.31061,"lon":5.38358,"is_reserved":false,"is_disabled":true,"rental_uris":{"android":"levelo://app?vid=5412c073-a21a-4f09-b8b3-6e8cd885fd55","ios":"levelo://app?vid=5412c073-a21a-4f09-b8b3-6e8cd885fd55"},"vehicle_type_id":"4","last_reported":1741810230,"current_range_meters":12400,"station_id":"ce4bgv92rcd13ifvqcr0","pricing_plan_id":"cebpf4jnsgd1na2vs0mg"},{"bike_id":"e58cc837-d217-4967-ab98-26eac8dbe3c8","system_id":"levelo_inurba_marseille","lat":43.264893,"lon":5.395279,"is_reserved":false,"is_disabled":false,"rental_uris":{"android":"levelo://app?vid=e58cc837-d217-4967-ab98-26eac8dbe3c8","ios":"levelo://app?vid=e58cc837-d217-4967-ab98-26eac8dbe3c8"},"vehicle_type_id":"4","last_reported":1741810230,"current_range_meters":12000,"station_id":"ce4bhkp2rcd13ifvqgd0","pricing_plan_id":"cebpf4jnsgd1na2vs0mg"},{"bike_id":"ce489125-903d-4cef-81f6-5acc9d35aa0e","system_id":"levelo_inurba_marseille","lat":43.29304,"lon":5.37455,"is_reserved":false,"is_disabled":false,"rental_uris":{"android":"levelo://app?vid=ce489125-903d-4cef-81f6-5acc9d35aa0e","ios":"levelo://app?vid=ce489125-903d-4cef-81f6-5acc9d35aa0e"},"vehicle_type_id":"4","last_reported":1741810230,"current_range_meters":12400,"station_id":"ce4bgi12rcd13ifvqb70","pricing_plan_id":"cebpf4jnsgd1na2vs0mg"},{"bike_id":"1eeb43c6-bcc5-4484-9765-c2384a5952c3","system_id":"levelo_inurba_marseille","lat":43.28938,"lon":5.36632,"is_reserved":false,"is_disabled":false,"rental_uris":{"android":"levelo://app?vid=1eeb43c6-bcc5-4484-9765-c2384a5952c3","ios":"levelo://app?vid=1eeb43c6-bcc5-4484-9765-c2384a5952c3"},"vehicle_type_id":"4","last_reported":1741810230,"current_range_meters":12800,"station_id":"ce4bhap2rcd13ifvqek0","pricing_plan_id":"cebpf4jnsgd1na2vs0mg"},{"bike_id":"0420ab90-0203-49bc-a76d-8a5003ef7a7e","system_id":"levelo_inurba_marseille","lat":43.29987,"lon":5.38521,"is_reserved":false,"is_disabled":false,"rental_uris":{"android":"levelo://app?vid=0420ab90-0203-49bc-a76d-8a5003ef7a7e","ios":"levelo://app?vid=0420ab90-0203-49bc-a76d-8a5003ef7a7e"},"vehicle_type_id":"4","last_reported":1741810230,"current_range_meters":12800,"station_id":"ce4bgj92rcd13ifvqbd0","pricing_plan_id":"cebpf4jnsgd1na2vs0mg"},{"bike_id":"6df1e7f3-12c0-481c-9941-2246e17807ca","system_id":"levelo_inurba_marseille","lat":43.28473,"lon":5.36815,"is_reserved":false,"is_disabled":true,"rental_uris":{"android":"levelo://app?vid=6df1e7f3-12c0-481c-9941-2246e17807ca","ios":"levelo://app?vid=6df1e7f3-12c0-481c-9941-2246e17807ca"},"vehicle_type_id":"4","last_reported":1741810230,"current_range_meters":12800,"station_id":"","pricing_plan_id":"cebpf4jnsgd1na2vs0mg"},{"bike_id":"d162550a-36c9-4fa3-9bcf-7bce6cadccb4","system_id":"levelo_inurba_marseille","lat":43.2318,"lon":5.39985,"is_reserved":false,"is_disabled":false,"rental_uris":{"android":"levelo://app?vid=d162550a-36c9-4fa3-9bcf-7bce6cadccb4","ios":"levelo://app?vid=d162550a-36c9-4fa3-9bcf-7bce6cadccb4"},"vehicle_type_id":"4","last_reported":1741810230,"current_range_meters":12800,"station_id":"ce4bhn12rcd13ifvqgqg","pricing_plan_id":"cebpf4jnsgd1na2vs0mg"},{"bike_id":"646e6216-4cc7-4290-ad26-2dd97fff7af1","system_id":"levelo_inurba_marseille","lat":43.25569,"lon":5.3828,"is_reserved":false,"is_disabled":false,"rental_uris":{"android":"levelo://app?vid=646e6216-4cc7-4290-ad26-2dd97fff7af1","ios":"levelo://app?vid=646e6216-4cc7-4290-ad26-2dd97fff7af1"},"vehicle_type_id":"4","last_reported":1741810230,"current_range_meters":12800,"station_id":"ce4bhih2rcd13ifvqfs0","pricing_plan_id":"cebpf4jnsgd1na2vs0mg"},{"bike_id":"f2ee747f-c996-4c41-b815-ac9913b5b0ef","system_id":"levelo_inurba_marseille","lat":43.31447,"lon":5.37565,"is_reserved":false,"is_disabled":false,"rental_uris":{"android":"levelo://app?vid=f2ee747f-c996-4c41-b815-ac9913b5b0ef","ios":"levelo://app?vid=f2ee747f-c996-4c41-b815-ac9913b5b0ef"},"vehicle_type_id":"4","last_reported":1741810230,"current_range_meters":12800,"station_id":"","pricing_plan_id":"cebpf4jnsgd1na2vs0mg"},{"bike_id":"7382db7c-ea28-4d6b-a6ac-0a5dc179880b","system_id":"levelo_inurba_marseille","lat":43.33074,"lon":5.38177,"is_reserved":false,"is_disabled":false,"rental_uris":{"android":"levelo://app?vid=7382db7c-ea28-4d6b-a6ac-0a5dc179880b","ios":"levelo://app?vid=7382db7c-ea28-4d6b-a6ac-0a5dc179880b"},"vehicle_type_id":"4","last_reported":1741810230,"current_range_meters":13600,"station_id":"","pricing_plan_id":"cebpf4jnsgd1na2vs0mg"},{"bike_id":"dc408b08-e486-4428-aca5-d075dbc9ec4b","system_id":"levelo_inurba_marseille","lat":43.29783,"lon":5.39336,"is_reserved":false,"is_disabled":false,"rental_uris":{"android":"levelo://app?vid=dc408b08-e486-4428-aca5-d075dbc9ec4b","ios":"levelo://app?vid=dc408b08-e486-4428-aca5-d075dbc9ec4b"},"vehicle_type_id":"4","last_reported":1741810230,"current_range_meters":13600,"station_id":"chh1huq6cuj3fo74tm60","pricing_plan_id":"cebpf4jnsgd1na2vs0mg"},{"bike_id":"0587b6f8-e81d-41b0-8106-0185181fd8d5","system_id":"levelo_inurba_marseille","lat":43.30909,"lon":5.36853,"is_reserved":false,"is_disabled":false,"rental_uris":{"android":"levelo://app?vid=0587b6f8-e81d-41b0-8106-0185181fd8d5","ios":"levelo://app?vid=0587b6f8-e81d-41b0-8106-0185181fd8d5"},"vehicle_type_id":"4","last_reported":1741810230,"current_range_meters":13600,"station_id":"ce4bgn92rcd13ifvqbvg","pricing_plan_id":"cebpf4jnsgd1na2vs0mg"},{"bike_id":"29982826-bd7f-4522-8a2b-5667c6dbda27","system_id":"levelo_inurba_marseille","lat":43.2942,"lon":5.3861,"is_reserved":false,"is_disabled":false,"rental_uris":{"android":"levelo://app?vid=29982826-bd7f-4522-8a2b-5667c6dbda27","ios":"levelo://app?vid=29982826-bd7f-4522-8a2b-5667c6dbda27"},"vehicle_type_id":"4","last_reported":1741810230,"current_range_meters":13600,"station_id":"ce4bh2h2rcd13ifvqdh0","pricing_plan_id":"cebpf4jnsgd1na2vs0mg"},{"bike_id":"047ff11a-9f7a-41c5-ac2b-6db50e28e876","system_id":"levelo_inurba_marseille","lat":43.25862,"lon":5.39911,"is_reserved":false,"is_disabled":false,"rental_uris":{"android":"levelo://app?vid=047ff11a-9f7a-41c5-ac2b-6db50e28e876","ios":"levelo://app?vid=047ff11a-9f7a-41c5-ac2b-6db50e28e876"},"vehicle_type_id":"4","last_reported":1741810230,"current_range_meters":13600,"station_id":"ce4bhl92rcd13ifvqghg","pricing_plan_id":"cebpf4jnsgd1na2vs0mg"},{"bike_id":"9a4d3d2d-76b2-4803-9d2d-9f34841bf5c6","system_id":"levelo_inurba_marseille","lat":43.29917,"lon":5.37474,"is_reserved":false,"is_disabled":false,"rental_uris":{"android":"levelo://app?vid=9a4d3d2d-76b2-4803-9d2d-9f34841bf5c6","ios":"levelo://app?vid=9a4d3d2d-76b2-4803-9d2d-9f34841bf5c6"},"vehicle_type_id":"4","last_reported":1741810230,"current_range_meters":13600,"station_id":"ce4bgjh2rcd13ifvqbg0","pricing_plan_id":"cebpf4jnsgd1na2vs0mg"},{"bike_id":"23df97c9-a380-4881-971d-3a667cce51ad","system_id":"levelo_inurba_marseille","lat":43.29416,"lon":5.38624,"is_reserved":false,"is_disabled":false,"rental_uris":{"android":"levelo://app?vid=23df97c9-a380-4881-971d-3a667cce51ad","ios":"levelo://app?vid=23df97c9-a380-4881-971d-3a667cce51ad"},"vehicle_type_id":"4","last_reported":1741810230,"current_range_meters":13600,"station_id":"ce4bh2h2rcd13ifvqdh0","pricing_plan_id":"cebpf4jnsgd1na2vs0mg"},{"bike_id":"a0ffd1b3-5ff8-4075-8128-278d8ba3f767","system_id":"levelo_inurba_marseille","lat":43.29263,"lon":5.38451,"is_reserved":false,"is_disabled":false,"rental_uris":{"android":"levelo://app?vid=a0ffd1b3-5ff8-4075-8128-278d8ba3f767","ios":"levelo://app?vid=a0ffd1b3-5ff8-4075-8128-278d8ba3f767"},"vehicle_type_id":"4","last_reported":1741810230,"current_range_meters":13600,"station_id":"ce4bh692rcd13ifvqea0","pricing_plan_id":"cebpf4jnsgd1na2vs0mg"},{"bike_id":"b955a072-cbaf-4a3b-84f4-574c8c94c29d","system_id":"levelo_inurba_marseille","lat":43.312206,"lon":5.36862,"is_reserved":false,"is_disabled":false,"rental_uris":{"android":"levelo://app?vid=b955a072-cbaf-4a3b-84f4-574c8c94c29d","ios":"levelo://app?vid=b955a072-cbaf-4a3b-84f4-574c8c94c29d"},"vehicle_type_id":"4","last_reported":1741810230,"current_range_meters":14000,"station_id":"ce4bht12rcd13ifvqi60","pricing_plan_id":"cebpf4jnsgd1na2vs0mg"},{"bike_id":"cd5d0b10-4ab4-41f3-bae1-53b2390631ad","system_id":"levelo_inurba_marseille","lat":43.2943,"lon":5.38662,"is_reserved":false,"is_disabled":false,"rental_uris":{"android":"levelo://app?vid=cd5d0b10-4ab4-41f3-bae1-53b2390631ad","ios":"levelo://app?vid=cd5d0b10-4ab4-41f3-bae1-53b2390631ad"},"vehicle_type_id":"4","last_reported":1741810230,"current_range_meters":13600,"station_id":"ce4bh2h2rcd13ifvqdh0","pricing_plan_id":"cebpf4jnsgd1na2vs0mg"},{"bike_id":"9dde7abb-8f4c-492c-af04-4ca9fee80c35","system_id":"levelo_inurba_marseille","lat":43.29531,"lon":5.38544,"is_reserved":false,"is_disabled":false,"rental_uris":{"android":"levelo://app?vid=9dde7abb-8f4c-492c-af04-4ca9fee80c35","ios":"levelo://app?vid=9dde7abb-8f4c-492c-af04-4ca9fee80c35"},"vehicle_type_id":"4","last_reported":1741810230,"current_range_meters":14000,"station_id":"ce4bgih2rcd13ifvqba0","pricing_plan_id":"cebpf4jnsgd1na2vs0mg"},{"bike_id":"4fd966ea-0299-4885-bbf2-dc47de946512","system_id":"levelo_inurba_marseille","lat":43.30486,"lon":5.37269,"is_reserved":false,"is_disabled":false,"rental_uris":{"android":"levelo://app?vid=4fd966ea-0299-4885-bbf2-dc47de946512","ios":"levelo://app?vid=4fd966ea-0299-4885-bbf2-dc47de946512"},"vehicle_type_id":"4","last_reported":1741810230,"current_range_meters":14400,"station_id":"","pricing_plan_id":"cebpf4jnsgd1na2vs0mg"},{"bike_id":"160ee366-45ff-4abc-859b-170d32229d5d","system_id":"levelo_inurba_marseille","lat":43.23965,"lon":5.36636,"is_reserved":false,"is_disabled":false,"rental_uris":{"android":"levelo://app?vid=160ee366-45ff-4abc-859b-170d32229d5d","ios":"levelo://app?vid=160ee366-45ff-4abc-859b-170d32229d5d"},"vehicle_type_id":"4","last_reported":1741810230,"current_range_meters":14000,"station_id":"ce4bhi12rcd13ifvqfp0","pricing_plan_id":"cebpf4jnsgd1na2vs0mg"},{"bike_id":"cc38409c-6c20-4975-8405-e58da1ffedb6","system_id":"levelo_inurba_marseille","lat":43.29262,"lon":5.38444,"is_reserved":false,"is_disabled":false,"rental_uris":{"android":"levelo://app?vid=cc38409c-6c20-4975-8405-e58da1ffedb6","ios":"levelo://app?vid=cc38409c-6c20-4975-8405-e58da1ffedb6"},"vehicle_type_id":"4","last_reported":1741810230,"current_range_meters":15200,"station_id":"ce4bh692rcd13ifvqea0","pricing_plan_id":"cebpf4jnsgd1na2vs0mg"},{"bike_id":"7b8b288a-1263-4bb7-b082-b8cec0e2c2c0","system_id":"levelo_inurba_marseille","lat":43.3272,"lon":5.39176,"is_reserved":false,"is_disabled":false,"rental_uris":{"android":"levelo://app?vid=7b8b288a-1263-4bb7-b082-b8cec0e2c2c0","ios":"levelo://app?vid=7b8b288a-1263-4bb7-b082-b8cec0e2c2c0"},"vehicle_type_id":"4","last_reported":1741810230,"current_range_meters":14000,"station_id":"","pricing_plan_id":"cebpf4jnsgd1na2vs0mg"},{"bike_id":"3082748f-98e4-4f65-aad3-436c5bc661ca","system_id":"levelo_inurba_marseille","lat":43.27992,"lon":5.4002,"is_reserved":false,"is_disabled":false,"rental_uris":{"android":"levelo://app?vid=3082748f-98e4-4f65-aad3-436c5bc661ca","ios":"levelo://app?vid=3082748f-98e4-4f65-aad3-436c5bc661ca"},"vehicle_type_id":"4","last_reported":1741810230,"current_range_meters":14400,"station_id":"ce4bho92rcd13ifvqh4g","pricing_plan_id":"cebpf4jnsgd1na2vs0mg"},{"bike_id":"2a05d485-28f3-4d2d-a962-09a247e87f3a","system_id":"levelo_inurba_marseille","lat":43.27971,"lon":5.41055,"is_reserved":false,"is_disabled":false,"rental_uris":{"android":"levelo://app?vid=2a05d485-28f3-4d2d-a962-09a247e87f3a","ios":"levelo://app?vid=2a05d485-28f3-4d2d-a962-09a247e87f3a"},"vehicle_type_id":"4","last_reported":1741810230,"current_range_meters":14400,"station_id":"ce4bhnp2rcd13ifvqh0g","pricing_plan_id":"cebpf4jnsgd1na2vs0mg"},{"bike_id":"e85e7281-8ded-4f9f-9074-cd43c73f5f32","system_id":"levelo_inurba_marseille","lat":43.31352,"lon":5.37353,"is_reserved":false,"is_disabled":false,"rental_uris":{"android":"levelo://app?vid=e85e7281-8ded-4f9f-9074-cd43c73f5f32","ios":"levelo://app?vid=e85e7281-8ded-4f9f-9074-cd43c73f5f32"},"vehicle_type_id":"4","last_reported":1741810230,"current_range_meters":14400,"station_id":"","pricing_plan_id":"cebpf4jnsgd1na2vs0mg"},{"bike_id":"d1235ce3-1007-4d2d-9e28-ea39398a63a8","system_id":"levelo_inurba_marseille","lat":43.23199,"lon":5.35548,"is_reserved":false,"is_disabled":false,"rental_uris":{"android":"levelo://app?vid=d1235ce3-1007-4d2d-9e28-ea39398a63a8","ios":"levelo://app?vid=d1235ce3-1007-4d2d-9e28-ea39398a63a8"},"vehicle_type_id":"4","last_reported":1741810230,"current_range_meters":14400,"station_id":"ce4bhu92rcd13ifvqi70","pricing_plan_id":"cebpf4jnsgd1na2vs0mg"},{"bike_id":"0118782e-a9be-4c57-a3c6-f989e8d3b9bf","system_id":"levelo_inurba_marseille","lat":43.24172,"lon":5.39703,"is_reserved":false,"is_disabled":false,"rental_uris":{"android":"levelo://app?vid=0118782e-a9be-4c57-a3c6-f989e8d3b9bf","ios":"levelo://app?vid=0118782e-a9be-4c57-a3c6-f989e8d3b9bf"},"vehicle_type_id":"4","last_reported":1741810230,"current_range_meters":14400,"station_id":"ce4bhn12rcd13ifvqgpg","pricing_plan_id":"cebpf4jnsgd1na2vs0mg"},{"bike_id":"2be38cf2-4e50-409d-9087-ea95916b88f6","system_id":"levelo_inurba_marseille","lat":43.30808,"lon":5.38151,"is_reserved":false,"is_disabled":false,"rental_uris":{"android":"levelo://app?vid=2be38cf2-4e50-409d-9087-ea95916b88f6","ios":"levelo://app?vid=2be38cf2-4e50-409d-9087-ea95916b88f6"},"vehicle_type_id":"4","last_reported":1741810230,"current_range_meters":14400,"station_id":"ce4bgt12rcd13ifvqce0","pricing_plan_id":"cebpf4jnsgd1na2vs0mg"},{"bike_id":"c52a8d11-6815-4d71-ba96-6fbf4184892a","system_id":"levelo_inurba_marseille","lat":43.2781,"lon":5.40721,"is_reserved":false,"is_disabled":false,"rental_uris":{"android":"levelo://app?vid=c52a8d11-6815-4d71-ba96-6fbf4184892a","ios":"levelo://app?vid=c52a8d11-6815-4d71-ba96-6fbf4184892a"},"vehicle_type_id":"4","last_reported":1741810230,"current_range_meters":14400,"station_id":"ce4bhnh2rcd13ifvqgtg","pricing_plan_id":"cebpf4jnsgd1na2vs0mg"},{"bike_id":"a73a7eb4-64fe-4faa-9fa0-6f3d04ee788a","system_id":"levelo_inurba_marseille","lat":43.258177,"lon":5.394388,"is_reserved":false,"is_disabled":false,"rental_uris":{"android":"levelo://app?vid=a73a7eb4-64fe-4faa-9fa0-6f3d04ee788a","ios":"levelo://app?vid=a73a7eb4-64fe-4faa-9fa0-6f3d04ee788a"},"vehicle_type_id":"4","last_reported":1741810230,"current_range_meters":14000,"station_id":"ce4bhip2rcd13ifvqft0","pricing_plan_id":"cebpf4jnsgd1na2vs0mg"},{"bike_id":"303ff363-ae27-464f-897b-a8687ab6ce28","system_id":"levelo_inurba_marseille","lat":43.30883,"lon":5.39665,"is_reserved":false,"is_disabled":false,"rental_uris":{"android":"levelo://app?vid=303ff363-ae27-464f-897b-a8687ab6ce28","ios":"levelo://app?vid=303ff363-ae27-464f-897b-a8687ab6ce28"},"vehicle_type_id":"4","last_reported":1741810230,"current_range_meters":14400,"station_id":"ce4bh012rcd13ifvqcv0","pricing_plan_id":"cebpf4jnsgd1na2vs0mg"},{"bike_id":"058d7adb-74ba-4504-bed2-9e01a2164561","system_id":"levelo_inurba_marseille","lat":43.32652,"lon":5.40991,"is_reserved":false,"is_disabled":false,"rental_uris":{"android":"levelo://app?vid=058d7adb-74ba-4504-bed2-9e01a2164561","ios":"levelo://app?vid=058d7adb-74ba-4504-bed2-9e01a2164561"},"vehicle_type_id":"4","last_reported":1741810230,"current_range_meters":14800,"station_id":"ce4bhpp2rcd13ifvqhgg","pricing_plan_id":"cebpf4jnsgd1na2vs0mg"},{"bike_id":"aae329d6-ac52-44ca-941f-8f23afbb22d5","system_id":"levelo_inurba_marseille","lat":43.28921,"lon":5.38408,"is_reserved":false,"is_disabled":false,"rental_uris":{"android":"levelo://app?vid=aae329d6-ac52-44ca-941f-8f23afbb22d5","ios":"levelo://app?vid=aae329d6-ac52-44ca-941f-8f23afbb22d5"},"vehicle_type_id":"4","last_reported":1741810230,"current_range_meters":14800,"station_id":"ce4bh612rcd13ifvqe6g","pricing_plan_id":"cebpf4jnsgd1na2vs0mg"},{"bike_id":"61460e6d-e2a0-4402-821a-682e0cc31ae4","system_id":"levelo_inurba_marseille","lat":43.29276,"lon":5.38455,"is_reserved":false,"is_disabled":false,"rental_uris":{"android":"levelo://app?vid=61460e6d-e2a0-4402-821a-682e0cc31ae4","ios":"levelo://app?vid=61460e6d-e2a0-4402-821a-682e0cc31ae4"},"vehicle_type_id":"4","last_reported":1741810230,"current_range_meters":14800,"station_id":"ce4bh692rcd13ifvqea0","pricing_plan_id":"cebpf4jnsgd1na2vs0mg"},{"bike_id":"894adb72-eba3-4c31-be33-a34cdb918fbd","system_id":"levelo_inurba_marseille","lat":43.25731,"lon":5.41113,"is_reserved":false,"is_disabled":false,"rental_uris":{"android":"levelo://app?vid=894adb72-eba3-4c31-be33-a34cdb918fbd","ios":"levelo://app?vid=894adb72-eba3-4c31-be33-a34cdb918fbd"},"vehicle_type_id":"4","last_reported":1741810230,"current_range_meters":14800,"station_id":"ce4bhkp2rcd13ifvqgd0","pricing_plan_id":"cebpf4jnsgd1na2vs0mg"},{"bike_id":"1014bd52-360c-4243-b8f6-a17ddbb56a81","system_id":"levelo_inurba_marseille","lat":43.27979,"lon":5.41664,"is_reserved":false,"is_disabled":false,"rental_uris":{"android":"levelo://app?vid=1014bd52-360c-4243-b8f6-a17ddbb56a81","ios":"levelo://app?vid=1014bd52-360c-4243-b8f6-a17ddbb56a81"},"vehicle_type_id":"4","last_reported":1741810230,"current_range_meters":14800,"station_id":"ce4bho12rcd13ifvqh1g","pricing_plan_id":"cebpf4jnsgd1na2vs0mg"},{"bike_id":"5ca2eee7-ed1f-4c8e-9393-a08fde64e951","system_id":"levelo_inurba_marseille","lat":43.2926,"lon":5.38445,"is_reserved":false,"is_disabled":false,"rental_uris":{"android":"levelo://app?vid=5ca2eee7-ed1f-4c8e-9393-a08fde64e951","ios":"levelo://app?vid=5ca2eee7-ed1f-4c8e-9393-a08fde64e951"},"vehicle_type_id":"4","last_reported":1741810230,"current_range_meters":14800,"station_id":"ce4bh692rcd13ifvqea0","pricing_plan_id":"cebpf4jnsgd1na2vs0mg"},{"bike_id":"01a0330a-16c8-4f81-b93b-00d04a001f88","system_id":"levelo_inurba_marseille","lat":43.29847,"lon":5.362856,"is_reserved":false,"is_disabled":false,"rental_uris":{"android":"levelo://app?vid=01a0330a-16c8-4f81-b93b-00d04a001f88","ios":"levelo://app?vid=01a0330a-16c8-4f81-b93b-00d04a001f88"},"vehicle_type_id":"4","last_reported":1741810230,"current_range_meters":15200,"station_id":"ce4bgj92rcd13ifvqbd0","pricing_plan_id":"cebpf4jnsgd1na2vs0mg"},{"bike_id":"94b30f95-19e8-4b24-809a-d279976d82ea","system_id":"levelo_inurba_marseille","lat":43.31368,"lon":5.39646,"is_reserved":false,"is_disabled":false,"rental_uris":{"android":"levelo://app?vid=94b30f95-19e8-4b24-809a-d279976d82ea","ios":"levelo://app?vid=94b30f95-19e8-4b24-809a-d279976d82ea"},"vehicle_type_id":"4","last_reported":1741810230,"current_range_meters":15200,"station_id":"","pricing_plan_id":"cebpf4jnsgd1na2vs0mg"},{"bike_id":"671d55cb-191d-47bc-89c2-8691b74c74cc","system_id":"levelo_inurba_marseille","lat":43.28491,"lon":5.36001,"is_reserved":false,"is_disabled":false,"rental_uris":{"android":"levelo://app?vid=671d55cb-191d-47bc-89c2-8691b74c74cc","ios":"levelo://app?vid=671d55cb-191d-47bc-89c2-8691b74c74cc"},"vehicle_type_id":"4","last_reported":1741810230,"current_range_meters":15200,"station_id":"","pricing_plan_id":"cebpf4jnsgd1na2vs0mg"},{"bike_id":"84756c0b-3dd0-4737-8169-fb5dd993aef4","system_id":"levelo_inurba_marseille","lat":43.29262,"lon":5.37404,"is_reserved":false,"is_disabled":false,"rental_uris":{"android":"levelo://app?vid=84756c0b-3dd0-4737-8169-fb5dd993aef4","ios":"levelo://app?vid=84756c0b-3dd0-4737-8169-fb5dd993aef4"},"vehicle_type_id":"4","last_reported":1741810230,"current_range_meters":15200,"station_id":"","pricing_plan_id":"cebpf4jnsgd1na2vs0mg"},{"bike_id":"8a692c7e-588c-478a-92f7-a2e29f46fd28","system_id":"levelo_inurba_marseille","lat":43.29965,"lon":5.38491,"is_reserved":false,"is_disabled":false,"rental_uris":{"android":"levelo://app?vid=8a692c7e-588c-478a-92f7-a2e29f46fd28","ios":"levelo://app?vid=8a692c7e-588c-478a-92f7-a2e29f46fd28"},"vehicle_type_id":"4","last_reported":1741810230,"current_range_meters":15200,"station_id":"ce4bgj92rcd13ifvqbd0","pricing_plan_id":"cebpf4jnsgd1na2vs0mg"},{"bike_id":"ba24594a-7700-4799-b6f2-d711d1af9e8a","system_id":"levelo_inurba_marseille","lat":43.29034,"lon":5.38626,"is_reserved":false,"is_disabled":false,"rental_uris":{"android":"levelo://app?vid=ba24594a-7700-4799-b6f2-d711d1af9e8a","ios":"levelo://app?vid=ba24594a-7700-4799-b6f2-d711d1af9e8a"},"vehicle_type_id":"4","last_reported":1741810230,"current_range_meters":15200,"station_id":"ce4bh4p2rcd13ifvqe0g","pricing_plan_id":"cebpf4jnsgd1na2vs0mg"},{"bike_id":"80e6c4f3-6c83-4b95-a119-e9ce9d2bff31","system_id":"levelo_inurba_marseille","lat":43.28103,"lon":5.37837,"is_reserved":false,"is_disabled":false,"rental_uris":{"android":"levelo://app?vid=80e6c4f3-6c83-4b95-a119-e9ce9d2bff31","ios":"levelo://app?vid=80e6c4f3-6c83-4b95-a119-e9ce9d2bff31"},"vehicle_type_id":"4","last_reported":1741810230,"current_range_meters":15200,"station_id":"ce4bha12rcd13ifvqee0","pricing_plan_id":"cebpf4jnsgd1na2vs0mg"},{"bike_id":"47e69b59-ebb6-4704-8786-703b1e4ed927","system_id":"levelo_inurba_marseille","lat":43.24179,"lon":5.39729,"is_reserved":false,"is_disabled":false,"rental_uris":{"android":"levelo://app?vid=47e69b59-ebb6-4704-8786-703b1e4ed927","ios":"levelo://app?vid=47e69b59-ebb6-4704-8786-703b1e4ed927"},"vehicle_type_id":"4","last_reported":1741810230,"current_range_meters":15200,"station_id":"ce4bhn12rcd13ifvqgpg","pricing_plan_id":"cebpf4jnsgd1na2vs0mg"},