{"last_updated":1686258426,"ttl":30,"version":"2.2","data":{"bikes":[{"bike_id":"989e5bd5-3b35-4a59-bccb-f02bbef3c08f","system_id":"levelo_inurba_marseille","lat":43.31485,"lon":5.37307,"is_reserved":false,"is_disabled":false,"rental_uris":{"android":"levelo://app?vid=989e5bd5-3b35-4a59-bccb-f02bbef3c08f","ios":"levelo://app?vid=989e5bd5-3b35-4a59-bccb-f02bbef3c08f"},"vehicle_type_id":"4","last_reported":1686258427,"current_range_meters":12400,"station_id":"ce4bgt12rcd13ifvqcd0","pricing_plan_id":"free"},{"bike_id":"223bda41-7f6c-4e61-bc08-d7790a943046","system_id":"levelo_inurba_marseille","lat":43.308606,"lon":5.372099,"is_reserved":false,"is_disabled":false,"rental_uris":{"android":"levelo://app?vid=223bda41-7f6c-4e61-bc08-d7790a943046","ios":"levelo://app?vid=223bda41-7f6c-4e61-bc08-d7790a943046"},"vehicle_type_id":"4","last_reported":1686258427,"current_range_meters":19200,"station_id":"ce4bguh2rcd13ifvqckg","pricing_plan_id":"free"},{"bike_id":"9937c74c-2917-42de-b629-681dcf9f5b3a","system_id":"levelo_inurba_marseille","lat":43.308606,"lon":5.372099,"is_reserved":false,"is_disabled":false,"rental_uris":{"android":"levelo://app?vid=9937c74c-2917-42de-b629-681dcf9f5b3a","ios":"levelo://app?vid=9937c74c-2917-42de-b629-681dcf9f5b3a"},"vehicle_type_id":"4","last_reported":1686258427,"current_range_meters":23200,"station_id":"ce4bguh2rcd13ifvqckg","pricing_plan_id":"free"},{"bike_id":"641e2779-6a88-445b-aeef-9d648b0d8863","system_id":"levelo_inurba_marseille","lat":43.308606,"lon":5.372099,"is_reserved":false,"is_disabled":false,"rental_uris":{"android":"levelo://app?vid=641e2779-6a88-445b-aeef-9d648b0d8863","ios":"levelo://app?vid=641e2779-6a88-445b-aeef-9d648b0d8863"},"vehicle_type_id":"4","last_reported":1686258427,"current_range_meters":16800,"station_id":"ce4bguh2rcd13ifvqckg","pricing_plan_id":"free"},{"bike_id":"c6699cfc-6f7d-4ee1-9146-5289e6f2fc49","system_id":"levelo_inurba_marseille","lat":43.308614,"lon":5.372098,"is_reserved":false,"is_disabled":false,"rental_uris":{"android":"levelo://app?vid=c6699cfc-6f7d-4ee1-9146-5289e6f2fc49","ios":"levelo://app?vid=c6699cfc-6f7d-4ee1-9146-5289e6f2fc49"},"vehicle_type_id":"4","last_reported":1686258427,"current_range_meters":800,"station_id":"ce4bguh2rcd13ifvqckg","pricing_plan_id":"free"},{"bike_id":"9cc47ae5-be30-45b6-85f9-d8455b7bc350","system_id":"levelo_inurba_marseille","lat":43.31548,"lon":5.3744,"is_reserved":false,"is_disabled":false,"rental_uris":{"android":"levelo://app?vid=9cc47ae5-be30-45b6-85f9-d8455b7bc350","ios":"levelo://app?vid=9cc47ae5-be30-45b6-85f9-d8455b7bc350"},"vehicle_type_id":"4","last_reported":1686258427,"current_range_meters":0,"station_id":"","pricing_plan_id":"free"},{"bike_id":"4ab06700-3393-412b-9d20-df3149cd4250","system_id":"levelo_inurba_marseille","lat":43.30807,"lon":5.37355,"is_reserved":false,"is_disabled":false,"rental_uris":{"android":"levelo://app?vid=4ab06700-3393-412b-9d20-df3149cd4250","ios":"levelo://app?vid=4ab06700-3393-412b-9d20-df3149cd4250"},"vehicle_type_id":"4","last_reported":1686258427,"current_range_meters":2400,"station_id":"","pricing_plan_id":"free"},{"bike_id":"2d0d30cb-63af-42ea-b568-864ac332e81a","system_id":"levelo_inurba_marseille","lat":43.305706,"lon":5.365654,"is_reserved":false,"is_disabled":false,"rental_uris":{"android":"levelo://app?vid=2d0d30cb-63af-42ea-b568-864ac332e81a","ios":"levelo://app?vid=2d0d30cb-63af-42ea-b568-864ac332e81a"},"vehicle_type_id":"4","last_reported":1686258427,"current_range_meters":6800,"station_id":"ce4bgs12rcd13ifvqcag","pricing_plan_id":"free"},{"bike_id":"1688bf2d-6c6b-45d4-8d24-4ece974f3fc4","system_id":"levelo_inurba_marseille","lat":43.305368,"lon":5.367343,"is_reserved":false,"is_disabled":false,"rental_uris":{"android":"levelo://app?vid=1688bf2d-6c6b-45d4-8d24-4ece974f3fc4","ios":"levelo://app?vid=1688bf2d-6c6b-45d4-8d24-4ece974f3fc4"},"vehicle_type_id":"4","last_reported":1686258427,"current_range_meters":0,"station_id":"ce4bgrp2rcd13ifvqc9g","pricing_plan_id":"free"},{"bike_id":"4ce7fe61-27a1-4bf6-9d1e-ba2a5bc550b2","system_id":"levelo_inurba_marseille","lat":43.32017,"lon":5.36571,"is_reserved":false,"is_disabled":false,"rental_uris":{"android":"levelo://app?vid=4ce7fe61-27a1-4bf6-9d1e-ba2a5bc550b2","ios":"levelo://app?vid=4ce7fe61-27a1-4bf6-9d1e-ba2a5bc550b2"},"vehicle_type_id":"4","last_reported":1686258427,"current_range_meters":22000,"station_id":"","pricing_plan_id":"free"},{"bike_id":"ec55faca-c520-4821-ac9c-9f2ccb25cecc","system_id":"levelo_inurba_marseille","lat":43.311243,"lon":5.377688,"is_reserved":false,"is_disabled":false,"rental_uris":{"android":"levelo://app?vid=ec55faca-c520-4821-ac9c-9f2ccb25cecc","ios":"levelo://app?vid=ec55faca-c520-4821-ac9c-9f2ccb25cecc"},"vehicle_type_id":"4","last_reported":1686258427,"current_range_meters":0,"station_id":"","pricing_plan_id":"free"},{"bike_id":"2d2bd2ca-26ed-40d0-bd9b-b33ad28eaf6e","system_id":"levelo_inurba_marseille","lat":43.31114,"lon":5.37766,"is_reserved":false,"is_disabled":false,"rental_uris":{"android":"levelo://app?vid=2d2bd2ca-26ed-40d0-bd9b-b33ad28eaf6e","ios":"levelo://app?vid=2d2bd2ca-26ed-40d0-bd9b-b33ad28eaf6e"},"vehicle_type_id":"4","last_reported":1686258427,"current_range_meters":6000,"station_id":"ce4bgt92rcd13ifvqcg0","pricing_plan_id":"free"},{"bike_id":"b9e24292-f43d-4f0e-a5dd-71718ec95d8d","system_id":"levelo_inurba_marseille","lat":43.311131,"lon":5.377651,"is_reserved":false,"is_disabled":false,"rental_uris":{"android":"levelo://app?vid=b9e24292-f43d-4f0e-a5dd-71718ec95d8d","ios":"levelo://app?vid=b9e24292-f43d-4f0e-a5dd-71718ec95d8d"},"vehicle_type_id":"4","last_reported":1686258427,"current_range_meters":4000,"station_id":"ce4bgt92rcd13ifvqcg0","pricing_plan_id":"free"},{"bike_id":"e8b571c2-4afa-4df4-a18a-b79d3cbdf79d","system_id":"levelo_inurba_marseille","lat":43.31118,"lon":5.37773,"is_reserved":false,"is_disabled":false,"rental_uris":{"android":"levelo://app?vid=e8b571c2-4afa-4df4-a18a-b79d3cbdf79d","ios":"levelo://app?vid=e8b571c2-4afa-4df4-a18a-b79d3cbdf79d"},"vehicle_type_id":"4","last_reported":1686258427,"current_range_meters":0,"station_id":"ce4bgt92rcd13ifvqcg0","pricing_plan_id":"free"},{"bike_id":"dd9e4c39-fd2e-4046-a9e4-8fbce62816df","system_id":"levelo_inurba_marseille","lat":43.31115,"lon":5.37777,"is_reserved":false,"is_disabled":false,"rental_uris":{"android":"levelo://app?vid=dd9e4c39-fd2e-4046-a9e4-8fbce62816df","ios":"levelo://app?vid=dd9e4c39-fd2e-4046-a9e4-8fbce62816df"},"vehicle_type_id":"4","last_reported":1686258427,"current_range_meters":21200,"station_id":"ce4bgt92rcd13ifvqcg0","pricing_plan_id":"free"},{"bike_id":"fa0f7117-f8c1-45f7-ba94-e2396bd314a7","system_id":"levelo_inurba_marseille","lat":43.30304,"lon":5.368987,"is_reserved":false,"is_disabled":false,"rental_uris":{"android":"levelo://app?vid=fa0f7117-f8c1-45f7-ba94-e2396bd314a7","ios":"levelo://app?vid=fa0f7117-f8c1-45f7-ba94-e2396bd314a7"},"vehicle_type_id":"4","last_reported":1686258427,"current_range_meters":14400,"station_id":"ce4bgqh2rcd13ifvqc5g","pricing_plan_id":"free"},{"bike_id":"c0b14b0a-232a-4984-ad92-e1705edabf32","system_id":"levelo_inurba_marseille","lat":43.30304,"lon":5.368987,"is_reserved":false,"is_disabled":false,"rental_uris":{"android":"levelo://app?vid=c0b14b0a-232a-4984-ad92-e1705edabf32","ios":"levelo://app?vid=c0b14b0a-232a-4984-ad92-e1705edabf32"},"vehicle_type_id":"4","last_reported":1686258427,"current_range_meters":0,"station_id":"ce4bgqh2rcd13ifvqc5g","pricing_plan_id":"free"},{"bike_id":"1a63f548-8b68-4666-854e-e7490b1fe764","system_id":"levelo_inurba_marseille","lat":43.30806,"lon":5.38137,"is_reserved":false,"is_disabled":false,"rental_uris":{"android":"levelo://app?vid=1a63f548-8b68-4666-854e-e7490b1fe764","ios":"levelo://app?vid=1a63f548-8b68-4666-854e-e7490b1fe764"},"vehicle_type_id":"4","last_reported":1686258427,"current_range_meters":0,"station_id":"ce4bgt12rcd13ifvqce0","pricing_plan_id":"free"},{"bike_id":"0db1574e-2646-4936-bbb0-9a8fe0298ddf","system_id":"levelo_inurba_marseille","lat":43.30805,"lon":5.3815,"is_reserved":false,"is_disabled":false,"rental_uris":{"android":"levelo://app?vid=0db1574e-2646-4936-bbb0-9a8fe0298ddf","ios":"levelo://app?vid=0db1574e-2646-4936-bbb0-9a8fe0298ddf"},"vehicle_type_id":"4","last_reported":1686258427,"current_range_meters":31200,"station_id":"ce4bgt12rcd13ifvqce0","pricing_plan_id":"free"},{"bike_id":"ecb57a21-c7ed-449f-ad36-393be124301f","system_id":"levelo_inurba_marseille","lat":43.308012,"lon":5.381511,"is_reserved":false,"is_disabled":false,"rental_uris":{"android":"levelo://app?vid=ecb57a21-c7ed-449f-ad36-393be124301f","ios":"levelo://app?vid=ecb57a21-c7ed-449f-ad36-393be124301f"},"vehicle_type_id":"4","last_reported":1686258427,"current_range_meters":1200,"station_id":"ce4bgt12rcd13ifvqce0","pricing_plan_id":"free"},{"bike_id":"1a673e84-69bf-479d-a435-7e4cdf742cb6","system_id":"levelo_inurba_marseille","lat":43.308012,"lon":5.381511,"is_reserved":false,"is_disabled":false,"rental_uris":{"android":"levelo://app?vid=1a673e84-69bf-479d-a435-7e4cdf742cb6","ios":"levelo://app?vid=1a673e84-69bf-479d-a435-7e4cdf742cb6"},"vehicle_type_id":"4","last_reported":1686258427,"current_range_meters":3200,"station_id":"ce4bgt12rcd13ifvqce0","pricing_plan_id":"free"},{"bike_id":"673f202b-98e5-463d-bdf1-d945fc1cd200","system_id":"levelo_inurba_marseille","lat":43.308012,"lon":5.381511,"is_reserved":false,"is_disabled":false,"rental_uris":{"android":"levelo://app?vid=673f202b-98e5-463d-bdf1-d945fc1cd200","ios":"levelo://app?vid=673f202b-98e5-463d-bdf1-d945fc1cd200"},"vehicle_type_id":"4","last_reported":1686258427,"current_range_meters":0,"station_id":"ce4bgt12rcd13ifvqce0","pricing_plan_id":"free"},{"bike_id":"63cb9535-7353-49db-a925-cde7bb1a25f1","system_id":"levelo_inurba_marseille","lat":43.304606,"lon":5.379026,"is_reserved":false,"is_disabled":false,"rental_uris":{"android":"levelo://app?vid=63cb9535-7353-49db-a925-cde7bb1a25f1","ios":"levelo://app?vid=63cb9535-7353-49db-a925-cde7bb1a25f1"},"vehicle_type_id":"4","last_reported":1686258427,"current_range_meters":2800,"station_id":"ce4bgup2rcd13ifvqcn0","pricing_plan_id":"free"},{"bike_id":"7b5b8639-a4e2-47ee-9da8-1f1806de73aa","system_id":"levelo_inurba_marseille","lat":43.31278,"lon":5.38353,"is_reserved":false,"is_disabled":false,"rental_uris":{"android":"levelo://app?vid=7b5b8639-a4e2-47ee-9da8-1f1806de73aa","ios":"levelo://app?vid=7b5b8639-a4e2-47ee-9da8-1f1806de73aa"},"vehicle_type_id":"4","last_reported":1686258427,"current_range_meters":31200,"station_id":"","pricing_plan_id":"free"},{"bike_id":"faac1d2a-7f28-4ebb-9520-fe15bb68b150","system_id":"levelo_inurba_marseille","lat":43.31266,"lon":5.38363,"is_reserved":false,"is_disabled":false,"rental_uris":{"android":"levelo://app?vid=faac1d2a-7f28-4ebb-9520-fe15bb68b150","ios":"levelo://app?vid=faac1d2a-7f28-4ebb-9520-fe15bb68b150"},"vehicle_type_id":"4","last_reported":1686258427,"current_range_meters":10800,"station_id":"","pricing_plan_id":"free"},{"bike_id":"8907de89-0866-461e-84e7-77d875c4d33e","system_id":"levelo_inurba_marseille","lat":43.319935,"lon":5.381699,"is_reserved":false,"is_disabled":false,"rental_uris":{"android":"levelo://app?vid=8907de89-0866-461e-84e7-77d875c4d33e","ios":"levelo://app?vid=8907de89-0866-461e-84e7-77d875c4d33e"},"vehicle_type_id":"4","last_reported":1686258427,"current_range_meters":3600,"station_id":"ce4bhr12rcd13ifvqhpg","pricing_plan_id":"free"},{"bike_id":"a87d4f9b-a0fe-4564-b74d-d5e67028b4ce","system_id":"levelo_inurba_marseille","lat":43.319935,"lon":5.381699,"is_reserved":false,"is_disabled":false,"rental_uris":{"android":"levelo://app?vid=a87d4f9b-a0fe-4564-b74d-d5e67028b4ce","ios":"levelo://app?vid=a87d4f9b-a0fe-4564-b74d-d5e67028b4ce"},"vehicle_type_id":"4","last_reported":1686258427,"current_range_meters":5600,"station_id":"ce4bhr12rcd13ifvqhpg","pricing_plan_id":"free"},{"bike_id":"0ab79bb0-5701-472f-bc16-9531b0dcbffe","system_id":"levelo_inurba_marseille","lat":43.319935,"lon":5.381699,"is_reserved":false,"is_disabled":false,"rental_uris":{"android":"levelo://app?vid=0ab79bb0-5701-472f-bc16-9531b0dcbffe","ios":"levelo://app?vid=0ab79bb0-5701-472f-bc16-9531b0dcbffe"},"vehicle_type_id":"4","last_reported":1686258427,"current_range_meters":6000,"station_id":"ce4bhr12rcd13ifvqhpg","pricing_plan_id":"free"},{"bike_id":"6580c645-2dab-4af5-ab99-b3908aa53a59","system_id":"levelo_inurba_marseille","lat":43.319935,"lon":5.381699,"is_reserved":false,"is_disabled":false,"rental_uris":{"android":"levelo://app?vid=6580c645-2dab-4af5-ab99-b3908aa53a59","ios":"levelo://app?vid=6580c645-2dab-4af5-ab99-b3908aa53a59"},"vehicle_type_id":"4","last_reported":1686258427,"current_range_meters":3600,"station_id":"ce4bhr12rcd13ifvqhpg","pricing_plan_id":"free"},{"bike_id":"60f5b226-bee3-4c4d-a492-24a6ee57846b","system_id":"levelo_inurba_marseille","lat":43.29924,"lon":5.37474,"is_reserved":false,"is_disabled":false,"rental_uris":{"android":"levelo://app?vid=60f5b226-bee3-4c4d-a492-24a6ee57846b","ios":"levelo://app?vid=60f5b226-bee3-4c4d-a492-24a6ee57846b"},"vehicle_type_id":"4","last_reported":1686258427,"current_range_meters":0,"station_id":"ce4bgjh2rcd13ifvqbg0","pricing_plan_id":"free"},{"bike_id":"1a4200aa-70a0-455d-97f6-86d575947457","system_id":"levelo_inurba_marseille","lat":43.299243,"lon":5.374807,"is_reserved":false,"is_disabled":false,"rental_uris":{"android":"levelo://app?vid=1a4200aa-70a0-455d-97f6-86d575947457","ios":"levelo://app?vid=1a4200aa-70a0-455d-97f6-86d575947457"},"vehicle_type_id":"4","last_reported":1686258427,"current_range_meters":31200,"station_id":"ce4bgjh2rcd13ifvqbg0","pricing_plan_id":"free"},{"bike_id":"bf088a44-a24d-4ff6-a0fc-514116badddb","system_id":"levelo_inurba_marseille","lat":43.299243,"lon":5.374807,"is_reserved":false,"is_disabled":false,"rental_uris":{"android":"levelo://app?vid=bf088a44-a24d-4ff6-a0fc-514116badddb","ios":"levelo://app?vid=bf088a44-a24d-4ff6-a0fc-514116badddb"},"vehicle_type_id":"4","last_reported":1686258427,"current_range_meters":31200,"station_id":"ce4bgjh2rcd13ifvqbg0","pricing_plan_id":"free"},{"bike_id":"91e432fc-8eb6-4533-8a1f-57aebbae35bd","system_id":"levelo_inurba_marseille","lat":43.32819,"lon":5.36688,"is_reserved":false,"is_disabled":false,"rental_uris":{"android":"levelo://app?vid=91e432fc-8eb6-4533-8a1f-57aebbae35bd","ios":"levelo://app?vid=91e432fc-8eb6-4533-8a1f-57aebbae35bd"},"vehicle_type_id":"4","last_reported":1686258427,"current_range_meters":2800,"station_id":"ce4bhs92rcd13ifvqi0g","pricing_plan_id":"free"},{"bike_id":"c80d8a45-1b95-422c-96af-ba61c1417221","system_id":"levelo_inurba_marseille","lat":43.328371,"lon":5.366912,"is_reserved":false,"is_disabled":false,"rental_uris":{"android":"levelo://app?vid=c80d8a45-1b95-422c-96af-ba61c1417221","ios":"levelo://app?vid=c80d8a45-1b95-422c-96af-ba61c1417221"},"vehicle_type_id":"4","last_reported":1686258427,"current_range_meters":6400,"station_id":"ce4bhs92rcd13ifvqi0g","pricing_plan_id":"free"},{"bike_id":"90a202f1-542d-424c-8947-4df412c7666e","system_id":"levelo_inurba_marseille","lat":43.296131,"lon":5.370773,"is_reserved":false,"is_disabled":false,"rental_uris":{"android":"levelo://app?vid=90a202f1-542d-424c-8947-4df412c7666e","ios":"levelo://app?vid=90a202f1-542d-424c-8947-4df412c7666e"},"vehicle_type_id":"4","last_reported":1686258427,"current_range_meters":8800,"station_id":"ce4bgnh2rcd13ifvqc0g","pricing_plan_id":"free"},{"bike_id":"107e244d-3d85-4ce4-bc2b-3a75d744302f","system_id":"levelo_inurba_marseille","lat":43.29595,"lon":5.37086,"is_reserved":false,"is_disabled":false,"rental_uris":{"android":"levelo://app?vid=107e244d-3d85-4ce4-bc2b-3a75d744302f","ios":"levelo://app?vid=107e244d-3d85-4ce4-bc2b-3a75d744302f"},"vehicle_type_id":"4","last_reported":1686258427,"current_range_meters":0,"station_id":"","pricing_plan_id":"free"},{"bike_id":"3ecfe757-05ef-44cd-b3d2-d1a393c623a6","system_id":"levelo_inurba_marseille","lat":43.317557,"lon":5.390173,"is_reserved":false,"is_disabled":false,"rental_uris":{"android":"levelo://app?vid=3ecfe757-05ef-44cd-b3d2-d1a393c623a6","ios":"levelo://app?vid=3ecfe757-05ef-44cd-b3d2-d1a393c623a6"},"vehicle_type_id":"4","last_reported":1686258427,"current_range_meters":31200,"station_id":"ce4bhqp2rcd13ifvqhng","pricing_plan_id":"free"},{"bike_id":"6396db74-9c7e-4910-9a68-5f15c5178ef9","system_id":"levelo_inurba_marseille","lat":43.31754,"lon":5.39022,"is_reserved":false,"is_disabled":false,"rental_uris":{"android":"levelo://app?vid=6396db74-9c7e-4910-9a68-5f15c5178ef9","ios":"levelo://app?vid=6396db74-9c7e-4910-9a68-5f15c5178ef9"},"vehicle_type_id":"4","last_reported":1686258427,"current_range_meters":12400,"station_id":"ce4bhqp2rcd13ifvqhng","pricing_plan_id":"free"},{"bike_id":"3fcaefa9-a2d7-45ab-be04-14180a6e4337","system_id":"levelo_inurba_marseille","lat":43.317557,"lon":5.390173,"is_reserved":false,"is_disabled":false,"rental_uris":{"android":"levelo://app?vid=3fcaefa9-a2d7-45ab-be04-14180a6e4337","ios":"levelo://app?vid=3fcaefa9-a2d7-45ab-be04-14180a6e4337"},"vehicle_type_id":"4","last_reported":1686258427,"current_range_meters":22400,"station_id":"ce4bhqp2rcd13ifvqhng","pricing_plan_id":"free"},{"bike_id":"f366480f-bbad-4cc0-bf59-2f828b77fa50","system_id":"levelo_inurba_marseille","lat":43.295748,"lon":5.37522,"is_reserved":false,"is_disabled":false,"rental_uris":{"android":"levelo://app?vid=f366480f-bbad-4cc0-bf59-2f828b77fa50","ios":"levelo://app?vid=f366480f-bbad-4cc0-bf59-2f828b77fa50"},"vehicle_type_id":"4","last_reported":1686258427,"current_range_meters":0,"station_id":"ce4bgh92rcd13ifvqb50","pricing_plan_id":"free"},{"bike_id":"5652777a-8a5c-487c-8b28-b81610bf5d3d","system_id":"levelo_inurba_marseille","lat":43.29606,"lon":5.37728,"is_reserved":false,"is_disabled":false,"rental_uris":{"android":"levelo://app?vid=5652777a-8a5c-487c-8b28-b81610bf5d3d","ios":"levelo://app?vid=5652777a-8a5c-487c-8b28-b81610bf5d3d"},"vehicle_type_id":"4","last_reported":1686258427,"current_range_meters":0,"station_id":"","pricing_plan_id":"free"},{"bike_id":"be8f042a-5a25-4c39-b3e4-fb95cf66c7f2","system_id":"levelo_inurba_marseille","lat":43.29965,"lon":5.38502,"is_reserved":false,"is_disabled":false,"rental_uris":{"android":"levelo://app?vid=be8f042a-5a25-4c39-b3e4-fb95cf66c7f2","ios":"levelo://app?vid=be8f042a-5a25-4c39-b3e4-fb95cf66c7f2"},"vehicle_type_id":"4","last_reported":1686258427,"current_range_meters":0,"station_id":"ce4bgj92rcd13ifvqbd0","pricing_plan_id":"free"},{"bike_id":"1b51e7c6-375a-484f-bc4a-0fd67f5bf43d","system_id":"levelo_inurba_marseille","lat":43.299724,"lon":5.384848,"is_reserved":false,"is_disabled":false,"rental_uris":{"android":"levelo://app?vid=1b51e7c6-375a-484f-bc4a-0fd67f5bf43d","ios":"levelo://app?vid=1b51e7c6-375a-484f-bc4a-0fd67f5bf43d"},"vehicle_type_id":"4","last_reported":1686258427,"current_range_meters":0,"station_id":"ce4bgj92rcd13ifvqbd0","pricing_plan_id":"free"},{"bike_id":"3a0a8c6d-71c1-47f5-900a-8b74e7978c82","system_id":"levelo_inurba_marseille","lat":43.32364,"lon":5.38877,"is_reserved":false,"is_disabled":false,"rental_uris":{"android":"levelo://app?vid=3a0a8c6d-71c1-47f5-900a-8b74e7978c82","ios":"levelo://app?vid=3a0a8c6d-71c1-47f5-900a-8b74e7978c82"},"vehicle_type_id":"4","last_reported":1686258427,"current_range_meters":0,"station_id":"ce4bhqp2rcd13ifvqhog","pricing_plan_id":"free"},{"bike_id":"639054e4-bf53-493f-93e7-f8222d728fc5","system_id":"levelo_inurba_marseille","lat":43.32372,"lon":5.38882,"is_reserved":false,"is_disabled":false,"rental_uris":{"android":"levelo://app?vid=639054e4-bf53-493f-93e7-f8222d728fc5","ios":"levelo://app?vid=639054e4-bf53-493f-93e7-f8222d728fc5"},"vehicle_type_id":"4","last_reported":1686258427,"current_range_meters":9200,"station_id":"ce4bhqp2rcd13ifvqhog","pricing_plan_id":"free"},{"bike_id":"87bb2c1e-ea53-44b4-b8f1-ecb8fc2a77a7","system_id":"levelo_inurba_marseille","lat":43.32371,"lon":5.38891,"is_reserved":false,"is_disabled":false,"rental_uris":{"android":"levelo://app?vid=87bb2c1e-ea53-44b4-b8f1-ecb8fc2a77a7","ios":"levelo://app?vid=87bb2c1e-ea53-44b4-b8f1-ecb8fc2a77a7"},"vehicle_type_id":"4","last_reported":1686258427,"current_range_meters":24000,"station_id":"ce4bhqp2rcd13ifvqhog","pricing_plan_id":"free"},{"bike_id":"48e6a9b7-2d73-44d3-9be1-c5c5250964d3","system_id":"levelo_inurba_marseille","lat":43.29602,"lon":5.381084,"is_reserved":false,"is_disabled":false,"rental_uris":{"android":"levelo://app?vid=48e6a9b7-2d73-44d3-9be1-c5c5250964d3","ios":"levelo://app?vid=48e6a9b7-2d73-44d3-9be1-c5c5250964d3"},"vehicle_type_id":"4","last_reported":1686258427,"current_range_meters":31200,"station_id":"ce4bgl12rcd13ifvqbo0","pricing_plan_id":"free"},{"bike_id":"452142e3-b392-43b8-9fb4-3498d3b06169","system_id":"levelo_inurba_marseille","lat":43.293249,"lon":5.371578,"is_reserved":false,"is_disabled":false,"rental_uris":{"android":"levelo://app?vid=452142e3-b392-43b8-9fb4-3498d3b06169","ios":"levelo://app?vid=452142e3-b392-43b8-9fb4-3498d3b06169"},"vehicle_type_id":"4","last_reported":1686258427,"current_range_meters":0,"station_id":"ce4bgh92rcd13ifvqb40","pricing_plan_id":"free"},{"bike_id":"45234217-5e5e-40f9-8e57-a91cb716cad9","system_id":"levelo_inurba_marseille","lat":43.29496,"lon":5.38107,"is_reserved":false,"is_disabled":false,"rental_uris":{"android":"levelo://app?vid=45234217-5e5e-40f9-8e57-a91cb716cad9","ios":"levelo://app?vid=45234217-5e5e-40f9-8e57-a91cb716cad9"},"vehicle_type_id":"4","last_reported":1686258427,"current_range_meters":0,"station_id":"","pricing_plan_id":"free"},{"bike_id":"0498cb99-5ada-4681-8a6a-4b7b79addba5","system_id":"levelo_inurba_marseille","lat":43.303002,"lon":5.392142,"is_reserved":false,"is_disabled":false,"rental_uris":{"android":"levelo://app?vid=0498cb99-5ada-4681-8a6a-4b7b79addba5","ios":"levelo://app?vid=0498cb99-5ada-4681-8a6a-4b7b79addba5"},"vehicle_type_id":"4","last_reported":1686258427,"current_range_meters":30400,"station_id":"ce4bgkh2rcd13ifvqbk0","pricing_plan_id":"free"},{"bike_id":"61e4ccfd-dc98-4837-8123-2dfa5e087f42","system_id":"levelo_inurba_marseille","lat":43.293723,"lon":5.378443,"is_reserved":false,"is_disabled":false,"rental_uris":{"android":"levelo://app?vid=61e4ccfd-dc98-4837-8123-2dfa5e087f42","ios":"levelo://app?vid=61e4ccfd-dc98-4837-8123-2dfa5e087f42"},"vehicle_type_id":"4","last_reported":1686258427,"current_range_meters":10000,"station_id":"","pricing_plan_id":"free"},{"bike_id":"42a3950e-8a81-4705-bf51-112f68df2058","system_id":"levelo_inurba_marseille","lat":43.300852,"lon":5.390859,"is_reserved":false,"is_disabled":false,"rental_uris":{"android":"levelo://app?vid=42a3950e-8a81-4705-bf51-112f68df2058","ios":"levelo://app?vid=42a3950e-8a81-4705-bf51-112f68df2058"},"vehicle_type_id":"4","last_reported":1686258427,"current_range_meters":800,"station_id":"ce4bh192rcd13ifvqdb0","pricing_plan_id":"free"},{"bike_id":"f3d7317e-7ba2-4442-a49e-2068e6a6b085","system_id":"levelo_inurba_marseille","lat":43.29219,"lon":5.36046,"is_reserved":false,"is_disabled":false,"rental_uris":{"android":"levelo://app?vid=f3d7317e-7ba2-4442-a49e-2068e6a6b085","ios":"levelo://app?vid=f3d7317e-7ba2-4442-a49e-2068e6a6b085"},"vehicle_type_id":"4","last_reported":1686258427,"current_range_meters":0,"station_id":"ce4bhbh2rcd13ifvqeqg","pricing_plan_id":"free"},{"bike_id":"8d7e83e1-132b-4ce2-97cd-64b6f5f25c5e","system_id":"levelo_inurba_marseille","lat":43.29889,"lon":5.38901,"is_reserved":false,"is_disabled":false,"rental_uris":{"android":"levelo://app?vid=8d7e83e1-132b-4ce2-97cd-64b6f5f25c5e","ios":"levelo://app?vid=8d7e83e1-132b-4ce2-97cd-64b6f5f25c5e"},"vehicle_type_id":"4","last_reported":1686258427,"current_range_meters":0,"station_id":"ce4bh392rcd13ifvqdl0","pricing_plan_id":"free"},{"bike_id":"e40bcb9b-a7a8-46a0-b891-380a03a20261","system_id":"levelo_inurba_marseille","lat":43.298764,"lon":5.388973,"is_reserved":false,"is_disabled":false,"rental_uris":{"android":"levelo://app?vid=e40bcb9b-a7a8-46a0-b891-380a03a20261","ios":"levelo://app?vid=e40bcb9b-a7a8-46a0-b891-380a03a20261"},"vehicle_type_id":"4","last_reported":1686258427,"current_range_meters":3200,"station_id":"ce4bh392rcd13ifvqdl0","pricing_plan_id":"free"},{"bike_id":"643c9a0a-414c-4654-8631-dfb2d2e7c7e0","system_id":"levelo_inurba_marseille","lat":43.313291,"lon":5.396838,"is_reserved":false,"is_disabled":false,"rental_uris":{"android":"levelo://app?vid=643c9a0a-414c-4654-8631-dfb2d2e7c7e0","ios":"levelo://app?vid=643c9a0a-414c-4654-8631-dfb2d2e7c7e0"},"vehicle_type_id":"4","last_reported":1686258427,"current_range_meters":2000,"station_id":"ce4bgvp2rcd13ifvqcu0","pricing_plan_id":"free"},{"bike_id":"e1b30f45-b499-46d9-8c3c-3e5955e0bf46","system_id":"levelo_inurba_marseille","lat":43.313291,"lon":5.396838,"is_reserved":false,"is_disabled":false,"rental_uris":{"android":"levelo://app?vid=e1b30f45-b499-46d9-8c3c-3e5955e0bf46","ios":"levelo://app?vid=e1b30f45-b499-46d9-8c3c-3e5955e0bf46"},"vehicle_type_id":"4","last_reported":1686258427,"current_range_meters":22400,"station_id":"ce4bgvp2rcd13ifvqcu0","pricing_plan_id":"free"},{"bike_id":"a6baaf6a-8bf9-446e-9aa2-43f36fb733ee","system_id":"levelo_inurba_marseille","lat":43.313291,"lon":5.396838,"is_reserved":false,"is_disabled":false,"rental_uris":{"android":"levelo://app?vid=a6baaf6a-8bf9-446e-9aa2-43f36fb733ee","ios":"levelo://app?vid=a6baaf6a-8bf9-446e-9aa2-43f36fb733ee"},"vehicle_type_id":"4","last_reported":1686258427,"current_range_meters":14000,"station_id":"ce4bgvp2rcd13ifvqcu0","pricing_plan_id":"free"},{"bike_id":"9b2bd900-0ae3-4491-ad8e-695e219a9f91","system_id":"levelo_inurba_marseille","lat":43.2919,"lon":5.35808,"is_reserved":false,"is_disabled":false,"rental_uris":{"android":"levelo://app?vid=9b2bd900-0ae3-4491-ad8e-695e219a9f91","ios":"levelo://app?vid=9b2bd900-0ae3-4491-ad8e-695e219a9f91"},"vehicle_type_id":"4","last_reported":1686258427,"current_range_meters":25600,"station_id":"ce4bhb12rcd13ifvqel0","pricing_plan_id":"free"},{"bike_id":"5d9114a8-e563-413a-87e5-11ac4a4eb114","system_id":"levelo_inurba_marseille","lat":43.313291,"lon":5.396838,"is_reserved":false,"is_disabled":false,"rental_uris":{"android":"levelo://app?vid=5d9114a8-e563-413a-87e5-11ac4a4eb114","ios":"levelo://app?vid=5d9114a8-e563-413a-87e5-11ac4a4eb114"},"vehicle_type_id":"4","last_reported":1686258427,"current_range_meters":23200,"station_id":"ce4bgvp2rcd13ifvqcu0","pricing_plan_id":"free"},{"bike_id":"cc136b5f-d35f-49af-8836-d641408a6326","system_id":"levelo_inurba_marseille","lat":43.29529,"lon":5.385581,"is_reserved":false,"is_disabled":false,"rental_uris":{"android":"levelo://app?vid=cc136b5f-d35f-49af-8836-d641408a6326","ios":"levelo://app?vid=cc136b5f-d35f-49af-8836-d641408a6326"},"vehicle_type_id":"4","last_reported":1686258427,"current_range_meters":6000,"station_id":"ce4bgih2rcd13ifvqba0","pricing_plan_id":"free"},{"bike_id":"404d9a86-866d-4db3-b34f-da42776f6e66","system_id":"levelo_inurba_marseille","lat":43.302008,"lon":5.394694,"is_reserved":false,"is_disabled":false,"rental_uris":{"android":"levelo://app?vid=404d9a86-866d-4db3-b34f-da42776f6e66","ios":"levelo://app?vid=404d9a86-866d-4db3-b34f-da42776f6e66"},"vehicle_type_id":"4","last_reported":1686258427,"current_range_meters":31200,"station_id":"ce4bh0p2rcd13ifvqd70","pricing_plan_id":"free"},{"bike_id":"787a2c52-63cf-4cbe-ae82-72a42906a0fc","system_id":"levelo_inurba_marseille","lat":43.290624,"lon":5.359245,"is_reserved":false,"is_disabled":false,"rental_uris":{"android":"levelo://app?vid=787a2c52-63cf-4cbe-ae82-72a42906a0fc","ios":"levelo://app?vid=787a2c52-63cf-4cbe-ae82-72a42906a0fc"},"vehicle_type_id":"4","last_reported":1686258427,"current_range_meters":30000,"station_id":"ce4bha92rcd13ifvqeg0","pricing_plan_id":"free"},{"bike_id":"af6975b3-d1ae-46fc-a796-6e2a0fa0ce66","system_id":"levelo_inurba_marseille","lat":43.294153,"lon":5.386305,"is_reserved":false,"is_disabled":false,"rental_uris":{"android":"levelo://app?vid=af6975b3-d1ae-46fc-a796-6e2a0fa0ce66","ios":"levelo://app?vid=af6975b3-d1ae-46fc-a796-6e2a0fa0ce66"},"vehicle_type_id":"4","last_reported":1686258427,"current_range_meters":15600,"station_id":"ce4bh2h2rcd13ifvqdh0","pricing_plan_id":"free"},{"bike_id":"da813dee-8f17-4ab9-b15a-079d862784ef","system_id":"levelo_inurba_marseille","lat":43.294162,"lon":5.386292,"is_reserved":false,"is_disabled":false,"rental_uris":{"android":"levelo://app?vid=da813dee-8f17-4ab9-b15a-079d862784ef","ios":"levelo://app?vid=da813dee-8f17-4ab9-b15a-079d862784ef"},"vehicle_type_id":"4","last_reported":1686258427,"current_range_meters":0,"station_id":"ce4bh2h2rcd13ifvqdh0","pricing_plan_id":"free"},{"bike_id":"76c7c8d7-f4dd-4d70-8311-961eea52d1d7","system_id":"levelo_inurba_marseille","lat":43.304296,"lon":5.397513,"is_reserved":false,"is_disabled":false,"rental_uris":{"android":"levelo://app?vid=76c7c8d7-f4dd-4d70-8311-961eea52d1d7","ios":"levelo://app?vid=76c7c8d7-f4dd-4d70-8311-961eea52d1d7"},"vehicle_type_id":"4","last_reported":1686258427,"current_range_meters":6000,"station_id":"ce4bh092rcd13ifvqd20","pricing_plan_id":"free"},{"bike_id":"8ba09dc8-79cf-4594-b835-35bb48195af7","system_id":"levelo_inurba_marseille","lat":43.304296,"lon":5.397513,"is_reserved":false,"is_disabled":false,"rental_uris":{"android":"levelo://app?vid=8ba09dc8-79cf-4594-b835-35bb48195af7","ios":"levelo://app?vid=8ba09dc8-79cf-4594-b835-35bb48195af7"},"vehicle_type_id":"4","last_reported":1686258427,"current_range_meters":5200,"station_id":"ce4bh092rcd13ifvqd20","pricing_plan_id":"free"},{"bike_id":"7898a738-9a99-4207-9254-cec3fb88ed78","system_id":"levelo_inurba_marseille","lat":43.33041,"lon":5.38916,"is_reserved":false,"is_disabled":false,"rental_uris":{"android":"levelo://app?vid=7898a738-9a99-4207-9254-cec3fb88ed78","ios":"levelo://app?vid=7898a738-9a99-4207-9254-cec3fb88ed78"},"vehicle_type_id":"4","last_reported":1686258427,"current_range_meters":24400,"station_id":"ce4bhr92rcd13ifvqhrg","pricing_plan_id":"free"},{"bike_id":"c5d61fb1-3189-46d0-88cd-e5b13b2f85da","system_id":"levelo_inurba_marseille","lat":43.33042,"lon":5.38918,"is_reserved":false,"is_disabled":false,"rental_uris":{"android":"levelo://app?vid=c5d61fb1-3189-46d0-88cd-e5b13b2f85da","ios":"levelo://app?vid=c5d61fb1-3189-46d0-88cd-e5b13b2f85da"},"vehicle_type_id":"4","last_reported":1686258427,"current_range_meters":22000,"station_id":"ce4bhr92rcd13ifvqhrg","pricing_plan_id":"free"},{"bike_id":"5103420d-338f-4f56-a0f3-7e019e5c9924","system_id":"levelo_inurba_marseille","lat":43.33041,"lon":5.3892,"is_reserved":false,"is_disabled":false,"rental_uris":{"android":"levelo://app?vid=5103420d-338f-4f56-a0f3-7e019e5c9924","ios":"levelo://app?vid=5103420d-338f-4f56-a0f3-7e019e5c9924"},"vehicle_type_id":"4","last_reported":1686258427,"current_range_meters":22800,"station_id":"ce4bhr92rcd13ifvqhrg","pricing_plan_id":"free"},{"bike_id":"46d56ab8-98f6-4287-9bcf-0b9651afaf27","system_id":"levelo_inurba_marseille","lat":43.290104,"lon":5.356111,"is_reserved":false,"is_disabled":false,"rental_uris":{"android":"levelo://app?vid=46d56ab8-98f6-4287-9bcf-0b9651afaf27","ios":"levelo://app?vid=46d56ab8-98f6-4287-9bcf-0b9651afaf27"},"vehicle_type_id":"4","last_reported":1686258427,"current_range_meters":5200,"station_id":"ce4bhb92rcd13ifvqen0","pricing_plan_id":"free"},{"bike_id":"525c4daf-7688-46eb-8c01-8b80d6fc04d9","system_id":"levelo_inurba_marseille","lat":43.330471,"lon":5.389153,"is_reserved":false,"is_disabled":false,"rental_uris":{"android":"levelo://app?vid=525c4daf-7688-46eb-8c01-8b80d6fc04d9","ios":"levelo://app?vid=525c4daf-7688-46eb-8c01-8b80d6fc04d9"},"vehicle_type_id":"4","last_reported":1686258427,"current_range_meters":25200,"station_id":"","pricing_plan_id":"free"},{"bike_id":"187baf6c-8968-494b-bb18-bb9e15046831","system_id":"levelo_inurba_marseille","lat":43.290103,"lon":5.356114,"is_reserved":false,"is_disabled":false,"rental_uris":{"android":"levelo://app?vid=187baf6c-8968-494b-bb18-bb9e15046831","ios":"levelo://app?vid=187baf6c-8968-494b-bb18-bb9e15046831"},"vehicle_type_id":"4","last_reported":1686258427,"current_range_meters":1600,"station_id":"ce4bhb92rcd13ifvqen0","pricing_plan_id":"free"},{"bike_id":"50be3487-1d11-48f3-b8ef-a02bd4845d0b","system_id":"levelo_inurba_marseille","lat":43.33043,"lon":5.38924,"is_reserved":false,"is_disabled":false,"rental_uris":{"android":"levelo://app?vid=50be3487-1d11-48f3-b8ef-a02bd4845d0b","ios":"levelo://app?vid=50be3487-1d11-48f3-b8ef-a02bd4845d0b"},"vehicle_type_id":"4","last_reported":1686258427,"current_range_meters":26400,"station_id":"ce4bhr92rcd13ifvqhrg","pricing_plan_id":"free"},{"bike_id":"c130aa95-92d7-4207-b8b5-0cafa9662bfb","system_id":"levelo_inurba_marseille","lat":43.290104,"lon":5.356111,"is_reserved":false,"is_disabled":false,"rental_uris":{"android":"levelo://app?vid=c130aa95-92d7-4207-b8b5-0cafa9662bfb","ios":"levelo://app?vid=c130aa95-92d7-4207-b8b5-0cafa9662bfb"},"vehicle_type_id":"4","last_reported":1686258427,"current_range_meters":16400,"station_id":"ce4bhb92rcd13ifvqen0","pricing_plan_id":"free"},{"bike_id":"eebb0572-4916-4105-a791-7d74572be411","system_id":"levelo_inurba_marseille","lat":43.290103,"lon":5.356114,"is_reserved":false,"is_disabled":false,"rental_uris":{"android":"levelo://app?vid=eebb0572-4916-4105-a791-7d74572be411","ios":"levelo://app?vid=eebb0572-4916-4105-a791-7d74572be411"},"vehicle_type_id":"4","last_reported":1686258427,"current_range_meters":11600,"station_id":"ce4bhb92rcd13ifvqen0","pricing_plan_id":"free"},{"bike_id":"078c1e10-fdf5-48ed-ad4f-4f1b75667f68","system_id":"levelo_inurba_marseille","lat":43.290103,"lon":5.356114,"is_reserved":false,"is_disabled":false,"rental_uris":{"android":"levelo://app?vid=078c1e10-fdf5-48ed-ad4f-4f1b75667f68","ios":"levelo://app?vid=078c1e10-fdf5-48ed-ad4f-4f1b75667f68"},"vehicle_type_id":"4","last_reported":1686258427,"current_range_meters":0,"station_id":"ce4bhb92rcd13ifvqen0","pricing_plan_id":"free"},{"bike_id":"082b14ba-2211-42c7-aa83-78f4cf313afb","system_id":"levelo_inurba_marseille","lat":43.290995,"lon":5.381361,"is_reserved":false,"is_disabled":false,"rental_uris":{"android":"levelo://app?vid=082b14ba-2211-42c7-aa83-78f4cf313afb","ios":"levelo://app?vid=082b14ba-2211-42c7-aa83-78f4cf313afb"},"vehicle_type_id":"4","last_reported":1686258427,"current_range_meters":0,"station_id":"ce4bh512rcd13ifvqe2g","pricing_plan_id":"free"},{"bike_id":"8298e73a-1bc3-4b77-8346-83659bc7bb1f","system_id":"levelo_inurba_marseille","lat":43.290995,"lon":5.381361,"is_reserved":false,"is_disabled":false,"rental_uris":{"android":"levelo://app?vid=8298e73a-1bc3-4b77-8346-83659bc7bb1f","ios":"levelo://app?vid=8298e73a-1bc3-4b77-8346-83659bc7bb1f"},"vehicle_type_id":"4","last_reported":1686258427,"current_range_meters":0,"station_id":"ce4bh512rcd13ifvqe2g","pricing_plan_id":"free"},{"bike_id":"667df7a0-a1b2-4ca9-8f13-a6b37a15e1a6","system_id":"levelo_inurba_marseille","lat":43.2901,"lon":5.381269,"is_reserved":false,"is_disabled":false,"rental_uris":{"android":"levelo://app?vid=667df7a0-a1b2-4ca9-8f13-a6b37a15e1a6","ios":"levelo://app?vid=667df7a0-a1b2-4ca9-8f13-a6b37a15e1a6"},"vehicle_type_id":"4","last_reported":1686258427,"current_range_meters":6400,"station_id":"ce4bh4p2rcd13ifvqe1g","pricing_plan_id":"free"},{"bike_id":"71ae9f8c-2ac4-416c-b0bf-d7dded75df80","system_id":"levelo_inurba_marseille","lat":43.289741,"lon":5.378306,"is_reserved":false,"is_disabled":false,"rental_uris":{"android":"levelo://app?vid=71ae9f8c-2ac4-416c-b0bf-d7dded75df80","ios":"levelo://app?vid=71ae9f8c-2ac4-416c-b0bf-d7dded75df80"},"vehicle_type_id":"4","last_reported":1686258427,"current_range_meters":24000,"station_id":"ce4bh9p2rcd13ifvqed0","pricing_plan_id":"free"},{"bike_id":"ccba32b4-08d8-4479-86a6-7f4bfb2846fb","system_id":"levelo_inurba_marseille","lat":43.31992,"lon":5.39919,"is_reserved":false,"is_disabled":false,"rental_uris":{"android":"levelo://app?vid=ccba32b4-08d8-4479-86a6-7f4bfb2846fb","ios":"levelo://app?vid=ccba32b4-08d8-4479-86a6-7f4bfb2846fb"},"vehicle_type_id":"4","last_reported":1686258427,"current_range_meters":0,"station_id":"","pricing_plan_id":"free"},{"bike_id":"d3c226a5-dd73-4d5e-935d-9f1dbacf709b","system_id":"levelo_inurba_marseille","lat":43.30929,"lon":5.40133,"is_reserved":false,"is_disabled":false,"rental_uris":{"android":"levelo://app?vid=d3c226a5-dd73-4d5e-935d-9f1dbacf709b","ios":"levelo://app?vid=d3c226a5-dd73-4d5e-935d-9f1dbacf709b"},"vehicle_type_id":"4","last_reported":1686258427,"current_range_meters":8000,"station_id":"","pricing_plan_id":"free"},{"bike_id":"cc203812-3f05-4887-9bb3-91f310fea381","system_id":"levelo_inurba_marseille","lat":43.309371,"lon":5.401449,"is_reserved":false,"is_disabled":false,"rental_uris":{"android":"levelo://app?vid=cc203812-3f05-4887-9bb3-91f310fea381","ios":"levelo://app?vid=cc203812-3f05-4887-9bb3-91f310fea381"},"vehicle_type_id":"4","last_reported":1686258427,"current_range_meters":0,"station_id":"ce4bgvp2rcd13ifvqct0","pricing_plan_id":"free"},{"bike_id":"2ee3803a-c2ba-4cdc-9b0c-f6a0344fbe3a","system_id":"levelo_inurba_marseille","lat":43.30931,"lon":5.40141,"is_reserved":false,"is_disabled":false,"rental_uris":{"android":"levelo://app?vid=2ee3803a-c2ba-4cdc-9b0c-f6a0344fbe3a","ios":"levelo://app?vid=2ee3803a-c2ba-4cdc-9b0c-f6a0344fbe3a"},"vehicle_type_id":"4","last_reported":1686258427,"current_range_meters":400,"station_id":"ce4bgvp2rcd13ifvqct0","pricing_plan_id":"free"},{"bike_id":"bf4b07bc-f4b6-48f9-b77e-66ec24318ced","system_id":"levelo_inurba_marseille","lat":43.33745,"lon":5.37474,"is_reserved":false,"is_disabled":false,"rental_uris":{"android":"levelo://app?vid=bf4b07bc-f4b6-48f9-b77e-66ec24318ced","ios":"levelo://app?vid=bf4b07bc-f4b6-48f9-b77e-66ec24318ced"},"vehicle_type_id":"4","last_reported":1686258427,"current_range_meters":8800,"station_id":"","pricing_plan_id":"free"},{"bike_id":"b7f1a644-d66d-4bbf-9b3d-301ef1c29b78","system_id":"levelo_inurba_marseille","lat":43.33752,"lon":5.37437,"is_reserved":false,"is_disabled":false,"rental_uris":{"android":"levelo://app?vid=b7f1a644-d66d-4bbf-9b3d-301ef1c29b78","ios":"levelo://app?vid=b7f1a644-d66d-4bbf-9b3d-301ef1c29b78"},"vehicle_type_id":"4","last_reported":1686258427,"current_range_meters":28000,"station_id":"","pricing_plan_id":"free"},{"bike_id":"c2bca6ef-2a0d-4c76-8fbd-d8c1b05e5e18","system_id":"levelo_inurba_marseille","lat":43.33746,"lon":5.37479,"is_reserved":false,"is_disabled":false,"rental_uris":{"android":"levelo://app?vid=c2bca6ef-2a0d-4c76-8fbd-d8c1b05e5e18","ios":"levelo://app?vid=c2bca6ef-2a0d-4c76-8fbd-d8c1b05e5e18"},"vehicle_type_id":"4","last_reported":1686258427,"current_range_meters":0,"station_id":"","pricing_plan_id":"free"},{"bike_id":"08dec0b5-6333-4d0a-aeda-b5b8c2aa0527","system_id":"levelo_inurba_marseille","lat":43.306412,"lon":5.401035,"is_reserved":false,"is_disabled":false,"rental_uris":{"android":"levelo://app?vid=08dec0b5-6333-4d0a-aeda-b5b8c2aa0527","ios":"levelo://app?vid=08dec0b5-6333-4d0a-aeda-b5b8c2aa0527"},"vehicle_type_id":"4","last_reported":1686258427,"current_range_meters":4000,"station_id":"ce4bh112rcd13ifvqda0","pricing_plan_id":"free"},{"bike_id":"6c0e6be1-b574-48ed-9fef-d6d2582938da","system_id":"levelo_inurba_marseille","lat":43.306412,"lon":5.401035,"is_reserved":false,"is_disabled":false,"rental_uris":{"android":"levelo://app?vid=6c0e6be1-b574-48ed-9fef-d6d2582938da","ios":"levelo://app?vid=6c0e6be1-b574-48ed-9fef-d6d2582938da"},"vehicle_type_id":"4","last_reported":1686258427,"current_range_meters":4400,"station_id":"ce4bh112rcd13ifvqda0","pricing_plan_id":"free"},{"bike_id":"265c0905-166c-408b-8d33-95a8e86424e1","system_id":"levelo_inurba_marseille","lat":43.337582,"lon":5.374483,"is_reserved":false,"is_disabled":false,"rental_uris":{"android":"levelo://app?vid=265c0905-166c-408b-8d33-95a8e86424e1","ios":"levelo://app?vid=265c0905-166c-408b-8d33-95a8e86424e1"},"vehicle_type_id":"4","last_reported":1686258427,"current_range_meters":22800,"station_id":"","pricing_plan_id":"free"},{"bike_id":"adba634c-042a-4899-868a-019fd8176da7","system_id":"levelo_inurba_marseille","lat":43.30642,"lon":5.401031,"is_reserved":false,"is_disabled":false,"rental_uris":{"android":"levelo://app?vid=adba634c-042a-4899-868a-019fd8176da7","ios":"levelo://app?vid=adba634c-042a-4899-868a-019fd8176da7"},"vehicle_type_id":"4","last_reported":1686258427,"current_range_meters":25600,"station_id":"ce4bh112rcd13ifvqda0","pricing_plan_id":"free"},{"bike_id":"46ee1f4a-8848-4ac8-85dd-7b54b0040437","system_id":"levelo_inurba_marseille","lat":43.30642,"lon":5.401031,"is_reserved":false,"is_disabled":false,"rental_uris":{"android":"levelo://app?vid=46ee1f4a-8848-4ac8-85dd-7b54b0040437","ios":"levelo://app?vid=46ee1f4a-8848-4ac8-85dd-7b54b0040437"},"vehicle_type_id":"4","last_reported":1686258427,"current_range_meters":13600,"station_id":"ce4bh112rcd13ifvqda0","pricing_plan_id":"free"},{"bike_id":"fb041ec1-b611-46eb-9d8b-3229cfb3396a","system_id":"levelo_inurba_marseille","lat":43.33768,"lon":5.37459,"is_reserved":false,"is_disabled":false,"rental_uris":{"android":"levelo://app?vid=fb041ec1-b611-46eb-9d8b-3229cfb3396a","ios":"levelo://app?vid=fb041ec1-b611-46eb-9d8b-3229cfb3396a"},"vehicle_type_id":"4","last_reported":1686258427,"current_range_meters":30000,"station_id":"","pricing_plan_id":"free"},{"bike_id":"102ac67e-712f-4413-9585-0e916d8b2f65","system_id":"levelo_inurba_marseille","lat":43.30125,"lon":5.39843,"is_reserved":false,"is_disabled":false,"rental_uris":{"android":"levelo://app?vid=102ac67e-712f-4413-9585-0e916d8b2f65","ios":"levelo://app?vid=102ac67e-712f-4413-9585-0e916d8b2f65"},"vehicle_type_id":"4","last_reported":1686258427,"current_range_meters":12400,"station_id":"","pricing_plan_id":"free"},{"bike_id":"6f1875d2-ab33-442e-9e3c-0946baf5f7f0","system_id":"levelo_inurba_marseille","lat":43.301117,"lon":5.398795,"is_reserved":false,"is_disabled":false,"rental_uris":{"android":"levelo://app?vid=6f1875d2-ab33-442e-9e3c-0946baf5f7f0","ios":"levelo://app?vid=6f1875d2-ab33-442e-9e3c-0946baf5f7f0"},"vehicle_type_id":"4","last_reported":1686258427,"current_range_meters":16000,"station_id":"ce4bh0h2rcd13ifvqd40","pricing_plan_id":"free"},{"bike_id":"37d38252-ff96-4293-8635-5304519136f0","system_id":"levelo_inurba_marseille","lat":43.298681,"lon":5.397225,"is_reserved":false,"is_disabled":false,"rental_uris":{"android":"levelo://app?vid=37d38252-ff96-4293-8635-5304519136f0","ios":"levelo://app?vid=37d38252-ff96-4293-8635-5304519136f0"},"vehicle_type_id":"4","last_reported":1686258427,"current_range_meters":20400,"station_id":"ce4bh0h2rcd13ifvqd50","pricing_plan_id":"free"},{"bike_id":"1f13c504-86e9-4301-a255-a17468d6d3c1","system_id":"levelo_inurba_marseille","lat":43.298681,"lon":5.397225,"is_reserved":false,"is_disabled":false,"rental_uris":{"android":"levelo://app?vid=1f13c504-86e9-4301-a255-a17468d6d3c1","ios":"levelo://app?vid=1f13c504-86e9-4301-a255-a17468d6d3c1"},"vehicle_type_id":"4","last_reported":1686258427,"current_range_meters":4800,"station_id":"ce4bh0h2rcd13ifvqd50","pricing_plan_id":"free"},{"bike_id":"eafa0464-7f6d-4c5e-867d-e45cb2c870cc","system_id":"levelo_inurba_marseille","lat":43.29034,"lon":5.38644,"is_reserved":false,"is_disabled":false,"rental_uris":{"android":"levelo://app?vid=eafa0464-7f6d-4c5e-867d-e45cb2c870cc","ios":"levelo://app?vid=eafa0464-7f6d-4c5e-867d-e45cb2c870cc"},"vehicle_type_id":"4","last_reported":1686258427,"current_range_meters":8800,"station_id":"ce4bh4p2rcd13ifvqe0g","pricing_plan_id":"free"},{"bike_id":"9e96fc91-e4e5-4a4a-8aa1-53113ed31f62","system_id":"levelo_inurba_marseille","lat":43.290336,"lon":5.386425,"is_reserved":false,"is_disabled":false,"rental_uris":{"android":"levelo://app?vid=9e96fc91-e4e5-4a4a-8aa1-53113ed31f62","ios":"levelo://app?vid=9e96fc91-e4e5-4a4a-8aa1-53113ed31f62"},"vehicle_type_id":"4","last_reported":1686258427,"current_range_meters":6800,"station_id":"ce4bh4p2rcd13ifvqe0g","pricing_plan_id":"free"},{"bike_id":"7ab5dd55-3a42-46bf-a4fe-4fa4ec0e52a8","system_id":"levelo_inurba_marseille","lat":43.302759,"lon":5.400793,"is_reserved":false,"is_disabled":false,"rental_uris":{"android":"levelo://app?vid=7ab5dd55-3a42-46bf-a4fe-4fa4ec0e52a8","ios":"levelo://app?vid=7ab5dd55-3a42-46bf-a4fe-4fa4ec0e52a8"},"vehicle_type_id":"4","last_reported":1686258427,"current_range_meters":17200,"station_id":"ce4bgvh2rcd13ifvqcs0","pricing_plan_id":"free"},{"bike_id":"4d56b7bb-fdd1-42ea-bdcc-874d589dcc26","system_id":"levelo_inurba_marseille","lat":43.302759,"lon":5.400793,"is_reserved":false,"is_disabled":false,"rental_uris":{"android":"levelo://app?vid=4d56b7bb-fdd1-42ea-bdcc-874d589dcc26","ios":"levelo://app?vid=4d56b7bb-fdd1-42ea-bdcc-874d589dcc26"},"vehicle_type_id":"4","last_reported":1686258427,"current_range_meters":15200,"station_id":"ce4bgvh2rcd13ifvqcs0","pricing_plan_id":"free"},{"bike_id":"9c628dda-bdfd-4262-abbe-1152b05a9e39","system_id":"levelo_inurba_marseille","lat":43.302759,"lon":5.400793,"is_reserved":false,"is_disabled":false,"rental_uris":{"android":"levelo://app?vid=9c628dda-bdfd-4262-abbe-1152b05a9e39","ios":"levelo://app?vid=9c628dda-bdfd-4262-abbe-1152b05a9e39"},"vehicle_type_id":"4","last_reported":1686258427,"current_range_meters":8400,"station_id":"ce4bgvh2rcd13ifvqcs0","pricing_plan_id":"free"},{"bike_id":"999ece5f-2bdf-4749-92e1-4594147c5de4","system_id":"levelo_inurba_marseille","lat":43.286039,"lon":5.370679,"is_reserved":false,"is_disabled":false,"rental_uris":{"android":"levelo://app?vid=999ece5f-2bdf-4749-92e1-4594147c5de4","ios":"levelo://app?vid=999ece5f-2bdf-4749-92e1-4594147c5de4"},"vehicle_type_id":"4","last_reported":1686258427,"current_range_meters":4800,"station_id":"ce4bht12rcd13ifvqi60","pricing_plan_id":"free"},{"bike_id":"9764ec71-1267-4bd4-bfee-6df4e6765211","system_id":"levelo_inurba_marseille","lat":43.28731,"lon":5.37936,"is_reserved":false,"is_disabled":false,"rental_uris":{"android":"levelo://app?vid=9764ec71-1267-4bd4-bfee-6df4e6765211","ios":"levelo://app?vid=9764ec71-1267-4bd4-bfee-6df4e6765211"},"vehicle_type_id":"4","last_reported":1686258427,"current_range_meters":3200,"station_id":"ce4bh9p2rcd13ifvqec0","pricing_plan_id":"free"},{"bike_id":"b9c9ef6b-db12-4d87-98e9-f11de3b09c8d","system_id":"levelo_inurba_marseille","lat":43.316517,"lon":5.404375,"is_reserved":false,"is_disabled":false,"rental_uris":{"android":"levelo://app?vid=b9c9ef6b-db12-4d87-98e9-f11de3b09c8d","ios":"levelo://app?vid=b9c9ef6b-db12-4d87-98e9-f11de3b09c8d"},"vehicle_type_id":"4","last_reported":1686258427,"current_range_meters":20400,"station_id":"ce4bh012rcd13ifvqd00","pricing_plan_id":"free"},{"bike_id":"bbc6ed9c-d7b0-4496-90f8-e96be2498ff6","system_id":"levelo_inurba_marseille","lat":43.316,"lon":5.40445,"is_reserved":false,"is_disabled":false,"rental_uris":{"android":"levelo://app?vid=bbc6ed9c-d7b0-4496-90f8-e96be2498ff6","ios":"levelo://app?vid=bbc6ed9c-d7b0-4496-90f8-e96be2498ff6"},"vehicle_type_id":"4","last_reported":1686258427,"current_range_meters":4400,"station_id":"","pricing_plan_id":"free"},{"bike_id":"82483616-3a97-4a3e-b27d-5784ae7bbbc7","system_id":"levelo_inurba_marseille","lat":43.316517,"lon":5.404375,"is_reserved":false,"is_disabled":false,"rental_uris":{"android":"levelo://app?vid=82483616-3a97-4a3e-b27d-5784ae7bbbc7","ios":"levelo://app?vid=82483616-3a97-4a3e-b27d-5784ae7bbbc7"},"vehicle_type_id":"4","last_reported":1686258427,"current_range_meters":0,"station_id":"ce4bh012rcd13ifvqd00","pricing_plan_id":"free"},{"bike_id":"f4a019da-f0cf-4665-bc59-1e740b1d9a94","system_id":"levelo_inurba_marseille","lat":43.291994,"lon":5.392907,"is_reserved":false,"is_disabled":false,"rental_uris":{"android":"levelo://app?vid=f4a019da-f0cf-4665-bc59-1e740b1d9a94","ios":"levelo://app?vid=f4a019da-f0cf-4665-bc59-1e740b1d9a94"},"vehicle_type_id":"4","last_reported":1686258427,"current_range_meters":0,"station_id":"ce4bh192rcd13ifvqdd0","pricing_plan_id":"free"},{"bike_id":"cba5ff58-4679-4d2c-a4c8-e0d4900b7004","system_id":"levelo_inurba_marseille","lat":43.28456,"lon":5.35891,"is_reserved":false,"is_disabled":false,"rental_uris":{"android":"levelo://app?vid=cba5ff58-4679-4d2c-a4c8-e0d4900b7004","ios":"levelo://app?vid=cba5ff58-4679-4d2c-a4c8-e0d4900b7004"},"vehicle_type_id":"4","last_reported":1686258427,"current_range_meters":2400,"station_id":"ce4bhah2rcd13ifvqei0","pricing_plan_id":"free"},{"bike_id":"ac8b0559-7cea-47c7-90f4-a17ddac528f2","system_id":"levelo_inurba_marseille","lat":43.28617,"lon":5.35101,"is_reserved":false,"is_disabled":false,"rental_uris":{"android":"levelo://app?vid=ac8b0559-7cea-47c7-90f4-a17ddac528f2","ios":"levelo://app?vid=ac8b0559-7cea-47c7-90f4-a17ddac528f2"},"vehicle_type_id":"4","last_reported":1686258427,"current_range_meters":0,"station_id":"","pricing_plan_id":"free"},{"bike_id":"97ef956e-b781-4ca8-a6e5-07c39ea90284","system_id":"levelo_inurba_marseille","lat":43.2867,"lon":5.38663,"is_reserved":false,"is_disabled":false,"rental_uris":{"android":"levelo://app?vid=97ef956e-b781-4ca8-a6e5-07c39ea90284","ios":"levelo://app?vid=97ef956e-b781-4ca8-a6e5-07c39ea90284"},"vehicle_type_id":"4","last_reported":1686258427,"current_range_meters":20400,"station_id":"ce4bh492rcd13ifvqdug","pricing_plan_id":"free"},{"bike_id":"587dd669-64a0-4942-b541-db2f768452af","system_id":"levelo_inurba_marseille","lat":43.286595,"lon":5.386795,"is_reserved":false,"is_disabled":false,"rental_uris":{"android":"levelo://app?vid=587dd669-64a0-4942-b541-db2f768452af","ios":"levelo://app?vid=587dd669-64a0-4942-b541-db2f768452af"},"vehicle_type_id":"4","last_reported":1686258427,"current_range_meters":23200,"station_id":"ce4bh492rcd13ifvqdug","pricing_plan_id":"free"},{"bike_id":"82c85353-123b-4c0d-9bb6-1981ba67c68d","system_id":"levelo_inurba_marseille","lat":43.323464,"lon":5.406297,"is_reserved":false,"is_disabled":false,"rental_uris":{"android":"levelo://app?vid=82c85353-123b-4c0d-9bb6-1981ba67c68d","ios":"levelo://app?vid=82c85353-123b-4c0d-9bb6-1981ba67c68d"},"vehicle_type_id":"4","last_reported":1686258427,"current_range_meters":28800,"station_id":"ce4bhq92rcd13ifvqhjg","pricing_plan_id":"free"},{"bike_id":"eb7b9ed3-47b1-4698-b35e-af82eaba6c07","system_id":"levelo_inurba_marseille","lat":43.284793,"lon":5.384119,"is_reserved":false,"is_disabled":false,"rental_uris":{"android":"levelo://app?vid=eb7b9ed3-47b1-4698-b35e-af82eaba6c07","ios":"levelo://app?vid=eb7b9ed3-47b1-4698-b35e-af82eaba6c07"},"vehicle_type_id":"4","last_reported":1686258427,"current_range_meters":26800,"station_id":"ce4bh512rcd13ifvqe3g","pricing_plan_id":"free"},{"bike_id":"04b35319-4c9e-4b90-918b-378076f629e8","system_id":"levelo_inurba_marseille","lat":43.28854,"lon":5.3932,"is_reserved":false,"is_disabled":false,"rental_uris":{"android":"levelo://app?vid=04b35319-4c9e-4b90-918b-378076f629e8","ios":"levelo://app?vid=04b35319-4c9e-4b90-918b-378076f629e8"},"vehicle_type_id":"4","last_reported":1686258427,"current_range_meters":28400,"station_id":"ce4bh2p2rcd13ifvqdi0","pricing_plan_id":"free"},{"bike_id":"3a434fac-22f9-4e4a-880b-4f54f297520c","system_id":"levelo_inurba_marseille","lat":43.28845,"lon":5.39307,"is_reserved":false,"is_disabled":false,"rental_uris":{"android":"levelo://app?vid=3a434fac-22f9-4e4a-880b-4f54f297520c","ios":"levelo://app?vid=3a434fac-22f9-4e4a-880b-4f54f297520c"},"vehicle_type_id":"4","last_reported":1686258427,"current_range_meters":0,"station_id":"ce4bh2p2rcd13ifvqdi0","pricing_plan_id":"free"},{"bike_id":"26351ec9-e393-4f6a-aa35-ae2b2753db71","system_id":"levelo_inurba_marseille","lat":43.288497,"lon":5.393089,"is_reserved":false,"is_disabled":false,"rental_uris":{"android":"levelo://app?vid=26351ec9-e393-4f6a-aa35-ae2b2753db71","ios":"levelo://app?vid=26351ec9-e393-4f6a-aa35-ae2b2753db71"},"vehicle_type_id":"4","last_reported":1686258427,"current_range_meters":0,"station_id":"ce4bh2p2rcd13ifvqdi0","pricing_plan_id":"free"},{"bike_id":"ae232d39-b160-410f-a53c-e104a0631f2e","system_id":"levelo_inurba_marseille","lat":43.32413,"lon":5.40685,"is_reserved":false,"is_disabled":false,"rental_uris":{"android":"levelo://app?vid=ae232d39-b160-410f-a53c-e104a0631f2e","ios":"levelo://app?vid=ae232d39-b160-410f-a53c-e104a0631f2e"},"vehicle_type_id":"4","last_reported":1686258427,"current_range_meters":23200,"station_id":"","pricing_plan_id":"free"},{"bike_id":"d4575ced-4ce1-4f6d-b020-7c3d79e4d4d9","system_id":"levelo_inurba_marseille","lat":43.317121,"lon":5.423936,"is_reserved":false,"is_disabled":false,"rental_uris":{"android":"levelo://app?vid=d4575ced-4ce1-4f6d-b020-7c3d79e4d4d9","ios":"levelo://app?vid=d4575ced-4ce1-4f6d-b020-7c3d79e4d4d9"},"vehicle_type_id":"4","last_reported":1686258427,"current_range_meters":0,"station_id":"ce4bhp92rcd13ifvqhbg","pricing_plan_id":"free"},{"bike_id":"f76b473c-faab-4524-875b-cfe545bf544a","system_id":"levelo_inurba_marseille","lat":43.292724,"lon":5.401131,"is_reserved":false,"is_disabled":false,"rental_uris":{"android":"levelo://app?vid=f76b473c-faab-4524-875b-cfe545bf544a","ios":"levelo://app?vid=f76b473c-faab-4524-875b-cfe545bf544a"},"vehicle_type_id":"4","last_reported":1686258427,"current_range_meters":14400,"station_id":"ce4bh312rcd13ifvqdk0","pricing_plan_id":"free"},{"bike_id":"8cf25539-5a8e-49c9-adb9-8ebeb7ac1de2","system_id":"levelo_inurba_marseille","lat":43.283502,"lon":5.386471,"is_reserved":false,"is_disabled":false,"rental_uris":{"android":"levelo://app?vid=8cf25539-5a8e-49c9-adb9-8ebeb7ac1de2","ios":"levelo://app?vid=8cf25539-5a8e-49c9-adb9-8ebeb7ac1de2"},"vehicle_type_id":"4","last_reported":1686258427,"current_range_meters":1200,"station_id":"ce4bh492rcd13ifvqdvg","pricing_plan_id":"free"},{"bike_id":"12f28f2f-e5e3-4748-ab58-7230a7f91aed","system_id":"levelo_inurba_marseille","lat":43.29041,"lon":5.399634,"is_reserved":false,"is_disabled":false,"rental_uris":{"android":"levelo://app?vid=12f28f2f-e5e3-4748-ab58-7230a7f91aed","ios":"levelo://app?vid=12f28f2f-e5e3-4748-ab58-7230a7f91aed"},"vehicle_type_id":"4","last_reported":1686258427,"current_range_meters":2800,"station_id":"ce4bh392rcd13ifvqdm0","pricing_plan_id":"free"},{"bike_id":"1fe6c302-f928-49ca-a43b-1474d7cb3240","system_id":"levelo_inurba_marseille","lat":43.281044,"lon":5.378308,"is_reserved":false,"is_disabled":false,"rental_uris":{"android":"levelo://app?vid=1fe6c302-f928-49ca-a43b-1474d7cb3240","ios":"levelo://app?vid=1fe6c302-f928-49ca-a43b-1474d7cb3240"},"vehicle_type_id":"4","last_reported":1686258427,"current_range_meters":10400,"station_id":"ce4bha12rcd13ifvqee0","pricing_plan_id":"free"},{"bike_id":"cab65f87-031e-4855-85c8-89e2aac6b203","system_id":"levelo_inurba_marseille","lat":43.281044,"lon":5.378308,"is_reserved":false,"is_disabled":false,"rental_uris":{"android":"levelo://app?vid=cab65f87-031e-4855-85c8-89e2aac6b203","ios":"levelo://app?vid=cab65f87-031e-4855-85c8-89e2aac6b203"},"vehicle_type_id":"4","last_reported":1686258427,"current_range_meters":12800,"station_id":"ce4bha12rcd13ifvqee0","pricing_plan_id":"free"},{"bike_id":"d034f42d-9340-4c45-b8ae-62df7ee5329b","system_id":"levelo_inurba_marseille","lat":43.28573,"lon":5.394992,"is_reserved":false,"is_disabled":false,"rental_uris":{"android":"levelo://app?vid=d034f42d-9340-4c45-b8ae-62df7ee5329b","ios":"levelo://app?vid=d034f42d-9340-4c45-b8ae-62df7ee5329b"},"vehicle_type_id":"4","last_reported":1686258427,"current_range_meters":4400,"station_id":"ce4bh292rcd13ifvqdg0","pricing_plan_id":"free"},{"bike_id":"f1e5f7a2-e1cc-4d5b-a0dc-d8bb9f0c2ffc","system_id":"levelo_inurba_marseille","lat":43.285742,"lon":5.395004,"is_reserved":false,"is_disabled":false,"rental_uris":{"android":"levelo://app?vid=f1e5f7a2-e1cc-4d5b-a0dc-d8bb9f0c2ffc","ios":"levelo://app?vid=f1e5f7a2-e1cc-4d5b-a0dc-d8bb9f0c2ffc"},"vehicle_type_id":"4","last_reported":1686258427,"current_range_meters":28000,"station_id":"ce4bh292rcd13ifvqdg0","pricing_plan_id":"free"},{"bike_id":"9abc9694-ff10-4464-bb71-37056104f80a","system_id":"levelo_inurba_marseille","lat":43.32659,"lon":5.40992,"is_reserved":false,"is_disabled":false,"rental_uris":{"android":"levelo://app?vid=9abc9694-ff10-4464-bb71-37056104f80a","ios":"levelo://app?vid=9abc9694-ff10-4464-bb71-37056104f80a"},"vehicle_type_id":"4","last_reported":1686258427,"current_range_meters":22800,"station_id":"","pricing_plan_id":"free"},{"bike_id":"be0e4e13-c8a8-4b7e-81e6-c21b32aa0c28","system_id":"levelo_inurba_marseille","lat":43.27908,"lon":5.38013,"is_reserved":false,"is_disabled":false,"rental_uris":{"android":"levelo://app?vid=be0e4e13-c8a8-4b7e-81e6-c21b32aa0c28","ios":"levelo://app?vid=be0e4e13-c8a8-4b7e-81e6-c21b32aa0c28"},"vehicle_type_id":"4","last_reported":1686258427,"current_range_meters":16000,"station_id":"","pricing_plan_id":"free"},{"bike_id":"4ae9d9de-0fae-4350-9c85-d35b08cc0449","system_id":"levelo_inurba_marseille","lat":43.320045,"lon":5.415046,"is_reserved":false,"is_disabled":false,"rental_uris":{"android":"levelo://app?vid=4ae9d9de-0fae-4350-9c85-d35b08cc0449","ios":"levelo://app?vid=4ae9d9de-0fae-4350-9c85-d35b08cc0449"},"vehicle_type_id":"4","last_reported":1686258427,"current_range_meters":28000,"station_id":"ce4bhq92rcd13ifvqhkg","pricing_plan_id":"free"},{"bike_id":"b04dfc7f-e624-47c8-9332-d5a9e7fdb88e","system_id":"levelo_inurba_marseille","lat":43.320045,"lon":5.415046,"is_reserved":false,"is_disabled":false,"rental_uris":{"android":"levelo://app?vid=b04dfc7f-e624-47c8-9332-d5a9e7fdb88e","ios":"levelo://app?vid=b04dfc7f-e624-47c8-9332-d5a9e7fdb88e"},"vehicle_type_id":"4","last_reported":1686258427,"current_range_meters":30800,"station_id":"ce4bhq92rcd13ifvqhkg","pricing_plan_id":"free"},{"bike_id":"dfd218ba-eac0-4ded-bcb0-3aff8e533ee1","system_id":"levelo_inurba_marseille","lat":43.320045,"lon":5.415046,"is_reserved":false,"is_disabled":false,"rental_uris":{"android":"levelo://app?vid=dfd218ba-eac0-4ded-bcb0-3aff8e533ee1","ios":"levelo://app?vid=dfd218ba-eac0-4ded-bcb0-3aff8e533ee1"},"vehicle_type_id":"4","last_reported":1686258427,"current_range_meters":9600,"station_id":"ce4bhq92rcd13ifvqhkg","pricing_plan_id":"free"},{"bike_id":"00192ce4-1007-4540-96d1-a1beb7e19ca2","system_id":"levelo_inurba_marseille","lat":43.32058,"lon":5.41556,"is_reserved":false,"is_disabled":false,"rental_uris":{"android":"levelo://app?vid=00192ce4-1007-4540-96d1-a1beb7e19ca2","ios":"levelo://app?vid=00192ce4-1007-4540-96d1-a1beb7e19ca2"},"vehicle_type_id":"4","last_reported":1686258427,"current_range_meters":10000,"station_id":"","pricing_plan_id":"free"},{"bike_id":"a059a2c8-81f5-4c73-9466-f3f92f9b0f48","system_id":"levelo_inurba_marseille","lat":43.320045,"lon":5.415046,"is_reserved":false,"is_disabled":false,"rental_uris":{"android":"levelo://app?vid=a059a2c8-81f5-4c73-9466-f3f92f9b0f48","ios":"levelo://app?vid=a059a2c8-81f5-4c73-9466-f3f92f9b0f48"},"vehicle_type_id":"4","last_reported":1686258427,"current_range_meters":30400,"station_id":"ce4bhq92rcd13ifvqhkg","pricing_plan_id":"free"},{"bike_id":"0f10f558-04df-4e02-a47b-a23da54e7aab","system_id":"levelo_inurba_marseille","lat":43.320045,"lon":5.415046,"is_reserved":false,"is_disabled":false,"rental_uris":{"android":"levelo://app?vid=0f10f558-04df-4e02-a47b-a23da54e7aab","ios":"levelo://app?vid=0f10f558-04df-4e02-a47b-a23da54e7aab"},"vehicle_type_id":"4","last_reported":1686258427,"current_range_meters":2000,"station_id":"ce4bhq92rcd13ifvqhkg","pricing_plan_id":"free"},{"bike_id":"39fe3f6c-67f1-43a8-b281-54733192d035","system_id":"levelo_inurba_marseille","lat":43.320045,"lon":5.415048,"is_reserved":false,"is_disabled":false,"rental_uris":{"android":"levelo://app?vid=39fe3f6c-67f1-43a8-b281-54733192d035","ios":"levelo://app?vid=39fe3f6c-67f1-43a8-b281-54733192d035"},"vehicle_type_id":"4","last_reported":1686258427,"current_range_meters":31200,"station_id":"ce4bhq92rcd13ifvqhkg","pricing_plan_id":"free"},{"bike_id":"2c92857e-091e-4924-886c-eca1a1a8bc87","system_id":"levelo_inurba_marseille","lat":43.320045,"lon":5.415046,"is_reserved":false,"is_disabled":false,"rental_uris":{"android":"levelo://app?vid=2c92857e-091e-4924-886c-eca1a1a8bc87","ios":"levelo://app?vid=2c92857e-091e-4924-886c-eca1a1a8bc87"},"vehicle_type_id":"4","last_reported":1686258427,"current_range_meters":26000,"station_id":"ce4bhq92rcd13ifvqhkg","pricing_plan_id":"free"},{"bike_id":"bdc01a4c-c402-4305-b66a-ecb1270f4e4d","system_id":"levelo_inurba_marseille","lat":43.292569,"lon":5.409107,"is_reserved":false,"is_disabled":false,"rental_uris":{"android":"levelo://app?vid=bdc01a4c-c402-4305-b66a-ecb1270f4e4d","ios":"levelo://app?vid=bdc01a4c-c402-4305-b66a-ecb1270f4e4d"},"vehicle_type_id":"4","last_reported":1686258427,"current_range_meters":21200,"station_id":"ce4bh192rcd13ifvqdc0","pricing_plan_id":"free"},{"bike_id":"aad2724e-27b0-4431-9221-d6ee6af0cb96","system_id":"levelo_inurba_marseille","lat":43.292569,"lon":5.409107,"is_reserved":false,"is_disabled":false,"rental_uris":{"android":"levelo://app?vid=aad2724e-27b0-4431-9221-d6ee6af0cb96","ios":"levelo://app?vid=aad2724e-27b0-4431-9221-d6ee6af0cb96"},"vehicle_type_id":"4","last_reported":1686258427,"current_range_meters":30400,"station_id":"ce4bh192rcd13ifvqdc0","pricing_plan_id":"free"},{"bike_id":"47053d9f-85ff-4a96-b67d-a31042c47c9d","system_id":"levelo_inurba_marseille","lat":43.292569,"lon":5.409062,"is_reserved":false,"is_disabled":false,"rental_uris":{"android":"levelo://app?vid=47053d9f-85ff-4a96-b67d-a31042c47c9d","ios":"levelo://app?vid=47053d9f-85ff-4a96-b67d-a31042c47c9d"},"vehicle_type_id":"4","last_reported":1686258427,"current_range_meters":11600,"station_id":"ce4bh192rcd13ifvqdc0","pricing_plan_id":"free"},{"bike_id":"cbd46db7-6c28-425e-b385-cb215d2787ab","system_id":"levelo_inurba_marseille","lat":43.29257,"lon":5.409083,"is_reserved":false,"is_disabled":false,"rental_uris":{"android":"levelo://app?vid=cbd46db7-6c28-425e-b385-cb215d2787ab","ios":"levelo://app?vid=cbd46db7-6c28-425e-b385-cb215d2787ab"},"vehicle_type_id":"4","last_reported":1686258427,"current_range_meters":31200,"station_id":"","pricing_plan_id":"free"},{"bike_id":"9784c783-5f35-4baa-9353-f653b656e75a","system_id":"levelo_inurba_marseille","lat":43.292569,"lon":5.409107,"is_reserved":false,"is_disabled":false,"rental_uris":{"android":"levelo://app?vid=9784c783-5f35-4baa-9353-f653b656e75a","ios":"levelo://app?vid=9784c783-5f35-4baa-9353-f653b656e75a"},"vehicle_type_id":"4","last_reported":1686258427,"current_range_meters":31200,"station_id":"ce4bh192rcd13ifvqdc0","pricing_plan_id":"free"},{"bike_id":"b08b9db7-6905-4087-810e-6157090d844e","system_id":"levelo_inurba_marseille","lat":43.27618,"lon":5.361009,"is_reserved":false,"is_disabled":false,"rental_uris":{"android":"levelo://app?vid=b08b9db7-6905-4087-810e-6157090d844e","ios":"levelo://app?vid=b08b9db7-6905-4087-810e-6157090d844e"},"vehicle_type_id":"4","last_reported":1686258427,"current_range_meters":3200,"station_id":"ce4bgj92rcd13ifvqbe0","pricing_plan_id":"free"},{"bike_id":"5bd71030-187c-4dbb-a919-67217752b1fb","system_id":"levelo_inurba_marseille","lat":43.303837,"lon":5.418724,"is_reserved":false,"is_disabled":false,"rental_uris":{"android":"levelo://app?vid=5bd71030-187c-4dbb-a919-67217752b1fb","ios":"levelo://app?vid=5bd71030-187c-4dbb-a919-67217752b1fb"},"vehicle_type_id":"4","last_reported":1686258427,"current_range_meters":30800,"station_id":"ce4bhop2rcd13ifvqh7g","pricing_plan_id":"free"},{"bike_id":"95e25cd3-037d-4bc6-9207-0c4e20e3f8ea","system_id":"levelo_inurba_marseille","lat":43.303494,"lon":5.418755,"is_reserved":false,"is_disabled":false,"rental_uris":{"android":"levelo://app?vid=95e25cd3-037d-4bc6-9207-0c4e20e3f8ea","ios":"levelo://app?vid=95e25cd3-037d-4bc6-9207-0c4e20e3f8ea"},"vehicle_type_id":"4","last_reported":1686258427,"current_range_meters":31200,"station_id":"","pricing_plan_id":"free"},{"bike_id":"3db8b609-d74f-46ae-9faf-764281d37846","system_id":"levelo_inurba_marseille","lat":43.278399,"lon":5.392139,"is_reserved":false,"is_disabled":false,"rental_uris":{"android":"levelo://app?vid=3db8b609-d74f-46ae-9faf-764281d37846","ios":"levelo://app?vid=3db8b609-d74f-46ae-9faf-764281d37846"},"vehicle_type_id":"4","last_reported":1686258427,"current_range_meters":12400,"station_id":"ce4bhjp2rcd13ifvqga0","pricing_plan_id":"free"},{"bike_id":"05a216aa-b4fb-4b1b-a140-f645e041db98","system_id":"levelo_inurba_marseille","lat":43.278399,"lon":5.392139,"is_reserved":false,"is_disabled":false,"rental_uris":{"android":"levelo://app?vid=05a216aa-b4fb-4b1b-a140-f645e041db98","ios":"levelo://app?vid=05a216aa-b4fb-4b1b-a140-f645e041db98"},"vehicle_type_id":"4","last_reported":1686258427,"current_range_meters":4000,"station_id":"ce4bhjp2rcd13ifvqga0","pricing_plan_id":"free"},{"bike_id":"b545082c-a568-416f-b4ea-97b1753b2600","system_id":"levelo_inurba_marseille","lat":43.336134,"lon":5.410341,"is_reserved":false,"is_disabled":false,"rental_uris":{"android":"levelo://app?vid=b545082c-a568-416f-b4ea-97b1753b2600","ios":"levelo://app?vid=b545082c-a568-416f-b4ea-97b1753b2600"},"vehicle_type_id":"4","last_reported":1686258427,"current_range_meters":27200,"station_id":"ce4bhqh2rcd13ifvqhmg","pricing_plan_id":"free"},{"bike_id":"cb12df04-ed9f-4b11-99b9-05021f6d5673","system_id":"levelo_inurba_marseille","lat":43.317121,"lon":5.423936,"is_reserved":false,"is_disabled":false,"rental_uris":{"android":"levelo://app?vid=cb12df04-ed9f-4b11-99b9-05021f6d5673","ios":"levelo://app?vid=cb12df04-ed9f-4b11-99b9-05021f6d5673"},"vehicle_type_id":"4","last_reported":1686258427,"current_range_meters":2400,"station_id":"ce4bhp92rcd13ifvqhbg","pricing_plan_id":"free"},{"bike_id":"0d309f13-59d9-4c3d-8ebc-1648d0de27b0","system_id":"levelo_inurba_marseille","lat":43.317121,"lon":5.423936,"is_reserved":false,"is_disabled":false,"rental_uris":{"android":"levelo://app?vid=0d309f13-59d9-4c3d-8ebc-1648d0de27b0","ios":"levelo://app?vid=0d309f13-59d9-4c3d-8ebc-1648d0de27b0"},"vehicle_type_id":"4","last_reported":1686258427,"current_range_meters":27600,"station_id":"ce4bhp92rcd13ifvqhbg","pricing_plan_id":"free"},{"bike_id":"b3677f59-d11f-4dfc-8eb0-ba0681765051","system_id":"levelo_inurba_marseille","lat":43.31085,"lon":5.42429,"is_reserved":false,"is_disabled":false,"rental_uris":{"android":"levelo://app?vid=b3677f59-d11f-4dfc-8eb0-ba0681765051","ios":"levelo://app?vid=b3677f59-d11f-4dfc-8eb0-ba0681765051"},"vehicle_type_id":"4","last_reported":1686258427,"current_range_meters":1200,"station_id":"ce4bhp92rcd13ifvqhag","pricing_plan_id":"free"},{"bike_id":"cb361806-7d5e-46cb-91fe-3363938d02e9","system_id":"levelo_inurba_marseille","lat":43.28261,"lon":5.40815,"is_reserved":false,"is_disabled":false,"rental_uris":{"android":"levelo://app?vid=cb361806-7d5e-46cb-91fe-3363938d02e9","ios":"levelo://app?vid=cb361806-7d5e-46cb-91fe-3363938d02e9"},"vehicle_type_id":"4","last_reported":1686258427,"current_range_meters":24400,"station_id":"","pricing_plan_id":"free"},{"bike_id":"d8a39737-a4fc-4b7d-8434-5ca6948c09f8","system_id":"levelo_inurba_marseille","lat":43.278128,"lon":5.407195,"is_reserved":false,"is_disabled":false,"rental_uris":{"android":"levelo://app?vid=d8a39737-a4fc-4b7d-8434-5ca6948c09f8","ios":"levelo://app?vid=d8a39737-a4fc-4b7d-8434-5ca6948c09f8"},"vehicle_type_id":"4","last_reported":1686258427,"current_range_meters":30800,"station_id":"ce4bhnh2rcd13ifvqgtg","pricing_plan_id":"free"},{"bike_id":"3811e2d8-99ee-46f0-897c-cbc61f8f69de","system_id":"levelo_inurba_marseille","lat":43.28153,"lon":5.40932,"is_reserved":false,"is_disabled":false,"rental_uris":{"android":"levelo://app?vid=3811e2d8-99ee-46f0-897c-cbc61f8f69de","ios":"levelo://app?vid=3811e2d8-99ee-46f0-897c-cbc61f8f69de"},"vehicle_type_id":"4","last_reported":1686258427,"current_range_meters":400,"station_id":"","pricing_plan_id":"free"},{"bike_id":"df9b686f-3666-44a5-a684-a976322a033a","system_id":"levelo_inurba_marseille","lat":43.295523,"lon":5.422926,"is_reserved":false,"is_disabled":false,"rental_uris":{"android":"levelo://app?vid=df9b686f-3666-44a5-a684-a976322a033a","ios":"levelo://app?vid=df9b686f-3666-44a5-a684-a976322a033a"},"vehicle_type_id":"4","last_reported":1686258427,"current_range_meters":0,"station_id":"ce4bhph2rcd13ifvqhdg","pricing_plan_id":"free"},{"bike_id":"406e5c18-9ea6-497b-b860-7319eef6f7f8","system_id":"levelo_inurba_marseille","lat":43.2723,"lon":5.39179,"is_reserved":false,"is_disabled":false,"rental_uris":{"android":"levelo://app?vid=406e5c18-9ea6-497b-b860-7319eef6f7f8","ios":"levelo://app?vid=406e5c18-9ea6-497b-b860-7319eef6f7f8"},"vehicle_type_id":"4","last_reported":1686258427,"current_range_meters":9600,"station_id":"ce4bhhp2rcd13ifvqfm0","pricing_plan_id":"free"},{"bike_id":"e2c7e7fc-82f7-4d69-a8fe-2c197797f598","system_id":"levelo_inurba_marseille","lat":43.33048,"lon":5.42373,"is_reserved":false,"is_disabled":false,"rental_uris":{"android":"levelo://app?vid=e2c7e7fc-82f7-4d69-a8fe-2c197797f598","ios":"levelo://app?vid=e2c7e7fc-82f7-4d69-a8fe-2c197797f598"},"vehicle_type_id":"4","last_reported":1686258427,"current_range_meters":10400,"station_id":"","pricing_plan_id":"free"},{"bike_id":"58f40cf5-383f-4d18-bb68-236286a44e06","system_id":"levelo_inurba_marseille","lat":43.278128,"lon":5.407195,"is_reserved":false,"is_disabled":false,"rental_uris":{"android":"levelo://app?vid=58f40cf5-383f-4d18-bb68-236286a44e06","ios":"levelo://app?vid=58f40cf5-383f-4d18-bb68-236286a44e06"},"vehicle_type_id":"4","last_reported":1686258427,"current_range_meters":4000,"station_id":"ce4bhnh2rcd13ifvqgtg","pricing_plan_id":"free"},{"bike_id":"5e15855b-7e49-4fea-92de-e12a35f0b8e0","system_id":"levelo_inurba_marseille","lat":43.278128,"lon":5.407195,"is_reserved":false,"is_disabled":false,"rental_uris":{"android":"levelo://app?vid=5e15855b-7e49-4fea-92de-e12a35f0b8e0","ios":"levelo://app?vid=5e15855b-7e49-4fea-92de-e12a35f0b8e0"},"vehicle_type_id":"4","last_reported":1686258427,"current_range_meters":3600,"station_id":"ce4bhnh2rcd13ifvqgtg","pricing_plan_id":"free"},{"bike_id":"87847e14-e5af-49b8-a05a-73948f795a52","system_id":"levelo_inurba_marseille","lat":43.278128,"lon":5.407195,"is_reserved":false,"is_disabled":false,"rental_uris":{"android":"levelo://app?vid=87847e14-e5af-49b8-a05a-73948f795a52","ios":"levelo://app?vid=87847e14-e5af-49b8-a05a-73948f795a52"},"vehicle_type_id":"4","last_reported":1686258427,"current_range_meters":3600,"station_id":"ce4bhnh2rcd13ifvqgtg","pricing_plan_id":"free"},{"bike_id":"7e120fb1-3d99-4af3-9452-b3b0ed37c62f","system_id":"levelo_inurba_marseille","lat":43.278128,"lon":5.407195,"is_reserved":false,"is_disabled":false,"rental_uris":{"android":"levelo://app?vid=7e120fb1-3d99-4af3-9452-b3b0ed37c62f","ios":"levelo://app?vid=7e120fb1-3d99-4af3-9452-b3b0ed37c62f"},"vehicle_type_id":"4","last_reported":1686258427,"current_range_meters":4800,"station_id":"ce4bhnh2rcd13ifvqgtg","pricing_plan_id":"free"},{"bike_id":"5152e4c2-dcea-40d5-83de-33e9fefb76fd","system_id":"levelo_inurba_marseille","lat":43.269467,"lon":5.386439,"is_reserved":false,"is_disabled":false,"rental_uris":{"android":"levelo://app?vid=5152e4c2-dcea-40d5-83de-33e9fefb76fd","ios":"levelo://app?vid=5152e4c2-dcea-40d5-83de-33e9fefb76fd"},"vehicle_type_id":"4","last_reported":1686258427,"current_range_meters":0,"station_id":"ce4bhh92rcd13ifvqfh0","pricing_plan_id":"free"},{"bike_id":"66b52613-10d2-4ae5-a698-024d7866ade2","system_id":"levelo_inurba_marseille","lat":43.269319,"lon":5.389397,"is_reserved":false,"is_disabled":false,"rental_uris":{"android":"levelo://app?vid=66b52613-10d2-4ae5-a698-024d7866ade2","ios":"levelo://app?vid=66b52613-10d2-4ae5-a698-024d7866ade2"},"vehicle_type_id":"4","last_reported":1686258427,"current_range_meters":8800,"station_id":"ce4bhhh2rcd13ifvqfl0","pricing_plan_id":"free"},{"bike_id":"535ab55f-26b0-4350-9453-df818650c02d","system_id":"levelo_inurba_marseille","lat":43.26681,"lon":5.382694,"is_reserved":false,"is_disabled":false,"rental_uris":{"android":"levelo://app?vid=535ab55f-26b0-4350-9453-df818650c02d","ios":"levelo://app?vid=535ab55f-26b0-4350-9453-df818650c02d"},"vehicle_type_id":"4","last_reported":1686258427,"current_range_meters":0,"station_id":"ce4bhg92rcd13ifvqf90","pricing_plan_id":"free"},{"bike_id":"cd1ef42a-cc6c-4223-9f79-31071cc74dad","system_id":"levelo_inurba_marseille","lat":43.28001,"lon":5.41664,"is_reserved":false,"is_disabled":false,"rental_uris":{"android":"levelo://app?vid=cd1ef42a-cc6c-4223-9f79-31071cc74dad","ios":"levelo://app?vid=cd1ef42a-cc6c-4223-9f79-31071cc74dad"},"vehicle_type_id":"4","last_reported":1686258427,"current_range_meters":0,"station_id":"ce4bho12rcd13ifvqh1g","pricing_plan_id":"free"},{"bike_id":"ff2cc78f-7b85-4f57-8813-fb3f11ba447a","system_id":"levelo_inurba_marseille","lat":43.27996,"lon":5.416624,"is_reserved":false,"is_disabled":false,"rental_uris":{"android":"levelo://app?vid=ff2cc78f-7b85-4f57-8813-fb3f11ba447a","ios":"levelo://app?vid=ff2cc78f-7b85-4f57-8813-fb3f11ba447a"},"vehicle_type_id":"4","last_reported":1686258427,"current_range_meters":16000,"station_id":"ce4bho12rcd13ifvqh1g","pricing_plan_id":"free"},{"bike_id":"7ae5529b-10b8-4968-be0e-d073cde10040","system_id":"levelo_inurba_marseille","lat":43.27996,"lon":5.416624,"is_reserved":false,"is_disabled":false,"rental_uris":{"android":"levelo://app?vid=7ae5529b-10b8-4968-be0e-d073cde10040","ios":"levelo://app?vid=7ae5529b-10b8-4968-be0e-d073cde10040"},"vehicle_type_id":"4","last_reported":1686258427,"current_range_meters":0,"station_id":"ce4bho12rcd13ifvqh1g","pricing_plan_id":"free"},{"bike_id":"34d60418-58f6-4938-b02a-dc7a5caaba68","system_id":"levelo_inurba_marseille","lat":43.30799,"lon":5.43521,"is_reserved":false,"is_disabled":false,"rental_uris":{"android":"levelo://app?vid=34d60418-58f6-4938-b02a-dc7a5caaba68","ios":"levelo://app?vid=34d60418-58f6-4938-b02a-dc7a5caaba68"},"vehicle_type_id":"4","last_reported":1686258427,"current_range_meters":21600,"station_id":"","pricing_plan_id":"free"},{"bike_id":"c56886e7-1c07-4e4e-8d95-1bfcba15fecf","system_id":"levelo_inurba_marseille","lat":43.308,"lon":5.43522,"is_reserved":false,"is_disabled":false,"rental_uris":{"android":"levelo://app?vid=c56886e7-1c07-4e4e-8d95-1bfcba15fecf","ios":"levelo://app?vid=c56886e7-1c07-4e4e-8d95-1bfcba15fecf"},"vehicle_type_id":"4","last_reported":1686258427,"current_range_meters":4000,"station_id":"","pricing_plan_id":"free"},{"bike_id":"20c5ba33-3bce-48d0-b978-27bd5d84aec7","system_id":"levelo_inurba_marseille","lat":43.2869,"lon":5.42594,"is_reserved":false,"is_disabled":false,"rental_uris":{"android":"levelo://app?vid=20c5ba33-3bce-48d0-b978-27bd5d84aec7","ios":"levelo://app?vid=20c5ba33-3bce-48d0-b978-27bd5d84aec7"},"vehicle_type_id":"4","last_reported":1686258427,"current_range_meters":2000,"station_id":"","pricing_plan_id":"free"},{"bike_id":"b0f82b0d-4254-4710-af92-1b2e9f397767","system_id":"levelo_inurba_marseille","lat":43.26234,"lon":5.37046,"is_reserved":false,"is_disabled":false,"rental_uris":{"android":"levelo://app?vid=b0f82b0d-4254-4710-af92-1b2e9f397767","ios":"levelo://app?vid=b0f82b0d-4254-4710-af92-1b2e9f397767"},"vehicle_type_id":"4","last_reported":1686258427,"current_range_meters":23200,"station_id":"","pricing_plan_id":"free"},{"bike_id":"7b16b738-f650-4cea-88ee-870b528607b2","system_id":"levelo_inurba_marseille","lat":43.298768,"lon":5.43643,"is_reserved":false,"is_disabled":false,"rental_uris":{"android":"levelo://app?vid=7b16b738-f650-4cea-88ee-870b528607b2","ios":"levelo://app?vid=7b16b738-f650-4cea-88ee-870b528607b2"},"vehicle_type_id":"4","last_reported":1686258427,"current_range_meters":17600,"station_id":"ce4bhpp2rcd13ifvqhfg","pricing_plan_id":"free"},{"bike_id":"d8fe0172-c9bd-4da3-a325-96b0671853b0","system_id":"levelo_inurba_marseille","lat":43.298768,"lon":5.43643,"is_reserved":false,"is_disabled":false,"rental_uris":{"android":"levelo://app?vid=d8fe0172-c9bd-4da3-a325-96b0671853b0","ios":"levelo://app?vid=d8fe0172-c9bd-4da3-a325-96b0671853b0"},"vehicle_type_id":"4","last_reported":1686258427,"current_range_meters":400,"station_id":"ce4bhpp2rcd13ifvqhfg","pricing_plan_id":"free"},{"bike_id":"0abd466f-ae7a-4789-a218-e3b2c168a2b3","system_id":"levelo_inurba_marseille","lat":43.25961,"lon":5.3755,"is_reserved":false,"is_disabled":false,"rental_uris":{"android":"levelo://app?vid=0abd466f-ae7a-4789-a218-e3b2c168a2b3","ios":"levelo://app?vid=0abd466f-ae7a-4789-a218-e3b2c168a2b3"},"vehicle_type_id":"4","last_reported":1686258427,"current_range_meters":8800,"station_id":"","pricing_plan_id":"free"},{"bike_id":"e0700ca7-12ae-454f-a8df-51dd8f699266","system_id":"levelo_inurba_marseille","lat":43.2607,"lon":5.393983,"is_reserved":false,"is_disabled":false,"rental_uris":{"android":"levelo://app?vid=e0700ca7-12ae-454f-a8df-51dd8f699266","ios":"levelo://app?vid=e0700ca7-12ae-454f-a8df-51dd8f699266"},"vehicle_type_id":"4","last_reported":1686258427,"current_range_meters":23200,"station_id":"ce4bhh92rcd13ifvqfj0","pricing_plan_id":"free"},{"bike_id":"1d34637b-a82a-4638-876a-d2fee8476a35","system_id":"levelo_inurba_marseille","lat":43.309076,"lon":5.368465,"is_reserved":false,"is_disabled":false,"rental_uris":{"android":"levelo://app?vid=1d34637b-a82a-4638-876a-d2fee8476a35","ios":"levelo://app?vid=1d34637b-a82a-4638-876a-d2fee8476a35"},"vehicle_type_id":"4","last_reported":1686258427,"current_range_meters":7600,"station_id":"ce4bgn92rcd13ifvqbvg","pricing_plan_id":"free"},{"bike_id":"6873a9c2-6ae4-4381-9d46-a1330a9f5351","system_id":"levelo_inurba_marseille","lat":43.28864,"lon":5.43917,"is_reserved":false,"is_disabled":false,"rental_uris":{"android":"levelo://app?vid=6873a9c2-6ae4-4381-9d46-a1330a9f5351","ios":"levelo://app?vid=6873a9c2-6ae4-4381-9d46-a1330a9f5351"},"vehicle_type_id":"4","last_reported":1686258427,"current_range_meters":26400,"station_id":"","pricing_plan_id":"free"},{"bike_id":"1584516d-4791-4cdf-8cd7-1dfc3669b943","system_id":"levelo_inurba_marseille","lat":43.25578,"lon":5.38229,"is_reserved":false,"is_disabled":false,"rental_uris":{"android":"levelo://app?vid=1584516d-4791-4cdf-8cd7-1dfc3669b943","ios":"levelo://app?vid=1584516d-4791-4cdf-8cd7-1dfc3669b943"},"vehicle_type_id":"4","last_reported":1686258427,"current_range_meters":16800,"station_id":"ce4bhih2rcd13ifvqfs0","pricing_plan_id":"free"},{"bike_id":"a781a343-b241-4f95-ab3c-8b2df648c6cb","system_id":"levelo_inurba_marseille","lat":43.33312,"lon":5.44167,"is_reserved":false,"is_disabled":false,"rental_uris":{"android":"levelo://app?vid=a781a343-b241-4f95-ab3c-8b2df648c6cb","ios":"levelo://app?vid=a781a343-b241-4f95-ab3c-8b2df648c6cb"},"vehicle_type_id":"4","last_reported":1686258427,"current_range_meters":12000,"station_id":"","pricing_plan_id":"free"},{"bike_id":"dc9e0482-b620-40db-97b7-aee83dd09892","system_id":"levelo_inurba_marseille","lat":43.25576,"lon":5.38241,"is_reserved":false,"is_disabled":false,"rental_uris":{"android":"levelo://app?vid=dc9e0482-b620-40db-97b7-aee83dd09892","ios":"levelo://app?vid=dc9e0482-b620-40db-97b7-aee83dd09892"},"vehicle_type_id":"4","last_reported":1686258427,"current_range_meters":18800,"station_id":"ce4bhih2rcd13ifvqfs0","pricing_plan_id":"free"},{"bike_id":"27dd3a80-fe61-45a1-8730-6fcb7618a40e","system_id":"levelo_inurba_marseille","lat":43.254947,"lon":5.376454,"is_reserved":false,"is_disabled":false,"rental_uris":{"android":"levelo://app?vid=27dd3a80-fe61-45a1-8730-6fcb7618a40e","ios":"levelo://app?vid=27dd3a80-fe61-45a1-8730-6fcb7618a40e"},"vehicle_type_id":"4","last_reported":1686258427,"current_range_meters":6400,"station_id":"ce4bhh12rcd13ifvqff0","pricing_plan_id":"free"},{"bike_id":"982d624a-85fb-4b91-8046-a1783872d7be","system_id":"levelo_inurba_marseille","lat":43.254947,"lon":5.376454,"is_reserved":false,"is_disabled":false,"rental_uris":{"android":"levelo://app?vid=982d624a-85fb-4b91-8046-a1783872d7be","ios":"levelo://app?vid=982d624a-85fb-4b91-8046-a1783872d7be"},"vehicle_type_id":"4","last_reported":1686258427,"current_range_meters":6800,"station_id":"ce4bhh12rcd13ifvqff0","pricing_plan_id":"free"},{"bike_id":"fa6a7a0a-d330-4ffc-b79d-913d11393732","system_id":"levelo_inurba_marseille","lat":43.254947,"lon":5.376454,"is_reserved":false,"is_disabled":false,"rental_uris":{"android":"levelo://app?vid=fa6a7a0a-d330-4ffc-b79d-913d11393732","ios":"levelo://app?vid=fa6a7a0a-d330-4ffc-b79d-913d11393732"},"vehicle_type_id":"4","last_reported":1686258427,"current_range_meters":31200,"station_id":"ce4bhh12rcd13ifvqff0","pricing_plan_id":"free"},{"bike_id":"63fe30b7-d672-4fb6-852e-019e800cd388","system_id":"levelo_inurba_marseille","lat":43.2707,"lon":5.42274,"is_reserved":false,"is_disabled":false,"rental_uris":{"android":"levelo://app?vid=63fe30b7-d672-4fb6-852e-019e800cd388","ios":"levelo://app?vid=63fe30b7-d672-4fb6-852e-019e800cd388"},"vehicle_type_id":"4","last_reported":1686258427,"current_range_meters":4800,"station_id":"ce4bhk92rcd13ifvqgb0","pricing_plan_id":"free"},{"bike_id":"db6155f0-739f-4f24-a3b8-ae520f6e2244","system_id":"levelo_inurba_marseille","lat":43.27068,"lon":5.42274,"is_reserved":false,"is_disabled":false,"rental_uris":{"android":"levelo://app?vid=db6155f0-739f-4f24-a3b8-ae520f6e2244","ios":"levelo://app?vid=db6155f0-739f-4f24-a3b8-ae520f6e2244"},"vehicle_type_id":"4","last_reported":1686258427,"current_range_meters":10800,"station_id":"ce4bhk92rcd13ifvqgb0","pricing_plan_id":"free"},{"bike_id":"cd96ffe2-0308-45de-b87e-166c53b5ea03","system_id":"levelo_inurba_marseille","lat":43.270721,"lon":5.422764,"is_reserved":false,"is_disabled":false,"rental_uris":{"android":"levelo://app?vid=cd96ffe2-0308-45de-b87e-166c53b5ea03","ios":"levelo://app?vid=cd96ffe2-0308-45de-b87e-166c53b5ea03"},"vehicle_type_id":"4","last_reported":1686258427,"current_range_meters":22400,"station_id":"ce4bhk92rcd13ifvqgb0","pricing_plan_id":"free"},{"bike_id":"43b480f7-dcee-4422-8226-071dfdf90bb8","system_id":"levelo_inurba_marseille","lat":43.270721,"lon":5.422764,"is_reserved":false,"is_disabled":false,"rental_uris":{"android":"levelo://app?vid=43b480f7-dcee-4422-8226-071dfdf90bb8","ios":"levelo://app?vid=43b480f7-dcee-4422-8226-071dfdf90bb8"},"vehicle_type_id":"4","last_reported":1686258427,"current_range_meters":31200,"station_id":"ce4bhk92rcd13ifvqgb0","pricing_plan_id":"free"},{"bike_id":"079e4bd5-7897-4a8a-a75c-c940b9322859","system_id":"levelo_inurba_marseille","lat":43.270721,"lon":5.422764,"is_reserved":false,"is_disabled":false,"rental_uris":{"android":"levelo://app?vid=079e4bd5-7897-4a8a-a75c-c940b9322859","ios":"levelo://app?vid=079e4bd5-7897-4a8a-a75c-c940b9322859"},"vehicle_type_id":"4","last_reported":1686258427,"current_range_meters":10400,"station_id":"ce4bhk92rcd13ifvqgb0","pricing_plan_id":"free"},{"bike_id":"b7dead98-b5b3-4730-b707-94ed16255947","system_id":"levelo_inurba_marseille","lat":43.25437,"lon":5.38161,"is_reserved":false,"is_disabled":false,"rental_uris":{"android":"levelo://app?vid=b7dead98-b5b3-4730-b707-94ed16255947","ios":"levelo://app?vid=b7dead98-b5b3-4730-b707-94ed16255947"},"vehicle_type_id":"4","last_reported":1686258427,"current_range_meters":31200,"station_id":"","pricing_plan_id":"free"},{"bike_id":"2d164d25-32f6-449c-9d8b-52599c239737","system_id":"levelo_inurba_marseille","lat":43.26241,"lon":5.41311,"is_reserved":false,"is_disabled":false,"rental_uris":{"android":"levelo://app?vid=2d164d25-32f6-449c-9d8b-52599c239737","ios":"levelo://app?vid=2d164d25-32f6-449c-9d8b-52599c239737"},"vehicle_type_id":"4","last_reported":1686258427,"current_range_meters":6400,"station_id":"","pricing_plan_id":"free"},{"bike_id":"0185af5b-b7a3-4b7f-be55-246b918f63da","system_id":"levelo_inurba_marseille","lat":43.25934,"lon":5.40909,"is_reserved":false,"is_disabled":false,"rental_uris":{"android":"levelo://app?vid=0185af5b-b7a3-4b7f-be55-246b918f63da","ios":"levelo://app?vid=0185af5b-b7a3-4b7f-be55-246b918f63da"},"vehicle_type_id":"4","last_reported":1686258427,"current_range_meters":2400,"station_id":"","pricing_plan_id":"free"},{"bike_id":"974a7382-dab4-47b9-b30b-45983b311ca6","system_id":"levelo_inurba_marseille","lat":43.24693,"lon":5.382096,"is_reserved":false,"is_disabled":false,"rental_uris":{"android":"levelo://app?vid=974a7382-dab4-47b9-b30b-45983b311ca6","ios":"levelo://app?vid=974a7382-dab4-47b9-b30b-45983b311ca6"},"vehicle_type_id":"4","last_reported":1686258427,"current_range_meters":31200,"station_id":"ce4bhih2rcd13ifvqfr0","pricing_plan_id":"free"},{"bike_id":"7910acd8-0d21-4748-a991-8074a5a14f45","system_id":"levelo_inurba_marseille","lat":43.24693,"lon":5.382096,"is_reserved":false,"is_disabled":false,"rental_uris":{"android":"levelo://app?vid=7910acd8-0d21-4748-a991-8074a5a14f45","ios":"levelo://app?vid=7910acd8-0d21-4748-a991-8074a5a14f45"},"vehicle_type_id":"4","last_reported":1686258427,"current_range_meters":14000,"station_id":"ce4bhih2rcd13ifvqfr0","pricing_plan_id":"free"},{"bike_id":"db05926d-4601-42a5-90a3-0336b2bc4e0e","system_id":"levelo_inurba_marseille","lat":43.25102,"lon":5.403214,"is_reserved":false,"is_disabled":false,"rental_uris":{"android":"levelo://app?vid=db05926d-4601-42a5-90a3-0336b2bc4e0e","ios":"levelo://app?vid=db05926d-4601-42a5-90a3-0336b2bc4e0e"},"vehicle_type_id":"4","last_reported":1686258427,"current_range_meters":18400,"station_id":"ce4bhlh2rcd13ifvqgig","pricing_plan_id":"free"},{"bike_id":"3be83638-b139-4d1c-89cc-3b0cc20e440c","system_id":"levelo_inurba_marseille","lat":43.24647,"lon":5.38892,"is_reserved":false,"is_disabled":false,"rental_uris":{"android":"levelo://app?vid=3be83638-b139-4d1c-89cc-3b0cc20e440c","ios":"levelo://app?vid=3be83638-b139-4d1c-89cc-3b0cc20e440c"},"vehicle_type_id":"4","last_reported":1686258427,"current_range_meters":1600,"station_id":"ce4bhg12rcd13ifvqf60","pricing_plan_id":"free"},{"bike_id":"940eacf2-046e-4c23-b58f-b9bf32cb37fa","system_id":"levelo_inurba_marseille","lat":43.245581,"lon":5.395069,"is_reserved":false,"is_disabled":false,"rental_uris":{"android":"levelo://app?vid=940eacf2-046e-4c23-b58f-b9bf32cb37fa","ios":"levelo://app?vid=940eacf2-046e-4c23-b58f-b9bf32cb37fa"},"vehicle_type_id":"4","last_reported":1686258427,"current_range_meters":24000,"station_id":"ce4bhlp2rcd13ifvqgjg","pricing_plan_id":"free"},{"bike_id":"0662262d-c1b5-43ed-a541-62735e4ddd22","system_id":"levelo_inurba_marseille","lat":43.244912,"lon":5.401913,"is_reserved":false,"is_disabled":false,"rental_uris":{"android":"levelo://app?vid=0662262d-c1b5-43ed-a541-62735e4ddd22","ios":"levelo://app?vid=0662262d-c1b5-43ed-a541-62735e4ddd22"},"vehicle_type_id":"4","last_reported":1686258427,"current_range_meters":0,"station_id":"ce4bhs92rcd13ifvqi0g","pricing_plan_id":"free"},{"bike_id":"a7f33019-0af0-47cf-b810-ea7d11a60254","system_id":"levelo_inurba_marseille","lat":43.239588,"lon":5.366238,"is_reserved":false,"is_disabled":false,"rental_uris":{"android":"levelo://app?vid=a7f33019-0af0-47cf-b810-ea7d11a60254","ios":"levelo://app?vid=a7f33019-0af0-47cf-b810-ea7d11a60254"},"vehicle_type_id":"4","last_reported":1686258427,"current_range_meters":15600,"station_id":"ce4bhi12rcd13ifvqfp0","pricing_plan_id":"free"},{"bike_id":"d3b49f61-f9bd-43f3-a281-0a2fb9b51c91","system_id":"levelo_inurba_marseille","lat":43.23298,"lon":5.35286,"is_reserved":false,"is_disabled":false,"rental_uris":{"android":"levelo://app?vid=d3b49f61-f9bd-43f3-a281-0a2fb9b51c91","ios":"levelo://app?vid=d3b49f61-f9bd-43f3-a281-0a2fb9b51c91"},"vehicle_type_id":"4","last_reported":1686258427,"current_range_meters":21600,"station_id":"","pricing_plan_id":"free"},{"bike_id":"596bf2f0-220c-4ef6-a062-229e445f45f2","system_id":"levelo_inurba_marseille","lat":43.23258,"lon":5.35435,"is_reserved":false,"is_disabled":false,"rental_uris":{"android":"levelo://app?vid=596bf2f0-220c-4ef6-a062-229e445f45f2","ios":"levelo://app?vid=596bf2f0-220c-4ef6-a062-229e445f45f2"},"vehicle_type_id":"4","last_reported":1686258427,"current_range_meters":7600,"station_id":"","pricing_plan_id":"free"},{"bike_id":"97867c6b-fa3a-4070-903e-8d39067e29b7","system_id":"levelo_inurba_marseille","lat":43.231923,"lon":5.355545,"is_reserved":false,"is_disabled":false,"rental_uris":{"android":"levelo://app?vid=97867c6b-fa3a-4070-903e-8d39067e29b7","ios":"levelo://app?vid=97867c6b-fa3a-4070-903e-8d39067e29b7"},"vehicle_type_id":"4","last_reported":1686258427,"current_range_meters":6400,"station_id":"ce4bhu92rcd13ifvqi70","pricing_plan_id":"free"},{"bike_id":"9d317af0-f5f1-4f41-a6a7-b11c162bfb81","system_id":"levelo_inurba_marseille","lat":43.23187,"lon":5.39998,"is_reserved":false,"is_disabled":false,"rental_uris":{"android":"levelo://app?vid=9d317af0-f5f1-4f41-a6a7-b11c162bfb81","ios":"levelo://app?vid=9d317af0-f5f1-4f41-a6a7-b11c162bfb81"},"vehicle_type_id":"4","last_reported":1686258427,"current_range_meters":30400,"station_id":"ce4bhn12rcd13ifvqgqg","pricing_plan_id":"free"},{"bike_id":"58bdd804-da75-4d54-b358-be1b4b052690","system_id":"levelo_inurba_marseille","lat":43.231794,"lon":5.400052,"is_reserved":false,"is_disabled":false,"rental_uris":{"android":"levelo://app?vid=58bdd804-da75-4d54-b358-be1b4b052690","ios":"levelo://app?vid=58bdd804-da75-4d54-b358-be1b4b052690"},"vehicle_type_id":"4","last_reported":1686258427,"current_range_meters":31200,"station_id":"ce4bhn12rcd13ifvqgqg","pricing_plan_id":"free"},{"bike_id":"14746f68-e90f-436e-a836-e39e13032520","system_id":"levelo_inurba_marseille","lat":43.231794,"lon":5.400052,"is_reserved":false,"is_disabled":false,"rental_uris":{"android":"levelo://app?vid=14746f68-e90f-436e-a836-e39e13032520","ios":"levelo://app?vid=14746f68-e90f-436e-a836-e39e13032520"},"vehicle_type_id":"4","last_reported":1686258427,"current_range_meters":22400,"station_id":"ce4bhn12rcd13ifvqgqg","pricing_plan_id":"free"},{"bike_id":"00fa260d-7703-42bd-8c51-d6b0c3fcb538","system_id":"levelo_inurba_marseille","lat":43.231794,"lon":5.400052,"is_reserved":false,"is_disabled":false,"rental_uris":{"android":"levelo://app?vid=00fa260d-7703-42bd-8c51-d6b0c3fcb538","ios":"levelo://app?vid=00fa260d-7703-42bd-8c51-d6b0c3fcb538"},"vehicle_type_id":"4","last_reported":1686258427,"current_range_meters":17200,"station_id":"ce4bhn12rcd13ifvqgqg","pricing_plan_id":"free"}]}}