{"last_updated":1702404546,"ttl":30,"version":"2.2","data":{"bikes":[{"bike_id":"dd421998-4434-49d7-a137-4940836ce93c","system_id":"levelo_inurba_marseille","lat":43.309076,"lon":5.368465,"is_reserved":false,"is_disabled":false,"rental_uris":{"android":"levelo://app?vid=dd421998-4434-49d7-a137-4940836ce93c","ios":"levelo://app?vid=dd421998-4434-49d7-a137-4940836ce93c"},"vehicle_type_id":"4","last_reported":1702404546,"current_range_meters":26400,"station_id":"ce4bgn92rcd13ifvqbvg","pricing_plan_id":"free"},{"bike_id":"9f526681-7969-4a4f-aa0b-21c26553b531","system_id":"levelo_inurba_marseille","lat":43.309076,"lon":5.368465,"is_reserved":false,"is_disabled":false,"rental_uris":{"android":"levelo://app?vid=9f526681-7969-4a4f-aa0b-21c26553b531","ios":"levelo://app?vid=9f526681-7969-4a4f-aa0b-21c26553b531"},"vehicle_type_id":"4","last_reported":1702404546,"current_range_meters":23600,"station_id":"ce4bgn92rcd13ifvqbvg","pricing_plan_id":"free"},{"bike_id":"89b70c16-8619-4b5d-a24b-6a8d75ed8a07","system_id":"levelo_inurba_marseille","lat":43.305714,"lon":5.365633,"is_reserved":false,"is_disabled":false,"rental_uris":{"android":"levelo://app?vid=89b70c16-8619-4b5d-a24b-6a8d75ed8a07","ios":"levelo://app?vid=89b70c16-8619-4b5d-a24b-6a8d75ed8a07"},"vehicle_type_id":"4","last_reported":1702404546,"current_range_meters":0,"station_id":"ce4bgs12rcd13ifvqcag","pricing_plan_id":"free"},{"bike_id":"955e4ab2-16e5-44e8-a986-a2f50ff96c06","system_id":"levelo_inurba_marseille","lat":43.305382,"lon":5.365389,"is_reserved":false,"is_disabled":false,"rental_uris":{"android":"levelo://app?vid=955e4ab2-16e5-44e8-a986-a2f50ff96c06","ios":"levelo://app?vid=955e4ab2-16e5-44e8-a986-a2f50ff96c06"},"vehicle_type_id":"4","last_reported":1702404546,"current_range_meters":30000,"station_id":"","pricing_plan_id":"free"},{"bike_id":"dc68debd-6203-4696-b9a5-55eea857c5a0","system_id":"levelo_inurba_marseille","lat":43.317147,"lon":5.376857,"is_reserved":false,"is_disabled":false,"rental_uris":{"android":"levelo://app?vid=dc68debd-6203-4696-b9a5-55eea857c5a0","ios":"levelo://app?vid=dc68debd-6203-4696-b9a5-55eea857c5a0"},"vehicle_type_id":"4","last_reported":1702404546,"current_range_meters":27200,"station_id":"ce4bgth2rcd13ifvqch0","pricing_plan_id":"free"},{"bike_id":"8f81567e-2bb9-4924-a767-22ab3d053b21","system_id":"levelo_inurba_marseille","lat":43.303153,"lon":5.374003,"is_reserved":false,"is_disabled":false,"rental_uris":{"android":"levelo://app?vid=8f81567e-2bb9-4924-a767-22ab3d053b21","ios":"levelo://app?vid=8f81567e-2bb9-4924-a767-22ab3d053b21"},"vehicle_type_id":"4","last_reported":1702404546,"current_range_meters":0,"station_id":"","pricing_plan_id":"free"},{"bike_id":"1f3ef8df-18e4-4fb9-adfa-902fc5ae4601","system_id":"levelo_inurba_marseille","lat":43.313571,"lon":5.384829,"is_reserved":false,"is_disabled":false,"rental_uris":{"android":"levelo://app?vid=1f3ef8df-18e4-4fb9-adfa-902fc5ae4601","ios":"levelo://app?vid=1f3ef8df-18e4-4fb9-adfa-902fc5ae4601"},"vehicle_type_id":"4","last_reported":1702404546,"current_range_meters":4400,"station_id":"ce4bgt92rcd13ifvqcf0","pricing_plan_id":"free"},{"bike_id":"63cbfe69-72a7-426e-8ae3-401a680a6583","system_id":"levelo_inurba_marseille","lat":43.313571,"lon":5.384829,"is_reserved":false,"is_disabled":false,"rental_uris":{"android":"levelo://app?vid=63cbfe69-72a7-426e-8ae3-401a680a6583","ios":"levelo://app?vid=63cbfe69-72a7-426e-8ae3-401a680a6583"},"vehicle_type_id":"4","last_reported":1702404546,"current_range_meters":13600,"station_id":"ce4bgt92rcd13ifvqcf0","pricing_plan_id":"free"},{"bike_id":"c04897cf-b43f-42d3-b95e-9e22c409af04","system_id":"levelo_inurba_marseille","lat":43.298433,"lon":5.362774,"is_reserved":false,"is_disabled":false,"rental_uris":{"android":"levelo://app?vid=c04897cf-b43f-42d3-b95e-9e22c409af04","ios":"levelo://app?vid=c04897cf-b43f-42d3-b95e-9e22c409af04"},"vehicle_type_id":"4","last_reported":1702404546,"current_range_meters":3200,"station_id":"ce4bgpp2rcd13ifvqc3g","pricing_plan_id":"free"},{"bike_id":"77a6c46d-d898-4e4f-8846-efa91689c7f0","system_id":"levelo_inurba_marseille","lat":43.302006,"lon":5.38065,"is_reserved":false,"is_disabled":false,"rental_uris":{"android":"levelo://app?vid=77a6c46d-d898-4e4f-8846-efa91689c7f0","ios":"levelo://app?vid=77a6c46d-d898-4e4f-8846-efa91689c7f0"},"vehicle_type_id":"4","last_reported":1702404546,"current_range_meters":0,"station_id":"","pricing_plan_id":"free"},{"bike_id":"67fa9d47-6ff2-4f5d-92d8-47a972dd5aef","system_id":"levelo_inurba_marseille","lat":43.299243,"lon":5.37481,"is_reserved":false,"is_disabled":false,"rental_uris":{"android":"levelo://app?vid=67fa9d47-6ff2-4f5d-92d8-47a972dd5aef","ios":"levelo://app?vid=67fa9d47-6ff2-4f5d-92d8-47a972dd5aef"},"vehicle_type_id":"4","last_reported":1702404546,"current_range_meters":4000,"station_id":"ce4bgjh2rcd13ifvqbg0","pricing_plan_id":"free"},{"bike_id":"b831371f-ea23-4edc-aced-217a20d87f64","system_id":"levelo_inurba_marseille","lat":43.311722,"lon":5.387247,"is_reserved":false,"is_disabled":false,"rental_uris":{"android":"levelo://app?vid=b831371f-ea23-4edc-aced-217a20d87f64","ios":"levelo://app?vid=b831371f-ea23-4edc-aced-217a20d87f64"},"vehicle_type_id":"4","last_reported":1702404546,"current_range_meters":400,"station_id":"ce4bgv12rcd13ifvqcp0","pricing_plan_id":"free"},{"bike_id":"4e6dcc4f-3405-416d-8522-8318837508c0","system_id":"levelo_inurba_marseille","lat":43.322872,"lon":5.382756,"is_reserved":false,"is_disabled":false,"rental_uris":{"android":"levelo://app?vid=4e6dcc4f-3405-416d-8522-8318837508c0","ios":"levelo://app?vid=4e6dcc4f-3405-416d-8522-8318837508c0"},"vehicle_type_id":"4","last_reported":1702404546,"current_range_meters":4400,"station_id":"ce4bhr12rcd13ifvqhqg","pricing_plan_id":"free"},{"bike_id":"fcc3a406-8219-4d19-a1b2-f9d5a2feeb13","system_id":"levelo_inurba_marseille","lat":43.32289,"lon":5.38266,"is_reserved":false,"is_disabled":false,"rental_uris":{"android":"levelo://app?vid=fcc3a406-8219-4d19-a1b2-f9d5a2feeb13","ios":"levelo://app?vid=fcc3a406-8219-4d19-a1b2-f9d5a2feeb13"},"vehicle_type_id":"4","last_reported":1702404546,"current_range_meters":28000,"station_id":"ce4bhr12rcd13ifvqhqg","pricing_plan_id":"free"},{"bike_id":"ef62d099-880c-48b4-a857-30e56a94bd16","system_id":"levelo_inurba_marseille","lat":43.322872,"lon":5.382756,"is_reserved":false,"is_disabled":false,"rental_uris":{"android":"levelo://app?vid=ef62d099-880c-48b4-a857-30e56a94bd16","ios":"levelo://app?vid=ef62d099-880c-48b4-a857-30e56a94bd16"},"vehicle_type_id":"4","last_reported":1702404546,"current_range_meters":6400,"station_id":"ce4bhr12rcd13ifvqhqg","pricing_plan_id":"free"},{"bike_id":"7c5c6212-95e6-412b-bba0-e6e1e8f7e4ca","system_id":"levelo_inurba_marseille","lat":43.322872,"lon":5.382756,"is_reserved":false,"is_disabled":false,"rental_uris":{"android":"levelo://app?vid=7c5c6212-95e6-412b-bba0-e6e1e8f7e4ca","ios":"levelo://app?vid=7c5c6212-95e6-412b-bba0-e6e1e8f7e4ca"},"vehicle_type_id":"4","last_reported":1702404546,"current_range_meters":2800,"station_id":"ce4bhr12rcd13ifvqhqg","pricing_plan_id":"free"},{"bike_id":"1360c75d-80a3-402c-8ea3-91f44b53ab23","system_id":"levelo_inurba_marseille","lat":43.297163,"lon":5.365866,"is_reserved":false,"is_disabled":false,"rental_uris":{"android":"levelo://app?vid=1360c75d-80a3-402c-8ea3-91f44b53ab23","ios":"levelo://app?vid=1360c75d-80a3-402c-8ea3-91f44b53ab23"},"vehicle_type_id":"4","last_reported":1702404546,"current_range_meters":18800,"station_id":"ce4bgn12rcd13ifvqbt0","pricing_plan_id":"free"},{"bike_id":"7a878ee5-6910-45dd-b3bd-722059d35da7","system_id":"levelo_inurba_marseille","lat":43.29787,"lon":5.37679,"is_reserved":false,"is_disabled":false,"rental_uris":{"android":"levelo://app?vid=7a878ee5-6910-45dd-b3bd-722059d35da7","ios":"levelo://app?vid=7a878ee5-6910-45dd-b3bd-722059d35da7"},"vehicle_type_id":"4","last_reported":1702404546,"current_range_meters":12400,"station_id":"","pricing_plan_id":"free"},{"bike_id":"2529ec81-812e-4ef0-b480-7a47f28ae1ca","system_id":"levelo_inurba_marseille","lat":43.317557,"lon":5.390173,"is_reserved":false,"is_disabled":false,"rental_uris":{"android":"levelo://app?vid=2529ec81-812e-4ef0-b480-7a47f28ae1ca","ios":"levelo://app?vid=2529ec81-812e-4ef0-b480-7a47f28ae1ca"},"vehicle_type_id":"4","last_reported":1702404546,"current_range_meters":24000,"station_id":"ce4bhqp2rcd13ifvqhng","pricing_plan_id":"free"},{"bike_id":"6fb53e64-8040-415f-9cd5-0615e8a670b9","system_id":"levelo_inurba_marseille","lat":43.298037,"lon":5.381066,"is_reserved":false,"is_disabled":false,"rental_uris":{"android":"levelo://app?vid=6fb53e64-8040-415f-9cd5-0615e8a670b9","ios":"levelo://app?vid=6fb53e64-8040-415f-9cd5-0615e8a670b9"},"vehicle_type_id":"4","last_reported":1702404546,"current_range_meters":26800,"station_id":"ce4bgip2rcd13ifvqbb0","pricing_plan_id":"free"},{"bike_id":"63903693-71be-4850-ab08-3249af15b08f","system_id":"levelo_inurba_marseille","lat":43.304274,"lon":5.388873,"is_reserved":false,"is_disabled":false,"rental_uris":{"android":"levelo://app?vid=63903693-71be-4850-ab08-3249af15b08f","ios":"levelo://app?vid=63903693-71be-4850-ab08-3249af15b08f"},"vehicle_type_id":"4","last_reported":1702404546,"current_range_meters":6400,"station_id":"ce4bgk12rcd13ifvqbi0","pricing_plan_id":"free"},{"bike_id":"ad3bfe70-5950-45e8-a62b-d82f67edd6d9","system_id":"levelo_inurba_marseille","lat":43.304278,"lon":5.388868,"is_reserved":false,"is_disabled":false,"rental_uris":{"android":"levelo://app?vid=ad3bfe70-5950-45e8-a62b-d82f67edd6d9","ios":"levelo://app?vid=ad3bfe70-5950-45e8-a62b-d82f67edd6d9"},"vehicle_type_id":"4","last_reported":1702404546,"current_range_meters":0,"station_id":"ce4bgk12rcd13ifvqbi0","pricing_plan_id":"free"},{"bike_id":"601f4282-03fe-44ab-8c03-95394a05b49b","system_id":"levelo_inurba_marseille","lat":43.297834,"lon":5.381145,"is_reserved":false,"is_disabled":false,"rental_uris":{"android":"levelo://app?vid=601f4282-03fe-44ab-8c03-95394a05b49b","ios":"levelo://app?vid=601f4282-03fe-44ab-8c03-95394a05b49b"},"vehicle_type_id":"4","last_reported":1702404546,"current_range_meters":0,"station_id":"ce4bgip2rcd13ifvqbb0","pricing_plan_id":"free"},{"bike_id":"41ab6158-0119-4c0c-a8c8-cd0c924e9ac4","system_id":"levelo_inurba_marseille","lat":43.295279,"lon":5.375048,"is_reserved":false,"is_disabled":false,"rental_uris":{"android":"levelo://app?vid=41ab6158-0119-4c0c-a8c8-cd0c924e9ac4","ios":"levelo://app?vid=41ab6158-0119-4c0c-a8c8-cd0c924e9ac4"},"vehicle_type_id":"4","last_reported":1702404546,"current_range_meters":17200,"station_id":"ce4bgkp2rcd13ifvqbmg","pricing_plan_id":"free"},{"bike_id":"d06041a6-53d6-483d-8da6-5744b83477ee","system_id":"levelo_inurba_marseille","lat":43.299717,"lon":5.384845,"is_reserved":false,"is_disabled":false,"rental_uris":{"android":"levelo://app?vid=d06041a6-53d6-483d-8da6-5744b83477ee","ios":"levelo://app?vid=d06041a6-53d6-483d-8da6-5744b83477ee"},"vehicle_type_id":"4","last_reported":1702404546,"current_range_meters":22400,"station_id":"ce4bgj92rcd13ifvqbd0","pricing_plan_id":"free"},{"bike_id":"7eef565e-9b6c-4b4d-a74b-6e060754bd57","system_id":"levelo_inurba_marseille","lat":43.32367,"lon":5.388836,"is_reserved":false,"is_disabled":false,"rental_uris":{"android":"levelo://app?vid=7eef565e-9b6c-4b4d-a74b-6e060754bd57","ios":"levelo://app?vid=7eef565e-9b6c-4b4d-a74b-6e060754bd57"},"vehicle_type_id":"4","last_reported":1702404546,"current_range_meters":30800,"station_id":"ce4bhqp2rcd13ifvqhog","pricing_plan_id":"free"},{"bike_id":"ec768d1e-7512-4985-acef-852acc5ddf48","system_id":"levelo_inurba_marseille","lat":43.292311,"lon":5.360731,"is_reserved":false,"is_disabled":false,"rental_uris":{"android":"levelo://app?vid=ec768d1e-7512-4985-acef-852acc5ddf48","ios":"levelo://app?vid=ec768d1e-7512-4985-acef-852acc5ddf48"},"vehicle_type_id":"4","last_reported":1702404546,"current_range_meters":9600,"station_id":"ce4bhbh2rcd13ifvqeqg","pricing_plan_id":"free"},{"bike_id":"4fe2e172-1fb5-4766-b9dd-fb4371c8ccc3","system_id":"levelo_inurba_marseille","lat":43.300852,"lon":5.390859,"is_reserved":false,"is_disabled":false,"rental_uris":{"android":"levelo://app?vid=4fe2e172-1fb5-4766-b9dd-fb4371c8ccc3","ios":"levelo://app?vid=4fe2e172-1fb5-4766-b9dd-fb4371c8ccc3"},"vehicle_type_id":"4","last_reported":1702404546,"current_range_meters":11200,"station_id":"ce4bh192rcd13ifvqdb0","pricing_plan_id":"free"},{"bike_id":"f549a9a6-1fe4-4213-951d-0e18a49331f5","system_id":"levelo_inurba_marseille","lat":43.291671,"lon":5.371575,"is_reserved":false,"is_disabled":false,"rental_uris":{"android":"levelo://app?vid=f549a9a6-1fe4-4213-951d-0e18a49331f5","ios":"levelo://app?vid=f549a9a6-1fe4-4213-951d-0e18a49331f5"},"vehicle_type_id":"4","last_reported":1702404546,"current_range_meters":0,"station_id":"ce4bha92rcd13ifvqeh0","pricing_plan_id":"free"},{"bike_id":"226c1baf-65e3-4064-a1da-e71ae92ebeeb","system_id":"levelo_inurba_marseille","lat":43.291671,"lon":5.371575,"is_reserved":false,"is_disabled":false,"rental_uris":{"android":"levelo://app?vid=226c1baf-65e3-4064-a1da-e71ae92ebeeb","ios":"levelo://app?vid=226c1baf-65e3-4064-a1da-e71ae92ebeeb"},"vehicle_type_id":"4","last_reported":1702404546,"current_range_meters":25600,"station_id":"ce4bha92rcd13ifvqeh0","pricing_plan_id":"free"},{"bike_id":"19809c44-1ff4-4b6f-9b58-4157d5bf7afd","system_id":"levelo_inurba_marseille","lat":43.292,"lon":5.35806,"is_reserved":false,"is_disabled":false,"rental_uris":{"android":"levelo://app?vid=19809c44-1ff4-4b6f-9b58-4157d5bf7afd","ios":"levelo://app?vid=19809c44-1ff4-4b6f-9b58-4157d5bf7afd"},"vehicle_type_id":"4","last_reported":1702404546,"current_range_meters":4000,"station_id":"ce4bhb12rcd13ifvqel0","pricing_plan_id":"free"},{"bike_id":"edbb9269-8187-4f7e-94c7-05a07c6a1c4e","system_id":"levelo_inurba_marseille","lat":43.313291,"lon":5.396838,"is_reserved":false,"is_disabled":false,"rental_uris":{"android":"levelo://app?vid=edbb9269-8187-4f7e-94c7-05a07c6a1c4e","ios":"levelo://app?vid=edbb9269-8187-4f7e-94c7-05a07c6a1c4e"},"vehicle_type_id":"4","last_reported":1702404546,"current_range_meters":10800,"station_id":"ce4bgvp2rcd13ifvqcu0","pricing_plan_id":"free"},{"bike_id":"d26174aa-83c9-4864-950d-e3c84cae543f","system_id":"levelo_inurba_marseille","lat":43.31326,"lon":5.3969,"is_reserved":false,"is_disabled":false,"rental_uris":{"android":"levelo://app?vid=d26174aa-83c9-4864-950d-e3c84cae543f","ios":"levelo://app?vid=d26174aa-83c9-4864-950d-e3c84cae543f"},"vehicle_type_id":"4","last_reported":1702404546,"current_range_meters":0,"station_id":"ce4bgvp2rcd13ifvqcu0","pricing_plan_id":"free"},{"bike_id":"7a429760-18ad-4983-8cdf-331e19791fba","system_id":"levelo_inurba_marseille","lat":43.313291,"lon":5.396838,"is_reserved":false,"is_disabled":false,"rental_uris":{"android":"levelo://app?vid=7a429760-18ad-4983-8cdf-331e19791fba","ios":"levelo://app?vid=7a429760-18ad-4983-8cdf-331e19791fba"},"vehicle_type_id":"4","last_reported":1702404546,"current_range_meters":22400,"station_id":"ce4bgvp2rcd13ifvqcu0","pricing_plan_id":"free"},{"bike_id":"f89a14b0-0127-4916-abef-133628eccae4","system_id":"levelo_inurba_marseille","lat":43.31339,"lon":5.39699,"is_reserved":false,"is_disabled":false,"rental_uris":{"android":"levelo://app?vid=f89a14b0-0127-4916-abef-133628eccae4","ios":"levelo://app?vid=f89a14b0-0127-4916-abef-133628eccae4"},"vehicle_type_id":"4","last_reported":1702404546,"current_range_meters":31200,"station_id":"ce4bgvp2rcd13ifvqcu0","pricing_plan_id":"free"},{"bike_id":"6531a93b-e120-4690-b42b-56b4bbbd8a30","system_id":"levelo_inurba_marseille","lat":43.313291,"lon":5.396838,"is_reserved":false,"is_disabled":false,"rental_uris":{"android":"levelo://app?vid=6531a93b-e120-4690-b42b-56b4bbbd8a30","ios":"levelo://app?vid=6531a93b-e120-4690-b42b-56b4bbbd8a30"},"vehicle_type_id":"4","last_reported":1702404546,"current_range_meters":18000,"station_id":"ce4bgvp2rcd13ifvqcu0","pricing_plan_id":"free"},{"bike_id":"f2a81f8f-cd04-4243-94f9-1ad54ebb3440","system_id":"levelo_inurba_marseille","lat":43.313291,"lon":5.396838,"is_reserved":false,"is_disabled":false,"rental_uris":{"android":"levelo://app?vid=f2a81f8f-cd04-4243-94f9-1ad54ebb3440","ios":"levelo://app?vid=f2a81f8f-cd04-4243-94f9-1ad54ebb3440"},"vehicle_type_id":"4","last_reported":1702404546,"current_range_meters":22800,"station_id":"ce4bgvp2rcd13ifvqcu0","pricing_plan_id":"free"},{"bike_id":"05761f81-2b1c-45cf-967c-4232f62b694d","system_id":"levelo_inurba_marseille","lat":43.29529,"lon":5.385581,"is_reserved":false,"is_disabled":false,"rental_uris":{"android":"levelo://app?vid=05761f81-2b1c-45cf-967c-4232f62b694d","ios":"levelo://app?vid=05761f81-2b1c-45cf-967c-4232f62b694d"},"vehicle_type_id":"4","last_reported":1702404546,"current_range_meters":18000,"station_id":"ce4bgih2rcd13ifvqba0","pricing_plan_id":"free"},{"bike_id":"bb61f29b-a3e1-44be-b8bd-e083df197b84","system_id":"levelo_inurba_marseille","lat":43.30212,"lon":5.39465,"is_reserved":false,"is_disabled":false,"rental_uris":{"android":"levelo://app?vid=bb61f29b-a3e1-44be-b8bd-e083df197b84","ios":"levelo://app?vid=bb61f29b-a3e1-44be-b8bd-e083df197b84"},"vehicle_type_id":"4","last_reported":1702404546,"current_range_meters":0,"station_id":"ce4bh0p2rcd13ifvqd70","pricing_plan_id":"free"},{"bike_id":"306342c5-b97d-46b1-b650-2d6de57a74fa","system_id":"levelo_inurba_marseille","lat":43.29416,"lon":5.38629,"is_reserved":false,"is_disabled":false,"rental_uris":{"android":"levelo://app?vid=306342c5-b97d-46b1-b650-2d6de57a74fa","ios":"levelo://app?vid=306342c5-b97d-46b1-b650-2d6de57a74fa"},"vehicle_type_id":"4","last_reported":1702404546,"current_range_meters":0,"station_id":"ce4bh2h2rcd13ifvqdh0","pricing_plan_id":"free"},{"bike_id":"d7003461-3749-4f3e-8504-1c13d50dd6a8","system_id":"levelo_inurba_marseille","lat":43.289184,"lon":5.366408,"is_reserved":false,"is_disabled":false,"rental_uris":{"android":"levelo://app?vid=d7003461-3749-4f3e-8504-1c13d50dd6a8","ios":"levelo://app?vid=d7003461-3749-4f3e-8504-1c13d50dd6a8"},"vehicle_type_id":"4","last_reported":1702404546,"current_range_meters":3200,"station_id":"ce4bhap2rcd13ifvqek0","pricing_plan_id":"free"},{"bike_id":"c783c509-2d0b-4016-ba1e-88eab7932c23","system_id":"levelo_inurba_marseille","lat":43.292644,"lon":5.384257,"is_reserved":false,"is_disabled":false,"rental_uris":{"android":"levelo://app?vid=c783c509-2d0b-4016-ba1e-88eab7932c23","ios":"levelo://app?vid=c783c509-2d0b-4016-ba1e-88eab7932c23"},"vehicle_type_id":"4","last_reported":1702404546,"current_range_meters":400,"station_id":"ce4bh692rcd13ifvqea0","pricing_plan_id":"free"},{"bike_id":"90212e5a-f930-4ba5-ad39-37ea8f52571a","system_id":"levelo_inurba_marseille","lat":43.33041,"lon":5.38918,"is_reserved":false,"is_disabled":false,"rental_uris":{"android":"levelo://app?vid=90212e5a-f930-4ba5-ad39-37ea8f52571a","ios":"levelo://app?vid=90212e5a-f930-4ba5-ad39-37ea8f52571a"},"vehicle_type_id":"4","last_reported":1702404546,"current_range_meters":25600,"station_id":"ce4bhr92rcd13ifvqhrg","pricing_plan_id":"free"},{"bike_id":"b759538c-75fc-4ccb-9b73-2031bf78f0fa","system_id":"levelo_inurba_marseille","lat":43.330442,"lon":5.389148,"is_reserved":false,"is_disabled":false,"rental_uris":{"android":"levelo://app?vid=b759538c-75fc-4ccb-9b73-2031bf78f0fa","ios":"levelo://app?vid=b759538c-75fc-4ccb-9b73-2031bf78f0fa"},"vehicle_type_id":"4","last_reported":1702404546,"current_range_meters":17600,"station_id":"ce4bhr92rcd13ifvqhrg","pricing_plan_id":"free"},{"bike_id":"62e94a04-2220-4204-a03b-cf7d6d909360","system_id":"levelo_inurba_marseille","lat":43.330442,"lon":5.389148,"is_reserved":false,"is_disabled":false,"rental_uris":{"android":"levelo://app?vid=62e94a04-2220-4204-a03b-cf7d6d909360","ios":"levelo://app?vid=62e94a04-2220-4204-a03b-cf7d6d909360"},"vehicle_type_id":"4","last_reported":1702404546,"current_range_meters":31200,"station_id":"ce4bhr92rcd13ifvqhrg","pricing_plan_id":"free"},{"bike_id":"98d55d3f-d796-4f48-b9c6-30573d7cc2d3","system_id":"levelo_inurba_marseille","lat":43.290779,"lon":5.371482,"is_reserved":false,"is_disabled":false,"rental_uris":{"android":"levelo://app?vid=98d55d3f-d796-4f48-b9c6-30573d7cc2d3","ios":"levelo://app?vid=98d55d3f-d796-4f48-b9c6-30573d7cc2d3"},"vehicle_type_id":"4","last_reported":1702404546,"current_range_meters":8000,"station_id":"ce4bh5p2rcd13ifvqe4g","pricing_plan_id":"free"},{"bike_id":"2f772194-09d3-43f0-a5ca-8a4ca8666476","system_id":"levelo_inurba_marseille","lat":43.295169,"lon":5.390426,"is_reserved":false,"is_disabled":false,"rental_uris":{"android":"levelo://app?vid=2f772194-09d3-43f0-a5ca-8a4ca8666476","ios":"levelo://app?vid=2f772194-09d3-43f0-a5ca-8a4ca8666476"},"vehicle_type_id":"4","last_reported":1702404546,"current_range_meters":20400,"station_id":"ce4bh3p2rcd13ifvqdp0","pricing_plan_id":"free"},{"bike_id":"55d30f89-ba64-4cf2-9446-b57efbd057cd","system_id":"levelo_inurba_marseille","lat":43.290094,"lon":5.381264,"is_reserved":false,"is_disabled":false,"rental_uris":{"android":"levelo://app?vid=55d30f89-ba64-4cf2-9446-b57efbd057cd","ios":"levelo://app?vid=55d30f89-ba64-4cf2-9446-b57efbd057cd"},"vehicle_type_id":"4","last_reported":1702404546,"current_range_meters":2400,"station_id":"ce4bh4p2rcd13ifvqe1g","pricing_plan_id":"free"},{"bike_id":"5befec94-3dff-462d-9c10-db9ad9e63c1a","system_id":"levelo_inurba_marseille","lat":43.312807,"lon":5.401654,"is_reserved":false,"is_disabled":false,"rental_uris":{"android":"levelo://app?vid=5befec94-3dff-462d-9c10-db9ad9e63c1a","ios":"levelo://app?vid=5befec94-3dff-462d-9c10-db9ad9e63c1a"},"vehicle_type_id":"4","last_reported":1702404546,"current_range_meters":30800,"station_id":"ce4bh092rcd13ifvqd30","pricing_plan_id":"free"},{"bike_id":"6785d326-91d7-4e97-8145-3d4dc2e9ab90","system_id":"levelo_inurba_marseille","lat":43.312609,"lon":5.401662,"is_reserved":false,"is_disabled":false,"rental_uris":{"android":"levelo://app?vid=6785d326-91d7-4e97-8145-3d4dc2e9ab90","ios":"levelo://app?vid=6785d326-91d7-4e97-8145-3d4dc2e9ab90"},"vehicle_type_id":"4","last_reported":1702404546,"current_range_meters":28000,"station_id":"ce4bh092rcd13ifvqd30","pricing_plan_id":"free"},{"bike_id":"67a71298-f781-4402-8d03-cdb5dd11acae","system_id":"levelo_inurba_marseille","lat":43.33747,"lon":5.37449,"is_reserved":false,"is_disabled":false,"rental_uris":{"android":"levelo://app?vid=67a71298-f781-4402-8d03-cdb5dd11acae","ios":"levelo://app?vid=67a71298-f781-4402-8d03-cdb5dd11acae"},"vehicle_type_id":"4","last_reported":1702404546,"current_range_meters":27200,"station_id":"","pricing_plan_id":"free"},{"bike_id":"51f12294-7b3c-435b-9d96-88759acf79ad","system_id":"levelo_inurba_marseille","lat":43.312609,"lon":5.401662,"is_reserved":false,"is_disabled":false,"rental_uris":{"android":"levelo://app?vid=51f12294-7b3c-435b-9d96-88759acf79ad","ios":"levelo://app?vid=51f12294-7b3c-435b-9d96-88759acf79ad"},"vehicle_type_id":"4","last_reported":1702404546,"current_range_meters":26400,"station_id":"ce4bh092rcd13ifvqd30","pricing_plan_id":"free"},{"bike_id":"c7b07a26-000b-4e91-b1fe-673e47fe3078","system_id":"levelo_inurba_marseille","lat":43.312609,"lon":5.401662,"is_reserved":false,"is_disabled":false,"rental_uris":{"android":"levelo://app?vid=c7b07a26-000b-4e91-b1fe-673e47fe3078","ios":"levelo://app?vid=c7b07a26-000b-4e91-b1fe-673e47fe3078"},"vehicle_type_id":"4","last_reported":1702404546,"current_range_meters":31200,"station_id":"ce4bh092rcd13ifvqd30","pricing_plan_id":"free"},{"bike_id":"2be50942-c748-431d-a56d-9b87e46bb510","system_id":"levelo_inurba_marseille","lat":43.30642,"lon":5.401031,"is_reserved":false,"is_disabled":false,"rental_uris":{"android":"levelo://app?vid=2be50942-c748-431d-a56d-9b87e46bb510","ios":"levelo://app?vid=2be50942-c748-431d-a56d-9b87e46bb510"},"vehicle_type_id":"4","last_reported":1702404546,"current_range_meters":12000,"station_id":"ce4bh112rcd13ifvqda0","pricing_plan_id":"free"},{"bike_id":"ab8326d8-ee02-44db-bfbd-fb2d01a7e6a0","system_id":"levelo_inurba_marseille","lat":43.306412,"lon":5.401035,"is_reserved":false,"is_disabled":false,"rental_uris":{"android":"levelo://app?vid=ab8326d8-ee02-44db-bfbd-fb2d01a7e6a0","ios":"levelo://app?vid=ab8326d8-ee02-44db-bfbd-fb2d01a7e6a0"},"vehicle_type_id":"4","last_reported":1702404546,"current_range_meters":7600,"station_id":"ce4bh112rcd13ifvqda0","pricing_plan_id":"free"},{"bike_id":"1edc4642-2462-47e1-8dbc-0c43e439ba21","system_id":"levelo_inurba_marseille","lat":43.30642,"lon":5.401031,"is_reserved":false,"is_disabled":false,"rental_uris":{"android":"levelo://app?vid=1edc4642-2462-47e1-8dbc-0c43e439ba21","ios":"levelo://app?vid=1edc4642-2462-47e1-8dbc-0c43e439ba21"},"vehicle_type_id":"4","last_reported":1702404546,"current_range_meters":16800,"station_id":"ce4bh112rcd13ifvqda0","pricing_plan_id":"free"},{"bike_id":"33dc7eb0-87bd-43b8-a2fd-ac3090f0f293","system_id":"levelo_inurba_marseille","lat":43.301117,"lon":5.398795,"is_reserved":false,"is_disabled":false,"rental_uris":{"android":"levelo://app?vid=33dc7eb0-87bd-43b8-a2fd-ac3090f0f293","ios":"levelo://app?vid=33dc7eb0-87bd-43b8-a2fd-ac3090f0f293"},"vehicle_type_id":"4","last_reported":1702404546,"current_range_meters":22800,"station_id":"ce4bh0h2rcd13ifvqd40","pricing_plan_id":"free"},{"bike_id":"69a90cb8-fd0c-4330-933e-7af713c1baf6","system_id":"levelo_inurba_marseille","lat":43.301117,"lon":5.398795,"is_reserved":false,"is_disabled":false,"rental_uris":{"android":"levelo://app?vid=69a90cb8-fd0c-4330-933e-7af713c1baf6","ios":"levelo://app?vid=69a90cb8-fd0c-4330-933e-7af713c1baf6"},"vehicle_type_id":"4","last_reported":1702404546,"current_range_meters":0,"station_id":"ce4bh0h2rcd13ifvqd40","pricing_plan_id":"free"},{"bike_id":"93a059ad-5be2-41c5-a718-130044ce4ca0","system_id":"levelo_inurba_marseille","lat":43.301117,"lon":5.398795,"is_reserved":false,"is_disabled":false,"rental_uris":{"android":"levelo://app?vid=93a059ad-5be2-41c5-a718-130044ce4ca0","ios":"levelo://app?vid=93a059ad-5be2-41c5-a718-130044ce4ca0"},"vehicle_type_id":"4","last_reported":1702404546,"current_range_meters":26400,"station_id":"ce4bh0h2rcd13ifvqd40","pricing_plan_id":"free"},{"bike_id":"a69ca607-a11e-4577-bc5a-1d931c46c050","system_id":"levelo_inurba_marseille","lat":43.306285,"lon":5.401732,"is_reserved":false,"is_disabled":false,"rental_uris":{"android":"levelo://app?vid=a69ca607-a11e-4577-bc5a-1d931c46c050","ios":"levelo://app?vid=a69ca607-a11e-4577-bc5a-1d931c46c050"},"vehicle_type_id":"4","last_reported":1702404546,"current_range_meters":7600,"station_id":"","pricing_plan_id":"free"},{"bike_id":"3bb0ed7e-b876-4926-a565-e11ed9cc289d","system_id":"levelo_inurba_marseille","lat":43.286961,"lon":5.373785,"is_reserved":false,"is_disabled":false,"rental_uris":{"android":"levelo://app?vid=3bb0ed7e-b876-4926-a565-e11ed9cc289d","ios":"levelo://app?vid=3bb0ed7e-b876-4926-a565-e11ed9cc289d"},"vehicle_type_id":"4","last_reported":1702404546,"current_range_meters":26400,"station_id":"ce4bh3p2rcd13ifvqdq0","pricing_plan_id":"free"},{"bike_id":"9d3c8f2f-9596-45d7-a55b-bd0d26bdf632","system_id":"levelo_inurba_marseille","lat":43.298681,"lon":5.397225,"is_reserved":false,"is_disabled":false,"rental_uris":{"android":"levelo://app?vid=9d3c8f2f-9596-45d7-a55b-bd0d26bdf632","ios":"levelo://app?vid=9d3c8f2f-9596-45d7-a55b-bd0d26bdf632"},"vehicle_type_id":"4","last_reported":1702404546,"current_range_meters":0,"station_id":"ce4bh0h2rcd13ifvqd50","pricing_plan_id":"free"},{"bike_id":"1e2d5965-03a5-4848-b355-6d5ff489a132","system_id":"levelo_inurba_marseille","lat":43.286961,"lon":5.373785,"is_reserved":false,"is_disabled":false,"rental_uris":{"android":"levelo://app?vid=1e2d5965-03a5-4848-b355-6d5ff489a132","ios":"levelo://app?vid=1e2d5965-03a5-4848-b355-6d5ff489a132"},"vehicle_type_id":"4","last_reported":1702404546,"current_range_meters":14800,"station_id":"ce4bh3p2rcd13ifvqdq0","pricing_plan_id":"free"},{"bike_id":"322a53c4-cc1e-4a22-a671-1265027cdfb0","system_id":"levelo_inurba_marseille","lat":43.286593,"lon":5.363346,"is_reserved":false,"is_disabled":false,"rental_uris":{"android":"levelo://app?vid=322a53c4-cc1e-4a22-a671-1265027cdfb0","ios":"levelo://app?vid=322a53c4-cc1e-4a22-a671-1265027cdfb0"},"vehicle_type_id":"4","last_reported":1702404546,"current_range_meters":31200,"station_id":"ce4bhah2rcd13ifvqej0","pricing_plan_id":"free"},{"bike_id":"53e0f34c-3429-4f6d-b511-f009ae40d5f0","system_id":"levelo_inurba_marseille","lat":43.286961,"lon":5.373785,"is_reserved":false,"is_disabled":false,"rental_uris":{"android":"levelo://app?vid=53e0f34c-3429-4f6d-b511-f009ae40d5f0","ios":"levelo://app?vid=53e0f34c-3429-4f6d-b511-f009ae40d5f0"},"vehicle_type_id":"4","last_reported":1702404546,"current_range_meters":14400,"station_id":"ce4bh3p2rcd13ifvqdq0","pricing_plan_id":"free"},{"bike_id":"6dc3679a-d2fc-4b23-a0aa-e660a5d24f70","system_id":"levelo_inurba_marseille","lat":43.289307,"lon":5.38406,"is_reserved":false,"is_disabled":false,"rental_uris":{"android":"levelo://app?vid=6dc3679a-d2fc-4b23-a0aa-e660a5d24f70","ios":"levelo://app?vid=6dc3679a-d2fc-4b23-a0aa-e660a5d24f70"},"vehicle_type_id":"4","last_reported":1702404546,"current_range_meters":4400,"station_id":"ce4bh612rcd13ifvqe6g","pricing_plan_id":"free"},{"bike_id":"b27b2230-dd03-4cf0-ab8f-ec7949257162","system_id":"levelo_inurba_marseille","lat":43.29025,"lon":5.38643,"is_reserved":false,"is_disabled":false,"rental_uris":{"android":"levelo://app?vid=b27b2230-dd03-4cf0-ab8f-ec7949257162","ios":"levelo://app?vid=b27b2230-dd03-4cf0-ab8f-ec7949257162"},"vehicle_type_id":"4","last_reported":1702404546,"current_range_meters":0,"station_id":"ce4bh4p2rcd13ifvqe0g","pricing_plan_id":"free"},{"bike_id":"32b6943f-04ad-40bd-b548-6fd6f947bbcf","system_id":"levelo_inurba_marseille","lat":43.302759,"lon":5.400793,"is_reserved":false,"is_disabled":false,"rental_uris":{"android":"levelo://app?vid=32b6943f-04ad-40bd-b548-6fd6f947bbcf","ios":"levelo://app?vid=32b6943f-04ad-40bd-b548-6fd6f947bbcf"},"vehicle_type_id":"4","last_reported":1702404546,"current_range_meters":26000,"station_id":"ce4bgvh2rcd13ifvqcs0","pricing_plan_id":"free"},{"bike_id":"dd55c571-beb8-4144-9eee-a018fae0dfc2","system_id":"levelo_inurba_marseille","lat":43.286039,"lon":5.370681,"is_reserved":false,"is_disabled":false,"rental_uris":{"android":"levelo://app?vid=dd55c571-beb8-4144-9eee-a018fae0dfc2","ios":"levelo://app?vid=dd55c571-beb8-4144-9eee-a018fae0dfc2"},"vehicle_type_id":"4","last_reported":1702404546,"current_range_meters":22400,"station_id":"ce4bht12rcd13ifvqi60","pricing_plan_id":"free"},{"bike_id":"c29f8c6e-636f-480e-940b-76213922acfd","system_id":"levelo_inurba_marseille","lat":43.287185,"lon":5.379373,"is_reserved":false,"is_disabled":false,"rental_uris":{"android":"levelo://app?vid=c29f8c6e-636f-480e-940b-76213922acfd","ios":"levelo://app?vid=c29f8c6e-636f-480e-940b-76213922acfd"},"vehicle_type_id":"4","last_reported":1702404546,"current_range_meters":4800,"station_id":"ce4bh9p2rcd13ifvqec0","pricing_plan_id":"free"},{"bike_id":"6258c8cb-6995-40d0-a8e0-4e96858d273c","system_id":"levelo_inurba_marseille","lat":43.286977,"lon":5.379353,"is_reserved":false,"is_disabled":false,"rental_uris":{"android":"levelo://app?vid=6258c8cb-6995-40d0-a8e0-4e96858d273c","ios":"levelo://app?vid=6258c8cb-6995-40d0-a8e0-4e96858d273c"},"vehicle_type_id":"4","last_reported":1702404546,"current_range_meters":20800,"station_id":"ce4bh9p2rcd13ifvqec0","pricing_plan_id":"free"},{"bike_id":"13854115-cf0c-4ba2-b9ef-fdb950bb729a","system_id":"levelo_inurba_marseille","lat":43.284538,"lon":5.358657,"is_reserved":false,"is_disabled":false,"rental_uris":{"android":"levelo://app?vid=13854115-cf0c-4ba2-b9ef-fdb950bb729a","ios":"levelo://app?vid=13854115-cf0c-4ba2-b9ef-fdb950bb729a"},"vehicle_type_id":"4","last_reported":1702404546,"current_range_meters":26800,"station_id":"ce4bhah2rcd13ifvqei0","pricing_plan_id":"free"},{"bike_id":"66d86871-7fc4-43ae-a7e9-cc55c00f9da5","system_id":"levelo_inurba_marseille","lat":43.284534,"lon":5.358662,"is_reserved":false,"is_disabled":false,"rental_uris":{"android":"levelo://app?vid=66d86871-7fc4-43ae-a7e9-cc55c00f9da5","ios":"levelo://app?vid=66d86871-7fc4-43ae-a7e9-cc55c00f9da5"},"vehicle_type_id":"4","last_reported":1702404546,"current_range_meters":2800,"station_id":"ce4bhah2rcd13ifvqei0","pricing_plan_id":"free"},{"bike_id":"7579b130-de1b-42b4-928a-3bb35e043876","system_id":"levelo_inurba_marseille","lat":43.28616,"lon":5.35106,"is_reserved":false,"is_disabled":false,"rental_uris":{"android":"levelo://app?vid=7579b130-de1b-42b4-928a-3bb35e043876","ios":"levelo://app?vid=7579b130-de1b-42b4-928a-3bb35e043876"},"vehicle_type_id":"4","last_reported":1702404546,"current_range_meters":15600,"station_id":"ce4bhch2rcd13ifvqeug","pricing_plan_id":"free"},{"bike_id":"ff2e9646-e1d1-43a2-8226-06ee1c2a0590","system_id":"levelo_inurba_marseille","lat":43.285848,"lon":5.350787,"is_reserved":false,"is_disabled":false,"rental_uris":{"android":"levelo://app?vid=ff2e9646-e1d1-43a2-8226-06ee1c2a0590","ios":"levelo://app?vid=ff2e9646-e1d1-43a2-8226-06ee1c2a0590"},"vehicle_type_id":"4","last_reported":1702404546,"current_range_meters":24400,"station_id":"ce4bhch2rcd13ifvqeug","pricing_plan_id":"free"},{"bike_id":"8afadcc9-cdb4-4295-862d-f5685f5da3e9","system_id":"levelo_inurba_marseille","lat":43.295713,"lon":5.399639,"is_reserved":false,"is_disabled":false,"rental_uris":{"android":"levelo://app?vid=8afadcc9-cdb4-4295-862d-f5685f5da3e9","ios":"levelo://app?vid=8afadcc9-cdb4-4295-862d-f5685f5da3e9"},"vehicle_type_id":"4","last_reported":1702404546,"current_range_meters":800,"station_id":"ce4bh312rcd13ifvqdj0","pricing_plan_id":"free"},{"bike_id":"e11eae45-7c84-423d-a3f1-824a64a4ebd7","system_id":"levelo_inurba_marseille","lat":43.295713,"lon":5.399639,"is_reserved":false,"is_disabled":false,"rental_uris":{"android":"levelo://app?vid=e11eae45-7c84-423d-a3f1-824a64a4ebd7","ios":"levelo://app?vid=e11eae45-7c84-423d-a3f1-824a64a4ebd7"},"vehicle_type_id":"4","last_reported":1702404546,"current_range_meters":19200,"station_id":"ce4bh312rcd13ifvqdj0","pricing_plan_id":"free"},{"bike_id":"80c5ea8f-fcbe-48dd-af21-b3b18da45014","system_id":"levelo_inurba_marseille","lat":43.284055,"lon":5.375109,"is_reserved":false,"is_disabled":false,"rental_uris":{"android":"levelo://app?vid=80c5ea8f-fcbe-48dd-af21-b3b18da45014","ios":"levelo://app?vid=80c5ea8f-fcbe-48dd-af21-b3b18da45014"},"vehicle_type_id":"4","last_reported":1702404546,"current_range_meters":0,"station_id":"","pricing_plan_id":"free"},{"bike_id":"42d60440-2e5d-410d-ac80-2c3092151efc","system_id":"levelo_inurba_marseille","lat":43.283998,"lon":5.375062,"is_reserved":false,"is_disabled":false,"rental_uris":{"android":"levelo://app?vid=42d60440-2e5d-410d-ac80-2c3092151efc","ios":"levelo://app?vid=42d60440-2e5d-410d-ac80-2c3092151efc"},"vehicle_type_id":"4","last_reported":1702404546,"current_range_meters":4400,"station_id":"ce4bh412rcd13ifvqds0","pricing_plan_id":"free"},{"bike_id":"3dbb8e40-a64a-467f-8508-367c1fc40d18","system_id":"levelo_inurba_marseille","lat":43.319179,"lon":5.407725,"is_reserved":false,"is_disabled":false,"rental_uris":{"android":"levelo://app?vid=3dbb8e40-a64a-467f-8508-367c1fc40d18","ios":"levelo://app?vid=3dbb8e40-a64a-467f-8508-367c1fc40d18"},"vehicle_type_id":"4","last_reported":1702404546,"current_range_meters":5600,"station_id":"ce4bhq12rcd13ifvqhig","pricing_plan_id":"free"},{"bike_id":"cf7ca54e-9bb8-433e-bc71-ca5915cdee40","system_id":"levelo_inurba_marseille","lat":43.323464,"lon":5.406297,"is_reserved":false,"is_disabled":false,"rental_uris":{"android":"levelo://app?vid=cf7ca54e-9bb8-433e-bc71-ca5915cdee40","ios":"levelo://app?vid=cf7ca54e-9bb8-433e-bc71-ca5915cdee40"},"vehicle_type_id":"4","last_reported":1702404546,"current_range_meters":19600,"station_id":"ce4bhq92rcd13ifvqhjg","pricing_plan_id":"free"},{"bike_id":"a49c5c64-bff0-47bf-af2c-aa258506df4f","system_id":"levelo_inurba_marseille","lat":43.323464,"lon":5.406297,"is_reserved":false,"is_disabled":false,"rental_uris":{"android":"levelo://app?vid=a49c5c64-bff0-47bf-af2c-aa258506df4f","ios":"levelo://app?vid=a49c5c64-bff0-47bf-af2c-aa258506df4f"},"vehicle_type_id":"4","last_reported":1702404546,"current_range_meters":12000,"station_id":"ce4bhq92rcd13ifvqhjg","pricing_plan_id":"free"},{"bike_id":"5b96bb46-9a3a-422a-87ec-0526129e6244","system_id":"levelo_inurba_marseille","lat":43.297946,"lon":5.404063,"is_reserved":false,"is_disabled":false,"rental_uris":{"android":"levelo://app?vid=5b96bb46-9a3a-422a-87ec-0526129e6244","ios":"levelo://app?vid=5b96bb46-9a3a-422a-87ec-0526129e6244"},"vehicle_type_id":"4","last_reported":1702404546,"current_range_meters":0,"station_id":"ce4bh112rcd13ifvqd90","pricing_plan_id":"free"},{"bike_id":"908c82f0-f16c-465e-ab86-76124b01add1","system_id":"levelo_inurba_marseille","lat":43.2963,"lon":5.40594,"is_reserved":false,"is_disabled":false,"rental_uris":{"android":"levelo://app?vid=908c82f0-f16c-465e-ab86-76124b01add1","ios":"levelo://app?vid=908c82f0-f16c-465e-ab86-76124b01add1"},"vehicle_type_id":"4","last_reported":1702404546,"current_range_meters":3600,"station_id":"ce4bh0h2rcd13ifvqd60","pricing_plan_id":"free"},{"bike_id":"05ab6cbb-33d7-49f2-839f-50032d18e98c","system_id":"levelo_inurba_marseille","lat":43.296315,"lon":5.40597,"is_reserved":false,"is_disabled":false,"rental_uris":{"android":"levelo://app?vid=05ab6cbb-33d7-49f2-839f-50032d18e98c","ios":"levelo://app?vid=05ab6cbb-33d7-49f2-839f-50032d18e98c"},"vehicle_type_id":"4","last_reported":1702404546,"current_range_meters":10400,"station_id":"ce4bh0h2rcd13ifvqd60","pricing_plan_id":"free"},{"bike_id":"d2b0ffa0-94d9-4a60-9e65-f0b5c33b7b98","system_id":"levelo_inurba_marseille","lat":43.284462,"lon":5.392121,"is_reserved":false,"is_disabled":false,"rental_uris":{"android":"levelo://app?vid=d2b0ffa0-94d9-4a60-9e65-f0b5c33b7b98","ios":"levelo://app?vid=d2b0ffa0-94d9-4a60-9e65-f0b5c33b7b98"},"vehicle_type_id":"4","last_reported":1702404546,"current_range_meters":11200,"station_id":"ce4bhoh2rcd13ifvqh5g","pricing_plan_id":"free"},{"bike_id":"77bcf935-df4d-43cf-8822-f2c4c808b542","system_id":"levelo_inurba_marseille","lat":43.28573,"lon":5.394992,"is_reserved":false,"is_disabled":false,"rental_uris":{"android":"levelo://app?vid=77bcf935-df4d-43cf-8822-f2c4c808b542","ios":"levelo://app?vid=77bcf935-df4d-43cf-8822-f2c4c808b542"},"vehicle_type_id":"4","last_reported":1702404546,"current_range_meters":26000,"station_id":"ce4bh292rcd13ifvqdg0","pricing_plan_id":"free"},{"bike_id":"045f6566-00e0-4171-82f9-a946fbbf0e81","system_id":"levelo_inurba_marseille","lat":43.279087,"lon":5.380114,"is_reserved":false,"is_disabled":false,"rental_uris":{"android":"levelo://app?vid=045f6566-00e0-4171-82f9-a946fbbf0e81","ios":"levelo://app?vid=045f6566-00e0-4171-82f9-a946fbbf0e81"},"vehicle_type_id":"4","last_reported":1702404546,"current_range_meters":30000,"station_id":"ce4bhf92rcd13ifvqf50","pricing_plan_id":"free"},{"bike_id":"a4c646e1-10dd-41d4-b5e1-d14f606f2727","system_id":"levelo_inurba_marseille","lat":43.279087,"lon":5.380114,"is_reserved":false,"is_disabled":false,"rental_uris":{"android":"levelo://app?vid=a4c646e1-10dd-41d4-b5e1-d14f606f2727","ios":"levelo://app?vid=a4c646e1-10dd-41d4-b5e1-d14f606f2727"},"vehicle_type_id":"4","last_reported":1702404546,"current_range_meters":21600,"station_id":"ce4bhf92rcd13ifvqf50","pricing_plan_id":"free"},{"bike_id":"346ed122-4a24-488a-b8d8-80ef12002fff","system_id":"levelo_inurba_marseille","lat":43.292757,"lon":5.407931,"is_reserved":false,"is_disabled":false,"rental_uris":{"android":"levelo://app?vid=346ed122-4a24-488a-b8d8-80ef12002fff","ios":"levelo://app?vid=346ed122-4a24-488a-b8d8-80ef12002fff"},"vehicle_type_id":"4","last_reported":1702404546,"current_range_meters":0,"station_id":"","pricing_plan_id":"free"},{"bike_id":"8107737b-836e-48fb-8b4b-0bbb9d55b52b","system_id":"levelo_inurba_marseille","lat":43.299579,"lon":5.413255,"is_reserved":false,"is_disabled":false,"rental_uris":{"android":"levelo://app?vid=8107737b-836e-48fb-8b4b-0bbb9d55b52b","ios":"levelo://app?vid=8107737b-836e-48fb-8b4b-0bbb9d55b52b"},"vehicle_type_id":"4","last_reported":1702404546,"current_range_meters":28000,"station_id":"ce4bhp12rcd13ifvqh9g","pricing_plan_id":"free"},{"bike_id":"1c7eac10-5e71-43b7-875e-b69219236d00","system_id":"levelo_inurba_marseille","lat":43.320045,"lon":5.415046,"is_reserved":false,"is_disabled":false,"rental_uris":{"android":"levelo://app?vid=1c7eac10-5e71-43b7-875e-b69219236d00","ios":"levelo://app?vid=1c7eac10-5e71-43b7-875e-b69219236d00"},"vehicle_type_id":"4","last_reported":1702404546,"current_range_meters":15600,"station_id":"ce4bhq92rcd13ifvqhkg","pricing_plan_id":"free"},{"bike_id":"273088e6-ffdb-4a24-a170-541ff65478f8","system_id":"levelo_inurba_marseille","lat":43.2763,"lon":5.36108,"is_reserved":false,"is_disabled":false,"rental_uris":{"android":"levelo://app?vid=273088e6-ffdb-4a24-a170-541ff65478f8","ios":"levelo://app?vid=273088e6-ffdb-4a24-a170-541ff65478f8"},"vehicle_type_id":"4","last_reported":1702404546,"current_range_meters":13200,"station_id":"ce4bgj92rcd13ifvqbe0","pricing_plan_id":"free"},{"bike_id":"c0ad7956-a638-4115-9318-b67f379a6453","system_id":"levelo_inurba_marseille","lat":43.28085,"lon":5.39658,"is_reserved":false,"is_disabled":false,"rental_uris":{"android":"levelo://app?vid=c0ad7956-a638-4115-9318-b67f379a6453","ios":"levelo://app?vid=c0ad7956-a638-4115-9318-b67f379a6453"},"vehicle_type_id":"4","last_reported":1702404546,"current_range_meters":2800,"station_id":"ce4bho12rcd13ifvqh2g","pricing_plan_id":"free"},{"bike_id":"a8df9150-d0e6-4c80-ab90-8ff36b594545","system_id":"levelo_inurba_marseille","lat":43.303837,"lon":5.418724,"is_reserved":false,"is_disabled":false,"rental_uris":{"android":"levelo://app?vid=a8df9150-d0e6-4c80-ab90-8ff36b594545","ios":"levelo://app?vid=a8df9150-d0e6-4c80-ab90-8ff36b594545"},"vehicle_type_id":"4","last_reported":1702404546,"current_range_meters":19600,"station_id":"ce4bhop2rcd13ifvqh7g","pricing_plan_id":"free"},{"bike_id":"acaf780d-e7e3-44e1-a5cd-79fc29d05eb5","system_id":"levelo_inurba_marseille","lat":43.303837,"lon":5.418724,"is_reserved":false,"is_disabled":false,"rental_uris":{"android":"levelo://app?vid=acaf780d-e7e3-44e1-a5cd-79fc29d05eb5","ios":"levelo://app?vid=acaf780d-e7e3-44e1-a5cd-79fc29d05eb5"},"vehicle_type_id":"4","last_reported":1702404546,"current_range_meters":21600,"station_id":"ce4bhop2rcd13ifvqh7g","pricing_plan_id":"free"},{"bike_id":"7efad1da-02f5-4d3a-bc1f-166af404abd3","system_id":"levelo_inurba_marseille","lat":43.303837,"lon":5.418724,"is_reserved":false,"is_disabled":false,"rental_uris":{"android":"levelo://app?vid=7efad1da-02f5-4d3a-bc1f-166af404abd3","ios":"levelo://app?vid=7efad1da-02f5-4d3a-bc1f-166af404abd3"},"vehicle_type_id":"4","last_reported":1702404546,"current_range_meters":14000,"station_id":"ce4bhop2rcd13ifvqh7g","pricing_plan_id":"free"},{"bike_id":"d3efbba7-a47b-4d19-b44b-4ee810d318d9","system_id":"levelo_inurba_marseille","lat":43.273609,"lon":5.362708,"is_reserved":false,"is_disabled":false,"rental_uris":{"android":"levelo://app?vid=d3efbba7-a47b-4d19-b44b-4ee810d318d9","ios":"levelo://app?vid=d3efbba7-a47b-4d19-b44b-4ee810d318d9"},"vehicle_type_id":"4","last_reported":1702404546,"current_range_meters":21600,"station_id":"ce4bhbh2rcd13ifvqeo0","pricing_plan_id":"free"},{"bike_id":"e15fcb76-150b-4e94-ba14-1765fbabad44","system_id":"levelo_inurba_marseille","lat":43.310785,"lon":5.424305,"is_reserved":false,"is_disabled":false,"rental_uris":{"android":"levelo://app?vid=e15fcb76-150b-4e94-ba14-1765fbabad44","ios":"levelo://app?vid=e15fcb76-150b-4e94-ba14-1765fbabad44"},"vehicle_type_id":"4","last_reported":1702404546,"current_range_meters":4800,"station_id":"ce4bhp92rcd13ifvqhag","pricing_plan_id":"free"},{"bike_id":"b1c028eb-0fe1-4afa-b35c-b9783a0e9537","system_id":"levelo_inurba_marseille","lat":43.31723,"lon":5.42405,"is_reserved":false,"is_disabled":false,"rental_uris":{"android":"levelo://app?vid=b1c028eb-0fe1-4afa-b35c-b9783a0e9537","ios":"levelo://app?vid=b1c028eb-0fe1-4afa-b35c-b9783a0e9537"},"vehicle_type_id":"4","last_reported":1702404546,"current_range_meters":4800,"station_id":"ce4bhp92rcd13ifvqhbg","pricing_plan_id":"free"},{"bike_id":"d7a6c85d-a811-4fa8-800a-8c7d7fbad1e5","system_id":"levelo_inurba_marseille","lat":43.274943,"lon":5.396878,"is_reserved":false,"is_disabled":false,"rental_uris":{"android":"levelo://app?vid=d7a6c85d-a811-4fa8-800a-8c7d7fbad1e5","ios":"levelo://app?vid=d7a6c85d-a811-4fa8-800a-8c7d7fbad1e5"},"vehicle_type_id":"4","last_reported":1702404546,"current_range_meters":0,"station_id":"","pricing_plan_id":"free"},{"bike_id":"b906c64a-473f-40ee-8efc-a6728ca31ad3","system_id":"levelo_inurba_marseille","lat":43.295511,"lon":5.422926,"is_reserved":false,"is_disabled":false,"rental_uris":{"android":"levelo://app?vid=b906c64a-473f-40ee-8efc-a6728ca31ad3","ios":"levelo://app?vid=b906c64a-473f-40ee-8efc-a6728ca31ad3"},"vehicle_type_id":"4","last_reported":1702404546,"current_range_meters":24400,"station_id":"ce4bhph2rcd13ifvqhdg","pricing_plan_id":"free"},{"bike_id":"ddf2f828-a485-45a8-803a-ae7f477595f5","system_id":"levelo_inurba_marseille","lat":43.278128,"lon":5.407195,"is_reserved":false,"is_disabled":false,"rental_uris":{"android":"levelo://app?vid=ddf2f828-a485-45a8-803a-ae7f477595f5","ios":"levelo://app?vid=ddf2f828-a485-45a8-803a-ae7f477595f5"},"vehicle_type_id":"4","last_reported":1702404546,"current_range_meters":22000,"station_id":"ce4bhnh2rcd13ifvqgtg","pricing_plan_id":"free"},{"bike_id":"538aee69-386c-4892-8f01-ca374986373e","system_id":"levelo_inurba_marseille","lat":43.279647,"lon":5.410413,"is_reserved":false,"is_disabled":false,"rental_uris":{"android":"levelo://app?vid=538aee69-386c-4892-8f01-ca374986373e","ios":"levelo://app?vid=538aee69-386c-4892-8f01-ca374986373e"},"vehicle_type_id":"4","last_reported":1702404546,"current_range_meters":14800,"station_id":"ce4bhnp2rcd13ifvqh0g","pricing_plan_id":"free"},{"bike_id":"bed32e91-60a1-4860-9022-fe5b4b389a0c","system_id":"levelo_inurba_marseille","lat":43.26681,"lon":5.382694,"is_reserved":false,"is_disabled":false,"rental_uris":{"android":"levelo://app?vid=bed32e91-60a1-4860-9022-fe5b4b389a0c","ios":"levelo://app?vid=bed32e91-60a1-4860-9022-fe5b4b389a0c"},"vehicle_type_id":"4","last_reported":1702404546,"current_range_meters":0,"station_id":"ce4bhg92rcd13ifvqf90","pricing_plan_id":"free"},{"bike_id":"2a8fe493-4ff9-43dd-ba52-7d67867bae55","system_id":"levelo_inurba_marseille","lat":43.26681,"lon":5.382694,"is_reserved":false,"is_disabled":false,"rental_uris":{"android":"levelo://app?vid=2a8fe493-4ff9-43dd-ba52-7d67867bae55","ios":"levelo://app?vid=2a8fe493-4ff9-43dd-ba52-7d67867bae55"},"vehicle_type_id":"4","last_reported":1702404546,"current_range_meters":18800,"station_id":"ce4bhg92rcd13ifvqf90","pricing_plan_id":"free"},{"bike_id":"4097c34a-dba4-4adf-bcc7-73c462d02559","system_id":"levelo_inurba_marseille","lat":43.265714,"lon":5.372891,"is_reserved":false,"is_disabled":false,"rental_uris":{"android":"levelo://app?vid=4097c34a-dba4-4adf-bcc7-73c462d02559","ios":"levelo://app?vid=4097c34a-dba4-4adf-bcc7-73c462d02559"},"vehicle_type_id":"4","last_reported":1702404546,"current_range_meters":4400,"station_id":"ce4bhg12rcd13ifvqf70","pricing_plan_id":"free"},{"bike_id":"7d0b0b8c-d611-4443-9015-d9de7d6b8fed","system_id":"levelo_inurba_marseille","lat":43.30807,"lon":5.43515,"is_reserved":false,"is_disabled":false,"rental_uris":{"android":"levelo://app?vid=7d0b0b8c-d611-4443-9015-d9de7d6b8fed","ios":"levelo://app?vid=7d0b0b8c-d611-4443-9015-d9de7d6b8fed"},"vehicle_type_id":"4","last_reported":1702404546,"current_range_meters":0,"station_id":"ce4bhph2rcd13ifvqheg","pricing_plan_id":"free"},{"bike_id":"5001a798-b727-45c4-bf4f-acd4a989fbcb","system_id":"levelo_inurba_marseille","lat":43.30802,"lon":5.43524,"is_reserved":false,"is_disabled":false,"rental_uris":{"android":"levelo://app?vid=5001a798-b727-45c4-bf4f-acd4a989fbcb","ios":"levelo://app?vid=5001a798-b727-45c4-bf4f-acd4a989fbcb"},"vehicle_type_id":"4","last_reported":1702404546,"current_range_meters":29600,"station_id":"ce4bhph2rcd13ifvqheg","pricing_plan_id":"free"},{"bike_id":"14bc19f9-c5ac-4814-b202-5604c65f25d1","system_id":"levelo_inurba_marseille","lat":43.308004,"lon":5.435286,"is_reserved":false,"is_disabled":false,"rental_uris":{"android":"levelo://app?vid=14bc19f9-c5ac-4814-b202-5604c65f25d1","ios":"levelo://app?vid=14bc19f9-c5ac-4814-b202-5604c65f25d1"},"vehicle_type_id":"4","last_reported":1702404546,"current_range_meters":17200,"station_id":"ce4bhph2rcd13ifvqheg","pricing_plan_id":"free"},{"bike_id":"0dd21f2b-8ef2-4f1b-bc20-43f7b5c3b4c0","system_id":"levelo_inurba_marseille","lat":43.265633,"lon":5.390034,"is_reserved":false,"is_disabled":false,"rental_uris":{"android":"levelo://app?vid=0dd21f2b-8ef2-4f1b-bc20-43f7b5c3b4c0","ios":"levelo://app?vid=0dd21f2b-8ef2-4f1b-bc20-43f7b5c3b4c0"},"vehicle_type_id":"4","last_reported":1702404546,"current_range_meters":24000,"station_id":"ce4bhgp2rcd13ifvqfe0","pricing_plan_id":"free"},{"bike_id":"eb9dd9fc-285d-4cf6-8cba-2a4362c58c9e","system_id":"levelo_inurba_marseille","lat":43.26945,"lon":5.40247,"is_reserved":false,"is_disabled":false,"rental_uris":{"android":"levelo://app?vid=eb9dd9fc-285d-4cf6-8cba-2a4362c58c9e","ios":"levelo://app?vid=eb9dd9fc-285d-4cf6-8cba-2a4362c58c9e"},"vehicle_type_id":"4","last_reported":1702404546,"current_range_meters":0,"station_id":"cjm6bp8fraef2m0cb0m0","pricing_plan_id":"free"},{"bike_id":"7dcc0d71-2ad6-4b3c-92e0-a1f941b95477","system_id":"levelo_inurba_marseille","lat":43.317104,"lon":5.436818,"is_reserved":false,"is_disabled":false,"rental_uris":{"android":"levelo://app?vid=7dcc0d71-2ad6-4b3c-92e0-a1f941b95477","ios":"levelo://app?vid=7dcc0d71-2ad6-4b3c-92e0-a1f941b95477"},"vehicle_type_id":"4","last_reported":1702404546,"current_range_meters":28400,"station_id":"ce4bhp92rcd13ifvqhcg","pricing_plan_id":"free"},{"bike_id":"c6fd12df-9f3a-4af6-97ac-045eea3df2d1","system_id":"levelo_inurba_marseille","lat":43.298768,"lon":5.43643,"is_reserved":false,"is_disabled":false,"rental_uris":{"android":"levelo://app?vid=c6fd12df-9f3a-4af6-97ac-045eea3df2d1","ios":"levelo://app?vid=c6fd12df-9f3a-4af6-97ac-045eea3df2d1"},"vehicle_type_id":"4","last_reported":1702404546,"current_range_meters":27600,"station_id":"ce4bhpp2rcd13ifvqhfg","pricing_plan_id":"free"},{"bike_id":"64b8e4cb-3593-43f3-9772-493a14a28bd6","system_id":"levelo_inurba_marseille","lat":43.281548,"lon":5.42643,"is_reserved":false,"is_disabled":false,"rental_uris":{"android":"levelo://app?vid=64b8e4cb-3593-43f3-9772-493a14a28bd6","ios":"levelo://app?vid=64b8e4cb-3593-43f3-9772-493a14a28bd6"},"vehicle_type_id":"4","last_reported":1702404546,"current_range_meters":14400,"station_id":"ce4bhnh2rcd13ifvqgug","pricing_plan_id":"free"},{"bike_id":"9380af19-7cf8-47d0-adfc-112490ab8dc2","system_id":"levelo_inurba_marseille","lat":43.2607,"lon":5.393983,"is_reserved":false,"is_disabled":false,"rental_uris":{"android":"levelo://app?vid=9380af19-7cf8-47d0-adfc-112490ab8dc2","ios":"levelo://app?vid=9380af19-7cf8-47d0-adfc-112490ab8dc2"},"vehicle_type_id":"4","last_reported":1702404546,"current_range_meters":25600,"station_id":"ce4bhh92rcd13ifvqfj0","pricing_plan_id":"free"},{"bike_id":"f192fe62-69c0-4d83-83b5-08a60a335cd9","system_id":"levelo_inurba_marseille","lat":43.2559,"lon":5.38233,"is_reserved":false,"is_disabled":false,"rental_uris":{"android":"levelo://app?vid=f192fe62-69c0-4d83-83b5-08a60a335cd9","ios":"levelo://app?vid=f192fe62-69c0-4d83-83b5-08a60a335cd9"},"vehicle_type_id":"4","last_reported":1702404546,"current_range_meters":21200,"station_id":"ce4bhih2rcd13ifvqfs0","pricing_plan_id":"free"},{"bike_id":"625b57d9-03ec-421a-bb03-e551df1c4778","system_id":"levelo_inurba_marseille","lat":43.25584,"lon":5.3822,"is_reserved":false,"is_disabled":false,"rental_uris":{"android":"levelo://app?vid=625b57d9-03ec-421a-bb03-e551df1c4778","ios":"levelo://app?vid=625b57d9-03ec-421a-bb03-e551df1c4778"},"vehicle_type_id":"4","last_reported":1702404546,"current_range_meters":18800,"station_id":"ce4bhih2rcd13ifvqfs0","pricing_plan_id":"free"},{"bike_id":"b98d1d39-c09f-4671-927c-4eb730cf8941","system_id":"levelo_inurba_marseille","lat":43.255812,"lon":5.382256,"is_reserved":false,"is_disabled":false,"rental_uris":{"android":"levelo://app?vid=b98d1d39-c09f-4671-927c-4eb730cf8941","ios":"levelo://app?vid=b98d1d39-c09f-4671-927c-4eb730cf8941"},"vehicle_type_id":"4","last_reported":1702404546,"current_range_meters":21600,"station_id":"ce4bhih2rcd13ifvqfs0","pricing_plan_id":"free"},{"bike_id":"d0de0dd2-0f88-4b71-b1c0-e284021ddfcf","system_id":"levelo_inurba_marseille","lat":43.2558,"lon":5.38221,"is_reserved":false,"is_disabled":false,"rental_uris":{"android":"levelo://app?vid=d0de0dd2-0f88-4b71-b1c0-e284021ddfcf","ios":"levelo://app?vid=d0de0dd2-0f88-4b71-b1c0-e284021ddfcf"},"vehicle_type_id":"4","last_reported":1702404546,"current_range_meters":23600,"station_id":"ce4bhih2rcd13ifvqfs0","pricing_plan_id":"free"},{"bike_id":"d208a986-0d21-44f7-a968-4b4fc2c86cdd","system_id":"levelo_inurba_marseille","lat":43.25579,"lon":5.38225,"is_reserved":false,"is_disabled":false,"rental_uris":{"android":"levelo://app?vid=d208a986-0d21-44f7-a968-4b4fc2c86cdd","ios":"levelo://app?vid=d208a986-0d21-44f7-a968-4b4fc2c86cdd"},"vehicle_type_id":"4","last_reported":1702404546,"current_range_meters":24400,"station_id":"ce4bhih2rcd13ifvqfs0","pricing_plan_id":"free"},{"bike_id":"a7c5c7a3-5020-4e47-a3fc-3206c145d34d","system_id":"levelo_inurba_marseille","lat":43.25578,"lon":5.38222,"is_reserved":false,"is_disabled":false,"rental_uris":{"android":"levelo://app?vid=a7c5c7a3-5020-4e47-a3fc-3206c145d34d","ios":"levelo://app?vid=a7c5c7a3-5020-4e47-a3fc-3206c145d34d"},"vehicle_type_id":"4","last_reported":1702404546,"current_range_meters":9600,"station_id":"ce4bhih2rcd13ifvqfs0","pricing_plan_id":"free"},{"bike_id":"a5b4c153-21d2-4205-9e38-c256ad535a06","system_id":"levelo_inurba_marseille","lat":43.255778,"lon":5.382378,"is_reserved":false,"is_disabled":false,"rental_uris":{"android":"levelo://app?vid=a5b4c153-21d2-4205-9e38-c256ad535a06","ios":"levelo://app?vid=a5b4c153-21d2-4205-9e38-c256ad535a06"},"vehicle_type_id":"4","last_reported":1702404546,"current_range_meters":26000,"station_id":"ce4bhih2rcd13ifvqfs0","pricing_plan_id":"free"},{"bike_id":"2c4c2847-800e-46de-861f-6569570d5bf1","system_id":"levelo_inurba_marseille","lat":43.25497,"lon":5.37655,"is_reserved":false,"is_disabled":false,"rental_uris":{"android":"levelo://app?vid=2c4c2847-800e-46de-861f-6569570d5bf1","ios":"levelo://app?vid=2c4c2847-800e-46de-861f-6569570d5bf1"},"vehicle_type_id":"4","last_reported":1702404546,"current_range_meters":29200,"station_id":"ce4bhh12rcd13ifvqff0","pricing_plan_id":"free"},{"bike_id":"213a5ea7-9223-4a71-934c-4b9059830d1c","system_id":"levelo_inurba_marseille","lat":43.254947,"lon":5.376454,"is_reserved":false,"is_disabled":false,"rental_uris":{"android":"levelo://app?vid=213a5ea7-9223-4a71-934c-4b9059830d1c","ios":"levelo://app?vid=213a5ea7-9223-4a71-934c-4b9059830d1c"},"vehicle_type_id":"4","last_reported":1702404546,"current_range_meters":27200,"station_id":"ce4bhh12rcd13ifvqff0","pricing_plan_id":"free"},{"bike_id":"d9c7ee01-a060-4651-b994-9348e9e6005e","system_id":"levelo_inurba_marseille","lat":43.258658,"lon":5.398935,"is_reserved":false,"is_disabled":false,"rental_uris":{"android":"levelo://app?vid=d9c7ee01-a060-4651-b994-9348e9e6005e","ios":"levelo://app?vid=d9c7ee01-a060-4651-b994-9348e9e6005e"},"vehicle_type_id":"4","last_reported":1702404546,"current_range_meters":7200,"station_id":"ce4bhl92rcd13ifvqghg","pricing_plan_id":"free"},{"bike_id":"8bee575f-1ce6-4207-9d3e-11062018182f","system_id":"levelo_inurba_marseille","lat":43.25928,"lon":5.40908,"is_reserved":false,"is_disabled":false,"rental_uris":{"android":"levelo://app?vid=8bee575f-1ce6-4207-9d3e-11062018182f","ios":"levelo://app?vid=8bee575f-1ce6-4207-9d3e-11062018182f"},"vehicle_type_id":"4","last_reported":1702404546,"current_range_meters":0,"station_id":"ce4bhm92rcd13ifvqglg","pricing_plan_id":"free"},{"bike_id":"382dbeb9-70f3-4ce3-b5d0-dbc4318b66bd","system_id":"levelo_inurba_marseille","lat":43.2479,"lon":5.374457,"is_reserved":false,"is_disabled":false,"rental_uris":{"android":"levelo://app?vid=382dbeb9-70f3-4ce3-b5d0-dbc4318b66bd","ios":"levelo://app?vid=382dbeb9-70f3-4ce3-b5d0-dbc4318b66bd"},"vehicle_type_id":"4","last_reported":1702404546,"current_range_meters":19600,"station_id":"ce4bhgh2rcd13ifvqfb0","pricing_plan_id":"free"},{"bike_id":"ed843470-89a7-4476-839f-66fa1b2beb4e","system_id":"levelo_inurba_marseille","lat":43.250966,"lon":5.395186,"is_reserved":false,"is_disabled":false,"rental_uris":{"android":"levelo://app?vid=ed843470-89a7-4476-839f-66fa1b2beb4e","ios":"levelo://app?vid=ed843470-89a7-4476-839f-66fa1b2beb4e"},"vehicle_type_id":"4","last_reported":1702404546,"current_range_meters":18000,"station_id":"ce4bhm12rcd13ifvqgkg","pricing_plan_id":"free"},{"bike_id":"9b56bccf-1eb7-4d68-804c-fdd14fb68558","system_id":"levelo_inurba_marseille","lat":43.250966,"lon":5.395186,"is_reserved":false,"is_disabled":false,"rental_uris":{"android":"levelo://app?vid=9b56bccf-1eb7-4d68-804c-fdd14fb68558","ios":"levelo://app?vid=9b56bccf-1eb7-4d68-804c-fdd14fb68558"},"vehicle_type_id":"4","last_reported":1702404546,"current_range_meters":0,"station_id":"ce4bhm12rcd13ifvqgkg","pricing_plan_id":"free"},{"bike_id":"b7644562-ab82-45de-ae3b-0436066b691f","system_id":"levelo_inurba_marseille","lat":43.246467,"lon":5.388984,"is_reserved":false,"is_disabled":false,"rental_uris":{"android":"levelo://app?vid=b7644562-ab82-45de-ae3b-0436066b691f","ios":"levelo://app?vid=b7644562-ab82-45de-ae3b-0436066b691f"},"vehicle_type_id":"4","last_reported":1702404546,"current_range_meters":24800,"station_id":"ce4bhg12rcd13ifvqf60","pricing_plan_id":"free"},{"bike_id":"3dc095af-a885-44c9-b900-c7749334e677","system_id":"levelo_inurba_marseille","lat":43.239588,"lon":5.366238,"is_reserved":false,"is_disabled":false,"rental_uris":{"android":"levelo://app?vid=3dc095af-a885-44c9-b900-c7749334e677","ios":"levelo://app?vid=3dc095af-a885-44c9-b900-c7749334e677"},"vehicle_type_id":"4","last_reported":1702404546,"current_range_meters":0,"station_id":"ce4bhi12rcd13ifvqfp0","pricing_plan_id":"free"},{"bike_id":"98be5ae6-2fa5-4ed0-b17e-d2ac063c89a7","system_id":"levelo_inurba_marseille","lat":43.23963,"lon":5.36625,"is_reserved":false,"is_disabled":false,"rental_uris":{"android":"levelo://app?vid=98be5ae6-2fa5-4ed0-b17e-d2ac063c89a7","ios":"levelo://app?vid=98be5ae6-2fa5-4ed0-b17e-d2ac063c89a7"},"vehicle_type_id":"4","last_reported":1702404546,"current_range_meters":1600,"station_id":"ce4bhi12rcd13ifvqfp0","pricing_plan_id":"free"},{"bike_id":"55cea281-ef18-45bd-a43b-f7becc478b7f","system_id":"levelo_inurba_marseille","lat":43.241782,"lon":5.397261,"is_reserved":false,"is_disabled":false,"rental_uris":{"android":"levelo://app?vid=55cea281-ef18-45bd-a43b-f7becc478b7f","ios":"levelo://app?vid=55cea281-ef18-45bd-a43b-f7becc478b7f"},"vehicle_type_id":"4","last_reported":1702404546,"current_range_meters":6000,"station_id":"ce4bhn12rcd13ifvqgpg","pricing_plan_id":"free"},{"bike_id":"a9e9efef-c67b-4895-a424-1b397a80826d","system_id":"levelo_inurba_marseille","lat":43.241782,"lon":5.397261,"is_reserved":false,"is_disabled":false,"rental_uris":{"android":"levelo://app?vid=a9e9efef-c67b-4895-a424-1b397a80826d","ios":"levelo://app?vid=a9e9efef-c67b-4895-a424-1b397a80826d"},"vehicle_type_id":"4","last_reported":1702404546,"current_range_meters":16400,"station_id":"ce4bhn12rcd13ifvqgpg","pricing_plan_id":"free"},{"bike_id":"e944b70c-6cf0-4fb7-b340-5d638ab83c7f","system_id":"levelo_inurba_marseille","lat":43.241782,"lon":5.397261,"is_reserved":false,"is_disabled":false,"rental_uris":{"android":"levelo://app?vid=e944b70c-6cf0-4fb7-b340-5d638ab83c7f","ios":"levelo://app?vid=e944b70c-6cf0-4fb7-b340-5d638ab83c7f"},"vehicle_type_id":"4","last_reported":1702404546,"current_range_meters":2400,"station_id":"ce4bhn12rcd13ifvqgpg","pricing_plan_id":"free"},{"bike_id":"e5f8a3f9-ad33-4c96-8f80-c9bb436ceb1b","system_id":"levelo_inurba_marseille","lat":43.235809,"lon":5.410473,"is_reserved":false,"is_disabled":false,"rental_uris":{"android":"levelo://app?vid=e5f8a3f9-ad33-4c96-8f80-c9bb436ceb1b","ios":"levelo://app?vid=e5f8a3f9-ad33-4c96-8f80-c9bb436ceb1b"},"vehicle_type_id":"4","last_reported":1702404546,"current_range_meters":14800,"station_id":"","pricing_plan_id":"free"},{"bike_id":"ecc6b30e-afbb-430b-a8fd-f3e07403c9ad","system_id":"levelo_inurba_marseille","lat":43.231794,"lon":5.400052,"is_reserved":false,"is_disabled":false,"rental_uris":{"android":"levelo://app?vid=ecc6b30e-afbb-430b-a8fd-f3e07403c9ad","ios":"levelo://app?vid=ecc6b30e-afbb-430b-a8fd-f3e07403c9ad"},"vehicle_type_id":"4","last_reported":1702404546,"current_range_meters":17200,"station_id":"ce4bhn12rcd13ifvqgqg","pricing_plan_id":"free"},{"bike_id":"20c0d9a4-1709-485b-9105-287bac4fabfc","system_id":"levelo_inurba_marseille","lat":43.231794,"lon":5.400052,"is_reserved":false,"is_disabled":false,"rental_uris":{"android":"levelo://app?vid=20c0d9a4-1709-485b-9105-287bac4fabfc","ios":"levelo://app?vid=20c0d9a4-1709-485b-9105-287bac4fabfc"},"vehicle_type_id":"4","last_reported":1702404546,"current_range_meters":16800,"station_id":"ce4bhn12rcd13ifvqgqg","pricing_plan_id":"free"},{"bike_id":"e6e78515-aff2-4fc4-80b5-70f36396b81a","system_id":"levelo_inurba_marseille","lat":43.231794,"lon":5.400052,"is_reserved":false,"is_disabled":false,"rental_uris":{"android":"levelo://app?vid=e6e78515-aff2-4fc4-80b5-70f36396b81a","ios":"levelo://app?vid=e6e78515-aff2-4fc4-80b5-70f36396b81a"},"vehicle_type_id":"4","last_reported":1702404546,"current_range_meters":20800,"station_id":"ce4bhn12rcd13ifvqgqg","pricing_plan_id":"free"},{"bike_id":"28a81c8f-eba8-456c-89c4-2281c172fec8","system_id":"levelo_inurba_marseille","lat":43.231794,"lon":5.400052,"is_reserved":false,"is_disabled":false,"rental_uris":{"android":"levelo://app?vid=28a81c8f-eba8-456c-89c4-2281c172fec8","ios":"levelo://app?vid=28a81c8f-eba8-456c-89c4-2281c172fec8"},"vehicle_type_id":"4","last_reported":1702404546,"current_range_meters":0,"station_id":"ce4bhn12rcd13ifvqgqg","pricing_plan_id":"free"},{"bike_id":"677eb956-4a51-4640-9904-41e76368959a","system_id":"levelo_inurba_marseille","lat":43.231794,"lon":5.400052,"is_reserved":false,"is_disabled":false,"rental_uris":{"android":"levelo://app?vid=677eb956-4a51-4640-9904-41e76368959a","ios":"levelo://app?vid=677eb956-4a51-4640-9904-41e76368959a"},"vehicle_type_id":"4","last_reported":1702404546,"current_range_meters":20400,"station_id":"ce4bhn12rcd13ifvqgqg","pricing_plan_id":"free"},{"bike_id":"3b6acbeb-fcf2-4d7f-83a0-ba4dc62f4887","system_id":"levelo_inurba_marseille","lat":43.231794,"lon":5.400052,"is_reserved":false,"is_disabled":false,"rental_uris":{"android":"levelo://app?vid=3b6acbeb-fcf2-4d7f-83a0-ba4dc62f4887","ios":"levelo://app?vid=3b6acbeb-fcf2-4d7f-83a0-ba4dc62f4887"},"vehicle_type_id":"4","last_reported":1702404546,"current_range_meters":6000,"station_id":"ce4bhn12rcd13ifvqgqg","pricing_plan_id":"free"},{"bike_id":"5b630b40-ff29-4dd6-a19d-40fab0f10db9","system_id":"levelo_inurba_marseille","lat":43.231794,"lon":5.400052,"is_reserved":false,"is_disabled":false,"rental_uris":{"android":"levelo://app?vid=5b630b40-ff29-4dd6-a19d-40fab0f10db9","ios":"levelo://app?vid=5b630b40-ff29-4dd6-a19d-40fab0f10db9"},"vehicle_type_id":"4","last_reported":1702404546,"current_range_meters":18400,"station_id":"ce4bhn12rcd13ifvqgqg","pricing_plan_id":"free"}]}}