{"last_updated":1706648814,"ttl":30,"version":"2.2","data":{"bikes":[{"bike_id":"7d731cec-0a6e-41af-a324-641e12930166","system_id":"levelo_inurba_marseille","lat":43.312239,"lon":5.368562,"is_reserved":false,"is_disabled":false,"rental_uris":{"android":"levelo://app?vid=7d731cec-0a6e-41af-a324-641e12930166","ios":"levelo://app?vid=7d731cec-0a6e-41af-a324-641e12930166"},"vehicle_type_id":"4","last_reported":1706648814,"current_range_meters":23600,"station_id":"ce4bgl92rcd13ifvqbq0","pricing_plan_id":"free"},{"bike_id":"f0d663c5-e97f-4b42-802a-37004a2e6cb7","system_id":"levelo_inurba_marseille","lat":43.31225,"lon":5.36865,"is_reserved":false,"is_disabled":false,"rental_uris":{"android":"levelo://app?vid=f0d663c5-e97f-4b42-802a-37004a2e6cb7","ios":"levelo://app?vid=f0d663c5-e97f-4b42-802a-37004a2e6cb7"},"vehicle_type_id":"4","last_reported":1706648814,"current_range_meters":10400,"station_id":"ce4bgl92rcd13ifvqbq0","pricing_plan_id":"free"},{"bike_id":"888e6484-97db-4f48-9b83-6b3d3c2192a6","system_id":"levelo_inurba_marseille","lat":43.30925,"lon":5.36848,"is_reserved":false,"is_disabled":false,"rental_uris":{"android":"levelo://app?vid=888e6484-97db-4f48-9b83-6b3d3c2192a6","ios":"levelo://app?vid=888e6484-97db-4f48-9b83-6b3d3c2192a6"},"vehicle_type_id":"4","last_reported":1706648814,"current_range_meters":16800,"station_id":"ce4bgn92rcd13ifvqbvg","pricing_plan_id":"free"},{"bike_id":"136334b6-b5f4-424c-9dfe-bdbc498a6560","system_id":"levelo_inurba_marseille","lat":43.314811,"lon":5.373103,"is_reserved":false,"is_disabled":false,"rental_uris":{"android":"levelo://app?vid=136334b6-b5f4-424c-9dfe-bdbc498a6560","ios":"levelo://app?vid=136334b6-b5f4-424c-9dfe-bdbc498a6560"},"vehicle_type_id":"4","last_reported":1706648814,"current_range_meters":26800,"station_id":"ce4bgt12rcd13ifvqcd0","pricing_plan_id":"free"},{"bike_id":"757bca03-2335-48aa-b8ee-58a03d2a5848","system_id":"levelo_inurba_marseille","lat":43.314811,"lon":5.373104,"is_reserved":false,"is_disabled":false,"rental_uris":{"android":"levelo://app?vid=757bca03-2335-48aa-b8ee-58a03d2a5848","ios":"levelo://app?vid=757bca03-2335-48aa-b8ee-58a03d2a5848"},"vehicle_type_id":"4","last_reported":1706648814,"current_range_meters":0,"station_id":"ce4bgt12rcd13ifvqcd0","pricing_plan_id":"free"},{"bike_id":"6836b046-0c4d-481e-95fc-4383505f73f3","system_id":"levelo_inurba_marseille","lat":43.314811,"lon":5.373104,"is_reserved":false,"is_disabled":false,"rental_uris":{"android":"levelo://app?vid=6836b046-0c4d-481e-95fc-4383505f73f3","ios":"levelo://app?vid=6836b046-0c4d-481e-95fc-4383505f73f3"},"vehicle_type_id":"4","last_reported":1706648814,"current_range_meters":16400,"station_id":"ce4bgt12rcd13ifvqcd0","pricing_plan_id":"free"},{"bike_id":"14becacc-5420-4107-a9ef-ad629e14bdef","system_id":"levelo_inurba_marseille","lat":43.309034,"lon":5.371783,"is_reserved":false,"is_disabled":false,"rental_uris":{"android":"levelo://app?vid=14becacc-5420-4107-a9ef-ad629e14bdef","ios":"levelo://app?vid=14becacc-5420-4107-a9ef-ad629e14bdef"},"vehicle_type_id":"4","last_reported":1706648814,"current_range_meters":22400,"station_id":"ce4bguh2rcd13ifvqckg","pricing_plan_id":"free"},{"bike_id":"dd638ec6-627e-4d63-a153-3d945cc545ec","system_id":"levelo_inurba_marseille","lat":43.30537,"lon":5.367345,"is_reserved":false,"is_disabled":false,"rental_uris":{"android":"levelo://app?vid=dd638ec6-627e-4d63-a153-3d945cc545ec","ios":"levelo://app?vid=dd638ec6-627e-4d63-a153-3d945cc545ec"},"vehicle_type_id":"4","last_reported":1706648814,"current_range_meters":0,"station_id":"ce4bgrp2rcd13ifvqc9g","pricing_plan_id":"free"},{"bike_id":"6435a90b-3f98-4be5-b066-4658d1b55ba6","system_id":"levelo_inurba_marseille","lat":43.305989,"lon":5.37225,"is_reserved":false,"is_disabled":false,"rental_uris":{"android":"levelo://app?vid=6435a90b-3f98-4be5-b066-4658d1b55ba6","ios":"levelo://app?vid=6435a90b-3f98-4be5-b066-4658d1b55ba6"},"vehicle_type_id":"4","last_reported":1706648814,"current_range_meters":15600,"station_id":"ce4bgqh2rcd13ifvqc4g","pricing_plan_id":"free"},{"bike_id":"0665a058-359a-4547-b8c0-07c4b14f902f","system_id":"levelo_inurba_marseille","lat":43.305989,"lon":5.37225,"is_reserved":false,"is_disabled":false,"rental_uris":{"android":"levelo://app?vid=0665a058-359a-4547-b8c0-07c4b14f902f","ios":"levelo://app?vid=0665a058-359a-4547-b8c0-07c4b14f902f"},"vehicle_type_id":"4","last_reported":1706648814,"current_range_meters":18400,"station_id":"ce4bgqh2rcd13ifvqc4g","pricing_plan_id":"free"},{"bike_id":"bc5b46f5-832c-4707-807a-10d8c1f9a079","system_id":"levelo_inurba_marseille","lat":43.305989,"lon":5.37225,"is_reserved":false,"is_disabled":false,"rental_uris":{"android":"levelo://app?vid=bc5b46f5-832c-4707-807a-10d8c1f9a079","ios":"levelo://app?vid=bc5b46f5-832c-4707-807a-10d8c1f9a079"},"vehicle_type_id":"4","last_reported":1706648814,"current_range_meters":26800,"station_id":"ce4bgqh2rcd13ifvqc4g","pricing_plan_id":"free"},{"bike_id":"9d1d0217-081c-4ab6-8348-39ef111c6efd","system_id":"levelo_inurba_marseille","lat":43.311131,"lon":5.377651,"is_reserved":false,"is_disabled":false,"rental_uris":{"android":"levelo://app?vid=9d1d0217-081c-4ab6-8348-39ef111c6efd","ios":"levelo://app?vid=9d1d0217-081c-4ab6-8348-39ef111c6efd"},"vehicle_type_id":"4","last_reported":1706648814,"current_range_meters":5600,"station_id":"ce4bgt92rcd13ifvqcg0","pricing_plan_id":"free"},{"bike_id":"22331776-df67-43f7-9179-78b4bb83ed5c","system_id":"levelo_inurba_marseille","lat":43.307945,"lon":5.376487,"is_reserved":false,"is_disabled":false,"rental_uris":{"android":"levelo://app?vid=22331776-df67-43f7-9179-78b4bb83ed5c","ios":"levelo://app?vid=22331776-df67-43f7-9179-78b4bb83ed5c"},"vehicle_type_id":"4","last_reported":1706648814,"current_range_meters":16800,"station_id":"ce4bgv92rcd13ifvqcq0","pricing_plan_id":"free"},{"bike_id":"fc16af25-929f-47d3-b2dd-59cc313bf408","system_id":"levelo_inurba_marseille","lat":43.307945,"lon":5.376487,"is_reserved":false,"is_disabled":false,"rental_uris":{"android":"levelo://app?vid=fc16af25-929f-47d3-b2dd-59cc313bf408","ios":"levelo://app?vid=fc16af25-929f-47d3-b2dd-59cc313bf408"},"vehicle_type_id":"4","last_reported":1706648814,"current_range_meters":3600,"station_id":"ce4bgv92rcd13ifvqcq0","pricing_plan_id":"free"},{"bike_id":"f11d4cde-3af7-4167-848a-dcd78644fab3","system_id":"levelo_inurba_marseille","lat":43.307945,"lon":5.376487,"is_reserved":false,"is_disabled":false,"rental_uris":{"android":"levelo://app?vid=f11d4cde-3af7-4167-848a-dcd78644fab3","ios":"levelo://app?vid=f11d4cde-3af7-4167-848a-dcd78644fab3"},"vehicle_type_id":"4","last_reported":1706648814,"current_range_meters":31200,"station_id":"ce4bgv92rcd13ifvqcq0","pricing_plan_id":"free"},{"bike_id":"38533471-ddf7-4c8e-8af3-c9bb91597b0c","system_id":"levelo_inurba_marseille","lat":43.317075,"lon":5.377367,"is_reserved":false,"is_disabled":false,"rental_uris":{"android":"levelo://app?vid=38533471-ddf7-4c8e-8af3-c9bb91597b0c","ios":"levelo://app?vid=38533471-ddf7-4c8e-8af3-c9bb91597b0c"},"vehicle_type_id":"4","last_reported":1706648814,"current_range_meters":21200,"station_id":"ce4bgth2rcd13ifvqch0","pricing_plan_id":"free"},{"bike_id":"f451b387-0e79-4dde-bd10-32f4ba4d50bd","system_id":"levelo_inurba_marseille","lat":43.30833,"lon":5.37932,"is_reserved":false,"is_disabled":false,"rental_uris":{"android":"levelo://app?vid=f451b387-0e79-4dde-bd10-32f4ba4d50bd","ios":"levelo://app?vid=f451b387-0e79-4dde-bd10-32f4ba4d50bd"},"vehicle_type_id":"4","last_reported":1706648814,"current_range_meters":5600,"station_id":"","pricing_plan_id":"free"},{"bike_id":"696138a0-a3eb-4c35-8771-753e63b54991","system_id":"levelo_inurba_marseille","lat":43.301939,"lon":5.366286,"is_reserved":false,"is_disabled":false,"rental_uris":{"android":"levelo://app?vid=696138a0-a3eb-4c35-8771-753e63b54991","ios":"levelo://app?vid=696138a0-a3eb-4c35-8771-753e63b54991"},"vehicle_type_id":"4","last_reported":1706648814,"current_range_meters":8000,"station_id":"ce4bgrh2rcd13ifvqc8g","pricing_plan_id":"free"},{"bike_id":"51e89c63-f854-4682-acf5-667218799154","system_id":"levelo_inurba_marseille","lat":43.308012,"lon":5.381511,"is_reserved":false,"is_disabled":false,"rental_uris":{"android":"levelo://app?vid=51e89c63-f854-4682-acf5-667218799154","ios":"levelo://app?vid=51e89c63-f854-4682-acf5-667218799154"},"vehicle_type_id":"4","last_reported":1706648814,"current_range_meters":10800,"station_id":"ce4bgt12rcd13ifvqce0","pricing_plan_id":"free"},{"bike_id":"a20b7e1f-273e-45a4-bd4b-39f266d8e860","system_id":"levelo_inurba_marseille","lat":43.308012,"lon":5.381511,"is_reserved":false,"is_disabled":false,"rental_uris":{"android":"levelo://app?vid=a20b7e1f-273e-45a4-bd4b-39f266d8e860","ios":"levelo://app?vid=a20b7e1f-273e-45a4-bd4b-39f266d8e860"},"vehicle_type_id":"4","last_reported":1706648814,"current_range_meters":9600,"station_id":"ce4bgt12rcd13ifvqce0","pricing_plan_id":"free"},{"bike_id":"5f79908b-3a46-4aab-8a06-108005e8ef8d","system_id":"levelo_inurba_marseille","lat":43.308012,"lon":5.381511,"is_reserved":false,"is_disabled":false,"rental_uris":{"android":"levelo://app?vid=5f79908b-3a46-4aab-8a06-108005e8ef8d","ios":"levelo://app?vid=5f79908b-3a46-4aab-8a06-108005e8ef8d"},"vehicle_type_id":"4","last_reported":1706648814,"current_range_meters":7200,"station_id":"ce4bgt12rcd13ifvqce0","pricing_plan_id":"free"},{"bike_id":"8f6e0689-2452-41bc-8fd9-979c3be6852c","system_id":"levelo_inurba_marseille","lat":43.308012,"lon":5.381511,"is_reserved":false,"is_disabled":false,"rental_uris":{"android":"levelo://app?vid=8f6e0689-2452-41bc-8fd9-979c3be6852c","ios":"levelo://app?vid=8f6e0689-2452-41bc-8fd9-979c3be6852c"},"vehicle_type_id":"4","last_reported":1706648814,"current_range_meters":1200,"station_id":"ce4bgt12rcd13ifvqce0","pricing_plan_id":"free"},{"bike_id":"4736ab2f-d481-4964-88a7-047c1ca02d2a","system_id":"levelo_inurba_marseille","lat":43.324798,"lon":5.365772,"is_reserved":false,"is_disabled":false,"rental_uris":{"android":"levelo://app?vid=4736ab2f-d481-4964-88a7-047c1ca02d2a","ios":"levelo://app?vid=4736ab2f-d481-4964-88a7-047c1ca02d2a"},"vehicle_type_id":"4","last_reported":1706648814,"current_range_meters":28800,"station_id":"ce4bhs12rcd13ifvqhvg","pricing_plan_id":"free"},{"bike_id":"f9b3aa5a-40af-4040-a917-268c7acc95ae","system_id":"levelo_inurba_marseille","lat":43.32481,"lon":5.36578,"is_reserved":false,"is_disabled":false,"rental_uris":{"android":"levelo://app?vid=f9b3aa5a-40af-4040-a917-268c7acc95ae","ios":"levelo://app?vid=f9b3aa5a-40af-4040-a917-268c7acc95ae"},"vehicle_type_id":"4","last_reported":1706648814,"current_range_meters":20400,"station_id":"ce4bhs12rcd13ifvqhvg","pricing_plan_id":"free"},{"bike_id":"4c1d912b-8425-4b28-bcd4-0691a1724560","system_id":"levelo_inurba_marseille","lat":43.324818,"lon":5.365787,"is_reserved":false,"is_disabled":false,"rental_uris":{"android":"levelo://app?vid=4c1d912b-8425-4b28-bcd4-0691a1724560","ios":"levelo://app?vid=4c1d912b-8425-4b28-bcd4-0691a1724560"},"vehicle_type_id":"4","last_reported":1706648814,"current_range_meters":22400,"station_id":"ce4bhs12rcd13ifvqhvg","pricing_plan_id":"free"},{"bike_id":"4a4a4c4e-5b63-4820-a0b3-21adedb27a91","system_id":"levelo_inurba_marseille","lat":43.31078,"lon":5.38361,"is_reserved":false,"is_disabled":false,"rental_uris":{"android":"levelo://app?vid=4a4a4c4e-5b63-4820-a0b3-21adedb27a91","ios":"levelo://app?vid=4a4a4c4e-5b63-4820-a0b3-21adedb27a91"},"vehicle_type_id":"4","last_reported":1706648814,"current_range_meters":8400,"station_id":"","pricing_plan_id":"free"},{"bike_id":"96d25446-9a11-4881-b615-c81fe5bf4f80","system_id":"levelo_inurba_marseille","lat":43.302784,"lon":5.377158,"is_reserved":false,"is_disabled":false,"rental_uris":{"android":"levelo://app?vid=96d25446-9a11-4881-b615-c81fe5bf4f80","ios":"levelo://app?vid=96d25446-9a11-4881-b615-c81fe5bf4f80"},"vehicle_type_id":"4","last_reported":1706648814,"current_range_meters":0,"station_id":"ce4bguh2rcd13ifvqcj0","pricing_plan_id":"free"},{"bike_id":"3f4d96cf-b110-4a20-b31e-a4373c40e7be","system_id":"levelo_inurba_marseille","lat":43.31996,"lon":5.38157,"is_reserved":false,"is_disabled":false,"rental_uris":{"android":"levelo://app?vid=3f4d96cf-b110-4a20-b31e-a4373c40e7be","ios":"levelo://app?vid=3f4d96cf-b110-4a20-b31e-a4373c40e7be"},"vehicle_type_id":"4","last_reported":1706648814,"current_range_meters":18000,"station_id":"ce4bhr12rcd13ifvqhpg","pricing_plan_id":"free"},{"bike_id":"0f676460-a64e-4c5f-9934-375efbd43145","system_id":"levelo_inurba_marseille","lat":43.319935,"lon":5.381699,"is_reserved":false,"is_disabled":false,"rental_uris":{"android":"levelo://app?vid=0f676460-a64e-4c5f-9934-375efbd43145","ios":"levelo://app?vid=0f676460-a64e-4c5f-9934-375efbd43145"},"vehicle_type_id":"4","last_reported":1706648814,"current_range_meters":17600,"station_id":"ce4bhr12rcd13ifvqhpg","pricing_plan_id":"free"},{"bike_id":"d0746e43-620f-459f-9e60-baedd4dac370","system_id":"levelo_inurba_marseille","lat":43.319935,"lon":5.381699,"is_reserved":false,"is_disabled":false,"rental_uris":{"android":"levelo://app?vid=d0746e43-620f-459f-9e60-baedd4dac370","ios":"levelo://app?vid=d0746e43-620f-459f-9e60-baedd4dac370"},"vehicle_type_id":"4","last_reported":1706648814,"current_range_meters":0,"station_id":"ce4bhr12rcd13ifvqhpg","pricing_plan_id":"free"},{"bike_id":"b8b1dbbf-61db-4523-87cf-433d900d312a","system_id":"levelo_inurba_marseille","lat":43.319935,"lon":5.381699,"is_reserved":false,"is_disabled":false,"rental_uris":{"android":"levelo://app?vid=b8b1dbbf-61db-4523-87cf-433d900d312a","ios":"levelo://app?vid=b8b1dbbf-61db-4523-87cf-433d900d312a"},"vehicle_type_id":"4","last_reported":1706648814,"current_range_meters":6800,"station_id":"ce4bhr12rcd13ifvqhpg","pricing_plan_id":"free"},{"bike_id":"c4e490d7-0ea5-4f58-9a22-31a35fb1514e","system_id":"levelo_inurba_marseille","lat":43.319935,"lon":5.381699,"is_reserved":false,"is_disabled":false,"rental_uris":{"android":"levelo://app?vid=c4e490d7-0ea5-4f58-9a22-31a35fb1514e","ios":"levelo://app?vid=c4e490d7-0ea5-4f58-9a22-31a35fb1514e"},"vehicle_type_id":"4","last_reported":1706648814,"current_range_meters":2400,"station_id":"ce4bhr12rcd13ifvqhpg","pricing_plan_id":"free"},{"bike_id":"88020db4-3cd0-4a44-ae34-22d03870e908","system_id":"levelo_inurba_marseille","lat":43.313571,"lon":5.384829,"is_reserved":false,"is_disabled":false,"rental_uris":{"android":"levelo://app?vid=88020db4-3cd0-4a44-ae34-22d03870e908","ios":"levelo://app?vid=88020db4-3cd0-4a44-ae34-22d03870e908"},"vehicle_type_id":"4","last_reported":1706648814,"current_range_meters":0,"station_id":"ce4bgt92rcd13ifvqcf0","pricing_plan_id":"free"},{"bike_id":"d1e58052-768b-446f-a6f7-3920b1d6d32e","system_id":"levelo_inurba_marseille","lat":43.313571,"lon":5.384829,"is_reserved":false,"is_disabled":false,"rental_uris":{"android":"levelo://app?vid=d1e58052-768b-446f-a6f7-3920b1d6d32e","ios":"levelo://app?vid=d1e58052-768b-446f-a6f7-3920b1d6d32e"},"vehicle_type_id":"4","last_reported":1706648814,"current_range_meters":30800,"station_id":"ce4bgt92rcd13ifvqcf0","pricing_plan_id":"free"},{"bike_id":"93e83fb0-9475-4c14-89ce-189d23666de6","system_id":"levelo_inurba_marseille","lat":43.31368,"lon":5.384947,"is_reserved":false,"is_disabled":false,"rental_uris":{"android":"levelo://app?vid=93e83fb0-9475-4c14-89ce-189d23666de6","ios":"levelo://app?vid=93e83fb0-9475-4c14-89ce-189d23666de6"},"vehicle_type_id":"4","last_reported":1706648814,"current_range_meters":2800,"station_id":"ce4bgt92rcd13ifvqcf0","pricing_plan_id":"free"},{"bike_id":"e2d0a3d4-e2a9-4dcc-99e6-eb940863c528","system_id":"levelo_inurba_marseille","lat":43.313649,"lon":5.384984,"is_reserved":false,"is_disabled":false,"rental_uris":{"android":"levelo://app?vid=e2d0a3d4-e2a9-4dcc-99e6-eb940863c528","ios":"levelo://app?vid=e2d0a3d4-e2a9-4dcc-99e6-eb940863c528"},"vehicle_type_id":"4","last_reported":1706648814,"current_range_meters":0,"station_id":"ce4bgt92rcd13ifvqcf0","pricing_plan_id":"free"},{"bike_id":"48cd1ab9-fc31-4452-b1a9-914d8dadb358","system_id":"levelo_inurba_marseille","lat":43.313571,"lon":5.384829,"is_reserved":false,"is_disabled":false,"rental_uris":{"android":"levelo://app?vid=48cd1ab9-fc31-4452-b1a9-914d8dadb358","ios":"levelo://app?vid=48cd1ab9-fc31-4452-b1a9-914d8dadb358"},"vehicle_type_id":"4","last_reported":1706648814,"current_range_meters":10000,"station_id":"ce4bgt92rcd13ifvqcf0","pricing_plan_id":"free"},{"bike_id":"298b3a3c-f213-4696-8193-0f3b64c1bea6","system_id":"levelo_inurba_marseille","lat":43.299222,"lon":5.365554,"is_reserved":false,"is_disabled":false,"rental_uris":{"android":"levelo://app?vid=298b3a3c-f213-4696-8193-0f3b64c1bea6","ios":"levelo://app?vid=298b3a3c-f213-4696-8193-0f3b64c1bea6"},"vehicle_type_id":"4","last_reported":1706648814,"current_range_meters":0,"station_id":"ce4bgm92rcd13ifvqbr0","pricing_plan_id":"free"},{"bike_id":"ef7a8756-6b4f-42c1-a5d6-bfa566148bf7","system_id":"levelo_inurba_marseille","lat":43.299874,"lon":5.371847,"is_reserved":false,"is_disabled":false,"rental_uris":{"android":"levelo://app?vid=ef7a8756-6b4f-42c1-a5d6-bfa566148bf7","ios":"levelo://app?vid=ef7a8756-6b4f-42c1-a5d6-bfa566148bf7"},"vehicle_type_id":"4","last_reported":1706648814,"current_range_meters":0,"station_id":"ce4bgr92rcd13ifvqc7g","pricing_plan_id":"free"},{"bike_id":"94f9c80c-64ff-4919-b522-87d5d2e651bd","system_id":"levelo_inurba_marseille","lat":43.305364,"lon":5.384119,"is_reserved":false,"is_disabled":false,"rental_uris":{"android":"levelo://app?vid=94f9c80c-64ff-4919-b522-87d5d2e651bd","ios":"levelo://app?vid=94f9c80c-64ff-4919-b522-87d5d2e651bd"},"vehicle_type_id":"4","last_reported":1706648814,"current_range_meters":4800,"station_id":"ce4bgg92rcd13ifvqb30","pricing_plan_id":"free"},{"bike_id":"bb5e405c-41ef-41f4-87b7-16a9a7bf5870","system_id":"levelo_inurba_marseille","lat":43.298433,"lon":5.362774,"is_reserved":false,"is_disabled":false,"rental_uris":{"android":"levelo://app?vid=bb5e405c-41ef-41f4-87b7-16a9a7bf5870","ios":"levelo://app?vid=bb5e405c-41ef-41f4-87b7-16a9a7bf5870"},"vehicle_type_id":"4","last_reported":1706648814,"current_range_meters":15200,"station_id":"ce4bgpp2rcd13ifvqc3g","pricing_plan_id":"free"},{"bike_id":"59bac424-8b4c-4311-98e5-fd7b0e68db73","system_id":"levelo_inurba_marseille","lat":43.3118,"lon":5.38714,"is_reserved":false,"is_disabled":false,"rental_uris":{"android":"levelo://app?vid=59bac424-8b4c-4311-98e5-fd7b0e68db73","ios":"levelo://app?vid=59bac424-8b4c-4311-98e5-fd7b0e68db73"},"vehicle_type_id":"4","last_reported":1706648814,"current_range_meters":3200,"station_id":"ce4bgv12rcd13ifvqcp0","pricing_plan_id":"free"},{"bike_id":"e6c8d308-a545-47ad-be3b-5bb7f6165b12","system_id":"levelo_inurba_marseille","lat":43.311722,"lon":5.387247,"is_reserved":false,"is_disabled":false,"rental_uris":{"android":"levelo://app?vid=e6c8d308-a545-47ad-be3b-5bb7f6165b12","ios":"levelo://app?vid=e6c8d308-a545-47ad-be3b-5bb7f6165b12"},"vehicle_type_id":"4","last_reported":1706648814,"current_range_meters":9200,"station_id":"ce4bgv12rcd13ifvqcp0","pricing_plan_id":"free"},{"bike_id":"5c880cbd-5623-4ca1-8142-8e2e9c18028e","system_id":"levelo_inurba_marseille","lat":43.311722,"lon":5.387247,"is_reserved":false,"is_disabled":false,"rental_uris":{"android":"levelo://app?vid=5c880cbd-5623-4ca1-8142-8e2e9c18028e","ios":"levelo://app?vid=5c880cbd-5623-4ca1-8142-8e2e9c18028e"},"vehicle_type_id":"4","last_reported":1706648814,"current_range_meters":14800,"station_id":"ce4bgv12rcd13ifvqcp0","pricing_plan_id":"free"},{"bike_id":"5eb2d574-b4eb-4a5c-9127-59f52688b205","system_id":"levelo_inurba_marseille","lat":43.31172,"lon":5.38724,"is_reserved":false,"is_disabled":false,"rental_uris":{"android":"levelo://app?vid=5eb2d574-b4eb-4a5c-9127-59f52688b205","ios":"levelo://app?vid=5eb2d574-b4eb-4a5c-9127-59f52688b205"},"vehicle_type_id":"4","last_reported":1706648814,"current_range_meters":4400,"station_id":"ce4bgv12rcd13ifvqcp0","pricing_plan_id":"free"},{"bike_id":"2f450168-5d44-43a0-8c09-0f3ec48309e4","system_id":"levelo_inurba_marseille","lat":43.311722,"lon":5.387247,"is_reserved":false,"is_disabled":false,"rental_uris":{"android":"levelo://app?vid=2f450168-5d44-43a0-8c09-0f3ec48309e4","ios":"levelo://app?vid=2f450168-5d44-43a0-8c09-0f3ec48309e4"},"vehicle_type_id":"4","last_reported":1706648814,"current_range_meters":24400,"station_id":"ce4bgv12rcd13ifvqcp0","pricing_plan_id":"free"},{"bike_id":"c8a57432-ae8d-4849-b29f-1f07c4a9a924","system_id":"levelo_inurba_marseille","lat":43.311722,"lon":5.387247,"is_reserved":false,"is_disabled":false,"rental_uris":{"android":"levelo://app?vid=c8a57432-ae8d-4849-b29f-1f07c4a9a924","ios":"levelo://app?vid=c8a57432-ae8d-4849-b29f-1f07c4a9a924"},"vehicle_type_id":"4","last_reported":1706648814,"current_range_meters":1600,"station_id":"ce4bgv12rcd13ifvqcp0","pricing_plan_id":"free"},{"bike_id":"7e1736e7-1025-4ab9-ae4a-d2d952d38b22","system_id":"levelo_inurba_marseille","lat":43.297794,"lon":5.370888,"is_reserved":false,"is_disabled":false,"rental_uris":{"android":"levelo://app?vid=7e1736e7-1025-4ab9-ae4a-d2d952d38b22","ios":"levelo://app?vid=7e1736e7-1025-4ab9-ae4a-d2d952d38b22"},"vehicle_type_id":"4","last_reported":1706648814,"current_range_meters":5200,"station_id":"ce4bgop2rcd13ifvqc1g","pricing_plan_id":"free"},{"bike_id":"5cd380b4-2fc7-4a71-a34a-0b5b23a2b2bd","system_id":"levelo_inurba_marseille","lat":43.297774,"lon":5.370875,"is_reserved":false,"is_disabled":false,"rental_uris":{"android":"levelo://app?vid=5cd380b4-2fc7-4a71-a34a-0b5b23a2b2bd","ios":"levelo://app?vid=5cd380b4-2fc7-4a71-a34a-0b5b23a2b2bd"},"vehicle_type_id":"4","last_reported":1706648814,"current_range_meters":22000,"station_id":"ce4bgop2rcd13ifvqc1g","pricing_plan_id":"free"},{"bike_id":"2f8f42c0-817f-4a71-af44-ca5542d95905","system_id":"levelo_inurba_marseille","lat":43.322872,"lon":5.382756,"is_reserved":false,"is_disabled":false,"rental_uris":{"android":"levelo://app?vid=2f8f42c0-817f-4a71-af44-ca5542d95905","ios":"levelo://app?vid=2f8f42c0-817f-4a71-af44-ca5542d95905"},"vehicle_type_id":"4","last_reported":1706648814,"current_range_meters":30000,"station_id":"ce4bhr12rcd13ifvqhqg","pricing_plan_id":"free"},{"bike_id":"b63cffa0-64af-40b8-a8ad-c056792f19ed","system_id":"levelo_inurba_marseille","lat":43.322872,"lon":5.382756,"is_reserved":false,"is_disabled":false,"rental_uris":{"android":"levelo://app?vid=b63cffa0-64af-40b8-a8ad-c056792f19ed","ios":"levelo://app?vid=b63cffa0-64af-40b8-a8ad-c056792f19ed"},"vehicle_type_id":"4","last_reported":1706648814,"current_range_meters":25600,"station_id":"ce4bhr12rcd13ifvqhqg","pricing_plan_id":"free"},{"bike_id":"7f20dc7e-badd-444e-a7c8-bf3a545cc809","system_id":"levelo_inurba_marseille","lat":43.322872,"lon":5.382756,"is_reserved":false,"is_disabled":false,"rental_uris":{"android":"levelo://app?vid=7f20dc7e-badd-444e-a7c8-bf3a545cc809","ios":"levelo://app?vid=7f20dc7e-badd-444e-a7c8-bf3a545cc809"},"vehicle_type_id":"4","last_reported":1706648814,"current_range_meters":25600,"station_id":"ce4bhr12rcd13ifvqhqg","pricing_plan_id":"free"},{"bike_id":"e53b96f6-0749-4e57-9ae0-506258818dab","system_id":"levelo_inurba_marseille","lat":43.322872,"lon":5.382756,"is_reserved":false,"is_disabled":false,"rental_uris":{"android":"levelo://app?vid=e53b96f6-0749-4e57-9ae0-506258818dab","ios":"levelo://app?vid=e53b96f6-0749-4e57-9ae0-506258818dab"},"vehicle_type_id":"4","last_reported":1706648814,"current_range_meters":16800,"station_id":"ce4bhr12rcd13ifvqhqg","pricing_plan_id":"free"},{"bike_id":"ad55e9fb-c933-4bd7-86aa-acb5d5921196","system_id":"levelo_inurba_marseille","lat":43.297794,"lon":5.370888,"is_reserved":false,"is_disabled":false,"rental_uris":{"android":"levelo://app?vid=ad55e9fb-c933-4bd7-86aa-acb5d5921196","ios":"levelo://app?vid=ad55e9fb-c933-4bd7-86aa-acb5d5921196"},"vehicle_type_id":"4","last_reported":1706648814,"current_range_meters":23200,"station_id":"ce4bgop2rcd13ifvqc1g","pricing_plan_id":"free"},{"bike_id":"e9842c34-5cb2-47ba-87a1-99bf36004d12","system_id":"levelo_inurba_marseille","lat":43.32825,"lon":5.36677,"is_reserved":false,"is_disabled":false,"rental_uris":{"android":"levelo://app?vid=e9842c34-5cb2-47ba-87a1-99bf36004d12","ios":"levelo://app?vid=e9842c34-5cb2-47ba-87a1-99bf36004d12"},"vehicle_type_id":"4","last_reported":1706648814,"current_range_meters":0,"station_id":"ce4bhs92rcd13ifvqi0g","pricing_plan_id":"free"},{"bike_id":"5e0d7018-715e-4087-a2d6-cfa7ba43c5e5","system_id":"levelo_inurba_marseille","lat":43.328371,"lon":5.366909,"is_reserved":false,"is_disabled":false,"rental_uris":{"android":"levelo://app?vid=5e0d7018-715e-4087-a2d6-cfa7ba43c5e5","ios":"levelo://app?vid=5e0d7018-715e-4087-a2d6-cfa7ba43c5e5"},"vehicle_type_id":"4","last_reported":1706648814,"current_range_meters":16800,"station_id":"ce4bhs92rcd13ifvqi0g","pricing_plan_id":"free"},{"bike_id":"92589973-d956-4826-a1e1-8b958e0b4b1a","system_id":"levelo_inurba_marseille","lat":43.328371,"lon":5.366909,"is_reserved":false,"is_disabled":false,"rental_uris":{"android":"levelo://app?vid=92589973-d956-4826-a1e1-8b958e0b4b1a","ios":"levelo://app?vid=92589973-d956-4826-a1e1-8b958e0b4b1a"},"vehicle_type_id":"4","last_reported":1706648814,"current_range_meters":0,"station_id":"ce4bhs92rcd13ifvqi0g","pricing_plan_id":"free"},{"bike_id":"d90f0439-5933-4b4c-b7c8-2f019df210a9","system_id":"levelo_inurba_marseille","lat":43.32837,"lon":5.366755,"is_reserved":false,"is_disabled":false,"rental_uris":{"android":"levelo://app?vid=d90f0439-5933-4b4c-b7c8-2f019df210a9","ios":"levelo://app?vid=d90f0439-5933-4b4c-b7c8-2f019df210a9"},"vehicle_type_id":"4","last_reported":1706648814,"current_range_meters":10400,"station_id":"ce4bhs92rcd13ifvqi0g","pricing_plan_id":"free"},{"bike_id":"cadb00b0-188c-4445-bfc6-3bad67e018a3","system_id":"levelo_inurba_marseille","lat":43.297163,"lon":5.365866,"is_reserved":false,"is_disabled":false,"rental_uris":{"android":"levelo://app?vid=cadb00b0-188c-4445-bfc6-3bad67e018a3","ios":"levelo://app?vid=cadb00b0-188c-4445-bfc6-3bad67e018a3"},"vehicle_type_id":"4","last_reported":1706648814,"current_range_meters":0,"station_id":"ce4bgn12rcd13ifvqbt0","pricing_plan_id":"free"},{"bike_id":"51ef19b7-c4bd-4fa6-9a9c-73f1a11df217","system_id":"levelo_inurba_marseille","lat":43.29573,"lon":5.367355,"is_reserved":false,"is_disabled":false,"rental_uris":{"android":"levelo://app?vid=51ef19b7-c4bd-4fa6-9a9c-73f1a11df217","ios":"levelo://app?vid=51ef19b7-c4bd-4fa6-9a9c-73f1a11df217"},"vehicle_type_id":"4","last_reported":1706648814,"current_range_meters":25200,"station_id":"ce4bgph2rcd13ifvqc2g","pricing_plan_id":"free"},{"bike_id":"60096579-0e4c-4a52-b427-6ed55c727208","system_id":"levelo_inurba_marseille","lat":43.29723,"lon":5.37689,"is_reserved":false,"is_disabled":false,"rental_uris":{"android":"levelo://app?vid=60096579-0e4c-4a52-b427-6ed55c727208","ios":"levelo://app?vid=60096579-0e4c-4a52-b427-6ed55c727208"},"vehicle_type_id":"4","last_reported":1706648814,"current_range_meters":0,"station_id":"ce4bgkh2rcd13ifvqbl0","pricing_plan_id":"free"},{"bike_id":"3c9dc433-221c-4f7b-ac87-9fa7590b42d5","system_id":"levelo_inurba_marseille","lat":43.309589,"lon":5.390258,"is_reserved":false,"is_disabled":false,"rental_uris":{"android":"levelo://app?vid=3c9dc433-221c-4f7b-ac87-9fa7590b42d5","ios":"levelo://app?vid=3c9dc433-221c-4f7b-ac87-9fa7590b42d5"},"vehicle_type_id":"4","last_reported":1706648814,"current_range_meters":19200,"station_id":"ce4bgup2rcd13ifvqco0","pricing_plan_id":"free"},{"bike_id":"c59ed841-abe7-4720-b327-7957d5000d8d","system_id":"levelo_inurba_marseille","lat":43.309589,"lon":5.390258,"is_reserved":false,"is_disabled":false,"rental_uris":{"android":"levelo://app?vid=c59ed841-abe7-4720-b327-7957d5000d8d","ios":"levelo://app?vid=c59ed841-abe7-4720-b327-7957d5000d8d"},"vehicle_type_id":"4","last_reported":1706648814,"current_range_meters":28800,"station_id":"ce4bgup2rcd13ifvqco0","pricing_plan_id":"free"},{"bike_id":"6f44677c-9778-4364-8d44-ea95c2260ce3","system_id":"levelo_inurba_marseille","lat":43.309589,"lon":5.390258,"is_reserved":false,"is_disabled":false,"rental_uris":{"android":"levelo://app?vid=6f44677c-9778-4364-8d44-ea95c2260ce3","ios":"levelo://app?vid=6f44677c-9778-4364-8d44-ea95c2260ce3"},"vehicle_type_id":"4","last_reported":1706648814,"current_range_meters":12400,"station_id":"ce4bgup2rcd13ifvqco0","pricing_plan_id":"free"},{"bike_id":"aa26fe18-9c4c-4e88-a779-301d624a7582","system_id":"levelo_inurba_marseille","lat":43.309589,"lon":5.390258,"is_reserved":false,"is_disabled":false,"rental_uris":{"android":"levelo://app?vid=aa26fe18-9c4c-4e88-a779-301d624a7582","ios":"levelo://app?vid=aa26fe18-9c4c-4e88-a779-301d624a7582"},"vehicle_type_id":"4","last_reported":1706648814,"current_range_meters":4400,"station_id":"ce4bgup2rcd13ifvqco0","pricing_plan_id":"free"},{"bike_id":"0042d6f0-defb-474c-a512-c060c4d8067d","system_id":"levelo_inurba_marseille","lat":43.309589,"lon":5.390258,"is_reserved":false,"is_disabled":false,"rental_uris":{"android":"levelo://app?vid=0042d6f0-defb-474c-a512-c060c4d8067d","ios":"levelo://app?vid=0042d6f0-defb-474c-a512-c060c4d8067d"},"vehicle_type_id":"4","last_reported":1706648814,"current_range_meters":4800,"station_id":"ce4bgup2rcd13ifvqco0","pricing_plan_id":"free"},{"bike_id":"0d432734-f006-4d07-ba13-82a4ba93354b","system_id":"levelo_inurba_marseille","lat":43.295748,"lon":5.37522,"is_reserved":false,"is_disabled":false,"rental_uris":{"android":"levelo://app?vid=0d432734-f006-4d07-ba13-82a4ba93354b","ios":"levelo://app?vid=0d432734-f006-4d07-ba13-82a4ba93354b"},"vehicle_type_id":"4","last_reported":1706648814,"current_range_meters":0,"station_id":"ce4bgh92rcd13ifvqb50","pricing_plan_id":"free"},{"bike_id":"2aa8cc79-0d49-4a8b-87dd-741ac9a9a182","system_id":"levelo_inurba_marseille","lat":43.304278,"lon":5.388868,"is_reserved":false,"is_disabled":false,"rental_uris":{"android":"levelo://app?vid=2aa8cc79-0d49-4a8b-87dd-741ac9a9a182","ios":"levelo://app?vid=2aa8cc79-0d49-4a8b-87dd-741ac9a9a182"},"vehicle_type_id":"4","last_reported":1706648814,"current_range_meters":22000,"station_id":"ce4bgk12rcd13ifvqbi0","pricing_plan_id":"free"},{"bike_id":"ac6dd630-497f-41f3-b3b5-90dd58aa844c","system_id":"levelo_inurba_marseille","lat":43.295748,"lon":5.37522,"is_reserved":false,"is_disabled":false,"rental_uris":{"android":"levelo://app?vid=ac6dd630-497f-41f3-b3b5-90dd58aa844c","ios":"levelo://app?vid=ac6dd630-497f-41f3-b3b5-90dd58aa844c"},"vehicle_type_id":"4","last_reported":1706648814,"current_range_meters":0,"station_id":"ce4bgh92rcd13ifvqb50","pricing_plan_id":"free"},{"bike_id":"6b0154cb-7582-4671-ae04-5225bcacb182","system_id":"levelo_inurba_marseille","lat":43.295748,"lon":5.37522,"is_reserved":false,"is_disabled":false,"rental_uris":{"android":"levelo://app?vid=6b0154cb-7582-4671-ae04-5225bcacb182","ios":"levelo://app?vid=6b0154cb-7582-4671-ae04-5225bcacb182"},"vehicle_type_id":"4","last_reported":1706648814,"current_range_meters":0,"station_id":"ce4bgh92rcd13ifvqb50","pricing_plan_id":"free"},{"bike_id":"02622f52-992d-4440-aa9b-670300ab7b3d","system_id":"levelo_inurba_marseille","lat":43.295748,"lon":5.37522,"is_reserved":false,"is_disabled":false,"rental_uris":{"android":"levelo://app?vid=02622f52-992d-4440-aa9b-670300ab7b3d","ios":"levelo://app?vid=02622f52-992d-4440-aa9b-670300ab7b3d"},"vehicle_type_id":"4","last_reported":1706648814,"current_range_meters":12800,"station_id":"ce4bgh92rcd13ifvqb50","pricing_plan_id":"free"},{"bike_id":"f635c164-d4c8-4d10-9583-a1f0cd5919ff","system_id":"levelo_inurba_marseille","lat":43.299724,"lon":5.384848,"is_reserved":false,"is_disabled":false,"rental_uris":{"android":"levelo://app?vid=f635c164-d4c8-4d10-9583-a1f0cd5919ff","ios":"levelo://app?vid=f635c164-d4c8-4d10-9583-a1f0cd5919ff"},"vehicle_type_id":"4","last_reported":1706648814,"current_range_meters":20800,"station_id":"ce4bgj92rcd13ifvqbd0","pricing_plan_id":"free"},{"bike_id":"984e13f5-4f0a-4d77-bfae-482cac7ab50d","system_id":"levelo_inurba_marseille","lat":43.309589,"lon":5.390258,"is_reserved":false,"is_disabled":false,"rental_uris":{"android":"levelo://app?vid=984e13f5-4f0a-4d77-bfae-482cac7ab50d","ios":"levelo://app?vid=984e13f5-4f0a-4d77-bfae-482cac7ab50d"},"vehicle_type_id":"4","last_reported":1706648814,"current_range_meters":5600,"station_id":"ce4bgup2rcd13ifvqco0","pricing_plan_id":"free"},{"bike_id":"de25d637-84ec-4203-b892-3e1c2d7c4ddb","system_id":"levelo_inurba_marseille","lat":43.331791,"lon":5.364409,"is_reserved":false,"is_disabled":false,"rental_uris":{"android":"levelo://app?vid=de25d637-84ec-4203-b892-3e1c2d7c4ddb","ios":"levelo://app?vid=de25d637-84ec-4203-b892-3e1c2d7c4ddb"},"vehicle_type_id":"4","last_reported":1706648814,"current_range_meters":10800,"station_id":"","pricing_plan_id":"free"},{"bike_id":"42e1b826-7d18-4d6d-8399-50a5392000d1","system_id":"levelo_inurba_marseille","lat":43.32367,"lon":5.388836,"is_reserved":false,"is_disabled":false,"rental_uris":{"android":"levelo://app?vid=42e1b826-7d18-4d6d-8399-50a5392000d1","ios":"levelo://app?vid=42e1b826-7d18-4d6d-8399-50a5392000d1"},"vehicle_type_id":"4","last_reported":1706648814,"current_range_meters":1200,"station_id":"ce4bhqp2rcd13ifvqhog","pricing_plan_id":"free"},{"bike_id":"d8175a8b-5b56-49ff-9bc1-a58f9d1d0450","system_id":"levelo_inurba_marseille","lat":43.32367,"lon":5.388836,"is_reserved":false,"is_disabled":false,"rental_uris":{"android":"levelo://app?vid=d8175a8b-5b56-49ff-9bc1-a58f9d1d0450","ios":"levelo://app?vid=d8175a8b-5b56-49ff-9bc1-a58f9d1d0450"},"vehicle_type_id":"4","last_reported":1706648814,"current_range_meters":0,"station_id":"ce4bhqp2rcd13ifvqhog","pricing_plan_id":"free"},{"bike_id":"87c37e20-93d8-4821-b2fb-71a6c4f572ed","system_id":"levelo_inurba_marseille","lat":43.32364,"lon":5.38884,"is_reserved":false,"is_disabled":false,"rental_uris":{"android":"levelo://app?vid=87c37e20-93d8-4821-b2fb-71a6c4f572ed","ios":"levelo://app?vid=87c37e20-93d8-4821-b2fb-71a6c4f572ed"},"vehicle_type_id":"4","last_reported":1706648814,"current_range_meters":6000,"station_id":"ce4bhqp2rcd13ifvqhog","pricing_plan_id":"free"},{"bike_id":"6c6dcc02-6cc1-4ef9-97aa-9aca7babe880","system_id":"levelo_inurba_marseille","lat":43.32367,"lon":5.388836,"is_reserved":false,"is_disabled":false,"rental_uris":{"android":"levelo://app?vid=6c6dcc02-6cc1-4ef9-97aa-9aca7babe880","ios":"levelo://app?vid=6c6dcc02-6cc1-4ef9-97aa-9aca7babe880"},"vehicle_type_id":"4","last_reported":1706648814,"current_range_meters":400,"station_id":"ce4bhqp2rcd13ifvqhog","pricing_plan_id":"free"},{"bike_id":"83c0514d-6600-43a3-932b-83517d92af33","system_id":"levelo_inurba_marseille","lat":43.32366,"lon":5.38885,"is_reserved":false,"is_disabled":false,"rental_uris":{"android":"levelo://app?vid=83c0514d-6600-43a3-932b-83517d92af33","ios":"levelo://app?vid=83c0514d-6600-43a3-932b-83517d92af33"},"vehicle_type_id":"4","last_reported":1706648814,"current_range_meters":0,"station_id":"ce4bhqp2rcd13ifvqhog","pricing_plan_id":"free"},{"bike_id":"899d0092-7653-45db-88aa-d3f5eb3a8508","system_id":"levelo_inurba_marseille","lat":43.32367,"lon":5.388836,"is_reserved":false,"is_disabled":false,"rental_uris":{"android":"levelo://app?vid=899d0092-7653-45db-88aa-d3f5eb3a8508","ios":"levelo://app?vid=899d0092-7653-45db-88aa-d3f5eb3a8508"},"vehicle_type_id":"4","last_reported":1706648814,"current_range_meters":11200,"station_id":"ce4bhqp2rcd13ifvqhog","pricing_plan_id":"free"},{"bike_id":"3c96d003-da90-4e38-8c3d-c7f6eb2d3f3f","system_id":"levelo_inurba_marseille","lat":43.301924,"lon":5.389616,"is_reserved":false,"is_disabled":false,"rental_uris":{"android":"levelo://app?vid=3c96d003-da90-4e38-8c3d-c7f6eb2d3f3f","ios":"levelo://app?vid=3c96d003-da90-4e38-8c3d-c7f6eb2d3f3f"},"vehicle_type_id":"4","last_reported":1706648814,"current_range_meters":20800,"station_id":"","pricing_plan_id":"free"},{"bike_id":"b106b04c-a63a-459d-b4af-77ff59901bf1","system_id":"levelo_inurba_marseille","lat":43.2933,"lon":5.37241,"is_reserved":false,"is_disabled":false,"rental_uris":{"android":"levelo://app?vid=b106b04c-a63a-459d-b4af-77ff59901bf1","ios":"levelo://app?vid=b106b04c-a63a-459d-b4af-77ff59901bf1"},"vehicle_type_id":"4","last_reported":1706648814,"current_range_meters":3200,"station_id":"","pricing_plan_id":"free"},{"bike_id":"67cc158c-ec48-4504-835a-d11592fc516f","system_id":"levelo_inurba_marseille","lat":43.29278,"lon":5.36848,"is_reserved":false,"is_disabled":false,"rental_uris":{"android":"levelo://app?vid=67cc158c-ec48-4504-835a-d11592fc516f","ios":"levelo://app?vid=67cc158c-ec48-4504-835a-d11592fc516f"},"vehicle_type_id":"4","last_reported":1706648814,"current_range_meters":0,"station_id":"ce4bhbp2rcd13ifvqesg","pricing_plan_id":"free"},{"bike_id":"78b3bdfa-e78a-4167-a5c7-efc96f8faea3","system_id":"levelo_inurba_marseille","lat":43.292749,"lon":5.368402,"is_reserved":false,"is_disabled":false,"rental_uris":{"android":"levelo://app?vid=78b3bdfa-e78a-4167-a5c7-efc96f8faea3","ios":"levelo://app?vid=78b3bdfa-e78a-4167-a5c7-efc96f8faea3"},"vehicle_type_id":"4","last_reported":1706648814,"current_range_meters":0,"station_id":"ce4bhbp2rcd13ifvqesg","pricing_plan_id":"free"},{"bike_id":"0a12cb02-f007-4865-be87-a7c97ad56b12","system_id":"levelo_inurba_marseille","lat":43.305994,"lon":5.393687,"is_reserved":false,"is_disabled":false,"rental_uris":{"android":"levelo://app?vid=0a12cb02-f007-4865-be87-a7c97ad56b12","ios":"levelo://app?vid=0a12cb02-f007-4865-be87-a7c97ad56b12"},"vehicle_type_id":"4","last_reported":1706648814,"current_range_meters":26800,"station_id":"ce4bh0p2rcd13ifvqd80","pricing_plan_id":"free"},{"bike_id":"c1dc81f8-f99c-4a61-a182-2432218e356c","system_id":"levelo_inurba_marseille","lat":43.305994,"lon":5.393687,"is_reserved":false,"is_disabled":false,"rental_uris":{"android":"levelo://app?vid=c1dc81f8-f99c-4a61-a182-2432218e356c","ios":"levelo://app?vid=c1dc81f8-f99c-4a61-a182-2432218e356c"},"vehicle_type_id":"4","last_reported":1706648814,"current_range_meters":12400,"station_id":"ce4bh0p2rcd13ifvqd80","pricing_plan_id":"free"},{"bike_id":"4a57fb69-1100-49c0-81d3-77edbcaac948","system_id":"levelo_inurba_marseille","lat":43.306412,"lon":5.401035,"is_reserved":false,"is_disabled":false,"rental_uris":{"android":"levelo://app?vid=4a57fb69-1100-49c0-81d3-77edbcaac948","ios":"levelo://app?vid=4a57fb69-1100-49c0-81d3-77edbcaac948"},"vehicle_type_id":"4","last_reported":1706648814,"current_range_meters":16800,"station_id":"ce4bh112rcd13ifvqda0","pricing_plan_id":"free"},{"bike_id":"4626e6ac-09b7-416c-a843-d97da547a7ae","system_id":"levelo_inurba_marseille","lat":43.305994,"lon":5.393687,"is_reserved":false,"is_disabled":false,"rental_uris":{"android":"levelo://app?vid=4626e6ac-09b7-416c-a843-d97da547a7ae","ios":"levelo://app?vid=4626e6ac-09b7-416c-a843-d97da547a7ae"},"vehicle_type_id":"4","last_reported":1706648814,"current_range_meters":3600,"station_id":"ce4bh0p2rcd13ifvqd80","pricing_plan_id":"free"},{"bike_id":"829b9f2d-c9fe-48f3-8414-89a85cf973d7","system_id":"levelo_inurba_marseille","lat":43.305994,"lon":5.393687,"is_reserved":false,"is_disabled":false,"rental_uris":{"android":"levelo://app?vid=829b9f2d-c9fe-48f3-8414-89a85cf973d7","ios":"levelo://app?vid=829b9f2d-c9fe-48f3-8414-89a85cf973d7"},"vehicle_type_id":"4","last_reported":1706648814,"current_range_meters":6800,"station_id":"ce4bh0p2rcd13ifvqd80","pricing_plan_id":"free"},{"bike_id":"c97f7ddc-65d1-4db7-90a8-cc5f31be151e","system_id":"levelo_inurba_marseille","lat":43.293724,"lon":5.378656,"is_reserved":false,"is_disabled":false,"rental_uris":{"android":"levelo://app?vid=c97f7ddc-65d1-4db7-90a8-cc5f31be151e","ios":"levelo://app?vid=c97f7ddc-65d1-4db7-90a8-cc5f31be151e"},"vehicle_type_id":"4","last_reported":1706648814,"current_range_meters":0,"station_id":"ce4bgjh2rcd13ifvqbf0","pricing_plan_id":"free"},{"bike_id":"dc845c2e-5736-4cbb-9ac5-4518f8556216","system_id":"levelo_inurba_marseille","lat":43.300852,"lon":5.390859,"is_reserved":false,"is_disabled":false,"rental_uris":{"android":"levelo://app?vid=dc845c2e-5736-4cbb-9ac5-4518f8556216","ios":"levelo://app?vid=dc845c2e-5736-4cbb-9ac5-4518f8556216"},"vehicle_type_id":"4","last_reported":1706648814,"current_range_meters":4400,"station_id":"ce4bh192rcd13ifvqdb0","pricing_plan_id":"free"},{"bike_id":"b9427abf-b75b-433c-9294-f8d73b62279d","system_id":"levelo_inurba_marseille","lat":43.2936,"lon":5.37835,"is_reserved":false,"is_disabled":false,"rental_uris":{"android":"levelo://app?vid=b9427abf-b75b-433c-9294-f8d73b62279d","ios":"levelo://app?vid=b9427abf-b75b-433c-9294-f8d73b62279d"},"vehicle_type_id":"4","last_reported":1706648814,"current_range_meters":21600,"station_id":"ce4bgjh2rcd13ifvqbf0","pricing_plan_id":"free"},{"bike_id":"1dd2a345-8186-4cea-ab20-c10a6d16cadb","system_id":"levelo_inurba_marseille","lat":43.30085,"lon":5.390856,"is_reserved":false,"is_disabled":false,"rental_uris":{"android":"levelo://app?vid=1dd2a345-8186-4cea-ab20-c10a6d16cadb","ios":"levelo://app?vid=1dd2a345-8186-4cea-ab20-c10a6d16cadb"},"vehicle_type_id":"4","last_reported":1706648814,"current_range_meters":28400,"station_id":"ce4bh192rcd13ifvqdb0","pricing_plan_id":"free"},{"bike_id":"ea94f227-9972-4fa5-aead-e1014da3a35a","system_id":"levelo_inurba_marseille","lat":43.300947,"lon":5.390798,"is_reserved":false,"is_disabled":false,"rental_uris":{"android":"levelo://app?vid=ea94f227-9972-4fa5-aead-e1014da3a35a","ios":"levelo://app?vid=ea94f227-9972-4fa5-aead-e1014da3a35a"},"vehicle_type_id":"4","last_reported":1706648814,"current_range_meters":0,"station_id":"ce4bh192rcd13ifvqdb0","pricing_plan_id":"free"},{"bike_id":"516af465-cd84-4790-80bd-27500b9314c7","system_id":"levelo_inurba_marseille","lat":43.30085,"lon":5.390856,"is_reserved":false,"is_disabled":false,"rental_uris":{"android":"levelo://app?vid=516af465-cd84-4790-80bd-27500b9314c7","ios":"levelo://app?vid=516af465-cd84-4790-80bd-27500b9314c7"},"vehicle_type_id":"4","last_reported":1706648814,"current_range_meters":18800,"station_id":"ce4bh192rcd13ifvqdb0","pricing_plan_id":"free"},{"bike_id":"d153ff27-f111-4935-a251-ad8df51cc588","system_id":"levelo_inurba_marseille","lat":43.30085,"lon":5.390856,"is_reserved":false,"is_disabled":false,"rental_uris":{"android":"levelo://app?vid=d153ff27-f111-4935-a251-ad8df51cc588","ios":"levelo://app?vid=d153ff27-f111-4935-a251-ad8df51cc588"},"vehicle_type_id":"4","last_reported":1706648814,"current_range_meters":19600,"station_id":"ce4bh192rcd13ifvqdb0","pricing_plan_id":"free"},{"bike_id":"1bae008f-956f-4ca3-b5e0-ff8d7cd209dc","system_id":"levelo_inurba_marseille","lat":43.30085,"lon":5.390856,"is_reserved":false,"is_disabled":false,"rental_uris":{"android":"levelo://app?vid=1bae008f-956f-4ca3-b5e0-ff8d7cd209dc","ios":"levelo://app?vid=1bae008f-956f-4ca3-b5e0-ff8d7cd209dc"},"vehicle_type_id":"4","last_reported":1706648814,"current_range_meters":0,"station_id":"ce4bh192rcd13ifvqdb0","pricing_plan_id":"free"},{"bike_id":"a894af36-4611-42bb-910a-a31c84e7ad3a","system_id":"levelo_inurba_marseille","lat":43.291671,"lon":5.371575,"is_reserved":false,"is_disabled":false,"rental_uris":{"android":"levelo://app?vid=a894af36-4611-42bb-910a-a31c84e7ad3a","ios":"levelo://app?vid=a894af36-4611-42bb-910a-a31c84e7ad3a"},"vehicle_type_id":"4","last_reported":1706648814,"current_range_meters":800,"station_id":"ce4bha92rcd13ifvqeh0","pricing_plan_id":"free"},{"bike_id":"688cddb3-1004-47ca-8999-d7e4ffbc91be","system_id":"levelo_inurba_marseille","lat":43.298805,"lon":5.3891,"is_reserved":false,"is_disabled":false,"rental_uris":{"android":"levelo://app?vid=688cddb3-1004-47ca-8999-d7e4ffbc91be","ios":"levelo://app?vid=688cddb3-1004-47ca-8999-d7e4ffbc91be"},"vehicle_type_id":"4","last_reported":1706648814,"current_range_meters":0,"station_id":"ce4bh392rcd13ifvqdl0","pricing_plan_id":"free"},{"bike_id":"21d015e2-db24-4902-8b40-5a8765a0c54e","system_id":"levelo_inurba_marseille","lat":43.295196,"lon":5.39397,"is_reserved":false,"is_disabled":false,"rental_uris":{"android":"levelo://app?vid=21d015e2-db24-4902-8b40-5a8765a0c54e","ios":"levelo://app?vid=21d015e2-db24-4902-8b40-5a8765a0c54e"},"vehicle_type_id":"4","last_reported":1706648814,"current_range_meters":14800,"station_id":"ce4bh292rcd13ifvqdf0","pricing_plan_id":"free"},{"bike_id":"113c710a-82dc-4f8b-9a03-b597ba872ec5","system_id":"levelo_inurba_marseille","lat":43.30885,"lon":5.39633,"is_reserved":false,"is_disabled":false,"rental_uris":{"android":"levelo://app?vid=113c710a-82dc-4f8b-9a03-b597ba872ec5","ios":"levelo://app?vid=113c710a-82dc-4f8b-9a03-b597ba872ec5"},"vehicle_type_id":"4","last_reported":1706648814,"current_range_meters":21200,"station_id":"ce4bh012rcd13ifvqcv0","pricing_plan_id":"free"},{"bike_id":"0498f959-33ab-4cf6-a268-c8c1b960fc37","system_id":"levelo_inurba_marseille","lat":43.309038,"lon":5.396546,"is_reserved":false,"is_disabled":false,"rental_uris":{"android":"levelo://app?vid=0498f959-33ab-4cf6-a268-c8c1b960fc37","ios":"levelo://app?vid=0498f959-33ab-4cf6-a268-c8c1b960fc37"},"vehicle_type_id":"4","last_reported":1706648814,"current_range_meters":12800,"station_id":"ce4bh012rcd13ifvqcv0","pricing_plan_id":"free"},{"bike_id":"751d9503-550a-45bb-8373-25caab9ec8d7","system_id":"levelo_inurba_marseille","lat":43.313291,"lon":5.396838,"is_reserved":false,"is_disabled":false,"rental_uris":{"android":"levelo://app?vid=751d9503-550a-45bb-8373-25caab9ec8d7","ios":"levelo://app?vid=751d9503-550a-45bb-8373-25caab9ec8d7"},"vehicle_type_id":"4","last_reported":1706648814,"current_range_meters":17600,"station_id":"ce4bgvp2rcd13ifvqcu0","pricing_plan_id":"free"},{"bike_id":"747e4d93-ecde-490d-b281-aa31052ce803","system_id":"levelo_inurba_marseille","lat":43.313291,"lon":5.396838,"is_reserved":false,"is_disabled":false,"rental_uris":{"android":"levelo://app?vid=747e4d93-ecde-490d-b281-aa31052ce803","ios":"levelo://app?vid=747e4d93-ecde-490d-b281-aa31052ce803"},"vehicle_type_id":"4","last_reported":1706648814,"current_range_meters":0,"station_id":"ce4bgvp2rcd13ifvqcu0","pricing_plan_id":"free"},{"bike_id":"dacef0ad-9800-41af-828e-19ff6aaaffb4","system_id":"levelo_inurba_marseille","lat":43.313291,"lon":5.396838,"is_reserved":false,"is_disabled":false,"rental_uris":{"android":"levelo://app?vid=dacef0ad-9800-41af-828e-19ff6aaaffb4","ios":"levelo://app?vid=dacef0ad-9800-41af-828e-19ff6aaaffb4"},"vehicle_type_id":"4","last_reported":1706648814,"current_range_meters":29200,"station_id":"ce4bgvp2rcd13ifvqcu0","pricing_plan_id":"free"},{"bike_id":"01be03bb-cebf-448a-8caf-4ad8e0ab9d1b","system_id":"levelo_inurba_marseille","lat":43.30882,"lon":5.39643,"is_reserved":false,"is_disabled":false,"rental_uris":{"android":"levelo://app?vid=01be03bb-cebf-448a-8caf-4ad8e0ab9d1b","ios":"levelo://app?vid=01be03bb-cebf-448a-8caf-4ad8e0ab9d1b"},"vehicle_type_id":"4","last_reported":1706648814,"current_range_meters":8800,"station_id":"ce4bh012rcd13ifvqcv0","pricing_plan_id":"free"},{"bike_id":"c6bbb307-40ce-4d17-bd61-1e147db096d4","system_id":"levelo_inurba_marseille","lat":43.291866,"lon":5.358152,"is_reserved":false,"is_disabled":false,"rental_uris":{"android":"levelo://app?vid=c6bbb307-40ce-4d17-bd61-1e147db096d4","ios":"levelo://app?vid=c6bbb307-40ce-4d17-bd61-1e147db096d4"},"vehicle_type_id":"4","last_reported":1706648814,"current_range_meters":0,"station_id":"ce4bhb12rcd13ifvqel0","pricing_plan_id":"free"},{"bike_id":"7f6aa594-0861-4485-833e-2c96eb223d5a","system_id":"levelo_inurba_marseille","lat":43.313291,"lon":5.396838,"is_reserved":false,"is_disabled":false,"rental_uris":{"android":"levelo://app?vid=7f6aa594-0861-4485-833e-2c96eb223d5a","ios":"levelo://app?vid=7f6aa594-0861-4485-833e-2c96eb223d5a"},"vehicle_type_id":"4","last_reported":1706648814,"current_range_meters":18000,"station_id":"ce4bgvp2rcd13ifvqcu0","pricing_plan_id":"free"},{"bike_id":"9a015444-c4b0-41cf-b428-0705d5bd5a83","system_id":"levelo_inurba_marseille","lat":43.313291,"lon":5.396838,"is_reserved":false,"is_disabled":false,"rental_uris":{"android":"levelo://app?vid=9a015444-c4b0-41cf-b428-0705d5bd5a83","ios":"levelo://app?vid=9a015444-c4b0-41cf-b428-0705d5bd5a83"},"vehicle_type_id":"4","last_reported":1706648814,"current_range_meters":13200,"station_id":"ce4bgvp2rcd13ifvqcu0","pricing_plan_id":"free"},{"bike_id":"6f5c9714-0235-4318-92c0-c0df621ff2bc","system_id":"levelo_inurba_marseille","lat":43.30891,"lon":5.39647,"is_reserved":false,"is_disabled":false,"rental_uris":{"android":"levelo://app?vid=6f5c9714-0235-4318-92c0-c0df621ff2bc","ios":"levelo://app?vid=6f5c9714-0235-4318-92c0-c0df621ff2bc"},"vehicle_type_id":"4","last_reported":1706648814,"current_range_meters":18400,"station_id":"ce4bh012rcd13ifvqcv0","pricing_plan_id":"free"},{"bike_id":"3c4672c7-5915-4150-90ba-d91dd82427ee","system_id":"levelo_inurba_marseille","lat":43.30886,"lon":5.39647,"is_reserved":false,"is_disabled":false,"rental_uris":{"android":"levelo://app?vid=3c4672c7-5915-4150-90ba-d91dd82427ee","ios":"levelo://app?vid=3c4672c7-5915-4150-90ba-d91dd82427ee"},"vehicle_type_id":"4","last_reported":1706648814,"current_range_meters":0,"station_id":"ce4bh012rcd13ifvqcv0","pricing_plan_id":"free"},{"bike_id":"0e939496-2def-4b51-b8a6-8154a39f3ea3","system_id":"levelo_inurba_marseille","lat":43.313291,"lon":5.396838,"is_reserved":false,"is_disabled":false,"rental_uris":{"android":"levelo://app?vid=0e939496-2def-4b51-b8a6-8154a39f3ea3","ios":"levelo://app?vid=0e939496-2def-4b51-b8a6-8154a39f3ea3"},"vehicle_type_id":"4","last_reported":1706648814,"current_range_meters":27200,"station_id":"ce4bgvp2rcd13ifvqcu0","pricing_plan_id":"free"},{"bike_id":"ef62cf81-cc32-4f0e-bdf1-8a6a90e9453b","system_id":"levelo_inurba_marseille","lat":43.313291,"lon":5.396838,"is_reserved":false,"is_disabled":false,"rental_uris":{"android":"levelo://app?vid=ef62cf81-cc32-4f0e-bdf1-8a6a90e9453b","ios":"levelo://app?vid=ef62cf81-cc32-4f0e-bdf1-8a6a90e9453b"},"vehicle_type_id":"4","last_reported":1706648814,"current_range_meters":18000,"station_id":"ce4bgvp2rcd13ifvqcu0","pricing_plan_id":"free"},{"bike_id":"b62bcfa5-473d-4221-b143-66a964158134","system_id":"levelo_inurba_marseille","lat":43.31324,"lon":5.39695,"is_reserved":false,"is_disabled":false,"rental_uris":{"android":"levelo://app?vid=b62bcfa5-473d-4221-b143-66a964158134","ios":"levelo://app?vid=b62bcfa5-473d-4221-b143-66a964158134"},"vehicle_type_id":"4","last_reported":1706648814,"current_range_meters":2000,"station_id":"ce4bgvp2rcd13ifvqcu0","pricing_plan_id":"free"},{"bike_id":"0db4327a-f873-4b61-9e5d-93ba3c4b6379","system_id":"levelo_inurba_marseille","lat":43.313291,"lon":5.396838,"is_reserved":false,"is_disabled":false,"rental_uris":{"android":"levelo://app?vid=0db4327a-f873-4b61-9e5d-93ba3c4b6379","ios":"levelo://app?vid=0db4327a-f873-4b61-9e5d-93ba3c4b6379"},"vehicle_type_id":"4","last_reported":1706648814,"current_range_meters":0,"station_id":"ce4bgvp2rcd13ifvqcu0","pricing_plan_id":"free"},{"bike_id":"7f40c595-1c4f-4ac5-898c-e19e6e7abfa5","system_id":"levelo_inurba_marseille","lat":43.313291,"lon":5.396838,"is_reserved":false,"is_disabled":false,"rental_uris":{"android":"levelo://app?vid=7f40c595-1c4f-4ac5-898c-e19e6e7abfa5","ios":"levelo://app?vid=7f40c595-1c4f-4ac5-898c-e19e6e7abfa5"},"vehicle_type_id":"4","last_reported":1706648814,"current_range_meters":18000,"station_id":"ce4bgvp2rcd13ifvqcu0","pricing_plan_id":"free"},{"bike_id":"08c8936f-6282-4269-ac71-328472fd491d","system_id":"levelo_inurba_marseille","lat":43.313291,"lon":5.396838,"is_reserved":false,"is_disabled":false,"rental_uris":{"android":"levelo://app?vid=08c8936f-6282-4269-ac71-328472fd491d","ios":"levelo://app?vid=08c8936f-6282-4269-ac71-328472fd491d"},"vehicle_type_id":"4","last_reported":1706648814,"current_range_meters":31200,"station_id":"ce4bgvp2rcd13ifvqcu0","pricing_plan_id":"free"},{"bike_id":"50abaccf-dd88-40c7-8675-0ffb04196c99","system_id":"levelo_inurba_marseille","lat":43.313291,"lon":5.396838,"is_reserved":false,"is_disabled":false,"rental_uris":{"android":"levelo://app?vid=50abaccf-dd88-40c7-8675-0ffb04196c99","ios":"levelo://app?vid=50abaccf-dd88-40c7-8675-0ffb04196c99"},"vehicle_type_id":"4","last_reported":1706648814,"current_range_meters":22000,"station_id":"ce4bgvp2rcd13ifvqcu0","pricing_plan_id":"free"},{"bike_id":"b674387c-dac7-4c72-8c60-5bdca13ab48d","system_id":"levelo_inurba_marseille","lat":43.31328,"lon":5.39697,"is_reserved":false,"is_disabled":false,"rental_uris":{"android":"levelo://app?vid=b674387c-dac7-4c72-8c60-5bdca13ab48d","ios":"levelo://app?vid=b674387c-dac7-4c72-8c60-5bdca13ab48d"},"vehicle_type_id":"4","last_reported":1706648814,"current_range_meters":0,"station_id":"ce4bgvp2rcd13ifvqcu0","pricing_plan_id":"free"},{"bike_id":"961af791-ce80-4780-8123-07223dca3aae","system_id":"levelo_inurba_marseille","lat":43.313291,"lon":5.396838,"is_reserved":false,"is_disabled":false,"rental_uris":{"android":"levelo://app?vid=961af791-ce80-4780-8123-07223dca3aae","ios":"levelo://app?vid=961af791-ce80-4780-8123-07223dca3aae"},"vehicle_type_id":"4","last_reported":1706648814,"current_range_meters":14000,"station_id":"ce4bgvp2rcd13ifvqcu0","pricing_plan_id":"free"},{"bike_id":"6a4d6e3c-422a-457f-b27b-2d58bdc5c0c6","system_id":"levelo_inurba_marseille","lat":43.30891,"lon":5.39652,"is_reserved":false,"is_disabled":false,"rental_uris":{"android":"levelo://app?vid=6a4d6e3c-422a-457f-b27b-2d58bdc5c0c6","ios":"levelo://app?vid=6a4d6e3c-422a-457f-b27b-2d58bdc5c0c6"},"vehicle_type_id":"4","last_reported":1706648814,"current_range_meters":17200,"station_id":"ce4bh012rcd13ifvqcv0","pricing_plan_id":"free"},{"bike_id":"2e0c5069-3577-4b65-9bc2-e4d774d1fe84","system_id":"levelo_inurba_marseille","lat":43.309038,"lon":5.396546,"is_reserved":false,"is_disabled":false,"rental_uris":{"android":"levelo://app?vid=2e0c5069-3577-4b65-9bc2-e4d774d1fe84","ios":"levelo://app?vid=2e0c5069-3577-4b65-9bc2-e4d774d1fe84"},"vehicle_type_id":"4","last_reported":1706648814,"current_range_meters":21600,"station_id":"ce4bh012rcd13ifvqcv0","pricing_plan_id":"free"},{"bike_id":"1c9ce51b-33d4-41ff-a491-07c4b0b68cb0","system_id":"levelo_inurba_marseille","lat":43.31326,"lon":5.39698,"is_reserved":false,"is_disabled":false,"rental_uris":{"android":"levelo://app?vid=1c9ce51b-33d4-41ff-a491-07c4b0b68cb0","ios":"levelo://app?vid=1c9ce51b-33d4-41ff-a491-07c4b0b68cb0"},"vehicle_type_id":"4","last_reported":1706648814,"current_range_meters":5200,"station_id":"ce4bgvp2rcd13ifvqcu0","pricing_plan_id":"free"},{"bike_id":"a81ffb1d-f7f4-41a9-a4d4-6a804b0f144a","system_id":"levelo_inurba_marseille","lat":43.313291,"lon":5.396838,"is_reserved":false,"is_disabled":false,"rental_uris":{"android":"levelo://app?vid=a81ffb1d-f7f4-41a9-a4d4-6a804b0f144a","ios":"levelo://app?vid=a81ffb1d-f7f4-41a9-a4d4-6a804b0f144a"},"vehicle_type_id":"4","last_reported":1706648814,"current_range_meters":18000,"station_id":"ce4bgvp2rcd13ifvqcu0","pricing_plan_id":"free"},{"bike_id":"5e982d82-ffd2-429b-9293-aeec111668e4","system_id":"levelo_inurba_marseille","lat":43.309038,"lon":5.396546,"is_reserved":false,"is_disabled":false,"rental_uris":{"android":"levelo://app?vid=5e982d82-ffd2-429b-9293-aeec111668e4","ios":"levelo://app?vid=5e982d82-ffd2-429b-9293-aeec111668e4"},"vehicle_type_id":"4","last_reported":1706648814,"current_range_meters":11200,"station_id":"ce4bh012rcd13ifvqcv0","pricing_plan_id":"free"},{"bike_id":"1e9ebea3-1c90-403d-a389-255819a2c3df","system_id":"levelo_inurba_marseille","lat":43.30886,"lon":5.39652,"is_reserved":false,"is_disabled":false,"rental_uris":{"android":"levelo://app?vid=1e9ebea3-1c90-403d-a389-255819a2c3df","ios":"levelo://app?vid=1e9ebea3-1c90-403d-a389-255819a2c3df"},"vehicle_type_id":"4","last_reported":1706648814,"current_range_meters":0,"station_id":"ce4bh012rcd13ifvqcv0","pricing_plan_id":"free"},{"bike_id":"067a3f54-cdb1-4351-888c-7235aaac275f","system_id":"levelo_inurba_marseille","lat":43.313291,"lon":5.396838,"is_reserved":false,"is_disabled":false,"rental_uris":{"android":"levelo://app?vid=067a3f54-cdb1-4351-888c-7235aaac275f","ios":"levelo://app?vid=067a3f54-cdb1-4351-888c-7235aaac275f"},"vehicle_type_id":"4","last_reported":1706648814,"current_range_meters":5600,"station_id":"ce4bgvp2rcd13ifvqcu0","pricing_plan_id":"free"},{"bike_id":"96772678-d17a-43c2-a5f2-9de991a51cc0","system_id":"levelo_inurba_marseille","lat":43.30835,"lon":5.39639,"is_reserved":false,"is_disabled":false,"rental_uris":{"android":"levelo://app?vid=96772678-d17a-43c2-a5f2-9de991a51cc0","ios":"levelo://app?vid=96772678-d17a-43c2-a5f2-9de991a51cc0"},"vehicle_type_id":"4","last_reported":1706648814,"current_range_meters":24800,"station_id":"ce4bh012rcd13ifvqcv0","pricing_plan_id":"free"},{"bike_id":"79a84e50-340f-4796-8e81-e36a91cc5577","system_id":"levelo_inurba_marseille","lat":43.309038,"lon":5.396546,"is_reserved":false,"is_disabled":false,"rental_uris":{"android":"levelo://app?vid=79a84e50-340f-4796-8e81-e36a91cc5577","ios":"levelo://app?vid=79a84e50-340f-4796-8e81-e36a91cc5577"},"vehicle_type_id":"4","last_reported":1706648814,"current_range_meters":18000,"station_id":"ce4bh012rcd13ifvqcv0","pricing_plan_id":"free"},{"bike_id":"4970a1f1-2562-4cd9-ae69-8b029fbc1985","system_id":"levelo_inurba_marseille","lat":43.313291,"lon":5.396838,"is_reserved":false,"is_disabled":false,"rental_uris":{"android":"levelo://app?vid=4970a1f1-2562-4cd9-ae69-8b029fbc1985","ios":"levelo://app?vid=4970a1f1-2562-4cd9-ae69-8b029fbc1985"},"vehicle_type_id":"4","last_reported":1706648814,"current_range_meters":18000,"station_id":"ce4bgvp2rcd13ifvqcu0","pricing_plan_id":"free"},{"bike_id":"2ffc279e-2799-4474-8220-0a993408586f","system_id":"levelo_inurba_marseille","lat":43.313291,"lon":5.396838,"is_reserved":false,"is_disabled":false,"rental_uris":{"android":"levelo://app?vid=2ffc279e-2799-4474-8220-0a993408586f","ios":"levelo://app?vid=2ffc279e-2799-4474-8220-0a993408586f"},"vehicle_type_id":"4","last_reported":1706648814,"current_range_meters":31200,"station_id":"ce4bgvp2rcd13ifvqcu0","pricing_plan_id":"free"},{"bike_id":"33c94b88-26d4-4311-af85-1825f528c93a","system_id":"levelo_inurba_marseille","lat":43.30881,"lon":5.39652,"is_reserved":false,"is_disabled":false,"rental_uris":{"android":"levelo://app?vid=33c94b88-26d4-4311-af85-1825f528c93a","ios":"levelo://app?vid=33c94b88-26d4-4311-af85-1825f528c93a"},"vehicle_type_id":"4","last_reported":1706648814,"current_range_meters":11600,"station_id":"ce4bh012rcd13ifvqcv0","pricing_plan_id":"free"},{"bike_id":"00d1de33-9991-4236-84b0-31936a458efe","system_id":"levelo_inurba_marseille","lat":43.313291,"lon":5.396838,"is_reserved":false,"is_disabled":false,"rental_uris":{"android":"levelo://app?vid=00d1de33-9991-4236-84b0-31936a458efe","ios":"levelo://app?vid=00d1de33-9991-4236-84b0-31936a458efe"},"vehicle_type_id":"4","last_reported":1706648814,"current_range_meters":4800,"station_id":"ce4bgvp2rcd13ifvqcu0","pricing_plan_id":"free"},{"bike_id":"feeb888a-249a-48c9-9c30-faafc06cbb32","system_id":"levelo_inurba_marseille","lat":43.313291,"lon":5.396838,"is_reserved":false,"is_disabled":false,"rental_uris":{"android":"levelo://app?vid=feeb888a-249a-48c9-9c30-faafc06cbb32","ios":"levelo://app?vid=feeb888a-249a-48c9-9c30-faafc06cbb32"},"vehicle_type_id":"4","last_reported":1706648814,"current_range_meters":17200,"station_id":"ce4bgvp2rcd13ifvqcu0","pricing_plan_id":"free"},{"bike_id":"ae9e9f64-f78e-4c23-9ebc-d9a59be25849","system_id":"levelo_inurba_marseille","lat":43.309038,"lon":5.396546,"is_reserved":false,"is_disabled":false,"rental_uris":{"android":"levelo://app?vid=ae9e9f64-f78e-4c23-9ebc-d9a59be25849","ios":"levelo://app?vid=ae9e9f64-f78e-4c23-9ebc-d9a59be25849"},"vehicle_type_id":"4","last_reported":1706648814,"current_range_meters":22800,"station_id":"ce4bh012rcd13ifvqcv0","pricing_plan_id":"free"},{"bike_id":"6c7e1c9a-57cb-4109-b0b9-8f343f78204f","system_id":"levelo_inurba_marseille","lat":43.308825,"lon":5.396566,"is_reserved":false,"is_disabled":false,"rental_uris":{"android":"levelo://app?vid=6c7e1c9a-57cb-4109-b0b9-8f343f78204f","ios":"levelo://app?vid=6c7e1c9a-57cb-4109-b0b9-8f343f78204f"},"vehicle_type_id":"4","last_reported":1706648814,"current_range_meters":400,"station_id":"ce4bh012rcd13ifvqcv0","pricing_plan_id":"free"},{"bike_id":"98dd1f16-4b5b-42e3-b32b-e17d5f9296dd","system_id":"levelo_inurba_marseille","lat":43.30881,"lon":5.39658,"is_reserved":false,"is_disabled":false,"rental_uris":{"android":"levelo://app?vid=98dd1f16-4b5b-42e3-b32b-e17d5f9296dd","ios":"levelo://app?vid=98dd1f16-4b5b-42e3-b32b-e17d5f9296dd"},"vehicle_type_id":"4","last_reported":1706648814,"current_range_meters":17600,"station_id":"ce4bh012rcd13ifvqcv0","pricing_plan_id":"free"},{"bike_id":"8b48477a-e6c5-4213-8ec6-6cb2e4fa8c3a","system_id":"levelo_inurba_marseille","lat":43.29529,"lon":5.385581,"is_reserved":false,"is_disabled":false,"rental_uris":{"android":"levelo://app?vid=8b48477a-e6c5-4213-8ec6-6cb2e4fa8c3a","ios":"levelo://app?vid=8b48477a-e6c5-4213-8ec6-6cb2e4fa8c3a"},"vehicle_type_id":"4","last_reported":1706648814,"current_range_meters":22800,"station_id":"ce4bgih2rcd13ifvqba0","pricing_plan_id":"free"},{"bike_id":"30d409cb-c5ae-4460-a6e3-959aeaa6e2b2","system_id":"levelo_inurba_marseille","lat":43.29529,"lon":5.385581,"is_reserved":false,"is_disabled":false,"rental_uris":{"android":"levelo://app?vid=30d409cb-c5ae-4460-a6e3-959aeaa6e2b2","ios":"levelo://app?vid=30d409cb-c5ae-4460-a6e3-959aeaa6e2b2"},"vehicle_type_id":"4","last_reported":1706648814,"current_range_meters":31200,"station_id":"ce4bgih2rcd13ifvqba0","pricing_plan_id":"free"},{"bike_id":"a2c5a250-91bb-4fda-b81a-70a640a74588","system_id":"levelo_inurba_marseille","lat":43.29529,"lon":5.385581,"is_reserved":false,"is_disabled":false,"rental_uris":{"android":"levelo://app?vid=a2c5a250-91bb-4fda-b81a-70a640a74588","ios":"levelo://app?vid=a2c5a250-91bb-4fda-b81a-70a640a74588"},"vehicle_type_id":"4","last_reported":1706648814,"current_range_meters":13200,"station_id":"ce4bgih2rcd13ifvqba0","pricing_plan_id":"free"},{"bike_id":"cd98266d-fd23-43d2-92b6-61acfc94761e","system_id":"levelo_inurba_marseille","lat":43.29529,"lon":5.385581,"is_reserved":false,"is_disabled":false,"rental_uris":{"android":"levelo://app?vid=cd98266d-fd23-43d2-92b6-61acfc94761e","ios":"levelo://app?vid=cd98266d-fd23-43d2-92b6-61acfc94761e"},"vehicle_type_id":"4","last_reported":1706648814,"current_range_meters":4800,"station_id":"ce4bgih2rcd13ifvqba0","pricing_plan_id":"free"},{"bike_id":"0c065b9c-179b-4f26-9054-2422ac6c6128","system_id":"levelo_inurba_marseille","lat":43.29529,"lon":5.385581,"is_reserved":false,"is_disabled":false,"rental_uris":{"android":"levelo://app?vid=0c065b9c-179b-4f26-9054-2422ac6c6128","ios":"levelo://app?vid=0c065b9c-179b-4f26-9054-2422ac6c6128"},"vehicle_type_id":"4","last_reported":1706648814,"current_range_meters":16800,"station_id":"ce4bgih2rcd13ifvqba0","pricing_plan_id":"free"},{"bike_id":"5f5315e5-cf07-4dac-8711-2cd30c2ebf41","system_id":"levelo_inurba_marseille","lat":43.29529,"lon":5.385581,"is_reserved":false,"is_disabled":false,"rental_uris":{"android":"levelo://app?vid=5f5315e5-cf07-4dac-8711-2cd30c2ebf41","ios":"levelo://app?vid=5f5315e5-cf07-4dac-8711-2cd30c2ebf41"},"vehicle_type_id":"4","last_reported":1706648814,"current_range_meters":24800,"station_id":"ce4bgih2rcd13ifvqba0","pricing_plan_id":"free"},{"bike_id":"968fdc00-b9a2-4b76-a28f-cef0aa2741b0","system_id":"levelo_inurba_marseille","lat":43.302008,"lon":5.394694,"is_reserved":false,"is_disabled":false,"rental_uris":{"android":"levelo://app?vid=968fdc00-b9a2-4b76-a28f-cef0aa2741b0","ios":"levelo://app?vid=968fdc00-b9a2-4b76-a28f-cef0aa2741b0"},"vehicle_type_id":"4","last_reported":1706648814,"current_range_meters":11600,"station_id":"ce4bh0p2rcd13ifvqd70","pricing_plan_id":"free"},{"bike_id":"7981674f-8f03-4f12-87ac-5e803884f790","system_id":"levelo_inurba_marseille","lat":43.290624,"lon":5.359245,"is_reserved":false,"is_disabled":false,"rental_uris":{"android":"levelo://app?vid=7981674f-8f03-4f12-87ac-5e803884f790","ios":"levelo://app?vid=7981674f-8f03-4f12-87ac-5e803884f790"},"vehicle_type_id":"4","last_reported":1706648814,"current_range_meters":15600,"station_id":"ce4bha92rcd13ifvqeg0","pricing_plan_id":"free"},{"bike_id":"f4114f7a-9904-4b6a-ae2a-31cef0a3d867","system_id":"levelo_inurba_marseille","lat":43.290624,"lon":5.359245,"is_reserved":false,"is_disabled":false,"rental_uris":{"android":"levelo://app?vid=f4114f7a-9904-4b6a-ae2a-31cef0a3d867","ios":"levelo://app?vid=f4114f7a-9904-4b6a-ae2a-31cef0a3d867"},"vehicle_type_id":"4","last_reported":1706648814,"current_range_meters":17200,"station_id":"ce4bha92rcd13ifvqeg0","pricing_plan_id":"free"},{"bike_id":"2c1e47ad-3478-424c-8c66-23a600b1f0dc","system_id":"levelo_inurba_marseille","lat":43.290441,"lon":5.359123,"is_reserved":false,"is_disabled":false,"rental_uris":{"android":"levelo://app?vid=2c1e47ad-3478-424c-8c66-23a600b1f0dc","ios":"levelo://app?vid=2c1e47ad-3478-424c-8c66-23a600b1f0dc"},"vehicle_type_id":"4","last_reported":1706648814,"current_range_meters":16800,"station_id":"","pricing_plan_id":"free"},{"bike_id":"cda0563a-42fc-473e-b153-5fcb343d6b15","system_id":"levelo_inurba_marseille","lat":43.289989,"lon":5.372904,"is_reserved":false,"is_disabled":false,"rental_uris":{"android":"levelo://app?vid=cda0563a-42fc-473e-b153-5fcb343d6b15","ios":"levelo://app?vid=cda0563a-42fc-473e-b153-5fcb343d6b15"},"vehicle_type_id":"4","last_reported":1706648814,"current_range_meters":14000,"station_id":"","pricing_plan_id":"free"},{"bike_id":"ef23c751-0999-42b8-99f0-1d3536edc333","system_id":"levelo_inurba_marseille","lat":43.289184,"lon":5.366408,"is_reserved":false,"is_disabled":false,"rental_uris":{"android":"levelo://app?vid=ef23c751-0999-42b8-99f0-1d3536edc333","ios":"levelo://app?vid=ef23c751-0999-42b8-99f0-1d3536edc333"},"vehicle_type_id":"4","last_reported":1706648814,"current_range_meters":24400,"station_id":"ce4bhap2rcd13ifvqek0","pricing_plan_id":"free"},{"bike_id":"7dc3d1a6-3944-4cb2-8991-00a236fcb1af","system_id":"levelo_inurba_marseille","lat":43.289184,"lon":5.366408,"is_reserved":false,"is_disabled":false,"rental_uris":{"android":"levelo://app?vid=7dc3d1a6-3944-4cb2-8991-00a236fcb1af","ios":"levelo://app?vid=7dc3d1a6-3944-4cb2-8991-00a236fcb1af"},"vehicle_type_id":"4","last_reported":1706648814,"current_range_meters":0,"station_id":"ce4bhap2rcd13ifvqek0","pricing_plan_id":"free"},{"bike_id":"99d06b10-10f6-44b7-bb3a-e1b3e2212556","system_id":"levelo_inurba_marseille","lat":43.304296,"lon":5.397513,"is_reserved":false,"is_disabled":false,"rental_uris":{"android":"levelo://app?vid=99d06b10-10f6-44b7-bb3a-e1b3e2212556","ios":"levelo://app?vid=99d06b10-10f6-44b7-bb3a-e1b3e2212556"},"vehicle_type_id":"4","last_reported":1706648814,"current_range_meters":20000,"station_id":"ce4bh092rcd13ifvqd20","pricing_plan_id":"free"},{"bike_id":"32239175-1969-47fc-ada3-95ef9bf3f02b","system_id":"levelo_inurba_marseille","lat":43.304296,"lon":5.397513,"is_reserved":false,"is_disabled":false,"rental_uris":{"android":"levelo://app?vid=32239175-1969-47fc-ada3-95ef9bf3f02b","ios":"levelo://app?vid=32239175-1969-47fc-ada3-95ef9bf3f02b"},"vehicle_type_id":"4","last_reported":1706648814,"current_range_meters":3200,"station_id":"ce4bh092rcd13ifvqd20","pricing_plan_id":"free"},{"bike_id":"42bf7cb0-1649-4c56-99f9-706ead73401a","system_id":"levelo_inurba_marseille","lat":43.30431,"lon":5.39745,"is_reserved":false,"is_disabled":false,"rental_uris":{"android":"levelo://app?vid=42bf7cb0-1649-4c56-99f9-706ead73401a","ios":"levelo://app?vid=42bf7cb0-1649-4c56-99f9-706ead73401a"},"vehicle_type_id":"4","last_reported":1706648814,"current_range_meters":0,"station_id":"ce4bh092rcd13ifvqd20","pricing_plan_id":"free"},{"bike_id":"47c46e8c-0590-475c-bd7f-19a87d29a73a","system_id":"levelo_inurba_marseille","lat":43.290104,"lon":5.356111,"is_reserved":false,"is_disabled":false,"rental_uris":{"android":"levelo://app?vid=47c46e8c-0590-475c-bd7f-19a87d29a73a","ios":"levelo://app?vid=47c46e8c-0590-475c-bd7f-19a87d29a73a"},"vehicle_type_id":"4","last_reported":1706648814,"current_range_meters":27200,"station_id":"ce4bhb92rcd13ifvqen0","pricing_plan_id":"free"},{"bike_id":"45c27a85-1e2f-4f26-a2da-7f8c52cc61ff","system_id":"levelo_inurba_marseille","lat":43.29098,"lon":5.3813,"is_reserved":false,"is_disabled":false,"rental_uris":{"android":"levelo://app?vid=45c27a85-1e2f-4f26-a2da-7f8c52cc61ff","ios":"levelo://app?vid=45c27a85-1e2f-4f26-a2da-7f8c52cc61ff"},"vehicle_type_id":"4","last_reported":1706648814,"current_range_meters":0,"station_id":"ce4bh512rcd13ifvqe2g","pricing_plan_id":"free"},{"bike_id":"0120c52d-e053-4dce-879b-253823978316","system_id":"levelo_inurba_marseille","lat":43.290995,"lon":5.381361,"is_reserved":false,"is_disabled":false,"rental_uris":{"android":"levelo://app?vid=0120c52d-e053-4dce-879b-253823978316","ios":"levelo://app?vid=0120c52d-e053-4dce-879b-253823978316"},"vehicle_type_id":"4","last_reported":1706648814,"current_range_meters":2800,"station_id":"ce4bh512rcd13ifvqe2g","pricing_plan_id":"free"},{"bike_id":"33b6c4cb-c69f-45cd-9299-29474221cbf2","system_id":"levelo_inurba_marseille","lat":43.289743,"lon":5.378304,"is_reserved":false,"is_disabled":false,"rental_uris":{"android":"levelo://app?vid=33b6c4cb-c69f-45cd-9299-29474221cbf2","ios":"levelo://app?vid=33b6c4cb-c69f-45cd-9299-29474221cbf2"},"vehicle_type_id":"4","last_reported":1706648814,"current_range_meters":11600,"station_id":"ce4bh9p2rcd13ifvqed0","pricing_plan_id":"free"},{"bike_id":"1cda45eb-e1de-4e0b-af66-aaf8b66fa953","system_id":"levelo_inurba_marseille","lat":43.297815,"lon":5.393548,"is_reserved":false,"is_disabled":false,"rental_uris":{"android":"levelo://app?vid=1cda45eb-e1de-4e0b-af66-aaf8b66fa953","ios":"levelo://app?vid=1cda45eb-e1de-4e0b-af66-aaf8b66fa953"},"vehicle_type_id":"4","last_reported":1706648814,"current_range_meters":30000,"station_id":"chh1huq6cuj3fo74tm60","pricing_plan_id":"free"},{"bike_id":"2dedfd13-52e7-4c5b-8fdd-249e93600b4e","system_id":"levelo_inurba_marseille","lat":43.2979,"lon":5.39336,"is_reserved":false,"is_disabled":false,"rental_uris":{"android":"levelo://app?vid=2dedfd13-52e7-4c5b-8fdd-249e93600b4e","ios":"levelo://app?vid=2dedfd13-52e7-4c5b-8fdd-249e93600b4e"},"vehicle_type_id":"4","last_reported":1706648814,"current_range_meters":29200,"station_id":"chh1huq6cuj3fo74tm60","pricing_plan_id":"free"},{"bike_id":"685ca185-e0a4-4ecc-8357-36a6deeb3ec3","system_id":"levelo_inurba_marseille","lat":43.297937,"lon":5.393427,"is_reserved":false,"is_disabled":false,"rental_uris":{"android":"levelo://app?vid=685ca185-e0a4-4ecc-8357-36a6deeb3ec3","ios":"levelo://app?vid=685ca185-e0a4-4ecc-8357-36a6deeb3ec3"},"vehicle_type_id":"4","last_reported":1706648814,"current_range_meters":24800,"station_id":"chh1huq6cuj3fo74tm60","pricing_plan_id":"free"},{"bike_id":"e1144728-6a9c-4115-bd68-fbc4cfbd5978","system_id":"levelo_inurba_marseille","lat":43.297815,"lon":5.393548,"is_reserved":false,"is_disabled":false,"rental_uris":{"android":"levelo://app?vid=e1144728-6a9c-4115-bd68-fbc4cfbd5978","ios":"levelo://app?vid=e1144728-6a9c-4115-bd68-fbc4cfbd5978"},"vehicle_type_id":"4","last_reported":1706648814,"current_range_meters":12800,"station_id":"chh1huq6cuj3fo74tm60","pricing_plan_id":"free"},{"bike_id":"dc10f011-32d1-446a-8185-e3eedcce9c6e","system_id":"levelo_inurba_marseille","lat":43.297815,"lon":5.393548,"is_reserved":false,"is_disabled":false,"rental_uris":{"android":"levelo://app?vid=dc10f011-32d1-446a-8185-e3eedcce9c6e","ios":"levelo://app?vid=dc10f011-32d1-446a-8185-e3eedcce9c6e"},"vehicle_type_id":"4","last_reported":1706648814,"current_range_meters":26800,"station_id":"chh1huq6cuj3fo74tm60","pricing_plan_id":"free"},{"bike_id":"f348da9d-942f-4d4c-9ee2-1bc22cf072c0","system_id":"levelo_inurba_marseille","lat":43.29787,"lon":5.39343,"is_reserved":false,"is_disabled":false,"rental_uris":{"android":"levelo://app?vid=f348da9d-942f-4d4c-9ee2-1bc22cf072c0","ios":"levelo://app?vid=f348da9d-942f-4d4c-9ee2-1bc22cf072c0"},"vehicle_type_id":"4","last_reported":1706648814,"current_range_meters":9200,"station_id":"chh1huq6cuj3fo74tm60","pricing_plan_id":"free"},{"bike_id":"5a548447-bd0b-486b-a4e1-a9eb6ff12415","system_id":"levelo_inurba_marseille","lat":43.289743,"lon":5.378304,"is_reserved":false,"is_disabled":false,"rental_uris":{"android":"levelo://app?vid=5a548447-bd0b-486b-a4e1-a9eb6ff12415","ios":"levelo://app?vid=5a548447-bd0b-486b-a4e1-a9eb6ff12415"},"vehicle_type_id":"4","last_reported":1706648814,"current_range_meters":13600,"station_id":"ce4bh9p2rcd13ifvqed0","pricing_plan_id":"free"},{"bike_id":"0881d2d9-aeb8-4abf-ba78-43949cd6c0c2","system_id":"levelo_inurba_marseille","lat":43.297925,"lon":5.393506,"is_reserved":false,"is_disabled":false,"rental_uris":{"android":"levelo://app?vid=0881d2d9-aeb8-4abf-ba78-43949cd6c0c2","ios":"levelo://app?vid=0881d2d9-aeb8-4abf-ba78-43949cd6c0c2"},"vehicle_type_id":"4","last_reported":1706648814,"current_range_meters":31600,"station_id":"","pricing_plan_id":"free"},{"bike_id":"ace9cfba-9681-4541-baa9-be25a65d97ca","system_id":"levelo_inurba_marseille","lat":43.297815,"lon":5.393548,"is_reserved":false,"is_disabled":false,"rental_uris":{"android":"levelo://app?vid=ace9cfba-9681-4541-baa9-be25a65d97ca","ios":"levelo://app?vid=ace9cfba-9681-4541-baa9-be25a65d97ca"},"vehicle_type_id":"4","last_reported":1706648814,"current_range_meters":26000,"station_id":"chh1huq6cuj3fo74tm60","pricing_plan_id":"free"},{"bike_id":"9c7a9839-bda3-4c8b-b68c-6ac3367bbc8e","system_id":"levelo_inurba_marseille","lat":43.330442,"lon":5.389148,"is_reserved":false,"is_disabled":false,"rental_uris":{"android":"levelo://app?vid=9c7a9839-bda3-4c8b-b68c-6ac3367bbc8e","ios":"levelo://app?vid=9c7a9839-bda3-4c8b-b68c-6ac3367bbc8e"},"vehicle_type_id":"4","last_reported":1706648814,"current_range_meters":24800,"station_id":"ce4bhr92rcd13ifvqhrg","pricing_plan_id":"free"},{"bike_id":"f33b4bb7-7bd1-4879-8f43-fe58797c302b","system_id":"levelo_inurba_marseille","lat":43.29787,"lon":5.39347,"is_reserved":false,"is_disabled":false,"rental_uris":{"android":"levelo://app?vid=f33b4bb7-7bd1-4879-8f43-fe58797c302b","ios":"levelo://app?vid=f33b4bb7-7bd1-4879-8f43-fe58797c302b"},"vehicle_type_id":"4","last_reported":1706648814,"current_range_meters":1200,"station_id":"chh1huq6cuj3fo74tm60","pricing_plan_id":"free"},{"bike_id":"fa93fe06-6f7e-4ebd-80e2-b3f0429e1a8a","system_id":"levelo_inurba_marseille","lat":43.289743,"lon":5.378304,"is_reserved":false,"is_disabled":false,"rental_uris":{"android":"levelo://app?vid=fa93fe06-6f7e-4ebd-80e2-b3f0429e1a8a","ios":"levelo://app?vid=fa93fe06-6f7e-4ebd-80e2-b3f0429e1a8a"},"vehicle_type_id":"4","last_reported":1706648814,"current_range_meters":12800,"station_id":"ce4bh9p2rcd13ifvqed0","pricing_plan_id":"free"},{"bike_id":"e9727c13-2f65-483b-8647-4f0d87fc4df2","system_id":"levelo_inurba_marseille","lat":43.28982,"lon":5.37842,"is_reserved":false,"is_disabled":false,"rental_uris":{"android":"levelo://app?vid=e9727c13-2f65-483b-8647-4f0d87fc4df2","ios":"levelo://app?vid=e9727c13-2f65-483b-8647-4f0d87fc4df2"},"vehicle_type_id":"4","last_reported":1706648814,"current_range_meters":24400,"station_id":"ce4bh9p2rcd13ifvqed0","pricing_plan_id":"free"},{"bike_id":"349e1617-01de-4b76-8d7b-9a298dd1c597","system_id":"levelo_inurba_marseille","lat":43.29778,"lon":5.39343,"is_reserved":false,"is_disabled":false,"rental_uris":{"android":"levelo://app?vid=349e1617-01de-4b76-8d7b-9a298dd1c597","ios":"levelo://app?vid=349e1617-01de-4b76-8d7b-9a298dd1c597"},"vehicle_type_id":"4","last_reported":1706648814,"current_range_meters":24400,"station_id":"chh1huq6cuj3fo74tm60","pricing_plan_id":"free"},{"bike_id":"54340ca4-c385-46ed-b279-556ae3d847cc","system_id":"levelo_inurba_marseille","lat":43.330442,"lon":5.389148,"is_reserved":false,"is_disabled":false,"rental_uris":{"android":"levelo://app?vid=54340ca4-c385-46ed-b279-556ae3d847cc","ios":"levelo://app?vid=54340ca4-c385-46ed-b279-556ae3d847cc"},"vehicle_type_id":"4","last_reported":1706648814,"current_range_meters":13600,"station_id":"ce4bhr92rcd13ifvqhrg","pricing_plan_id":"free"},{"bike_id":"3888f80c-9d5f-4485-9905-375e86c010c2","system_id":"levelo_inurba_marseille","lat":43.289743,"lon":5.378304,"is_reserved":false,"is_disabled":false,"rental_uris":{"android":"levelo://app?vid=3888f80c-9d5f-4485-9905-375e86c010c2","ios":"levelo://app?vid=3888f80c-9d5f-4485-9905-375e86c010c2"},"vehicle_type_id":"4","last_reported":1706648814,"current_range_meters":20000,"station_id":"ce4bh9p2rcd13ifvqed0","pricing_plan_id":"free"},{"bike_id":"ce25c0cc-b379-4b1d-aa28-bc65b697b0fb","system_id":"levelo_inurba_marseille","lat":43.330442,"lon":5.389148,"is_reserved":false,"is_disabled":false,"rental_uris":{"android":"levelo://app?vid=ce25c0cc-b379-4b1d-aa28-bc65b697b0fb","ios":"levelo://app?vid=ce25c0cc-b379-4b1d-aa28-bc65b697b0fb"},"vehicle_type_id":"4","last_reported":1706648814,"current_range_meters":0,"station_id":"ce4bhr92rcd13ifvqhrg","pricing_plan_id":"free"},{"bike_id":"c11dfe63-9dbc-402f-84ab-8b8317733a63","system_id":"levelo_inurba_marseille","lat":43.330442,"lon":5.389148,"is_reserved":false,"is_disabled":false,"rental_uris":{"android":"levelo://app?vid=c11dfe63-9dbc-402f-84ab-8b8317733a63","ios":"levelo://app?vid=c11dfe63-9dbc-402f-84ab-8b8317733a63"},"vehicle_type_id":"4","last_reported":1706648814,"current_range_meters":400,"station_id":"ce4bhr92rcd13ifvqhrg","pricing_plan_id":"free"},{"bike_id":"d886f36e-218b-497f-bf3c-7716ce70d8cc","system_id":"levelo_inurba_marseille","lat":43.330442,"lon":5.389148,"is_reserved":false,"is_disabled":false,"rental_uris":{"android":"levelo://app?vid=d886f36e-218b-497f-bf3c-7716ce70d8cc","ios":"levelo://app?vid=d886f36e-218b-497f-bf3c-7716ce70d8cc"},"vehicle_type_id":"4","last_reported":1706648814,"current_range_meters":2400,"station_id":"ce4bhr92rcd13ifvqhrg","pricing_plan_id":"free"},{"bike_id":"43244c99-5db6-42f7-9190-d887fb9e70d9","system_id":"levelo_inurba_marseille","lat":43.33028,"lon":5.39065,"is_reserved":false,"is_disabled":false,"rental_uris":{"android":"levelo://app?vid=43244c99-5db6-42f7-9190-d887fb9e70d9","ios":"levelo://app?vid=43244c99-5db6-42f7-9190-d887fb9e70d9"},"vehicle_type_id":"4","last_reported":1706648814,"current_range_meters":18000,"station_id":"ce4bhr92rcd13ifvqhrg","pricing_plan_id":"free"},{"bike_id":"ff6936eb-b659-44d1-beff-23c802414e03","system_id":"levelo_inurba_marseille","lat":43.28856,"lon":5.358371,"is_reserved":false,"is_disabled":false,"rental_uris":{"android":"levelo://app?vid=ff6936eb-b659-44d1-beff-23c802414e03","ios":"levelo://app?vid=ff6936eb-b659-44d1-beff-23c802414e03"},"vehicle_type_id":"4","last_reported":1706648814,"current_range_meters":5600,"station_id":"ce4bhb12rcd13ifvqem0","pricing_plan_id":"free"},{"bike_id":"8a0be387-e59a-4e28-b0df-7e795def2c7b","system_id":"levelo_inurba_marseille","lat":43.28856,"lon":5.358371,"is_reserved":false,"is_disabled":false,"rental_uris":{"android":"levelo://app?vid=8a0be387-e59a-4e28-b0df-7e795def2c7b","ios":"levelo://app?vid=8a0be387-e59a-4e28-b0df-7e795def2c7b"},"vehicle_type_id":"4","last_reported":1706648814,"current_range_meters":30400,"station_id":"ce4bhb12rcd13ifvqem0","pricing_plan_id":"free"},{"bike_id":"24bca81d-f76b-46b1-ad04-20c7073dfe30","system_id":"levelo_inurba_marseille","lat":43.28856,"lon":5.358371,"is_reserved":false,"is_disabled":false,"rental_uris":{"android":"levelo://app?vid=24bca81d-f76b-46b1-ad04-20c7073dfe30","ios":"levelo://app?vid=24bca81d-f76b-46b1-ad04-20c7073dfe30"},"vehicle_type_id":"4","last_reported":1706648814,"current_range_meters":26800,"station_id":"ce4bhb12rcd13ifvqem0","pricing_plan_id":"free"},{"bike_id":"69be143d-2d2b-4a08-a569-4d0efe66087e","system_id":"levelo_inurba_marseille","lat":43.28856,"lon":5.358371,"is_reserved":false,"is_disabled":false,"rental_uris":{"android":"levelo://app?vid=69be143d-2d2b-4a08-a569-4d0efe66087e","ios":"levelo://app?vid=69be143d-2d2b-4a08-a569-4d0efe66087e"},"vehicle_type_id":"4","last_reported":1706648814,"current_range_meters":22800,"station_id":"ce4bhb12rcd13ifvqem0","pricing_plan_id":"free"},{"bike_id":"70770ecd-216a-467f-8858-7aa6679f1335","system_id":"levelo_inurba_marseille","lat":43.28856,"lon":5.358371,"is_reserved":false,"is_disabled":false,"rental_uris":{"android":"levelo://app?vid=70770ecd-216a-467f-8858-7aa6679f1335","ios":"levelo://app?vid=70770ecd-216a-467f-8858-7aa6679f1335"},"vehicle_type_id":"4","last_reported":1706648814,"current_range_meters":18000,"station_id":"ce4bhb12rcd13ifvqem0","pricing_plan_id":"free"},{"bike_id":"6db454f5-9b5a-42d5-8e7e-cd67710e219d","system_id":"levelo_inurba_marseille","lat":43.28856,"lon":5.358371,"is_reserved":false,"is_disabled":false,"rental_uris":{"android":"levelo://app?vid=6db454f5-9b5a-42d5-8e7e-cd67710e219d","ios":"levelo://app?vid=6db454f5-9b5a-42d5-8e7e-cd67710e219d"},"vehicle_type_id":"4","last_reported":1706648814,"current_range_meters":3600,"station_id":"ce4bhb12rcd13ifvqem0","pricing_plan_id":"free"},{"bike_id":"fbead97e-217a-40a6-89d2-77c35e008d0f","system_id":"levelo_inurba_marseille","lat":43.28856,"lon":5.358371,"is_reserved":false,"is_disabled":false,"rental_uris":{"android":"levelo://app?vid=fbead97e-217a-40a6-89d2-77c35e008d0f","ios":"levelo://app?vid=fbead97e-217a-40a6-89d2-77c35e008d0f"},"vehicle_type_id":"4","last_reported":1706648814,"current_range_meters":4800,"station_id":"ce4bhb12rcd13ifvqem0","pricing_plan_id":"free"},{"bike_id":"a410b630-21f0-488e-b5e2-14f05f8552fd","system_id":"levelo_inurba_marseille","lat":43.28856,"lon":5.358371,"is_reserved":false,"is_disabled":false,"rental_uris":{"android":"levelo://app?vid=a410b630-21f0-488e-b5e2-14f05f8552fd","ios":"levelo://app?vid=a410b630-21f0-488e-b5e2-14f05f8552fd"},"vehicle_type_id":"4","last_reported":1706648814,"current_range_meters":21200,"station_id":"ce4bhb12rcd13ifvqem0","pricing_plan_id":"free"},{"bike_id":"081bc955-479d-4116-b8a4-1b4fbbc24c2e","system_id":"levelo_inurba_marseille","lat":43.312609,"lon":5.401662,"is_reserved":false,"is_disabled":false,"rental_uris":{"android":"levelo://app?vid=081bc955-479d-4116-b8a4-1b4fbbc24c2e","ios":"levelo://app?vid=081bc955-479d-4116-b8a4-1b4fbbc24c2e"},"vehicle_type_id":"4","last_reported":1706648814,"current_range_meters":28400,"station_id":"ce4bh092rcd13ifvqd30","pricing_plan_id":"free"},{"bike_id":"9008239d-ce45-46c2-8381-3c063bd03566","system_id":"levelo_inurba_marseille","lat":43.33741,"lon":5.374597,"is_reserved":false,"is_disabled":false,"rental_uris":{"android":"levelo://app?vid=9008239d-ce45-46c2-8381-3c063bd03566","ios":"levelo://app?vid=9008239d-ce45-46c2-8381-3c063bd03566"},"vehicle_type_id":"4","last_reported":1706648814,"current_range_meters":17200,"station_id":"","pricing_plan_id":"free"},{"bike_id":"c9851bd7-15a6-40fb-9eb1-05e37b4d54d8","system_id":"levelo_inurba_marseille","lat":43.312609,"lon":5.401662,"is_reserved":false,"is_disabled":false,"rental_uris":{"android":"levelo://app?vid=c9851bd7-15a6-40fb-9eb1-05e37b4d54d8","ios":"levelo://app?vid=c9851bd7-15a6-40fb-9eb1-05e37b4d54d8"},"vehicle_type_id":"4","last_reported":1706648814,"current_range_meters":4000,"station_id":"ce4bh092rcd13ifvqd30","pricing_plan_id":"free"},{"bike_id":"d73ac2b3-8363-46c6-b908-f4f3c8f7ee35","system_id":"levelo_inurba_marseille","lat":43.312609,"lon":5.401662,"is_reserved":false,"is_disabled":false,"rental_uris":{"android":"levelo://app?vid=d73ac2b3-8363-46c6-b908-f4f3c8f7ee35","ios":"levelo://app?vid=d73ac2b3-8363-46c6-b908-f4f3c8f7ee35"},"vehicle_type_id":"4","last_reported":1706648814,"current_range_meters":3600,"station_id":"ce4bh092rcd13ifvqd30","pricing_plan_id":"free"},{"bike_id":"cbc70270-980a-48b9-94d4-53d6778afc7c","system_id":"levelo_inurba_marseille","lat":43.309371,"lon":5.401449,"is_reserved":false,"is_disabled":false,"rental_uris":{"android":"levelo://app?vid=cbc70270-980a-48b9-94d4-53d6778afc7c","ios":"levelo://app?vid=cbc70270-980a-48b9-94d4-53d6778afc7c"},"vehicle_type_id":"4","last_reported":1706648814,"current_range_meters":4000,"station_id":"ce4bgvp2rcd13ifvqct0","pricing_plan_id":"free"},{"bike_id":"ccd4d09d-aaef-44b5-8209-8a9183e20174","system_id":"levelo_inurba_marseille","lat":43.309371,"lon":5.401449,"is_reserved":false,"is_disabled":false,"rental_uris":{"android":"levelo://app?vid=ccd4d09d-aaef-44b5-8209-8a9183e20174","ios":"levelo://app?vid=ccd4d09d-aaef-44b5-8209-8a9183e20174"},"vehicle_type_id":"4","last_reported":1706648814,"current_range_meters":24400,"station_id":"ce4bgvp2rcd13ifvqct0","pricing_plan_id":"free"},{"bike_id":"9fa665cb-b57a-497b-914d-272056bde5b9","system_id":"levelo_inurba_marseille","lat":43.309371,"lon":5.401449,"is_reserved":false,"is_disabled":false,"rental_uris":{"android":"levelo://app?vid=9fa665cb-b57a-497b-914d-272056bde5b9","ios":"levelo://app?vid=9fa665cb-b57a-497b-914d-272056bde5b9"},"vehicle_type_id":"4","last_reported":1706648814,"current_range_meters":14400,"station_id":"ce4bgvp2rcd13ifvqct0","pricing_plan_id":"free"},{"bike_id":"d56eddc5-3b96-4e84-b7f6-c2c3591a5c40","system_id":"levelo_inurba_marseille","lat":43.309371,"lon":5.401449,"is_reserved":false,"is_disabled":false,"rental_uris":{"android":"levelo://app?vid=d56eddc5-3b96-4e84-b7f6-c2c3591a5c40","ios":"levelo://app?vid=d56eddc5-3b96-4e84-b7f6-c2c3591a5c40"},"vehicle_type_id":"4","last_reported":1706648814,"current_range_meters":14000,"station_id":"ce4bgvp2rcd13ifvqct0","pricing_plan_id":"free"},{"bike_id":"8f471953-2835-4a95-a318-680b1fd9c1b1","system_id":"levelo_inurba_marseille","lat":43.309371,"lon":5.401449,"is_reserved":false,"is_disabled":false,"rental_uris":{"android":"levelo://app?vid=8f471953-2835-4a95-a318-680b1fd9c1b1","ios":"levelo://app?vid=8f471953-2835-4a95-a318-680b1fd9c1b1"},"vehicle_type_id":"4","last_reported":1706648814,"current_range_meters":18800,"station_id":"ce4bgvp2rcd13ifvqct0","pricing_plan_id":"free"},{"bike_id":"9568d549-cf4a-4a77-847d-e813f0d6444b","system_id":"levelo_inurba_marseille","lat":43.306461,"lon":5.400781,"is_reserved":false,"is_disabled":false,"rental_uris":{"android":"levelo://app?vid=9568d549-cf4a-4a77-847d-e813f0d6444b","ios":"levelo://app?vid=9568d549-cf4a-4a77-847d-e813f0d6444b"},"vehicle_type_id":"4","last_reported":1706648814,"current_range_meters":400,"station_id":"ce4bh112rcd13ifvqda0","pricing_plan_id":"free"},{"bike_id":"e7f5de90-1e40-49b1-b842-fb030d7f55ee","system_id":"levelo_inurba_marseille","lat":43.3093,"lon":5.40156,"is_reserved":false,"is_disabled":false,"rental_uris":{"android":"levelo://app?vid=e7f5de90-1e40-49b1-b842-fb030d7f55ee","ios":"levelo://app?vid=e7f5de90-1e40-49b1-b842-fb030d7f55ee"},"vehicle_type_id":"4","last_reported":1706648814,"current_range_meters":0,"station_id":"ce4bgvp2rcd13ifvqct0","pricing_plan_id":"free"},{"bike_id":"c3a3eb4a-b836-4652-9c3a-fdf607119e88","system_id":"levelo_inurba_marseille","lat":43.306412,"lon":5.401035,"is_reserved":false,"is_disabled":false,"rental_uris":{"android":"levelo://app?vid=c3a3eb4a-b836-4652-9c3a-fdf607119e88","ios":"levelo://app?vid=c3a3eb4a-b836-4652-9c3a-fdf607119e88"},"vehicle_type_id":"4","last_reported":1706648814,"current_range_meters":25200,"station_id":"ce4bh112rcd13ifvqda0","pricing_plan_id":"free"},{"bike_id":"b7d3b81d-d85a-44b5-a0c7-8f9c9f74639e","system_id":"levelo_inurba_marseille","lat":43.337587,"lon":5.374576,"is_reserved":false,"is_disabled":false,"rental_uris":{"android":"levelo://app?vid=b7d3b81d-d85a-44b5-a0c7-8f9c9f74639e","ios":"levelo://app?vid=b7d3b81d-d85a-44b5-a0c7-8f9c9f74639e"},"vehicle_type_id":"4","last_reported":1706648814,"current_range_meters":18000,"station_id":"","pricing_plan_id":"free"},{"bike_id":"2fe24097-b1c2-4583-ba1f-cf8501171a4c","system_id":"levelo_inurba_marseille","lat":43.33755,"lon":5.37492,"is_reserved":false,"is_disabled":false,"rental_uris":{"android":"levelo://app?vid=2fe24097-b1c2-4583-ba1f-cf8501171a4c","ios":"levelo://app?vid=2fe24097-b1c2-4583-ba1f-cf8501171a4c"},"vehicle_type_id":"4","last_reported":1706648814,"current_range_meters":400,"station_id":"","pricing_plan_id":"free"},{"bike_id":"1facbbf3-baac-42f8-85eb-cb1e36f3e4b9","system_id":"levelo_inurba_marseille","lat":43.337573,"lon":5.37497,"is_reserved":false,"is_disabled":false,"rental_uris":{"android":"levelo://app?vid=1facbbf3-baac-42f8-85eb-cb1e36f3e4b9","ios":"levelo://app?vid=1facbbf3-baac-42f8-85eb-cb1e36f3e4b9"},"vehicle_type_id":"4","last_reported":1706648814,"current_range_meters":3600,"station_id":"","pricing_plan_id":"free"},{"bike_id":"42317b4c-ef6a-4c72-9d1d-4e9647790e67","system_id":"levelo_inurba_marseille","lat":43.306412,"lon":5.401035,"is_reserved":false,"is_disabled":false,"rental_uris":{"android":"levelo://app?vid=42317b4c-ef6a-4c72-9d1d-4e9647790e67","ios":"levelo://app?vid=42317b4c-ef6a-4c72-9d1d-4e9647790e67"},"vehicle_type_id":"4","last_reported":1706648814,"current_range_meters":21600,"station_id":"ce4bh112rcd13ifvqda0","pricing_plan_id":"free"},{"bike_id":"12568932-a9a7-4d52-8b2c-668683b75358","system_id":"levelo_inurba_marseille","lat":43.337617,"lon":5.374887,"is_reserved":false,"is_disabled":false,"rental_uris":{"android":"levelo://app?vid=12568932-a9a7-4d52-8b2c-668683b75358","ios":"levelo://app?vid=12568932-a9a7-4d52-8b2c-668683b75358"},"vehicle_type_id":"4","last_reported":1706648814,"current_range_meters":15600,"station_id":"","pricing_plan_id":"free"},{"bike_id":"0eecf6ab-a5d5-4bc0-b749-1002649d72b9","system_id":"levelo_inurba_marseille","lat":43.306412,"lon":5.401035,"is_reserved":false,"is_disabled":false,"rental_uris":{"android":"levelo://app?vid=0eecf6ab-a5d5-4bc0-b749-1002649d72b9","ios":"levelo://app?vid=0eecf6ab-a5d5-4bc0-b749-1002649d72b9"},"vehicle_type_id":"4","last_reported":1706648814,"current_range_meters":15600,"station_id":"ce4bh112rcd13ifvqda0","pricing_plan_id":"free"},{"bike_id":"e94f11de-6c7d-498f-8abf-d170e6a84a70","system_id":"levelo_inurba_marseille","lat":43.301117,"lon":5.398795,"is_reserved":false,"is_disabled":false,"rental_uris":{"android":"levelo://app?vid=e94f11de-6c7d-498f-8abf-d170e6a84a70","ios":"levelo://app?vid=e94f11de-6c7d-498f-8abf-d170e6a84a70"},"vehicle_type_id":"4","last_reported":1706648814,"current_range_meters":19200,"station_id":"ce4bh0h2rcd13ifvqd40","pricing_plan_id":"free"},{"bike_id":"5dbefc5b-1b28-4470-8c8c-aae7bfc29848","system_id":"levelo_inurba_marseille","lat":43.28727,"lon":5.36078,"is_reserved":false,"is_disabled":false,"rental_uris":{"android":"levelo://app?vid=5dbefc5b-1b28-4470-8c8c-aae7bfc29848","ios":"levelo://app?vid=5dbefc5b-1b28-4470-8c8c-aae7bfc29848"},"vehicle_type_id":"4","last_reported":1706648814,"current_range_meters":6400,"station_id":"cki0cbj6b192h4jlfktg","pricing_plan_id":"free"},{"bike_id":"c959d4c6-6ed9-4ea9-b8e6-9c9878134515","system_id":"levelo_inurba_marseille","lat":43.28727,"lon":5.36078,"is_reserved":false,"is_disabled":false,"rental_uris":{"android":"levelo://app?vid=c959d4c6-6ed9-4ea9-b8e6-9c9878134515","ios":"levelo://app?vid=c959d4c6-6ed9-4ea9-b8e6-9c9878134515"},"vehicle_type_id":"4","last_reported":1706648814,"current_range_meters":8800,"station_id":"cki0cbj6b192h4jlfktg","pricing_plan_id":"free"},{"bike_id":"55f7aa42-6920-44bf-af78-550869d4b484","system_id":"levelo_inurba_marseille","lat":43.301117,"lon":5.398795,"is_reserved":false,"is_disabled":false,"rental_uris":{"android":"levelo://app?vid=55f7aa42-6920-44bf-af78-550869d4b484","ios":"levelo://app?vid=55f7aa42-6920-44bf-af78-550869d4b484"},"vehicle_type_id":"4","last_reported":1706648814,"current_range_meters":11600,"station_id":"ce4bh0h2rcd13ifvqd40","pricing_plan_id":"free"},{"bike_id":"24cc31c5-1c33-4f46-b261-588e82e42f2d","system_id":"levelo_inurba_marseille","lat":43.301117,"lon":5.398795,"is_reserved":false,"is_disabled":false,"rental_uris":{"android":"levelo://app?vid=24cc31c5-1c33-4f46-b261-588e82e42f2d","ios":"levelo://app?vid=24cc31c5-1c33-4f46-b261-588e82e42f2d"},"vehicle_type_id":"4","last_reported":1706648814,"current_range_meters":17200,"station_id":"ce4bh0h2rcd13ifvqd40","pricing_plan_id":"free"},{"bike_id":"b324fdab-7869-4494-93a6-04c80673bdea","system_id":"levelo_inurba_marseille","lat":43.28727,"lon":5.36078,"is_reserved":false,"is_disabled":false,"rental_uris":{"android":"levelo://app?vid=b324fdab-7869-4494-93a6-04c80673bdea","ios":"levelo://app?vid=b324fdab-7869-4494-93a6-04c80673bdea"},"vehicle_type_id":"4","last_reported":1706648814,"current_range_meters":13200,"station_id":"cki0cbj6b192h4jlfktg","pricing_plan_id":"free"},{"bike_id":"693fbd6e-454a-4e05-90cd-5c39d1abefc4","system_id":"levelo_inurba_marseille","lat":43.30459,"lon":5.40065,"is_reserved":false,"is_disabled":false,"rental_uris":{"android":"levelo://app?vid=693fbd6e-454a-4e05-90cd-5c39d1abefc4","ios":"levelo://app?vid=693fbd6e-454a-4e05-90cd-5c39d1abefc4"},"vehicle_type_id":"4","last_reported":1706648814,"current_range_meters":26000,"station_id":"","pricing_plan_id":"free"},{"bike_id":"0555e4d1-181a-4cf9-a2af-e40de8c12013","system_id":"levelo_inurba_marseille","lat":43.28727,"lon":5.36078,"is_reserved":false,"is_disabled":false,"rental_uris":{"android":"levelo://app?vid=0555e4d1-181a-4cf9-a2af-e40de8c12013","ios":"levelo://app?vid=0555e4d1-181a-4cf9-a2af-e40de8c12013"},"vehicle_type_id":"4","last_reported":1706648814,"current_range_meters":12800,"station_id":"cki0cbj6b192h4jlfktg","pricing_plan_id":"free"},{"bike_id":"533dd0a7-f715-495b-8838-0d3d3ecf7e8d","system_id":"levelo_inurba_marseille","lat":43.28727,"lon":5.36078,"is_reserved":false,"is_disabled":false,"rental_uris":{"android":"levelo://app?vid=533dd0a7-f715-495b-8838-0d3d3ecf7e8d","ios":"levelo://app?vid=533dd0a7-f715-495b-8838-0d3d3ecf7e8d"},"vehicle_type_id":"4","last_reported":1706648814,"current_range_meters":9600,"station_id":"cki0cbj6b192h4jlfktg","pricing_plan_id":"free"},{"bike_id":"d306605e-b014-4f4b-91ae-3d9512b93567","system_id":"levelo_inurba_marseille","lat":43.28727,"lon":5.36078,"is_reserved":false,"is_disabled":false,"rental_uris":{"android":"levelo://app?vid=d306605e-b014-4f4b-91ae-3d9512b93567","ios":"levelo://app?vid=d306605e-b014-4f4b-91ae-3d9512b93567"},"vehicle_type_id":"4","last_reported":1706648814,"current_range_meters":15600,"station_id":"cki0cbj6b192h4jlfktg","pricing_plan_id":"free"},{"bike_id":"49e4f283-a523-4d4c-994a-dd111cc80d86","system_id":"levelo_inurba_marseille","lat":43.28727,"lon":5.36078,"is_reserved":false,"is_disabled":false,"rental_uris":{"android":"levelo://app?vid=49e4f283-a523-4d4c-994a-dd111cc80d86","ios":"levelo://app?vid=49e4f283-a523-4d4c-994a-dd111cc80d86"},"vehicle_type_id":"4","last_reported":1706648814,"current_range_meters":1200,"station_id":"cki0cbj6b192h4jlfktg","pricing_plan_id":"free"},{"bike_id":"0ab768d3-acd7-4835-807e-7d971953d085","system_id":"levelo_inurba_marseille","lat":43.298681,"lon":5.397225,"is_reserved":false,"is_disabled":false,"rental_uris":{"android":"levelo://app?vid=0ab768d3-acd7-4835-807e-7d971953d085","ios":"levelo://app?vid=0ab768d3-acd7-4835-807e-7d971953d085"},"vehicle_type_id":"4","last_reported":1706648814,"current_range_meters":6400,"station_id":"ce4bh0h2rcd13ifvqd50","pricing_plan_id":"free"},{"bike_id":"2b1bb21e-b525-48b3-b80f-714724fb2985","system_id":"levelo_inurba_marseille","lat":43.298765,"lon":5.397295,"is_reserved":false,"is_disabled":false,"rental_uris":{"android":"levelo://app?vid=2b1bb21e-b525-48b3-b80f-714724fb2985","ios":"levelo://app?vid=2b1bb21e-b525-48b3-b80f-714724fb2985"},"vehicle_type_id":"4","last_reported":1706648814,"current_range_meters":19200,"station_id":"","pricing_plan_id":"free"},{"bike_id":"72313d50-1760-4dc5-88bc-f11ae7624464","system_id":"levelo_inurba_marseille","lat":43.286591,"lon":5.363346,"is_reserved":false,"is_disabled":false,"rental_uris":{"android":"levelo://app?vid=72313d50-1760-4dc5-88bc-f11ae7624464","ios":"levelo://app?vid=72313d50-1760-4dc5-88bc-f11ae7624464"},"vehicle_type_id":"4","last_reported":1706648814,"current_range_meters":14000,"station_id":"ce4bhah2rcd13ifvqej0","pricing_plan_id":"free"},{"bike_id":"14d0ef62-1764-41e7-af4c-4664d45255ba","system_id":"levelo_inurba_marseille","lat":43.295748,"lon":5.37522,"is_reserved":false,"is_disabled":false,"rental_uris":{"android":"levelo://app?vid=14d0ef62-1764-41e7-af4c-4664d45255ba","ios":"levelo://app?vid=14d0ef62-1764-41e7-af4c-4664d45255ba"},"vehicle_type_id":"4","last_reported":1706648814,"current_range_meters":24400,"station_id":"ce4bgh92rcd13ifvqb50","pricing_plan_id":"free"},{"bike_id":"e6dc9471-46c8-4b24-b333-e97f0817de4d","system_id":"levelo_inurba_marseille","lat":43.286593,"lon":5.363346,"is_reserved":false,"is_disabled":false,"rental_uris":{"android":"levelo://app?vid=e6dc9471-46c8-4b24-b333-e97f0817de4d","ios":"levelo://app?vid=e6dc9471-46c8-4b24-b333-e97f0817de4d"},"vehicle_type_id":"4","last_reported":1706648814,"current_range_meters":23200,"station_id":"ce4bhah2rcd13ifvqej0","pricing_plan_id":"free"},{"bike_id":"c851ef1b-3333-4ffa-a243-92c7b713ca59","system_id":"levelo_inurba_marseille","lat":43.288501,"lon":5.393087,"is_reserved":false,"is_disabled":false,"rental_uris":{"android":"levelo://app?vid=c851ef1b-3333-4ffa-a243-92c7b713ca59","ios":"levelo://app?vid=c851ef1b-3333-4ffa-a243-92c7b713ca59"},"vehicle_type_id":"4","last_reported":1706648814,"current_range_meters":7200,"station_id":"ce4bh2p2rcd13ifvqdi0","pricing_plan_id":"free"},{"bike_id":"5352c6c1-2a50-4028-9fc6-0826221167a3","system_id":"levelo_inurba_marseille","lat":43.286961,"lon":5.373785,"is_reserved":false,"is_disabled":false,"rental_uris":{"android":"levelo://app?vid=5352c6c1-2a50-4028-9fc6-0826221167a3","ios":"levelo://app?vid=5352c6c1-2a50-4028-9fc6-0826221167a3"},"vehicle_type_id":"4","last_reported":1706648814,"current_range_meters":19600,"station_id":"ce4bh3p2rcd13ifvqdq0","pricing_plan_id":"free"},{"bike_id":"6bca6da3-e47d-443d-9f9c-82014adc09e9","system_id":"levelo_inurba_marseille","lat":43.295194,"lon":5.39397,"is_reserved":false,"is_disabled":false,"rental_uris":{"android":"levelo://app?vid=6bca6da3-e47d-443d-9f9c-82014adc09e9","ios":"levelo://app?vid=6bca6da3-e47d-443d-9f9c-82014adc09e9"},"vehicle_type_id":"4","last_reported":1706648814,"current_range_meters":19600,"station_id":"ce4bh292rcd13ifvqdf0","pricing_plan_id":"free"},{"bike_id":"6717aaf5-2162-456f-945d-13e01e7ec654","system_id":"levelo_inurba_marseille","lat":43.302759,"lon":5.400793,"is_reserved":false,"is_disabled":false,"rental_uris":{"android":"levelo://app?vid=6717aaf5-2162-456f-945d-13e01e7ec654","ios":"levelo://app?vid=6717aaf5-2162-456f-945d-13e01e7ec654"},"vehicle_type_id":"4","last_reported":1706648814,"current_range_meters":16800,"station_id":"ce4bgvh2rcd13ifvqcs0","pricing_plan_id":"free"},{"bike_id":"f1b64a2f-440b-458d-a61d-da2be8fee7cb","system_id":"levelo_inurba_marseille","lat":43.290345,"lon":5.38646,"is_reserved":false,"is_disabled":false,"rental_uris":{"android":"levelo://app?vid=f1b64a2f-440b-458d-a61d-da2be8fee7cb","ios":"levelo://app?vid=f1b64a2f-440b-458d-a61d-da2be8fee7cb"},"vehicle_type_id":"4","last_reported":1706648814,"current_range_meters":24400,"station_id":"ce4bh4p2rcd13ifvqe0g","pricing_plan_id":"free"},{"bike_id":"c261ef7e-d6d3-43a1-a1e2-f56987b0a32e","system_id":"levelo_inurba_marseille","lat":43.290336,"lon":5.386425,"is_reserved":false,"is_disabled":false,"rental_uris":{"android":"levelo://app?vid=c261ef7e-d6d3-43a1-a1e2-f56987b0a32e","ios":"levelo://app?vid=c261ef7e-d6d3-43a1-a1e2-f56987b0a32e"},"vehicle_type_id":"4","last_reported":1706648814,"current_range_meters":23600,"station_id":"ce4bh4p2rcd13ifvqe0g","pricing_plan_id":"free"},{"bike_id":"8d328270-324c-40d0-9a61-32652d5d8de6","system_id":"levelo_inurba_marseille","lat":43.290336,"lon":5.386425,"is_reserved":false,"is_disabled":false,"rental_uris":{"android":"levelo://app?vid=8d328270-324c-40d0-9a61-32652d5d8de6","ios":"levelo://app?vid=8d328270-324c-40d0-9a61-32652d5d8de6"},"vehicle_type_id":"4","last_reported":1706648814,"current_range_meters":12800,"station_id":"ce4bh4p2rcd13ifvqe0g","pricing_plan_id":"free"},{"bike_id":"2134fb5f-1ebd-41c5-9f5d-1add0a2cdfda","system_id":"levelo_inurba_marseille","lat":43.290336,"lon":5.386425,"is_reserved":false,"is_disabled":false,"rental_uris":{"android":"levelo://app?vid=2134fb5f-1ebd-41c5-9f5d-1add0a2cdfda","ios":"levelo://app?vid=2134fb5f-1ebd-41c5-9f5d-1add0a2cdfda"},"vehicle_type_id":"4","last_reported":1706648814,"current_range_meters":6400,"station_id":"ce4bh4p2rcd13ifvqe0g","pricing_plan_id":"free"},