{"last_updated":1753542634,"ttl":60,"version":"2.2","data":{"bikes":[{"bike_id":"1594d297-b88b-4002-a702-91e8d9cee67a","system_id":"levelo_inurba_marseille","lat":43.305392,"lon":5.365683,"is_reserved":false,"is_disabled":false,"rental_uris":{"android":"levelo://app?vid=1594d297-b88b-4002-a702-91e8d9cee67a","ios":"levelo://app?vid=1594d297-b88b-4002-a702-91e8d9cee67a"},"vehicle_type_id":"4","last_reported":1753542634,"current_range_meters":2800,"station_id":"","pricing_plan_id":"cebpf4jnsgd1na2vs0mg"},{"bike_id":"f35f6695-44f8-4f33-a88a-788f12e01038","system_id":"levelo_inurba_marseille","lat":43.29621,"lon":5.37712,"is_reserved":false,"is_disabled":false,"rental_uris":{"android":"levelo://app?vid=f35f6695-44f8-4f33-a88a-788f12e01038","ios":"levelo://app?vid=f35f6695-44f8-4f33-a88a-788f12e01038"},"vehicle_type_id":"4","last_reported":1753542634,"current_range_meters":2800,"station_id":"ce4bgi92rcd13ifvqb90","pricing_plan_id":"cebpf4jnsgd1na2vs0mg"},{"bike_id":"12ec72e3-48df-4b75-baf9-18b4b8e5a1c2","system_id":"levelo_inurba_marseille","lat":43.31241,"lon":5.36864,"is_reserved":false,"is_disabled":false,"rental_uris":{"android":"levelo://app?vid=12ec72e3-48df-4b75-baf9-18b4b8e5a1c2","ios":"levelo://app?vid=12ec72e3-48df-4b75-baf9-18b4b8e5a1c2"},"vehicle_type_id":"4","last_reported":1753542634,"current_range_meters":3200,"station_id":"ce4bgl92rcd13ifvqbq0","pricing_plan_id":"cebpf4jnsgd1na2vs0mg"},{"bike_id":"a00cee0f-2404-4da9-b8be-860b0092c163","system_id":"levelo_inurba_marseille","lat":43.28279,"lon":5.35069,"is_reserved":false,"is_disabled":false,"rental_uris":{"android":"levelo://app?vid=a00cee0f-2404-4da9-b8be-860b0092c163","ios":"levelo://app?vid=a00cee0f-2404-4da9-b8be-860b0092c163"},"vehicle_type_id":"4","last_reported":1753542634,"current_range_meters":3200,"station_id":"ce4bhbp2rcd13ifvqerg","pricing_plan_id":"cebpf4jnsgd1na2vs0mg"},{"bike_id":"0c332539-270f-4fe5-b5b1-ac8ff2bf9a24","system_id":"levelo_inurba_marseille","lat":43.299679,"lon":5.3849,"is_reserved":false,"is_disabled":false,"rental_uris":{"android":"levelo://app?vid=0c332539-270f-4fe5-b5b1-ac8ff2bf9a24","ios":"levelo://app?vid=0c332539-270f-4fe5-b5b1-ac8ff2bf9a24"},"vehicle_type_id":"4","last_reported":1753542634,"current_range_meters":3600,"station_id":"ce4bgj92rcd13ifvqbd0","pricing_plan_id":"cebpf4jnsgd1na2vs0mg"},{"bike_id":"e19cd9bd-8f1f-4909-a624-5af678243303","system_id":"levelo_inurba_marseille","lat":43.29092,"lon":5.39893,"is_reserved":false,"is_disabled":false,"rental_uris":{"android":"levelo://app?vid=e19cd9bd-8f1f-4909-a624-5af678243303","ios":"levelo://app?vid=e19cd9bd-8f1f-4909-a624-5af678243303"},"vehicle_type_id":"4","last_reported":1753542634,"current_range_meters":3600,"station_id":"","pricing_plan_id":"cebpf4jnsgd1na2vs0mg"},{"bike_id":"809d3162-153a-443d-9950-30d99e8ea7c1","system_id":"levelo_inurba_marseille","lat":43.26553,"lon":5.372843,"is_reserved":false,"is_disabled":false,"rental_uris":{"android":"levelo://app?vid=809d3162-153a-443d-9950-30d99e8ea7c1","ios":"levelo://app?vid=809d3162-153a-443d-9950-30d99e8ea7c1"},"vehicle_type_id":"4","last_reported":1753542634,"current_range_meters":3600,"station_id":"ce4bhg12rcd13ifvqf70","pricing_plan_id":"cebpf4jnsgd1na2vs0mg"},{"bike_id":"f5f3cfdb-8b60-4df3-a39f-52c92706d061","system_id":"levelo_inurba_marseille","lat":43.24808,"lon":5.37456,"is_reserved":false,"is_disabled":false,"rental_uris":{"android":"levelo://app?vid=f5f3cfdb-8b60-4df3-a39f-52c92706d061","ios":"levelo://app?vid=f5f3cfdb-8b60-4df3-a39f-52c92706d061"},"vehicle_type_id":"4","last_reported":1753542634,"current_range_meters":3600,"station_id":"ce4bhgh2rcd13ifvqfb0","pricing_plan_id":"cebpf4jnsgd1na2vs0mg"},{"bike_id":"1b1a9552-1be3-4efa-90a9-1f0d0fe2230a","system_id":"levelo_inurba_marseille","lat":43.28724,"lon":5.37935,"is_reserved":false,"is_disabled":false,"rental_uris":{"android":"levelo://app?vid=1b1a9552-1be3-4efa-90a9-1f0d0fe2230a","ios":"levelo://app?vid=1b1a9552-1be3-4efa-90a9-1f0d0fe2230a"},"vehicle_type_id":"4","last_reported":1753542634,"current_range_meters":4800,"station_id":"ce4bh9p2rcd13ifvqec0","pricing_plan_id":"cebpf4jnsgd1na2vs0mg"},{"bike_id":"094fa256-4baa-483e-b782-440f1c489001","system_id":"levelo_inurba_marseille","lat":43.29694,"lon":5.367652,"is_reserved":false,"is_disabled":false,"rental_uris":{"android":"levelo://app?vid=094fa256-4baa-483e-b782-440f1c489001","ios":"levelo://app?vid=094fa256-4baa-483e-b782-440f1c489001"},"vehicle_type_id":"4","last_reported":1753542634,"current_range_meters":4000,"station_id":"ce4bgn12rcd13ifvqbt0","pricing_plan_id":"cebpf4jnsgd1na2vs0mg"},{"bike_id":"500fdb4d-d167-435d-813a-3f2ee3eae9ec","system_id":"levelo_inurba_marseille","lat":43.26571,"lon":5.39008,"is_reserved":false,"is_disabled":false,"rental_uris":{"android":"levelo://app?vid=500fdb4d-d167-435d-813a-3f2ee3eae9ec","ios":"levelo://app?vid=500fdb4d-d167-435d-813a-3f2ee3eae9ec"},"vehicle_type_id":"4","last_reported":1753542634,"current_range_meters":4000,"station_id":"ce4bhe12rcd13ifvqf30","pricing_plan_id":"cebpf4jnsgd1na2vs0mg"},{"bike_id":"e4f139a0-d35c-4e46-be10-a14ca4eeca56","system_id":"levelo_inurba_marseille","lat":43.28269,"lon":5.35072,"is_reserved":false,"is_disabled":false,"rental_uris":{"android":"levelo://app?vid=e4f139a0-d35c-4e46-be10-a14ca4eeca56","ios":"levelo://app?vid=e4f139a0-d35c-4e46-be10-a14ca4eeca56"},"vehicle_type_id":"4","last_reported":1753542634,"current_range_meters":4000,"station_id":"ce4bhbp2rcd13ifvqerg","pricing_plan_id":"cebpf4jnsgd1na2vs0mg"},{"bike_id":"0b73480e-1142-4165-807b-5feb35d5e01d","system_id":"levelo_inurba_marseille","lat":43.301483,"lon":5.380978,"is_reserved":false,"is_disabled":false,"rental_uris":{"android":"levelo://app?vid=0b73480e-1142-4165-807b-5feb35d5e01d","ios":"levelo://app?vid=0b73480e-1142-4165-807b-5feb35d5e01d"},"vehicle_type_id":"4","last_reported":1753542634,"current_range_meters":4000,"station_id":"ce4bgjp2rcd13ifvqbh0","pricing_plan_id":"cebpf4jnsgd1na2vs0mg"},{"bike_id":"747f4950-fbaf-41d8-b5fd-0a1dec0c876a","system_id":"levelo_inurba_marseille","lat":43.31218,"lon":5.36856,"is_reserved":false,"is_disabled":false,"rental_uris":{"android":"levelo://app?vid=747f4950-fbaf-41d8-b5fd-0a1dec0c876a","ios":"levelo://app?vid=747f4950-fbaf-41d8-b5fd-0a1dec0c876a"},"vehicle_type_id":"4","last_reported":1753542634,"current_range_meters":4400,"station_id":"ce4bgl92rcd13ifvqbq0","pricing_plan_id":"cebpf4jnsgd1na2vs0mg"},{"bike_id":"e48bc6f7-250f-4e5b-94db-69fb791d2b31","system_id":"levelo_inurba_marseille","lat":43.2757,"lon":5.38422,"is_reserved":false,"is_disabled":false,"rental_uris":{"android":"levelo://app?vid=e48bc6f7-250f-4e5b-94db-69fb791d2b31","ios":"levelo://app?vid=e48bc6f7-250f-4e5b-94db-69fb791d2b31"},"vehicle_type_id":"4","last_reported":1753542634,"current_range_meters":4000,"station_id":"ce4bhh92rcd13ifvqfi0","pricing_plan_id":"cebpf4jnsgd1na2vs0mg"},{"bike_id":"7b56f4ab-521b-49cb-8264-24fed899f6eb","system_id":"levelo_inurba_marseille","lat":43.31225,"lon":5.36864,"is_reserved":false,"is_disabled":false,"rental_uris":{"android":"levelo://app?vid=7b56f4ab-521b-49cb-8264-24fed899f6eb","ios":"levelo://app?vid=7b56f4ab-521b-49cb-8264-24fed899f6eb"},"vehicle_type_id":"4","last_reported":1753542634,"current_range_meters":4800,"station_id":"ce4bgl92rcd13ifvqbq0","pricing_plan_id":"cebpf4jnsgd1na2vs0mg"},{"bike_id":"f28d2bb9-4217-4196-a573-ba6f4c172497","system_id":"levelo_inurba_marseille","lat":43.28146,"lon":5.36104,"is_reserved":false,"is_disabled":false,"rental_uris":{"android":"levelo://app?vid=f28d2bb9-4217-4196-a573-ba6f4c172497","ios":"levelo://app?vid=f28d2bb9-4217-4196-a573-ba6f4c172497"},"vehicle_type_id":"4","last_reported":1753542634,"current_range_meters":4800,"station_id":"","pricing_plan_id":"cebpf4jnsgd1na2vs0mg"},{"bike_id":"85c90b32-2cd7-4f3c-a313-392b7a59728f","system_id":"levelo_inurba_marseille","lat":43.28699,"lon":5.37394,"is_reserved":false,"is_disabled":false,"rental_uris":{"android":"levelo://app?vid=85c90b32-2cd7-4f3c-a313-392b7a59728f","ios":"levelo://app?vid=85c90b32-2cd7-4f3c-a313-392b7a59728f"},"vehicle_type_id":"4","last_reported":1753542634,"current_range_meters":2800,"station_id":"ce4bh3p2rcd13ifvqdq0","pricing_plan_id":"cebpf4jnsgd1na2vs0mg"},{"bike_id":"4d52334c-00a5-4ea1-8b54-21864f1df101","system_id":"levelo_inurba_marseille","lat":43.29382,"lon":5.37836,"is_reserved":false,"is_disabled":false,"rental_uris":{"android":"levelo://app?vid=4d52334c-00a5-4ea1-8b54-21864f1df101","ios":"levelo://app?vid=4d52334c-00a5-4ea1-8b54-21864f1df101"},"vehicle_type_id":"4","last_reported":1753542634,"current_range_meters":4800,"station_id":"ce4bgjh2rcd13ifvqbf0","pricing_plan_id":"cebpf4jnsgd1na2vs0mg"},{"bike_id":"6ef5e3e2-5291-4d3a-bc31-fdd01aa4bf60","system_id":"levelo_inurba_marseille","lat":43.30219,"lon":5.39491,"is_reserved":false,"is_disabled":false,"rental_uris":{"android":"levelo://app?vid=6ef5e3e2-5291-4d3a-bc31-fdd01aa4bf60","ios":"levelo://app?vid=6ef5e3e2-5291-4d3a-bc31-fdd01aa4bf60"},"vehicle_type_id":"4","last_reported":1753542634,"current_range_meters":5600,"station_id":"ce4bh0p2rcd13ifvqd70","pricing_plan_id":"cebpf4jnsgd1na2vs0mg"},{"bike_id":"2573b77d-9160-4448-81ec-9c38b294099b","system_id":"levelo_inurba_marseille","lat":43.304104,"lon":5.397562,"is_reserved":false,"is_disabled":false,"rental_uris":{"android":"levelo://app?vid=2573b77d-9160-4448-81ec-9c38b294099b","ios":"levelo://app?vid=2573b77d-9160-4448-81ec-9c38b294099b"},"vehicle_type_id":"4","last_reported":1753542634,"current_range_meters":5600,"station_id":"ce4bh092rcd13ifvqd20","pricing_plan_id":"cebpf4jnsgd1na2vs0mg"},{"bike_id":"c79abd63-7518-4b8b-9096-9ba8dddaebf5","system_id":"levelo_inurba_marseille","lat":43.301453,"lon":5.380877,"is_reserved":false,"is_disabled":false,"rental_uris":{"android":"levelo://app?vid=c79abd63-7518-4b8b-9096-9ba8dddaebf5","ios":"levelo://app?vid=c79abd63-7518-4b8b-9096-9ba8dddaebf5"},"vehicle_type_id":"4","last_reported":1753542634,"current_range_meters":6000,"station_id":"ce4bgjp2rcd13ifvqbh0","pricing_plan_id":"cebpf4jnsgd1na2vs0mg"},{"bike_id":"e43a5a9d-8505-4c42-a1b1-beed183cb890","system_id":"levelo_inurba_marseille","lat":43.28658,"lon":5.36346,"is_reserved":false,"is_disabled":false,"rental_uris":{"android":"levelo://app?vid=e43a5a9d-8505-4c42-a1b1-beed183cb890","ios":"levelo://app?vid=e43a5a9d-8505-4c42-a1b1-beed183cb890"},"vehicle_type_id":"4","last_reported":1753542634,"current_range_meters":5600,"station_id":"ce4bhah2rcd13ifvqej0","pricing_plan_id":"cebpf4jnsgd1na2vs0mg"},{"bike_id":"da616b4f-9b8a-44d6-b39d-ba5eff27aeba","system_id":"levelo_inurba_marseille","lat":43.30161,"lon":5.38083,"is_reserved":false,"is_disabled":false,"rental_uris":{"android":"levelo://app?vid=da616b4f-9b8a-44d6-b39d-ba5eff27aeba","ios":"levelo://app?vid=da616b4f-9b8a-44d6-b39d-ba5eff27aeba"},"vehicle_type_id":"4","last_reported":1753542634,"current_range_meters":5600,"station_id":"ce4bgjp2rcd13ifvqbh0","pricing_plan_id":"cebpf4jnsgd1na2vs0mg"},{"bike_id":"9b07fa24-8f56-4ce5-8575-dfa09f8f9b97","system_id":"levelo_inurba_marseille","lat":43.290339,"lon":5.386465,"is_reserved":false,"is_disabled":false,"rental_uris":{"android":"levelo://app?vid=9b07fa24-8f56-4ce5-8575-dfa09f8f9b97","ios":"levelo://app?vid=9b07fa24-8f56-4ce5-8575-dfa09f8f9b97"},"vehicle_type_id":"4","last_reported":1753542634,"current_range_meters":5600,"station_id":"","pricing_plan_id":"cebpf4jnsgd1na2vs0mg"},{"bike_id":"dcd0a9d6-e8b1-4f4e-a235-b00187ad8bbc","system_id":"levelo_inurba_marseille","lat":43.30607,"lon":5.3723,"is_reserved":false,"is_disabled":false,"rental_uris":{"android":"levelo://app?vid=dcd0a9d6-e8b1-4f4e-a235-b00187ad8bbc","ios":"levelo://app?vid=dcd0a9d6-e8b1-4f4e-a235-b00187ad8bbc"},"vehicle_type_id":"4","last_reported":1753542634,"current_range_meters":6000,"station_id":"ce4bgqh2rcd13ifvqc4g","pricing_plan_id":"cebpf4jnsgd1na2vs0mg"},{"bike_id":"53924d1f-48ee-4ce1-8dbe-df675875f61b","system_id":"levelo_inurba_marseille","lat":43.30889,"lon":5.39632,"is_reserved":false,"is_disabled":false,"rental_uris":{"android":"levelo://app?vid=53924d1f-48ee-4ce1-8dbe-df675875f61b","ios":"levelo://app?vid=53924d1f-48ee-4ce1-8dbe-df675875f61b"},"vehicle_type_id":"4","last_reported":1753542634,"current_range_meters":6000,"station_id":"ce4bh012rcd13ifvqcv0","pricing_plan_id":"cebpf4jnsgd1na2vs0mg"},{"bike_id":"4a5ddedc-6e48-4e35-b315-895c67558ca0","system_id":"levelo_inurba_marseille","lat":43.282721,"lon":5.350574,"is_reserved":false,"is_disabled":false,"rental_uris":{"android":"levelo://app?vid=4a5ddedc-6e48-4e35-b315-895c67558ca0","ios":"levelo://app?vid=4a5ddedc-6e48-4e35-b315-895c67558ca0"},"vehicle_type_id":"4","last_reported":1753542634,"current_range_meters":6000,"station_id":"ce4bhbp2rcd13ifvqerg","pricing_plan_id":"cebpf4jnsgd1na2vs0mg"},{"bike_id":"96dc10ad-c456-4bd6-acf4-909801427d7a","system_id":"levelo_inurba_marseille","lat":43.30959,"lon":5.3903,"is_reserved":false,"is_disabled":false,"rental_uris":{"android":"levelo://app?vid=96dc10ad-c456-4bd6-acf4-909801427d7a","ios":"levelo://app?vid=96dc10ad-c456-4bd6-acf4-909801427d7a"},"vehicle_type_id":"4","last_reported":1753542634,"current_range_meters":6000,"station_id":"ce4bgup2rcd13ifvqco0","pricing_plan_id":"cebpf4jnsgd1na2vs0mg"},{"bike_id":"edf2da66-495d-4fe0-8562-d6b56ea70548","system_id":"levelo_inurba_marseille","lat":43.29787,"lon":5.39334,"is_reserved":false,"is_disabled":false,"rental_uris":{"android":"levelo://app?vid=edf2da66-495d-4fe0-8562-d6b56ea70548","ios":"levelo://app?vid=edf2da66-495d-4fe0-8562-d6b56ea70548"},"vehicle_type_id":"4","last_reported":1753542634,"current_range_meters":2000,"station_id":"chh1huq6cuj3fo74tm60","pricing_plan_id":"cebpf4jnsgd1na2vs0mg"},{"bike_id":"33759d96-bfb8-4051-bb92-a5bfcd0faac3","system_id":"levelo_inurba_marseille","lat":43.31178,"lon":5.3871,"is_reserved":false,"is_disabled":false,"rental_uris":{"android":"levelo://app?vid=33759d96-bfb8-4051-bb92-a5bfcd0faac3","ios":"levelo://app?vid=33759d96-bfb8-4051-bb92-a5bfcd0faac3"},"vehicle_type_id":"4","last_reported":1753542634,"current_range_meters":6000,"station_id":"ce4bgv12rcd13ifvqcp0","pricing_plan_id":"cebpf4jnsgd1na2vs0mg"},{"bike_id":"ae041e1f-658d-4c32-a696-045323a4ef5f","system_id":"levelo_inurba_marseille","lat":43.28419,"lon":5.34988,"is_reserved":false,"is_disabled":false,"rental_uris":{"android":"levelo://app?vid=ae041e1f-658d-4c32-a696-045323a4ef5f","ios":"levelo://app?vid=ae041e1f-658d-4c32-a696-045323a4ef5f"},"vehicle_type_id":"4","last_reported":1753542634,"current_range_meters":6000,"station_id":"ce4bhbh2rcd13ifvqepg","pricing_plan_id":"cebpf4jnsgd1na2vs0mg"},{"bike_id":"6af7a72a-189c-4dbc-9282-a956426542ba","system_id":"levelo_inurba_marseille","lat":43.22512,"lon":5.34779,"is_reserved":false,"is_disabled":false,"rental_uris":{"android":"levelo://app?vid=6af7a72a-189c-4dbc-9282-a956426542ba","ios":"levelo://app?vid=6af7a72a-189c-4dbc-9282-a956426542ba"},"vehicle_type_id":"4","last_reported":1753542634,"current_range_meters":6400,"station_id":"","pricing_plan_id":"cebpf4jnsgd1na2vs0mg"},{"bike_id":"ff30a5ee-0e9d-4bfa-a593-c7beaf9df463","system_id":"levelo_inurba_marseille","lat":43.335338,"lon":5.362074,"is_reserved":false,"is_disabled":false,"rental_uris":{"android":"levelo://app?vid=ff30a5ee-0e9d-4bfa-a593-c7beaf9df463","ios":"levelo://app?vid=ff30a5ee-0e9d-4bfa-a593-c7beaf9df463"},"vehicle_type_id":"4","last_reported":1753542634,"current_range_meters":6400,"station_id":"","pricing_plan_id":"cebpf4jnsgd1na2vs0mg"},{"bike_id":"1c31f24b-2b9e-48c3-b103-bffd32b92420","system_id":"levelo_inurba_marseille","lat":43.335104,"lon":5.408681,"is_reserved":false,"is_disabled":false,"rental_uris":{"android":"levelo://app?vid=1c31f24b-2b9e-48c3-b103-bffd32b92420","ios":"levelo://app?vid=1c31f24b-2b9e-48c3-b103-bffd32b92420"},"vehicle_type_id":"4","last_reported":1753542634,"current_range_meters":6800,"station_id":"","pricing_plan_id":"cebpf4jnsgd1na2vs0mg"},{"bike_id":"718ebc10-0032-428f-9732-6dbac811f837","system_id":"levelo_inurba_marseille","lat":43.26194,"lon":5.37449,"is_reserved":false,"is_disabled":false,"rental_uris":{"android":"levelo://app?vid=718ebc10-0032-428f-9732-6dbac811f837","ios":"levelo://app?vid=718ebc10-0032-428f-9732-6dbac811f837"},"vehicle_type_id":"4","last_reported":1753542634,"current_range_meters":6800,"station_id":"ce4bhgp2rcd13ifvqfc0","pricing_plan_id":"cebpf4jnsgd1na2vs0mg"},{"bike_id":"21f9cdd0-4df8-4c4e-9f2d-c1aa7a098ce2","system_id":"levelo_inurba_marseille","lat":43.28433,"lon":5.35004,"is_reserved":false,"is_disabled":false,"rental_uris":{"android":"levelo://app?vid=21f9cdd0-4df8-4c4e-9f2d-c1aa7a098ce2","ios":"levelo://app?vid=21f9cdd0-4df8-4c4e-9f2d-c1aa7a098ce2"},"vehicle_type_id":"4","last_reported":1753542634,"current_range_meters":6800,"station_id":"ce4bhbh2rcd13ifvqepg","pricing_plan_id":"cebpf4jnsgd1na2vs0mg"},{"bike_id":"c9894405-0536-45fd-b619-2221fc64eb09","system_id":"levelo_inurba_marseille","lat":43.26204,"lon":5.37448,"is_reserved":false,"is_disabled":false,"rental_uris":{"android":"levelo://app?vid=c9894405-0536-45fd-b619-2221fc64eb09","ios":"levelo://app?vid=c9894405-0536-45fd-b619-2221fc64eb09"},"vehicle_type_id":"4","last_reported":1753542634,"current_range_meters":6800,"station_id":"ce4bhgp2rcd13ifvqfc0","pricing_plan_id":"cebpf4jnsgd1na2vs0mg"},{"bike_id":"048d42cf-5342-4b16-a40d-156da776074b","system_id":"levelo_inurba_marseille","lat":43.27566,"lon":5.38426,"is_reserved":false,"is_disabled":false,"rental_uris":{"android":"levelo://app?vid=048d42cf-5342-4b16-a40d-156da776074b","ios":"levelo://app?vid=048d42cf-5342-4b16-a40d-156da776074b"},"vehicle_type_id":"4","last_reported":1753542634,"current_range_meters":6800,"station_id":"ce4bhh92rcd13ifvqfi0","pricing_plan_id":"cebpf4jnsgd1na2vs0mg"},{"bike_id":"89dcea3a-f7f7-44b2-9d2c-a3300861829d","system_id":"levelo_inurba_marseille","lat":43.27869,"lon":5.3971,"is_reserved":false,"is_disabled":false,"rental_uris":{"android":"levelo://app?vid=89dcea3a-f7f7-44b2-9d2c-a3300861829d","ios":"levelo://app?vid=89dcea3a-f7f7-44b2-9d2c-a3300861829d"},"vehicle_type_id":"4","last_reported":1753542634,"current_range_meters":6800,"station_id":"","pricing_plan_id":"cebpf4jnsgd1na2vs0mg"},{"bike_id":"e94200c6-1a42-41a4-a195-ad2533494554","system_id":"levelo_inurba_marseille","lat":43.2919,"lon":5.35804,"is_reserved":false,"is_disabled":false,"rental_uris":{"android":"levelo://app?vid=e94200c6-1a42-41a4-a195-ad2533494554","ios":"levelo://app?vid=e94200c6-1a42-41a4-a195-ad2533494554"},"vehicle_type_id":"4","last_reported":1753542634,"current_range_meters":6800,"station_id":"ce4bhb12rcd13ifvqel0","pricing_plan_id":"cebpf4jnsgd1na2vs0mg"},{"bike_id":"4c919fb0-53dc-4a61-8715-2eeb1cc57971","system_id":"levelo_inurba_marseille","lat":43.27907,"lon":5.3958,"is_reserved":false,"is_disabled":false,"rental_uris":{"android":"levelo://app?vid=4c919fb0-53dc-4a61-8715-2eeb1cc57971","ios":"levelo://app?vid=4c919fb0-53dc-4a61-8715-2eeb1cc57971"},"vehicle_type_id":"4","last_reported":1753542634,"current_range_meters":7200,"station_id":"ce4bhf92rcd13ifvqf40","pricing_plan_id":"cebpf4jnsgd1na2vs0mg"},{"bike_id":"28adacaf-a230-45ff-ab5c-a5936fedfb87","system_id":"levelo_inurba_marseille","lat":43.27383,"lon":5.36255,"is_reserved":false,"is_disabled":false,"rental_uris":{"android":"levelo://app?vid=28adacaf-a230-45ff-ab5c-a5936fedfb87","ios":"levelo://app?vid=28adacaf-a230-45ff-ab5c-a5936fedfb87"},"vehicle_type_id":"4","last_reported":1753542634,"current_range_meters":8000,"station_id":"ce4bhbh2rcd13ifvqeo0","pricing_plan_id":"cebpf4jnsgd1na2vs0mg"},{"bike_id":"f4297774-6ce9-4397-bcda-9a3e5bb9cd76","system_id":"levelo_inurba_marseille","lat":43.225081,"lon":5.347847,"is_reserved":false,"is_disabled":false,"rental_uris":{"android":"levelo://app?vid=f4297774-6ce9-4397-bcda-9a3e5bb9cd76","ios":"levelo://app?vid=f4297774-6ce9-4397-bcda-9a3e5bb9cd76"},"vehicle_type_id":"4","last_reported":1753542634,"current_range_meters":8000,"station_id":"st_cvj5dfep6f1abm77gieg","pricing_plan_id":"cebpf4jnsgd1na2vs0mg"},{"bike_id":"1e61a95a-5d4d-4185-9f06-d1f33696fed5","system_id":"levelo_inurba_marseille","lat":43.29532,"lon":5.38535,"is_reserved":false,"is_disabled":false,"rental_uris":{"android":"levelo://app?vid=1e61a95a-5d4d-4185-9f06-d1f33696fed5","ios":"levelo://app?vid=1e61a95a-5d4d-4185-9f06-d1f33696fed5"},"vehicle_type_id":"4","last_reported":1753542634,"current_range_meters":8000,"station_id":"ce4bgih2rcd13ifvqba0","pricing_plan_id":"cebpf4jnsgd1na2vs0mg"},{"bike_id":"4177c350-b39d-4243-a455-e13f00e80b0a","system_id":"levelo_inurba_marseille","lat":43.26196,"lon":5.37448,"is_reserved":false,"is_disabled":true,"rental_uris":{"android":"levelo://app?vid=4177c350-b39d-4243-a455-e13f00e80b0a","ios":"levelo://app?vid=4177c350-b39d-4243-a455-e13f00e80b0a"},"vehicle_type_id":"4","last_reported":1753542634,"current_range_meters":8400,"station_id":"ce4bhgp2rcd13ifvqfc0","pricing_plan_id":"cebpf4jnsgd1na2vs0mg"},{"bike_id":"c4826b64-2a16-46fd-ae31-8ed2e3af392a","system_id":"levelo_inurba_marseille","lat":43.30903,"lon":5.39661,"is_reserved":false,"is_disabled":false,"rental_uris":{"android":"levelo://app?vid=c4826b64-2a16-46fd-ae31-8ed2e3af392a","ios":"levelo://app?vid=c4826b64-2a16-46fd-ae31-8ed2e3af392a"},"vehicle_type_id":"4","last_reported":1753542634,"current_range_meters":8400,"station_id":"ce4bh012rcd13ifvqcv0","pricing_plan_id":"cebpf4jnsgd1na2vs0mg"},{"bike_id":"59610158-ea05-46aa-9ad1-d55ccd2e59ad","system_id":"levelo_inurba_marseille","lat":43.29052,"lon":5.35924,"is_reserved":false,"is_disabled":false,"rental_uris":{"android":"levelo://app?vid=59610158-ea05-46aa-9ad1-d55ccd2e59ad","ios":"levelo://app?vid=59610158-ea05-46aa-9ad1-d55ccd2e59ad"},"vehicle_type_id":"4","last_reported":1753542634,"current_range_meters":8400,"station_id":"ce4bha92rcd13ifvqeg0","pricing_plan_id":"cebpf4jnsgd1na2vs0mg"},{"bike_id":"cd5561c9-1cf8-4017-b7e0-c99a926bc380","system_id":"levelo_inurba_marseille","lat":43.32289,"lon":5.38273,"is_reserved":false,"is_disabled":false,"rental_uris":{"android":"levelo://app?vid=cd5561c9-1cf8-4017-b7e0-c99a926bc380","ios":"levelo://app?vid=cd5561c9-1cf8-4017-b7e0-c99a926bc380"},"vehicle_type_id":"4","last_reported":1753542634,"current_range_meters":8800,"station_id":"ce4bhr12rcd13ifvqhqg","pricing_plan_id":"cebpf4jnsgd1na2vs0mg"},{"bike_id":"078febbd-6d49-4abf-8b46-d33f87f8da46","system_id":"levelo_inurba_marseille","lat":43.25452,"lon":5.38007,"is_reserved":false,"is_disabled":false,"rental_uris":{"android":"levelo://app?vid=078febbd-6d49-4abf-8b46-d33f87f8da46","ios":"levelo://app?vid=078febbd-6d49-4abf-8b46-d33f87f8da46"},"vehicle_type_id":"4","last_reported":1753542634,"current_range_meters":8800,"station_id":"","pricing_plan_id":"cebpf4jnsgd1na2vs0mg"},{"bike_id":"dd47bc5d-10fd-4921-99e0-97f799f13ca9","system_id":"levelo_inurba_marseille","lat":43.28423,"lon":5.34992,"is_reserved":false,"is_disabled":false,"rental_uris":{"android":"levelo://app?vid=dd47bc5d-10fd-4921-99e0-97f799f13ca9","ios":"levelo://app?vid=dd47bc5d-10fd-4921-99e0-97f799f13ca9"},"vehicle_type_id":"4","last_reported":1753542634,"current_range_meters":8000,"station_id":"ce4bhbh2rcd13ifvqepg","pricing_plan_id":"cebpf4jnsgd1na2vs0mg"},{"bike_id":"ccca3042-9358-40fc-ac03-e327e01c225f","system_id":"levelo_inurba_marseille","lat":43.23305,"lon":5.36109,"is_reserved":false,"is_disabled":false,"rental_uris":{"android":"levelo://app?vid=ccca3042-9358-40fc-ac03-e327e01c225f","ios":"levelo://app?vid=ccca3042-9358-40fc-ac03-e327e01c225f"},"vehicle_type_id":"4","last_reported":1753542634,"current_range_meters":8800,"station_id":"","pricing_plan_id":"cebpf4jnsgd1na2vs0mg"},{"bike_id":"c1dcf064-7633-4f3e-9c7d-cf25342fb85f","system_id":"levelo_inurba_marseille","lat":43.27213,"lon":5.39178,"is_reserved":false,"is_disabled":true,"rental_uris":{"android":"levelo://app?vid=c1dcf064-7633-4f3e-9c7d-cf25342fb85f","ios":"levelo://app?vid=c1dcf064-7633-4f3e-9c7d-cf25342fb85f"},"vehicle_type_id":"4","last_reported":1753542634,"current_range_meters":8800,"station_id":"ce4bhhp2rcd13ifvqfm0","pricing_plan_id":"cebpf4jnsgd1na2vs0mg"},{"bike_id":"e34001a6-3a62-4860-a01a-87f764606d42","system_id":"levelo_inurba_marseille","lat":43.26806,"lon":5.40273,"is_reserved":false,"is_disabled":false,"rental_uris":{"android":"levelo://app?vid=e34001a6-3a62-4860-a01a-87f764606d42","ios":"levelo://app?vid=e34001a6-3a62-4860-a01a-87f764606d42"},"vehicle_type_id":"4","last_reported":1753542634,"current_range_meters":8800,"station_id":"ce501612rcd8frsf0b60","pricing_plan_id":"cebpf4jnsgd1na2vs0mg"},{"bike_id":"19b621d0-fd8f-4680-ab87-60b5026ad27d","system_id":"levelo_inurba_marseille","lat":43.28425,"lon":5.3499,"is_reserved":false,"is_disabled":false,"rental_uris":{"android":"levelo://app?vid=19b621d0-fd8f-4680-ab87-60b5026ad27d","ios":"levelo://app?vid=19b621d0-fd8f-4680-ab87-60b5026ad27d"},"vehicle_type_id":"4","last_reported":1753542634,"current_range_meters":9200,"station_id":"ce4bhbh2rcd13ifvqepg","pricing_plan_id":"cebpf4jnsgd1na2vs0mg"},{"bike_id":"13d47122-2d7d-4a3d-be30-2aed4761c8f0","system_id":"levelo_inurba_marseille","lat":43.2466,"lon":5.38172,"is_reserved":false,"is_disabled":false,"rental_uris":{"android":"levelo://app?vid=13d47122-2d7d-4a3d-be30-2aed4761c8f0","ios":"levelo://app?vid=13d47122-2d7d-4a3d-be30-2aed4761c8f0"},"vehicle_type_id":"4","last_reported":1753542634,"current_range_meters":9200,"station_id":"ce4bhih2rcd13ifvqfr0","pricing_plan_id":"cebpf4jnsgd1na2vs0mg"},{"bike_id":"467b0577-8f68-4ef9-a007-8f772fd2c7b6","system_id":"levelo_inurba_marseille","lat":43.25086,"lon":5.39522,"is_reserved":false,"is_disabled":false,"rental_uris":{"android":"levelo://app?vid=467b0577-8f68-4ef9-a007-8f772fd2c7b6","ios":"levelo://app?vid=467b0577-8f68-4ef9-a007-8f772fd2c7b6"},"vehicle_type_id":"4","last_reported":1753542634,"current_range_meters":10800,"station_id":"ce4bhm12rcd13ifvqgkg","pricing_plan_id":"cebpf4jnsgd1na2vs0mg"},{"bike_id":"13c4991c-3e29-4005-9c0f-381d2d699abf","system_id":"levelo_inurba_marseille","lat":43.28897,"lon":5.36049,"is_reserved":false,"is_disabled":false,"rental_uris":{"android":"levelo://app?vid=13c4991c-3e29-4005-9c0f-381d2d699abf","ios":"levelo://app?vid=13c4991c-3e29-4005-9c0f-381d2d699abf"},"vehicle_type_id":"4","last_reported":1753542634,"current_range_meters":9200,"station_id":"","pricing_plan_id":"cebpf4jnsgd1na2vs0mg"},{"bike_id":"dc9e1c82-30cc-40d0-b96b-43aa21b80cfe","system_id":"levelo_inurba_marseille","lat":43.21191,"lon":5.35074,"is_reserved":false,"is_disabled":false,"rental_uris":{"android":"levelo://app?vid=dc9e1c82-30cc-40d0-b96b-43aa21b80cfe","ios":"levelo://app?vid=dc9e1c82-30cc-40d0-b96b-43aa21b80cfe"},"vehicle_type_id":"4","last_reported":1753542634,"current_range_meters":9200,"station_id":"st_cvj6sg6p6f1abm77japg","pricing_plan_id":"cebpf4jnsgd1na2vs0mg"},{"bike_id":"640b8e75-a824-47a5-b840-f776182c5599","system_id":"levelo_inurba_marseille","lat":43.28615,"lon":5.370678,"is_reserved":false,"is_disabled":false,"rental_uris":{"android":"levelo://app?vid=640b8e75-a824-47a5-b840-f776182c5599","ios":"levelo://app?vid=640b8e75-a824-47a5-b840-f776182c5599"},"vehicle_type_id":"4","last_reported":1753542634,"current_range_meters":9600,"station_id":"ce4bht12rcd13ifvqi60","pricing_plan_id":"cebpf4jnsgd1na2vs0mg"},{"bike_id":"36f49d4b-3527-4b9f-950e-bc5576855c6c","system_id":"levelo_inurba_marseille","lat":43.28668,"lon":5.38678,"is_reserved":false,"is_disabled":false,"rental_uris":{"android":"levelo://app?vid=36f49d4b-3527-4b9f-950e-bc5576855c6c","ios":"levelo://app?vid=36f49d4b-3527-4b9f-950e-bc5576855c6c"},"vehicle_type_id":"4","last_reported":1753542634,"current_range_meters":9200,"station_id":"ce4bh492rcd13ifvqdug","pricing_plan_id":"cebpf4jnsgd1na2vs0mg"},{"bike_id":"43cf4049-15dd-4e8c-88a8-61cd8dc10bf5","system_id":"levelo_inurba_marseille","lat":43.332405,"lon":5.379029,"is_reserved":false,"is_disabled":false,"rental_uris":{"android":"levelo://app?vid=43cf4049-15dd-4e8c-88a8-61cd8dc10bf5","ios":"levelo://app?vid=43cf4049-15dd-4e8c-88a8-61cd8dc10bf5"},"vehicle_type_id":"4","last_reported":1753542634,"current_range_meters":9600,"station_id":"","pricing_plan_id":"cebpf4jnsgd1na2vs0mg"},{"bike_id":"5e195b4d-4361-4af0-920d-30c8828ac262","system_id":"levelo_inurba_marseille","lat":43.29219,"lon":5.3606,"is_reserved":false,"is_disabled":false,"rental_uris":{"android":"levelo://app?vid=5e195b4d-4361-4af0-920d-30c8828ac262","ios":"levelo://app?vid=5e195b4d-4361-4af0-920d-30c8828ac262"},"vehicle_type_id":"4","last_reported":1753542634,"current_range_meters":9600,"station_id":"ce4bhbh2rcd13ifvqeqg","pricing_plan_id":"cebpf4jnsgd1na2vs0mg"},{"bike_id":"923669fe-a72e-4300-a1b1-7a36d5d8edc6","system_id":"levelo_inurba_marseille","lat":43.21192,"lon":5.35071,"is_reserved":false,"is_disabled":false,"rental_uris":{"android":"levelo://app?vid=923669fe-a72e-4300-a1b1-7a36d5d8edc6","ios":"levelo://app?vid=923669fe-a72e-4300-a1b1-7a36d5d8edc6"},"vehicle_type_id":"4","last_reported":1753542634,"current_range_meters":9600,"station_id":"st_cvj6sg6p6f1abm77japg","pricing_plan_id":"cebpf4jnsgd1na2vs0mg"},{"bike_id":"28d2987a-af49-47c1-af2d-8871171acd7d","system_id":"levelo_inurba_marseille","lat":43.303727,"lon":5.424858,"is_reserved":false,"is_disabled":false,"rental_uris":{"android":"levelo://app?vid=28d2987a-af49-47c1-af2d-8871171acd7d","ios":"levelo://app?vid=28d2987a-af49-47c1-af2d-8871171acd7d"},"vehicle_type_id":"4","last_reported":1753542634,"current_range_meters":9600,"station_id":"ce4bhoh2rcd13ifvqh6g","pricing_plan_id":"cebpf4jnsgd1na2vs0mg"},{"bike_id":"310b2400-dd2e-4320-8ec4-6b74e028c0c7","system_id":"levelo_inurba_marseille","lat":43.225043,"lon":5.347773,"is_reserved":false,"is_disabled":false,"rental_uris":{"android":"levelo://app?vid=310b2400-dd2e-4320-8ec4-6b74e028c0c7","ios":"levelo://app?vid=310b2400-dd2e-4320-8ec4-6b74e028c0c7"},"vehicle_type_id":"4","last_reported":1753542634,"current_range_meters":9600,"station_id":"","pricing_plan_id":"cebpf4jnsgd1na2vs0mg"},{"bike_id":"9e45d4a7-845f-49ff-add4-deb743109a56","system_id":"levelo_inurba_marseille","lat":43.21764,"lon":5.34579,"is_reserved":false,"is_disabled":false,"rental_uris":{"android":"levelo://app?vid=9e45d4a7-845f-49ff-add4-deb743109a56","ios":"levelo://app?vid=9e45d4a7-845f-49ff-add4-deb743109a56"},"vehicle_type_id":"4","last_reported":1753542634,"current_range_meters":10000,"station_id":"st_cvj6r9ubvosntc0bgbag","pricing_plan_id":"cebpf4jnsgd1na2vs0mg"},{"bike_id":"73c6572f-0ce1-46ae-8daf-50a61426f6e3","system_id":"levelo_inurba_marseille","lat":43.27807,"lon":5.40716,"is_reserved":false,"is_disabled":false,"rental_uris":{"android":"levelo://app?vid=73c6572f-0ce1-46ae-8daf-50a61426f6e3","ios":"levelo://app?vid=73c6572f-0ce1-46ae-8daf-50a61426f6e3"},"vehicle_type_id":"4","last_reported":1753542634,"current_range_meters":9600,"station_id":"ce4bhnh2rcd13ifvqgtg","pricing_plan_id":"cebpf4jnsgd1na2vs0mg"},{"bike_id":"d79b409f-ca1b-43df-9348-1c6665f1fc25","system_id":"levelo_inurba_marseille","lat":43.22503,"lon":5.3477,"is_reserved":false,"is_disabled":false,"rental_uris":{"android":"levelo://app?vid=d79b409f-ca1b-43df-9348-1c6665f1fc25","ios":"levelo://app?vid=d79b409f-ca1b-43df-9348-1c6665f1fc25"},"vehicle_type_id":"4","last_reported":1753542634,"current_range_meters":10000,"station_id":"st_cvj5dfep6f1abm77gieg","pricing_plan_id":"cebpf4jnsgd1na2vs0mg"},{"bike_id":"ab991371-506a-411d-b1d8-1efc5ac7cde6","system_id":"levelo_inurba_marseille","lat":43.22817,"lon":5.35143,"is_reserved":false,"is_disabled":false,"rental_uris":{"android":"levelo://app?vid=ab991371-506a-411d-b1d8-1efc5ac7cde6","ios":"levelo://app?vid=ab991371-506a-411d-b1d8-1efc5ac7cde6"},"vehicle_type_id":"4","last_reported":1753542634,"current_range_meters":10000,"station_id":"","pricing_plan_id":"cebpf4jnsgd1na2vs0mg"},{"bike_id":"a3fe9995-2e3e-423b-9540-429a92fa997e","system_id":"levelo_inurba_marseille","lat":43.30203,"lon":5.37162,"is_reserved":false,"is_disabled":false,"rental_uris":{"android":"levelo://app?vid=a3fe9995-2e3e-423b-9540-429a92fa997e","ios":"levelo://app?vid=a3fe9995-2e3e-423b-9540-429a92fa997e"},"vehicle_type_id":"4","last_reported":1753542634,"current_range_meters":10000,"station_id":"","pricing_plan_id":"cebpf4jnsgd1na2vs0mg"},{"bike_id":"52ab5c39-672c-46f9-9a93-deba3d438e8e","system_id":"levelo_inurba_marseille","lat":43.28432,"lon":5.34992,"is_reserved":false,"is_disabled":false,"rental_uris":{"android":"levelo://app?vid=52ab5c39-672c-46f9-9a93-deba3d438e8e","ios":"levelo://app?vid=52ab5c39-672c-46f9-9a93-deba3d438e8e"},"vehicle_type_id":"4","last_reported":1753542634,"current_range_meters":10000,"station_id":"ce4bhbh2rcd13ifvqepg","pricing_plan_id":"cebpf4jnsgd1na2vs0mg"},{"bike_id":"22dca147-1260-44d8-822d-d9d1d50cce31","system_id":"levelo_inurba_marseille","lat":43.27493,"lon":5.39619,"is_reserved":false,"is_disabled":false,"rental_uris":{"android":"levelo://app?vid=22dca147-1260-44d8-822d-d9d1d50cce31","ios":"levelo://app?vid=22dca147-1260-44d8-822d-d9d1d50cce31"},"vehicle_type_id":"4","last_reported":1753542634,"current_range_meters":10800,"station_id":"","pricing_plan_id":"cebpf4jnsgd1na2vs0mg"},{"bike_id":"75a52d90-a84e-49e8-9197-7fd3f8d0259a","system_id":"levelo_inurba_marseille","lat":43.26188,"lon":5.37491,"is_reserved":false,"is_disabled":true,"rental_uris":{"android":"levelo://app?vid=75a52d90-a84e-49e8-9197-7fd3f8d0259a","ios":"levelo://app?vid=75a52d90-a84e-49e8-9197-7fd3f8d0259a"},"vehicle_type_id":"4","last_reported":1753542634,"current_range_meters":10800,"station_id":"ce4bhgp2rcd13ifvqfc0","pricing_plan_id":"cebpf4jnsgd1na2vs0mg"},{"bike_id":"0083dad0-ce7b-46fb-a797-8452303d7161","system_id":"levelo_inurba_marseille","lat":43.29787,"lon":5.37106,"is_reserved":false,"is_disabled":false,"rental_uris":{"android":"levelo://app?vid=0083dad0-ce7b-46fb-a797-8452303d7161","ios":"levelo://app?vid=0083dad0-ce7b-46fb-a797-8452303d7161"},"vehicle_type_id":"4","last_reported":1753542634,"current_range_meters":10800,"station_id":"ce4bgop2rcd13ifvqc1g","pricing_plan_id":"cebpf4jnsgd1na2vs0mg"},{"bike_id":"e403f72e-daa5-4728-80ae-2d974dd2acf5","system_id":"levelo_inurba_marseille","lat":43.28264,"lon":5.35057,"is_reserved":false,"is_disabled":false,"rental_uris":{"android":"levelo://app?vid=e403f72e-daa5-4728-80ae-2d974dd2acf5","ios":"levelo://app?vid=e403f72e-daa5-4728-80ae-2d974dd2acf5"},"vehicle_type_id":"4","last_reported":1753542634,"current_range_meters":10800,"station_id":"ce4bhbp2rcd13ifvqerg","pricing_plan_id":"cebpf4jnsgd1na2vs0mg"},{"bike_id":"e6c9beaa-03bb-4fb7-a29a-03dfb4213623","system_id":"levelo_inurba_marseille","lat":43.28486,"lon":5.38579,"is_reserved":false,"is_disabled":false,"rental_uris":{"android":"levelo://app?vid=e6c9beaa-03bb-4fb7-a29a-03dfb4213623","ios":"levelo://app?vid=e6c9beaa-03bb-4fb7-a29a-03dfb4213623"},"vehicle_type_id":"4","last_reported":1753542634,"current_range_meters":11200,"station_id":"ce4bh8p2rcd13ifvqeb0","pricing_plan_id":"cebpf4jnsgd1na2vs0mg"},{"bike_id":"b90d3679-649c-4517-9eea-afc19178b651","system_id":"levelo_inurba_marseille","lat":43.24812,"lon":5.37457,"is_reserved":false,"is_disabled":false,"rental_uris":{"android":"levelo://app?vid=b90d3679-649c-4517-9eea-afc19178b651","ios":"levelo://app?vid=b90d3679-649c-4517-9eea-afc19178b651"},"vehicle_type_id":"4","last_reported":1753542634,"current_range_meters":11200,"station_id":"ce4bhgh2rcd13ifvqfb0","pricing_plan_id":"cebpf4jnsgd1na2vs0mg"},{"bike_id":"9ac2f69e-30d0-4c0c-a7b4-ea1574a51dfb","system_id":"levelo_inurba_marseille","lat":43.30948,"lon":5.39045,"is_reserved":false,"is_disabled":false,"rental_uris":{"android":"levelo://app?vid=9ac2f69e-30d0-4c0c-a7b4-ea1574a51dfb","ios":"levelo://app?vid=9ac2f69e-30d0-4c0c-a7b4-ea1574a51dfb"},"vehicle_type_id":"4","last_reported":1753542634,"current_range_meters":11200,"station_id":"ce4bgup2rcd13ifvqco0","pricing_plan_id":"cebpf4jnsgd1na2vs0mg"},{"bike_id":"4bf3130e-fa2e-4204-821a-903bdea92ef3","system_id":"levelo_inurba_marseille","lat":43.28416,"lon":5.34982,"is_reserved":false,"is_disabled":false,"rental_uris":{"android":"levelo://app?vid=4bf3130e-fa2e-4204-821a-903bdea92ef3","ios":"levelo://app?vid=4bf3130e-fa2e-4204-821a-903bdea92ef3"},"vehicle_type_id":"4","last_reported":1753542634,"current_range_meters":11200,"station_id":"ce4bhbh2rcd13ifvqepg","pricing_plan_id":"cebpf4jnsgd1na2vs0mg"},{"bike_id":"4e55759b-8928-47c8-839b-db5b17a14d1b","system_id":"levelo_inurba_marseille","lat":43.2842,"lon":5.34989,"is_reserved":false,"is_disabled":false,"rental_uris":{"android":"levelo://app?vid=4e55759b-8928-47c8-839b-db5b17a14d1b","ios":"levelo://app?vid=4e55759b-8928-47c8-839b-db5b17a14d1b"},"vehicle_type_id":"4","last_reported":1753542634,"current_range_meters":11200,"station_id":"ce4bhbh2rcd13ifvqepg","pricing_plan_id":"cebpf4jnsgd1na2vs0mg"},{"bike_id":"7f3f69ba-79ce-4c79-91ca-b8b9716f757e","system_id":"levelo_inurba_marseille","lat":43.23201,"lon":5.3555,"is_reserved":false,"is_disabled":false,"rental_uris":{"android":"levelo://app?vid=7f3f69ba-79ce-4c79-91ca-b8b9716f757e","ios":"levelo://app?vid=7f3f69ba-79ce-4c79-91ca-b8b9716f757e"},"vehicle_type_id":"4","last_reported":1753542634,"current_range_meters":11600,"station_id":"ce4bhu92rcd13ifvqi70","pricing_plan_id":"cebpf4jnsgd1na2vs0mg"},{"bike_id":"54e08407-c063-4919-a683-35991220deaf","system_id":"levelo_inurba_marseille","lat":43.26569,"lon":5.37294,"is_reserved":false,"is_disabled":false,"rental_uris":{"android":"levelo://app?vid=54e08407-c063-4919-a683-35991220deaf","ios":"levelo://app?vid=54e08407-c063-4919-a683-35991220deaf"},"vehicle_type_id":"4","last_reported":1753542634,"current_range_meters":11600,"station_id":"ce4bhg12rcd13ifvqf70","pricing_plan_id":"cebpf4jnsgd1na2vs0mg"},{"bike_id":"190ee906-dca3-4765-99f1-20ef55b1eaa9","system_id":"levelo_inurba_marseille","lat":43.23964,"lon":5.36628,"is_reserved":false,"is_disabled":false,"rental_uris":{"android":"levelo://app?vid=190ee906-dca3-4765-99f1-20ef55b1eaa9","ios":"levelo://app?vid=190ee906-dca3-4765-99f1-20ef55b1eaa9"},"vehicle_type_id":"4","last_reported":1753542634,"current_range_meters":11600,"station_id":"ce4bhi12rcd13ifvqfp0","pricing_plan_id":"cebpf4jnsgd1na2vs0mg"},{"bike_id":"e394cdd4-b9ac-44f5-b993-e070c09d483c","system_id":"levelo_inurba_marseille","lat":43.24171,"lon":5.36396,"is_reserved":false,"is_disabled":false,"rental_uris":{"android":"levelo://app?vid=e394cdd4-b9ac-44f5-b993-e070c09d483c","ios":"levelo://app?vid=e394cdd4-b9ac-44f5-b993-e070c09d483c"},"vehicle_type_id":"4","last_reported":1753542634,"current_range_meters":11600,"station_id":"cpo36qri1sfpv3e86is0","pricing_plan_id":"cebpf4jnsgd1na2vs0mg"},{"bike_id":"6ab0b13c-2ff1-417a-acfd-489d6800d4c9","system_id":"levelo_inurba_marseille","lat":43.27382,"lon":5.36246,"is_reserved":false,"is_disabled":true,"rental_uris":{"android":"levelo://app?vid=6ab0b13c-2ff1-417a-acfd-489d6800d4c9","ios":"levelo://app?vid=6ab0b13c-2ff1-417a-acfd-489d6800d4c9"},"vehicle_type_id":"4","last_reported":1753542634,"current_range_meters":11600,"station_id":"ce4bhbh2rcd13ifvqeo0","pricing_plan_id":"cebpf4jnsgd1na2vs0mg"},{"bike_id":"d117afdd-5d2a-44d2-a783-65d28f5e3c86","system_id":"levelo_inurba_marseille","lat":43.28417,"lon":5.34991,"is_reserved":false,"is_disabled":false,"rental_uris":{"android":"levelo://app?vid=d117afdd-5d2a-44d2-a783-65d28f5e3c86","ios":"levelo://app?vid=d117afdd-5d2a-44d2-a783-65d28f5e3c86"},"vehicle_type_id":"4","last_reported":1753542634,"current_range_meters":12000,"station_id":"ce4bhbh2rcd13ifvqepg","pricing_plan_id":"cebpf4jnsgd1na2vs0mg"},{"bike_id":"847b44c9-efab-4746-8937-dcebf1206fff","system_id":"levelo_inurba_marseille","lat":43.262106,"lon":5.374364,"is_reserved":false,"is_disabled":false,"rental_uris":{"android":"levelo://app?vid=847b44c9-efab-4746-8937-dcebf1206fff","ios":"levelo://app?vid=847b44c9-efab-4746-8937-dcebf1206fff"},"vehicle_type_id":"4","last_reported":1753542634,"current_range_meters":12000,"station_id":"ce4bhgp2rcd13ifvqfc0","pricing_plan_id":"cebpf4jnsgd1na2vs0mg"},{"bike_id":"de99b14c-9afd-4bdd-bc56-50354c110c3d","system_id":"levelo_inurba_marseille","lat":43.25467,"lon":5.37687,"is_reserved":false,"is_disabled":false,"rental_uris":{"android":"levelo://app?vid=de99b14c-9afd-4bdd-bc56-50354c110c3d","ios":"levelo://app?vid=de99b14c-9afd-4bdd-bc56-50354c110c3d"},"vehicle_type_id":"4","last_reported":1753542634,"current_range_meters":12000,"station_id":"","pricing_plan_id":"cebpf4jnsgd1na2vs0mg"},{"bike_id":"99cd924e-4adb-4d60-b968-210c7664a393","system_id":"levelo_inurba_marseille","lat":43.28619,"lon":5.35101,"is_reserved":false,"is_disabled":false,"rental_uris":{"android":"levelo://app?vid=99cd924e-4adb-4d60-b968-210c7664a393","ios":"levelo://app?vid=99cd924e-4adb-4d60-b968-210c7664a393"},"vehicle_type_id":"4","last_reported":1753542634,"current_range_meters":12000,"station_id":"ce4bhch2rcd13ifvqeug","pricing_plan_id":"cebpf4jnsgd1na2vs0mg"},{"bike_id":"2551aeb9-d478-4559-97a6-036ce08c7df0","system_id":"levelo_inurba_marseille","lat":43.28436,"lon":5.34981,"is_reserved":false,"is_disabled":false,"rental_uris":{"android":"levelo://app?vid=2551aeb9-d478-4559-97a6-036ce08c7df0","ios":"levelo://app?vid=2551aeb9-d478-4559-97a6-036ce08c7df0"},"vehicle_type_id":"4","last_reported":1753542634,"current_range_meters":12000,"station_id":"ce4bhbh2rcd13ifvqepg","pricing_plan_id":"cebpf4jnsgd1na2vs0mg"},{"bike_id":"6070b287-ba72-4b04-8e31-29269d5dd36d","system_id":"levelo_inurba_marseille","lat":43.24086,"lon":5.37731,"is_reserved":false,"is_disabled":false,"rental_uris":{"android":"levelo://app?vid=6070b287-ba72-4b04-8e31-29269d5dd36d","ios":"levelo://app?vid=6070b287-ba72-4b04-8e31-29269d5dd36d"},"vehicle_type_id":"4","last_reported":1753542634,"current_range_meters":12000,"station_id":"ce4bhnp2rcd13ifvqgvg","pricing_plan_id":"cebpf4jnsgd1na2vs0mg"},{"bike_id":"9bf50f85-8949-4801-9ad2-89784d6514ae","system_id":"levelo_inurba_marseille","lat":43.21749,"lon":5.34611,"is_reserved":false,"is_disabled":false,"rental_uris":{"android":"levelo://app?vid=9bf50f85-8949-4801-9ad2-89784d6514ae","ios":"levelo://app?vid=9bf50f85-8949-4801-9ad2-89784d6514ae"},"vehicle_type_id":"4","last_reported":1753542634,"current_range_meters":12000,"station_id":"st_cvj6r9ubvosntc0bgbag","pricing_plan_id":"cebpf4jnsgd1na2vs0mg"},{"bike_id":"6a5be0da-2bbd-443f-9885-a9d470c4f603","system_id":"levelo_inurba_marseille","lat":43.24172,"lon":5.36393,"is_reserved":false,"is_disabled":false,"rental_uris":{"android":"levelo://app?vid=6a5be0da-2bbd-443f-9885-a9d470c4f603","ios":"levelo://app?vid=6a5be0da-2bbd-443f-9885-a9d470c4f603"},"vehicle_type_id":"4","last_reported":1753542634,"current_range_meters":12000,"station_id":"cpo36qri1sfpv3e86is0","pricing_plan_id":"cebpf4jnsgd1na2vs0mg"},{"bike_id":"b7375410-01ab-45f9-a65f-6e214e4ed86d","system_id":"levelo_inurba_marseille","lat":43.28414,"lon":5.34997,"is_reserved":false,"is_disabled":false,"rental_uris":{"android":"levelo://app?vid=b7375410-01ab-45f9-a65f-6e214e4ed86d","ios":"levelo://app?vid=b7375410-01ab-45f9-a65f-6e214e4ed86d"},"vehicle_type_id":"4","last_reported":1753542634,"current_range_meters":12000,"station_id":"ce4bhbh2rcd13ifvqepg","pricing_plan_id":"cebpf4jnsgd1na2vs0mg"},{"bike_id":"57755280-973c-4ff3-9c25-8f15e2c5b510","system_id":"levelo_inurba_marseille","lat":43.31872,"lon":5.37373,"is_reserved":false,"is_disabled":false,"rental_uris":{"android":"levelo://app?vid=57755280-973c-4ff3-9c25-8f15e2c5b510","ios":"levelo://app?vid=57755280-973c-4ff3-9c25-8f15e2c5b510"},"vehicle_type_id":"4","last_reported":1753542634,"current_range_meters":12000,"station_id":"","pricing_plan_id":"cebpf4jnsgd1na2vs0mg"},{"bike_id":"7937f471-dcc0-4727-896c-b6f4f4a0c96e","system_id":"levelo_inurba_marseille","lat":43.27552,"lon":5.38409,"is_reserved":false,"is_disabled":false,"rental_uris":{"android":"levelo://app?vid=7937f471-dcc0-4727-896c-b6f4f4a0c96e","ios":"levelo://app?vid=7937f471-dcc0-4727-896c-b6f4f4a0c96e"},"vehicle_type_id":"4","last_reported":1753542634,"current_range_meters":12000,"station_id":"ce4bhh92rcd13ifvqfi0","pricing_plan_id":"cebpf4jnsgd1na2vs0mg"},{"bike_id":"f2c0d178-a474-46a0-b002-379a7a30c411","system_id":"levelo_inurba_marseille","lat":43.293991,"lon":5.376181,"is_reserved":false,"is_disabled":false,"rental_uris":{"android":"levelo://app?vid=f2c0d178-a474-46a0-b002-379a7a30c411","ios":"levelo://app?vid=f2c0d178-a474-46a0-b002-379a7a30c411"},"vehicle_type_id":"4","last_reported":1753542634,"current_range_meters":12400,"station_id":"","pricing_plan_id":"cebpf4jnsgd1na2vs0mg"},{"bike_id":"09b7f600-cb1e-4ea0-adc2-9c3dcb778794","system_id":"levelo_inurba_marseille","lat":43.225025,"lon":5.347913,"is_reserved":false,"is_disabled":false,"rental_uris":{"android":"levelo://app?vid=09b7f600-cb1e-4ea0-adc2-9c3dcb778794","ios":"levelo://app?vid=09b7f600-cb1e-4ea0-adc2-9c3dcb778794"},"vehicle_type_id":"4","last_reported":1753542634,"current_range_meters":12400,"station_id":"st_cvj5dfep6f1abm77gieg","pricing_plan_id":"cebpf4jnsgd1na2vs0mg"},{"bike_id":"7f7a4770-cb44-4cbe-afee-f7531a238fa9","system_id":"levelo_inurba_marseille","lat":43.225024,"lon":5.347911,"is_reserved":false,"is_disabled":false,"rental_uris":{"android":"levelo://app?vid=7f7a4770-cb44-4cbe-afee-f7531a238fa9","ios":"levelo://app?vid=7f7a4770-cb44-4cbe-afee-f7531a238fa9"},"vehicle_type_id":"4","last_reported":1753542634,"current_range_meters":12400,"station_id":"st_cvj5dfep6f1abm77gieg","pricing_plan_id":"cebpf4jnsgd1na2vs0mg"},{"bike_id":"9bff4c30-7d52-4173-88ba-afd3702b54f6","system_id":"levelo_inurba_marseille","lat":43.279869,"lon":5.416579,"is_reserved":false,"is_disabled":false,"rental_uris":{"android":"levelo://app?vid=9bff4c30-7d52-4173-88ba-afd3702b54f6","ios":"levelo://app?vid=9bff4c30-7d52-4173-88ba-afd3702b54f6"},"vehicle_type_id":"4","last_reported":1753542634,"current_range_meters":12400,"station_id":"ce4bho12rcd13ifvqh1g","pricing_plan_id":"cebpf4jnsgd1na2vs0mg"},{"bike_id":"1855cbe1-5a05-480e-9057-6e9b3976dbbe","system_id":"levelo_inurba_marseille","lat":43.33737,"lon":5.391859,"is_reserved":false,"is_disabled":false,"rental_uris":{"android":"levelo://app?vid=1855cbe1-5a05-480e-9057-6e9b3976dbbe","ios":"levelo://app?vid=1855cbe1-5a05-480e-9057-6e9b3976dbbe"},"vehicle_type_id":"4","last_reported":1753542634,"current_range_meters":12400,"station_id":"ce4bhr92rcd13ifvqhsg","pricing_plan_id":"cebpf4jnsgd1na2vs0mg"},{"bike_id":"38ab9f3b-fe76-4f47-bf05-e3ca256156a4","system_id":"levelo_inurba_marseille","lat":43.28416,"lon":5.34992,"is_reserved":false,"is_disabled":false,"rental_uris":{"android":"levelo://app?vid=38ab9f3b-fe76-4f47-bf05-e3ca256156a4","ios":"levelo://app?vid=38ab9f3b-fe76-4f47-bf05-e3ca256156a4"},"vehicle_type_id":"4","last_reported":1753542634,"current_range_meters":12400,"station_id":"ce4bhbh2rcd13ifvqepg","pricing_plan_id":"cebpf4jnsgd1na2vs0mg"},{"bike_id":"09447d92-0522-480e-b6b5-24959949ccf9","system_id":"levelo_inurba_marseille","lat":43.32436,"lon":5.36781,"is_reserved":false,"is_disabled":false,"rental_uris":{"android":"levelo://app?vid=09447d92-0522-480e-b6b5-24959949ccf9","ios":"levelo://app?vid=09447d92-0522-480e-b6b5-24959949ccf9"},"vehicle_type_id":"4","last_reported":1753542634,"current_range_meters":12800,"station_id":"","pricing_plan_id":"cebpf4jnsgd1na2vs0mg"},{"bike_id":"b5aab1b5-818a-4dfd-b7ae-70df5639e329","system_id":"levelo_inurba_marseille","lat":43.27059,"lon":5.42286,"is_reserved":false,"is_disabled":false,"rental_uris":{"android":"levelo://app?vid=b5aab1b5-818a-4dfd-b7ae-70df5639e329","ios":"levelo://app?vid=b5aab1b5-818a-4dfd-b7ae-70df5639e329"},"vehicle_type_id":"4","last_reported":1753542634,"current_range_meters":12800,"station_id":"ce4bhk92rcd13ifvqgb0","pricing_plan_id":"cebpf4jnsgd1na2vs0mg"},{"bike_id":"ca670705-e2cc-4fcb-a2dc-0392bf7e91c5","system_id":"levelo_inurba_marseille","lat":43.28266,"lon":5.35099,"is_reserved":false,"is_disabled":false,"rental_uris":{"android":"levelo://app?vid=ca670705-e2cc-4fcb-a2dc-0392bf7e91c5","ios":"levelo://app?vid=ca670705-e2cc-4fcb-a2dc-0392bf7e91c5"},"vehicle_type_id":"4","last_reported":1753542634,"current_range_meters":12800,"station_id":"ce4bhbp2rcd13ifvqerg","pricing_plan_id":"cebpf4jnsgd1na2vs0mg"},{"bike_id":"7f8e4020-7342-40f6-9406-666201abe0b8","system_id":"levelo_inurba_marseille","lat":43.2826,"lon":5.35079,"is_reserved":false,"is_disabled":false,"rental_uris":{"android":"levelo://app?vid=7f8e4020-7342-40f6-9406-666201abe0b8","ios":"levelo://app?vid=7f8e4020-7342-40f6-9406-666201abe0b8"},"vehicle_type_id":"4","last_reported":1753542634,"current_range_meters":12800,"station_id":"ce4bhbp2rcd13ifvqerg","pricing_plan_id":"cebpf4jnsgd1na2vs0mg"},{"bike_id":"7ffd0081-2446-4eb8-8bb3-31129a3b0cb2","system_id":"levelo_inurba_marseille","lat":43.28396,"lon":5.37527,"is_reserved":false,"is_disabled":false,"rental_uris":{"android":"levelo://app?vid=7ffd0081-2446-4eb8-8bb3-31129a3b0cb2","ios":"levelo://app?vid=7ffd0081-2446-4eb8-8bb3-31129a3b0cb2"},"vehicle_type_id":"4","last_reported":1753542634,"current_range_meters":12800,"station_id":"ce4bh412rcd13ifvqds0","pricing_plan_id":"cebpf4jnsgd1na2vs0mg"},{"bike_id":"64596508-67f4-4f27-9fcd-7050394cc493","system_id":"levelo_inurba_marseille","lat":43.21744,"lon":5.34604,"is_reserved":false,"is_disabled":false,"rental_uris":{"android":"levelo://app?vid=64596508-67f4-4f27-9fcd-7050394cc493","ios":"levelo://app?vid=64596508-67f4-4f27-9fcd-7050394cc493"},"vehicle_type_id":"4","last_reported":1753542634,"current_range_meters":13600,"station_id":"st_cvj6r9ubvosntc0bgbag","pricing_plan_id":"cebpf4jnsgd1na2vs0mg"},{"bike_id":"01919711-51c0-4b9e-863e-584f9a31b4ec","system_id":"levelo_inurba_marseille","lat":43.29862,"lon":5.39733,"is_reserved":false,"is_disabled":true,"rental_uris":{"android":"levelo://app?vid=01919711-51c0-4b9e-863e-584f9a31b4ec","ios":"levelo://app?vid=01919711-51c0-4b9e-863e-584f9a31b4ec"},"vehicle_type_id":"4","last_reported":1753542634,"current_range_meters":13600,"station_id":"ce4bh0h2rcd13ifvqd50","pricing_plan_id":"cebpf4jnsgd1na2vs0mg"},{"bike_id":"d8502dcd-bcb3-45f4-a960-65008d2a0256","system_id":"levelo_inurba_marseille","lat":43.31703,"lon":5.37757,"is_reserved":false,"is_disabled":false,"rental_uris":{"android":"levelo://app?vid=d8502dcd-bcb3-45f4-a960-65008d2a0256","ios":"levelo://app?vid=d8502dcd-bcb3-45f4-a960-65008d2a0256"},"vehicle_type_id":"4","last_reported":1753542634,"current_range_meters":13600,"station_id":"ce4bgth2rcd13ifvqch0","pricing_plan_id":"cebpf4jnsgd1na2vs0mg"},{"bike_id":"46d980cb-fc0a-46b1-9313-fb55ce198a89","system_id":"levelo_inurba_marseille","lat":43.28419,"lon":5.34983,"is_reserved":false,"is_disabled":false,"rental_uris":{"android":"levelo://app?vid=46d980cb-fc0a-46b1-9313-fb55ce198a89","ios":"levelo://app?vid=46d980cb-fc0a-46b1-9313-fb55ce198a89"},"vehicle_type_id":"4","last_reported":1753542634,"current_range_meters":13600,"station_id":"ce4bhbh2rcd13ifvqepg","pricing_plan_id":"cebpf4jnsgd1na2vs0mg"},{"bike_id":"d0413bb0-a93d-4710-b632-26d12cfeb5aa","system_id":"levelo_inurba_marseille","lat":43.2968,"lon":5.37284,"is_reserved":false,"is_disabled":false,"rental_uris":{"android":"levelo://app?vid=d0413bb0-a93d-4710-b632-26d12cfeb5aa","ios":"levelo://app?vid=d0413bb0-a93d-4710-b632-26d12cfeb5aa"},"vehicle_type_id":"4","last_reported":1753542634,"current_range_meters":13600,"station_id":"ce4bgk12rcd13ifvqbj0","pricing_plan_id":"cebpf4jnsgd1na2vs0mg"},{"bike_id":"1a5b683e-d8ad-435a-a95d-29a9a1f3c324","system_id":"levelo_inurba_marseille","lat":43.28398,"lon":5.37525,"is_reserved":false,"is_disabled":false,"rental_uris":{"android":"levelo://app?vid=1a5b683e-d8ad-435a-a95d-29a9a1f3c324","ios":"levelo://app?vid=1a5b683e-d8ad-435a-a95d-29a9a1f3c324"},"vehicle_type_id":"4","last_reported":1753542634,"current_range_meters":13600,"station_id":"ce4bh412rcd13ifvqds0","pricing_plan_id":"cebpf4jnsgd1na2vs0mg"},{"bike_id":"1b38e58d-b2c1-48ba-932b-6d56678617cf","system_id":"levelo_inurba_marseille","lat":43.29937,"lon":5.36549,"is_reserved":false,"is_disabled":false,"rental_uris":{"android":"levelo://app?vid=1b38e58d-b2c1-48ba-932b-6d56678617cf","ios":"levelo://app?vid=1b38e58d-b2c1-48ba-932b-6d56678617cf"},"vehicle_type_id":"4","last_reported":1753542634,"current_range_meters":13600,"station_id":"ce4bgm92rcd13ifvqbr0","pricing_plan_id":"cebpf4jnsgd1na2vs0mg"},{"bike_id":"d00b6abc-174d-48a1-8e37-47955a519e3f","system_id":"levelo_inurba_marseille","lat":43.22931,"lon":5.35375,"is_reserved":false,"is_disabled":false,"rental_uris":{"android":"levelo://app?vid=d00b6abc-174d-48a1-8e37-47955a519e3f","ios":"levelo://app?vid=d00b6abc-174d-48a1-8e37-47955a519e3f"},"vehicle_type_id":"4","last_reported":1753542634,"current_range_meters":14000,"station_id":"cpo3532slgdg3j2ikp40","pricing_plan_id":"cebpf4jnsgd1na2vs0mg"},{"bike_id":"c3c2652b-f2d7-4ed4-89ec-9559feb01451","system_id":"levelo_inurba_marseille","lat":43.29226,"lon":5.360481,"is_reserved":false,"is_disabled":true,"rental_uris":{"android":"levelo://app?vid=c3c2652b-f2d7-4ed4-89ec-9559feb01451","ios":"levelo://app?vid=c3c2652b-f2d7-4ed4-89ec-9559feb01451"},"vehicle_type_id":"4","last_reported":1753542634,"current_range_meters":14000,"station_id":"ce4bhbh2rcd13ifvqeqg","pricing_plan_id":"cebpf4jnsgd1na2vs0mg"},{"bike_id":"fdd614af-577b-4632-8747-5935f9329589","system_id":"levelo_inurba_marseille","lat":43.29718,"lon":5.37695,"is_reserved":false,"is_disabled":false,"rental_uris":{"android":"levelo://app?vid=fdd614af-577b-4632-8747-5935f9329589","ios":"levelo://app?vid=fdd614af-577b-4632-8747-5935f9329589"},"vehicle_type_id":"4","last_reported":1753542634,"current_range_meters":14000,"station_id":"ce4bgkh2rcd13ifvqbl0","pricing_plan_id":"cebpf4jnsgd1na2vs0mg"},{"bike_id":"65582810-0102-4730-8b0e-f604af17a72a","system_id":"levelo_inurba_marseille","lat":43.30952,"lon":5.39032,"is_reserved":false,"is_disabled":false,"rental_uris":{"android":"levelo://app?vid=65582810-0102-4730-8b0e-f604af17a72a","ios":"levelo://app?vid=65582810-0102-4730-8b0e-f604af17a72a"},"vehicle_type_id":"4","last_reported":1753542634,"current_range_meters":14000,"station_id":"ce4bgup2rcd13ifvqco0","pricing_plan_id":"cebpf4jnsgd1na2vs0mg"},{"bike_id":"1f48da96-a91e-4c2d-a140-4df6e942d0c7","system_id":"levelo_inurba_marseille","lat":43.27367,"lon":5.36257,"is_reserved":false,"is_disabled":false,"rental_uris":{"android":"levelo://app?vid=1f48da96-a91e-4c2d-a140-4df6e942d0c7","ios":"levelo://app?vid=1f48da96-a91e-4c2d-a140-4df6e942d0c7"},"vehicle_type_id":"4","last_reported":1753542634,"current_range_meters":14000,"station_id":"ce4bhbh2rcd13ifvqeo0","pricing_plan_id":"cebpf4jnsgd1na2vs0mg"},{"bike_id":"c6915c61-c527-41d7-94a1-fe033235465a","system_id":"levelo_inurba_marseille","lat":43.27989,"lon":5.40015,"is_reserved":false,"is_disabled":false,"rental_uris":{"android":"levelo://app?vid=c6915c61-c527-41d7-94a1-fe033235465a","ios":"levelo://app?vid=c6915c61-c527-41d7-94a1-fe033235465a"},"vehicle_type_id":"4","last_reported":1753542634,"current_range_meters":14400,"station_id":"ce4bho92rcd13ifvqh4g","pricing_plan_id":"cebpf4jnsgd1na2vs0mg"},{"bike_id":"ce9bc326-53f7-413d-a2f9-a2b1ec0eb612","system_id":"levelo_inurba_marseille","lat":43.30779,"lon":5.37654,"is_reserved":false,"is_disabled":false,"rental_uris":{"android":"levelo://app?vid=ce9bc326-53f7-413d-a2f9-a2b1ec0eb612","ios":"levelo://app?vid=ce9bc326-53f7-413d-a2f9-a2b1ec0eb612"},"vehicle_type_id":"4","last_reported":1753542634,"current_range_meters":14400,"station_id":"ce4bgv92rcd13ifvqcq0","pricing_plan_id":"cebpf4jnsgd1na2vs0mg"},{"bike_id":"7254aad9-4b7a-44b4-89bb-4f6b7cb10520","system_id":"levelo_inurba_marseille","lat":43.2606,"lon":5.39389,"is_reserved":false,"is_disabled":false,"rental_uris":{"android":"levelo://app?vid=7254aad9-4b7a-44b4-89bb-4f6b7cb10520","ios":"levelo://app?vid=7254aad9-4b7a-44b4-89bb-4f6b7cb10520"},"vehicle_type_id":"4","last_reported":1753542634,"current_range_meters":14400,"station_id":"ce4bhh92rcd13ifvqfj0","pricing_plan_id":"cebpf4jnsgd1na2vs0mg"},{"bike_id":"1e44d163-b436-4705-bc0d-2603263461d8","system_id":"levelo_inurba_marseille","lat":43.24667,"lon":5.3817,"is_reserved":false,"is_disabled":false,"rental_uris":{"android":"levelo://app?vid=1e44d163-b436-4705-bc0d-2603263461d8","ios":"levelo://app?vid=1e44d163-b436-4705-bc0d-2603263461d8"},"vehicle_type_id":"4","last_reported":1753542634,"current_range_meters":14000,"station_id":"ce4bhih2rcd13ifvqfr0","pricing_plan_id":"cebpf4jnsgd1na2vs0mg"},{"bike_id":"7d222e0c-2249-4ecc-a29a-2718146ba132","system_id":"levelo_inurba_marseille","lat":43.27375,"lon":5.36255,"is_reserved":false,"is_disabled":false,"rental_uris":{"android":"levelo://app?vid=7d222e0c-2249-4ecc-a29a-2718146ba132","ios":"levelo://app?vid=7d222e0c-2249-4ecc-a29a-2718146ba132"},"vehicle_type_id":"4","last_reported":1753542634,"current_range_meters":14800,"station_id":"ce4bhbh2rcd13ifvqeo0","pricing_plan_id":"cebpf4jnsgd1na2vs0mg"},{"bike_id":"34f7005c-b633-4420-b2f0-b819739450b8","system_id":"levelo_inurba_marseille","lat":43.28269,"lon":5.35068,"is_reserved":false,"is_disabled":false,"rental_uris":{"android":"levelo://app?vid=34f7005c-b633-4420-b2f0-b819739450b8","ios":"levelo://app?vid=34f7005c-b633-4420-b2f0-b819739450b8"},"vehicle_type_id":"4","last_reported":1753542634,"current_range_meters":14800,"station_id":"ce4bhbp2rcd13ifvqerg","pricing_plan_id":"cebpf4jnsgd1na2vs0mg"},{"bike_id":"e8dde99c-6ecf-4e63-9ffc-47ebe879a97f","system_id":"levelo_inurba_marseille","lat":43.290311,"lon":5.399895,"is_reserved":false,"is_disabled":false,"rental_uris":{"android":"levelo://app?vid=e8dde99c-6ecf-4e63-9ffc-47ebe879a97f","ios":"levelo://app?vid=e8dde99c-6ecf-4e63-9ffc-47ebe879a97f"},"vehicle_type_id":"4","last_reported":1753542634,"current_range_meters":14800,"station_id":"ce4bh392rcd13ifvqdm0","pricing_plan_id":"cebpf4jnsgd1na2vs0mg"},{"bike_id":"9fe56bce-06a5-4998-bcea-528fb3db8ccc","system_id":"levelo_inurba_marseille","lat":43.27378,"lon":5.36254,"is_reserved":false,"is_disabled":false,"rental_uris":{"android":"levelo://app?vid=9fe56bce-06a5-4998-bcea-528fb3db8ccc","ios":"levelo://app?vid=9fe56bce-06a5-4998-bcea-528fb3db8ccc"},"vehicle_type_id":"4","last_reported":1753542634,"current_range_meters":15200,"station_id":"ce4bhbh2rcd13ifvqeo0","pricing_plan_id":"cebpf4jnsgd1na2vs0mg"},{"bike_id":"206fe026-f882-49ec-bdfe-abc80735ef09","system_id":"levelo_inurba_marseille","lat":43.30544,"lon":5.3656,"is_reserved":false,"is_disabled":false,"rental_uris":{"android":"levelo://app?vid=206fe026-f882-49ec-bdfe-abc80735ef09","ios":"levelo://app?vid=206fe026-f882-49ec-bdfe-abc80735ef09"},"vehicle_type_id":"4","last_reported":1753542634,"current_range_meters":15200,"station_id":"ce4bgs12rcd13ifvqcag","pricing_plan_id":"cebpf4jnsgd1na2vs0mg"},{"bike_id":"8cb3cdfe-341c-4219-9fb7-adf0c31075d3","system_id":"levelo_inurba_marseille","lat":43.22488,"lon":5.34796,"is_reserved":false,"is_disabled":false,"rental_uris":{"android":"levelo://app?vid=8cb3cdfe-341c-4219-9fb7-adf0c31075d3","ios":"levelo://app?vid=8cb3cdfe-341c-4219-9fb7-adf0c31075d3"},"vehicle_type_id":"4","last_reported":1753542634,"current_range_meters":15200,"station_id":"st_cvj5dfep6f1abm77gieg","pricing_plan_id":"cebpf4jnsgd1na2vs0mg"},{"bike_id":"52cf1d00-1d56-4716-a79a-df0b623d5160","system_id":"levelo_inurba_marseille","lat":43.24171,"lon":5.364,"is_reserved":false,"is_disabled":false,"rental_uris":{"android":"levelo://app?vid=52cf1d00-1d56-4716-a79a-df0b623d5160","ios":"levelo://app?vid=52cf1d00-1d56-4716-a79a-df0b623d5160"},"vehicle_type_id":"4","last_reported":1753542634,"current_range_meters":15200,"station_id":"cpo36qri1sfpv3e86is0","pricing_plan_id":"cebpf4jnsgd1na2vs0mg"},{"bike_id":"c55ee4f9-7f33-49e0-be9e-e78d996f79f4","system_id":"levelo_inurba_marseille","lat":43.30256,"lon":5.40059,"is_reserved":false,"is_disabled":false,"rental_uris":{"android":"levelo://app?vid=c55ee4f9-7f33-49e0-be9e-e78d996f79f4","ios":"levelo://app?vid=c55ee4f9-7f33-49e0-be9e-e78d996f79f4"},"vehicle_type_id":"4","last_reported":1753542634,"current_range_meters":15200,"station_id":"ce4bgvh2rcd13ifvqcs0","pricing_plan_id":"cebpf4jnsgd1na2vs0mg"},{"bike_id":"a05343f6-5345-451e-92c9-8d14b4ec04eb","system_id":"levelo_inurba_marseille","lat":43.314919,"lon":5.373082,"is_reserved":false,"is_disabled":false,"rental_uris":{"android":"levelo://app?vid=a05343f6-5345-451e-92c9-8d14b4ec04eb","ios":"levelo://app?vid=a05343f6-5345-451e-92c9-8d14b4ec04eb"},"vehicle_type_id":"4","last_reported":1753542634,"current_range_meters":15200,"station_id":"","pricing_plan_id":"cebpf4jnsgd1na2vs0mg"},{"bike_id":"4f069cb2-e85f-44ab-8659-b3444c19b657","system_id":"levelo_inurba_marseille","lat":43.23189,"lon":5.35555,"is_reserved":false,"is_disabled":false,"rental_uris":{"android":"levelo://app?vid=4f069cb2-e85f-44ab-8659-b3444c19b657","ios":"levelo://app?vid=4f069cb2-e85f-44ab-8659-b3444c19b657"},"vehicle_type_id":"4","last_reported":1753542634,"current_range_meters":15200,"station_id":"ce4bhu92rcd13ifvqi70","pricing_plan_id":"cebpf4jnsgd1na2vs0mg"},{"bike_id":"61cd7fe3-237f-4708-afc7-dd8a81b4454c","system_id":"levelo_inurba_marseille","lat":43.22956,"lon":5.3537,"is_reserved":false,"is_disabled":false,"rental_uris":{"android":"levelo://app?vid=61cd7fe3-237f-4708-afc7-dd8a81b4454c","ios":"levelo://app?vid=61cd7fe3-237f-4708-afc7-dd8a81b4454c"},"vehicle_type_id":"4","last_reported":1753542634,"current_range_meters":15200,"station_id":"cpo3532slgdg3j2ikp40","pricing_plan_id":"cebpf4jnsgd1na2vs0mg"},{"bike_id":"adc99020-a046-4247-b3bb-abb9aabfb167","system_id":"levelo_inurba_marseille","lat":43.243971,"lon":5.370611,"is_reserved":false,"is_disabled":false,"rental_uris":{"android":"levelo://app?vid=adc99020-a046-4247-b3bb-abb9aabfb167","ios":"levelo://app?vid=adc99020-a046-4247-b3bb-abb9aabfb167"},"vehicle_type_id":"4","last_reported":1753542634,"current_range_meters":15200,"station_id":"ce4bhhh2rcd13ifvqfk0","pricing_plan_id":"cebpf4jnsgd1na2vs0mg"},{"bike_id":"25e07804-327d-451e-af4e-6a6e09b5f052","system_id":"levelo_inurba_marseille","lat":43.26558,"lon":5.37281,"is_reserved":false,"is_disabled":false,"rental_uris":{"android":"levelo://app?vid=25e07804-327d-451e-af4e-6a6e09b5f052","ios":"levelo://app?vid=25e07804-327d-451e-af4e-6a6e09b5f052"},"vehicle_type_id":"4","last_reported":1753542634,"current_range_meters":15200,"station_id":"ce4bhg12rcd13ifvqf70","pricing_plan_id":"cebpf4jnsgd1na2vs0mg"},{"bike_id":"a1d5115b-997f-44a5-8b4b-21cb29757407","system_id":"levelo_inurba_marseille","lat":43.31232,"lon":5.37327,"is_reserved":false,"is_disabled":false,"rental_uris":{"android":"levelo://app?vid=a1d5115b-997f-44a5-8b4b-21cb29757407","ios":"levelo://app?vid=a1d5115b-997f-44a5-8b4b-21cb29757407"},"vehicle_type_id":"4","last_reported":1753542634,"current_range_meters":15200,"station_id":"","pricing_plan_id":"cebpf4jnsgd1na2vs0mg"},{"bike_id":"c34587a8-a019-4b34-8b52-b2a04d65fdd5","system_id":"levelo_inurba_marseille","lat":43.26024,"lon":5.37569,"is_reserved":false,"is_disabled":false,"rental_uris":{"android":"levelo://app?vid=c34587a8-a019-4b34-8b52-b2a04d65fdd5","ios":"levelo://app?vid=c34587a8-a019-4b34-8b52-b2a04d65fdd5"},"vehicle_type_id":"4","last_reported":1753542634,"current_range_meters":16000,"station_id":"ce4bhgh2rcd13ifvqfa0","pricing_plan_id":"cebpf4jnsgd1na2vs0mg"},{"bike_id":"ed2ee4b6-52aa-404c-a409-3c042605359d","system_id":"levelo_inurba_marseille","lat":43.231818,"lon":5.399831,"is_reserved":false,"is_disabled":false,"rental_uris":{"android":"levelo://app?vid=ed2ee4b6-52aa-404c-a409-3c042605359d","ios":"levelo://app?vid=ed2ee4b6-52aa-404c-a409-3c042605359d"},"vehicle_type_id":"4","last_reported":1753542634,"current_range_meters":12800,"station_id":"ce4bhn12rcd13ifvqgqg","pricing_plan_id":"cebpf4jnsgd1na2vs0mg"},{"bike_id":"c26fa6f3-2305-45cc-9cea-ad00f2d94bce","system_id":"levelo_inurba_marseille","lat":43.28414,"lon":5.34987,"is_reserved":false,"is_disabled":false,"rental_uris":{"android":"levelo://app?vid=c26fa6f3-2305-45cc-9cea-ad00f2d94bce","ios":"levelo://app?vid=c26fa6f3-2305-45cc-9cea-ad00f2d94bce"},"vehicle_type_id":"4","last_reported":1753542634,"current_range_meters":15200,"station_id":"ce4bhbh2rcd13ifvqepg","pricing_plan_id":"cebpf4jnsgd1na2vs0mg"},{"bike_id":"7e65c5ea-0429-45f5-a396-bd32e67f0744","system_id":"levelo_inurba_marseille","lat":43.33458,"lon":5.40027,"is_reserved":false,"is_disabled":false,"rental_uris":{"android":"levelo://app?vid=7e65c5ea-0429-45f5-a396-bd32e67f0744","ios":"levelo://app?vid=7e65c5ea-0429-45f5-a396-bd32e67f0744"},"vehicle_type_id":"4","last_reported":1753542634,"current_range_meters":15200,"station_id":"","pricing_plan_id":"cebpf4jnsgd1na2vs0mg"},{"bike_id":"a0bbc8d0-d696-4180-ae75-c199df674067","system_id":"levelo_inurba_marseille","lat":43.255803,"lon":5.382308,"is_reserved":false,"is_disabled":false,"rental_uris":{"android":"levelo://app?vid=a0bbc8d0-d696-4180-ae75-c199df674067","ios":"levelo://app?vid=a0bbc8d0-d696-4180-ae75-c199df674067"},"vehicle_type_id":"4","last_reported":1753542634,"current_range_meters":16000,"station_id":"ce4bhih2rcd13ifvqfs0","pricing_plan_id":"cebpf4jnsgd1na2vs0mg"},{"bike_id":"898d1f8e-e261-4f25-9386-a6825028d102","system_id":"levelo_inurba_marseille","lat":43.29064,"lon":5.47387,"is_reserved":false,"is_disabled":false,"rental_uris":{"android":"levelo://app?vid=898d1f8e-e261-4f25-9386-a6825028d102","ios":"levelo://app?vid=898d1f8e-e261-4f25-9386-a6825028d102"},"vehicle_type_id":"4","last_reported":1753542634,"current_range_meters":16000,"station_id":"","pricing_plan_id":"cebpf4jnsgd1na2vs0mg"},{"bike_id":"3c2cdfbb-35ee-4f1f-9cf7-0618196f8c4d","system_id":"levelo_inurba_marseille","lat":43.314804,"lon":5.373061,"is_reserved":false,"is_disabled":false,"rental_uris":{"android":"levelo://app?vid=3c2cdfbb-35ee-4f1f-9cf7-0618196f8c4d","ios":"levelo://app?vid=3c2cdfbb-35ee-4f1f-9cf7-0618196f8c4d"},"vehicle_type_id":"4","last_reported":1753542634,"current_range_meters":16000,"station_id":"ce4bgt12rcd13ifvqcd0","pricing_plan_id":"cebpf4jnsgd1na2vs0mg"},{"bike_id":"f3d9f4e3-18e1-46b0-943e-1414afeca2da","system_id":"levelo_inurba_marseille","lat":43.22923,"lon":5.35378,"is_reserved":false,"is_disabled":false,"rental_uris":{"android":"levelo://app?vid=f3d9f4e3-18e1-46b0-943e-1414afeca2da","ios":"levelo://app?vid=f3d9f4e3-18e1-46b0-943e-1414afeca2da"},"vehicle_type_id":"4","last_reported":1753542634,"current_range_meters":16000,"station_id":"cpo3532slgdg3j2ikp40","pricing_plan_id":"cebpf4jnsgd1na2vs0mg"},{"bike_id":"df2d85b2-8956-48c3-a002-dd2097f251e5","system_id":"levelo_inurba_marseille","lat":43.24072,"lon":5.37758,"is_reserved":false,"is_disabled":false,"rental_uris":{"android":"levelo://app?vid=df2d85b2-8956-48c3-a002-dd2097f251e5","ios":"levelo://app?vid=df2d85b2-8956-48c3-a002-dd2097f251e5"},"vehicle_type_id":"4","last_reported":1753542634,"current_range_meters":16000,"station_id":"ce4bhnp2rcd13ifvqgvg","pricing_plan_id":"cebpf4jnsgd1na2vs0mg"},{"bike_id":"17fc2f1f-5abe-4cd4-9a51-d45ca1258e83","system_id":"levelo_inurba_marseille","lat":43.28421,"lon":5.35,"is_reserved":false,"is_disabled":false,"rental_uris":{"android":"levelo://app?vid=17fc2f1f-5abe-4cd4-9a51-d45ca1258e83","ios":"levelo://app?vid=17fc2f1f-5abe-4cd4-9a51-d45ca1258e83"},"vehicle_type_id":"4","last_reported":1753542634,"current_range_meters":16000,"station_id":"ce4bhbh2rcd13ifvqepg","pricing_plan_id":"cebpf4jnsgd1na2vs0mg"},{"bike_id":"1e5c96a6-9d0f-4d5f-85ef-5a5f8ac0317a","system_id":"levelo_inurba_marseille","lat":43.33465,"lon":5.39149,"is_reserved":false,"is_disabled":false,"rental_uris":{"android":"levelo://app?vid=1e5c96a6-9d0f-4d5f-85ef-5a5f8ac0317a","ios":"levelo://app?vid=1e5c96a6-9d0f-4d5f-85ef-5a5f8ac0317a"},"vehicle_type_id":"4","last_reported":1753542634,"current_range_meters":16000,"station_id":"","pricing_plan_id":"cebpf4jnsgd1na2vs0mg"},{"bike_id":"04b7ba23-9d3e-49e9-b458-d4985e4e8b88","system_id":"levelo_inurba_marseille","lat":43.286072,"lon":5.351023,"is_reserved":false,"is_disabled":false,"rental_uris":{"android":"levelo://app?vid=04b7ba23-9d3e-49e9-b458-d4985e4e8b88","ios":"levelo://app?vid=04b7ba23-9d3e-49e9-b458-d4985e4e8b88"},"vehicle_type_id":"4","last_reported":1753542634,"current_range_meters":16000,"station_id":"","pricing_plan_id":"cebpf4jnsgd1na2vs0mg"},{"bike_id":"618df98e-4b36-4f8e-87cf-e61f7b6c113e","system_id":"levelo_inurba_marseille","lat":43.30211,"lon":5.3946,"is_reserved":false,"is_disabled":false,"rental_uris":{"android":"levelo://app?vid=618df98e-4b36-4f8e-87cf-e61f7b6c113e","ios":"levelo://app?vid=618df98e-4b36-4f8e-87cf-e61f7b6c113e"},"vehicle_type_id":"4","last_reported":1753542634,"current_range_meters":16000,"station_id":"ce4bh0p2rcd13ifvqd70","pricing_plan_id":"cebpf4jnsgd1na2vs0mg"},{"bike_id":"c5794c7a-bb35-409f-9175-7d8933c8fd68","system_id":"levelo_inurba_marseille","lat":43.31121,"lon":5.3963,"is_reserved":false,"is_disabled":false,"rental_uris":{"android":"levelo://app?vid=c5794c7a-bb35-409f-9175-7d8933c8fd68","ios":"levelo://app?vid=c5794c7a-bb35-409f-9175-7d8933c8fd68"},"vehicle_type_id":"4","last_reported":1753542634,"current_range_meters":16000,"station_id":"","pricing_plan_id":"cebpf4jnsgd1na2vs0mg"},{"bike_id":"4f8890a5-9083-41ec-99f8-cafaf23f508d","system_id":"levelo_inurba_marseille","lat":43.28265,"lon":5.35055,"is_reserved":false,"is_disabled":false,"rental_uris":{"android":"levelo://app?vid=4f8890a5-9083-41ec-99f8-cafaf23f508d","ios":"levelo://app?vid=4f8890a5-9083-41ec-99f8-cafaf23f508d"},"vehicle_type_id":"4","last_reported":1753542634,"current_range_meters":16000,"station_id":"ce4bhbp2rcd13ifvqerg","pricing_plan_id":"cebpf4jnsgd1na2vs0mg"},{"bike_id":"36e6bf97-6485-443c-94bf-9c9cb3f33000","system_id":"levelo_inurba_marseille","lat":43.29275,"lon":5.38449,"is_reserved":false,"is_disabled":true,"rental_uris":{"android":"levelo://app?vid=36e6bf97-6485-443c-94bf-9c9cb3f33000","ios":"levelo://app?vid=36e6bf97-6485-443c-94bf-9c9cb3f33000"},"vehicle_type_id":"4","last_reported":1753542634,"current_range_meters":16000,"station_id":"ce4bh692rcd13ifvqea0","pricing_plan_id":"cebpf4jnsgd1na2vs0mg"},{"bike_id":"e3ea7b8c-ec2b-4e90-9fb8-78bd951aed6d","system_id":"levelo_inurba_marseille","lat":43.2292,"lon":5.35392,"is_reserved":false,"is_disabled":false,"rental_uris":{"android":"levelo://app?vid=e3ea7b8c-ec2b-4e90-9fb8-78bd951aed6d","ios":"levelo://app?vid=e3ea7b8c-ec2b-4e90-9fb8-78bd951aed6d"},"vehicle_type_id":"4","last_reported":1753542634,"current_range_meters":16000,"station_id":"cpo3532slgdg3j2ikp40","pricing_plan_id":"cebpf4jnsgd1na2vs0mg"},{"bike_id":"c2d94365-8b35-4017-bbee-54ed32cf6a0a","system_id":"levelo_inurba_marseille","lat":43.21197,"lon":5.35072,"is_reserved":false,"is_disabled":false,"rental_uris":{"android":"levelo://app?vid=c2d94365-8b35-4017-bbee-54ed32cf6a0a","ios":"levelo://app?vid=c2d94365-8b35-4017-bbee-54ed32cf6a0a"},"vehicle_type_id":"4","last_reported":1753542634,"current_range_meters":16400,"station_id":"st_cvj6sg6p6f1abm77japg","pricing_plan_id":"cebpf4jnsgd1na2vs0mg"},{"bike_id":"8f390e6a-b3a8-462b-a28b-148a5f4a129b","system_id":"levelo_inurba_marseille","lat":43.28288,"lon":5.35079,"is_reserved":false,"is_disabled":false,"rental_uris":{"android":"levelo://app?vid=8f390e6a-b3a8-462b-a28b-148a5f4a129b","ios":"levelo://app?vid=8f390e6a-b3a8-462b-a28b-148a5f4a129b"},"vehicle_type_id":"4","last_reported":1753542634,"current_range_meters":16400,"station_id":"ce4bhbp2rcd13ifvqerg","pricing_plan_id":"cebpf4jnsgd1na2vs0mg"},{"bike_id":"b4b83b82-6d1c-4b44-ab9f-111b5c8d40a5","system_id":"levelo_inurba_marseille","lat":43.27064,"lon":5.40257,"is_reserved":false,"is_disabled":false,"rental_uris":{"android":"levelo://app?vid=b4b83b82-6d1c-4b44-ab9f-111b5c8d40a5","ios":"levelo://app?vid=b4b83b82-6d1c-4b44-ab9f-111b5c8d40a5"},"vehicle_type_id":"4","last_reported":1753542634,"current_range_meters":16400,"station_id":"ce4bhk92rcd13ifvqgc0","pricing_plan_id":"cebpf4jnsgd1na2vs0mg"},{"bike_id":"0c11f6c1-8064-42f4-a9d5-3b25c443f052","system_id":"levelo_inurba_marseille","lat":43.22953,"lon":5.35374,"is_reserved":false,"is_disabled":false,"rental_uris":{"android":"levelo://app?vid=0c11f6c1-8064-42f4-a9d5-3b25c443f052","ios":"levelo://app?vid=0c11f6c1-8064-42f4-a9d5-3b25c443f052"},"vehicle_type_id":"4","last_reported":1753542634,"current_range_meters":16400,"station_id":"cpo3532slgdg3j2ikp40","pricing_plan_id":"cebpf4jnsgd1na2vs0mg"},{"bike_id":"2784e1e5-3259-469a-8097-f0dd80b2cabd","system_id":"levelo_inurba_marseille","lat":43.301453,"lon":5.380841,"is_reserved":false,"is_disabled":false,"rental_uris":{"android":"levelo://app?vid=2784e1e5-3259-469a-8097-f0dd80b2cabd","ios":"levelo://app?vid=2784e1e5-3259-469a-8097-f0dd80b2cabd"},"vehicle_type_id":"4","last_reported":1753542634,"current_range_meters":14800,"station_id":"ce4bgjp2rcd13ifvqbh0","pricing_plan_id":"cebpf4jnsgd1na2vs0mg"},{"bike_id":"9dfdeb8a-ee13-4931-94b4-ad2b5f23aa4b","system_id":"levelo_inurba_marseille","lat":43.23188,"lon":5.39988,"is_reserved":false,"is_disabled":true,"rental_uris":{"android":"levelo://app?vid=9dfdeb8a-ee13-4931-94b4-ad2b5f23aa4b","ios":"levelo://app?vid=9dfdeb8a-ee13-4931-94b4-ad2b5f23aa4b"},"vehicle_type_id":"4","last_reported":1753542634,"current_range_meters":16400,"station_id":"ce4bhn12rcd13ifvqgqg","pricing_plan_id":"cebpf4jnsgd1na2vs0mg"},{"bike_id":"bdc8ef21-146d-46ff-9c91-249dba0037c7","system_id":"levelo_inurba_marseille","lat":43.22934,"lon":5.35363,"is_reserved":false,"is_disabled":false,"rental_uris":{"android":"levelo://app?vid=bdc8ef21-146d-46ff-9c91-249dba0037c7","ios":"levelo://app?vid=bdc8ef21-146d-46ff-9c91-249dba0037c7"},"vehicle_type_id":"4","last_reported":1753542634,"current_range_meters":16400,"station_id":"cpo3532slgdg3j2ikp40","pricing_plan_id":"cebpf4jnsgd1na2vs0mg"},{"bike_id":"1444dafd-5008-4b1a-9a9f-e08b1176637d","system_id":"levelo_inurba_marseille","lat":43.27318,"lon":5.39088,"is_reserved":false,"is_disabled":false,"rental_uris":{"android":"levelo://app?vid=1444dafd-5008-4b1a-9a9f-e08b1176637d","ios":"levelo://app?vid=1444dafd-5008-4b1a-9a9f-e08b1176637d"},"vehicle_type_id":"4","last_reported":1753542634,"current_range_meters":16400,"station_id":"ce4bhgp2rcd13ifvqfe0","pricing_plan_id":"cebpf4jnsgd1na2vs0mg"},{"bike_id":"525dce40-5ebb-49df-989d-92048d7940f0","system_id":"levelo_inurba_marseille","lat":43.29226,"lon":5.36064,"is_reserved":false,"is_disabled":false,"rental_uris":{"android":"levelo://app?vid=525dce40-5ebb-49df-989d-92048d7940f0","ios":"levelo://app?vid=525dce40-5ebb-49df-989d-92048d7940f0"},"vehicle_type_id":"4","last_reported":1753542634,"current_range_meters":16400,"station_id":"ce4bhbh2rcd13ifvqeqg","pricing_plan_id":"cebpf4jnsgd1na2vs0mg"},{"bike_id":"8a43fd17-f37d-4efa-9c86-e96e90492052","system_id":"levelo_inurba_marseille","lat":43.24809,"lon":5.37461,"is_reserved":false,"is_disabled":false,"rental_uris":{"android":"levelo://app?vid=8a43fd17-f37d-4efa-9c86-e96e90492052","ios":"levelo://app?vid=8a43fd17-f37d-4efa-9c86-e96e90492052"},"vehicle_type_id":"4","last_reported":1753542634,"current_range_meters":16400,"station_id":"ce4bhgh2rcd13ifvqfb0","pricing_plan_id":"cebpf4jnsgd1na2vs0mg"},{"bike_id":"43dbc09e-d0e4-4ddb-bafe-4f55874d23a9","system_id":"levelo_inurba_marseille","lat":43.302,"lon":5.38222,"is_reserved":false,"is_disabled":false,"rental_uris":{"android":"levelo://app?vid=43dbc09e-d0e4-4ddb-bafe-4f55874d23a9","ios":"levelo://app?vid=43dbc09e-d0e4-4ddb-bafe-4f55874d23a9"},"vehicle_type_id":"4","last_reported":1753542634,"current_range_meters":16400,"station_id":"","pricing_plan_id":"cebpf4jnsgd1na2vs0mg"},{"bike_id":"8cc49e2e-aa7e-4f9c-a577-e55cb5879171","system_id":"levelo_inurba_marseille","lat":43.31534,"lon":5.38038,"is_reserved":false,"is_disabled":false,"rental_uris":{"android":"levelo://app?vid=8cc49e2e-aa7e-4f9c-a577-e55cb5879171","ios":"levelo://app?vid=8cc49e2e-aa7e-4f9c-a577-e55cb5879171"},"vehicle_type_id":"4","last_reported":1753542634,"current_range_meters":16800,"station_id":"ce4bhsp2rcd13ifvqi50","pricing_plan_id":"cebpf4jnsgd1na2vs0mg"},{"bike_id":"f00d6cc9-417e-4154-8ced-573e333e5128","system_id":"levelo_inurba_marseille","lat":43.23064,"lon":5.35494,"is_reserved":false,"is_disabled":false,"rental_uris":{"android":"levelo://app?vid=f00d6cc9-417e-4154-8ced-573e333e5128","ios":"levelo://app?vid=f00d6cc9-417e-4154-8ced-573e333e5128"},"vehicle_type_id":"4","last_reported":1753542634,"current_range_meters":16800,"station_id":"cpo3342slgdg3j2ifvpg","pricing_plan_id":"cebpf4jnsgd1na2vs0mg"},{"bike_id":"02cab979-ccb2-40ce-bd89-cd624415fc04","system_id":"levelo_inurba_marseille","lat":43.277811,"lon":5.399487,"is_reserved":false,"is_disabled":false,"rental_uris":{"android":"levelo://app?vid=02cab979-ccb2-40ce-bd89-cd624415fc04","ios":"levelo://app?vid=02cab979-ccb2-40ce-bd89-cd624415fc04"},"vehicle_type_id":"4","last_reported":1753542634,"current_range_meters":16800,"station_id":"","pricing_plan_id":"cebpf4jnsgd1na2vs0mg"},{"bike_id":"25f3e258-0c7a-499b-b187-4c4dddf45bcd","system_id":"levelo_inurba_marseille","lat":43.29303,"lon":5.36881,"is_reserved":false,"is_disabled":true,"rental_uris":{"android":"levelo://app?vid=25f3e258-0c7a-499b-b187-4c4dddf45bcd","ios":"levelo://app?vid=25f3e258-0c7a-499b-b187-4c4dddf45bcd"},"vehicle_type_id":"4","last_reported":1753542634,"current_range_meters":16800,"station_id":"ce4bhbp2rcd13ifvqesg","pricing_plan_id":"cebpf4jnsgd1na2vs0mg"},{"bike_id":"4af0e3d2-3908-4ccb-92be-4239dac0aae4","system_id":"levelo_inurba_marseille","lat":43.28436,"lon":5.34975,"is_reserved":false,"is_disabled":false,"rental_uris":{"android":"levelo://app?vid=4af0e3d2-3908-4ccb-92be-4239dac0aae4","ios":"levelo://app?vid=4af0e3d2-3908-4ccb-92be-4239dac0aae4"},"vehicle_type_id":"4","last_reported":1753542634,"current_range_meters":17200,"station_id":"ce4bhbh2rcd13ifvqepg","pricing_plan_id":"cebpf4jnsgd1na2vs0mg"},{"bike_id":"54405b04-0f04-4c64-af8f-9ccbb34ae9ba","system_id":"levelo_inurba_marseille","lat":43.28028,"lon":5.36937,"is_reserved":false,"is_disabled":false,"rental_uris":{"android":"levelo://app?vid=54405b04-0f04-4c64-af8f-9ccbb34ae9ba","ios":"levelo://app?vid=54405b04-0f04-4c64-af8f-9ccbb34ae9ba"},"vehicle_type_id":"4","last_reported":1753542634,"current_range_meters":17200,"station_id":"ce4bha12rcd13ifvqef0","pricing_plan_id":"cebpf4jnsgd1na2vs0mg"},{"bike_id":"d8ede7a6-2370-4585-9b4e-834634539090","system_id":"levelo_inurba_marseille","lat":43.22507,"lon":5.34781,"is_reserved":false,"is_disabled":false,"rental_uris":{"android":"levelo://app?vid=d8ede7a6-2370-4585-9b4e-834634539090","ios":"levelo://app?vid=d8ede7a6-2370-4585-9b4e-834634539090"},"vehicle_type_id":"4","last_reported":1753542634,"current_range_meters":17200,"station_id":"st_cvj5dfep6f1abm77gieg","pricing_plan_id":"cebpf4jnsgd1na2vs0mg"},{"bike_id":"a24435f4-7150-4a58-a756-6f374baf7b51","system_id":"levelo_inurba_marseille","lat":43.28284,"lon":5.35068,"is_reserved":false,"is_disabled":false,"rental_uris":{"android":"levelo://app?vid=a24435f4-7150-4a58-a756-6f374baf7b51","ios":"levelo://app?vid=a24435f4-7150-4a58-a756-6f374baf7b51"},"vehicle_type_id":"4","last_reported":1753542634,"current_range_meters":17200,"station_id":"ce4bhbp2rcd13ifvqerg","pricing_plan_id":"cebpf4jnsgd1na2vs0mg"},{"bike_id":"04579f34-748d-4774-acd8-061f61361a17","system_id":"levelo_inurba_marseille","lat":43.28405,"lon":5.34987,"is_reserved":false,"is_disabled":false,"rental_uris":{"android":"levelo://app?vid=04579f34-748d-4774-acd8-061f61361a17","ios":"levelo://app?vid=04579f34-748d-4774-acd8-061f61361a17"},"vehicle_type_id":"4","last_reported":1753542634,"current_range_meters":17200,"station_id":"ce4bhbh2rcd13ifvqepg","pricing_plan_id":"cebpf4jnsgd1na2vs0mg"},{"bike_id":"fe0056bd-d9d8-47ac-845e-e84625fd341a","system_id":"levelo_inurba_marseille","lat":43.29834,"lon":5.37688,"is_reserved":false,"is_disabled":false,"rental_uris":{"android":"levelo://app?vid=fe0056bd-d9d8-47ac-845e-e84625fd341a","ios":"levelo://app?vid=fe0056bd-d9d8-47ac-845e-e84625fd341a"},"vehicle_type_id":"4","last_reported":1753542634,"current_range_meters":18000,"station_id":"","pricing_plan_id":"cebpf4jnsgd1na2vs0mg"},{"bike_id":"4fc563e5-5af3-4e66-b309-4f545577a0a4","system_id":"levelo_inurba_marseille","lat":43.217445,"lon":5.346039,"is_reserved":false,"is_disabled":false,"rental_uris":{"android":"levelo://app?vid=4fc563e5-5af3-4e66-b309-4f545577a0a4","ios":"levelo://app?vid=4fc563e5-5af3-4e66-b309-4f545577a0a4"},"vehicle_type_id":"4","last_reported":1753542634,"current_range_meters":17200,"station_id":"","pricing_plan_id":"cebpf4jnsgd1na2vs0mg"},{"bike_id":"ddc71cff-a54b-4821-b577-35926c1b4a46","system_id":"levelo_inurba_marseille","lat":43.29234,"lon":5.36058,"is_reserved":false,"is_disabled":false,"rental_uris":{"android":"levelo://app?vid=ddc71cff-a54b-4821-b577-35926c1b4a46","ios":"levelo://app?vid=ddc71cff-a54b-4821-b577-35926c1b4a46"},"vehicle_type_id":"4","last_reported":1753542634,"current_range_meters":17200,"station_id":"ce4bhbh2rcd13ifvqeqg","pricing_plan_id":"cebpf4jnsgd1na2vs0mg"},{"bike_id":"69eb2053-6469-4f9b-869a-7285bd1bf1c0","system_id":"levelo_inurba_marseille","lat":43.2252,"lon":5.34822,"is_reserved":false,"is_disabled":false,"rental_uris":{"android":"levelo://app?vid=69eb2053-6469-4f9b-869a-7285bd1bf1c0","ios":"levelo://app?vid=69eb2053-6469-4f9b-869a-7285bd1bf1c0"},"vehicle_type_id":"4","last_reported":1753542634,"current_range_meters":17200,"station_id":"st_cvj5dfep6f1abm77gieg","pricing_plan_id":"cebpf4jnsgd1na2vs0mg"},{"bike_id":"c2c85d8a-685a-4b39-b578-92fbe61e5de6","system_id":"levelo_inurba_marseille","lat":43.30644,"lon":5.40079,"is_reserved":false,"is_disabled":false,"rental_uris":{"android":"levelo://app?vid=c2c85d8a-685a-4b39-b578-92fbe61e5de6","ios":"levelo://app?vid=c2c85d8a-685a-4b39-b578-92fbe61e5de6"},"vehicle_type_id":"4","last_reported":1753542634,"current_range_meters":17200,"station_id":"ce4bh112rcd13ifvqda0","pricing_plan_id":"cebpf4jnsgd1na2vs0mg"},{"bike_id":"03d4250b-69f9-4399-a884-7539b2b7ba8d","system_id":"levelo_inurba_marseille","lat":43.28612,"lon":5.35097,"is_reserved":false,"is_disabled":false,"rental_uris":{"android":"levelo://app?vid=03d4250b-69f9-4399-a884-7539b2b7ba8d","ios":"levelo://app?vid=03d4250b-69f9-4399-a884-7539b2b7ba8d"},"vehicle_type_id":"4","last_reported":1753542634,"current_range_meters":17200,"station_id":"ce4bhch2rcd13ifvqeug","pricing_plan_id":"cebpf4jnsgd1na2vs0mg"},{"bike_id":"868467a8-c07a-4e42-ae99-4324d8c1b031","system_id":"levelo_inurba_marseille","lat":43.29368,"lon":5.37857,"is_reserved":false,"is_disabled":false,"rental_uris":{"android":"levelo://app?vid=868467a8-c07a-4e42-ae99-4324d8c1b031","ios":"levelo://app?vid=868467a8-c07a-4e42-ae99-4324d8c1b031"},"vehicle_type_id":"4","last_reported":1753542634,"current_range_meters":17200,"station_id":"ce4bgjh2rcd13ifvqbf0","pricing_plan_id":"cebpf4jnsgd1na2vs0mg"},{"bike_id":"9fbc37d9-ca5c-434d-86c6-fb20bf1564bf","system_id":"levelo_inurba_marseille","lat":43.29975,"lon":5.371805,"is_reserved":false,"is_disabled":false,"rental_uris":{"android":"levelo://app?vid=9fbc37d9-ca5c-434d-86c6-fb20bf1564bf","ios":"levelo://app?vid=9fbc37d9-ca5c-434d-86c6-fb20bf1564bf"},"vehicle_type_id":"4","last_reported":1753542634,"current_range_meters":14800,"station_id":"ce4bgr92rcd13ifvqc7g","pricing_plan_id":"cebpf4jnsgd1na2vs0mg"},{"bike_id":"1a749bd6-d81f-4d79-86b3-e3569cb037eb","system_id":"levelo_inurba_marseille","lat":43.28261,"lon":5.35069,"is_reserved":false,"is_disabled":false,"rental_uris":{"android":"levelo://app?vid=1a749bd6-d81f-4d79-86b3-e3569cb037eb","ios":"levelo://app?vid=1a749bd6-d81f-4d79-86b3-e3569cb037eb"},"vehicle_type_id":"4","last_reported":1753542634,"current_range_meters":17200,"station_id":"ce4bhbp2rcd13ifvqerg","pricing_plan_id":"cebpf4jnsgd1na2vs0mg"},{"bike_id":"c1bc6af3-d51d-47ee-abe0-dd9d3777c8eb","system_id":"levelo_inurba_marseille","lat":43.29786,"lon":5.37097,"is_reserved":false,"is_disabled":false,"rental_uris":{"android":"levelo://app?vid=c1bc6af3-d51d-47ee-abe0-dd9d3777c8eb","ios":"levelo://app?vid=c1bc6af3-d51d-47ee-abe0-dd9d3777c8eb"},"vehicle_type_id":"4","last_reported":1753542634,"current_range_meters":17200,"station_id":"ce4bgop2rcd13ifvqc1g","pricing_plan_id":"cebpf4jnsgd1na2vs0mg"},{"bike_id":"5cc1f969-7fed-4691-b1af-117d36571bb8","system_id":"levelo_inurba_marseille","lat":43.28663,"lon":5.36344,"is_reserved":false,"is_disabled":false,"rental_uris":{"android":"levelo://app?vid=5cc1f969-7fed-4691-b1af-117d36571bb8","ios":"levelo://app?vid=5cc1f969-7fed-4691-b1af-117d36571bb8"},"vehicle_type_id":"4","last_reported":1753542634,"current_range_meters":17600,"station_id":"ce4bhah2rcd13ifvqej0","pricing_plan_id":"cebpf4jnsgd1na2vs0mg"},{"bike_id":"37562319-1ab7-4052-84cd-19474c696578","system_id":"levelo_inurba_marseille","lat":43.27619,"lon":5.36123,"is_reserved":false,"is_disabled":false,"rental_uris":{"android":"levelo://app?vid=37562319-1ab7-4052-84cd-19474c696578","ios":"levelo://app?vid=37562319-1ab7-4052-84cd-19474c696578"},"vehicle_type_id":"4","last_reported":1753542634,"current_range_meters":17600,"station_id":"ce4bgj92rcd13ifvqbe0","pricing_plan_id":"cebpf4jnsgd1na2vs0mg"},{"bike_id":"4ca91b2f-eee9-4073-81df-e159e17c03ca","system_id":"levelo_inurba_marseille","lat":43.24083,"lon":5.3774,"is_reserved":false,"is_disabled":false,"rental_uris":{"android":"levelo://app?vid=4ca91b2f-eee9-4073-81df-e159e17c03ca","ios":"levelo://app?vid=4ca91b2f-eee9-4073-81df-e159e17c03ca"},"vehicle_type_id":"4","last_reported":1753542634,"current_range_meters":17600,"station_id":"ce4bhnp2rcd13ifvqgvg","pricing_plan_id":"cebpf4jnsgd1na2vs0mg"},{"bike_id":"99b6e6b8-5d86-4c17-9df6-ed391e44f79a","system_id":"levelo_inurba_marseille","lat":43.30556,"lon":5.36541,"is_reserved":false,"is_disabled":false,"rental_uris":{"android":"levelo://app?vid=99b6e6b8-5d86-4c17-9df6-ed391e44f79a","ios":"levelo://app?vid=99b6e6b8-5d86-4c17-9df6-ed391e44f79a"},"vehicle_type_id":"4","last_reported":1753542634,"current_range_meters":17600,"station_id":"ce4bgs12rcd13ifvqcag","pricing_plan_id":"cebpf4jnsgd1na2vs0mg"},{"bike_id":"e666153e-0d94-49fc-a285-a6a2347ef6ad","system_id":"levelo_inurba_marseille","lat":43.26949,"lon":5.38632,"is_reserved":false,"is_disabled":true,"rental_uris":{"android":"levelo://app?vid=e666153e-0d94-49fc-a285-a6a2347ef6ad","ios":"levelo://app?vid=e666153e-0d94-49fc-a285-a6a2347ef6ad"},"vehicle_type_id":"4","last_reported":1753542634,"current_range_meters":17600,"station_id":"ce4bhh92rcd13ifvqfh0","pricing_plan_id":"cebpf4jnsgd1na2vs0mg"},{"bike_id":"015a5abb-d158-4ece-bf31-2140285ad9a1","system_id":"levelo_inurba_marseille","lat":43.30147,"lon":5.38072,"is_reserved":false,"is_disabled":false,"rental_uris":{"android":"levelo://app?vid=015a5abb-d158-4ece-bf31-2140285ad9a1","ios":"levelo://app?vid=015a5abb-d158-4ece-bf31-2140285ad9a1"},"vehicle_type_id":"4","last_reported":1753542634,"current_range_meters":19200,"station_id":"ce4bgjp2rcd13ifvqbh0","pricing_plan_id":"cebpf4jnsgd1na2vs0mg"},{"bike_id":"f5d35bb9-022f-4b33-ab96-4c8a7845427f","system_id":"levelo_inurba_marseille","lat":43.30354,"lon":5.41884,"is_reserved":false,"is_disabled":false,"rental_uris":{"android":"levelo://app?vid=f5d35bb9-022f-4b33-ab96-4c8a7845427f","ios":"levelo://app?vid=f5d35bb9-022f-4b33-ab96-4c8a7845427f"},"vehicle_type_id":"4","last_reported":1753542634,"current_range_meters":18000,"station_id":"ce4bhop2rcd13ifvqh7g","pricing_plan_id":"cebpf4jnsgd1na2vs0mg"},{"bike_id":"cfdc3157-3255-480e-9978-927ca2591cb1","system_id":"levelo_inurba_marseille","lat":43.23964,"lon":5.36636,"is_reserved":false,"is_disabled":false,"rental_uris":{"android":"levelo://app?vid=cfdc3157-3255-480e-9978-927ca2591cb1","ios":"levelo://app?vid=cfdc3157-3255-480e-9978-927ca2591cb1"},"vehicle_type_id":"4","last_reported":1753542634,"current_range_meters":18000,"station_id":"ce4bhi12rcd13ifvqfp0","pricing_plan_id":"cebpf4jnsgd1na2vs0mg"},{"bike_id":"adbc006e-c51d-4434-863c-610344ea30cd","system_id":"levelo_inurba_marseille","lat":43.21747,"lon":5.346,"is_reserved":false,"is_disabled":true,"rental_uris":{"android":"levelo://app?vid=adbc006e-c51d-4434-863c-610344ea30cd","ios":"levelo://app?vid=adbc006e-c51d-4434-863c-610344ea30cd"},"vehicle_type_id":"4","last_reported":1753542634,"current_range_meters":18000,"station_id":"st_cvj6r9ubvosntc0bgbag","pricing_plan_id":"cebpf4jnsgd1na2vs0mg"},{"bike_id":"d5fe3473-9ac2-418c-9a89-6ea158f18b50","system_id":"levelo_inurba_marseille","lat":43.29552,"lon":5.3752,"is_reserved":false,"is_disabled":false,"rental_uris":{"android":"levelo://app?vid=d5fe3473-9ac2-418c-9a89-6ea158f18b50","ios":"levelo://app?vid=d5fe3473-9ac2-418c-9a89-6ea158f18b50"},"vehicle_type_id":"4","last_reported":1753542634,"current_range_meters":18000,"station_id":"ce4bgh92rcd13ifvqb50","pricing_plan_id":"cebpf4jnsgd1na2vs0mg"},{"bike_id":"2e7c23b9-7fdb-43a0-904e-e2e32554b3e6","system_id":"levelo_inurba_marseille","lat":43.24395,"lon":5.37062,"is_reserved":false,"is_disabled":false,"rental_uris":{"android":"levelo://app?vid=2e7c23b9-7fdb-43a0-904e-e2e32554b3e6","ios":"levelo://app?vid=2e7c23b9-7fdb-43a0-904e-e2e32554b3e6"},"vehicle_type_id":"4","last_reported":1753542634,"current_range_meters":18000,"station_id":"ce4bhhh2rcd13ifvqfk0","pricing_plan_id":"cebpf4jnsgd1na2vs0mg"},{"bike_id":"60662c55-85ba-45b4-a323-3135deac02a5","system_id":"levelo_inurba_marseille","lat":43.290458,"lon":5.359108,"is_reserved":false,"is_disabled":false,"rental_uris":{"android":"levelo://app?vid=60662c55-85ba-45b4-a323-3135deac02a5","ios":"levelo://app?vid=60662c55-85ba-45b4-a323-3135deac02a5"},"vehicle_type_id":"4","last_reported":1753542634,"current_range_meters":18000,"station_id":"ce4bha92rcd13ifvqeg0","pricing_plan_id":"cebpf4jnsgd1na2vs0mg"},{"bike_id":"a85d0d7b-3731-4b06-b13e-849916f6749f","system_id":"levelo_inurba_marseille","lat":43.28275,"lon":5.35077,"is_reserved":false,"is_disabled":false,"rental_uris":{"android":"levelo://app?vid=a85d0d7b-3731-4b06-b13e-849916f6749f","ios":"levelo://app?vid=a85d0d7b-3731-4b06-b13e-849916f6749f"},"vehicle_type_id":"4","last_reported":1753542634,"current_range_meters":18000,"station_id":"ce4bhbp2rcd13ifvqerg","pricing_plan_id":"cebpf4jnsgd1na2vs0mg"},{"bike_id":"5f045aec-566e-438a-8bff-d7434552ba65","system_id":"levelo_inurba_marseille","lat":43.25085,"lon":5.39522,"is_reserved":false,"is_disabled":false,"rental_uris":{"android":"levelo://app?vid=5f045aec-566e-438a-8bff-d7434552ba65","ios":"levelo://app?vid=5f045aec-566e-438a-8bff-d7434552ba65"},"vehicle_type_id":"4","last_reported":1753542634,"current_range_meters":17600,"station_id":"ce4bhm12rcd13ifvqgkg","pricing_plan_id":"cebpf4jnsgd1na2vs0mg"},{"bike_id":"a5805de0-8d6c-4993-a346-9284ac57643d","system_id":"levelo_inurba_marseille","lat":43.30946,"lon":5.39038,"is_reserved":false,"is_disabled":false,"rental_uris":{"android":"levelo://app?vid=a5805de0-8d6c-4993-a346-9284ac57643d","ios":"levelo://app?vid=a5805de0-8d6c-4993-a346-9284ac57643d"},"vehicle_type_id":"4","last_reported":1753542634,"current_range_meters":18800,"station_id":"ce4bgup2rcd13ifvqco0","pricing_plan_id":"cebpf4jnsgd1na2vs0mg"},{"bike_id":"7a0bcd8d-647c-4b8b-b13c-ef81ae5ab2d7","system_id":"levelo_inurba_marseille","lat":43.2841,"lon":5.34972,"is_reserved":false,"is_disabled":false,"rental_uris":{"android":"levelo://app?vid=7a0bcd8d-647c-4b8b-b13c-ef81ae5ab2d7","ios":"levelo://app?vid=7a0bcd8d-647c-4b8b-b13c-ef81ae5ab2d7"},"vehicle_type_id":"4","last_reported":1753542634,"current_range_meters":18800,"station_id":"ce4bhbh2rcd13ifvqepg","pricing_plan_id":"cebpf4jnsgd1na2vs0mg"},{"bike_id":"484ce80f-12be-41fa-9586-784b84db2ffe","system_id":"levelo_inurba_marseille","lat":43.248086,"lon":5.37457,"is_reserved":false,"is_disabled":false,"rental_uris":{"android":"levelo://app?vid=484ce80f-12be-41fa-9586-784b84db2ffe","ios":"levelo://app?vid=484ce80f-12be-41fa-9586-784b84db2ffe"},"vehicle_type_id":"4","last_reported":1753542634,"current_range_meters":18800,"station_id":"ce4bhgh2rcd13ifvqfb0","pricing_plan_id":"cebpf4jnsgd1na2vs0mg"},{"bike_id":"97cfd2ef-8fb1-4282-bde9-66e0a475a479","system_id":"levelo_inurba_marseille","lat":43.299683,"lon":5.386239,"is_reserved":false,"is_disabled":false,"rental_uris":{"android":"levelo://app?vid=97cfd2ef-8fb1-4282-bde9-66e0a475a479","ios":"levelo://app?vid=97cfd2ef-8fb1-4282-bde9-66e0a475a479"},"vehicle_type_id":"4","last_reported":1753542634,"current_range_meters":18800,"station_id":"","pricing_plan_id":"cebpf4jnsgd1na2vs0mg"},{"bike_id":"36c21d54-c988-4a3a-8687-a785e722ac19","system_id":"levelo_inurba_marseille","lat":43.241547,"lon":5.364033,"is_reserved":false,"is_disabled":false,"rental_uris":{"android":"levelo://app?vid=36c21d54-c988-4a3a-8687-a785e722ac19","ios":"levelo://app?vid=36c21d54-c988-4a3a-8687-a785e722ac19"},"vehicle_type_id":"4","last_reported":1753542634,"current_range_meters":18800,"station_id":"cpo36qri1sfpv3e86is0","pricing_plan_id":"cebpf4jnsgd1na2vs0mg"},{"bike_id":"bbd86c7e-d307-4e0d-b170-7a8eb703d3fa","system_id":"levelo_inurba_marseille","lat":43.21741,"lon":5.3462,"is_reserved":false,"is_disabled":false,"rental_uris":{"android":"levelo://app?vid=bbd86c7e-d307-4e0d-b170-7a8eb703d3fa","ios":"levelo://app?vid=bbd86c7e-d307-4e0d-b170-7a8eb703d3fa"},"vehicle_type_id":"4","last_reported":1753542634,"current_range_meters":18800,"station_id":"","pricing_plan_id":"cebpf4jnsgd1na2vs0mg"},{"bike_id":"b64dad25-8e0d-4258-bfd2-304c64c6d313","system_id":"levelo_inurba_marseille","lat":43.31714,"lon":5.37833,"is_reserved":false,"is_disabled":false,"rental_uris":{"android":"levelo://app?vid=b64dad25-8e0d-4258-bfd2-304c64c6d313","ios":"levelo://app?vid=b64dad25-8e0d-4258-bfd2-304c64c6d313"},"vehicle_type_id":"4","last_reported":1753542634,"current_range_meters":18800,"station_id":"","pricing_plan_id":"cebpf4jnsgd1na2vs0mg"},{"bike_id":"55661540-733b-4bd0-ad5d-bb688398f06e","system_id":"levelo_inurba_marseille","lat":43.22511,"lon":5.34783,"is_reserved":false,"is_disabled":false,"rental_uris":{"android":"levelo://app?vid=55661540-733b-4bd0-ad5d-bb688398f06e","ios":"levelo://app?vid=55661540-733b-4bd0-ad5d-bb688398f06e"},"vehicle_type_id":"4","last_reported":1753542634,"current_range_meters":18800,"station_id":"st_cvj5dfep6f1abm77gieg","pricing_plan_id":"cebpf4jnsgd1na2vs0mg"},{"bike_id":"22256e74-ee3e-44a8-804d-7317fbca0724","system_id":"levelo_inurba_marseille","lat":43.273712,"lon":5.362611,"is_reserved":false,"is_disabled":false,"rental_uris":{"android":"levelo://app?vid=22256e74-ee3e-44a8-804d-7317fbca0724","ios":"levelo://app?vid=22256e74-ee3e-44a8-804d-7317fbca0724"},"vehicle_type_id":"4","last_reported":1753542634,"current_range_meters":18800,"station_id":"","pricing_plan_id":"cebpf4jnsgd1na2vs0mg"},{"bike_id":"bc667fa7-88be-4d9b-9317-6163182d7112","system_id":"levelo_inurba_marseille","lat":43.29614,"lon":5.37716,"is_reserved":false,"is_disabled":false,"rental_uris":{"android":"levelo://app?vid=bc667fa7-88be-4d9b-9317-6163182d7112","ios":"levelo://app?vid=bc667fa7-88be-4d9b-9317-6163182d7112"},"vehicle_type_id":"4","last_reported":1753542634,"current_range_meters":18800,"station_id":"","pricing_plan_id":"cebpf4jnsgd1na2vs0mg"},{"bike_id":"10aa7cfd-97a8-40d9-a069-e3a0cfc6d0b9","system_id":"levelo_inurba_marseille","lat":43.28632,"lon":5.35121,"is_reserved":false,"is_disabled":false,"rental_uris":{"android":"levelo://app?vid=10aa7cfd-97a8-40d9-a069-e3a0cfc6d0b9","ios":"levelo://app?vid=10aa7cfd-97a8-40d9-a069-e3a0cfc6d0b9"},"vehicle_type_id":"4","last_reported":1753542634,"current_range_meters":19200,"station_id":"ce4bhch2rcd13ifvqeug","pricing_plan_id":"cebpf4jnsgd1na2vs0mg"},{"bike_id":"ce9eab99-22dc-4fd9-a464-be63e9848a82","system_id":"levelo_inurba_marseille","lat":43.30161,"lon":5.38097,"is_reserved":false,"is_disabled":false,"rental_uris":{"android":"levelo://app?vid=ce9eab99-22dc-4fd9-a464-be63e9848a82","ios":"levelo://app?vid=ce9eab99-22dc-4fd9-a464-be63e9848a82"},"vehicle_type_id":"4","last_reported":1753542634,"current_range_meters":19200,"station_id":"ce4bgjp2rcd13ifvqbh0","pricing_plan_id":"cebpf4jnsgd1na2vs0mg"},{"bike_id":"94966ce8-bdec-420c-aae2-fa2687207b15","system_id":"levelo_inurba_marseille","lat":43.28613,"lon":5.35096,"is_reserved":false,"is_disabled":false,"rental_uris":{"android":"levelo://app?vid=94966ce8-bdec-420c-aae2-fa2687207b15","ios":"levelo://app?vid=94966ce8-bdec-420c-aae2-fa2687207b15"},"vehicle_type_id":"4","last_reported":1753542634,"current_range_meters":19200,"station_id":"ce4bhch2rcd13ifvqeug","pricing_plan_id":"cebpf4jnsgd1na2vs0mg"},{"bike_id":"25a3dfc4-65dd-4f5d-b4c1-e5e1454022b3","system_id":"levelo_inurba_marseille","lat":43.25632,"lon":5.38216,"is_reserved":false,"is_disabled":false,"rental_uris":{"android":"levelo://app?vid=25a3dfc4-65dd-4f5d-b4c1-e5e1454022b3","ios":"levelo://app?vid=25a3dfc4-65dd-4f5d-b4c1-e5e1454022b3"},"vehicle_type_id":"4","last_reported":1753542634,"current_range_meters":19200,"station_id":"","pricing_plan_id":"cebpf4jnsgd1na2vs0mg"},{"bike_id":"f0a5bf42-f644-4ab5-9855-d6ce6714832d","system_id":"levelo_inurba_marseille","lat":43.30542,"lon":5.36543,"is_reserved":false,"is_disabled":false,"rental_uris":{"android":"levelo://app?vid=f0a5bf42-f644-4ab5-9855-d6ce6714832d","ios":"levelo://app?vid=f0a5bf42-f644-4ab5-9855-d6ce6714832d"},"vehicle_type_id":"4","last_reported":1753542634,"current_range_meters":19200,"station_id":"ce4bgs12rcd13ifvqcag","pricing_plan_id":"cebpf4jnsgd1na2vs0mg"},{"bike_id":"37ec236f-77e5-4cf6-80a5-87bf9f01b183","system_id":"levelo_inurba_marseille","lat":43.23522,"lon":5.36036,"is_reserved":false,"is_disabled":false,"rental_uris":{"android":"levelo://app?vid=37ec236f-77e5-4cf6-80a5-87bf9f01b183","ios":"levelo://app?vid=37ec236f-77e5-4cf6-80a5-87bf9f01b183"},"vehicle_type_id":"4","last_reported":1753542634,"current_range_meters":19200,"station_id":"","pricing_plan_id":"cebpf4jnsgd1na2vs0mg"},{"bike_id":"b4f15512-f383-4fcc-b989-3e4863e8cb71","system_id":"levelo_inurba_marseille","lat":43.21752,"lon":5.34596,"is_reserved":false,"is_disabled":false,"rental_uris":{"android":"levelo://app?vid=b4f15512-f383-4fcc-b989-3e4863e8cb71","ios":"levelo://app?vid=b4f15512-f383-4fcc-b989-3e4863e8cb71"},"vehicle_type_id":"4","last_reported":1753542634,"current_range_meters":19200,"station_id":"st_cvj6r9ubvosntc0bgbag","pricing_plan_id":"cebpf4jnsgd1na2vs0mg"},{"bike_id":"71d00f30-3536-4c54-8d91-cb9570db2c49","system_id":"levelo_inurba_marseille","lat":43.31483,"lon":5.37307,"is_reserved":false,"is_disabled":false,"rental_uris":{"android":"levelo://app?vid=71d00f30-3536-4c54-8d91-cb9570db2c49","ios":"levelo://app?vid=71d00f30-3536-4c54-8d91-cb9570db2c49"},"vehicle_type_id":"4","last_reported":1753542634,"current_range_meters":18000,"station_id":"ce4bgt12rcd13ifvqcd0","pricing_plan_id":"cebpf4jnsgd1na2vs0mg"},{"bike_id":"2d71f026-41f1-4d44-b1a5-abf052b37bd7","system_id":"levelo_inurba_marseille","lat":43.28419,"lon":5.34976,"is_reserved":false,"is_disabled":false,"rental_uris":{"android":"levelo://app?vid=2d71f026-41f1-4d44-b1a5-abf052b37bd7","ios":"levelo://app?vid=2d71f026-41f1-4d44-b1a5-abf052b37bd7"},"vehicle_type_id":"4","last_reported":1753542634,"current_range_meters":19200,"station_id":"ce4bhbh2rcd13ifvqepg","pricing_plan_id":"cebpf4jnsgd1na2vs0mg"},{"bike_id":"267abc53-7023-4eb0-85c9-680aefb0812a","system_id":"levelo_inurba_marseille","lat":43.2308,"lon":5.35481,"is_reserved":false,"is_disabled":false,"rental_uris":{"android":"levelo://app?vid=267abc53-7023-4eb0-85c9-680aefb0812a","ios":"levelo://app?vid=267abc53-7023-4eb0-85c9-680aefb0812a"},"vehicle_type_id":"4","last_reported":1753542634,"current_range_meters":19600,"station_id":"cpo3342slgdg3j2ifvpg","pricing_plan_id":"cebpf4jnsgd1na2vs0mg"},{"bike_id":"010de398-5c34-4b10-b23b-cbaab5253551","system_id":"levelo_inurba_marseille","lat":43.28266,"lon":5.35063,"is_reserved":false,"is_disabled":false,"rental_uris":{"android":"levelo://app?vid=010de398-5c34-4b10-b23b-cbaab5253551","ios":"levelo://app?vid=010de398-5c34-4b10-b23b-cbaab5253551"},"vehicle_type_id":"4","last_reported":1753542634,"current_range_meters":19600,"station_id":"ce4bhbp2rcd13ifvqerg","pricing_plan_id":"cebpf4jnsgd1na2vs0mg"},