{"last_updated":1728234466,"ttl":60,"version":"2.2","data":{"bikes":[{"bike_id":"8f0f85ee-85e9-4700-bb00-0c2391210551","system_id":"levelo_inurba_marseille","lat":43.24073,"lon":5.3776,"is_reserved":false,"is_disabled":false,"rental_uris":{"android":"levelo://app?vid=8f0f85ee-85e9-4700-bb00-0c2391210551","ios":"levelo://app?vid=8f0f85ee-85e9-4700-bb00-0c2391210551"},"vehicle_type_id":"4","last_reported":1728234466,"current_range_meters":17600,"station_id":"ce4bhnp2rcd13ifvqgvg","pricing_plan_id":"cebpf4jnsgd1na2vs0mg"},{"bike_id":"c39a06bb-e349-4cdb-9ad9-76642969959c","system_id":"levelo_inurba_marseille","lat":43.29973,"lon":5.38493,"is_reserved":false,"is_disabled":false,"rental_uris":{"android":"levelo://app?vid=c39a06bb-e349-4cdb-9ad9-76642969959c","ios":"levelo://app?vid=c39a06bb-e349-4cdb-9ad9-76642969959c"},"vehicle_type_id":"4","last_reported":1728234466,"current_range_meters":26800,"station_id":"ce4bgj92rcd13ifvqbd0","pricing_plan_id":"cebpf4jnsgd1na2vs0mg"},{"bike_id":"fcc56730-3c72-4870-849a-77c8955fe703","system_id":"levelo_inurba_marseille","lat":43.26564,"lon":5.39036,"is_reserved":false,"is_disabled":false,"rental_uris":{"android":"levelo://app?vid=fcc56730-3c72-4870-849a-77c8955fe703","ios":"levelo://app?vid=fcc56730-3c72-4870-849a-77c8955fe703"},"vehicle_type_id":"4","last_reported":1728234466,"current_range_meters":38400,"station_id":"ce4bhe12rcd13ifvqf30","pricing_plan_id":"cebpf4jnsgd1na2vs0mg"},{"bike_id":"940cde9c-6243-4a9e-89af-97831cb9ac45","system_id":"levelo_inurba_marseille","lat":43.24392,"lon":5.37054,"is_reserved":false,"is_disabled":false,"rental_uris":{"android":"levelo://app?vid=940cde9c-6243-4a9e-89af-97831cb9ac45","ios":"levelo://app?vid=940cde9c-6243-4a9e-89af-97831cb9ac45"},"vehicle_type_id":"4","last_reported":1728234466,"current_range_meters":32400,"station_id":"ce4bhhh2rcd13ifvqfk0","pricing_plan_id":"cebpf4jnsgd1na2vs0mg"},{"bike_id":"3edccbad-c604-40df-acb2-6e9d91b67298","system_id":"levelo_inurba_marseille","lat":43.21341,"lon":5.34943,"is_reserved":false,"is_disabled":false,"rental_uris":{"android":"levelo://app?vid=3edccbad-c604-40df-acb2-6e9d91b67298","ios":"levelo://app?vid=3edccbad-c604-40df-acb2-6e9d91b67298"},"vehicle_type_id":"4","last_reported":1728234466,"current_range_meters":28000,"station_id":"crv51consjfaj9uu89c0","pricing_plan_id":"cebpf4jnsgd1na2vs0mg"},{"bike_id":"3652ad17-58f1-445b-ba57-31da306737ff","system_id":"levelo_inurba_marseille","lat":43.28727,"lon":5.36089,"is_reserved":false,"is_disabled":false,"rental_uris":{"android":"levelo://app?vid=3652ad17-58f1-445b-ba57-31da306737ff","ios":"levelo://app?vid=3652ad17-58f1-445b-ba57-31da306737ff"},"vehicle_type_id":"4","last_reported":1728234466,"current_range_meters":6400,"station_id":"cki0cbj6b192h4jlfktg","pricing_plan_id":"cebpf4jnsgd1na2vs0mg"},{"bike_id":"32d7b9f5-d037-433e-bd1e-bac8e4de3da8","system_id":"levelo_inurba_marseille","lat":43.26566,"lon":5.39011,"is_reserved":false,"is_disabled":false,"rental_uris":{"android":"levelo://app?vid=32d7b9f5-d037-433e-bd1e-bac8e4de3da8","ios":"levelo://app?vid=32d7b9f5-d037-433e-bd1e-bac8e4de3da8"},"vehicle_type_id":"4","last_reported":1728234466,"current_range_meters":32800,"station_id":"ce4bhe12rcd13ifvqf30","pricing_plan_id":"cebpf4jnsgd1na2vs0mg"},{"bike_id":"5ebdd39c-1faa-48bb-b34e-20793e0aa7ff","system_id":"levelo_inurba_marseille","lat":43.23064,"lon":5.35487,"is_reserved":false,"is_disabled":false,"rental_uris":{"android":"levelo://app?vid=5ebdd39c-1faa-48bb-b34e-20793e0aa7ff","ios":"levelo://app?vid=5ebdd39c-1faa-48bb-b34e-20793e0aa7ff"},"vehicle_type_id":"4","last_reported":1728234466,"current_range_meters":34000,"station_id":"cpo3342slgdg3j2ifvpg","pricing_plan_id":"cebpf4jnsgd1na2vs0mg"},{"bike_id":"53aed260-8a8b-48a9-a9a5-ec999fb04e11","system_id":"levelo_inurba_marseille","lat":43.25118,"lon":5.40321,"is_reserved":false,"is_disabled":false,"rental_uris":{"android":"levelo://app?vid=53aed260-8a8b-48a9-a9a5-ec999fb04e11","ios":"levelo://app?vid=53aed260-8a8b-48a9-a9a5-ec999fb04e11"},"vehicle_type_id":"4","last_reported":1728234466,"current_range_meters":38800,"station_id":"ce4bhlh2rcd13ifvqgig","pricing_plan_id":"cebpf4jnsgd1na2vs0mg"},{"bike_id":"0ce603ab-b72c-448a-8c28-9a31981e8b5d","system_id":"levelo_inurba_marseille","lat":43.3123,"lon":5.36852,"is_reserved":false,"is_disabled":false,"rental_uris":{"android":"levelo://app?vid=0ce603ab-b72c-448a-8c28-9a31981e8b5d","ios":"levelo://app?vid=0ce603ab-b72c-448a-8c28-9a31981e8b5d"},"vehicle_type_id":"4","last_reported":1728234466,"current_range_meters":36000,"station_id":"ce4bgl92rcd13ifvqbq0","pricing_plan_id":"cebpf4jnsgd1na2vs0mg"},{"bike_id":"30c6dc08-7c2f-4a70-b72b-26d9fee9bc82","system_id":"levelo_inurba_marseille","lat":43.23177,"lon":5.39989,"is_reserved":false,"is_disabled":false,"rental_uris":{"android":"levelo://app?vid=30c6dc08-7c2f-4a70-b72b-26d9fee9bc82","ios":"levelo://app?vid=30c6dc08-7c2f-4a70-b72b-26d9fee9bc82"},"vehicle_type_id":"4","last_reported":1728234466,"current_range_meters":38800,"station_id":"ce4bhn12rcd13ifvqgqg","pricing_plan_id":"cebpf4jnsgd1na2vs0mg"},{"bike_id":"3d3e93be-8a67-4628-9af2-2661c9a0daa4","system_id":"levelo_inurba_marseille","lat":43.22936,"lon":5.35381,"is_reserved":false,"is_disabled":false,"rental_uris":{"android":"levelo://app?vid=3d3e93be-8a67-4628-9af2-2661c9a0daa4","ios":"levelo://app?vid=3d3e93be-8a67-4628-9af2-2661c9a0daa4"},"vehicle_type_id":"4","last_reported":1728234466,"current_range_meters":36000,"station_id":"cpo3532slgdg3j2ikp40","pricing_plan_id":"cebpf4jnsgd1na2vs0mg"},{"bike_id":"83bd8e08-648e-4fc6-8901-05219804adac","system_id":"levelo_inurba_marseille","lat":43.22936,"lon":5.35378,"is_reserved":false,"is_disabled":false,"rental_uris":{"android":"levelo://app?vid=83bd8e08-648e-4fc6-8901-05219804adac","ios":"levelo://app?vid=83bd8e08-648e-4fc6-8901-05219804adac"},"vehicle_type_id":"4","last_reported":1728234466,"current_range_meters":29600,"station_id":"cpo3532slgdg3j2ikp40","pricing_plan_id":"cebpf4jnsgd1na2vs0mg"},{"bike_id":"3c760322-ddbb-4b6d-9695-839d699fda8f","system_id":"levelo_inurba_marseille","lat":43.30425,"lon":5.41287,"is_reserved":false,"is_disabled":false,"rental_uris":{"android":"levelo://app?vid=3c760322-ddbb-4b6d-9695-839d699fda8f","ios":"levelo://app?vid=3c760322-ddbb-4b6d-9695-839d699fda8f"},"vehicle_type_id":"4","last_reported":1728234466,"current_range_meters":8400,"station_id":"ce4bhop2rcd13ifvqh8g","pricing_plan_id":"cebpf4jnsgd1na2vs0mg"},{"bike_id":"6266ab0d-036e-4351-aec4-c2f2013119e5","system_id":"levelo_inurba_marseille","lat":43.32495,"lon":5.36593,"is_reserved":false,"is_disabled":false,"rental_uris":{"android":"levelo://app?vid=6266ab0d-036e-4351-aec4-c2f2013119e5","ios":"levelo://app?vid=6266ab0d-036e-4351-aec4-c2f2013119e5"},"vehicle_type_id":"4","last_reported":1728234466,"current_range_meters":38800,"station_id":"ce4bhs12rcd13ifvqhvg","pricing_plan_id":"cebpf4jnsgd1na2vs0mg"},{"bike_id":"6f087539-25aa-4d59-ab53-afad9cfefa71","system_id":"levelo_inurba_marseille","lat":43.29008,"lon":5.3562,"is_reserved":false,"is_disabled":false,"rental_uris":{"android":"levelo://app?vid=6f087539-25aa-4d59-ab53-afad9cfefa71","ios":"levelo://app?vid=6f087539-25aa-4d59-ab53-afad9cfefa71"},"vehicle_type_id":"4","last_reported":1728234466,"current_range_meters":38800,"station_id":"ce4bhb92rcd13ifvqen0","pricing_plan_id":"cebpf4jnsgd1na2vs0mg"},{"bike_id":"20f4ab7e-6f1d-496a-95e1-6eda2aa08a4b","system_id":"levelo_inurba_marseille","lat":43.25107,"lon":5.40323,"is_reserved":false,"is_disabled":false,"rental_uris":{"android":"levelo://app?vid=20f4ab7e-6f1d-496a-95e1-6eda2aa08a4b","ios":"levelo://app?vid=20f4ab7e-6f1d-496a-95e1-6eda2aa08a4b"},"vehicle_type_id":"4","last_reported":1728234466,"current_range_meters":28000,"station_id":"ce4bhlh2rcd13ifvqgig","pricing_plan_id":"cebpf4jnsgd1na2vs0mg"},{"bike_id":"249ba857-c21a-4cf9-b612-6eace3a3311f","system_id":"levelo_inurba_marseille","lat":43.270695,"lon":5.42283,"is_reserved":false,"is_disabled":false,"rental_uris":{"android":"levelo://app?vid=249ba857-c21a-4cf9-b612-6eace3a3311f","ios":"levelo://app?vid=249ba857-c21a-4cf9-b612-6eace3a3311f"},"vehicle_type_id":"4","last_reported":1728234466,"current_range_meters":25200,"station_id":"ce4bhk92rcd13ifvqgb0","pricing_plan_id":"cebpf4jnsgd1na2vs0mg"},{"bike_id":"32ab325a-0e98-4bb3-809c-c26d46577549","system_id":"levelo_inurba_marseille","lat":43.22932,"lon":5.35386,"is_reserved":false,"is_disabled":false,"rental_uris":{"android":"levelo://app?vid=32ab325a-0e98-4bb3-809c-c26d46577549","ios":"levelo://app?vid=32ab325a-0e98-4bb3-809c-c26d46577549"},"vehicle_type_id":"4","last_reported":1728234466,"current_range_meters":25600,"station_id":"cpo3532slgdg3j2ikp40","pricing_plan_id":"cebpf4jnsgd1na2vs0mg"},{"bike_id":"21814611-01da-4a56-bde2-76253f0cdaa1","system_id":"levelo_inurba_marseille","lat":43.27074,"lon":5.42284,"is_reserved":false,"is_disabled":false,"rental_uris":{"android":"levelo://app?vid=21814611-01da-4a56-bde2-76253f0cdaa1","ios":"levelo://app?vid=21814611-01da-4a56-bde2-76253f0cdaa1"},"vehicle_type_id":"4","last_reported":1728234466,"current_range_meters":38000,"station_id":"ce4bhk92rcd13ifvqgb0","pricing_plan_id":"cebpf4jnsgd1na2vs0mg"},{"bike_id":"03ebdfef-60b9-4383-b780-f6e10ef5dff9","system_id":"levelo_inurba_marseille","lat":43.33755,"lon":5.37456,"is_reserved":false,"is_disabled":false,"rental_uris":{"android":"levelo://app?vid=03ebdfef-60b9-4383-b780-f6e10ef5dff9","ios":"levelo://app?vid=03ebdfef-60b9-4383-b780-f6e10ef5dff9"},"vehicle_type_id":"4","last_reported":1728234466,"current_range_meters":26000,"station_id":"","pricing_plan_id":"cebpf4jnsgd1na2vs0mg"},{"bike_id":"11be9968-522e-4bb7-9690-6e0c90931ef9","system_id":"levelo_inurba_marseille","lat":43.27817,"lon":5.3922,"is_reserved":false,"is_disabled":false,"rental_uris":{"android":"levelo://app?vid=11be9968-522e-4bb7-9690-6e0c90931ef9","ios":"levelo://app?vid=11be9968-522e-4bb7-9690-6e0c90931ef9"},"vehicle_type_id":"4","last_reported":1728234466,"current_range_meters":32400,"station_id":"ce4bhjp2rcd13ifvqga0","pricing_plan_id":"cebpf4jnsgd1na2vs0mg"},{"bike_id":"8c4ede2a-8479-4951-912b-e9104b176599","system_id":"levelo_inurba_marseille","lat":43.33725,"lon":5.39196,"is_reserved":false,"is_disabled":false,"rental_uris":{"android":"levelo://app?vid=8c4ede2a-8479-4951-912b-e9104b176599","ios":"levelo://app?vid=8c4ede2a-8479-4951-912b-e9104b176599"},"vehicle_type_id":"4","last_reported":1728234466,"current_range_meters":7200,"station_id":"ce4bhr92rcd13ifvqhsg","pricing_plan_id":"cebpf4jnsgd1na2vs0mg"},{"bike_id":"b29d2627-2d02-446c-ad48-fb47a86b1400","system_id":"levelo_inurba_marseille","lat":43.30439,"lon":5.39751,"is_reserved":false,"is_disabled":false,"rental_uris":{"android":"levelo://app?vid=b29d2627-2d02-446c-ad48-fb47a86b1400","ios":"levelo://app?vid=b29d2627-2d02-446c-ad48-fb47a86b1400"},"vehicle_type_id":"4","last_reported":1728234466,"current_range_meters":17600,"station_id":"ce4bh092rcd13ifvqd20","pricing_plan_id":"cebpf4jnsgd1na2vs0mg"},{"bike_id":"4018fa26-9a2a-4214-af21-76b3667a940b","system_id":"levelo_inurba_marseille","lat":43.33764,"lon":5.37443,"is_reserved":false,"is_disabled":false,"rental_uris":{"android":"levelo://app?vid=4018fa26-9a2a-4214-af21-76b3667a940b","ios":"levelo://app?vid=4018fa26-9a2a-4214-af21-76b3667a940b"},"vehicle_type_id":"4","last_reported":1728234466,"current_range_meters":27200,"station_id":"","pricing_plan_id":"cebpf4jnsgd1na2vs0mg"},{"bike_id":"1c171f7c-ff3e-4912-9b7b-48ee5d0e2652","system_id":"levelo_inurba_marseille","lat":43.30585,"lon":5.39361,"is_reserved":false,"is_disabled":false,"rental_uris":{"android":"levelo://app?vid=1c171f7c-ff3e-4912-9b7b-48ee5d0e2652","ios":"levelo://app?vid=1c171f7c-ff3e-4912-9b7b-48ee5d0e2652"},"vehicle_type_id":"4","last_reported":1728234466,"current_range_meters":38000,"station_id":"ce4bh0p2rcd13ifvqd80","pricing_plan_id":"cebpf4jnsgd1na2vs0mg"},{"bike_id":"47eac1fe-2ca6-4418-8b2f-3564461491d6","system_id":"levelo_inurba_marseille","lat":43.27918,"lon":5.39582,"is_reserved":false,"is_disabled":false,"rental_uris":{"android":"levelo://app?vid=47eac1fe-2ca6-4418-8b2f-3564461491d6","ios":"levelo://app?vid=47eac1fe-2ca6-4418-8b2f-3564461491d6"},"vehicle_type_id":"4","last_reported":1728234466,"current_range_meters":29600,"station_id":"ce4bhf92rcd13ifvqf40","pricing_plan_id":"cebpf4jnsgd1na2vs0mg"},{"bike_id":"35db5aab-a536-4286-87d7-90ec43783f24","system_id":"levelo_inurba_marseille","lat":43.23194,"lon":5.35551,"is_reserved":false,"is_disabled":false,"rental_uris":{"android":"levelo://app?vid=35db5aab-a536-4286-87d7-90ec43783f24","ios":"levelo://app?vid=35db5aab-a536-4286-87d7-90ec43783f24"},"vehicle_type_id":"4","last_reported":1728234466,"current_range_meters":39200,"station_id":"ce4bhu92rcd13ifvqi70","pricing_plan_id":"cebpf4jnsgd1na2vs0mg"},{"bike_id":"ac7477e2-647f-4698-b2f1-05ac6bd7ca79","system_id":"levelo_inurba_marseille","lat":43.27378,"lon":5.36254,"is_reserved":false,"is_disabled":false,"rental_uris":{"android":"levelo://app?vid=ac7477e2-647f-4698-b2f1-05ac6bd7ca79","ios":"levelo://app?vid=ac7477e2-647f-4698-b2f1-05ac6bd7ca79"},"vehicle_type_id":"4","last_reported":1728234466,"current_range_meters":32400,"station_id":"ce4bhbh2rcd13ifvqeo0","pricing_plan_id":"cebpf4jnsgd1na2vs0mg"},{"bike_id":"014a61f9-8817-4513-9d79-235ec6f90e99","system_id":"levelo_inurba_marseille","lat":43.29003,"lon":5.35627,"is_reserved":false,"is_disabled":false,"rental_uris":{"android":"levelo://app?vid=014a61f9-8817-4513-9d79-235ec6f90e99","ios":"levelo://app?vid=014a61f9-8817-4513-9d79-235ec6f90e99"},"vehicle_type_id":"4","last_reported":1728234466,"current_range_meters":38800,"station_id":"ce4bhb92rcd13ifvqen0","pricing_plan_id":"cebpf4jnsgd1na2vs0mg"},{"bike_id":"a27e270e-e10f-4078-9047-05a905df54d1","system_id":"levelo_inurba_marseille","lat":43.31498,"lon":5.37312,"is_reserved":false,"is_disabled":false,"rental_uris":{"android":"levelo://app?vid=a27e270e-e10f-4078-9047-05a905df54d1","ios":"levelo://app?vid=a27e270e-e10f-4078-9047-05a905df54d1"},"vehicle_type_id":"4","last_reported":1728234466,"current_range_meters":38800,"station_id":"ce4bgt12rcd13ifvqcd0","pricing_plan_id":"cebpf4jnsgd1na2vs0mg"},{"bike_id":"491813ec-5bcd-4eda-acb2-c01ccb4e9894","system_id":"levelo_inurba_marseille","lat":43.33766,"lon":5.37457,"is_reserved":false,"is_disabled":false,"rental_uris":{"android":"levelo://app?vid=491813ec-5bcd-4eda-acb2-c01ccb4e9894","ios":"levelo://app?vid=491813ec-5bcd-4eda-acb2-c01ccb4e9894"},"vehicle_type_id":"4","last_reported":1728234466,"current_range_meters":26000,"station_id":"","pricing_plan_id":"cebpf4jnsgd1na2vs0mg"},{"bike_id":"79622887-6c4e-477c-879a-7f7e79a8b1c4","system_id":"levelo_inurba_marseille","lat":43.2558,"lon":5.38238,"is_reserved":false,"is_disabled":false,"rental_uris":{"android":"levelo://app?vid=79622887-6c4e-477c-879a-7f7e79a8b1c4","ios":"levelo://app?vid=79622887-6c4e-477c-879a-7f7e79a8b1c4"},"vehicle_type_id":"4","last_reported":1728234466,"current_range_meters":4400,"station_id":"ce4bhih2rcd13ifvqfs0","pricing_plan_id":"cebpf4jnsgd1na2vs0mg"},{"bike_id":"9b6558ee-0ab2-4010-b903-b043faab4b6a","system_id":"levelo_inurba_marseille","lat":43.25002,"lon":5.38935,"is_reserved":false,"is_disabled":false,"rental_uris":{"android":"levelo://app?vid=9b6558ee-0ab2-4010-b903-b043faab4b6a","ios":"levelo://app?vid=9b6558ee-0ab2-4010-b903-b043faab4b6a"},"vehicle_type_id":"4","last_reported":1728234466,"current_range_meters":38800,"station_id":"ce4bhgp2rcd13ifvqfd0","pricing_plan_id":"cebpf4jnsgd1na2vs0mg"},{"bike_id":"8066cbd9-6f5f-4c8b-82e0-670217342883","system_id":"levelo_inurba_marseille","lat":43.21345,"lon":5.34938,"is_reserved":false,"is_disabled":false,"rental_uris":{"android":"levelo://app?vid=8066cbd9-6f5f-4c8b-82e0-670217342883","ios":"levelo://app?vid=8066cbd9-6f5f-4c8b-82e0-670217342883"},"vehicle_type_id":"4","last_reported":1728234466,"current_range_meters":32400,"station_id":"crv51consjfaj9uu89c0","pricing_plan_id":"cebpf4jnsgd1na2vs0mg"},{"bike_id":"870ecdbf-3528-4277-82a5-269de3374c1c","system_id":"levelo_inurba_marseille","lat":43.27075,"lon":5.42283,"is_reserved":false,"is_disabled":false,"rental_uris":{"android":"levelo://app?vid=870ecdbf-3528-4277-82a5-269de3374c1c","ios":"levelo://app?vid=870ecdbf-3528-4277-82a5-269de3374c1c"},"vehicle_type_id":"4","last_reported":1728234466,"current_range_meters":38800,"station_id":"ce4bhk92rcd13ifvqgb0","pricing_plan_id":"cebpf4jnsgd1na2vs0mg"},{"bike_id":"baba7691-81ff-4c7d-90d9-c89eba9696cb","system_id":"levelo_inurba_marseille","lat":43.25929,"lon":5.40921,"is_reserved":false,"is_disabled":false,"rental_uris":{"android":"levelo://app?vid=baba7691-81ff-4c7d-90d9-c89eba9696cb","ios":"levelo://app?vid=baba7691-81ff-4c7d-90d9-c89eba9696cb"},"vehicle_type_id":"4","last_reported":1728234466,"current_range_meters":30800,"station_id":"ce4bhm92rcd13ifvqglg","pricing_plan_id":"cebpf4jnsgd1na2vs0mg"},{"bike_id":"e3428625-f639-47de-91d6-65f82c461ced","system_id":"levelo_inurba_marseille","lat":43.29275,"lon":5.36841,"is_reserved":false,"is_disabled":false,"rental_uris":{"android":"levelo://app?vid=e3428625-f639-47de-91d6-65f82c461ced","ios":"levelo://app?vid=e3428625-f639-47de-91d6-65f82c461ced"},"vehicle_type_id":"4","last_reported":1728234466,"current_range_meters":18800,"station_id":"ce4bhbp2rcd13ifvqesg","pricing_plan_id":"cebpf4jnsgd1na2vs0mg"},{"bike_id":"b1a3ef60-5247-44ce-a767-17e924b03558","system_id":"levelo_inurba_marseille","lat":43.27372,"lon":5.36257,"is_reserved":false,"is_disabled":false,"rental_uris":{"android":"levelo://app?vid=b1a3ef60-5247-44ce-a767-17e924b03558","ios":"levelo://app?vid=b1a3ef60-5247-44ce-a767-17e924b03558"},"vehicle_type_id":"4","last_reported":1728234466,"current_range_meters":28400,"station_id":"ce4bhbh2rcd13ifvqeo0","pricing_plan_id":"cebpf4jnsgd1na2vs0mg"},{"bike_id":"ee7fe073-1228-41ae-8fc3-e5d1e8819a82","system_id":"levelo_inurba_marseille","lat":43.24385,"lon":5.37061,"is_reserved":false,"is_disabled":false,"rental_uris":{"android":"levelo://app?vid=ee7fe073-1228-41ae-8fc3-e5d1e8819a82","ios":"levelo://app?vid=ee7fe073-1228-41ae-8fc3-e5d1e8819a82"},"vehicle_type_id":"4","last_reported":1728234466,"current_range_meters":22000,"station_id":"ce4bhhh2rcd13ifvqfk0","pricing_plan_id":"cebpf4jnsgd1na2vs0mg"},{"bike_id":"d23ddbe4-840b-4d6d-8e13-a20922334a77","system_id":"levelo_inurba_marseille","lat":43.32479,"lon":5.36574,"is_reserved":false,"is_disabled":false,"rental_uris":{"android":"levelo://app?vid=d23ddbe4-840b-4d6d-8e13-a20922334a77","ios":"levelo://app?vid=d23ddbe4-840b-4d6d-8e13-a20922334a77"},"vehicle_type_id":"4","last_reported":1728234466,"current_range_meters":38800,"station_id":"ce4bhs12rcd13ifvqhvg","pricing_plan_id":"cebpf4jnsgd1na2vs0mg"},{"bike_id":"6ae7d0e0-1623-4439-8d68-fec3c5db110c","system_id":"levelo_inurba_marseille","lat":43.22932,"lon":5.35378,"is_reserved":false,"is_disabled":false,"rental_uris":{"android":"levelo://app?vid=6ae7d0e0-1623-4439-8d68-fec3c5db110c","ios":"levelo://app?vid=6ae7d0e0-1623-4439-8d68-fec3c5db110c"},"vehicle_type_id":"4","last_reported":1728234466,"current_range_meters":36400,"station_id":"cpo3532slgdg3j2ikp40","pricing_plan_id":"cebpf4jnsgd1na2vs0mg"},{"bike_id":"4af55307-045f-4c66-a045-a91d88bb4c16","system_id":"levelo_inurba_marseille","lat":43.22931,"lon":5.35376,"is_reserved":false,"is_disabled":false,"rental_uris":{"android":"levelo://app?vid=4af55307-045f-4c66-a045-a91d88bb4c16","ios":"levelo://app?vid=4af55307-045f-4c66-a045-a91d88bb4c16"},"vehicle_type_id":"4","last_reported":1728234466,"current_range_meters":30000,"station_id":"cpo3532slgdg3j2ikp40","pricing_plan_id":"cebpf4jnsgd1na2vs0mg"},{"bike_id":"e1b524e6-03eb-4607-981b-c6c2b07008ab","system_id":"levelo_inurba_marseille","lat":43.24667,"lon":5.38172,"is_reserved":false,"is_disabled":false,"rental_uris":{"android":"levelo://app?vid=e1b524e6-03eb-4607-981b-c6c2b07008ab","ios":"levelo://app?vid=e1b524e6-03eb-4607-981b-c6c2b07008ab"},"vehicle_type_id":"4","last_reported":1728234466,"current_range_meters":3200,"station_id":"ce4bhih2rcd13ifvqfr0","pricing_plan_id":"cebpf4jnsgd1na2vs0mg"},{"bike_id":"13a35d1a-1c21-4cdd-9282-17040c700716","system_id":"levelo_inurba_marseille","lat":43.32537,"lon":5.41441,"is_reserved":false,"is_disabled":false,"rental_uris":{"android":"levelo://app?vid=13a35d1a-1c21-4cdd-9282-17040c700716","ios":"levelo://app?vid=13a35d1a-1c21-4cdd-9282-17040c700716"},"vehicle_type_id":"4","last_reported":1728234466,"current_range_meters":34000,"station_id":"ce4bhq12rcd13ifvqhhg","pricing_plan_id":"cebpf4jnsgd1na2vs0mg"},{"bike_id":"81fc6b1f-fe9d-4bef-a76c-ceb44db9020c","system_id":"levelo_inurba_marseille","lat":43.2885,"lon":5.39339,"is_reserved":false,"is_disabled":false,"rental_uris":{"android":"levelo://app?vid=81fc6b1f-fe9d-4bef-a76c-ceb44db9020c","ios":"levelo://app?vid=81fc6b1f-fe9d-4bef-a76c-ceb44db9020c"},"vehicle_type_id":"4","last_reported":1728234466,"current_range_meters":33600,"station_id":"ce4bh2p2rcd13ifvqdi0","pricing_plan_id":"cebpf4jnsgd1na2vs0mg"},{"bike_id":"265b6257-cac5-4700-be81-5022c39ebf02","system_id":"levelo_inurba_marseille","lat":43.21346,"lon":5.3494,"is_reserved":false,"is_disabled":false,"rental_uris":{"android":"levelo://app?vid=265b6257-cac5-4700-be81-5022c39ebf02","ios":"levelo://app?vid=265b6257-cac5-4700-be81-5022c39ebf02"},"vehicle_type_id":"4","last_reported":1728234466,"current_range_meters":31200,"station_id":"crv51consjfaj9uu89c0","pricing_plan_id":"cebpf4jnsgd1na2vs0mg"},{"bike_id":"458f5828-3d56-4435-88db-2bbc4971abb9","system_id":"levelo_inurba_marseille","lat":43.23179,"lon":5.39994,"is_reserved":false,"is_disabled":false,"rental_uris":{"android":"levelo://app?vid=458f5828-3d56-4435-88db-2bbc4971abb9","ios":"levelo://app?vid=458f5828-3d56-4435-88db-2bbc4971abb9"},"vehicle_type_id":"4","last_reported":1728234466,"current_range_meters":8800,"station_id":"ce4bhn12rcd13ifvqgqg","pricing_plan_id":"cebpf4jnsgd1na2vs0mg"},{"bike_id":"1665e473-ea0e-48cf-a4b3-7a2d068c92a5","system_id":"levelo_inurba_marseille","lat":43.30642,"lon":5.4011,"is_reserved":false,"is_disabled":false,"rental_uris":{"android":"levelo://app?vid=1665e473-ea0e-48cf-a4b3-7a2d068c92a5","ios":"levelo://app?vid=1665e473-ea0e-48cf-a4b3-7a2d068c92a5"},"vehicle_type_id":"4","last_reported":1728234466,"current_range_meters":12000,"station_id":"ce4bh112rcd13ifvqda0","pricing_plan_id":"cebpf4jnsgd1na2vs0mg"},{"bike_id":"97ef281f-c717-429c-a078-d6a368902950","system_id":"levelo_inurba_marseille","lat":43.21347,"lon":5.34941,"is_reserved":false,"is_disabled":false,"rental_uris":{"android":"levelo://app?vid=97ef281f-c717-429c-a078-d6a368902950","ios":"levelo://app?vid=97ef281f-c717-429c-a078-d6a368902950"},"vehicle_type_id":"4","last_reported":1728234466,"current_range_meters":24400,"station_id":"crv51consjfaj9uu89c0","pricing_plan_id":"cebpf4jnsgd1na2vs0mg"},{"bike_id":"a3d13fae-d748-48fc-8b00-d85f0845bd9c","system_id":"levelo_inurba_marseille","lat":43.3014,"lon":5.38777,"is_reserved":false,"is_disabled":false,"rental_uris":{"android":"levelo://app?vid=a3d13fae-d748-48fc-8b00-d85f0845bd9c","ios":"levelo://app?vid=a3d13fae-d748-48fc-8b00-d85f0845bd9c"},"vehicle_type_id":"4","last_reported":1728234466,"current_range_meters":6400,"station_id":"ce4bghh2rcd13ifvqb60","pricing_plan_id":"cebpf4jnsgd1na2vs0mg"},{"bike_id":"4ea2341a-7a64-4a1c-a578-a0e9703edde6","system_id":"levelo_inurba_marseille","lat":43.31706,"lon":5.37731,"is_reserved":false,"is_disabled":false,"rental_uris":{"android":"levelo://app?vid=4ea2341a-7a64-4a1c-a578-a0e9703edde6","ios":"levelo://app?vid=4ea2341a-7a64-4a1c-a578-a0e9703edde6"},"vehicle_type_id":"4","last_reported":1728234466,"current_range_meters":33200,"station_id":"ce4bgth2rcd13ifvqch0","pricing_plan_id":"cebpf4jnsgd1na2vs0mg"},{"bike_id":"190548a0-05d5-4bdb-bc1f-d4a1ad9e157a","system_id":"levelo_inurba_marseille","lat":43.27987,"lon":5.41662,"is_reserved":false,"is_disabled":false,"rental_uris":{"android":"levelo://app?vid=190548a0-05d5-4bdb-bc1f-d4a1ad9e157a","ios":"levelo://app?vid=190548a0-05d5-4bdb-bc1f-d4a1ad9e157a"},"vehicle_type_id":"4","last_reported":1728234466,"current_range_meters":13600,"station_id":"ce4bho12rcd13ifvqh1g","pricing_plan_id":"cebpf4jnsgd1na2vs0mg"},{"bike_id":"304f0f46-778c-4448-8270-d4d4de7ea60c","system_id":"levelo_inurba_marseille","lat":43.27915,"lon":5.39582,"is_reserved":false,"is_disabled":false,"rental_uris":{"android":"levelo://app?vid=304f0f46-778c-4448-8270-d4d4de7ea60c","ios":"levelo://app?vid=304f0f46-778c-4448-8270-d4d4de7ea60c"},"vehicle_type_id":"4","last_reported":1728234466,"current_range_meters":13600,"station_id":"ce4bhf92rcd13ifvqf40","pricing_plan_id":"cebpf4jnsgd1na2vs0mg"},{"bike_id":"df1dff1c-a5a0-470f-8a0f-812bc3e6923b","system_id":"levelo_inurba_marseille","lat":43.28672,"lon":5.38675,"is_reserved":false,"is_disabled":false,"rental_uris":{"android":"levelo://app?vid=df1dff1c-a5a0-470f-8a0f-812bc3e6923b","ios":"levelo://app?vid=df1dff1c-a5a0-470f-8a0f-812bc3e6923b"},"vehicle_type_id":"4","last_reported":1728234466,"current_range_meters":33200,"station_id":"ce4bh492rcd13ifvqdug","pricing_plan_id":"cebpf4jnsgd1na2vs0mg"},{"bike_id":"1a553718-875d-44da-a254-4c241f58adff","system_id":"levelo_inurba_marseille","lat":43.30312,"lon":5.36896,"is_reserved":false,"is_disabled":false,"rental_uris":{"android":"levelo://app?vid=1a553718-875d-44da-a254-4c241f58adff","ios":"levelo://app?vid=1a553718-875d-44da-a254-4c241f58adff"},"vehicle_type_id":"4","last_reported":1728234466,"current_range_meters":27600,"station_id":"ce4bgqh2rcd13ifvqc5g","pricing_plan_id":"cebpf4jnsgd1na2vs0mg"},{"bike_id":"b2ee7e2f-43a2-4a7e-a754-77d0f53ad9a9","system_id":"levelo_inurba_marseille","lat":43.21349,"lon":5.34939,"is_reserved":false,"is_disabled":false,"rental_uris":{"android":"levelo://app?vid=b2ee7e2f-43a2-4a7e-a754-77d0f53ad9a9","ios":"levelo://app?vid=b2ee7e2f-43a2-4a7e-a754-77d0f53ad9a9"},"vehicle_type_id":"4","last_reported":1728234466,"current_range_meters":19600,"station_id":"","pricing_plan_id":"cebpf4jnsgd1na2vs0mg"},{"bike_id":"05ddab4b-2219-453e-b9f6-9211ae63c830","system_id":"levelo_inurba_marseille","lat":43.21343,"lon":5.34943,"is_reserved":false,"is_disabled":false,"rental_uris":{"android":"levelo://app?vid=05ddab4b-2219-453e-b9f6-9211ae63c830","ios":"levelo://app?vid=05ddab4b-2219-453e-b9f6-9211ae63c830"},"vehicle_type_id":"4","last_reported":1728234466,"current_range_meters":32000,"station_id":"crv51consjfaj9uu89c0","pricing_plan_id":"cebpf4jnsgd1na2vs0mg"},{"bike_id":"ec8c0dc8-b52e-48b1-af3e-dea1578d3993","system_id":"levelo_inurba_marseille","lat":43.31165,"lon":5.38723,"is_reserved":false,"is_disabled":false,"rental_uris":{"android":"levelo://app?vid=ec8c0dc8-b52e-48b1-af3e-dea1578d3993","ios":"levelo://app?vid=ec8c0dc8-b52e-48b1-af3e-dea1578d3993"},"vehicle_type_id":"4","last_reported":1728234466,"current_range_meters":24000,"station_id":"ce4bgv12rcd13ifvqcp0","pricing_plan_id":"cebpf4jnsgd1na2vs0mg"},{"bike_id":"9c91b200-f4d6-433f-9685-233a2593e101","system_id":"levelo_inurba_marseille","lat":43.27377,"lon":5.36261,"is_reserved":false,"is_disabled":false,"rental_uris":{"android":"levelo://app?vid=9c91b200-f4d6-433f-9685-233a2593e101","ios":"levelo://app?vid=9c91b200-f4d6-433f-9685-233a2593e101"},"vehicle_type_id":"4","last_reported":1728234466,"current_range_meters":23200,"station_id":"ce4bhbh2rcd13ifvqeo0","pricing_plan_id":"cebpf4jnsgd1na2vs0mg"},{"bike_id":"7fcf6b6e-71cd-4139-89ef-74bf6b91084e","system_id":"levelo_inurba_marseille","lat":43.30783,"lon":5.37648,"is_reserved":false,"is_disabled":false,"rental_uris":{"android":"levelo://app?vid=7fcf6b6e-71cd-4139-89ef-74bf6b91084e","ios":"levelo://app?vid=7fcf6b6e-71cd-4139-89ef-74bf6b91084e"},"vehicle_type_id":"4","last_reported":1728234466,"current_range_meters":23200,"station_id":"ce4bgv92rcd13ifvqcq0","pricing_plan_id":"cebpf4jnsgd1na2vs0mg"},{"bike_id":"d0ca1193-12e8-4ac2-9a60-4ae6e0040151","system_id":"levelo_inurba_marseille","lat":43.2294,"lon":5.35379,"is_reserved":false,"is_disabled":false,"rental_uris":{"android":"levelo://app?vid=d0ca1193-12e8-4ac2-9a60-4ae6e0040151","ios":"levelo://app?vid=d0ca1193-12e8-4ac2-9a60-4ae6e0040151"},"vehicle_type_id":"4","last_reported":1728234466,"current_range_meters":27600,"station_id":"cpo3532slgdg3j2ikp40","pricing_plan_id":"cebpf4jnsgd1na2vs0mg"},{"bike_id":"b41921bf-82b6-4aec-a089-e92ad1c27886","system_id":"levelo_inurba_marseille","lat":43.31484,"lon":5.37314,"is_reserved":false,"is_disabled":false,"rental_uris":{"android":"levelo://app?vid=b41921bf-82b6-4aec-a089-e92ad1c27886","ios":"levelo://app?vid=b41921bf-82b6-4aec-a089-e92ad1c27886"},"vehicle_type_id":"4","last_reported":1728234466,"current_range_meters":20000,"station_id":"ce4bgt12rcd13ifvqcd0","pricing_plan_id":"cebpf4jnsgd1na2vs0mg"},{"bike_id":"6407b479-b396-4c54-b65c-1df4d77faf38","system_id":"levelo_inurba_marseille","lat":43.25079,"lon":5.39522,"is_reserved":false,"is_disabled":false,"rental_uris":{"android":"levelo://app?vid=6407b479-b396-4c54-b65c-1df4d77faf38","ios":"levelo://app?vid=6407b479-b396-4c54-b65c-1df4d77faf38"},"vehicle_type_id":"4","last_reported":1728234466,"current_range_meters":28000,"station_id":"ce4bhm12rcd13ifvqgkg","pricing_plan_id":"cebpf4jnsgd1na2vs0mg"},{"bike_id":"a35fd4f4-64ed-4448-b17c-4216706395eb","system_id":"levelo_inurba_marseille","lat":43.28402,"lon":5.37523,"is_reserved":false,"is_disabled":false,"rental_uris":{"android":"levelo://app?vid=a35fd4f4-64ed-4448-b17c-4216706395eb","ios":"levelo://app?vid=a35fd4f4-64ed-4448-b17c-4216706395eb"},"vehicle_type_id":"4","last_reported":1728234466,"current_range_meters":22800,"station_id":"","pricing_plan_id":"cebpf4jnsgd1na2vs0mg"},{"bike_id":"5626c8ae-3418-4d44-af72-d6e66b17cdb9","system_id":"levelo_inurba_marseille","lat":43.29007,"lon":5.366412,"is_reserved":false,"is_disabled":false,"rental_uris":{"android":"levelo://app?vid=5626c8ae-3418-4d44-af72-d6e66b17cdb9","ios":"levelo://app?vid=5626c8ae-3418-4d44-af72-d6e66b17cdb9"},"vehicle_type_id":"4","last_reported":1728234466,"current_range_meters":17600,"station_id":"ce4bhap2rcd13ifvqek0","pricing_plan_id":"cebpf4jnsgd1na2vs0mg"},{"bike_id":"e94f14e1-f4db-428c-8bca-3cca1b8f7836","system_id":"levelo_inurba_marseille","lat":43.28104,"lon":5.37855,"is_reserved":false,"is_disabled":false,"rental_uris":{"android":"levelo://app?vid=e94f14e1-f4db-428c-8bca-3cca1b8f7836","ios":"levelo://app?vid=e94f14e1-f4db-428c-8bca-3cca1b8f7836"},"vehicle_type_id":"4","last_reported":1728234466,"current_range_meters":28800,"station_id":"ce4bha12rcd13ifvqee0","pricing_plan_id":"cebpf4jnsgd1na2vs0mg"},{"bike_id":"bb471a60-b4c1-4fa1-9d97-f888239b2846","system_id":"levelo_inurba_marseille","lat":43.269409,"lon":5.402565,"is_reserved":false,"is_disabled":false,"rental_uris":{"android":"levelo://app?vid=bb471a60-b4c1-4fa1-9d97-f888239b2846","ios":"levelo://app?vid=bb471a60-b4c1-4fa1-9d97-f888239b2846"},"vehicle_type_id":"4","last_reported":1728234466,"current_range_meters":21600,"station_id":"ce4bh4p2rcd13ifvqe0g","pricing_plan_id":"cebpf4jnsgd1na2vs0mg"},{"bike_id":"89a76e20-be18-43b4-8e28-8deda99353c1","system_id":"levelo_inurba_marseille","lat":43.28415,"lon":5.34994,"is_reserved":false,"is_disabled":false,"rental_uris":{"android":"levelo://app?vid=89a76e20-be18-43b4-8e28-8deda99353c1","ios":"levelo://app?vid=89a76e20-be18-43b4-8e28-8deda99353c1"},"vehicle_type_id":"4","last_reported":1728234466,"current_range_meters":27600,"station_id":"ce4bhbh2rcd13ifvqepg","pricing_plan_id":"cebpf4jnsgd1na2vs0mg"},{"bike_id":"4abbadb3-c5f8-4cd5-aa3f-2c9daccf6640","system_id":"levelo_inurba_marseille","lat":43.26786,"lon":5.39416,"is_reserved":false,"is_disabled":false,"rental_uris":{"android":"levelo://app?vid=4abbadb3-c5f8-4cd5-aa3f-2c9daccf6640","ios":"levelo://app?vid=4abbadb3-c5f8-4cd5-aa3f-2c9daccf6640"},"vehicle_type_id":"4","last_reported":1728234466,"current_range_meters":2800,"station_id":"ce4bhh12rcd13ifvqfg0","pricing_plan_id":"cebpf4jnsgd1na2vs0mg"},{"bike_id":"18cab30f-71a4-424c-a58a-1028931912e7","system_id":"levelo_inurba_marseille","lat":43.27812,"lon":5.40702,"is_reserved":false,"is_disabled":false,"rental_uris":{"android":"levelo://app?vid=18cab30f-71a4-424c-a58a-1028931912e7","ios":"levelo://app?vid=18cab30f-71a4-424c-a58a-1028931912e7"},"vehicle_type_id":"4","last_reported":1728234466,"current_range_meters":30000,"station_id":"ce4bhnh2rcd13ifvqgtg","pricing_plan_id":"cebpf4jnsgd1na2vs0mg"},{"bike_id":"c3807836-e894-4044-9f9b-29812d597eb8","system_id":"levelo_inurba_marseille","lat":43.284861,"lon":5.384317,"is_reserved":false,"is_disabled":false,"rental_uris":{"android":"levelo://app?vid=c3807836-e894-4044-9f9b-29812d597eb8","ios":"levelo://app?vid=c3807836-e894-4044-9f9b-29812d597eb8"},"vehicle_type_id":"4","last_reported":1728234466,"current_range_meters":27200,"station_id":"ce4bh512rcd13ifvqe3g","pricing_plan_id":"cebpf4jnsgd1na2vs0mg"},{"bike_id":"4cec41a9-3ffc-4e74-9a53-3ba906db46bd","system_id":"levelo_inurba_marseille","lat":43.299347,"lon":5.365603,"is_reserved":false,"is_disabled":false,"rental_uris":{"android":"levelo://app?vid=4cec41a9-3ffc-4e74-9a53-3ba906db46bd","ios":"levelo://app?vid=4cec41a9-3ffc-4e74-9a53-3ba906db46bd"},"vehicle_type_id":"4","last_reported":1728234466,"current_range_meters":32000,"station_id":"ce4bgih2rcd13ifvqba0","pricing_plan_id":"cebpf4jnsgd1na2vs0mg"},{"bike_id":"bbebfa06-aea9-430f-9656-d227029480b5","system_id":"levelo_inurba_marseille","lat":43.30785,"lon":5.38185,"is_reserved":false,"is_disabled":false,"rental_uris":{"android":"levelo://app?vid=bbebfa06-aea9-430f-9656-d227029480b5","ios":"levelo://app?vid=bbebfa06-aea9-430f-9656-d227029480b5"},"vehicle_type_id":"4","last_reported":1728234466,"current_range_meters":28400,"station_id":"ce4bgt12rcd13ifvqce0","pricing_plan_id":"cebpf4jnsgd1na2vs0mg"},{"bike_id":"593b9032-a10e-4ea1-8623-e118afeda6ab","system_id":"levelo_inurba_marseille","lat":43.2885,"lon":5.39324,"is_reserved":false,"is_disabled":false,"rental_uris":{"android":"levelo://app?vid=593b9032-a10e-4ea1-8623-e118afeda6ab","ios":"levelo://app?vid=593b9032-a10e-4ea1-8623-e118afeda6ab"},"vehicle_type_id":"4","last_reported":1728234466,"current_range_meters":20800,"station_id":"ce4bh2p2rcd13ifvqdi0","pricing_plan_id":"cebpf4jnsgd1na2vs0mg"},{"bike_id":"1c6e8542-0efa-43bd-a17b-1a8ffeb5acdf","system_id":"levelo_inurba_marseille","lat":43.26563,"lon":5.39013,"is_reserved":false,"is_disabled":false,"rental_uris":{"android":"levelo://app?vid=1c6e8542-0efa-43bd-a17b-1a8ffeb5acdf","ios":"levelo://app?vid=1c6e8542-0efa-43bd-a17b-1a8ffeb5acdf"},"vehicle_type_id":"4","last_reported":1728234466,"current_range_meters":36000,"station_id":"ce4bhe12rcd13ifvqf30","pricing_plan_id":"cebpf4jnsgd1na2vs0mg"},{"bike_id":"fbe2db3f-9b7b-451a-ad48-131ae931cad3","system_id":"levelo_inurba_marseille","lat":43.25719,"lon":5.41127,"is_reserved":false,"is_disabled":false,"rental_uris":{"android":"levelo://app?vid=fbe2db3f-9b7b-451a-ad48-131ae931cad3","ios":"levelo://app?vid=fbe2db3f-9b7b-451a-ad48-131ae931cad3"},"vehicle_type_id":"4","last_reported":1728234466,"current_range_meters":14400,"station_id":"ce4bhkp2rcd13ifvqgd0","pricing_plan_id":"cebpf4jnsgd1na2vs0mg"},{"bike_id":"490889b1-cee9-4892-9db5-299333956c90","system_id":"levelo_inurba_marseille","lat":43.34143,"lon":5.40906,"is_reserved":false,"is_disabled":false,"rental_uris":{"android":"levelo://app?vid=490889b1-cee9-4892-9db5-299333956c90","ios":"levelo://app?vid=490889b1-cee9-4892-9db5-299333956c90"},"vehicle_type_id":"4","last_reported":1728234466,"current_range_meters":38400,"station_id":"ce4bhqh2rcd13ifvqhlg","pricing_plan_id":"cebpf4jnsgd1na2vs0mg"},{"bike_id":"ea30e775-8466-430d-96e1-a121d270f1bd","system_id":"levelo_inurba_marseille","lat":43.24646,"lon":5.3889,"is_reserved":false,"is_disabled":false,"rental_uris":{"android":"levelo://app?vid=ea30e775-8466-430d-96e1-a121d270f1bd","ios":"levelo://app?vid=ea30e775-8466-430d-96e1-a121d270f1bd"},"vehicle_type_id":"4","last_reported":1728234466,"current_range_meters":38800,"station_id":"ce4bhg12rcd13ifvqf60","pricing_plan_id":"cebpf4jnsgd1na2vs0mg"},{"bike_id":"4378a0dd-7ddd-4246-9294-1e2af02e0700","system_id":"levelo_inurba_marseille","lat":43.23196,"lon":5.35552,"is_reserved":false,"is_disabled":false,"rental_uris":{"android":"levelo://app?vid=4378a0dd-7ddd-4246-9294-1e2af02e0700","ios":"levelo://app?vid=4378a0dd-7ddd-4246-9294-1e2af02e0700"},"vehicle_type_id":"4","last_reported":1728234466,"current_range_meters":9200,"station_id":"ce4bhu92rcd13ifvqi70","pricing_plan_id":"cebpf4jnsgd1na2vs0mg"},{"bike_id":"a008448a-70c2-4f1a-b95d-76d0a2b009fe","system_id":"levelo_inurba_marseille","lat":43.290039,"lon":5.356177,"is_reserved":false,"is_disabled":false,"rental_uris":{"android":"levelo://app?vid=a008448a-70c2-4f1a-b95d-76d0a2b009fe","ios":"levelo://app?vid=a008448a-70c2-4f1a-b95d-76d0a2b009fe"},"vehicle_type_id":"4","last_reported":1728234466,"current_range_meters":30800,"station_id":"ce4bhb92rcd13ifvqen0","pricing_plan_id":"cebpf4jnsgd1na2vs0mg"},{"bike_id":"cdc917cd-8609-4bab-8a00-197d50b2daa3","system_id":"levelo_inurba_marseille","lat":43.28609,"lon":5.37061,"is_reserved":false,"is_disabled":false,"rental_uris":{"android":"levelo://app?vid=cdc917cd-8609-4bab-8a00-197d50b2daa3","ios":"levelo://app?vid=cdc917cd-8609-4bab-8a00-197d50b2daa3"},"vehicle_type_id":"4","last_reported":1728234466,"current_range_meters":38800,"station_id":"ce4bht12rcd13ifvqi60","pricing_plan_id":"cebpf4jnsgd1na2vs0mg"},{"bike_id":"ccf4b8b7-f29c-4131-8981-2492bd5db336","system_id":"levelo_inurba_marseille","lat":43.29191,"lon":5.35819,"is_reserved":false,"is_disabled":false,"rental_uris":{"android":"levelo://app?vid=ccf4b8b7-f29c-4131-8981-2492bd5db336","ios":"levelo://app?vid=ccf4b8b7-f29c-4131-8981-2492bd5db336"},"vehicle_type_id":"4","last_reported":1728234466,"current_range_meters":25200,"station_id":"ce4bhb12rcd13ifvqel0","pricing_plan_id":"cebpf4jnsgd1na2vs0mg"},{"bike_id":"256fa177-60ee-45a2-a2aa-de47baeac3b4","system_id":"levelo_inurba_marseille","lat":43.32207,"lon":5.41371,"is_reserved":false,"is_disabled":false,"rental_uris":{"android":"levelo://app?vid=256fa177-60ee-45a2-a2aa-de47baeac3b4","ios":"levelo://app?vid=256fa177-60ee-45a2-a2aa-de47baeac3b4"},"vehicle_type_id":"4","last_reported":1728234466,"current_range_meters":36400,"station_id":"","pricing_plan_id":"cebpf4jnsgd1na2vs0mg"},{"bike_id":"98fab8a1-a284-40da-8df2-14f71a37d57b","system_id":"levelo_inurba_marseille","lat":43.21344,"lon":5.34943,"is_reserved":false,"is_disabled":false,"rental_uris":{"android":"levelo://app?vid=98fab8a1-a284-40da-8df2-14f71a37d57b","ios":"levelo://app?vid=98fab8a1-a284-40da-8df2-14f71a37d57b"},"vehicle_type_id":"4","last_reported":1728234466,"current_range_meters":31200,"station_id":"crv51consjfaj9uu89c0","pricing_plan_id":"cebpf4jnsgd1na2vs0mg"},{"bike_id":"a8b72546-fa40-47df-be71-02f4cc1b1851","system_id":"levelo_inurba_marseille","lat":43.28462,"lon":5.3588,"is_reserved":false,"is_disabled":false,"rental_uris":{"android":"levelo://app?vid=a8b72546-fa40-47df-be71-02f4cc1b1851","ios":"levelo://app?vid=a8b72546-fa40-47df-be71-02f4cc1b1851"},"vehicle_type_id":"4","last_reported":1728234466,"current_range_meters":16000,"station_id":"ce4bhah2rcd13ifvqei0","pricing_plan_id":"cebpf4jnsgd1na2vs0mg"},{"bike_id":"93d45870-2e1c-4ed1-9664-7b219a4ed443","system_id":"levelo_inurba_marseille","lat":43.22926,"lon":5.3538,"is_reserved":false,"is_disabled":false,"rental_uris":{"android":"levelo://app?vid=93d45870-2e1c-4ed1-9664-7b219a4ed443","ios":"levelo://app?vid=93d45870-2e1c-4ed1-9664-7b219a4ed443"},"vehicle_type_id":"4","last_reported":1728234466,"current_range_meters":38800,"station_id":"cpo3532slgdg3j2ikp40","pricing_plan_id":"cebpf4jnsgd1na2vs0mg"},{"bike_id":"8ed6fb8c-e60e-4747-a05d-5c4d429ec8c0","system_id":"levelo_inurba_marseille","lat":43.3293,"lon":5.38799,"is_reserved":false,"is_disabled":false,"rental_uris":{"android":"levelo://app?vid=8ed6fb8c-e60e-4747-a05d-5c4d429ec8c0","ios":"levelo://app?vid=8ed6fb8c-e60e-4747-a05d-5c4d429ec8c0"},"vehicle_type_id":"4","last_reported":1728234466,"current_range_meters":7200,"station_id":"ce4bhr92rcd13ifvqhrg","pricing_plan_id":"cebpf4jnsgd1na2vs0mg"},{"bike_id":"9c2f1f39-0750-4e58-a206-51c319b443b7","system_id":"levelo_inurba_marseille","lat":43.30183,"lon":5.36615,"is_reserved":false,"is_disabled":false,"rental_uris":{"android":"levelo://app?vid=9c2f1f39-0750-4e58-a206-51c319b443b7","ios":"levelo://app?vid=9c2f1f39-0750-4e58-a206-51c319b443b7"},"vehicle_type_id":"4","last_reported":1728234466,"current_range_meters":37600,"station_id":"ce4bgrh2rcd13ifvqc8g","pricing_plan_id":"cebpf4jnsgd1na2vs0mg"},{"bike_id":"6e512044-ef12-457b-bcca-26bd86c5618a","system_id":"levelo_inurba_marseille","lat":43.23059,"lon":5.35497,"is_reserved":false,"is_disabled":false,"rental_uris":{"android":"levelo://app?vid=6e512044-ef12-457b-bcca-26bd86c5618a","ios":"levelo://app?vid=6e512044-ef12-457b-bcca-26bd86c5618a"},"vehicle_type_id":"4","last_reported":1728234466,"current_range_meters":9200,"station_id":"cpo3342slgdg3j2ifvpg","pricing_plan_id":"cebpf4jnsgd1na2vs0mg"},{"bike_id":"467f4dad-860b-40f5-b4ca-9e05ccc20611","system_id":"levelo_inurba_marseille","lat":43.30916,"lon":5.40146,"is_reserved":false,"is_disabled":false,"rental_uris":{"android":"levelo://app?vid=467f4dad-860b-40f5-b4ca-9e05ccc20611","ios":"levelo://app?vid=467f4dad-860b-40f5-b4ca-9e05ccc20611"},"vehicle_type_id":"4","last_reported":1728234466,"current_range_meters":36800,"station_id":"ce4bgvp2rcd13ifvqct0","pricing_plan_id":"cebpf4jnsgd1na2vs0mg"},{"bike_id":"b2bead07-e88b-4386-8e91-465a36717d5f","system_id":"levelo_inurba_marseille","lat":43.32482,"lon":5.36581,"is_reserved":false,"is_disabled":false,"rental_uris":{"android":"levelo://app?vid=b2bead07-e88b-4386-8e91-465a36717d5f","ios":"levelo://app?vid=b2bead07-e88b-4386-8e91-465a36717d5f"},"vehicle_type_id":"4","last_reported":1728234466,"current_range_meters":16800,"station_id":"ce4bhs12rcd13ifvqhvg","pricing_plan_id":"cebpf4jnsgd1na2vs0mg"},{"bike_id":"270b90ca-7521-4165-af49-e1c727e5fa34","system_id":"levelo_inurba_marseille","lat":43.21346,"lon":5.34939,"is_reserved":false,"is_disabled":false,"rental_uris":{"android":"levelo://app?vid=270b90ca-7521-4165-af49-e1c727e5fa34","ios":"levelo://app?vid=270b90ca-7521-4165-af49-e1c727e5fa34"},"vehicle_type_id":"4","last_reported":1728234466,"current_range_meters":33200,"station_id":"crv51consjfaj9uu89c0","pricing_plan_id":"cebpf4jnsgd1na2vs0mg"},{"bike_id":"611d6115-26cb-4221-ba38-d0cfdcb796c1","system_id":"levelo_inurba_marseille","lat":43.28031,"lon":5.36956,"is_reserved":false,"is_disabled":false,"rental_uris":{"android":"levelo://app?vid=611d6115-26cb-4221-ba38-d0cfdcb796c1","ios":"levelo://app?vid=611d6115-26cb-4221-ba38-d0cfdcb796c1"},"vehicle_type_id":"4","last_reported":1728234466,"current_range_meters":16000,"station_id":"ce4bha12rcd13ifvqef0","pricing_plan_id":"cebpf4jnsgd1na2vs0mg"},{"bike_id":"6922c992-e75d-4fe0-b75a-3b3f5317428f","system_id":"levelo_inurba_marseille","lat":43.28996,"lon":5.35613,"is_reserved":false,"is_disabled":false,"rental_uris":{"android":"levelo://app?vid=6922c992-e75d-4fe0-b75a-3b3f5317428f","ios":"levelo://app?vid=6922c992-e75d-4fe0-b75a-3b3f5317428f"},"vehicle_type_id":"4","last_reported":1728234466,"current_range_meters":32800,"station_id":"ce4bhb92rcd13ifvqen0","pricing_plan_id":"cebpf4jnsgd1na2vs0mg"},{"bike_id":"3521e4ec-11a8-400f-adda-3837f7bc082f","system_id":"levelo_inurba_marseille","lat":43.24069,"lon":5.37766,"is_reserved":false,"is_disabled":false,"rental_uris":{"android":"levelo://app?vid=3521e4ec-11a8-400f-adda-3837f7bc082f","ios":"levelo://app?vid=3521e4ec-11a8-400f-adda-3837f7bc082f"},"vehicle_type_id":"4","last_reported":1728234466,"current_range_meters":28800,"station_id":"ce4bhnp2rcd13ifvqgvg","pricing_plan_id":"cebpf4jnsgd1na2vs0mg"},{"bike_id":"469f1566-ba28-4d97-a048-35bc56e7cc9e","system_id":"levelo_inurba_marseille","lat":43.29267,"lon":5.38451,"is_reserved":false,"is_disabled":false,"rental_uris":{"android":"levelo://app?vid=469f1566-ba28-4d97-a048-35bc56e7cc9e","ios":"levelo://app?vid=469f1566-ba28-4d97-a048-35bc56e7cc9e"},"vehicle_type_id":"4","last_reported":1728234466,"current_range_meters":9200,"station_id":"ce4bh692rcd13ifvqea0","pricing_plan_id":"cebpf4jnsgd1na2vs0mg"},{"bike_id":"956959ef-6e85-422e-883f-c949cd7efe62","system_id":"levelo_inurba_marseille","lat":43.30186,"lon":5.36638,"is_reserved":false,"is_disabled":false,"rental_uris":{"android":"levelo://app?vid=956959ef-6e85-422e-883f-c949cd7efe62","ios":"levelo://app?vid=956959ef-6e85-422e-883f-c949cd7efe62"},"vehicle_type_id":"4","last_reported":1728234466,"current_range_meters":22000,"station_id":"ce4bgrh2rcd13ifvqc8g","pricing_plan_id":"cebpf4jnsgd1na2vs0mg"},{"bike_id":"b35e80e5-085c-4f46-a52a-11692416c1a9","system_id":"levelo_inurba_marseille","lat":43.29305,"lon":5.37196,"is_reserved":false,"is_disabled":false,"rental_uris":{"android":"levelo://app?vid=b35e80e5-085c-4f46-a52a-11692416c1a9","ios":"levelo://app?vid=b35e80e5-085c-4f46-a52a-11692416c1a9"},"vehicle_type_id":"4","last_reported":1728234466,"current_range_meters":24400,"station_id":"ce4bgh92rcd13ifvqb40","pricing_plan_id":"cebpf4jnsgd1na2vs0mg"},{"bike_id":"e08f001d-cdd4-406b-abcb-d86ce2c0ccb0","system_id":"levelo_inurba_marseille","lat":43.29898,"lon":5.3652,"is_reserved":false,"is_disabled":false,"rental_uris":{"android":"levelo://app?vid=e08f001d-cdd4-406b-abcb-d86ce2c0ccb0","ios":"levelo://app?vid=e08f001d-cdd4-406b-abcb-d86ce2c0ccb0"},"vehicle_type_id":"4","last_reported":1728234466,"current_range_meters":34000,"station_id":"ce4bgm92rcd13ifvqbr0","pricing_plan_id":"cebpf4jnsgd1na2vs0mg"},{"bike_id":"ceee3bb7-34d3-4bf1-9319-7a32edd0cb28","system_id":"levelo_inurba_marseille","lat":43.29262,"lon":5.3843,"is_reserved":false,"is_disabled":false,"rental_uris":{"android":"levelo://app?vid=ceee3bb7-34d3-4bf1-9319-7a32edd0cb28","ios":"levelo://app?vid=ceee3bb7-34d3-4bf1-9319-7a32edd0cb28"},"vehicle_type_id":"4","last_reported":1728234466,"current_range_meters":9200,"station_id":"ce4bh692rcd13ifvqea0","pricing_plan_id":"cebpf4jnsgd1na2vs0mg"},{"bike_id":"3edbc444-be55-4f06-b001-2e99882f8c0b","system_id":"levelo_inurba_marseille","lat":43.32647,"lon":5.41003,"is_reserved":false,"is_disabled":false,"rental_uris":{"android":"levelo://app?vid=3edbc444-be55-4f06-b001-2e99882f8c0b","ios":"levelo://app?vid=3edbc444-be55-4f06-b001-2e99882f8c0b"},"vehicle_type_id":"4","last_reported":1728234466,"current_range_meters":2800,"station_id":"ce4bhpp2rcd13ifvqhgg","pricing_plan_id":"cebpf4jnsgd1na2vs0mg"},{"bike_id":"85081b74-3c48-4b75-b6b6-b181683e784a","system_id":"levelo_inurba_marseille","lat":43.25727,"lon":5.41117,"is_reserved":false,"is_disabled":false,"rental_uris":{"android":"levelo://app?vid=85081b74-3c48-4b75-b6b6-b181683e784a","ios":"levelo://app?vid=85081b74-3c48-4b75-b6b6-b181683e784a"},"vehicle_type_id":"4","last_reported":1728234466,"current_range_meters":38000,"station_id":"ce4bhkp2rcd13ifvqgd0","pricing_plan_id":"cebpf4jnsgd1na2vs0mg"},{"bike_id":"d5bd4fc9-b596-4a66-8faa-61c6a5dce860","system_id":"levelo_inurba_marseille","lat":43.29897,"lon":5.43669,"is_reserved":false,"is_disabled":false,"rental_uris":{"android":"levelo://app?vid=d5bd4fc9-b596-4a66-8faa-61c6a5dce860","ios":"levelo://app?vid=d5bd4fc9-b596-4a66-8faa-61c6a5dce860"},"vehicle_type_id":"4","last_reported":1728234466,"current_range_meters":39200,"station_id":"ce4bhpp2rcd13ifvqhfg","pricing_plan_id":"cebpf4jnsgd1na2vs0mg"},{"bike_id":"90c18386-1c93-49d3-87ec-ba6764e3833a","system_id":"levelo_inurba_marseille","lat":43.30905,"lon":5.37191,"is_reserved":false,"is_disabled":false,"rental_uris":{"android":"levelo://app?vid=90c18386-1c93-49d3-87ec-ba6764e3833a","ios":"levelo://app?vid=90c18386-1c93-49d3-87ec-ba6764e3833a"},"vehicle_type_id":"4","last_reported":1728234466,"current_range_meters":26000,"station_id":"ce4bguh2rcd13ifvqckg","pricing_plan_id":"cebpf4jnsgd1na2vs0mg"},{"bike_id":"88bc79bc-000a-4a43-8d3b-868b14963c8c","system_id":"levelo_inurba_marseille","lat":43.27817,"lon":5.40715,"is_reserved":false,"is_disabled":false,"rental_uris":{"android":"levelo://app?vid=88bc79bc-000a-4a43-8d3b-868b14963c8c","ios":"levelo://app?vid=88bc79bc-000a-4a43-8d3b-868b14963c8c"},"vehicle_type_id":"4","last_reported":1728234466,"current_range_meters":35600,"station_id":"ce4bhnh2rcd13ifvqgtg","pricing_plan_id":"cebpf4jnsgd1na2vs0mg"},{"bike_id":"ff665421-3995-4aa5-a22c-06ed7d7e3ed1","system_id":"levelo_inurba_marseille","lat":43.30148,"lon":5.38783,"is_reserved":false,"is_disabled":false,"rental_uris":{"android":"levelo://app?vid=ff665421-3995-4aa5-a22c-06ed7d7e3ed1","ios":"levelo://app?vid=ff665421-3995-4aa5-a22c-06ed7d7e3ed1"},"vehicle_type_id":"4","last_reported":1728234466,"current_range_meters":32400,"station_id":"ce4bghh2rcd13ifvqb60","pricing_plan_id":"cebpf4jnsgd1na2vs0mg"},{"bike_id":"7cba0374-be77-4d49-8476-e0da3cccc891","system_id":"levelo_inurba_marseille","lat":43.21347,"lon":5.34938,"is_reserved":false,"is_disabled":false,"rental_uris":{"android":"levelo://app?vid=7cba0374-be77-4d49-8476-e0da3cccc891","ios":"levelo://app?vid=7cba0374-be77-4d49-8476-e0da3cccc891"},"vehicle_type_id":"4","last_reported":1728234466,"current_range_meters":31200,"station_id":"crv51consjfaj9uu89c0","pricing_plan_id":"cebpf4jnsgd1na2vs0mg"},{"bike_id":"de7b61ce-9a77-48b8-b281-c8a3b04be6be","system_id":"levelo_inurba_marseille","lat":43.30643,"lon":5.36599,"is_reserved":false,"is_disabled":false,"rental_uris":{"android":"levelo://app?vid=de7b61ce-9a77-48b8-b281-c8a3b04be6be","ios":"levelo://app?vid=de7b61ce-9a77-48b8-b281-c8a3b04be6be"},"vehicle_type_id":"4","last_reported":1728234466,"current_range_meters":28000,"station_id":"","pricing_plan_id":"cebpf4jnsgd1na2vs0mg"},{"bike_id":"66d66e81-1e5c-4ea7-8790-bf6742d9726e","system_id":"levelo_inurba_marseille","lat":43.2731,"lon":5.39086,"is_reserved":false,"is_disabled":false,"rental_uris":{"android":"levelo://app?vid=66d66e81-1e5c-4ea7-8790-bf6742d9726e","ios":"levelo://app?vid=66d66e81-1e5c-4ea7-8790-bf6742d9726e"},"vehicle_type_id":"4","last_reported":1728234466,"current_range_meters":36800,"station_id":"ce4bhgp2rcd13ifvqfe0","pricing_plan_id":"cebpf4jnsgd1na2vs0mg"},{"bike_id":"24741916-9a19-4c9f-b82f-689e154008bc","system_id":"levelo_inurba_marseille","lat":43.2135,"lon":5.34926,"is_reserved":false,"is_disabled":false,"rental_uris":{"android":"levelo://app?vid=24741916-9a19-4c9f-b82f-689e154008bc","ios":"levelo://app?vid=24741916-9a19-4c9f-b82f-689e154008bc"},"vehicle_type_id":"4","last_reported":1728234466,"current_range_meters":2800,"station_id":"crv51consjfaj9uu89c0","pricing_plan_id":"cebpf4jnsgd1na2vs0mg"},{"bike_id":"8e94c158-3450-4d74-9a10-086db250f48e","system_id":"levelo_inurba_marseille","lat":43.27156,"lon":5.39038,"is_reserved":false,"is_disabled":false,"rental_uris":{"android":"levelo://app?vid=8e94c158-3450-4d74-9a10-086db250f48e","ios":"levelo://app?vid=8e94c158-3450-4d74-9a10-086db250f48e"},"vehicle_type_id":"4","last_reported":1728234466,"current_range_meters":31200,"station_id":"","pricing_plan_id":"cebpf4jnsgd1na2vs0mg"},{"bike_id":"52040213-e2a0-4c29-ad5c-23f287c96e58","system_id":"levelo_inurba_marseille","lat":43.25722,"lon":5.41108,"is_reserved":false,"is_disabled":false,"rental_uris":{"android":"levelo://app?vid=52040213-e2a0-4c29-ad5c-23f287c96e58","ios":"levelo://app?vid=52040213-e2a0-4c29-ad5c-23f287c96e58"},"vehicle_type_id":"4","last_reported":1728234466,"current_range_meters":38400,"station_id":"ce4bhkp2rcd13ifvqgd0","pricing_plan_id":"cebpf4jnsgd1na2vs0mg"},{"bike_id":"09fb0b57-2324-4bd9-a741-e90822f89c25","system_id":"levelo_inurba_marseille","lat":43.240724,"lon":5.377622,"is_reserved":false,"is_disabled":false,"rental_uris":{"android":"levelo://app?vid=09fb0b57-2324-4bd9-a741-e90822f89c25","ios":"levelo://app?vid=09fb0b57-2324-4bd9-a741-e90822f89c25"},"vehicle_type_id":"4","last_reported":1728234466,"current_range_meters":8000,"station_id":"ce4bhnp2rcd13ifvqgvg","pricing_plan_id":"cebpf4jnsgd1na2vs0mg"},{"bike_id":"12a59b59-46cb-4240-ace1-dcafdb4e5591","system_id":"levelo_inurba_marseille","lat":43.2927,"lon":5.38449,"is_reserved":false,"is_disabled":false,"rental_uris":{"android":"levelo://app?vid=12a59b59-46cb-4240-ace1-dcafdb4e5591","ios":"levelo://app?vid=12a59b59-46cb-4240-ace1-dcafdb4e5591"},"vehicle_type_id":"4","last_reported":1728234466,"current_range_meters":22000,"station_id":"ce4bh692rcd13ifvqea0","pricing_plan_id":"cebpf4jnsgd1na2vs0mg"},{"bike_id":"3755603a-a684-40a4-ad9a-5b10befda173","system_id":"levelo_inurba_marseille","lat":43.33738,"lon":5.37463,"is_reserved":false,"is_disabled":false,"rental_uris":{"android":"levelo://app?vid=3755603a-a684-40a4-ad9a-5b10befda173","ios":"levelo://app?vid=3755603a-a684-40a4-ad9a-5b10befda173"},"vehicle_type_id":"4","last_reported":1728234466,"current_range_meters":39200,"station_id":"ce4bha92rcd13ifvqeg0","pricing_plan_id":"cebpf4jnsgd1na2vs0mg"},{"bike_id":"4aabbfdf-97b3-41ee-8231-392497f205be","system_id":"levelo_inurba_marseille","lat":43.29273,"lon":5.40122,"is_reserved":false,"is_disabled":false,"rental_uris":{"android":"levelo://app?vid=4aabbfdf-97b3-41ee-8231-392497f205be","ios":"levelo://app?vid=4aabbfdf-97b3-41ee-8231-392497f205be"},"vehicle_type_id":"4","last_reported":1728234466,"current_range_meters":7200,"station_id":"ce4bh312rcd13ifvqdk0","pricing_plan_id":"cebpf4jnsgd1na2vs0mg"},{"bike_id":"7a348d21-f2e8-43e7-9c15-c14bb9bb72a2","system_id":"levelo_inurba_marseille","lat":43.29956,"lon":5.41324,"is_reserved":false,"is_disabled":false,"rental_uris":{"android":"levelo://app?vid=7a348d21-f2e8-43e7-9c15-c14bb9bb72a2","ios":"levelo://app?vid=7a348d21-f2e8-43e7-9c15-c14bb9bb72a2"},"vehicle_type_id":"4","last_reported":1728234466,"current_range_meters":23200,"station_id":"ce4bhp12rcd13ifvqh9g","pricing_plan_id":"cebpf4jnsgd1na2vs0mg"},{"bike_id":"c6d60b46-0a25-47a9-9142-a7e326409e02","system_id":"levelo_inurba_marseille","lat":43.26232,"lon":5.3752,"is_reserved":false,"is_disabled":false,"rental_uris":{"android":"levelo://app?vid=c6d60b46-0a25-47a9-9142-a7e326409e02","ios":"levelo://app?vid=c6d60b46-0a25-47a9-9142-a7e326409e02"},"vehicle_type_id":"4","last_reported":1728234466,"current_range_meters":38800,"station_id":"","pricing_plan_id":"cebpf4jnsgd1na2vs0mg"},{"bike_id":"6b85f1aa-8089-48ad-94d4-250fceea6bae","system_id":"levelo_inurba_marseille","lat":43.28034,"lon":5.36944,"is_reserved":false,"is_disabled":false,"rental_uris":{"android":"levelo://app?vid=6b85f1aa-8089-48ad-94d4-250fceea6bae","ios":"levelo://app?vid=6b85f1aa-8089-48ad-94d4-250fceea6bae"},"vehicle_type_id":"4","last_reported":1728234466,"current_range_meters":24400,"station_id":"ce4bha12rcd13ifvqef0","pricing_plan_id":"cebpf4jnsgd1na2vs0mg"},{"bike_id":"8bd16631-5fed-4070-bcdf-51a0bee6bb63","system_id":"levelo_inurba_marseille","lat":43.27942,"lon":5.41045,"is_reserved":false,"is_disabled":false,"rental_uris":{"android":"levelo://app?vid=8bd16631-5fed-4070-bcdf-51a0bee6bb63","ios":"levelo://app?vid=8bd16631-5fed-4070-bcdf-51a0bee6bb63"},"vehicle_type_id":"4","last_reported":1728234466,"current_range_meters":26000,"station_id":"ce4bhnp2rcd13ifvqh0g","pricing_plan_id":"cebpf4jnsgd1na2vs0mg"},{"bike_id":"66a81085-1a96-4f65-934a-3195a2059afa","system_id":"levelo_inurba_marseille","lat":43.24644,"lon":5.38901,"is_reserved":false,"is_disabled":false,"rental_uris":{"android":"levelo://app?vid=66a81085-1a96-4f65-934a-3195a2059afa","ios":"levelo://app?vid=66a81085-1a96-4f65-934a-3195a2059afa"},"vehicle_type_id":"4","last_reported":1728234466,"current_range_meters":23200,"station_id":"ce4bhg12rcd13ifvqf60","pricing_plan_id":"cebpf4jnsgd1na2vs0mg"},{"bike_id":"de418b94-658a-4cf4-80c0-81d87cf7e675","system_id":"levelo_inurba_marseille","lat":43.29259,"lon":5.4092,"is_reserved":false,"is_disabled":false,"rental_uris":{"android":"levelo://app?vid=de418b94-658a-4cf4-80c0-81d87cf7e675","ios":"levelo://app?vid=de418b94-658a-4cf4-80c0-81d87cf7e675"},"vehicle_type_id":"4","last_reported":1728234466,"current_range_meters":10000,"station_id":"ce4bh192rcd13ifvqdc0","pricing_plan_id":"cebpf4jnsgd1na2vs0mg"},{"bike_id":"5571bd61-ca5c-4808-babd-52978e40b3b7","system_id":"levelo_inurba_marseille","lat":43.24997,"lon":5.38937,"is_reserved":false,"is_disabled":false,"rental_uris":{"android":"levelo://app?vid=5571bd61-ca5c-4808-babd-52978e40b3b7","ios":"levelo://app?vid=5571bd61-ca5c-4808-babd-52978e40b3b7"},"vehicle_type_id":"4","last_reported":1728234466,"current_range_meters":19200,"station_id":"ce4bhgp2rcd13ifvqfd0","pricing_plan_id":"cebpf4jnsgd1na2vs0mg"},{"bike_id":"2bea7207-ca58-43c7-a5dc-8427afd5fc98","system_id":"levelo_inurba_marseille","lat":43.25502,"lon":5.41222,"is_reserved":false,"is_disabled":false,"rental_uris":{"android":"levelo://app?vid=2bea7207-ca58-43c7-a5dc-8427afd5fc98","ios":"levelo://app?vid=2bea7207-ca58-43c7-a5dc-8427afd5fc98"},"vehicle_type_id":"4","last_reported":1728234466,"current_range_meters":2800,"station_id":"","pricing_plan_id":"cebpf4jnsgd1na2vs0mg"},{"bike_id":"f86e86e2-e4ea-408f-920a-e343256c8f5e","system_id":"levelo_inurba_marseille","lat":43.24389,"lon":5.37063,"is_reserved":false,"is_disabled":false,"rental_uris":{"android":"levelo://app?vid=f86e86e2-e4ea-408f-920a-e343256c8f5e","ios":"levelo://app?vid=f86e86e2-e4ea-408f-920a-e343256c8f5e"},"vehicle_type_id":"4","last_reported":1728234466,"current_range_meters":38000,"station_id":"ce4bhhh2rcd13ifvqfk0","pricing_plan_id":"cebpf4jnsgd1na2vs0mg"},{"bike_id":"925e9768-42a2-488d-a2ee-9d599fc84f3e","system_id":"levelo_inurba_marseille","lat":43.30547,"lon":5.36707,"is_reserved":false,"is_disabled":false,"rental_uris":{"android":"levelo://app?vid=925e9768-42a2-488d-a2ee-9d599fc84f3e","ios":"levelo://app?vid=925e9768-42a2-488d-a2ee-9d599fc84f3e"},"vehicle_type_id":"4","last_reported":1728234466,"current_range_meters":8800,"station_id":"ce4bgrp2rcd13ifvqc9g","pricing_plan_id":"cebpf4jnsgd1na2vs0mg"},{"bike_id":"b15507aa-9663-460a-acd3-1d919ec55220","system_id":"levelo_inurba_marseille","lat":43.23189,"lon":5.39988,"is_reserved":false,"is_disabled":false,"rental_uris":{"android":"levelo://app?vid=b15507aa-9663-460a-acd3-1d919ec55220","ios":"levelo://app?vid=b15507aa-9663-460a-acd3-1d919ec55220"},"vehicle_type_id":"4","last_reported":1728234466,"current_range_meters":28800,"station_id":"ce4bhn12rcd13ifvqgqg","pricing_plan_id":"cebpf4jnsgd1na2vs0mg"},{"bike_id":"1c6ced08-6c65-4e22-a8e3-0734c3156234","system_id":"levelo_inurba_marseille","lat":43.25723,"lon":5.41114,"is_reserved":false,"is_disabled":false,"rental_uris":{"android":"levelo://app?vid=1c6ced08-6c65-4e22-a8e3-0734c3156234","ios":"levelo://app?vid=1c6ced08-6c65-4e22-a8e3-0734c3156234"},"vehicle_type_id":"4","last_reported":1728234466,"current_range_meters":38400,"station_id":"ce4bhkp2rcd13ifvqgd0","pricing_plan_id":"cebpf4jnsgd1na2vs0mg"},{"bike_id":"5453c3eb-58f6-45a5-837a-d940c87acc48","system_id":"levelo_inurba_marseille","lat":43.29269,"lon":5.38442,"is_reserved":false,"is_disabled":false,"rental_uris":{"android":"levelo://app?vid=5453c3eb-58f6-45a5-837a-d940c87acc48","ios":"levelo://app?vid=5453c3eb-58f6-45a5-837a-d940c87acc48"},"vehicle_type_id":"4","last_reported":1728234466,"current_range_meters":16000,"station_id":"ce4bh692rcd13ifvqea0","pricing_plan_id":"cebpf4jnsgd1na2vs0mg"},{"bike_id":"d25136ca-02c6-4d13-b13f-a65cee488177","system_id":"levelo_inurba_marseille","lat":43.26683,"lon":5.38274,"is_reserved":false,"is_disabled":false,"rental_uris":{"android":"levelo://app?vid=d25136ca-02c6-4d13-b13f-a65cee488177","ios":"levelo://app?vid=d25136ca-02c6-4d13-b13f-a65cee488177"},"vehicle_type_id":"4","last_reported":1728234466,"current_range_meters":8000,"station_id":"ce4bhg92rcd13ifvqf90","pricing_plan_id":"cebpf4jnsgd1na2vs0mg"},{"bike_id":"68b77a88-2067-422a-ab7b-e29094a40dcc","system_id":"levelo_inurba_marseille","lat":43.25121,"lon":5.40325,"is_reserved":false,"is_disabled":false,"rental_uris":{"android":"levelo://app?vid=68b77a88-2067-422a-ab7b-e29094a40dcc","ios":"levelo://app?vid=68b77a88-2067-422a-ab7b-e29094a40dcc"},"vehicle_type_id":"4","last_reported":1728234466,"current_range_meters":39200,"station_id":"ce4bhlh2rcd13ifvqgig","pricing_plan_id":"cebpf4jnsgd1na2vs0mg"},{"bike_id":"efc29468-01ba-4adc-952b-32fa40b2164b","system_id":"levelo_inurba_marseille","lat":43.29529,"lon":5.39021,"is_reserved":false,"is_disabled":false,"rental_uris":{"android":"levelo://app?vid=efc29468-01ba-4adc-952b-32fa40b2164b","ios":"levelo://app?vid=efc29468-01ba-4adc-952b-32fa40b2164b"},"vehicle_type_id":"4","last_reported":1728234466,"current_range_meters":10800,"station_id":"ce4bh3p2rcd13ifvqdp0","pricing_plan_id":"cebpf4jnsgd1na2vs0mg"},{"bike_id":"f2a778d5-dffe-4d21-bf33-4699d4a1b6ca","system_id":"levelo_inurba_marseille","lat":43.29534,"lon":5.38548,"is_reserved":false,"is_disabled":false,"rental_uris":{"android":"levelo://app?vid=f2a778d5-dffe-4d21-bf33-4699d4a1b6ca","ios":"levelo://app?vid=f2a778d5-dffe-4d21-bf33-4699d4a1b6ca"},"vehicle_type_id":"4","last_reported":1728234466,"current_range_meters":17600,"station_id":"ce4bgih2rcd13ifvqba0","pricing_plan_id":"cebpf4jnsgd1na2vs0mg"},{"bike_id":"d0e81cdf-b5a0-44e2-a36b-805202ade773","system_id":"levelo_inurba_marseille","lat":43.24384,"lon":5.3706,"is_reserved":false,"is_disabled":false,"rental_uris":{"android":"levelo://app?vid=d0e81cdf-b5a0-44e2-a36b-805202ade773","ios":"levelo://app?vid=d0e81cdf-b5a0-44e2-a36b-805202ade773"},"vehicle_type_id":"4","last_reported":1728234466,"current_range_meters":39200,"station_id":"ce4bhhh2rcd13ifvqfk0","pricing_plan_id":"cebpf4jnsgd1na2vs0mg"},{"bike_id":"6ff1b8be-da92-4b51-9a8c-7119957eaf3b","system_id":"levelo_inurba_marseille","lat":43.295685,"lon":5.375629,"is_reserved":false,"is_disabled":false,"rental_uris":{"android":"levelo://app?vid=6ff1b8be-da92-4b51-9a8c-7119957eaf3b","ios":"levelo://app?vid=6ff1b8be-da92-4b51-9a8c-7119957eaf3b"},"vehicle_type_id":"4","last_reported":1728234466,"current_range_meters":16800,"station_id":"ce4bgi92rcd13ifvqb90","pricing_plan_id":"cebpf4jnsgd1na2vs0mg"},{"bike_id":"d9760e00-5ec9-4bc2-be9c-2a7c3aeff37c","system_id":"levelo_inurba_marseille","lat":43.29534,"lon":5.38541,"is_reserved":false,"is_disabled":false,"rental_uris":{"android":"levelo://app?vid=d9760e00-5ec9-4bc2-be9c-2a7c3aeff37c","ios":"levelo://app?vid=d9760e00-5ec9-4bc2-be9c-2a7c3aeff37c"},"vehicle_type_id":"4","last_reported":1728234466,"current_range_meters":0,"station_id":"ce4bgih2rcd13ifvqba0","pricing_plan_id":"cebpf4jnsgd1na2vs0mg"},{"bike_id":"5473152c-1cad-4bbd-a2df-31eee3c011f3","system_id":"levelo_inurba_marseille","lat":43.30303,"lon":5.39231,"is_reserved":false,"is_disabled":false,"rental_uris":{"android":"levelo://app?vid=5473152c-1cad-4bbd-a2df-31eee3c011f3","ios":"levelo://app?vid=5473152c-1cad-4bbd-a2df-31eee3c011f3"},"vehicle_type_id":"4","last_reported":1728234466,"current_range_meters":10000,"station_id":"ce4bgkh2rcd13ifvqbk0","pricing_plan_id":"cebpf4jnsgd1na2vs0mg"},{"bike_id":"0ad57600-b3de-4dcf-b432-0543365d6853","system_id":"levelo_inurba_marseille","lat":43.29559,"lon":5.42284,"is_reserved":false,"is_disabled":false,"rental_uris":{"android":"levelo://app?vid=0ad57600-b3de-4dcf-b432-0543365d6853","ios":"levelo://app?vid=0ad57600-b3de-4dcf-b432-0543365d6853"},"vehicle_type_id":"4","last_reported":1728234466,"current_range_meters":39200,"station_id":"ce4bhph2rcd13ifvqhdg","pricing_plan_id":"cebpf4jnsgd1na2vs0mg"},{"bike_id":"2b462da5-4edc-4e23-b3cb-66cb85c8cd88","system_id":"levelo_inurba_marseille","lat":43.3019,"lon":5.36631,"is_reserved":false,"is_disabled":false,"rental_uris":{"android":"levelo://app?vid=2b462da5-4edc-4e23-b3cb-66cb85c8cd88","ios":"levelo://app?vid=2b462da5-4edc-4e23-b3cb-66cb85c8cd88"},"vehicle_type_id":"4","last_reported":1728234466,"current_range_meters":29600,"station_id":"ce4bgrh2rcd13ifvqc8g","pricing_plan_id":"cebpf4jnsgd1na2vs0mg"},{"bike_id":"7d80c5b2-4fbe-4114-8e34-04bfcdf61999","system_id":"levelo_inurba_marseille","lat":43.3015,"lon":5.38102,"is_reserved":false,"is_disabled":false,"rental_uris":{"android":"levelo://app?vid=7d80c5b2-4fbe-4114-8e34-04bfcdf61999","ios":"levelo://app?vid=7d80c5b2-4fbe-4114-8e34-04bfcdf61999"},"vehicle_type_id":"4","last_reported":1728234466,"current_range_meters":30400,"station_id":"ce4bgjp2rcd13ifvqbh0","pricing_plan_id":"cebpf4jnsgd1na2vs0mg"},{"bike_id":"dca7b2a5-ca81-4ed0-a1af-ad57792fb7d4","system_id":"levelo_inurba_marseille","lat":43.29421,"lon":5.38633,"is_reserved":false,"is_disabled":false,"rental_uris":{"android":"levelo://app?vid=dca7b2a5-ca81-4ed0-a1af-ad57792fb7d4","ios":"levelo://app?vid=dca7b2a5-ca81-4ed0-a1af-ad57792fb7d4"},"vehicle_type_id":"4","last_reported":1728234466,"current_range_meters":6400,"station_id":"ce4bh2h2rcd13ifvqdh0","pricing_plan_id":"cebpf4jnsgd1na2vs0mg"},{"bike_id":"27c5f2a9-8158-45c6-b742-4db159c5f60d","system_id":"levelo_inurba_marseille","lat":43.31328,"lon":5.397,"is_reserved":false,"is_disabled":false,"rental_uris":{"android":"levelo://app?vid=27c5f2a9-8158-45c6-b742-4db159c5f60d","ios":"levelo://app?vid=27c5f2a9-8158-45c6-b742-4db159c5f60d"},"vehicle_type_id":"4","last_reported":1728234466,"current_range_meters":30400,"station_id":"ce4bgvp2rcd13ifvqcu0","pricing_plan_id":"cebpf4jnsgd1na2vs0mg"},{"bike_id":"7b370d99-5247-45ef-a303-548109cf04e4","system_id":"levelo_inurba_marseille","lat":43.25723,"lon":5.41106,"is_reserved":false,"is_disabled":false,"rental_uris":{"android":"levelo://app?vid=7b370d99-5247-45ef-a303-548109cf04e4","ios":"levelo://app?vid=7b370d99-5247-45ef-a303-548109cf04e4"},"vehicle_type_id":"4","last_reported":1728234466,"current_range_meters":7200,"station_id":"ce4bhkp2rcd13ifvqgd0","pricing_plan_id":"cebpf4jnsgd1na2vs0mg"},{"bike_id":"1d0e3faa-ee78-4da5-a96f-abfd136c29bb","system_id":"levelo_inurba_marseille","lat":43.32491,"lon":5.36591,"is_reserved":false,"is_disabled":false,"rental_uris":{"android":"levelo://app?vid=1d0e3faa-ee78-4da5-a96f-abfd136c29bb","ios":"levelo://app?vid=1d0e3faa-ee78-4da5-a96f-abfd136c29bb"},"vehicle_type_id":"4","last_reported":1728234466,"current_range_meters":24000,"station_id":"ce4bhs12rcd13ifvqhvg","pricing_plan_id":"cebpf4jnsgd1na2vs0mg"},{"bike_id":"caa6b17d-03ee-4308-b02c-5c4fbe184c13","system_id":"levelo_inurba_marseille","lat":43.250971,"lon":5.403466,"is_reserved":false,"is_disabled":false,"rental_uris":{"android":"levelo://app?vid=caa6b17d-03ee-4308-b02c-5c4fbe184c13","ios":"levelo://app?vid=caa6b17d-03ee-4308-b02c-5c4fbe184c13"},"vehicle_type_id":"4","last_reported":1728234466,"current_range_meters":4800,"station_id":"ce4bhlh2rcd13ifvqgig","pricing_plan_id":"cebpf4jnsgd1na2vs0mg"},{"bike_id":"3af48eb3-1d1f-4a32-a948-7cc05add2405","system_id":"levelo_inurba_marseille","lat":43.21346,"lon":5.34936,"is_reserved":false,"is_disabled":false,"rental_uris":{"android":"levelo://app?vid=3af48eb3-1d1f-4a32-a948-7cc05add2405","ios":"levelo://app?vid=3af48eb3-1d1f-4a32-a948-7cc05add2405"},"vehicle_type_id":"4","last_reported":1728234466,"current_range_meters":30400,"station_id":"crv51consjfaj9uu89c0","pricing_plan_id":"cebpf4jnsgd1na2vs0mg"},{"bike_id":"77e44f96-8992-4ec5-ba2c-5e51b9e5b288","system_id":"levelo_inurba_marseille","lat":43.27055,"lon":5.38799,"is_reserved":false,"is_disabled":false,"rental_uris":{"android":"levelo://app?vid=77e44f96-8992-4ec5-ba2c-5e51b9e5b288","ios":"levelo://app?vid=77e44f96-8992-4ec5-ba2c-5e51b9e5b288"},"vehicle_type_id":"4","last_reported":1728234466,"current_range_meters":36000,"station_id":"","pricing_plan_id":"cebpf4jnsgd1na2vs0mg"},{"bike_id":"b51ee6d2-4574-4587-a7f0-3852397ae634","system_id":"levelo_inurba_marseille","lat":43.22931,"lon":5.3538,"is_reserved":false,"is_disabled":false,"rental_uris":{"android":"levelo://app?vid=b51ee6d2-4574-4587-a7f0-3852397ae634","ios":"levelo://app?vid=b51ee6d2-4574-4587-a7f0-3852397ae634"},"vehicle_type_id":"4","last_reported":1728234466,"current_range_meters":36000,"station_id":"cpo3532slgdg3j2ikp40","pricing_plan_id":"cebpf4jnsgd1na2vs0mg"},{"bike_id":"4f5038fe-9ccd-4d04-a6cd-afe04d9be89f","system_id":"levelo_inurba_marseille","lat":43.27385,"lon":5.36268,"is_reserved":false,"is_disabled":false,"rental_uris":{"android":"levelo://app?vid=4f5038fe-9ccd-4d04-a6cd-afe04d9be89f","ios":"levelo://app?vid=4f5038fe-9ccd-4d04-a6cd-afe04d9be89f"},"vehicle_type_id":"4","last_reported":1728234466,"current_range_meters":31200,"station_id":"ce4bhbh2rcd13ifvqeo0","pricing_plan_id":"cebpf4jnsgd1na2vs0mg"},{"bike_id":"966f9339-5cab-4108-8908-c746e8acccec","system_id":"levelo_inurba_marseille","lat":43.31168,"lon":5.38718,"is_reserved":false,"is_disabled":false,"rental_uris":{"android":"levelo://app?vid=966f9339-5cab-4108-8908-c746e8acccec","ios":"levelo://app?vid=966f9339-5cab-4108-8908-c746e8acccec"},"vehicle_type_id":"4","last_reported":1728234466,"current_range_meters":8400,"station_id":"ce4bgv12rcd13ifvqcp0","pricing_plan_id":"cebpf4jnsgd1na2vs0mg"},{"bike_id":"4e0c83a2-b0c3-4894-8559-e509681998d3","system_id":"levelo_inurba_marseille","lat":43.31121,"lon":5.38338,"is_reserved":false,"is_disabled":false,"rental_uris":{"android":"levelo://app?vid=4e0c83a2-b0c3-4894-8559-e509681998d3","ios":"levelo://app?vid=4e0c83a2-b0c3-4894-8559-e509681998d3"},"vehicle_type_id":"4","last_reported":1728234466,"current_range_meters":8400,"station_id":"ce4bgv92rcd13ifvqcr0","pricing_plan_id":"cebpf4jnsgd1na2vs0mg"},{"bike_id":"a76ee3fd-363a-4d57-9618-b37ded534ce5","system_id":"levelo_inurba_marseille","lat":43.24392,"lon":5.37068,"is_reserved":false,"is_disabled":false,"rental_uris":{"android":"levelo://app?vid=a76ee3fd-363a-4d57-9618-b37ded534ce5","ios":"levelo://app?vid=a76ee3fd-363a-4d57-9618-b37ded534ce5"},"vehicle_type_id":"4","last_reported":1728234466,"current_range_meters":38400,"station_id":"ce4bhhh2rcd13ifvqfk0","pricing_plan_id":"cebpf4jnsgd1na2vs0mg"},{"bike_id":"ae53a9d1-01ac-447b-a4c7-269e1c5ac403","system_id":"levelo_inurba_marseille","lat":43.31822,"lon":5.40632,"is_reserved":false,"is_disabled":false,"rental_uris":{"android":"levelo://app?vid=ae53a9d1-01ac-447b-a4c7-269e1c5ac403","ios":"levelo://app?vid=ae53a9d1-01ac-447b-a4c7-269e1c5ac403"},"vehicle_type_id":"4","last_reported":1728234466,"current_range_meters":11200,"station_id":"","pricing_plan_id":"cebpf4jnsgd1na2vs0mg"},{"bike_id":"583707f1-0e79-4991-97d9-91493229adea","system_id":"levelo_inurba_marseille","lat":43.32658,"lon":5.40995,"is_reserved":false,"is_disabled":false,"rental_uris":{"android":"levelo://app?vid=583707f1-0e79-4991-97d9-91493229adea","ios":"levelo://app?vid=583707f1-0e79-4991-97d9-91493229adea"},"vehicle_type_id":"4","last_reported":1728234466,"current_range_meters":39200,"station_id":"ce4bhpp2rcd13ifvqhgg","pricing_plan_id":"cebpf4jnsgd1na2vs0mg"},{"bike_id":"390dd419-2e89-45bd-8ed8-65d6f006436c","system_id":"levelo_inurba_marseille","lat":43.29398,"lon":5.37377,"is_reserved":false,"is_disabled":false,"rental_uris":{"android":"levelo://app?vid=390dd419-2e89-45bd-8ed8-65d6f006436c","ios":"levelo://app?vid=390dd419-2e89-45bd-8ed8-65d6f006436c"},"vehicle_type_id":"4","last_reported":1728234466,"current_range_meters":8400,"station_id":"ce4bh292rcd13ifvqdf0","pricing_plan_id":"cebpf4jnsgd1na2vs0mg"},{"bike_id":"54c2d462-ec38-4c17-b091-faf7944c0003","system_id":"levelo_inurba_marseille","lat":43.25,"lon":5.38926,"is_reserved":false,"is_disabled":false,"rental_uris":{"android":"levelo://app?vid=54c2d462-ec38-4c17-b091-faf7944c0003","ios":"levelo://app?vid=54c2d462-ec38-4c17-b091-faf7944c0003"},"vehicle_type_id":"4","last_reported":1728234466,"current_range_meters":17200,"station_id":"ce4bhgp2rcd13ifvqfd0","pricing_plan_id":"cebpf4jnsgd1na2vs0mg"},{"bike_id":"64c26914-071a-4261-9eeb-2c2f07d30894","system_id":"levelo_inurba_marseille","lat":43.3025,"lon":5.40072,"is_reserved":false,"is_disabled":false,"rental_uris":{"android":"levelo://app?vid=64c26914-071a-4261-9eeb-2c2f07d30894","ios":"levelo://app?vid=64c26914-071a-4261-9eeb-2c2f07d30894"},"vehicle_type_id":"4","last_reported":1728234466,"current_range_meters":20400,"station_id":"ce4bgvh2rcd13ifvqcs0","pricing_plan_id":"cebpf4jnsgd1na2vs0mg"},{"bike_id":"8dea3b3f-b6ec-4739-9037-42b898bbb532","system_id":"levelo_inurba_marseille","lat":43.31324,"lon":5.39705,"is_reserved":false,"is_disabled":false,"rental_uris":{"android":"levelo://app?vid=8dea3b3f-b6ec-4739-9037-42b898bbb532","ios":"levelo://app?vid=8dea3b3f-b6ec-4739-9037-42b898bbb532"},"vehicle_type_id":"4","last_reported":1728234466,"current_range_meters":21600,"station_id":"ce4bgvp2rcd13ifvqcu0","pricing_plan_id":"cebpf4jnsgd1na2vs0mg"},{"bike_id":"c50e441c-d247-4c47-85e3-c59071bb20fa","system_id":"levelo_inurba_marseille","lat":43.21344,"lon":5.34938,"is_reserved":false,"is_disabled":false,"rental_uris":{"android":"levelo://app?vid=c50e441c-d247-4c47-85e3-c59071bb20fa","ios":"levelo://app?vid=c50e441c-d247-4c47-85e3-c59071bb20fa"},"vehicle_type_id":"4","last_reported":1728234466,"current_range_meters":28800,"station_id":"crv51consjfaj9uu89c0","pricing_plan_id":"cebpf4jnsgd1na2vs0mg"},{"bike_id":"f0afaf24-e490-408d-85db-7d30cfa319c7","system_id":"levelo_inurba_marseille","lat":43.27207,"lon":5.39184,"is_reserved":false,"is_disabled":false,"rental_uris":{"android":"levelo://app?vid=f0afaf24-e490-408d-85db-7d30cfa319c7","ios":"levelo://app?vid=f0afaf24-e490-408d-85db-7d30cfa319c7"},"vehicle_type_id":"4","last_reported":1728234466,"current_range_meters":37600,"station_id":"ce4bhhp2rcd13ifvqfm0","pricing_plan_id":"cebpf4jnsgd1na2vs0mg"},{"bike_id":"7dca6bb9-7475-4775-9ecf-9b01830d477d","system_id":"levelo_inurba_marseille","lat":43.2792,"lon":5.39586,"is_reserved":false,"is_disabled":false,"rental_uris":{"android":"levelo://app?vid=7dca6bb9-7475-4775-9ecf-9b01830d477d","ios":"levelo://app?vid=7dca6bb9-7475-4775-9ecf-9b01830d477d"},"vehicle_type_id":"4","last_reported":1728234466,"current_range_meters":12800,"station_id":"ce4bhf92rcd13ifvqf40","pricing_plan_id":"cebpf4jnsgd1na2vs0mg"},{"bike_id":"8e0a6c85-b468-449e-89b8-e58c7803aebc","system_id":"levelo_inurba_marseille","lat":43.3013,"lon":5.38783,"is_reserved":false,"is_disabled":false,"rental_uris":{"android":"levelo://app?vid=8e0a6c85-b468-449e-89b8-e58c7803aebc","ios":"levelo://app?vid=8e0a6c85-b468-449e-89b8-e58c7803aebc"},"vehicle_type_id":"4","last_reported":1728234466,"current_range_meters":38800,"station_id":"ce4bghh2rcd13ifvqb60","pricing_plan_id":"cebpf4jnsgd1na2vs0mg"},{"bike_id":"42a9f056-878e-492f-a577-468b98074c99","system_id":"levelo_inurba_marseille","lat":43.2512,"lon":5.40323,"is_reserved":false,"is_disabled":false,"rental_uris":{"android":"levelo://app?vid=42a9f056-878e-492f-a577-468b98074c99","ios":"levelo://app?vid=42a9f056-878e-492f-a577-468b98074c99"},"vehicle_type_id":"4","last_reported":1728234466,"current_range_meters":38800,"station_id":"ce4bhlh2rcd13ifvqgig","pricing_plan_id":"cebpf4jnsgd1na2vs0mg"},{"bike_id":"13ddd84a-c17d-4ff4-97c0-d9330910ac53","system_id":"levelo_inurba_marseille","lat":43.26803,"lon":5.40273,"is_reserved":false,"is_disabled":false,"rental_uris":{"android":"levelo://app?vid=13ddd84a-c17d-4ff4-97c0-d9330910ac53","ios":"levelo://app?vid=13ddd84a-c17d-4ff4-97c0-d9330910ac53"},"vehicle_type_id":"4","last_reported":1728234466,"current_range_meters":3600,"station_id":"ce501612rcd8frsf0b60","pricing_plan_id":"cebpf4jnsgd1na2vs0mg"},{"bike_id":"08862731-200d-4c9b-8034-14d29982bac3","system_id":"levelo_inurba_marseille","lat":43.289508,"lon":5.366434,"is_reserved":false,"is_disabled":false,"rental_uris":{"android":"levelo://app?vid=08862731-200d-4c9b-8034-14d29982bac3","ios":"levelo://app?vid=08862731-200d-4c9b-8034-14d29982bac3"},"vehicle_type_id":"4","last_reported":1728234466,"current_range_meters":11600,"station_id":"ce4bhap2rcd13ifvqek0","pricing_plan_id":"cebpf4jnsgd1na2vs0mg"},{"bike_id":"91605665-f5dd-4531-b9fd-1413326ef0f9","system_id":"levelo_inurba_marseille","lat":43.24169,"lon":5.36402,"is_reserved":false,"is_disabled":false,"rental_uris":{"android":"levelo://app?vid=91605665-f5dd-4531-b9fd-1413326ef0f9","ios":"levelo://app?vid=91605665-f5dd-4531-b9fd-1413326ef0f9"},"vehicle_type_id":"4","last_reported":1728234466,"current_range_meters":9200,"station_id":"cpo36qri1sfpv3e86is0","pricing_plan_id":"cebpf4jnsgd1na2vs0mg"},{"bike_id":"e09c7649-a186-4125-bd89-dcd82da21518","system_id":"levelo_inurba_marseille","lat":43.2894,"lon":5.36645,"is_reserved":false,"is_disabled":false,"rental_uris":{"android":"levelo://app?vid=e09c7649-a186-4125-bd89-dcd82da21518","ios":"levelo://app?vid=e09c7649-a186-4125-bd89-dcd82da21518"},"vehicle_type_id":"4","last_reported":1728234466,"current_range_meters":27600,"station_id":"ce4bhap2rcd13ifvqek0","pricing_plan_id":"cebpf4jnsgd1na2vs0mg"},{"bike_id":"bdefae95-7cc5-4880-bfcb-b1af39586be0","system_id":"levelo_inurba_marseille","lat":43.32654,"lon":5.4099,"is_reserved":false,"is_disabled":false,"rental_uris":{"android":"levelo://app?vid=bdefae95-7cc5-4880-bfcb-b1af39586be0","ios":"levelo://app?vid=bdefae95-7cc5-4880-bfcb-b1af39586be0"},"vehicle_type_id":"4","last_reported":1728234466,"current_range_meters":36400,"station_id":"ce4bhpp2rcd13ifvqhgg","pricing_plan_id":"cebpf4jnsgd1na2vs0mg"},{"bike_id":"7f2584c3-186b-4ca9-b416-bee639b50e12","system_id":"levelo_inurba_marseille","lat":43.22935,"lon":5.35379,"is_reserved":false,"is_disabled":false,"rental_uris":{"android":"levelo://app?vid=7f2584c3-186b-4ca9-b416-bee639b50e12","ios":"levelo://app?vid=7f2584c3-186b-4ca9-b416-bee639b50e12"},"vehicle_type_id":"4","last_reported":1728234466,"current_range_meters":28400,"station_id":"cpo3532slgdg3j2ikp40","pricing_plan_id":"cebpf4jnsgd1na2vs0mg"},{"bike_id":"a310179a-7c7d-46be-be5f-c608e7e3b580","system_id":"levelo_inurba_marseille","lat":43.3031,"lon":5.36919,"is_reserved":false,"is_disabled":false,"rental_uris":{"android":"levelo://app?vid=a310179a-7c7d-46be-be5f-c608e7e3b580","ios":"levelo://app?vid=a310179a-7c7d-46be-be5f-c608e7e3b580"},"vehicle_type_id":"4","last_reported":1728234466,"current_range_meters":38800,"station_id":"ce4bgqh2rcd13ifvqc5g","pricing_plan_id":"cebpf4jnsgd1na2vs0mg"},{"bike_id":"1d152269-c2fa-4900-bfa9-f20a095e29df","system_id":"levelo_inurba_marseille","lat":43.25729,"lon":5.41112,"is_reserved":false,"is_disabled":false,"rental_uris":{"android":"levelo://app?vid=1d152269-c2fa-4900-bfa9-f20a095e29df","ios":"levelo://app?vid=1d152269-c2fa-4900-bfa9-f20a095e29df"},"vehicle_type_id":"4","last_reported":1728234466,"current_range_meters":38800,"station_id":"ce4bhkp2rcd13ifvqgd0","pricing_plan_id":"cebpf4jnsgd1na2vs0mg"},{"bike_id":"a1659ee6-4606-43f6-b47f-383fb3b1fe6d","system_id":"levelo_inurba_marseille","lat":43.33018,"lon":5.39052,"is_reserved":false,"is_disabled":false,"rental_uris":{"android":"levelo://app?vid=a1659ee6-4606-43f6-b47f-383fb3b1fe6d","ios":"levelo://app?vid=a1659ee6-4606-43f6-b47f-383fb3b1fe6d"},"vehicle_type_id":"4","last_reported":1728234466,"current_range_meters":39200,"station_id":"ce4bhr92rcd13ifvqhrg","pricing_plan_id":"cebpf4jnsgd1na2vs0mg"},{"bike_id":"5182113f-8908-4825-903e-5a46e19bca5b","system_id":"levelo_inurba_marseille","lat":43.3247,"lon":5.36577,"is_reserved":false,"is_disabled":false,"rental_uris":{"android":"levelo://app?vid=5182113f-8908-4825-903e-5a46e19bca5b","ios":"levelo://app?vid=5182113f-8908-4825-903e-5a46e19bca5b"},"vehicle_type_id":"4","last_reported":1728234466,"current_range_meters":5600,"station_id":"ce4bhs12rcd13ifvqhvg","pricing_plan_id":"cebpf4jnsgd1na2vs0mg"},{"bike_id":"e03c9d0c-17ae-4003-b903-fd8aa9951041","system_id":"levelo_inurba_marseille","lat":43.33746,"lon":5.37457,"is_reserved":false,"is_disabled":false,"rental_uris":{"android":"levelo://app?vid=e03c9d0c-17ae-4003-b903-fd8aa9951041","ios":"levelo://app?vid=e03c9d0c-17ae-4003-b903-fd8aa9951041"},"vehicle_type_id":"4","last_reported":1728234466,"current_range_meters":32800,"station_id":"","pricing_plan_id":"cebpf4jnsgd1na2vs0mg"},{"bike_id":"16f7b0a2-c76f-453f-bfe7-dd1774993830","system_id":"levelo_inurba_marseille","lat":43.28422,"lon":5.34971,"is_reserved":false,"is_disabled":false,"rental_uris":{"android":"levelo://app?vid=16f7b0a2-c76f-453f-bfe7-dd1774993830","ios":"levelo://app?vid=16f7b0a2-c76f-453f-bfe7-dd1774993830"},"vehicle_type_id":"4","last_reported":1728234466,"current_range_meters":38800,"station_id":"ce4bhbh2rcd13ifvqepg","pricing_plan_id":"cebpf4jnsgd1na2vs0mg"},{"bike_id":"4db12d0b-c535-4181-b562-455a7fd577b1","system_id":"levelo_inurba_marseille","lat":43.25868,"lon":5.39913,"is_reserved":false,"is_disabled":false,"rental_uris":{"android":"levelo://app?vid=4db12d0b-c535-4181-b562-455a7fd577b1","ios":"levelo://app?vid=4db12d0b-c535-4181-b562-455a7fd577b1"},"vehicle_type_id":"4","last_reported":1728234466,"current_range_meters":39200,"station_id":"ce4bhl92rcd13ifvqghg","pricing_plan_id":"cebpf4jnsgd1na2vs0mg"},{"bike_id":"fadcf6aa-e1cf-44d1-88d8-678c1291d969","system_id":"levelo_inurba_marseille","lat":43.32346,"lon":5.40636,"is_reserved":false,"is_disabled":false,"rental_uris":{"android":"levelo://app?vid=fadcf6aa-e1cf-44d1-88d8-678c1291d969","ios":"levelo://app?vid=fadcf6aa-e1cf-44d1-88d8-678c1291d969"},"vehicle_type_id":"4","last_reported":1728234466,"current_range_meters":36800,"station_id":"ce4bhq92rcd13ifvqhjg","pricing_plan_id":"cebpf4jnsgd1na2vs0mg"},{"bike_id":"0724c769-091d-40dc-aa7c-29582c28e7e8","system_id":"levelo_inurba_marseille","lat":43.28459,"lon":5.35891,"is_reserved":false,"is_disabled":false,"rental_uris":{"android":"levelo://app?vid=0724c769-091d-40dc-aa7c-29582c28e7e8","ios":"levelo://app?vid=0724c769-091d-40dc-aa7c-29582c28e7e8"},"vehicle_type_id":"4","last_reported":1728234466,"current_range_meters":10800,"station_id":"ce4bhah2rcd13ifvqei0","pricing_plan_id":"cebpf4jnsgd1na2vs0mg"},{"bike_id":"a485b0d4-2721-435c-b41c-eed272d33850","system_id":"levelo_inurba_marseille","lat":43.25937,"lon":5.40909,"is_reserved":false,"is_disabled":false,"rental_uris":{"android":"levelo://app?vid=a485b0d4-2721-435c-b41c-eed272d33850","ios":"levelo://app?vid=a485b0d4-2721-435c-b41c-eed272d33850"},"vehicle_type_id":"4","last_reported":1728234466,"current_range_meters":26000,"station_id":"ce4bhm92rcd13ifvqglg","pricing_plan_id":"cebpf4jnsgd1na2vs0mg"},{"bike_id":"079eb474-69a3-42bd-beba-7da3ff874627","system_id":"levelo_inurba_marseille","lat":43.26576,"lon":5.39046,"is_reserved":false,"is_disabled":false,"rental_uris":{"android":"levelo://app?vid=079eb474-69a3-42bd-beba-7da3ff874627","ios":"levelo://app?vid=079eb474-69a3-42bd-beba-7da3ff874627"},"vehicle_type_id":"4","last_reported":1728234466,"current_range_meters":20400,"station_id":"ce4bhe12rcd13ifvqf30","pricing_plan_id":"cebpf4jnsgd1na2vs0mg"},{"bike_id":"fbec104b-cb10-4ee6-8280-b085019e42b0","system_id":"levelo_inurba_marseille","lat":43.22934,"lon":5.35381,"is_reserved":false,"is_disabled":false,"rental_uris":{"android":"levelo://app?vid=fbec104b-cb10-4ee6-8280-b085019e42b0","ios":"levelo://app?vid=fbec104b-cb10-4ee6-8280-b085019e42b0"},"vehicle_type_id":"4","last_reported":1728234466,"current_range_meters":31200,"station_id":"cpo3532slgdg3j2ikp40","pricing_plan_id":"cebpf4jnsgd1na2vs0mg"},{"bike_id":"baa35b79-a826-48f6-bd2d-664ca5bdf582","system_id":"levelo_inurba_marseille","lat":43.29152,"lon":5.3714,"is_reserved":false,"is_disabled":false,"rental_uris":{"android":"levelo://app?vid=baa35b79-a826-48f6-bd2d-664ca5bdf582","ios":"levelo://app?vid=baa35b79-a826-48f6-bd2d-664ca5bdf582"},"vehicle_type_id":"4","last_reported":1728234466,"current_range_meters":36800,"station_id":"ce4bha92rcd13ifvqeh0","pricing_plan_id":"cebpf4jnsgd1na2vs0mg"},{"bike_id":"5df559c2-f9b9-4626-9259-e01f749abd7b","system_id":"levelo_inurba_marseille","lat":43.29622,"lon":5.37713,"is_reserved":false,"is_disabled":false,"rental_uris":{"android":"levelo://app?vid=5df559c2-f9b9-4626-9259-e01f749abd7b","ios":"levelo://app?vid=5df559c2-f9b9-4626-9259-e01f749abd7b"},"vehicle_type_id":"4","last_reported":1728234466,"current_range_meters":12000,"station_id":"ce4bgi92rcd13ifvqb90","pricing_plan_id":"cebpf4jnsgd1na2vs0mg"},{"bike_id":"64c731ad-06f6-4889-bb9d-eea47e699175","system_id":"levelo_inurba_marseille","lat":43.28156,"lon":5.42648,"is_reserved":false,"is_disabled":false,"rental_uris":{"android":"levelo://app?vid=64c731ad-06f6-4889-bb9d-eea47e699175","ios":"levelo://app?vid=64c731ad-06f6-4889-bb9d-eea47e699175"},"vehicle_type_id":"4","last_reported":1728234466,"current_range_meters":2800,"station_id":"ce4bhnh2rcd13ifvqgug","pricing_plan_id":"cebpf4jnsgd1na2vs0mg"},{"bike_id":"24963a71-29fc-4b78-bc58-245c9bead978","system_id":"levelo_inurba_marseille","lat":43.33027,"lon":5.39037,"is_reserved":false,"is_disabled":false,"rental_uris":{"android":"levelo://app?vid=24963a71-29fc-4b78-bc58-245c9bead978","ios":"levelo://app?vid=24963a71-29fc-4b78-bc58-245c9bead978"},"vehicle_type_id":"4","last_reported":1728234466,"current_range_meters":39200,"station_id":"ce4bhr92rcd13ifvqhrg","pricing_plan_id":"cebpf4jnsgd1na2vs0mg"},{"bike_id":"8ff857df-4306-41f2-a6ae-10f473bbf32a","system_id":"levelo_inurba_marseille","lat":43.29421,"lon":5.3862,"is_reserved":false,"is_disabled":false,"rental_uris":{"android":"levelo://app?vid=8ff857df-4306-41f2-a6ae-10f473bbf32a","ios":"levelo://app?vid=8ff857df-4306-41f2-a6ae-10f473bbf32a"},"vehicle_type_id":"4","last_reported":1728234466,"current_range_meters":3600,"station_id":"ce4bh2h2rcd13ifvqdh0","pricing_plan_id":"cebpf4jnsgd1na2vs0mg"},{"bike_id":"0e19ddb6-6b85-4f53-a309-557f590b598b","system_id":"levelo_inurba_marseille","lat":43.23197,"lon":5.35552,"is_reserved":false,"is_disabled":false,"rental_uris":{"android":"levelo://app?vid=0e19ddb6-6b85-4f53-a309-557f590b598b","ios":"levelo://app?vid=0e19ddb6-6b85-4f53-a309-557f590b598b"},"vehicle_type_id":"4","last_reported":1728234466,"current_range_meters":30800,"station_id":"ce4bhu92rcd13ifvqi70","pricing_plan_id":"cebpf4jnsgd1na2vs0mg"},{"bike_id":"aa991db0-653b-45a7-91dc-1f2a40bcc682","system_id":"levelo_inurba_marseille","lat":43.29039,"lon":5.39968,"is_reserved":false,"is_disabled":false,"rental_uris":{"android":"levelo://app?vid=aa991db0-653b-45a7-91dc-1f2a40bcc682","ios":"levelo://app?vid=aa991db0-653b-45a7-91dc-1f2a40bcc682"},"vehicle_type_id":"4","last_reported":1728234466,"current_range_meters":7200,"station_id":"ce4bh392rcd13ifvqdm0","pricing_plan_id":"cebpf4jnsgd1na2vs0mg"},{"bike_id":"7060af44-386c-4c2f-938c-52584e6dd539","system_id":"levelo_inurba_marseille","lat":43.28613,"lon":5.35106,"is_reserved":false,"is_disabled":false,"rental_uris":{"android":"levelo://app?vid=7060af44-386c-4c2f-938c-52584e6dd539","ios":"levelo://app?vid=7060af44-386c-4c2f-938c-52584e6dd539"},"vehicle_type_id":"4","last_reported":1728234466,"current_range_meters":16400,"station_id":"ce4bhch2rcd13ifvqeug","pricing_plan_id":"cebpf4jnsgd1na2vs0mg"},{"bike_id":"a2bb49c8-e0ef-4f78-893c-78aecd23ea02","system_id":"levelo_inurba_marseille","lat":43.30131,"lon":5.398522,"is_reserved":false,"is_disabled":false,"rental_uris":{"android":"levelo://app?vid=a2bb49c8-e0ef-4f78-893c-78aecd23ea02","ios":"levelo://app?vid=a2bb49c8-e0ef-4f78-893c-78aecd23ea02"},"vehicle_type_id":"4","last_reported":1728234466,"current_range_meters":25200,"station_id":"ce4bh0h2rcd13ifvqd40","pricing_plan_id":"cebpf4jnsgd1na2vs0mg"},{"bike_id":"527e8605-3787-47a6-8e52-eb9f0d9693ad","system_id":"levelo_inurba_marseille","lat":43.31706,"lon":5.37731,"is_reserved":false,"is_disabled":false,"rental_uris":{"android":"levelo://app?vid=527e8605-3787-47a6-8e52-eb9f0d9693ad","ios":"levelo://app?vid=527e8605-3787-47a6-8e52-eb9f0d9693ad"},"vehicle_type_id":"4","last_reported":1728234466,"current_range_meters":14400,"station_id":"ce4bgth2rcd13ifvqch0","pricing_plan_id":"cebpf4jnsgd1na2vs0mg"},{"bike_id":"a082d3a0-9904-4546-94f0-6d2e2b4823db","system_id":"levelo_inurba_marseille","lat":43.29033,"lon":5.3757,"is_reserved":false,"is_disabled":false,"rental_uris":{"android":"levelo://app?vid=a082d3a0-9904-4546-94f0-6d2e2b4823db","ios":"levelo://app?vid=a082d3a0-9904-4546-94f0-6d2e2b4823db"},"vehicle_type_id":"4","last_reported":1728234466,"current_range_meters":3600,"station_id":"ce4bh692rcd13ifvqe90","pricing_plan_id":"cebpf4jnsgd1na2vs0mg"},{"bike_id":"6856d22e-440d-40d9-809f-3167dacdbdc3","system_id":"levelo_inurba_marseille","lat":43.337444,"lon":5.374475,"is_reserved":false,"is_disabled":false,"rental_uris":{"android":"levelo://app?vid=6856d22e-440d-40d9-809f-3167dacdbdc3","ios":"levelo://app?vid=6856d22e-440d-40d9-809f-3167dacdbdc3"},"vehicle_type_id":"4","last_reported":1728234466,"current_range_meters":14000,"station_id":"","pricing_plan_id":"cebpf4jnsgd1na2vs0mg"},{"bike_id":"423ff085-2925-4053-bf85-613169d9e437","system_id":"levelo_inurba_marseille","lat":43.28254,"lon":5.37289,"is_reserved":false,"is_disabled":false,"rental_uris":{"android":"levelo://app?vid=423ff085-2925-4053-bf85-613169d9e437","ios":"levelo://app?vid=423ff085-2925-4053-bf85-613169d9e437"},"vehicle_type_id":"4","last_reported":1728234466,"current_range_meters":34800,"station_id":"","pricing_plan_id":"cebpf4jnsgd1na2vs0mg"},{"bike_id":"f7042de9-a7ce-4a48-bc81-f661f023e824","system_id":"levelo_inurba_marseille","lat":43.28152,"lon":5.42649,"is_reserved":false,"is_disabled":false,"rental_uris":{"android":"levelo://app?vid=f7042de9-a7ce-4a48-bc81-f661f023e824","ios":"levelo://app?vid=f7042de9-a7ce-4a48-bc81-f661f023e824"},"vehicle_type_id":"4","last_reported":1728234466,"current_range_meters":2000,"station_id":"ce4bhnh2rcd13ifvqgug","pricing_plan_id":"cebpf4jnsgd1na2vs0mg"},{"bike_id":"d7ab82b1-1ef1-48ae-8aef-ebae2e9e4421","system_id":"levelo_inurba_marseille","lat":43.29981,"lon":5.3718,"is_reserved":false,"is_disabled":false,"rental_uris":{"android":"levelo://app?vid=d7ab82b1-1ef1-48ae-8aef-ebae2e9e4421","ios":"levelo://app?vid=d7ab82b1-1ef1-48ae-8aef-ebae2e9e4421"},"vehicle_type_id":"4","last_reported":1728234466,"current_range_meters":13600,"station_id":"ce4bgr92rcd13ifvqc7g","pricing_plan_id":"cebpf4jnsgd1na2vs0mg"},{"bike_id":"14768d46-7a56-4333-8474-b9a5d38a16fb","system_id":"levelo_inurba_marseille","lat":43.25079,"lon":5.39517,"is_reserved":false,"is_disabled":false,"rental_uris":{"android":"levelo://app?vid=14768d46-7a56-4333-8474-b9a5d38a16fb","ios":"levelo://app?vid=14768d46-7a56-4333-8474-b9a5d38a16fb"},"vehicle_type_id":"4","last_reported":1728234466,"current_range_meters":19600,"station_id":"ce4bhm12rcd13ifvqgkg","pricing_plan_id":"cebpf4jnsgd1na2vs0mg"},{"bike_id":"79d4ce44-dde0-4856-adfb-9d048612b764","system_id":"levelo_inurba_marseille","lat":43.2134,"lon":5.34942,"is_reserved":false,"is_disabled":false,"rental_uris":{"android":"levelo://app?vid=79d4ce44-dde0-4856-adfb-9d048612b764","ios":"levelo://app?vid=79d4ce44-dde0-4856-adfb-9d048612b764"},"vehicle_type_id":"4","last_reported":1728234466,"current_range_meters":33200,"station_id":"crv51consjfaj9uu89c0","pricing_plan_id":"cebpf4jnsgd1na2vs0mg"},{"bike_id":"2c96292f-c2ad-475a-bad9-5a3eb660d9e1","system_id":"levelo_inurba_marseille","lat":43.311209,"lon":5.367907,"is_reserved":false,"is_disabled":false,"rental_uris":{"android":"levelo://app?vid=2c96292f-c2ad-475a-bad9-5a3eb660d9e1","ios":"levelo://app?vid=2c96292f-c2ad-475a-bad9-5a3eb660d9e1"},"vehicle_type_id":"4","last_reported":1728234466,"current_range_meters":38800,"station_id":"ce4bgl92rcd13ifvqbq0","pricing_plan_id":"cebpf4jnsgd1na2vs0mg"},{"bike_id":"6362dd7e-711b-4b82-af8e-291ea8f6ea1e","system_id":"levelo_inurba_marseille","lat":43.21342,"lon":5.34946,"is_reserved":false,"is_disabled":false,"rental_uris":{"android":"levelo://app?vid=6362dd7e-711b-4b82-af8e-291ea8f6ea1e","ios":"levelo://app?vid=6362dd7e-711b-4b82-af8e-291ea8f6ea1e"},"vehicle_type_id":"4","last_reported":1728234466,"current_range_meters":30400,"station_id":"crv51consjfaj9uu89c0","pricing_plan_id":"cebpf4jnsgd1na2vs0mg"},{"bike_id":"52c6a2db-e90c-4a52-af2c-bd5996bd9ab8","system_id":"levelo_inurba_marseille","lat":43.29778,"lon":5.37105,"is_reserved":false,"is_disabled":false,"rental_uris":{"android":"levelo://app?vid=52c6a2db-e90c-4a52-af2c-bd5996bd9ab8","ios":"levelo://app?vid=52c6a2db-e90c-4a52-af2c-bd5996bd9ab8"},"vehicle_type_id":"4","last_reported":1728234466,"current_range_meters":20000,"station_id":"ce4bgop2rcd13ifvqc1g","pricing_plan_id":"cebpf4jnsgd1na2vs0mg"},{"bike_id":"aecd39b0-25c1-4970-97e1-7c0a07657f51","system_id":"levelo_inurba_marseille","lat":43.32336,"lon":5.40618,"is_reserved":false,"is_disabled":false,"rental_uris":{"android":"levelo://app?vid=aecd39b0-25c1-4970-97e1-7c0a07657f51","ios":"levelo://app?vid=aecd39b0-25c1-4970-97e1-7c0a07657f51"},"vehicle_type_id":"4","last_reported":1728234466,"current_range_meters":19200,"station_id":"ce4bhq92rcd13ifvqhjg","pricing_plan_id":"cebpf4jnsgd1na2vs0mg"},{"bike_id":"892212ed-b005-4612-acaa-0605f4680ec4","system_id":"levelo_inurba_marseille","lat":43.2549,"lon":5.37648,"is_reserved":false,"is_disabled":false,"rental_uris":{"android":"levelo://app?vid=892212ed-b005-4612-acaa-0605f4680ec4","ios":"levelo://app?vid=892212ed-b005-4612-acaa-0605f4680ec4"},"vehicle_type_id":"4","last_reported":1728234466,"current_range_meters":29600,"station_id":"ce4bhh12rcd13ifvqff0","pricing_plan_id":"cebpf4jnsgd1na2vs0mg"},{"bike_id":"975ef276-59c5-4c8f-819a-469b92bd9af8","system_id":"levelo_inurba_marseille","lat":43.31324,"lon":5.39694,"is_reserved":false,"is_disabled":false,"rental_uris":{"android":"levelo://app?vid=975ef276-59c5-4c8f-819a-469b92bd9af8","ios":"levelo://app?vid=975ef276-59c5-4c8f-819a-469b92bd9af8"},"vehicle_type_id":"4","last_reported":1728234466,"current_range_meters":18800,"station_id":"ce4bgvp2rcd13ifvqcu0","pricing_plan_id":"cebpf4jnsgd1na2vs0mg"},{"bike_id":"b2b7bcf4-a9a4-4384-b2c6-3b978727cf23","system_id":"levelo_inurba_marseille","lat":43.2707,"lon":5.42281,"is_reserved":false,"is_disabled":false,"rental_uris":{"android":"levelo://app?vid=b2b7bcf4-a9a4-4384-b2c6-3b978727cf23","ios":"levelo://app?vid=b2b7bcf4-a9a4-4384-b2c6-3b978727cf23"},"vehicle_type_id":"4","last_reported":1728234466,"current_range_meters":20000,"station_id":"ce4bhk92rcd13ifvqgb0","pricing_plan_id":"cebpf4jnsgd1na2vs0mg"},{"bike_id":"6da0a6c8-da55-4985-8e82-9c7a1c233f10","system_id":"levelo_inurba_marseille","lat":43.29528,"lon":5.38544,"is_reserved":false,"is_disabled":false,"rental_uris":{"android":"levelo://app?vid=6da0a6c8-da55-4985-8e82-9c7a1c233f10","ios":"levelo://app?vid=6da0a6c8-da55-4985-8e82-9c7a1c233f10"},"vehicle_type_id":"4","last_reported":1728234466,"current_range_meters":39200,"station_id":"ce4bgih2rcd13ifvqba0","pricing_plan_id":"cebpf4jnsgd1na2vs0mg"},{"bike_id":"580adea3-ab85-47c1-a773-4fed356d0340","system_id":"levelo_inurba_marseille","lat":43.23192,"lon":5.35552,"is_reserved":false,"is_disabled":false,"rental_uris":{"android":"levelo://app?vid=580adea3-ab85-47c1-a773-4fed356d0340","ios":"levelo://app?vid=580adea3-ab85-47c1-a773-4fed356d0340"},"vehicle_type_id":"4","last_reported":1728234466,"current_range_meters":19200,"station_id":"ce4bhu92rcd13ifvqi70","pricing_plan_id":"cebpf4jnsgd1na2vs0mg"},{"bike_id":"81b7e34d-425a-41b5-b968-e1126229e3ea","system_id":"levelo_inurba_marseille","lat":43.25492,"lon":5.37648,"is_reserved":false,"is_disabled":false,"rental_uris":{"android":"levelo://app?vid=81b7e34d-425a-41b5-b968-e1126229e3ea","ios":"levelo://app?vid=81b7e34d-425a-41b5-b968-e1126229e3ea"},"vehicle_type_id":"4","last_reported":1728234466,"current_range_meters":2800,"station_id":"ce4bhh12rcd13ifvqff0","pricing_plan_id":"cebpf4jnsgd1na2vs0mg"},{"bike_id":"efd48c8d-ba1e-499b-bbee-fd73ecb95b9d","system_id":"levelo_inurba_marseille","lat":43.2883,"lon":5.39332,"is_reserved":false,"is_disabled":false,"rental_uris":{"android":"levelo://app?vid=efd48c8d-ba1e-499b-bbee-fd73ecb95b9d","ios":"levelo://app?vid=efd48c8d-ba1e-499b-bbee-fd73ecb95b9d"},"vehicle_type_id":"4","last_reported":1728234466,"current_range_meters":11200,"station_id":"ce4bh2p2rcd13ifvqdi0","pricing_plan_id":"cebpf4jnsgd1na2vs0mg"},{"bike_id":"6a02e94e-4a92-49b3-917b-abba5bb7e0db","system_id":"levelo_inurba_marseille","lat":43.29424,"lon":5.38635,"is_reserved":false,"is_disabled":false,"rental_uris":{"android":"levelo://app?vid=6a02e94e-4a92-49b3-917b-abba5bb7e0db","ios":"levelo://app?vid=6a02e94e-4a92-49b3-917b-abba5bb7e0db"},"vehicle_type_id":"4","last_reported":1728234466,"current_range_meters":24000,"station_id":"ce4bh2h2rcd13ifvqdh0","pricing_plan_id":"cebpf4jnsgd1na2vs0mg"},{"bike_id":"9e30cf11-9dfa-4661-8e13-26167468bf49","system_id":"levelo_inurba_marseille","lat":43.29786,"lon":5.38102,"is_reserved":false,"is_disabled":false,"rental_uris":{"android":"levelo://app?vid=9e30cf11-9dfa-4661-8e13-26167468bf49","ios":"levelo://app?vid=9e30cf11-9dfa-4661-8e13-26167468bf49"},"vehicle_type_id":"4","last_reported":1728234466,"current_range_meters":11200,"station_id":"ce4bgip2rcd13ifvqbb0","pricing_plan_id":"cebpf4jnsgd1na2vs0mg"},{"bike_id":"ebd5f662-4863-49a3-9bf0-626980f4ac6e","system_id":"levelo_inurba_marseille","lat":43.289276,"lon":5.383854,"is_reserved":false,"is_disabled":false,"rental_uris":{"android":"levelo://app?vid=ebd5f662-4863-49a3-9bf0-626980f4ac6e","ios":"levelo://app?vid=ebd5f662-4863-49a3-9bf0-626980f4ac6e"},"vehicle_type_id":"4","last_reported":1728234466,"current_range_meters":39200,"station_id":"ce4bh612rcd13ifvqe6g","pricing_plan_id":"cebpf4jnsgd1na2vs0mg"},{"bike_id":"fbab334e-6568-46ac-88f7-b856d9d2d598","system_id":"levelo_inurba_marseille","lat":43.23195,"lon":5.3556,"is_reserved":false,"is_disabled":false,"rental_uris":{"android":"levelo://app?vid=fbab334e-6568-46ac-88f7-b856d9d2d598","ios":"levelo://app?vid=fbab334e-6568-46ac-88f7-b856d9d2d598"},"vehicle_type_id":"4","last_reported":1728234466,"current_range_meters":32400,"station_id":"ce4bhu92rcd13ifvqi70","pricing_plan_id":"cebpf4jnsgd1na2vs0mg"},{"bike_id":"2e65e941-2e03-4da5-8588-9b4a41cc23af","system_id":"levelo_inurba_marseille","lat":43.27173,"lon":5.40994,"is_reserved":false,"is_disabled":false,"rental_uris":{"android":"levelo://app?vid=2e65e941-2e03-4da5-8588-9b4a41cc23af","ios":"levelo://app?vid=2e65e941-2e03-4da5-8588-9b4a41cc23af"},"vehicle_type_id":"4","last_reported":1728234466,"current_range_meters":35200,"station_id":"ce4bhl12rcd13ifvqgf0","pricing_plan_id":"cebpf4jnsgd1na2vs0mg"},{"bike_id":"9c027386-42ce-43dc-852c-9acee0c937f1","system_id":"levelo_inurba_marseille","lat":43.23196,"lon":5.35555,"is_reserved":false,"is_disabled":false,"rental_uris":{"android":"levelo://app?vid=9c027386-42ce-43dc-852c-9acee0c937f1","ios":"levelo://app?vid=9c027386-42ce-43dc-852c-9acee0c937f1"},"vehicle_type_id":"4","last_reported":1728234466,"current_range_meters":22800,"station_id":"ce4bhu92rcd13ifvqi70","pricing_plan_id":"cebpf4jnsgd1na2vs0mg"},{"bike_id":"07a88015-e1a4-41f8-a52a-89275ac3fd21","system_id":"levelo_inurba_marseille","lat":43.289551,"lon":5.364144,"is_reserved":false,"is_disabled":false,"rental_uris":{"android":"levelo://app?vid=07a88015-e1a4-41f8-a52a-89275ac3fd21","ios":"levelo://app?vid=07a88015-e1a4-41f8-a52a-89275ac3fd21"},"vehicle_type_id":"4","last_reported":1728234466,"current_range_meters":9600,"station_id":"ce4bhc92rcd13ifvqetg","pricing_plan_id":"cebpf4jnsgd1na2vs0mg"},{"bike_id":"8caf0cdd-d9f9-412c-9b33-63f2ab56e7f8","system_id":"levelo_inurba_marseille","lat":43.25117,"lon":5.40324,"is_reserved":false,"is_disabled":false,"rental_uris":{"android":"levelo://app?vid=8caf0cdd-d9f9-412c-9b33-63f2ab56e7f8","ios":"levelo://app?vid=8caf0cdd-d9f9-412c-9b33-63f2ab56e7f8"},"vehicle_type_id":"4","last_reported":1728234466,"current_range_meters":14000,"station_id":"ce4bhlh2rcd13ifvqgig","pricing_plan_id":"cebpf4jnsgd1na2vs0mg"},{"bike_id":"20faca8e-a204-4066-94de-0b8e6f26940f","system_id":"levelo_inurba_marseille","lat":43.31012,"lon":5.40505,"is_reserved":false,"is_disabled":false,"rental_uris":{"android":"levelo://app?vid=20faca8e-a204-4066-94de-0b8e6f26940f","ios":"levelo://app?vid=20faca8e-a204-4066-94de-0b8e6f26940f"},"vehicle_type_id":"4","last_reported":1728234466,"current_range_meters":24400,"station_id":"","pricing_plan_id":"cebpf4jnsgd1na2vs0mg"},