{"last_updated":1756141678,"ttl":60,"version":"2.2","data":{"bikes":[{"bike_id":"3786bc3f-a1ef-4971-82b5-53ee21f255a9","system_id":"levelo_inurba_marseille","lat":43.337444,"lon":5.374475,"is_reserved":false,"is_disabled":true,"rental_uris":{"android":"levelo://app?vid=3786bc3f-a1ef-4971-82b5-53ee21f255a9","ios":"levelo://app?vid=3786bc3f-a1ef-4971-82b5-53ee21f255a9"},"vehicle_type_id":"4","last_reported":1756141679,"current_range_meters":0,"station_id":"","pricing_plan_id":"cebpf4jnsgd1na2vs0mg"},{"bike_id":"eaf33fba-ed97-48de-8903-7533cbd22295","system_id":"levelo_inurba_marseille","lat":43.337444,"lon":5.374475,"is_reserved":false,"is_disabled":true,"rental_uris":{"android":"levelo://app?vid=eaf33fba-ed97-48de-8903-7533cbd22295","ios":"levelo://app?vid=eaf33fba-ed97-48de-8903-7533cbd22295"},"vehicle_type_id":"4","last_reported":1756141679,"current_range_meters":0,"station_id":"","pricing_plan_id":"cebpf4jnsgd1na2vs0mg"},{"bike_id":"d165ff19-8e79-4669-a0ec-2766941625b3","system_id":"levelo_inurba_marseille","lat":43.337444,"lon":5.374475,"is_reserved":false,"is_disabled":true,"rental_uris":{"android":"levelo://app?vid=d165ff19-8e79-4669-a0ec-2766941625b3","ios":"levelo://app?vid=d165ff19-8e79-4669-a0ec-2766941625b3"},"vehicle_type_id":"4","last_reported":1756141679,"current_range_meters":0,"station_id":"","pricing_plan_id":"cebpf4jnsgd1na2vs0mg"},{"bike_id":"fee6e365-1410-47ff-aac6-460fe19870cf","system_id":"levelo_inurba_marseille","lat":43.33771,"lon":5.37424,"is_reserved":false,"is_disabled":true,"rental_uris":{"android":"levelo://app?vid=fee6e365-1410-47ff-aac6-460fe19870cf","ios":"levelo://app?vid=fee6e365-1410-47ff-aac6-460fe19870cf"},"vehicle_type_id":"4","last_reported":1756141679,"current_range_meters":0,"station_id":"","pricing_plan_id":"cebpf4jnsgd1na2vs0mg"},{"bike_id":"e7907bf2-9f85-4fec-b00b-f77b1a4a873c","system_id":"levelo_inurba_marseille","lat":43.33751,"lon":5.37456,"is_reserved":false,"is_disabled":true,"rental_uris":{"android":"levelo://app?vid=e7907bf2-9f85-4fec-b00b-f77b1a4a873c","ios":"levelo://app?vid=e7907bf2-9f85-4fec-b00b-f77b1a4a873c"},"vehicle_type_id":"4","last_reported":1756141679,"current_range_meters":0,"station_id":"","pricing_plan_id":"cebpf4jnsgd1na2vs0mg"},{"bike_id":"c060c1ec-0d33-42db-9a3d-6fb7fae5ea5e","system_id":"levelo_inurba_marseille","lat":43.33747,"lon":5.37463,"is_reserved":false,"is_disabled":true,"rental_uris":{"android":"levelo://app?vid=c060c1ec-0d33-42db-9a3d-6fb7fae5ea5e","ios":"levelo://app?vid=c060c1ec-0d33-42db-9a3d-6fb7fae5ea5e"},"vehicle_type_id":"1","last_reported":1756141679,"current_range_meters":0,"station_id":"","pricing_plan_id":"cebpf4jnsgd1na2vs0mg"},{"bike_id":"e6546109-cd3c-4cd0-ac12-e78c09da4ae6","system_id":"levelo_inurba_marseille","lat":43.33737,"lon":5.37465,"is_reserved":false,"is_disabled":true,"rental_uris":{"android":"levelo://app?vid=e6546109-cd3c-4cd0-ac12-e78c09da4ae6","ios":"levelo://app?vid=e6546109-cd3c-4cd0-ac12-e78c09da4ae6"},"vehicle_type_id":"4","last_reported":1756141679,"current_range_meters":0,"station_id":"","pricing_plan_id":"cebpf4jnsgd1na2vs0mg"},{"bike_id":"8facfda0-e588-46c6-8323-70578ba699b1","system_id":"levelo_inurba_marseille","lat":43.30493,"lon":5.37029,"is_reserved":false,"is_disabled":true,"rental_uris":{"android":"levelo://app?vid=8facfda0-e588-46c6-8323-70578ba699b1","ios":"levelo://app?vid=8facfda0-e588-46c6-8323-70578ba699b1"},"vehicle_type_id":"4","last_reported":1756141679,"current_range_meters":0,"station_id":"","pricing_plan_id":"cebpf4jnsgd1na2vs0mg"},{"bike_id":"b3fa04f4-753f-44ec-9319-e8b6b49d76a7","system_id":"levelo_inurba_marseille","lat":43.28524,"lon":5.385,"is_reserved":false,"is_disabled":true,"rental_uris":{"android":"levelo://app?vid=b3fa04f4-753f-44ec-9319-e8b6b49d76a7","ios":"levelo://app?vid=b3fa04f4-753f-44ec-9319-e8b6b49d76a7"},"vehicle_type_id":"4","last_reported":1756141679,"current_range_meters":0,"station_id":"","pricing_plan_id":"cebpf4jnsgd1na2vs0mg"},{"bike_id":"18364b75-d4e6-4aa4-b892-8c77e682fbe2","system_id":"levelo_inurba_marseille","lat":43.29177,"lon":5.35817,"is_reserved":false,"is_disabled":false,"rental_uris":{"android":"levelo://app?vid=18364b75-d4e6-4aa4-b892-8c77e682fbe2","ios":"levelo://app?vid=18364b75-d4e6-4aa4-b892-8c77e682fbe2"},"vehicle_type_id":"4","last_reported":1756141679,"current_range_meters":19600,"station_id":"","pricing_plan_id":"cebpf4jnsgd1na2vs0mg"},{"bike_id":"0d006835-dfc4-460a-8c56-acc02ce01133","system_id":"levelo_inurba_marseille","lat":43.28103,"lon":5.39826,"is_reserved":false,"is_disabled":true,"rental_uris":{"android":"levelo://app?vid=0d006835-dfc4-460a-8c56-acc02ce01133","ios":"levelo://app?vid=0d006835-dfc4-460a-8c56-acc02ce01133"},"vehicle_type_id":"4","last_reported":1756141679,"current_range_meters":0,"station_id":"","pricing_plan_id":"cebpf4jnsgd1na2vs0mg"},{"bike_id":"2f5601ef-bcb8-40a8-a1be-d9974a0e6480","system_id":"levelo_inurba_marseille","lat":43.33128,"lon":5.38951,"is_reserved":false,"is_disabled":true,"rental_uris":{"android":"levelo://app?vid=2f5601ef-bcb8-40a8-a1be-d9974a0e6480","ios":"levelo://app?vid=2f5601ef-bcb8-40a8-a1be-d9974a0e6480"},"vehicle_type_id":"4","last_reported":1756141679,"current_range_meters":0,"station_id":"","pricing_plan_id":"cebpf4jnsgd1na2vs0mg"},{"bike_id":"5d315e57-bb67-481f-b455-26ecfe9889ad","system_id":"levelo_inurba_marseille","lat":43.28069,"lon":5.34773,"is_reserved":false,"is_disabled":true,"rental_uris":{"android":"levelo://app?vid=5d315e57-bb67-481f-b455-26ecfe9889ad","ios":"levelo://app?vid=5d315e57-bb67-481f-b455-26ecfe9889ad"},"vehicle_type_id":"4","last_reported":1756141679,"current_range_meters":0,"station_id":"","pricing_plan_id":"cebpf4jnsgd1na2vs0mg"},{"bike_id":"c0ac60c5-4ebc-4450-8f1d-0bf5228b3533","system_id":"levelo_inurba_marseille","lat":43.299628,"lon":5.384934,"is_reserved":false,"is_disabled":true,"rental_uris":{"android":"levelo://app?vid=c0ac60c5-4ebc-4450-8f1d-0bf5228b3533","ios":"levelo://app?vid=c0ac60c5-4ebc-4450-8f1d-0bf5228b3533"},"vehicle_type_id":"4","last_reported":1756141679,"current_range_meters":0,"station_id":"","pricing_plan_id":"cebpf4jnsgd1na2vs0mg"},{"bike_id":"38ba3d68-3b96-46a4-b2d0-cdc7f5294c22","system_id":"levelo_inurba_marseille","lat":43.33103,"lon":5.3894,"is_reserved":false,"is_disabled":true,"rental_uris":{"android":"levelo://app?vid=38ba3d68-3b96-46a4-b2d0-cdc7f5294c22","ios":"levelo://app?vid=38ba3d68-3b96-46a4-b2d0-cdc7f5294c22"},"vehicle_type_id":"4","last_reported":1756141679,"current_range_meters":0,"station_id":"","pricing_plan_id":"cebpf4jnsgd1na2vs0mg"},{"bike_id":"14fbad4c-786a-4a4b-8a18-f35c5e17a984","system_id":"levelo_inurba_marseille","lat":43.24493,"lon":5.36901,"is_reserved":false,"is_disabled":true,"rental_uris":{"android":"levelo://app?vid=14fbad4c-786a-4a4b-8a18-f35c5e17a984","ios":"levelo://app?vid=14fbad4c-786a-4a4b-8a18-f35c5e17a984"},"vehicle_type_id":"4","last_reported":1756141679,"current_range_meters":0,"station_id":"","pricing_plan_id":"cebpf4jnsgd1na2vs0mg"},{"bike_id":"8fecfd98-872d-4b0c-86da-8c5bcd09eca9","system_id":"levelo_inurba_marseille","lat":43.24788,"lon":5.41046,"is_reserved":false,"is_disabled":true,"rental_uris":{"android":"levelo://app?vid=8fecfd98-872d-4b0c-86da-8c5bcd09eca9","ios":"levelo://app?vid=8fecfd98-872d-4b0c-86da-8c5bcd09eca9"},"vehicle_type_id":"4","last_reported":1756141679,"current_range_meters":0,"station_id":"","pricing_plan_id":"cebpf4jnsgd1na2vs0mg"},{"bike_id":"1ce2accc-201d-4974-a7f0-b3c0c62b704b","system_id":"levelo_inurba_marseille","lat":43.33345,"lon":5.39856,"is_reserved":false,"is_disabled":true,"rental_uris":{"android":"levelo://app?vid=1ce2accc-201d-4974-a7f0-b3c0c62b704b","ios":"levelo://app?vid=1ce2accc-201d-4974-a7f0-b3c0c62b704b"},"vehicle_type_id":"4","last_reported":1756141679,"current_range_meters":0,"station_id":"","pricing_plan_id":"cebpf4jnsgd1na2vs0mg"},{"bike_id":"838dba12-bcaf-4dfe-bf81-73a584a33eb2","system_id":"levelo_inurba_marseille","lat":43.296007,"lon":5.360427,"is_reserved":false,"is_disabled":true,"rental_uris":{"android":"levelo://app?vid=838dba12-bcaf-4dfe-bf81-73a584a33eb2","ios":"levelo://app?vid=838dba12-bcaf-4dfe-bf81-73a584a33eb2"},"vehicle_type_id":"4","last_reported":1756141679,"current_range_meters":0,"station_id":"","pricing_plan_id":"cebpf4jnsgd1na2vs0mg"},{"bike_id":"4dca8c2f-f9d1-4702-a077-556d00c035ea","system_id":"levelo_inurba_marseille","lat":43.31842,"lon":5.37439,"is_reserved":false,"is_disabled":true,"rental_uris":{"android":"levelo://app?vid=4dca8c2f-f9d1-4702-a077-556d00c035ea","ios":"levelo://app?vid=4dca8c2f-f9d1-4702-a077-556d00c035ea"},"vehicle_type_id":"4","last_reported":1756141679,"current_range_meters":0,"station_id":"","pricing_plan_id":"cebpf4jnsgd1na2vs0mg"},{"bike_id":"eb989387-49be-4b31-b7c7-291733d89084","system_id":"levelo_inurba_marseille","lat":43.29522,"lon":5.38539,"is_reserved":false,"is_disabled":true,"rental_uris":{"android":"levelo://app?vid=eb989387-49be-4b31-b7c7-291733d89084","ios":"levelo://app?vid=eb989387-49be-4b31-b7c7-291733d89084"},"vehicle_type_id":"4","last_reported":1756141679,"current_range_meters":0,"station_id":"ce4bgih2rcd13ifvqba0","pricing_plan_id":"cebpf4jnsgd1na2vs0mg"},{"bike_id":"be2135e8-0260-4e9f-9b2c-fae09bea8dd9","system_id":"levelo_inurba_marseille","lat":43.31016,"lon":5.38315,"is_reserved":false,"is_disabled":true,"rental_uris":{"android":"levelo://app?vid=be2135e8-0260-4e9f-9b2c-fae09bea8dd9","ios":"levelo://app?vid=be2135e8-0260-4e9f-9b2c-fae09bea8dd9"},"vehicle_type_id":"4","last_reported":1756141679,"current_range_meters":0,"station_id":"ce4bgv92rcd13ifvqcr0","pricing_plan_id":"cebpf4jnsgd1na2vs0mg"},{"bike_id":"8169d1c8-ebaa-42ac-8df6-dbf39c65d320","system_id":"levelo_inurba_marseille","lat":43.30245,"lon":5.4007,"is_reserved":false,"is_disabled":true,"rental_uris":{"android":"levelo://app?vid=8169d1c8-ebaa-42ac-8df6-dbf39c65d320","ios":"levelo://app?vid=8169d1c8-ebaa-42ac-8df6-dbf39c65d320"},"vehicle_type_id":"4","last_reported":1756141679,"current_range_meters":0,"station_id":"ce4bgvh2rcd13ifvqcs0","pricing_plan_id":"cebpf4jnsgd1na2vs0mg"},{"bike_id":"840ec469-94f9-40a3-8191-095ec15848ab","system_id":"levelo_inurba_marseille","lat":43.28374,"lon":5.38653,"is_reserved":false,"is_disabled":true,"rental_uris":{"android":"levelo://app?vid=840ec469-94f9-40a3-8191-095ec15848ab","ios":"levelo://app?vid=840ec469-94f9-40a3-8191-095ec15848ab"},"vehicle_type_id":"4","last_reported":1756141679,"current_range_meters":0,"station_id":"ce4bh492rcd13ifvqdvg","pricing_plan_id":"cebpf4jnsgd1na2vs0mg"},{"bike_id":"38cff273-8c66-4209-9637-ad8a504787e0","system_id":"levelo_inurba_marseille","lat":43.28931,"lon":5.38396,"is_reserved":false,"is_disabled":true,"rental_uris":{"android":"levelo://app?vid=38cff273-8c66-4209-9637-ad8a504787e0","ios":"levelo://app?vid=38cff273-8c66-4209-9637-ad8a504787e0"},"vehicle_type_id":"4","last_reported":1756141679,"current_range_meters":0,"station_id":"ce4bh612rcd13ifvqe6g","pricing_plan_id":"cebpf4jnsgd1na2vs0mg"},{"bike_id":"cc5f8587-c864-4dff-942c-a0a81340dbad","system_id":"levelo_inurba_marseille","lat":43.29267,"lon":5.38457,"is_reserved":false,"is_disabled":true,"rental_uris":{"android":"levelo://app?vid=cc5f8587-c864-4dff-942c-a0a81340dbad","ios":"levelo://app?vid=cc5f8587-c864-4dff-942c-a0a81340dbad"},"vehicle_type_id":"4","last_reported":1756141679,"current_range_meters":0,"station_id":"ce4bh692rcd13ifvqea0","pricing_plan_id":"cebpf4jnsgd1na2vs0mg"},{"bike_id":"44302094-c0a7-45d1-9a3f-343fee8a7c48","system_id":"levelo_inurba_marseille","lat":43.28658,"lon":5.36346,"is_reserved":false,"is_disabled":true,"rental_uris":{"android":"levelo://app?vid=44302094-c0a7-45d1-9a3f-343fee8a7c48","ios":"levelo://app?vid=44302094-c0a7-45d1-9a3f-343fee8a7c48"},"vehicle_type_id":"4","last_reported":1756141679,"current_range_meters":0,"station_id":"ce4bhah2rcd13ifvqej0","pricing_plan_id":"cebpf4jnsgd1na2vs0mg"},{"bike_id":"d5517417-64ea-4753-a5d0-20c304e47a69","system_id":"levelo_inurba_marseille","lat":43.25486,"lon":5.37648,"is_reserved":false,"is_disabled":true,"rental_uris":{"android":"levelo://app?vid=d5517417-64ea-4753-a5d0-20c304e47a69","ios":"levelo://app?vid=d5517417-64ea-4753-a5d0-20c304e47a69"},"vehicle_type_id":"4","last_reported":1756141679,"current_range_meters":0,"station_id":"ce4bhh12rcd13ifvqff0","pricing_plan_id":"cebpf4jnsgd1na2vs0mg"},{"bike_id":"829b4afd-7d53-4fe3-bfaa-2b9b6be0e728","system_id":"levelo_inurba_marseille","lat":43.26497,"lon":5.39535,"is_reserved":false,"is_disabled":true,"rental_uris":{"android":"levelo://app?vid=829b4afd-7d53-4fe3-bfaa-2b9b6be0e728","ios":"levelo://app?vid=829b4afd-7d53-4fe3-bfaa-2b9b6be0e728"},"vehicle_type_id":"4","last_reported":1756141679,"current_range_meters":0,"station_id":"ce4bhi12rcd13ifvqfq0","pricing_plan_id":"cebpf4jnsgd1na2vs0mg"},{"bike_id":"13c56885-bd8b-4ca2-a67f-c25fa9cca5c5","system_id":"levelo_inurba_marseille","lat":43.30381,"lon":5.42486,"is_reserved":false,"is_disabled":true,"rental_uris":{"android":"levelo://app?vid=13c56885-bd8b-4ca2-a67f-c25fa9cca5c5","ios":"levelo://app?vid=13c56885-bd8b-4ca2-a67f-c25fa9cca5c5"},"vehicle_type_id":"4","last_reported":1756141679,"current_range_meters":0,"station_id":"ce4bhoh2rcd13ifvqh6g","pricing_plan_id":"cebpf4jnsgd1na2vs0mg"},{"bike_id":"d6c262a8-ac7a-4ad7-a9db-fb9327378431","system_id":"levelo_inurba_marseille","lat":43.32535,"lon":5.41446,"is_reserved":false,"is_disabled":true,"rental_uris":{"android":"levelo://app?vid=d6c262a8-ac7a-4ad7-a9db-fb9327378431","ios":"levelo://app?vid=d6c262a8-ac7a-4ad7-a9db-fb9327378431"},"vehicle_type_id":"4","last_reported":1756141679,"current_range_meters":0,"station_id":"ce4bhq12rcd13ifvqhhg","pricing_plan_id":"cebpf4jnsgd1na2vs0mg"},{"bike_id":"5a4b49a2-b2ab-49d2-a328-1a50ee359d04","system_id":"levelo_inurba_marseille","lat":43.32364,"lon":5.38886,"is_reserved":false,"is_disabled":true,"rental_uris":{"android":"levelo://app?vid=5a4b49a2-b2ab-49d2-a328-1a50ee359d04","ios":"levelo://app?vid=5a4b49a2-b2ab-49d2-a328-1a50ee359d04"},"vehicle_type_id":"4","last_reported":1756141679,"current_range_meters":0,"station_id":"ce4bhqp2rcd13ifvqhog","pricing_plan_id":"cebpf4jnsgd1na2vs0mg"},{"bike_id":"86300d8a-9cc0-47e7-88eb-970dcce93f82","system_id":"levelo_inurba_marseille","lat":43.323718,"lon":5.388233,"is_reserved":false,"is_disabled":true,"rental_uris":{"android":"levelo://app?vid=86300d8a-9cc0-47e7-88eb-970dcce93f82","ios":"levelo://app?vid=86300d8a-9cc0-47e7-88eb-970dcce93f82"},"vehicle_type_id":"4","last_reported":1756141679,"current_range_meters":0,"station_id":"ce4bhqp2rcd13ifvqhog","pricing_plan_id":"cebpf4jnsgd1na2vs0mg"},{"bike_id":"8d417a22-9624-4615-9048-7cc7981cec49","system_id":"levelo_inurba_marseille","lat":43.3227,"lon":5.383,"is_reserved":false,"is_disabled":true,"rental_uris":{"android":"levelo://app?vid=8d417a22-9624-4615-9048-7cc7981cec49","ios":"levelo://app?vid=8d417a22-9624-4615-9048-7cc7981cec49"},"vehicle_type_id":"4","last_reported":1756141679,"current_range_meters":0,"station_id":"ce4bhr12rcd13ifvqhqg","pricing_plan_id":"cebpf4jnsgd1na2vs0mg"},{"bike_id":"90e47907-ac8b-4816-8d0d-6723bcebe903","system_id":"levelo_inurba_marseille","lat":43.32353,"lon":5.36748,"is_reserved":false,"is_disabled":true,"rental_uris":{"android":"levelo://app?vid=90e47907-ac8b-4816-8d0d-6723bcebe903","ios":"levelo://app?vid=90e47907-ac8b-4816-8d0d-6723bcebe903"},"vehicle_type_id":"4","last_reported":1756141679,"current_range_meters":0,"station_id":"ce4bhsh2rcd13ifvqi2g","pricing_plan_id":"cebpf4jnsgd1na2vs0mg"},{"bike_id":"1ba3bdde-aab8-4f07-9fdc-3fb6cd576a01","system_id":"levelo_inurba_marseille","lat":43.217505,"lon":5.346141,"is_reserved":false,"is_disabled":true,"rental_uris":{"android":"levelo://app?vid=1ba3bdde-aab8-4f07-9fdc-3fb6cd576a01","ios":"levelo://app?vid=1ba3bdde-aab8-4f07-9fdc-3fb6cd576a01"},"vehicle_type_id":"4","last_reported":1756141679,"current_range_meters":0,"station_id":"st_cvj6r9ubvosntc0bgbag","pricing_plan_id":"cebpf4jnsgd1na2vs0mg"},{"bike_id":"043a02fa-5492-4bcb-b4f2-739fbbfcc18b","system_id":"levelo_inurba_marseille","lat":43.21186,"lon":5.35071,"is_reserved":false,"is_disabled":true,"rental_uris":{"android":"levelo://app?vid=043a02fa-5492-4bcb-b4f2-739fbbfcc18b","ios":"levelo://app?vid=043a02fa-5492-4bcb-b4f2-739fbbfcc18b"},"vehicle_type_id":"4","last_reported":1756141679,"current_range_meters":0,"station_id":"st_cvj6sg6p6f1abm77japg","pricing_plan_id":"cebpf4jnsgd1na2vs0mg"},{"bike_id":"ba9b61a4-caf5-457d-aec4-4a9e3b81758a","system_id":"levelo_inurba_marseille","lat":43.21179,"lon":5.35074,"is_reserved":false,"is_disabled":true,"rental_uris":{"android":"levelo://app?vid=ba9b61a4-caf5-457d-aec4-4a9e3b81758a","ios":"levelo://app?vid=ba9b61a4-caf5-457d-aec4-4a9e3b81758a"},"vehicle_type_id":"4","last_reported":1756141679,"current_range_meters":0,"station_id":"st_cvj6sg6p6f1abm77japg","pricing_plan_id":"cebpf4jnsgd1na2vs0mg"},{"bike_id":"7ef4d7bd-87e2-4a12-a313-5124f20d9147","system_id":"levelo_inurba_marseille","lat":43.2995,"lon":5.39717,"is_reserved":false,"is_disabled":true,"rental_uris":{"android":"levelo://app?vid=7ef4d7bd-87e2-4a12-a313-5124f20d9147","ios":"levelo://app?vid=7ef4d7bd-87e2-4a12-a313-5124f20d9147"},"vehicle_type_id":"4","last_reported":1756141679,"current_range_meters":400,"station_id":"","pricing_plan_id":"cebpf4jnsgd1na2vs0mg"},{"bike_id":"aa30d837-4bb4-421a-b9d3-5383dc5c9684","system_id":"levelo_inurba_marseille","lat":43.293618,"lon":5.378287,"is_reserved":false,"is_disabled":true,"rental_uris":{"android":"levelo://app?vid=aa30d837-4bb4-421a-b9d3-5383dc5c9684","ios":"levelo://app?vid=aa30d837-4bb4-421a-b9d3-5383dc5c9684"},"vehicle_type_id":"4","last_reported":1756141679,"current_range_meters":400,"station_id":"ce4bgjh2rcd13ifvqbf0","pricing_plan_id":"cebpf4jnsgd1na2vs0mg"},{"bike_id":"a20da54c-8570-4f68-8118-2db0e9543779","system_id":"levelo_inurba_marseille","lat":43.27379,"lon":5.36254,"is_reserved":false,"is_disabled":true,"rental_uris":{"android":"levelo://app?vid=a20da54c-8570-4f68-8118-2db0e9543779","ios":"levelo://app?vid=a20da54c-8570-4f68-8118-2db0e9543779"},"vehicle_type_id":"4","last_reported":1756141679,"current_range_meters":400,"station_id":"ce4bhbh2rcd13ifvqeo0","pricing_plan_id":"cebpf4jnsgd1na2vs0mg"},{"bike_id":"a5ffb7e4-ec79-4a26-8084-b3062f30fd91","system_id":"levelo_inurba_marseille","lat":43.2418,"lon":5.39725,"is_reserved":false,"is_disabled":true,"rental_uris":{"android":"levelo://app?vid=a5ffb7e4-ec79-4a26-8084-b3062f30fd91","ios":"levelo://app?vid=a5ffb7e4-ec79-4a26-8084-b3062f30fd91"},"vehicle_type_id":"4","last_reported":1756141679,"current_range_meters":400,"station_id":"ce4bhn12rcd13ifvqgpg","pricing_plan_id":"cebpf4jnsgd1na2vs0mg"},{"bike_id":"5963acbf-518b-452c-900a-2fce06b73293","system_id":"levelo_inurba_marseille","lat":43.287208,"lon":5.369425,"is_reserved":false,"is_disabled":true,"rental_uris":{"android":"levelo://app?vid=5963acbf-518b-452c-900a-2fce06b73293","ios":"levelo://app?vid=5963acbf-518b-452c-900a-2fce06b73293"},"vehicle_type_id":"4","last_reported":1756141679,"current_range_meters":800,"station_id":"","pricing_plan_id":"cebpf4jnsgd1na2vs0mg"},{"bike_id":"24cc5286-3146-4130-bc4a-5bee8f2f6b44","system_id":"levelo_inurba_marseille","lat":43.3165,"lon":5.39441,"is_reserved":false,"is_disabled":true,"rental_uris":{"android":"levelo://app?vid=24cc5286-3146-4130-bc4a-5bee8f2f6b44","ios":"levelo://app?vid=24cc5286-3146-4130-bc4a-5bee8f2f6b44"},"vehicle_type_id":"4","last_reported":1756141679,"current_range_meters":800,"station_id":"","pricing_plan_id":"cebpf4jnsgd1na2vs0mg"},{"bike_id":"aebdc4b5-5da8-484f-bdb2-641190f4eb86","system_id":"levelo_inurba_marseille","lat":43.295341,"lon":5.393941,"is_reserved":false,"is_disabled":true,"rental_uris":{"android":"levelo://app?vid=aebdc4b5-5da8-484f-bdb2-641190f4eb86","ios":"levelo://app?vid=aebdc4b5-5da8-484f-bdb2-641190f4eb86"},"vehicle_type_id":"4","last_reported":1756141679,"current_range_meters":800,"station_id":"ce4bh292rcd13ifvqdf0","pricing_plan_id":"cebpf4jnsgd1na2vs0mg"},{"bike_id":"c233abaa-422f-4914-8e5b-90c7b0812c4f","system_id":"levelo_inurba_marseille","lat":43.29269,"lon":5.40137,"is_reserved":false,"is_disabled":true,"rental_uris":{"android":"levelo://app?vid=c233abaa-422f-4914-8e5b-90c7b0812c4f","ios":"levelo://app?vid=c233abaa-422f-4914-8e5b-90c7b0812c4f"},"vehicle_type_id":"4","last_reported":1756141679,"current_range_meters":800,"station_id":"ce4bh312rcd13ifvqdk0","pricing_plan_id":"cebpf4jnsgd1na2vs0mg"},{"bike_id":"06b2c411-9eb0-44c6-87cf-08db7bfc5b0f","system_id":"levelo_inurba_marseille","lat":43.29258,"lon":5.38455,"is_reserved":false,"is_disabled":true,"rental_uris":{"android":"levelo://app?vid=06b2c411-9eb0-44c6-87cf-08db7bfc5b0f","ios":"levelo://app?vid=06b2c411-9eb0-44c6-87cf-08db7bfc5b0f"},"vehicle_type_id":"4","last_reported":1756141679,"current_range_meters":800,"station_id":"ce4bh692rcd13ifvqea0","pricing_plan_id":"cebpf4jnsgd1na2vs0mg"},{"bike_id":"e3fd7491-8f0a-46c3-9465-861c2b4b68b2","system_id":"levelo_inurba_marseille","lat":43.284118,"lon":5.34972,"is_reserved":false,"is_disabled":true,"rental_uris":{"android":"levelo://app?vid=e3fd7491-8f0a-46c3-9465-861c2b4b68b2","ios":"levelo://app?vid=e3fd7491-8f0a-46c3-9465-861c2b4b68b2"},"vehicle_type_id":"4","last_reported":1756141679,"current_range_meters":800,"station_id":"ce4bhbh2rcd13ifvqepg","pricing_plan_id":"cebpf4jnsgd1na2vs0mg"},{"bike_id":"d441235f-91d0-449c-9a76-4b272844e8a9","system_id":"levelo_inurba_marseille","lat":43.282684,"lon":5.350675,"is_reserved":false,"is_disabled":true,"rental_uris":{"android":"levelo://app?vid=d441235f-91d0-449c-9a76-4b272844e8a9","ios":"levelo://app?vid=d441235f-91d0-449c-9a76-4b272844e8a9"},"vehicle_type_id":"4","last_reported":1756141679,"current_range_meters":800,"station_id":"ce4bhbp2rcd13ifvqerg","pricing_plan_id":"cebpf4jnsgd1na2vs0mg"},{"bike_id":"3a85563c-5404-4d6f-937d-892f759fa26c","system_id":"levelo_inurba_marseille","lat":43.29306,"lon":5.37174,"is_reserved":false,"is_disabled":true,"rental_uris":{"android":"levelo://app?vid=3a85563c-5404-4d6f-937d-892f759fa26c","ios":"levelo://app?vid=3a85563c-5404-4d6f-937d-892f759fa26c"},"vehicle_type_id":"4","last_reported":1756141679,"current_range_meters":1200,"station_id":"ce4bgh92rcd13ifvqb40","pricing_plan_id":"cebpf4jnsgd1na2vs0mg"},{"bike_id":"19ff25a5-6aca-412e-aab5-01e00debc685","system_id":"levelo_inurba_marseille","lat":43.2958,"lon":5.39969,"is_reserved":false,"is_disabled":true,"rental_uris":{"android":"levelo://app?vid=19ff25a5-6aca-412e-aab5-01e00debc685","ios":"levelo://app?vid=19ff25a5-6aca-412e-aab5-01e00debc685"},"vehicle_type_id":"4","last_reported":1756141679,"current_range_meters":1200,"station_id":"ce4bh312rcd13ifvqdj0","pricing_plan_id":"cebpf4jnsgd1na2vs0mg"},{"bike_id":"61928bf5-935e-4c3a-b381-08b829803d12","system_id":"levelo_inurba_marseille","lat":43.29569,"lon":5.39959,"is_reserved":false,"is_disabled":true,"rental_uris":{"android":"levelo://app?vid=61928bf5-935e-4c3a-b381-08b829803d12","ios":"levelo://app?vid=61928bf5-935e-4c3a-b381-08b829803d12"},"vehicle_type_id":"4","last_reported":1756141679,"current_range_meters":1200,"station_id":"ce4bh312rcd13ifvqdj0","pricing_plan_id":"cebpf4jnsgd1na2vs0mg"},{"bike_id":"db72a3b5-f2db-4be8-b50e-db8e60527ef7","system_id":"levelo_inurba_marseille","lat":43.29033,"lon":5.39964,"is_reserved":false,"is_disabled":true,"rental_uris":{"android":"levelo://app?vid=db72a3b5-f2db-4be8-b50e-db8e60527ef7","ios":"levelo://app?vid=db72a3b5-f2db-4be8-b50e-db8e60527ef7"},"vehicle_type_id":"4","last_reported":1756141679,"current_range_meters":1200,"station_id":"ce4bh392rcd13ifvqdm0","pricing_plan_id":"cebpf4jnsgd1na2vs0mg"},{"bike_id":"e0b18890-31eb-4b02-97d2-3c6f162260d6","system_id":"levelo_inurba_marseille","lat":43.2925,"lon":5.38468,"is_reserved":false,"is_disabled":true,"rental_uris":{"android":"levelo://app?vid=e0b18890-31eb-4b02-97d2-3c6f162260d6","ios":"levelo://app?vid=e0b18890-31eb-4b02-97d2-3c6f162260d6"},"vehicle_type_id":"4","last_reported":1756141679,"current_range_meters":1200,"station_id":"ce4bh692rcd13ifvqea0","pricing_plan_id":"cebpf4jnsgd1na2vs0mg"},{"bike_id":"0c161c17-7075-465f-8c2b-768ac39d7c84","system_id":"levelo_inurba_marseille","lat":43.30659,"lon":5.4007,"is_reserved":false,"is_disabled":true,"rental_uris":{"android":"levelo://app?vid=0c161c17-7075-465f-8c2b-768ac39d7c84","ios":"levelo://app?vid=0c161c17-7075-465f-8c2b-768ac39d7c84"},"vehicle_type_id":"4","last_reported":1756141679,"current_range_meters":1600,"station_id":"ce4bh112rcd13ifvqda0","pricing_plan_id":"cebpf4jnsgd1na2vs0mg"},{"bike_id":"0c6be48b-a46c-442e-8b10-0875a60e64d2","system_id":"levelo_inurba_marseille","lat":43.30455,"lon":5.37635,"is_reserved":false,"is_disabled":true,"rental_uris":{"android":"levelo://app?vid=0c6be48b-a46c-442e-8b10-0875a60e64d2","ios":"levelo://app?vid=0c6be48b-a46c-442e-8b10-0875a60e64d2"},"vehicle_type_id":"4","last_reported":1756141679,"current_range_meters":2000,"station_id":"","pricing_plan_id":"cebpf4jnsgd1na2vs0mg"},{"bike_id":"109c1164-b0e8-479f-bc2c-7b8282d748dc","system_id":"levelo_inurba_marseille","lat":43.29971,"lon":5.38492,"is_reserved":false,"is_disabled":true,"rental_uris":{"android":"levelo://app?vid=109c1164-b0e8-479f-bc2c-7b8282d748dc","ios":"levelo://app?vid=109c1164-b0e8-479f-bc2c-7b8282d748dc"},"vehicle_type_id":"4","last_reported":1756141679,"current_range_meters":2000,"station_id":"ce4bgj92rcd13ifvqbd0","pricing_plan_id":"cebpf4jnsgd1na2vs0mg"},{"bike_id":"d17b4f18-ff0f-4197-aaf5-af2dc6c0cce8","system_id":"levelo_inurba_marseille","lat":43.284714,"lon":5.38418,"is_reserved":false,"is_disabled":true,"rental_uris":{"android":"levelo://app?vid=d17b4f18-ff0f-4197-aaf5-af2dc6c0cce8","ios":"levelo://app?vid=d17b4f18-ff0f-4197-aaf5-af2dc6c0cce8"},"vehicle_type_id":"4","last_reported":1756141679,"current_range_meters":2000,"station_id":"ce4bh512rcd13ifvqe3g","pricing_plan_id":"cebpf4jnsgd1na2vs0mg"},{"bike_id":"f5fe6f8f-dfd7-48c9-b005-531ff56901f9","system_id":"levelo_inurba_marseille","lat":43.29545,"lon":5.42274,"is_reserved":false,"is_disabled":true,"rental_uris":{"android":"levelo://app?vid=f5fe6f8f-dfd7-48c9-b005-531ff56901f9","ios":"levelo://app?vid=f5fe6f8f-dfd7-48c9-b005-531ff56901f9"},"vehicle_type_id":"4","last_reported":1756141679,"current_range_meters":2000,"station_id":"ce4bhph2rcd13ifvqhdg","pricing_plan_id":"cebpf4jnsgd1na2vs0mg"},{"bike_id":"b99a1e85-528e-48de-80db-3ce1e34900b6","system_id":"levelo_inurba_marseille","lat":43.31886,"lon":5.40735,"is_reserved":false,"is_disabled":false,"rental_uris":{"android":"levelo://app?vid=b99a1e85-528e-48de-80db-3ce1e34900b6","ios":"levelo://app?vid=b99a1e85-528e-48de-80db-3ce1e34900b6"},"vehicle_type_id":"4","last_reported":1756141679,"current_range_meters":2000,"station_id":"ce4bhq12rcd13ifvqhig","pricing_plan_id":"cebpf4jnsgd1na2vs0mg"},{"bike_id":"449060bf-cb10-4720-92c7-2dba2c155cb0","system_id":"levelo_inurba_marseille","lat":43.32333,"lon":5.40618,"is_reserved":false,"is_disabled":true,"rental_uris":{"android":"levelo://app?vid=449060bf-cb10-4720-92c7-2dba2c155cb0","ios":"levelo://app?vid=449060bf-cb10-4720-92c7-2dba2c155cb0"},"vehicle_type_id":"4","last_reported":1756141679,"current_range_meters":2000,"station_id":"ce4bhq92rcd13ifvqhjg","pricing_plan_id":"cebpf4jnsgd1na2vs0mg"},{"bike_id":"d8264149-40d3-4066-b194-a8aed4308708","system_id":"levelo_inurba_marseille","lat":43.296301,"lon":5.377002,"is_reserved":false,"is_disabled":false,"rental_uris":{"android":"levelo://app?vid=d8264149-40d3-4066-b194-a8aed4308708","ios":"levelo://app?vid=d8264149-40d3-4066-b194-a8aed4308708"},"vehicle_type_id":"4","last_reported":1756141679,"current_range_meters":2800,"station_id":"ce4bgi92rcd13ifvqb90","pricing_plan_id":"cebpf4jnsgd1na2vs0mg"},{"bike_id":"723e6f25-e394-45cb-98fc-1346a7788380","system_id":"levelo_inurba_marseille","lat":43.295269,"lon":5.38522,"is_reserved":false,"is_disabled":false,"rental_uris":{"android":"levelo://app?vid=723e6f25-e394-45cb-98fc-1346a7788380","ios":"levelo://app?vid=723e6f25-e394-45cb-98fc-1346a7788380"},"vehicle_type_id":"4","last_reported":1756141679,"current_range_meters":2800,"station_id":"ce4bgih2rcd13ifvqba0","pricing_plan_id":"cebpf4jnsgd1na2vs0mg"},{"bike_id":"45720fca-7fd7-4398-a411-e16cbe0d3ac4","system_id":"levelo_inurba_marseille","lat":43.29527,"lon":5.39038,"is_reserved":false,"is_disabled":false,"rental_uris":{"android":"levelo://app?vid=45720fca-7fd7-4398-a411-e16cbe0d3ac4","ios":"levelo://app?vid=45720fca-7fd7-4398-a411-e16cbe0d3ac4"},"vehicle_type_id":"4","last_reported":1756141679,"current_range_meters":2800,"station_id":"ce4bh3p2rcd13ifvqdp0","pricing_plan_id":"cebpf4jnsgd1na2vs0mg"},{"bike_id":"02d78fd5-985c-4fea-9454-9dfbb675a9e0","system_id":"levelo_inurba_marseille","lat":43.30139,"lon":5.39851,"is_reserved":false,"is_disabled":false,"rental_uris":{"android":"levelo://app?vid=02d78fd5-985c-4fea-9454-9dfbb675a9e0","ios":"levelo://app?vid=02d78fd5-985c-4fea-9454-9dfbb675a9e0"},"vehicle_type_id":"4","last_reported":1756141679,"current_range_meters":3200,"station_id":"ce4bh0h2rcd13ifvqd40","pricing_plan_id":"cebpf4jnsgd1na2vs0mg"},{"bike_id":"c79e3ce3-9aae-4c13-9dc8-c9ccd2da6054","system_id":"levelo_inurba_marseille","lat":43.29554,"lon":5.42281,"is_reserved":false,"is_disabled":false,"rental_uris":{"android":"levelo://app?vid=c79e3ce3-9aae-4c13-9dc8-c9ccd2da6054","ios":"levelo://app?vid=c79e3ce3-9aae-4c13-9dc8-c9ccd2da6054"},"vehicle_type_id":"4","last_reported":1756141679,"current_range_meters":3200,"station_id":"ce4bhph2rcd13ifvqhdg","pricing_plan_id":"cebpf4jnsgd1na2vs0mg"},{"bike_id":"56064266-3a3e-45db-84da-b4a254ba66f0","system_id":"levelo_inurba_marseille","lat":43.2837,"lon":5.38626,"is_reserved":false,"is_disabled":false,"rental_uris":{"android":"levelo://app?vid=56064266-3a3e-45db-84da-b4a254ba66f0","ios":"levelo://app?vid=56064266-3a3e-45db-84da-b4a254ba66f0"},"vehicle_type_id":"4","last_reported":1756141679,"current_range_meters":3600,"station_id":"ce4bh492rcd13ifvqdvg","pricing_plan_id":"cebpf4jnsgd1na2vs0mg"},{"bike_id":"57bd90bb-f0e7-49eb-a58e-82a9c2d9fb34","system_id":"levelo_inurba_marseille","lat":43.2916,"lon":5.3716,"is_reserved":false,"is_disabled":false,"rental_uris":{"android":"levelo://app?vid=57bd90bb-f0e7-49eb-a58e-82a9c2d9fb34","ios":"levelo://app?vid=57bd90bb-f0e7-49eb-a58e-82a9c2d9fb34"},"vehicle_type_id":"4","last_reported":1756141679,"current_range_meters":3600,"station_id":"ce4bha92rcd13ifvqeh0","pricing_plan_id":"cebpf4jnsgd1na2vs0mg"},{"bike_id":"3204b075-259b-47c6-bf7f-207d1ed0df92","system_id":"levelo_inurba_marseille","lat":43.27569,"lon":5.38416,"is_reserved":false,"is_disabled":false,"rental_uris":{"android":"levelo://app?vid=3204b075-259b-47c6-bf7f-207d1ed0df92","ios":"levelo://app?vid=3204b075-259b-47c6-bf7f-207d1ed0df92"},"vehicle_type_id":"4","last_reported":1756141679,"current_range_meters":3600,"station_id":"ce4bhh92rcd13ifvqfi0","pricing_plan_id":"cebpf4jnsgd1na2vs0mg"},{"bike_id":"5251ff3d-5ea1-416c-96e4-d4bfa85362ec","system_id":"levelo_inurba_marseille","lat":43.30929,"lon":5.40137,"is_reserved":false,"is_disabled":false,"rental_uris":{"android":"levelo://app?vid=5251ff3d-5ea1-416c-96e4-d4bfa85362ec","ios":"levelo://app?vid=5251ff3d-5ea1-416c-96e4-d4bfa85362ec"},"vehicle_type_id":"4","last_reported":1756141679,"current_range_meters":4000,"station_id":"ce4bgvp2rcd13ifvqct0","pricing_plan_id":"cebpf4jnsgd1na2vs0mg"},{"bike_id":"02939325-d882-48e4-9924-e9cf979c3902","system_id":"levelo_inurba_marseille","lat":43.25578,"lon":5.38225,"is_reserved":false,"is_disabled":false,"rental_uris":{"android":"levelo://app?vid=02939325-d882-48e4-9924-e9cf979c3902","ios":"levelo://app?vid=02939325-d882-48e4-9924-e9cf979c3902"},"vehicle_type_id":"4","last_reported":1756141679,"current_range_meters":4000,"station_id":"ce4bhih2rcd13ifvqfs0","pricing_plan_id":"cebpf4jnsgd1na2vs0mg"},{"bike_id":"67010c27-624a-43d8-a583-cf50db2c16e8","system_id":"levelo_inurba_marseille","lat":43.32232,"lon":5.36849,"is_reserved":false,"is_disabled":false,"rental_uris":{"android":"levelo://app?vid=67010c27-624a-43d8-a583-cf50db2c16e8","ios":"levelo://app?vid=67010c27-624a-43d8-a583-cf50db2c16e8"},"vehicle_type_id":"4","last_reported":1756141679,"current_range_meters":4400,"station_id":"","pricing_plan_id":"cebpf4jnsgd1na2vs0mg"},{"bike_id":"21ff115a-79ea-46d2-abeb-0360c26c109b","system_id":"levelo_inurba_marseille","lat":43.28792,"lon":5.38837,"is_reserved":false,"is_disabled":false,"rental_uris":{"android":"levelo://app?vid=21ff115a-79ea-46d2-abeb-0360c26c109b","ios":"levelo://app?vid=21ff115a-79ea-46d2-abeb-0360c26c109b"},"vehicle_type_id":"4","last_reported":1756141679,"current_range_meters":4400,"station_id":"","pricing_plan_id":"cebpf4jnsgd1na2vs0mg"},{"bike_id":"7adbac07-0a90-46d2-a401-d44336298bdb","system_id":"levelo_inurba_marseille","lat":43.30036,"lon":5.3755,"is_reserved":false,"is_disabled":false,"rental_uris":{"android":"levelo://app?vid=7adbac07-0a90-46d2-a401-d44336298bdb","ios":"levelo://app?vid=7adbac07-0a90-46d2-a401-d44336298bdb"},"vehicle_type_id":"4","last_reported":1756141679,"current_range_meters":4400,"station_id":"","pricing_plan_id":"cebpf4jnsgd1na2vs0mg"},{"bike_id":"5f81648b-b081-41dd-8891-36f441a940ed","system_id":"levelo_inurba_marseille","lat":43.29815,"lon":5.38114,"is_reserved":false,"is_disabled":false,"rental_uris":{"android":"levelo://app?vid=5f81648b-b081-41dd-8891-36f441a940ed","ios":"levelo://app?vid=5f81648b-b081-41dd-8891-36f441a940ed"},"vehicle_type_id":"4","last_reported":1756141679,"current_range_meters":4400,"station_id":"ce4bgip2rcd13ifvqbb0","pricing_plan_id":"cebpf4jnsgd1na2vs0mg"},{"bike_id":"32bf3ca0-6377-462c-bf0d-ddd08a61c791","system_id":"levelo_inurba_marseille","lat":43.29523,"lon":5.39032,"is_reserved":false,"is_disabled":false,"rental_uris":{"android":"levelo://app?vid=32bf3ca0-6377-462c-bf0d-ddd08a61c791","ios":"levelo://app?vid=32bf3ca0-6377-462c-bf0d-ddd08a61c791"},"vehicle_type_id":"4","last_reported":1756141679,"current_range_meters":4400,"station_id":"ce4bh3p2rcd13ifvqdp0","pricing_plan_id":"cebpf4jnsgd1na2vs0mg"},{"bike_id":"736dba63-6a45-4d3b-a5a5-4be2e737cb24","system_id":"levelo_inurba_marseille","lat":43.29226,"lon":5.36065,"is_reserved":false,"is_disabled":false,"rental_uris":{"android":"levelo://app?vid=736dba63-6a45-4d3b-a5a5-4be2e737cb24","ios":"levelo://app?vid=736dba63-6a45-4d3b-a5a5-4be2e737cb24"},"vehicle_type_id":"4","last_reported":1756141679,"current_range_meters":4400,"station_id":"ce4bhbh2rcd13ifvqeqg","pricing_plan_id":"cebpf4jnsgd1na2vs0mg"},{"bike_id":"27e17004-f051-4e71-a6d7-a065cf97b1eb","system_id":"levelo_inurba_marseille","lat":43.30885,"lon":5.39656,"is_reserved":false,"is_disabled":false,"rental_uris":{"android":"levelo://app?vid=27e17004-f051-4e71-a6d7-a065cf97b1eb","ios":"levelo://app?vid=27e17004-f051-4e71-a6d7-a065cf97b1eb"},"vehicle_type_id":"4","last_reported":1756141679,"current_range_meters":4800,"station_id":"ce4bh012rcd13ifvqcv0","pricing_plan_id":"cebpf4jnsgd1na2vs0mg"},{"bike_id":"8d826013-d45b-4166-a32d-03daddabd260","system_id":"levelo_inurba_marseille","lat":43.29635,"lon":5.40588,"is_reserved":false,"is_disabled":false,"rental_uris":{"android":"levelo://app?vid=8d826013-d45b-4166-a32d-03daddabd260","ios":"levelo://app?vid=8d826013-d45b-4166-a32d-03daddabd260"},"vehicle_type_id":"4","last_reported":1756141679,"current_range_meters":4800,"station_id":"ce4bh0h2rcd13ifvqd60","pricing_plan_id":"cebpf4jnsgd1na2vs0mg"},{"bike_id":"2b8dc3d4-bf4e-4131-941d-8f6c080a4ef7","system_id":"levelo_inurba_marseille","lat":43.29784,"lon":5.39345,"is_reserved":false,"is_disabled":false,"rental_uris":{"android":"levelo://app?vid=2b8dc3d4-bf4e-4131-941d-8f6c080a4ef7","ios":"levelo://app?vid=2b8dc3d4-bf4e-4131-941d-8f6c080a4ef7"},"vehicle_type_id":"4","last_reported":1756141679,"current_range_meters":4800,"station_id":"chh1huq6cuj3fo74tm60","pricing_plan_id":"cebpf4jnsgd1na2vs0mg"},{"bike_id":"2a2c596d-5f0e-4de8-9c54-88627e7b9e4b","system_id":"levelo_inurba_marseille","lat":43.34228,"lon":5.38621,"is_reserved":false,"is_disabled":false,"rental_uris":{"android":"levelo://app?vid=2a2c596d-5f0e-4de8-9c54-88627e7b9e4b","ios":"levelo://app?vid=2a2c596d-5f0e-4de8-9c54-88627e7b9e4b"},"vehicle_type_id":"4","last_reported":1756141679,"current_range_meters":6000,"station_id":"","pricing_plan_id":"cebpf4jnsgd1na2vs0mg"},{"bike_id":"e58fc0fe-9229-49df-aa25-5aad1ce61c10","system_id":"levelo_inurba_marseille","lat":43.288803,"lon":5.359835,"is_reserved":false,"is_disabled":false,"rental_uris":{"android":"levelo://app?vid=e58fc0fe-9229-49df-aa25-5aad1ce61c10","ios":"levelo://app?vid=e58fc0fe-9229-49df-aa25-5aad1ce61c10"},"vehicle_type_id":"4","last_reported":1756141679,"current_range_meters":6000,"station_id":"ce4bgi12rcd13ifvqb80","pricing_plan_id":"cebpf4jnsgd1na2vs0mg"},{"bike_id":"d75fe890-d8ba-4ff9-ad1a-b4b7f34f0d24","system_id":"levelo_inurba_marseille","lat":43.28999,"lon":5.35622,"is_reserved":false,"is_disabled":false,"rental_uris":{"android":"levelo://app?vid=d75fe890-d8ba-4ff9-ad1a-b4b7f34f0d24","ios":"levelo://app?vid=d75fe890-d8ba-4ff9-ad1a-b4b7f34f0d24"},"vehicle_type_id":"4","last_reported":1756141679,"current_range_meters":6000,"station_id":"ce4bhb92rcd13ifvqen0","pricing_plan_id":"cebpf4jnsgd1na2vs0mg"},{"bike_id":"5d7db6f1-e79d-4e90-aa0a-a7c2000b04a6","system_id":"levelo_inurba_marseille","lat":43.33609,"lon":5.41032,"is_reserved":false,"is_disabled":false,"rental_uris":{"android":"levelo://app?vid=5d7db6f1-e79d-4e90-aa0a-a7c2000b04a6","ios":"levelo://app?vid=5d7db6f1-e79d-4e90-aa0a-a7c2000b04a6"},"vehicle_type_id":"4","last_reported":1756141679,"current_range_meters":6000,"station_id":"ce4bhqh2rcd13ifvqhmg","pricing_plan_id":"cebpf4jnsgd1na2vs0mg"},{"bike_id":"e7f75028-08f1-49f0-a308-1607e2d9bdf0","system_id":"levelo_inurba_marseille","lat":43.28934,"lon":5.38397,"is_reserved":false,"is_disabled":false,"rental_uris":{"android":"levelo://app?vid=e7f75028-08f1-49f0-a308-1607e2d9bdf0","ios":"levelo://app?vid=e7f75028-08f1-49f0-a308-1607e2d9bdf0"},"vehicle_type_id":"4","last_reported":1756141679,"current_range_meters":6400,"station_id":"ce4bh612rcd13ifvqe6g","pricing_plan_id":"cebpf4jnsgd1na2vs0mg"},{"bike_id":"f7ea0974-abdd-4b76-8ec7-628ad61e6238","system_id":"levelo_inurba_marseille","lat":43.27065,"lon":5.42286,"is_reserved":false,"is_disabled":false,"rental_uris":{"android":"levelo://app?vid=f7ea0974-abdd-4b76-8ec7-628ad61e6238","ios":"levelo://app?vid=f7ea0974-abdd-4b76-8ec7-628ad61e6238"},"vehicle_type_id":"4","last_reported":1756141679,"current_range_meters":6400,"station_id":"ce4bhk92rcd13ifvqgb0","pricing_plan_id":"cebpf4jnsgd1na2vs0mg"},{"bike_id":"f3fbb202-a886-4ec8-a97b-254720092e77","system_id":"levelo_inurba_marseille","lat":43.25111,"lon":5.4031,"is_reserved":false,"is_disabled":false,"rental_uris":{"android":"levelo://app?vid=f3fbb202-a886-4ec8-a97b-254720092e77","ios":"levelo://app?vid=f3fbb202-a886-4ec8-a97b-254720092e77"},"vehicle_type_id":"4","last_reported":1756141679,"current_range_meters":6400,"station_id":"ce4bhlh2rcd13ifvqgig","pricing_plan_id":"cebpf4jnsgd1na2vs0mg"},{"bike_id":"0ddfa8cc-09b0-4775-aa99-767efb5c466f","system_id":"levelo_inurba_marseille","lat":43.28078,"lon":5.39659,"is_reserved":false,"is_disabled":false,"rental_uris":{"android":"levelo://app?vid=0ddfa8cc-09b0-4775-aa99-767efb5c466f","ios":"levelo://app?vid=0ddfa8cc-09b0-4775-aa99-767efb5c466f"},"vehicle_type_id":"4","last_reported":1756141679,"current_range_meters":6400,"station_id":"ce4bho12rcd13ifvqh2g","pricing_plan_id":"cebpf4jnsgd1na2vs0mg"},{"bike_id":"3fcb1ecf-014d-414b-8e46-6cb5a3a18d8d","system_id":"levelo_inurba_marseille","lat":43.27106,"lon":5.3872,"is_reserved":false,"is_disabled":false,"rental_uris":{"android":"levelo://app?vid=3fcb1ecf-014d-414b-8e46-6cb5a3a18d8d","ios":"levelo://app?vid=3fcb1ecf-014d-414b-8e46-6cb5a3a18d8d"},"vehicle_type_id":"4","last_reported":1756141679,"current_range_meters":6800,"station_id":"","pricing_plan_id":"cebpf4jnsgd1na2vs0mg"},{"bike_id":"19371a1c-5cf7-4d0d-82fc-642ef93e0c27","system_id":"levelo_inurba_marseille","lat":43.28356,"lon":5.38098,"is_reserved":false,"is_disabled":false,"rental_uris":{"android":"levelo://app?vid=19371a1c-5cf7-4d0d-82fc-642ef93e0c27","ios":"levelo://app?vid=19371a1c-5cf7-4d0d-82fc-642ef93e0c27"},"vehicle_type_id":"4","last_reported":1756141679,"current_range_meters":6800,"station_id":"ce4bh412rcd13ifvqdr0","pricing_plan_id":"cebpf4jnsgd1na2vs0mg"},{"bike_id":"8f10f186-15e1-4a9c-8739-3364df078a94","system_id":"levelo_inurba_marseille","lat":43.2866,"lon":5.38657,"is_reserved":false,"is_disabled":false,"rental_uris":{"android":"levelo://app?vid=8f10f186-15e1-4a9c-8739-3364df078a94","ios":"levelo://app?vid=8f10f186-15e1-4a9c-8739-3364df078a94"},"vehicle_type_id":"4","last_reported":1756141679,"current_range_meters":6800,"station_id":"ce4bh492rcd13ifvqdug","pricing_plan_id":"cebpf4jnsgd1na2vs0mg"},{"bike_id":"6514a929-9dc7-49a9-97bf-015eecd99591","system_id":"levelo_inurba_marseille","lat":43.29265,"lon":5.38453,"is_reserved":false,"is_disabled":false,"rental_uris":{"android":"levelo://app?vid=6514a929-9dc7-49a9-97bf-015eecd99591","ios":"levelo://app?vid=6514a929-9dc7-49a9-97bf-015eecd99591"},"vehicle_type_id":"4","last_reported":1756141679,"current_range_meters":6800,"station_id":"ce4bh692rcd13ifvqea0","pricing_plan_id":"cebpf4jnsgd1na2vs0mg"},{"bike_id":"8e3c1d96-db3d-493f-9f1f-6750dcd1e8bc","system_id":"levelo_inurba_marseille","lat":43.32994,"lon":5.39054,"is_reserved":false,"is_disabled":false,"rental_uris":{"android":"levelo://app?vid=8e3c1d96-db3d-493f-9f1f-6750dcd1e8bc","ios":"levelo://app?vid=8e3c1d96-db3d-493f-9f1f-6750dcd1e8bc"},"vehicle_type_id":"4","last_reported":1756141679,"current_range_meters":6800,"station_id":"ce4bhr92rcd13ifvqhrg","pricing_plan_id":"cebpf4jnsgd1na2vs0mg"},{"bike_id":"8ea08cf4-f92b-45d0-adcd-98eee75d868a","system_id":"levelo_inurba_marseille","lat":43.34223,"lon":5.38623,"is_reserved":false,"is_disabled":false,"rental_uris":{"android":"levelo://app?vid=8ea08cf4-f92b-45d0-adcd-98eee75d868a","ios":"levelo://app?vid=8ea08cf4-f92b-45d0-adcd-98eee75d868a"},"vehicle_type_id":"4","last_reported":1756141679,"current_range_meters":7200,"station_id":"","pricing_plan_id":"cebpf4jnsgd1na2vs0mg"},{"bike_id":"158fe4a9-48cc-491f-95fd-2aa73bd55cc0","system_id":"levelo_inurba_marseille","lat":43.305583,"lon":5.369161,"is_reserved":false,"is_disabled":false,"rental_uris":{"android":"levelo://app?vid=158fe4a9-48cc-491f-95fd-2aa73bd55cc0","ios":"levelo://app?vid=158fe4a9-48cc-491f-95fd-2aa73bd55cc0"},"vehicle_type_id":"4","last_reported":1756141679,"current_range_meters":7200,"station_id":"","pricing_plan_id":"cebpf4jnsgd1na2vs0mg"},{"bike_id":"cf304e49-d2b2-48ee-aaea-64c7c856f0c2","system_id":"levelo_inurba_marseille","lat":43.280267,"lon":5.369466,"is_reserved":false,"is_disabled":false,"rental_uris":{"android":"levelo://app?vid=cf304e49-d2b2-48ee-aaea-64c7c856f0c2","ios":"levelo://app?vid=cf304e49-d2b2-48ee-aaea-64c7c856f0c2"},"vehicle_type_id":"4","last_reported":1756141679,"current_range_meters":7200,"station_id":"ce4bha12rcd13ifvqef0","pricing_plan_id":"cebpf4jnsgd1na2vs0mg"},{"bike_id":"7499b99d-1507-43c6-a305-be0c50a93034","system_id":"levelo_inurba_marseille","lat":43.28617,"lon":5.35103,"is_reserved":false,"is_disabled":false,"rental_uris":{"android":"levelo://app?vid=7499b99d-1507-43c6-a305-be0c50a93034","ios":"levelo://app?vid=7499b99d-1507-43c6-a305-be0c50a93034"},"vehicle_type_id":"4","last_reported":1756141679,"current_range_meters":7200,"station_id":"ce4bhch2rcd13ifvqeug","pricing_plan_id":"cebpf4jnsgd1na2vs0mg"},{"bike_id":"dc87a039-7c6d-478a-afe7-e47db1d88996","system_id":"levelo_inurba_marseille","lat":43.21185,"lon":5.35084,"is_reserved":false,"is_disabled":false,"rental_uris":{"android":"levelo://app?vid=dc87a039-7c6d-478a-afe7-e47db1d88996","ios":"levelo://app?vid=dc87a039-7c6d-478a-afe7-e47db1d88996"},"vehicle_type_id":"4","last_reported":1756141679,"current_range_meters":7200,"station_id":"st_cvj6sg6p6f1abm77japg","pricing_plan_id":"cebpf4jnsgd1na2vs0mg"},{"bike_id":"0490c530-845d-44f9-bf75-09a8b4d2b9b9","system_id":"levelo_inurba_marseille","lat":43.29756,"lon":5.38057,"is_reserved":false,"is_disabled":false,"rental_uris":{"android":"levelo://app?vid=0490c530-845d-44f9-bf75-09a8b4d2b9b9","ios":"levelo://app?vid=0490c530-845d-44f9-bf75-09a8b4d2b9b9"},"vehicle_type_id":"4","last_reported":1756141679,"current_range_meters":8000,"station_id":"","pricing_plan_id":"cebpf4jnsgd1na2vs0mg"},{"bike_id":"c27c5021-4f9b-4159-9272-50755babd653","system_id":"levelo_inurba_marseille","lat":43.30137,"lon":5.38774,"is_reserved":false,"is_disabled":false,"rental_uris":{"android":"levelo://app?vid=c27c5021-4f9b-4159-9272-50755babd653","ios":"levelo://app?vid=c27c5021-4f9b-4159-9272-50755babd653"},"vehicle_type_id":"4","last_reported":1756141679,"current_range_meters":8000,"station_id":"ce4bghh2rcd13ifvqb60","pricing_plan_id":"cebpf4jnsgd1na2vs0mg"},{"bike_id":"a93794c0-6216-4a46-a3eb-8b1c447fa039","system_id":"levelo_inurba_marseille","lat":43.29934,"lon":5.36547,"is_reserved":false,"is_disabled":false,"rental_uris":{"android":"levelo://app?vid=a93794c0-6216-4a46-a3eb-8b1c447fa039","ios":"levelo://app?vid=a93794c0-6216-4a46-a3eb-8b1c447fa039"},"vehicle_type_id":"4","last_reported":1756141679,"current_range_meters":8000,"station_id":"ce4bgm92rcd13ifvqbr0","pricing_plan_id":"cebpf4jnsgd1na2vs0mg"},{"bike_id":"6b6fba27-c8d7-4497-a03b-ff880d359d60","system_id":"levelo_inurba_marseille","lat":43.29525,"lon":5.39043,"is_reserved":false,"is_disabled":false,"rental_uris":{"android":"levelo://app?vid=6b6fba27-c8d7-4497-a03b-ff880d359d60","ios":"levelo://app?vid=6b6fba27-c8d7-4497-a03b-ff880d359d60"},"vehicle_type_id":"4","last_reported":1756141679,"current_range_meters":8000,"station_id":"ce4bh3p2rcd13ifvqdp0","pricing_plan_id":"cebpf4jnsgd1na2vs0mg"},{"bike_id":"c0bdb26d-62a0-4a3a-9591-78078ba9b6d1","system_id":"levelo_inurba_marseille","lat":43.27845,"lon":5.39215,"is_reserved":false,"is_disabled":false,"rental_uris":{"android":"levelo://app?vid=c0bdb26d-62a0-4a3a-9591-78078ba9b6d1","ios":"levelo://app?vid=c0bdb26d-62a0-4a3a-9591-78078ba9b6d1"},"vehicle_type_id":"4","last_reported":1756141679,"current_range_meters":8000,"station_id":"ce4bhjp2rcd13ifvqga0","pricing_plan_id":"cebpf4jnsgd1na2vs0mg"},{"bike_id":"5a81dd96-a0af-4fb0-acb4-88d32da4cd98","system_id":"levelo_inurba_marseille","lat":43.32056,"lon":5.4165,"is_reserved":false,"is_disabled":false,"rental_uris":{"android":"levelo://app?vid=5a81dd96-a0af-4fb0-acb4-88d32da4cd98","ios":"levelo://app?vid=5a81dd96-a0af-4fb0-acb4-88d32da4cd98"},"vehicle_type_id":"4","last_reported":1756141679,"current_range_meters":8400,"station_id":"","pricing_plan_id":"cebpf4jnsgd1na2vs0mg"},{"bike_id":"8278d03d-5584-48a8-a86a-7847a162c713","system_id":"levelo_inurba_marseille","lat":43.30903,"lon":5.3816,"is_reserved":false,"is_disabled":false,"rental_uris":{"android":"levelo://app?vid=8278d03d-5584-48a8-a86a-7847a162c713","ios":"levelo://app?vid=8278d03d-5584-48a8-a86a-7847a162c713"},"vehicle_type_id":"4","last_reported":1756141679,"current_range_meters":8400,"station_id":"","pricing_plan_id":"cebpf4jnsgd1na2vs0mg"},{"bike_id":"26a084e8-4cd3-48c5-aa3a-365160ce52bd","system_id":"levelo_inurba_marseille","lat":43.28067,"lon":5.35263,"is_reserved":false,"is_disabled":false,"rental_uris":{"android":"levelo://app?vid=26a084e8-4cd3-48c5-aa3a-365160ce52bd","ios":"levelo://app?vid=26a084e8-4cd3-48c5-aa3a-365160ce52bd"},"vehicle_type_id":"4","last_reported":1756141679,"current_range_meters":8400,"station_id":"","pricing_plan_id":"cebpf4jnsgd1na2vs0mg"},{"bike_id":"58844ab1-4cb9-4040-8a83-56bfcec40b4b","system_id":"levelo_inurba_marseille","lat":43.29928,"lon":5.36552,"is_reserved":false,"is_disabled":false,"rental_uris":{"android":"levelo://app?vid=58844ab1-4cb9-4040-8a83-56bfcec40b4b","ios":"levelo://app?vid=58844ab1-4cb9-4040-8a83-56bfcec40b4b"},"vehicle_type_id":"4","last_reported":1756141679,"current_range_meters":8400,"station_id":"ce4bgm92rcd13ifvqbr0","pricing_plan_id":"cebpf4jnsgd1na2vs0mg"},{"bike_id":"2120fb56-2bcb-4f29-8e0e-59a06bd4735b","system_id":"levelo_inurba_marseille","lat":43.25863,"lon":5.39894,"is_reserved":false,"is_disabled":false,"rental_uris":{"android":"levelo://app?vid=2120fb56-2bcb-4f29-8e0e-59a06bd4735b","ios":"levelo://app?vid=2120fb56-2bcb-4f29-8e0e-59a06bd4735b"},"vehicle_type_id":"4","last_reported":1756141679,"current_range_meters":8400,"station_id":"ce4bhl92rcd13ifvqghg","pricing_plan_id":"cebpf4jnsgd1na2vs0mg"},{"bike_id":"318a994a-51ff-465f-b40c-534a36bf7044","system_id":"levelo_inurba_marseille","lat":43.301753,"lon":5.382684,"is_reserved":false,"is_disabled":false,"rental_uris":{"android":"levelo://app?vid=318a994a-51ff-465f-b40c-534a36bf7044","ios":"levelo://app?vid=318a994a-51ff-465f-b40c-534a36bf7044"},"vehicle_type_id":"4","last_reported":1756141679,"current_range_meters":8800,"station_id":"","pricing_plan_id":"cebpf4jnsgd1na2vs0mg"},{"bike_id":"9947f977-fd3a-416a-8118-fe9c6a37caaa","system_id":"levelo_inurba_marseille","lat":43.2957,"lon":5.37518,"is_reserved":false,"is_disabled":false,"rental_uris":{"android":"levelo://app?vid=9947f977-fd3a-416a-8118-fe9c6a37caaa","ios":"levelo://app?vid=9947f977-fd3a-416a-8118-fe9c6a37caaa"},"vehicle_type_id":"4","last_reported":1756141679,"current_range_meters":8800,"station_id":"ce4bgh92rcd13ifvqb50","pricing_plan_id":"cebpf4jnsgd1na2vs0mg"},{"bike_id":"a61922d1-1ea8-405e-8ac3-52e38818fe8a","system_id":"levelo_inurba_marseille","lat":43.2904,"lon":5.38586,"is_reserved":false,"is_disabled":false,"rental_uris":{"android":"levelo://app?vid=a61922d1-1ea8-405e-8ac3-52e38818fe8a","ios":"levelo://app?vid=a61922d1-1ea8-405e-8ac3-52e38818fe8a"},"vehicle_type_id":"4","last_reported":1756141679,"current_range_meters":8800,"station_id":"ce4bh4p2rcd13ifvqe0g","pricing_plan_id":"cebpf4jnsgd1na2vs0mg"},{"bike_id":"ead1a104-7af3-4393-aded-8751136ddeb6","system_id":"levelo_inurba_marseille","lat":43.25865,"lon":5.39889,"is_reserved":false,"is_disabled":false,"rental_uris":{"android":"levelo://app?vid=ead1a104-7af3-4393-aded-8751136ddeb6","ios":"levelo://app?vid=ead1a104-7af3-4393-aded-8751136ddeb6"},"vehicle_type_id":"4","last_reported":1756141679,"current_range_meters":8800,"station_id":"ce4bhl92rcd13ifvqghg","pricing_plan_id":"cebpf4jnsgd1na2vs0mg"},{"bike_id":"dd208230-3816-49f1-af69-81d7abde85cf","system_id":"levelo_inurba_marseille","lat":43.25081,"lon":5.39527,"is_reserved":false,"is_disabled":false,"rental_uris":{"android":"levelo://app?vid=dd208230-3816-49f1-af69-81d7abde85cf","ios":"levelo://app?vid=dd208230-3816-49f1-af69-81d7abde85cf"},"vehicle_type_id":"4","last_reported":1756141679,"current_range_meters":9200,"station_id":"ce4bhm12rcd13ifvqgkg","pricing_plan_id":"cebpf4jnsgd1na2vs0mg"},{"bike_id":"75f2e373-369e-40d7-9995-d717ecc89da8","system_id":"levelo_inurba_marseille","lat":43.23176,"lon":5.39991,"is_reserved":false,"is_disabled":false,"rental_uris":{"android":"levelo://app?vid=75f2e373-369e-40d7-9995-d717ecc89da8","ios":"levelo://app?vid=75f2e373-369e-40d7-9995-d717ecc89da8"},"vehicle_type_id":"4","last_reported":1756141679,"current_range_meters":9200,"station_id":"ce4bhn12rcd13ifvqgqg","pricing_plan_id":"cebpf4jnsgd1na2vs0mg"},{"bike_id":"a2f99c99-dde5-41c8-97bd-7772fe82f3a8","system_id":"levelo_inurba_marseille","lat":43.21192,"lon":5.3507,"is_reserved":false,"is_disabled":false,"rental_uris":{"android":"levelo://app?vid=a2f99c99-dde5-41c8-97bd-7772fe82f3a8","ios":"levelo://app?vid=a2f99c99-dde5-41c8-97bd-7772fe82f3a8"},"vehicle_type_id":"4","last_reported":1756141679,"current_range_meters":9200,"station_id":"st_cvj6sg6p6f1abm77japg","pricing_plan_id":"cebpf4jnsgd1na2vs0mg"},{"bike_id":"fb0ecd7c-2c0f-42f1-9e73-9448c9893367","system_id":"levelo_inurba_marseille","lat":43.264854,"lon":5.370268,"is_reserved":false,"is_disabled":false,"rental_uris":{"android":"levelo://app?vid=fb0ecd7c-2c0f-42f1-9e73-9448c9893367","ios":"levelo://app?vid=fb0ecd7c-2c0f-42f1-9e73-9448c9893367"},"vehicle_type_id":"4","last_reported":1756141679,"current_range_meters":9600,"station_id":"","pricing_plan_id":"cebpf4jnsgd1na2vs0mg"},{"bike_id":"b3cf3457-d94a-49b1-beb9-42d833e88899","system_id":"levelo_inurba_marseille","lat":43.27616,"lon":5.36107,"is_reserved":false,"is_disabled":false,"rental_uris":{"android":"levelo://app?vid=b3cf3457-d94a-49b1-beb9-42d833e88899","ios":"levelo://app?vid=b3cf3457-d94a-49b1-beb9-42d833e88899"},"vehicle_type_id":"4","last_reported":1756141679,"current_range_meters":9600,"station_id":"ce4bgj92rcd13ifvqbe0","pricing_plan_id":"cebpf4jnsgd1na2vs0mg"},{"bike_id":"ea4fa169-a5a5-4fd3-8e46-5eb88e8ac626","system_id":"levelo_inurba_marseille","lat":43.29369,"lon":5.37847,"is_reserved":false,"is_disabled":false,"rental_uris":{"android":"levelo://app?vid=ea4fa169-a5a5-4fd3-8e46-5eb88e8ac626","ios":"levelo://app?vid=ea4fa169-a5a5-4fd3-8e46-5eb88e8ac626"},"vehicle_type_id":"4","last_reported":1756141679,"current_range_meters":9600,"station_id":"ce4bgjh2rcd13ifvqbf0","pricing_plan_id":"cebpf4jnsgd1na2vs0mg"},{"bike_id":"b0bb336a-46c4-4d10-8fb7-4c28ba120b09","system_id":"levelo_inurba_marseille","lat":43.254766,"lon":5.37536,"is_reserved":false,"is_disabled":false,"rental_uris":{"android":"levelo://app?vid=b0bb336a-46c4-4d10-8fb7-4c28ba120b09","ios":"levelo://app?vid=b0bb336a-46c4-4d10-8fb7-4c28ba120b09"},"vehicle_type_id":"4","last_reported":1756141679,"current_range_meters":9600,"station_id":"ce4bhhh2rcd13ifvqfk0","pricing_plan_id":"cebpf4jnsgd1na2vs0mg"},{"bike_id":"cb996ac4-3d6d-4d5e-befc-a3cc5401162c","system_id":"levelo_inurba_marseille","lat":43.33609,"lon":5.41037,"is_reserved":false,"is_disabled":false,"rental_uris":{"android":"levelo://app?vid=cb996ac4-3d6d-4d5e-befc-a3cc5401162c","ios":"levelo://app?vid=cb996ac4-3d6d-4d5e-befc-a3cc5401162c"},"vehicle_type_id":"4","last_reported":1756141679,"current_range_meters":9600,"station_id":"ce4bhqh2rcd13ifvqhmg","pricing_plan_id":"cebpf4jnsgd1na2vs0mg"},{"bike_id":"82bc0abc-7a95-4a7d-90a4-db0b095dbb34","system_id":"levelo_inurba_marseille","lat":43.32119,"lon":5.36759,"is_reserved":false,"is_disabled":false,"rental_uris":{"android":"levelo://app?vid=82bc0abc-7a95-4a7d-90a4-db0b095dbb34","ios":"levelo://app?vid=82bc0abc-7a95-4a7d-90a4-db0b095dbb34"},"vehicle_type_id":"4","last_reported":1756141679,"current_range_meters":9600,"station_id":"ce4bhrh2rcd13ifvqhug","pricing_plan_id":"cebpf4jnsgd1na2vs0mg"},{"bike_id":"243d2ba4-4ad7-4114-adfe-08c997029e49","system_id":"levelo_inurba_marseille","lat":43.29689,"lon":5.37284,"is_reserved":false,"is_disabled":false,"rental_uris":{"android":"levelo://app?vid=243d2ba4-4ad7-4114-adfe-08c997029e49","ios":"levelo://app?vid=243d2ba4-4ad7-4114-adfe-08c997029e49"},"vehicle_type_id":"4","last_reported":1756141679,"current_range_meters":10000,"station_id":"","pricing_plan_id":"cebpf4jnsgd1na2vs0mg"},{"bike_id":"18e06675-e348-4b95-b6f4-404a1e1a7567","system_id":"levelo_inurba_marseille","lat":43.30149,"lon":5.38765,"is_reserved":false,"is_disabled":false,"rental_uris":{"android":"levelo://app?vid=18e06675-e348-4b95-b6f4-404a1e1a7567","ios":"levelo://app?vid=18e06675-e348-4b95-b6f4-404a1e1a7567"},"vehicle_type_id":"4","last_reported":1756141679,"current_range_meters":10000,"station_id":"ce4bghh2rcd13ifvqb60","pricing_plan_id":"cebpf4jnsgd1na2vs0mg"},{"bike_id":"1389e828-23e4-4165-aa52-4cd8ea7b917e","system_id":"levelo_inurba_marseille","lat":43.28617,"lon":5.35106,"is_reserved":false,"is_disabled":false,"rental_uris":{"android":"levelo://app?vid=1389e828-23e4-4165-aa52-4cd8ea7b917e","ios":"levelo://app?vid=1389e828-23e4-4165-aa52-4cd8ea7b917e"},"vehicle_type_id":"4","last_reported":1756141679,"current_range_meters":10000,"station_id":"ce4bhch2rcd13ifvqeug","pricing_plan_id":"cebpf4jnsgd1na2vs0mg"},{"bike_id":"c12c80c2-2e9e-4cfa-848d-1fc1dd7b8f1f","system_id":"levelo_inurba_marseille","lat":43.217461,"lon":5.346053,"is_reserved":false,"is_disabled":false,"rental_uris":{"android":"levelo://app?vid=c12c80c2-2e9e-4cfa-848d-1fc1dd7b8f1f","ios":"levelo://app?vid=c12c80c2-2e9e-4cfa-848d-1fc1dd7b8f1f"},"vehicle_type_id":"4","last_reported":1756141679,"current_range_meters":10000,"station_id":"st_cvj6r9ubvosntc0bgbag","pricing_plan_id":"cebpf4jnsgd1na2vs0mg"},{"bike_id":"2fe86d7c-705b-417c-ae83-8bc8a6542d19","system_id":"levelo_inurba_marseille","lat":43.25336,"lon":5.42177,"is_reserved":false,"is_disabled":false,"rental_uris":{"android":"levelo://app?vid=2fe86d7c-705b-417c-ae83-8bc8a6542d19","ios":"levelo://app?vid=2fe86d7c-705b-417c-ae83-8bc8a6542d19"},"vehicle_type_id":"4","last_reported":1756141679,"current_range_meters":10000,"station_id":"st_d2m65c5bi1j21697t3ng","pricing_plan_id":"cebpf4jnsgd1na2vs0mg"},{"bike_id":"4831a990-01f2-495e-b879-29b9bf89bdcd","system_id":"levelo_inurba_marseille","lat":43.31332,"lon":5.3969,"is_reserved":false,"is_disabled":false,"rental_uris":{"android":"levelo://app?vid=4831a990-01f2-495e-b879-29b9bf89bdcd","ios":"levelo://app?vid=4831a990-01f2-495e-b879-29b9bf89bdcd"},"vehicle_type_id":"4","last_reported":1756141679,"current_range_meters":10800,"station_id":"ce4bgvp2rcd13ifvqcu0","pricing_plan_id":"cebpf4jnsgd1na2vs0mg"},{"bike_id":"1aa5b400-4770-435e-b00c-21f6dfaf4704","system_id":"levelo_inurba_marseille","lat":43.24804,"lon":5.37457,"is_reserved":false,"is_disabled":false,"rental_uris":{"android":"levelo://app?vid=1aa5b400-4770-435e-b00c-21f6dfaf4704","ios":"levelo://app?vid=1aa5b400-4770-435e-b00c-21f6dfaf4704"},"vehicle_type_id":"4","last_reported":1756141679,"current_range_meters":10800,"station_id":"ce4bhgh2rcd13ifvqfb0","pricing_plan_id":"cebpf4jnsgd1na2vs0mg"},{"bike_id":"af60c9c5-b629-4b2a-8490-84d84c87c358","system_id":"levelo_inurba_marseille","lat":43.27057,"lon":5.40248,"is_reserved":false,"is_disabled":false,"rental_uris":{"android":"levelo://app?vid=af60c9c5-b629-4b2a-8490-84d84c87c358","ios":"levelo://app?vid=af60c9c5-b629-4b2a-8490-84d84c87c358"},"vehicle_type_id":"4","last_reported":1756141679,"current_range_meters":10800,"station_id":"ce4bhk92rcd13ifvqgc0","pricing_plan_id":"cebpf4jnsgd1na2vs0mg"},{"bike_id":"17aa945f-b134-49f4-921f-fabc785fd119","system_id":"levelo_inurba_marseille","lat":43.28141,"lon":5.4264,"is_reserved":false,"is_disabled":false,"rental_uris":{"android":"levelo://app?vid=17aa945f-b134-49f4-921f-fabc785fd119","ios":"levelo://app?vid=17aa945f-b134-49f4-921f-fabc785fd119"},"vehicle_type_id":"4","last_reported":1756141679,"current_range_meters":10800,"station_id":"ce4bhnh2rcd13ifvqgug","pricing_plan_id":"cebpf4jnsgd1na2vs0mg"},{"bike_id":"3f841bd6-7fab-4c08-a3b5-9956bb08235c","system_id":"levelo_inurba_marseille","lat":43.32103,"lon":5.36776,"is_reserved":false,"is_disabled":false,"rental_uris":{"android":"levelo://app?vid=3f841bd6-7fab-4c08-a3b5-9956bb08235c","ios":"levelo://app?vid=3f841bd6-7fab-4c08-a3b5-9956bb08235c"},"vehicle_type_id":"4","last_reported":1756141679,"current_range_meters":10800,"station_id":"ce4bhrh2rcd13ifvqhug","pricing_plan_id":"cebpf4jnsgd1na2vs0mg"},{"bike_id":"1f7a341f-59ff-46b5-b332-21e31289a125","system_id":"levelo_inurba_marseille","lat":43.2893,"lon":5.38396,"is_reserved":false,"is_disabled":false,"rental_uris":{"android":"levelo://app?vid=1f7a341f-59ff-46b5-b332-21e31289a125","ios":"levelo://app?vid=1f7a341f-59ff-46b5-b332-21e31289a125"},"vehicle_type_id":"4","last_reported":1756141679,"current_range_meters":11200,"station_id":"ce4bh612rcd13ifvqe6g","pricing_plan_id":"cebpf4jnsgd1na2vs0mg"},{"bike_id":"a8bcf0a4-c703-4bdd-8633-20267ef0bcef","system_id":"levelo_inurba_marseille","lat":43.279877,"lon":5.400108,"is_reserved":false,"is_disabled":false,"rental_uris":{"android":"levelo://app?vid=a8bcf0a4-c703-4bdd-8633-20267ef0bcef","ios":"levelo://app?vid=a8bcf0a4-c703-4bdd-8633-20267ef0bcef"},"vehicle_type_id":"4","last_reported":1756141679,"current_range_meters":11200,"station_id":"ce4bho92rcd13ifvqh4g","pricing_plan_id":"cebpf4jnsgd1na2vs0mg"},{"bike_id":"ea054efb-6435-4b1d-95d4-b10cd5cc3ec2","system_id":"levelo_inurba_marseille","lat":43.32358,"lon":5.36769,"is_reserved":false,"is_disabled":false,"rental_uris":{"android":"levelo://app?vid=ea054efb-6435-4b1d-95d4-b10cd5cc3ec2","ios":"levelo://app?vid=ea054efb-6435-4b1d-95d4-b10cd5cc3ec2"},"vehicle_type_id":"4","last_reported":1756141679,"current_range_meters":11200,"station_id":"ce4bhsh2rcd13ifvqi2g","pricing_plan_id":"cebpf4jnsgd1na2vs0mg"},{"bike_id":"08ef8d51-f7a2-4dc7-a73b-841fb9f542cb","system_id":"levelo_inurba_marseille","lat":43.28415,"lon":5.37497,"is_reserved":false,"is_disabled":false,"rental_uris":{"android":"levelo://app?vid=08ef8d51-f7a2-4dc7-a73b-841fb9f542cb","ios":"levelo://app?vid=08ef8d51-f7a2-4dc7-a73b-841fb9f542cb"},"vehicle_type_id":"4","last_reported":1756141679,"current_range_meters":11600,"station_id":"ce4bh412rcd13ifvqds0","pricing_plan_id":"cebpf4jnsgd1na2vs0mg"},{"bike_id":"ee575b6c-325e-4a37-ba0e-bf5e16e88497","system_id":"levelo_inurba_marseille","lat":43.24658,"lon":5.38162,"is_reserved":false,"is_disabled":false,"rental_uris":{"android":"levelo://app?vid=ee575b6c-325e-4a37-ba0e-bf5e16e88497","ios":"levelo://app?vid=ee575b6c-325e-4a37-ba0e-bf5e16e88497"},"vehicle_type_id":"4","last_reported":1756141679,"current_range_meters":11600,"station_id":"ce4bhih2rcd13ifvqfr0","pricing_plan_id":"cebpf4jnsgd1na2vs0mg"},{"bike_id":"2047b552-1d05-4771-bcab-6352abd74ed6","system_id":"levelo_inurba_marseille","lat":43.28698,"lon":5.39984,"is_reserved":false,"is_disabled":false,"rental_uris":{"android":"levelo://app?vid=2047b552-1d05-4771-bcab-6352abd74ed6","ios":"levelo://app?vid=2047b552-1d05-4771-bcab-6352abd74ed6"},"vehicle_type_id":"4","last_reported":1756141679,"current_range_meters":11600,"station_id":"ce4bho92rcd13ifvqh3g","pricing_plan_id":"cebpf4jnsgd1na2vs0mg"},{"bike_id":"2a76fc97-b7ef-4977-8c04-02171329796e","system_id":"levelo_inurba_marseille","lat":43.284668,"lon":5.39172,"is_reserved":false,"is_disabled":false,"rental_uris":{"android":"levelo://app?vid=2a76fc97-b7ef-4977-8c04-02171329796e","ios":"levelo://app?vid=2a76fc97-b7ef-4977-8c04-02171329796e"},"vehicle_type_id":"4","last_reported":1756141679,"current_range_meters":11600,"station_id":"ce4bhoh2rcd13ifvqh5g","pricing_plan_id":"cebpf4jnsgd1na2vs0mg"},{"bike_id":"26a0fffb-d908-498d-ab31-ca6fc30a28ee","system_id":"levelo_inurba_marseille","lat":43.29728,"lon":5.377144,"is_reserved":false,"is_disabled":false,"rental_uris":{"android":"levelo://app?vid=26a0fffb-d908-498d-ab31-ca6fc30a28ee","ios":"levelo://app?vid=26a0fffb-d908-498d-ab31-ca6fc30a28ee"},"vehicle_type_id":"4","last_reported":1756141679,"current_range_meters":12000,"station_id":"ce4bgkh2rcd13ifvqbl0","pricing_plan_id":"cebpf4jnsgd1na2vs0mg"},{"bike_id":"cfee7683-b5df-4106-bee8-5f45ec388bf0","system_id":"levelo_inurba_marseille","lat":43.31362,"lon":5.38491,"is_reserved":false,"is_disabled":false,"rental_uris":{"android":"levelo://app?vid=cfee7683-b5df-4106-bee8-5f45ec388bf0","ios":"levelo://app?vid=cfee7683-b5df-4106-bee8-5f45ec388bf0"},"vehicle_type_id":"4","last_reported":1756141679,"current_range_meters":12000,"station_id":"ce4bgt92rcd13ifvqcf0","pricing_plan_id":"cebpf4jnsgd1na2vs0mg"},{"bike_id":"a8f9662e-1358-4189-a382-7bf268396dae","system_id":"levelo_inurba_marseille","lat":43.273786,"lon":5.362567,"is_reserved":false,"is_disabled":false,"rental_uris":{"android":"levelo://app?vid=a8f9662e-1358-4189-a382-7bf268396dae","ios":"levelo://app?vid=a8f9662e-1358-4189-a382-7bf268396dae"},"vehicle_type_id":"4","last_reported":1756141679,"current_range_meters":12000,"station_id":"ce4bhbh2rcd13ifvqeo0","pricing_plan_id":"cebpf4jnsgd1na2vs0mg"},{"bike_id":"fc5baf79-349d-4bd6-96df-fb36c34a0f38","system_id":"levelo_inurba_marseille","lat":43.286155,"lon":5.350935,"is_reserved":false,"is_disabled":false,"rental_uris":{"android":"levelo://app?vid=fc5baf79-349d-4bd6-96df-fb36c34a0f38","ios":"levelo://app?vid=fc5baf79-349d-4bd6-96df-fb36c34a0f38"},"vehicle_type_id":"4","last_reported":1756141679,"current_range_meters":12000,"station_id":"ce4bhch2rcd13ifvqeug","pricing_plan_id":"cebpf4jnsgd1na2vs0mg"},{"bike_id":"984ebb3d-f632-4418-abde-a0cc86d4a95a","system_id":"levelo_inurba_marseille","lat":43.30349,"lon":5.41864,"is_reserved":false,"is_disabled":false,"rental_uris":{"android":"levelo://app?vid=984ebb3d-f632-4418-abde-a0cc86d4a95a","ios":"levelo://app?vid=984ebb3d-f632-4418-abde-a0cc86d4a95a"},"vehicle_type_id":"4","last_reported":1756141679,"current_range_meters":12000,"station_id":"ce4bhop2rcd13ifvqh7g","pricing_plan_id":"cebpf4jnsgd1na2vs0mg"},{"bike_id":"1cd21559-399f-4936-b4ac-cb1d7223c9c3","system_id":"levelo_inurba_marseille","lat":43.23988,"lon":5.36278,"is_reserved":false,"is_disabled":false,"rental_uris":{"android":"levelo://app?vid=1cd21559-399f-4936-b4ac-cb1d7223c9c3","ios":"levelo://app?vid=1cd21559-399f-4936-b4ac-cb1d7223c9c3"},"vehicle_type_id":"4","last_reported":1756141679,"current_range_meters":12400,"station_id":"","pricing_plan_id":"cebpf4jnsgd1na2vs0mg"},{"bike_id":"a5a9bab0-b56e-449f-900e-27de92b21a20","system_id":"levelo_inurba_marseille","lat":43.29001,"lon":5.35614,"is_reserved":false,"is_disabled":false,"rental_uris":{"android":"levelo://app?vid=a5a9bab0-b56e-449f-900e-27de92b21a20","ios":"levelo://app?vid=a5a9bab0-b56e-449f-900e-27de92b21a20"},"vehicle_type_id":"4","last_reported":1756141679,"current_range_meters":12400,"station_id":"ce4bhb92rcd13ifvqen0","pricing_plan_id":"cebpf4jnsgd1na2vs0mg"},{"bike_id":"689178bc-5c72-427e-9882-887899b3c3e0","system_id":"levelo_inurba_marseille","lat":43.28949,"lon":5.36399,"is_reserved":false,"is_disabled":false,"rental_uris":{"android":"levelo://app?vid=689178bc-5c72-427e-9882-887899b3c3e0","ios":"levelo://app?vid=689178bc-5c72-427e-9882-887899b3c3e0"},"vehicle_type_id":"4","last_reported":1756141679,"current_range_meters":12400,"station_id":"ce4bhc92rcd13ifvqetg","pricing_plan_id":"cebpf4jnsgd1na2vs0mg"},{"bike_id":"b0d6a657-c78e-47de-85ac-cbf4564acdcb","system_id":"levelo_inurba_marseille","lat":43.28157,"lon":5.42644,"is_reserved":false,"is_disabled":false,"rental_uris":{"android":"levelo://app?vid=b0d6a657-c78e-47de-85ac-cbf4564acdcb","ios":"levelo://app?vid=b0d6a657-c78e-47de-85ac-cbf4564acdcb"},"vehicle_type_id":"4","last_reported":1756141679,"current_range_meters":12400,"station_id":"ce4bhnh2rcd13ifvqgug","pricing_plan_id":"cebpf4jnsgd1na2vs0mg"},{"bike_id":"c4ebd341-5840-4053-b978-1bec739d0fcc","system_id":"levelo_inurba_marseille","lat":43.29006,"lon":5.35614,"is_reserved":false,"is_disabled":false,"rental_uris":{"android":"levelo://app?vid=c4ebd341-5840-4053-b978-1bec739d0fcc","ios":"levelo://app?vid=c4ebd341-5840-4053-b978-1bec739d0fcc"},"vehicle_type_id":"4","last_reported":1756141679,"current_range_meters":12800,"station_id":"ce4bhb92rcd13ifvqen0","pricing_plan_id":"cebpf4jnsgd1na2vs0mg"},{"bike_id":"37ee34ea-f1e1-4241-a19a-4060e53b71a9","system_id":"levelo_inurba_marseille","lat":43.27376,"lon":5.362287,"is_reserved":false,"is_disabled":false,"rental_uris":{"android":"levelo://app?vid=37ee34ea-f1e1-4241-a19a-4060e53b71a9","ios":"levelo://app?vid=37ee34ea-f1e1-4241-a19a-4060e53b71a9"},"vehicle_type_id":"4","last_reported":1756141679,"current_range_meters":12800,"station_id":"ce4bhbh2rcd13ifvqeo0","pricing_plan_id":"cebpf4jnsgd1na2vs0mg"},{"bike_id":"26155f7a-7897-4037-bde2-8ee77d7eae7d","system_id":"levelo_inurba_marseille","lat":43.27489,"lon":5.42456,"is_reserved":false,"is_disabled":false,"rental_uris":{"android":"levelo://app?vid=26155f7a-7897-4037-bde2-8ee77d7eae7d","ios":"levelo://app?vid=26155f7a-7897-4037-bde2-8ee77d7eae7d"},"vehicle_type_id":"4","last_reported":1756141679,"current_range_meters":12800,"station_id":"ce4bhn92rcd13ifvqgrg","pricing_plan_id":"cebpf4jnsgd1na2vs0mg"},{"bike_id":"a5aff412-9b35-4d5b-b2d6-ea29ae910d7f","system_id":"levelo_inurba_marseille","lat":43.321041,"lon":5.367699,"is_reserved":false,"is_disabled":false,"rental_uris":{"android":"levelo://app?vid=a5aff412-9b35-4d5b-b2d6-ea29ae910d7f","ios":"levelo://app?vid=a5aff412-9b35-4d5b-b2d6-ea29ae910d7f"},"vehicle_type_id":"4","last_reported":1756141679,"current_range_meters":12800,"station_id":"ce4bhrh2rcd13ifvqhug","pricing_plan_id":"cebpf4jnsgd1na2vs0mg"},{"bike_id":"d4010718-11ef-4ed8-81e5-7f496002b13a","system_id":"levelo_inurba_marseille","lat":43.25333,"lon":5.42173,"is_reserved":false,"is_disabled":false,"rental_uris":{"android":"levelo://app?vid=d4010718-11ef-4ed8-81e5-7f496002b13a","ios":"levelo://app?vid=d4010718-11ef-4ed8-81e5-7f496002b13a"},"vehicle_type_id":"4","last_reported":1756141679,"current_range_meters":12800,"station_id":"st_d2m65c5bi1j21697t3ng","pricing_plan_id":"cebpf4jnsgd1na2vs0mg"},{"bike_id":"3f4a45cc-e5bb-4b35-88d4-61431d4f60e6","system_id":"levelo_inurba_marseille","lat":43.32873,"lon":5.39076,"is_reserved":false,"is_disabled":false,"rental_uris":{"android":"levelo://app?vid=3f4a45cc-e5bb-4b35-88d4-61431d4f60e6","ios":"levelo://app?vid=3f4a45cc-e5bb-4b35-88d4-61431d4f60e6"},"vehicle_type_id":"4","last_reported":1756141679,"current_range_meters":13600,"station_id":"","pricing_plan_id":"cebpf4jnsgd1na2vs0mg"},{"bike_id":"fead74e8-e2a8-4c33-a8dc-dce201d9822d","system_id":"levelo_inurba_marseille","lat":43.28414,"lon":5.34985,"is_reserved":false,"is_disabled":false,"rental_uris":{"android":"levelo://app?vid=fead74e8-e2a8-4c33-a8dc-dce201d9822d","ios":"levelo://app?vid=fead74e8-e2a8-4c33-a8dc-dce201d9822d"},"vehicle_type_id":"4","last_reported":1756141679,"current_range_meters":13600,"station_id":"ce4bhbh2rcd13ifvqepg","pricing_plan_id":"cebpf4jnsgd1na2vs0mg"},{"bike_id":"5c774df4-48f6-416a-a699-5a85d5a58ff0","system_id":"levelo_inurba_marseille","lat":43.28266,"lon":5.3506,"is_reserved":false,"is_disabled":false,"rental_uris":{"android":"levelo://app?vid=5c774df4-48f6-416a-a699-5a85d5a58ff0","ios":"levelo://app?vid=5c774df4-48f6-416a-a699-5a85d5a58ff0"},"vehicle_type_id":"4","last_reported":1756141679,"current_range_meters":13600,"station_id":"ce4bhbp2rcd13ifvqerg","pricing_plan_id":"cebpf4jnsgd1na2vs0mg"},{"bike_id":"c523d3ad-3210-42e0-86f6-634f438b0597","system_id":"levelo_inurba_marseille","lat":43.28427,"lon":5.39184,"is_reserved":false,"is_disabled":false,"rental_uris":{"android":"levelo://app?vid=c523d3ad-3210-42e0-86f6-634f438b0597","ios":"levelo://app?vid=c523d3ad-3210-42e0-86f6-634f438b0597"},"vehicle_type_id":"4","last_reported":1756141679,"current_range_meters":13600,"station_id":"ce4bhoh2rcd13ifvqh5g","pricing_plan_id":"cebpf4jnsgd1na2vs0mg"},{"bike_id":"471eb35e-d3a4-476b-8b9d-c7e88b211592","system_id":"levelo_inurba_marseille","lat":43.25329,"lon":5.42172,"is_reserved":false,"is_disabled":false,"rental_uris":{"android":"levelo://app?vid=471eb35e-d3a4-476b-8b9d-c7e88b211592","ios":"levelo://app?vid=471eb35e-d3a4-476b-8b9d-c7e88b211592"},"vehicle_type_id":"4","last_reported":1756141679,"current_range_meters":13600,"station_id":"st_d2m65c5bi1j21697t3ng","pricing_plan_id":"cebpf4jnsgd1na2vs0mg"},{"bike_id":"40c9c5f4-78b6-472e-a252-d924482f3cd3","system_id":"levelo_inurba_marseille","lat":43.27371,"lon":5.36258,"is_reserved":false,"is_disabled":false,"rental_uris":{"android":"levelo://app?vid=40c9c5f4-78b6-472e-a252-d924482f3cd3","ios":"levelo://app?vid=40c9c5f4-78b6-472e-a252-d924482f3cd3"},"vehicle_type_id":"4","last_reported":1756141679,"current_range_meters":14000,"station_id":"ce4bhbh2rcd13ifvqeo0","pricing_plan_id":"cebpf4jnsgd1na2vs0mg"},{"bike_id":"13c636f8-adf7-4852-b867-d13887c4ed4d","system_id":"levelo_inurba_marseille","lat":43.2828,"lon":5.35052,"is_reserved":false,"is_disabled":false,"rental_uris":{"android":"levelo://app?vid=13c636f8-adf7-4852-b867-d13887c4ed4d","ios":"levelo://app?vid=13c636f8-adf7-4852-b867-d13887c4ed4d"},"vehicle_type_id":"4","last_reported":1756141679,"current_range_meters":14000,"station_id":"ce4bhbp2rcd13ifvqerg","pricing_plan_id":"cebpf4jnsgd1na2vs0mg"},{"bike_id":"f816297f-0b3e-41d5-b0d1-55b2a63cf329","system_id":"levelo_inurba_marseille","lat":43.24073,"lon":5.37761,"is_reserved":false,"is_disabled":false,"rental_uris":{"android":"levelo://app?vid=f816297f-0b3e-41d5-b0d1-55b2a63cf329","ios":"levelo://app?vid=f816297f-0b3e-41d5-b0d1-55b2a63cf329"},"vehicle_type_id":"4","last_reported":1756141679,"current_range_meters":14000,"station_id":"ce4bhnp2rcd13ifvqgvg","pricing_plan_id":"cebpf4jnsgd1na2vs0mg"},{"bike_id":"abe461d5-76a5-4385-b78f-65f4fa329638","system_id":"levelo_inurba_marseille","lat":43.29713,"lon":5.37695,"is_reserved":false,"is_disabled":false,"rental_uris":{"android":"levelo://app?vid=abe461d5-76a5-4385-b78f-65f4fa329638","ios":"levelo://app?vid=abe461d5-76a5-4385-b78f-65f4fa329638"},"vehicle_type_id":"4","last_reported":1756141679,"current_range_meters":14400,"station_id":"ce4bgkh2rcd13ifvqbl0","pricing_plan_id":"cebpf4jnsgd1na2vs0mg"},{"bike_id":"c0239905-a172-427a-9b55-54daa5653caf","system_id":"levelo_inurba_marseille","lat":43.23961,"lon":5.36631,"is_reserved":false,"is_disabled":false,"rental_uris":{"android":"levelo://app?vid=c0239905-a172-427a-9b55-54daa5653caf","ios":"levelo://app?vid=c0239905-a172-427a-9b55-54daa5653caf"},"vehicle_type_id":"4","last_reported":1756141679,"current_range_meters":14400,"station_id":"ce4bhi12rcd13ifvqfp0","pricing_plan_id":"cebpf4jnsgd1na2vs0mg"},{"bike_id":"d94a3e2d-afbd-4e20-9e99-a5beeae0f186","system_id":"levelo_inurba_marseille","lat":43.281485,"lon":5.426348,"is_reserved":false,"is_disabled":false,"rental_uris":{"android":"levelo://app?vid=d94a3e2d-afbd-4e20-9e99-a5beeae0f186","ios":"levelo://app?vid=d94a3e2d-afbd-4e20-9e99-a5beeae0f186"},"vehicle_type_id":"4","last_reported":1756141679,"current_range_meters":14400,"station_id":"ce4bhnh2rcd13ifvqgug","pricing_plan_id":"cebpf4jnsgd1na2vs0mg"},{"bike_id":"92a45870-467f-4ffc-9755-163e81bc6a58","system_id":"levelo_inurba_marseille","lat":43.29996,"lon":5.37098,"is_reserved":false,"is_disabled":false,"rental_uris":{"android":"levelo://app?vid=92a45870-467f-4ffc-9755-163e81bc6a58","ios":"levelo://app?vid=92a45870-467f-4ffc-9755-163e81bc6a58"},"vehicle_type_id":"4","last_reported":1756141679,"current_range_meters":14800,"station_id":"","pricing_plan_id":"cebpf4jnsgd1na2vs0mg"},{"bike_id":"b5a33be2-d4b6-4104-b702-eded1758ca70","system_id":"levelo_inurba_marseille","lat":43.30801,"lon":5.38159,"is_reserved":false,"is_disabled":false,"rental_uris":{"android":"levelo://app?vid=b5a33be2-d4b6-4104-b702-eded1758ca70","ios":"levelo://app?vid=b5a33be2-d4b6-4104-b702-eded1758ca70"},"vehicle_type_id":"4","last_reported":1756141679,"current_range_meters":14800,"station_id":"ce4bgt12rcd13ifvqce0","pricing_plan_id":"cebpf4jnsgd1na2vs0mg"},{"bike_id":"98f19918-e980-4295-9b24-d90a1fb46078","system_id":"levelo_inurba_marseille","lat":43.28716,"lon":5.37944,"is_reserved":false,"is_disabled":false,"rental_uris":{"android":"levelo://app?vid=98f19918-e980-4295-9b24-d90a1fb46078","ios":"levelo://app?vid=98f19918-e980-4295-9b24-d90a1fb46078"},"vehicle_type_id":"4","last_reported":1756141679,"current_range_meters":14800,"station_id":"ce4bh9p2rcd13ifvqec0","pricing_plan_id":"cebpf4jnsgd1na2vs0mg"},{"bike_id":"5d394d6c-2c89-4d43-bfb3-572d057372ea","system_id":"levelo_inurba_marseille","lat":43.28535,"lon":5.37074,"is_reserved":false,"is_disabled":false,"rental_uris":{"android":"levelo://app?vid=5d394d6c-2c89-4d43-bfb3-572d057372ea","ios":"levelo://app?vid=5d394d6c-2c89-4d43-bfb3-572d057372ea"},"vehicle_type_id":"4","last_reported":1756141679,"current_range_meters":14800,"station_id":"ce4bht12rcd13ifvqi60","pricing_plan_id":"cebpf4jnsgd1na2vs0mg"},{"bike_id":"78c01866-7c31-4b0c-93fb-94177f5e298a","system_id":"levelo_inurba_marseille","lat":43.22927,"lon":5.35372,"is_reserved":false,"is_disabled":false,"rental_uris":{"android":"levelo://app?vid=78c01866-7c31-4b0c-93fb-94177f5e298a","ios":"levelo://app?vid=78c01866-7c31-4b0c-93fb-94177f5e298a"},"vehicle_type_id":"4","last_reported":1756141679,"current_range_meters":14800,"station_id":"cpo3532slgdg3j2ikp40","pricing_plan_id":"cebpf4jnsgd1na2vs0mg"},{"bike_id":"dc698841-94b1-4bf8-b86f-e6df9577e105","system_id":"levelo_inurba_marseille","lat":43.29055,"lon":5.35911,"is_reserved":false,"is_disabled":false,"rental_uris":{"android":"levelo://app?vid=dc698841-94b1-4bf8-b86f-e6df9577e105","ios":"levelo://app?vid=dc698841-94b1-4bf8-b86f-e6df9577e105"},"vehicle_type_id":"4","last_reported":1756141679,"current_range_meters":15200,"station_id":"ce4bha92rcd13ifvqeg0","pricing_plan_id":"cebpf4jnsgd1na2vs0mg"},{"bike_id":"f7415ccc-ecf1-4d2a-9e22-8f039de4b6f2","system_id":"levelo_inurba_marseille","lat":43.31722,"lon":5.42395,"is_reserved":false,"is_disabled":false,"rental_uris":{"android":"levelo://app?vid=f7415ccc-ecf1-4d2a-9e22-8f039de4b6f2","ios":"levelo://app?vid=f7415ccc-ecf1-4d2a-9e22-8f039de4b6f2"},"vehicle_type_id":"4","last_reported":1756141679,"current_range_meters":15200,"station_id":"ce4bhp92rcd13ifvqhbg","pricing_plan_id":"cebpf4jnsgd1na2vs0mg"},{"bike_id":"dc966711-a8a0-4884-a2c4-f00eb61127f6","system_id":"levelo_inurba_marseille","lat":43.27808,"lon":5.4071,"is_reserved":false,"is_disabled":true,"rental_uris":{"android":"levelo://app?vid=dc966711-a8a0-4884-a2c4-f00eb61127f6","ios":"levelo://app?vid=dc966711-a8a0-4884-a2c4-f00eb61127f6"},"vehicle_type_id":"4","last_reported":1756141679,"current_range_meters":16000,"station_id":"","pricing_plan_id":"cebpf4jnsgd1na2vs0mg"},{"bike_id":"b781a5a0-6633-425e-89d0-234145a32713","system_id":"levelo_inurba_marseille","lat":43.2959,"lon":5.3811,"is_reserved":false,"is_disabled":false,"rental_uris":{"android":"levelo://app?vid=b781a5a0-6633-425e-89d0-234145a32713","ios":"levelo://app?vid=b781a5a0-6633-425e-89d0-234145a32713"},"vehicle_type_id":"4","last_reported":1756141679,"current_range_meters":16000,"station_id":"ce4bgl12rcd13ifvqbo0","pricing_plan_id":"cebpf4jnsgd1na2vs0mg"},{"bike_id":"b4fe2050-e494-44bf-b4cb-57c30dff354d","system_id":"levelo_inurba_marseille","lat":43.29102,"lon":5.38139,"is_reserved":false,"is_disabled":false,"rental_uris":{"android":"levelo://app?vid=b4fe2050-e494-44bf-b4cb-57c30dff354d","ios":"levelo://app?vid=b4fe2050-e494-44bf-b4cb-57c30dff354d"},"vehicle_type_id":"4","last_reported":1756141679,"current_range_meters":16000,"station_id":"ce4bh512rcd13ifvqe2g","pricing_plan_id":"cebpf4jnsgd1na2vs0mg"},{"bike_id":"fd8b4079-b1d5-4ca3-bcf3-7ac6544e6030","system_id":"levelo_inurba_marseille","lat":43.29261,"lon":5.38438,"is_reserved":false,"is_disabled":false,"rental_uris":{"android":"levelo://app?vid=fd8b4079-b1d5-4ca3-bcf3-7ac6544e6030","ios":"levelo://app?vid=fd8b4079-b1d5-4ca3-bcf3-7ac6544e6030"},"vehicle_type_id":"4","last_reported":1756141679,"current_range_meters":16000,"station_id":"ce4bh692rcd13ifvqea0","pricing_plan_id":"cebpf4jnsgd1na2vs0mg"},{"bike_id":"36e312ac-c41c-4f51-95ea-96bc96ff31c9","system_id":"levelo_inurba_marseille","lat":43.29005,"lon":5.35613,"is_reserved":false,"is_disabled":false,"rental_uris":{"android":"levelo://app?vid=36e312ac-c41c-4f51-95ea-96bc96ff31c9","ios":"levelo://app?vid=36e312ac-c41c-4f51-95ea-96bc96ff31c9"},"vehicle_type_id":"4","last_reported":1756141679,"current_range_meters":16000,"station_id":"ce4bhb92rcd13ifvqen0","pricing_plan_id":"cebpf4jnsgd1na2vs0mg"},{"bike_id":"37f619a5-413d-47d5-8625-464a4d368c4d","system_id":"levelo_inurba_marseille","lat":43.28272,"lon":5.35067,"is_reserved":false,"is_disabled":false,"rental_uris":{"android":"levelo://app?vid=37f619a5-413d-47d5-8625-464a4d368c4d","ios":"levelo://app?vid=37f619a5-413d-47d5-8625-464a4d368c4d"},"vehicle_type_id":"4","last_reported":1756141679,"current_range_meters":16000,"station_id":"ce4bhbp2rcd13ifvqerg","pricing_plan_id":"cebpf4jnsgd1na2vs0mg"},{"bike_id":"af29fd01-e7a0-4275-87bb-7302cdf2f937","system_id":"levelo_inurba_marseille","lat":43.24995,"lon":5.38916,"is_reserved":false,"is_disabled":false,"rental_uris":{"android":"levelo://app?vid=af29fd01-e7a0-4275-87bb-7302cdf2f937","ios":"levelo://app?vid=af29fd01-e7a0-4275-87bb-7302cdf2f937"},"vehicle_type_id":"4","last_reported":1756141679,"current_range_meters":16000,"station_id":"ce4bhgp2rcd13ifvqfd0","pricing_plan_id":"cebpf4jnsgd1na2vs0mg"},{"bike_id":"0eaf3235-920b-4dd0-95c9-cf4f66291747","system_id":"levelo_inurba_marseille","lat":43.2532,"lon":5.4219,"is_reserved":false,"is_disabled":false,"rental_uris":{"android":"levelo://app?vid=0eaf3235-920b-4dd0-95c9-cf4f66291747","ios":"levelo://app?vid=0eaf3235-920b-4dd0-95c9-cf4f66291747"},"vehicle_type_id":"4","last_reported":1756141679,"current_range_meters":16000,"station_id":"st_d2m65c5bi1j21697t3ng","pricing_plan_id":"cebpf4jnsgd1na2vs0mg"},{"bike_id":"7b43efcb-8762-4c7d-8e32-a6fa51130619","system_id":"levelo_inurba_marseille","lat":43.28492,"lon":5.376385,"is_reserved":false,"is_disabled":false,"rental_uris":{"android":"levelo://app?vid=7b43efcb-8762-4c7d-8e32-a6fa51130619","ios":"levelo://app?vid=7b43efcb-8762-4c7d-8e32-a6fa51130619"},"vehicle_type_id":"4","last_reported":1756141679,"current_range_meters":16400,"station_id":"","pricing_plan_id":"cebpf4jnsgd1na2vs0mg"},{"bike_id":"dc0d29ba-50be-4df3-b7e2-e49be6d4bdd1","system_id":"levelo_inurba_marseille","lat":43.28353,"lon":5.38101,"is_reserved":false,"is_disabled":false,"rental_uris":{"android":"levelo://app?vid=dc0d29ba-50be-4df3-b7e2-e49be6d4bdd1","ios":"levelo://app?vid=dc0d29ba-50be-4df3-b7e2-e49be6d4bdd1"},"vehicle_type_id":"4","last_reported":1756141679,"current_range_meters":16400,"station_id":"ce4bh412rcd13ifvqdr0","pricing_plan_id":"cebpf4jnsgd1na2vs0mg"},{"bike_id":"bd0d83d8-9b89-4b81-8b93-4f423ddcec2c","system_id":"levelo_inurba_marseille","lat":43.28401,"lon":5.37519,"is_reserved":false,"is_disabled":false,"rental_uris":{"android":"levelo://app?vid=bd0d83d8-9b89-4b81-8b93-4f423ddcec2c","ios":"levelo://app?vid=bd0d83d8-9b89-4b81-8b93-4f423ddcec2c"},"vehicle_type_id":"4","last_reported":1756141679,"current_range_meters":16400,"station_id":"ce4bh412rcd13ifvqds0","pricing_plan_id":"cebpf4jnsgd1na2vs0mg"},{"bike_id":"5cf3c921-338f-4162-a7b8-3b6e550b791e","system_id":"levelo_inurba_marseille","lat":43.27374,"lon":5.36257,"is_reserved":false,"is_disabled":false,"rental_uris":{"android":"levelo://app?vid=5cf3c921-338f-4162-a7b8-3b6e550b791e","ios":"levelo://app?vid=5cf3c921-338f-4162-a7b8-3b6e550b791e"},"vehicle_type_id":"4","last_reported":1756141679,"current_range_meters":16400,"station_id":"ce4bhbh2rcd13ifvqeo0","pricing_plan_id":"cebpf4jnsgd1na2vs0mg"},{"bike_id":"eb44e6bd-db07-434a-9bcf-269ab2ca6b8f","system_id":"levelo_inurba_marseille","lat":43.28071,"lon":5.39661,"is_reserved":false,"is_disabled":false,"rental_uris":{"android":"levelo://app?vid=eb44e6bd-db07-434a-9bcf-269ab2ca6b8f","ios":"levelo://app?vid=eb44e6bd-db07-434a-9bcf-269ab2ca6b8f"},"vehicle_type_id":"4","last_reported":1756141679,"current_range_meters":16400,"station_id":"ce4bho12rcd13ifvqh2g","pricing_plan_id":"cebpf4jnsgd1na2vs0mg"},{"bike_id":"f4044733-900c-40f8-869a-839b0dbe5aba","system_id":"levelo_inurba_marseille","lat":43.32367,"lon":5.38878,"is_reserved":false,"is_disabled":false,"rental_uris":{"android":"levelo://app?vid=f4044733-900c-40f8-869a-839b0dbe5aba","ios":"levelo://app?vid=f4044733-900c-40f8-869a-839b0dbe5aba"},"vehicle_type_id":"4","last_reported":1756141679,"current_range_meters":16400,"station_id":"ce4bhqp2rcd13ifvqhog","pricing_plan_id":"cebpf4jnsgd1na2vs0mg"},{"bike_id":"b0170a75-f823-42a2-b9cb-d41486c907bb","system_id":"levelo_inurba_marseille","lat":43.32356,"lon":5.36757,"is_reserved":false,"is_disabled":false,"rental_uris":{"android":"levelo://app?vid=b0170a75-f823-42a2-b9cb-d41486c907bb","ios":"levelo://app?vid=b0170a75-f823-42a2-b9cb-d41486c907bb"},"vehicle_type_id":"4","last_reported":1756141679,"current_range_meters":16400,"station_id":"ce4bhsh2rcd13ifvqi2g","pricing_plan_id":"cebpf4jnsgd1na2vs0mg"},{"bike_id":"758b2606-6f80-4b27-b596-019d40336b10","system_id":"levelo_inurba_marseille","lat":43.29785,"lon":5.39349,"is_reserved":false,"is_disabled":false,"rental_uris":{"android":"levelo://app?vid=758b2606-6f80-4b27-b596-019d40336b10","ios":"levelo://app?vid=758b2606-6f80-4b27-b596-019d40336b10"},"vehicle_type_id":"4","last_reported":1756141679,"current_range_meters":16400,"station_id":"chh1huq6cuj3fo74tm60","pricing_plan_id":"cebpf4jnsgd1na2vs0mg"},{"bike_id":"7612c145-8535-4ccf-96ee-de62f40b9550","system_id":"levelo_inurba_marseille","lat":43.3246,"lon":5.38952,"is_reserved":false,"is_disabled":false,"rental_uris":{"android":"levelo://app?vid=7612c145-8535-4ccf-96ee-de62f40b9550","ios":"levelo://app?vid=7612c145-8535-4ccf-96ee-de62f40b9550"},"vehicle_type_id":"4","last_reported":1756141679,"current_range_meters":16800,"station_id":"","pricing_plan_id":"cebpf4jnsgd1na2vs0mg"},{"bike_id":"3e130ff4-87da-4c51-a264-44d1f277fd66","system_id":"levelo_inurba_marseille","lat":43.32146,"lon":5.36733,"is_reserved":false,"is_disabled":false,"rental_uris":{"android":"levelo://app?vid=3e130ff4-87da-4c51-a264-44d1f277fd66","ios":"levelo://app?vid=3e130ff4-87da-4c51-a264-44d1f277fd66"},"vehicle_type_id":"4","last_reported":1756141679,"current_range_meters":16800,"station_id":"","pricing_plan_id":"cebpf4jnsgd1na2vs0mg"},{"bike_id":"51efb5e2-f222-4d86-8075-b14151bb72c3","system_id":"levelo_inurba_marseille","lat":43.28469,"lon":5.38417,"is_reserved":false,"is_disabled":false,"rental_uris":{"android":"levelo://app?vid=51efb5e2-f222-4d86-8075-b14151bb72c3","ios":"levelo://app?vid=51efb5e2-f222-4d86-8075-b14151bb72c3"},"vehicle_type_id":"4","last_reported":1756141679,"current_range_meters":16800,"station_id":"ce4bh512rcd13ifvqe3g","pricing_plan_id":"cebpf4jnsgd1na2vs0mg"},{"bike_id":"578212a3-becf-4c51-8e87-70247603c465","system_id":"levelo_inurba_marseille","lat":43.26197,"lon":5.37929,"is_reserved":false,"is_disabled":false,"rental_uris":{"android":"levelo://app?vid=578212a3-becf-4c51-8e87-70247603c465","ios":"levelo://app?vid=578212a3-becf-4c51-8e87-70247603c465"},"vehicle_type_id":"4","last_reported":1756141679,"current_range_meters":16800,"station_id":"ce4bhjp2rcd13ifvqg90","pricing_plan_id":"cebpf4jnsgd1na2vs0mg"},{"bike_id":"0d502687-08ef-4491-8893-8a03d8688be8","system_id":"levelo_inurba_marseille","lat":43.2959,"lon":5.36154,"is_reserved":false,"is_disabled":false,"rental_uris":{"android":"levelo://app?vid=0d502687-08ef-4491-8893-8a03d8688be8","ios":"levelo://app?vid=0d502687-08ef-4491-8893-8a03d8688be8"},"vehicle_type_id":"4","last_reported":1756141679,"current_range_meters":17200,"station_id":"","pricing_plan_id":"cebpf4jnsgd1na2vs0mg"},{"bike_id":"f1035520-5392-4b37-9a5a-7beaceac9142","system_id":"levelo_inurba_marseille","lat":43.295278,"lon":5.3854,"is_reserved":false,"is_disabled":false,"rental_uris":{"android":"levelo://app?vid=f1035520-5392-4b37-9a5a-7beaceac9142","ios":"levelo://app?vid=f1035520-5392-4b37-9a5a-7beaceac9142"},"vehicle_type_id":"4","last_reported":1756141679,"current_range_meters":17200,"station_id":"ce4bgih2rcd13ifvqba0","pricing_plan_id":"cebpf4jnsgd1na2vs0mg"},{"bike_id":"ce111f5f-d8c1-48ba-9bfd-4aa20b398c76","system_id":"levelo_inurba_marseille","lat":43.2919,"lon":5.39332,"is_reserved":false,"is_disabled":false,"rental_uris":{"android":"levelo://app?vid=ce111f5f-d8c1-48ba-9bfd-4aa20b398c76","ios":"levelo://app?vid=ce111f5f-d8c1-48ba-9bfd-4aa20b398c76"},"vehicle_type_id":"4","last_reported":1756141679,"current_range_meters":17200,"station_id":"ce4bh192rcd13ifvqdd0","pricing_plan_id":"cebpf4jnsgd1na2vs0mg"},{"bike_id":"3227734b-d732-458e-b0bf-0fe87d2d0068","system_id":"levelo_inurba_marseille","lat":43.29001,"lon":5.35624,"is_reserved":false,"is_disabled":false,"rental_uris":{"android":"levelo://app?vid=3227734b-d732-458e-b0bf-0fe87d2d0068","ios":"levelo://app?vid=3227734b-d732-458e-b0bf-0fe87d2d0068"},"vehicle_type_id":"4","last_reported":1756141679,"current_range_meters":17200,"station_id":"ce4bhb92rcd13ifvqen0","pricing_plan_id":"cebpf4jnsgd1na2vs0mg"},{"bike_id":"690e1022-dab2-4afb-80d9-f57b436fb7e5","system_id":"levelo_inurba_marseille","lat":43.28272,"lon":5.35066,"is_reserved":false,"is_disabled":false,"rental_uris":{"android":"levelo://app?vid=690e1022-dab2-4afb-80d9-f57b436fb7e5","ios":"levelo://app?vid=690e1022-dab2-4afb-80d9-f57b436fb7e5"},"vehicle_type_id":"4","last_reported":1756141679,"current_range_meters":17200,"station_id":"ce4bhbp2rcd13ifvqerg","pricing_plan_id":"cebpf4jnsgd1na2vs0mg"},{"bike_id":"ada7d4a4-293b-431a-9ecc-7e0f58cccb73","system_id":"levelo_inurba_marseille","lat":43.280851,"lon":5.396763,"is_reserved":false,"is_disabled":false,"rental_uris":{"android":"levelo://app?vid=ada7d4a4-293b-431a-9ecc-7e0f58cccb73","ios":"levelo://app?vid=ada7d4a4-293b-431a-9ecc-7e0f58cccb73"},"vehicle_type_id":"4","last_reported":1756141679,"current_range_meters":17200,"station_id":"ce4bho12rcd13ifvqh2g","pricing_plan_id":"cebpf4jnsgd1na2vs0mg"},{"bike_id":"67d3b986-6b66-4455-9a76-86c29d99a5f4","system_id":"levelo_inurba_marseille","lat":43.33013,"lon":5.39019,"is_reserved":false,"is_disabled":false,"rental_uris":{"android":"levelo://app?vid=67d3b986-6b66-4455-9a76-86c29d99a5f4","ios":"levelo://app?vid=67d3b986-6b66-4455-9a76-86c29d99a5f4"},"vehicle_type_id":"4","last_reported":1756141679,"current_range_meters":17200,"station_id":"ce4bhr92rcd13ifvqhrg","pricing_plan_id":"cebpf4jnsgd1na2vs0mg"},{"bike_id":"db7d3d83-f39a-4469-8445-29697e69fec4","system_id":"levelo_inurba_marseille","lat":43.33036,"lon":5.39033,"is_reserved":false,"is_disabled":false,"rental_uris":{"android":"levelo://app?vid=db7d3d83-f39a-4469-8445-29697e69fec4","ios":"levelo://app?vid=db7d3d83-f39a-4469-8445-29697e69fec4"},"vehicle_type_id":"4","last_reported":1756141679,"current_range_meters":17200,"station_id":"ce4bhr92rcd13ifvqhrg","pricing_plan_id":"cebpf4jnsgd1na2vs0mg"},{"bike_id":"1fc6a842-584b-4273-b695-1d23f7295490","system_id":"levelo_inurba_marseille","lat":43.28265,"lon":5.35064,"is_reserved":false,"is_disabled":false,"rental_uris":{"android":"levelo://app?vid=1fc6a842-584b-4273-b695-1d23f7295490","ios":"levelo://app?vid=1fc6a842-584b-4273-b695-1d23f7295490"},"vehicle_type_id":"4","last_reported":1756141679,"current_range_meters":17600,"station_id":"ce4bhbp2rcd13ifvqerg","pricing_plan_id":"cebpf4jnsgd1na2vs0mg"},{"bike_id":"6860eb4f-cc2e-4bbf-9a58-fad78b110012","system_id":"levelo_inurba_marseille","lat":43.260307,"lon":5.37549,"is_reserved":false,"is_disabled":false,"rental_uris":{"android":"levelo://app?vid=6860eb4f-cc2e-4bbf-9a58-fad78b110012","ios":"levelo://app?vid=6860eb4f-cc2e-4bbf-9a58-fad78b110012"},"vehicle_type_id":"4","last_reported":1756141679,"current_range_meters":17600,"station_id":"ce4bhgh2rcd13ifvqfa0","pricing_plan_id":"cebpf4jnsgd1na2vs0mg"},{"bike_id":"a9776c9f-0824-4d48-a880-07fe68cdca7f","system_id":"levelo_inurba_marseille","lat":43.25489,"lon":5.37646,"is_reserved":false,"is_disabled":false,"rental_uris":{"android":"levelo://app?vid=a9776c9f-0824-4d48-a880-07fe68cdca7f","ios":"levelo://app?vid=a9776c9f-0824-4d48-a880-07fe68cdca7f"},"vehicle_type_id":"4","last_reported":1756141679,"current_range_meters":17600,"station_id":"ce4bhh12rcd13ifvqff0","pricing_plan_id":"cebpf4jnsgd1na2vs0mg"},{"bike_id":"50080086-5ad6-41c2-b993-d4f4d5e2439a","system_id":"levelo_inurba_marseille","lat":43.33022,"lon":5.39038,"is_reserved":false,"is_disabled":false,"rental_uris":{"android":"levelo://app?vid=50080086-5ad6-41c2-b993-d4f4d5e2439a","ios":"levelo://app?vid=50080086-5ad6-41c2-b993-d4f4d5e2439a"},"vehicle_type_id":"4","last_reported":1756141679,"current_range_meters":17600,"station_id":"ce4bhr92rcd13ifvqhrg","pricing_plan_id":"cebpf4jnsgd1na2vs0mg"},{"bike_id":"2198d534-1e4e-4e7b-b2b3-d1e3dccee066","system_id":"levelo_inurba_marseille","lat":43.32099,"lon":5.36783,"is_reserved":false,"is_disabled":false,"rental_uris":{"android":"levelo://app?vid=2198d534-1e4e-4e7b-b2b3-d1e3dccee066","ios":"levelo://app?vid=2198d534-1e4e-4e7b-b2b3-d1e3dccee066"},"vehicle_type_id":"4","last_reported":1756141679,"current_range_meters":17600,"station_id":"ce4bhrh2rcd13ifvqhug","pricing_plan_id":"cebpf4jnsgd1na2vs0mg"},{"bike_id":"deefcf54-7fc7-488d-8537-533557311899","system_id":"levelo_inurba_marseille","lat":43.28464,"lon":5.35882,"is_reserved":false,"is_disabled":false,"rental_uris":{"android":"levelo://app?vid=deefcf54-7fc7-488d-8537-533557311899","ios":"levelo://app?vid=deefcf54-7fc7-488d-8537-533557311899"},"vehicle_type_id":"4","last_reported":1756141679,"current_range_meters":18000,"station_id":"ce4bhah2rcd13ifvqei0","pricing_plan_id":"cebpf4jnsgd1na2vs0mg"},{"bike_id":"049d4ac2-e6c6-47c3-9dfd-13d5a5a55eee","system_id":"levelo_inurba_marseille","lat":43.28276,"lon":5.35071,"is_reserved":false,"is_disabled":false,"rental_uris":{"android":"levelo://app?vid=049d4ac2-e6c6-47c3-9dfd-13d5a5a55eee","ios":"levelo://app?vid=049d4ac2-e6c6-47c3-9dfd-13d5a5a55eee"},"vehicle_type_id":"4","last_reported":1756141679,"current_range_meters":18000,"station_id":"ce4bhbp2rcd13ifvqerg","pricing_plan_id":"cebpf4jnsgd1na2vs0mg"},{"bike_id":"7d454a8f-540e-4616-95d9-6a04449dd37c","system_id":"levelo_inurba_marseille","lat":43.28618,"lon":5.35095,"is_reserved":false,"is_disabled":false,"rental_uris":{"android":"levelo://app?vid=7d454a8f-540e-4616-95d9-6a04449dd37c","ios":"levelo://app?vid=7d454a8f-540e-4616-95d9-6a04449dd37c"},"vehicle_type_id":"4","last_reported":1756141679,"current_range_meters":18000,"station_id":"ce4bhch2rcd13ifvqeug","pricing_plan_id":"cebpf4jnsgd1na2vs0mg"},{"bike_id":"65321ecd-74ed-4235-a9fc-1d3106ee4328","system_id":"levelo_inurba_marseille","lat":43.27668,"lon":5.38885,"is_reserved":false,"is_disabled":false,"rental_uris":{"android":"levelo://app?vid=65321ecd-74ed-4235-a9fc-1d3106ee4328","ios":"levelo://app?vid=65321ecd-74ed-4235-a9fc-1d3106ee4328"},"vehicle_type_id":"4","last_reported":1756141679,"current_range_meters":18000,"station_id":"ce4bhi12rcd13ifvqfo0","pricing_plan_id":"cebpf4jnsgd1na2vs0mg"},{"bike_id":"5404df05-f89a-47ce-87b4-5707fb9e22c5","system_id":"levelo_inurba_marseille","lat":43.23183,"lon":5.3999,"is_reserved":false,"is_disabled":false,"rental_uris":{"android":"levelo://app?vid=5404df05-f89a-47ce-87b4-5707fb9e22c5","ios":"levelo://app?vid=5404df05-f89a-47ce-87b4-5707fb9e22c5"},"vehicle_type_id":"4","last_reported":1756141679,"current_range_meters":18000,"station_id":"ce4bhn12rcd13ifvqgqg","pricing_plan_id":"cebpf4jnsgd1na2vs0mg"},{"bike_id":"f1f3e28f-1189-4c74-949d-ecfea5c51c3b","system_id":"levelo_inurba_marseille","lat":43.28154,"lon":5.42642,"is_reserved":false,"is_disabled":false,"rental_uris":{"android":"levelo://app?vid=f1f3e28f-1189-4c74-949d-ecfea5c51c3b","ios":"levelo://app?vid=f1f3e28f-1189-4c74-949d-ecfea5c51c3b"},"vehicle_type_id":"4","last_reported":1756141679,"current_range_meters":18000,"station_id":"ce4bhnh2rcd13ifvqgug","pricing_plan_id":"cebpf4jnsgd1na2vs0mg"},{"bike_id":"c894410b-d5f9-487c-b8a3-0c5b2964b4e4","system_id":"levelo_inurba_marseille","lat":43.32338,"lon":5.40624,"is_reserved":false,"is_disabled":false,"rental_uris":{"android":"levelo://app?vid=c894410b-d5f9-487c-b8a3-0c5b2964b4e4","ios":"levelo://app?vid=c894410b-d5f9-487c-b8a3-0c5b2964b4e4"},"vehicle_type_id":"4","last_reported":1756141679,"current_range_meters":18000,"station_id":"ce4bhq92rcd13ifvqhjg","pricing_plan_id":"cebpf4jnsgd1na2vs0mg"},{"bike_id":"c8adb204-cad8-4330-8b9d-0c43a05ee06d","system_id":"levelo_inurba_marseille","lat":43.32341,"lon":5.38877,"is_reserved":false,"is_disabled":false,"rental_uris":{"android":"levelo://app?vid=c8adb204-cad8-4330-8b9d-0c43a05ee06d","ios":"levelo://app?vid=c8adb204-cad8-4330-8b9d-0c43a05ee06d"},"vehicle_type_id":"4","last_reported":1756141679,"current_range_meters":18000,"station_id":"ce4bhqp2rcd13ifvqhog","pricing_plan_id":"cebpf4jnsgd1na2vs0mg"},{"bike_id":"71f2187f-7c06-4afd-b6d4-5f58c2f8533e","system_id":"levelo_inurba_marseille","lat":43.296636,"lon":5.377023,"is_reserved":false,"is_disabled":false,"rental_uris":{"android":"levelo://app?vid=71f2187f-7c06-4afd-b6d4-5f58c2f8533e","ios":"levelo://app?vid=71f2187f-7c06-4afd-b6d4-5f58c2f8533e"},"vehicle_type_id":"4","last_reported":1756141679,"current_range_meters":18800,"station_id":"ce4bgi92rcd13ifvqb90","pricing_plan_id":"cebpf4jnsgd1na2vs0mg"},{"bike_id":"4bb944f4-9ce0-4f76-aede-6dbc3f5882cd","system_id":"levelo_inurba_marseille","lat":43.29909,"lon":5.38145,"is_reserved":false,"is_disabled":false,"rental_uris":{"android":"levelo://app?vid=4bb944f4-9ce0-4f76-aede-6dbc3f5882cd","ios":"levelo://app?vid=4bb944f4-9ce0-4f76-aede-6dbc3f5882cd"},"vehicle_type_id":"4","last_reported":1756141679,"current_range_meters":18800,"station_id":"ce4bgj12rcd13ifvqbc0","pricing_plan_id":"cebpf4jnsgd1na2vs0mg"},{"bike_id":"f350ddf3-5fa9-4d93-8d38-a8e2008f80e8","system_id":"levelo_inurba_marseille","lat":43.30936,"lon":5.40144,"is_reserved":false,"is_disabled":false,"rental_uris":{"android":"levelo://app?vid=f350ddf3-5fa9-4d93-8d38-a8e2008f80e8","ios":"levelo://app?vid=f350ddf3-5fa9-4d93-8d38-a8e2008f80e8"},"vehicle_type_id":"4","last_reported":1756141679,"current_range_meters":18800,"station_id":"ce4bgvp2rcd13ifvqct0","pricing_plan_id":"cebpf4jnsgd1na2vs0mg"},{"bike_id":"c545f609-8674-45fd-b3b3-e0fe770958d3","system_id":"levelo_inurba_marseille","lat":43.29564,"lon":5.39965,"is_reserved":false,"is_disabled":false,"rental_uris":{"android":"levelo://app?vid=c545f609-8674-45fd-b3b3-e0fe770958d3","ios":"levelo://app?vid=c545f609-8674-45fd-b3b3-e0fe770958d3"},"vehicle_type_id":"4","last_reported":1756141679,"current_range_meters":18800,"station_id":"ce4bh312rcd13ifvqdj0","pricing_plan_id":"cebpf4jnsgd1na2vs0mg"},{"bike_id":"f49ae45f-c85b-4330-ab40-fc25326de61f","system_id":"levelo_inurba_marseille","lat":43.24174,"lon":5.39723,"is_reserved":false,"is_disabled":false,"rental_uris":{"android":"levelo://app?vid=f49ae45f-c85b-4330-ab40-fc25326de61f","ios":"levelo://app?vid=f49ae45f-c85b-4330-ab40-fc25326de61f"},"vehicle_type_id":"4","last_reported":1756141679,"current_range_meters":18800,"station_id":"ce4bhn12rcd13ifvqgpg","pricing_plan_id":"cebpf4jnsgd1na2vs0mg"},{"bike_id":"1c889b09-8cad-434d-bfd5-5f7e6198ad13","system_id":"levelo_inurba_marseille","lat":43.23168,"lon":5.39978,"is_reserved":false,"is_disabled":false,"rental_uris":{"android":"levelo://app?vid=1c889b09-8cad-434d-bfd5-5f7e6198ad13","ios":"levelo://app?vid=1c889b09-8cad-434d-bfd5-5f7e6198ad13"},"vehicle_type_id":"4","last_reported":1756141679,"current_range_meters":18800,"station_id":"ce4bhn12rcd13ifvqgqg","pricing_plan_id":"cebpf4jnsgd1na2vs0mg"},{"bike_id":"90106b61-39ba-4550-9728-cd6a51353a17","system_id":"levelo_inurba_marseille","lat":43.211826,"lon":5.350823,"is_reserved":false,"is_disabled":false,"rental_uris":{"android":"levelo://app?vid=90106b61-39ba-4550-9728-cd6a51353a17","ios":"levelo://app?vid=90106b61-39ba-4550-9728-cd6a51353a17"},"vehicle_type_id":"4","last_reported":1756141679,"current_range_meters":18800,"station_id":"st_cvj6sg6p6f1abm77japg","pricing_plan_id":"cebpf4jnsgd1na2vs0mg"},{"bike_id":"1aae60df-7cb7-4d2c-a3ff-8d63d3accf35","system_id":"levelo_inurba_marseille","lat":43.29165,"lon":5.3717,"is_reserved":false,"is_disabled":false,"rental_uris":{"android":"levelo://app?vid=1aae60df-7cb7-4d2c-a3ff-8d63d3accf35","ios":"levelo://app?vid=1aae60df-7cb7-4d2c-a3ff-8d63d3accf35"},"vehicle_type_id":"4","last_reported":1756141679,"current_range_meters":19200,"station_id":"ce4bha92rcd13ifvqeh0","pricing_plan_id":"cebpf4jnsgd1na2vs0mg"},{"bike_id":"b12530c9-6293-428a-b97a-6581d8129dab","system_id":"levelo_inurba_marseille","lat":43.2841,"lon":5.34987,"is_reserved":false,"is_disabled":false,"rental_uris":{"android":"levelo://app?vid=b12530c9-6293-428a-b97a-6581d8129dab","ios":"levelo://app?vid=b12530c9-6293-428a-b97a-6581d8129dab"},"vehicle_type_id":"4","last_reported":1756141679,"current_range_meters":19200,"station_id":"ce4bhbh2rcd13ifvqepg","pricing_plan_id":"cebpf4jnsgd1na2vs0mg"},{"bike_id":"6b31dbcd-c0f1-4451-888c-aa5229cd8e00","system_id":"levelo_inurba_marseille","lat":43.28615,"lon":5.3511,"is_reserved":false,"is_disabled":false,"rental_uris":{"android":"levelo://app?vid=6b31dbcd-c0f1-4451-888c-aa5229cd8e00","ios":"levelo://app?vid=6b31dbcd-c0f1-4451-888c-aa5229cd8e00"},"vehicle_type_id":"4","last_reported":1756141679,"current_range_meters":19200,"station_id":"ce4bhch2rcd13ifvqeug","pricing_plan_id":"cebpf4jnsgd1na2vs0mg"},