{"last_updated":1700809593,"ttl":30,"version":"2.2","data":{"bikes":[{"bike_id":"f4d12bb3-dbf4-4762-8312-6a8151cd6f1f","system_id":"levelo_inurba_marseille","lat":43.31341,"lon":5.367098,"is_reserved":false,"is_disabled":false,"rental_uris":{"android":"levelo://app?vid=f4d12bb3-dbf4-4762-8312-6a8151cd6f1f","ios":"levelo://app?vid=f4d12bb3-dbf4-4762-8312-6a8151cd6f1f"},"vehicle_type_id":"4","last_reported":1700809593,"current_range_meters":29200,"station_id":"ce4bgr92rcd13ifvqc6g","pricing_plan_id":"free"},{"bike_id":"a6d45edf-cf5d-4fd6-9d84-fdae1a763d33","system_id":"levelo_inurba_marseille","lat":43.312239,"lon":5.368562,"is_reserved":false,"is_disabled":false,"rental_uris":{"android":"levelo://app?vid=a6d45edf-cf5d-4fd6-9d84-fdae1a763d33","ios":"levelo://app?vid=a6d45edf-cf5d-4fd6-9d84-fdae1a763d33"},"vehicle_type_id":"4","last_reported":1700809593,"current_range_meters":20400,"station_id":"ce4bgl92rcd13ifvqbq0","pricing_plan_id":"free"},{"bike_id":"aff4c4bd-c502-4122-9fa9-5e0bd2b9e2bc","system_id":"levelo_inurba_marseille","lat":43.309076,"lon":5.368465,"is_reserved":false,"is_disabled":false,"rental_uris":{"android":"levelo://app?vid=aff4c4bd-c502-4122-9fa9-5e0bd2b9e2bc","ios":"levelo://app?vid=aff4c4bd-c502-4122-9fa9-5e0bd2b9e2bc"},"vehicle_type_id":"4","last_reported":1700809593,"current_range_meters":4400,"station_id":"ce4bgn92rcd13ifvqbvg","pricing_plan_id":"free"},{"bike_id":"11430954-102b-48d5-82d0-cd4738cf5660","system_id":"levelo_inurba_marseille","lat":43.309076,"lon":5.368465,"is_reserved":false,"is_disabled":false,"rental_uris":{"android":"levelo://app?vid=11430954-102b-48d5-82d0-cd4738cf5660","ios":"levelo://app?vid=11430954-102b-48d5-82d0-cd4738cf5660"},"vehicle_type_id":"4","last_reported":1700809593,"current_range_meters":22400,"station_id":"ce4bgn92rcd13ifvqbvg","pricing_plan_id":"free"},{"bike_id":"51f02bac-697f-4962-9f4a-3db730efc7ae","system_id":"levelo_inurba_marseille","lat":43.309039,"lon":5.371797,"is_reserved":false,"is_disabled":false,"rental_uris":{"android":"levelo://app?vid=51f02bac-697f-4962-9f4a-3db730efc7ae","ios":"levelo://app?vid=51f02bac-697f-4962-9f4a-3db730efc7ae"},"vehicle_type_id":"4","last_reported":1700809593,"current_range_meters":7600,"station_id":"ce4bguh2rcd13ifvqckg","pricing_plan_id":"free"},{"bike_id":"47a72ddd-8fc8-4ce5-bf54-e567c6bb4c46","system_id":"levelo_inurba_marseille","lat":43.309039,"lon":5.371797,"is_reserved":false,"is_disabled":false,"rental_uris":{"android":"levelo://app?vid=47a72ddd-8fc8-4ce5-bf54-e567c6bb4c46","ios":"levelo://app?vid=47a72ddd-8fc8-4ce5-bf54-e567c6bb4c46"},"vehicle_type_id":"4","last_reported":1700809593,"current_range_meters":21600,"station_id":"ce4bguh2rcd13ifvqckg","pricing_plan_id":"free"},{"bike_id":"80b45c8b-c4fc-40e1-ac23-7604546e37bc","system_id":"levelo_inurba_marseille","lat":43.305714,"lon":5.365633,"is_reserved":false,"is_disabled":false,"rental_uris":{"android":"levelo://app?vid=80b45c8b-c4fc-40e1-ac23-7604546e37bc","ios":"levelo://app?vid=80b45c8b-c4fc-40e1-ac23-7604546e37bc"},"vehicle_type_id":"4","last_reported":1700809593,"current_range_meters":22400,"station_id":"ce4bgs12rcd13ifvqcag","pricing_plan_id":"free"},{"bike_id":"8bc23b3e-7620-4590-91f5-766628ef04bd","system_id":"levelo_inurba_marseille","lat":43.30538,"lon":5.367135,"is_reserved":false,"is_disabled":false,"rental_uris":{"android":"levelo://app?vid=8bc23b3e-7620-4590-91f5-766628ef04bd","ios":"levelo://app?vid=8bc23b3e-7620-4590-91f5-766628ef04bd"},"vehicle_type_id":"4","last_reported":1700809593,"current_range_meters":25600,"station_id":"ce4bgrp2rcd13ifvqc9g","pricing_plan_id":"free"},{"bike_id":"639c0a81-4eac-4c9f-8d0a-b3e6b217b5d9","system_id":"levelo_inurba_marseille","lat":43.305706,"lon":5.365654,"is_reserved":false,"is_disabled":false,"rental_uris":{"android":"levelo://app?vid=639c0a81-4eac-4c9f-8d0a-b3e6b217b5d9","ios":"levelo://app?vid=639c0a81-4eac-4c9f-8d0a-b3e6b217b5d9"},"vehicle_type_id":"4","last_reported":1700809593,"current_range_meters":1200,"station_id":"ce4bgs12rcd13ifvqcag","pricing_plan_id":"free"},{"bike_id":"e72d5dbe-d923-4a6c-96ab-dbe9156e538f","system_id":"levelo_inurba_marseille","lat":43.305706,"lon":5.365654,"is_reserved":false,"is_disabled":false,"rental_uris":{"android":"levelo://app?vid=e72d5dbe-d923-4a6c-96ab-dbe9156e538f","ios":"levelo://app?vid=e72d5dbe-d923-4a6c-96ab-dbe9156e538f"},"vehicle_type_id":"4","last_reported":1700809593,"current_range_meters":31200,"station_id":"ce4bgs12rcd13ifvqcag","pricing_plan_id":"free"},{"bike_id":"43bf5cf6-ac0a-4035-9884-61a3aec3d997","system_id":"levelo_inurba_marseille","lat":43.305706,"lon":5.365654,"is_reserved":false,"is_disabled":false,"rental_uris":{"android":"levelo://app?vid=43bf5cf6-ac0a-4035-9884-61a3aec3d997","ios":"levelo://app?vid=43bf5cf6-ac0a-4035-9884-61a3aec3d997"},"vehicle_type_id":"4","last_reported":1700809593,"current_range_meters":28400,"station_id":"ce4bgs12rcd13ifvqcag","pricing_plan_id":"free"},{"bike_id":"b6dd5827-2613-44d3-acca-f7f13454348b","system_id":"levelo_inurba_marseille","lat":43.30523,"lon":5.36711,"is_reserved":false,"is_disabled":false,"rental_uris":{"android":"levelo://app?vid=b6dd5827-2613-44d3-acca-f7f13454348b","ios":"levelo://app?vid=b6dd5827-2613-44d3-acca-f7f13454348b"},"vehicle_type_id":"4","last_reported":1700809593,"current_range_meters":28800,"station_id":"ce4bgrp2rcd13ifvqc9g","pricing_plan_id":"free"},{"bike_id":"410aa63a-c5ac-4679-ba02-23bd2cc5170b","system_id":"levelo_inurba_marseille","lat":43.317075,"lon":5.377367,"is_reserved":false,"is_disabled":false,"rental_uris":{"android":"levelo://app?vid=410aa63a-c5ac-4679-ba02-23bd2cc5170b","ios":"levelo://app?vid=410aa63a-c5ac-4679-ba02-23bd2cc5170b"},"vehicle_type_id":"4","last_reported":1700809593,"current_range_meters":24000,"station_id":"ce4bgth2rcd13ifvqch0","pricing_plan_id":"free"},{"bike_id":"de958c51-6407-4287-8373-36d7285c5b88","system_id":"levelo_inurba_marseille","lat":43.317075,"lon":5.377367,"is_reserved":false,"is_disabled":false,"rental_uris":{"android":"levelo://app?vid=de958c51-6407-4287-8373-36d7285c5b88","ios":"levelo://app?vid=de958c51-6407-4287-8373-36d7285c5b88"},"vehicle_type_id":"4","last_reported":1700809593,"current_range_meters":27200,"station_id":"ce4bgth2rcd13ifvqch0","pricing_plan_id":"free"},{"bike_id":"5432ebe5-659a-45a0-a8e1-89d3238e7a59","system_id":"levelo_inurba_marseille","lat":43.30304,"lon":5.36917,"is_reserved":false,"is_disabled":false,"rental_uris":{"android":"levelo://app?vid=5432ebe5-659a-45a0-a8e1-89d3238e7a59","ios":"levelo://app?vid=5432ebe5-659a-45a0-a8e1-89d3238e7a59"},"vehicle_type_id":"4","last_reported":1700809593,"current_range_meters":13600,"station_id":"ce4bgqh2rcd13ifvqc5g","pricing_plan_id":"free"},{"bike_id":"3f2a9b8c-854c-499d-9fea-beb2130aa9a6","system_id":"levelo_inurba_marseille","lat":43.31532,"lon":5.38035,"is_reserved":false,"is_disabled":false,"rental_uris":{"android":"levelo://app?vid=3f2a9b8c-854c-499d-9fea-beb2130aa9a6","ios":"levelo://app?vid=3f2a9b8c-854c-499d-9fea-beb2130aa9a6"},"vehicle_type_id":"4","last_reported":1700809593,"current_range_meters":2400,"station_id":"ce4bhsp2rcd13ifvqi50","pricing_plan_id":"free"},{"bike_id":"7ae418fb-107c-4d89-901b-ed3951d02ab9","system_id":"levelo_inurba_marseille","lat":43.30187,"lon":5.36625,"is_reserved":false,"is_disabled":false,"rental_uris":{"android":"levelo://app?vid=7ae418fb-107c-4d89-901b-ed3951d02ab9","ios":"levelo://app?vid=7ae418fb-107c-4d89-901b-ed3951d02ab9"},"vehicle_type_id":"4","last_reported":1700809593,"current_range_meters":4400,"station_id":"ce4bgrh2rcd13ifvqc8g","pricing_plan_id":"free"},{"bike_id":"3e600ce8-8d95-423d-8d82-8930bd9bef28","system_id":"levelo_inurba_marseille","lat":43.304606,"lon":5.379026,"is_reserved":false,"is_disabled":false,"rental_uris":{"android":"levelo://app?vid=3e600ce8-8d95-423d-8d82-8930bd9bef28","ios":"levelo://app?vid=3e600ce8-8d95-423d-8d82-8930bd9bef28"},"vehicle_type_id":"4","last_reported":1700809593,"current_range_meters":20000,"station_id":"ce4bgup2rcd13ifvqcn0","pricing_plan_id":"free"},{"bike_id":"8f601231-3856-411f-ab25-71f77a1a141a","system_id":"levelo_inurba_marseille","lat":43.304606,"lon":5.379026,"is_reserved":false,"is_disabled":false,"rental_uris":{"android":"levelo://app?vid=8f601231-3856-411f-ab25-71f77a1a141a","ios":"levelo://app?vid=8f601231-3856-411f-ab25-71f77a1a141a"},"vehicle_type_id":"4","last_reported":1700809593,"current_range_meters":25200,"station_id":"ce4bgup2rcd13ifvqcn0","pricing_plan_id":"free"},{"bike_id":"06b36272-b7fb-460c-a01f-dae90a8c679e","system_id":"levelo_inurba_marseille","lat":43.304606,"lon":5.379026,"is_reserved":false,"is_disabled":false,"rental_uris":{"android":"levelo://app?vid=06b36272-b7fb-460c-a01f-dae90a8c679e","ios":"levelo://app?vid=06b36272-b7fb-460c-a01f-dae90a8c679e"},"vehicle_type_id":"4","last_reported":1700809593,"current_range_meters":23200,"station_id":"ce4bgup2rcd13ifvqcn0","pricing_plan_id":"free"},{"bike_id":"63711502-f6e6-434b-bd8b-303079f96497","system_id":"levelo_inurba_marseille","lat":43.304606,"lon":5.379026,"is_reserved":false,"is_disabled":false,"rental_uris":{"android":"levelo://app?vid=63711502-f6e6-434b-bd8b-303079f96497","ios":"levelo://app?vid=63711502-f6e6-434b-bd8b-303079f96497"},"vehicle_type_id":"4","last_reported":1700809593,"current_range_meters":19200,"station_id":"ce4bgup2rcd13ifvqcn0","pricing_plan_id":"free"},{"bike_id":"0a0ea16b-9cb2-4ca6-af29-0042edb6317c","system_id":"levelo_inurba_marseille","lat":43.304606,"lon":5.379026,"is_reserved":false,"is_disabled":false,"rental_uris":{"android":"levelo://app?vid=0a0ea16b-9cb2-4ca6-af29-0042edb6317c","ios":"levelo://app?vid=0a0ea16b-9cb2-4ca6-af29-0042edb6317c"},"vehicle_type_id":"4","last_reported":1700809593,"current_range_meters":7200,"station_id":"ce4bgup2rcd13ifvqcn0","pricing_plan_id":"free"},{"bike_id":"ca2ad060-9ff3-491f-8b90-837f5ab0dc21","system_id":"levelo_inurba_marseille","lat":43.304606,"lon":5.379026,"is_reserved":false,"is_disabled":false,"rental_uris":{"android":"levelo://app?vid=ca2ad060-9ff3-491f-8b90-837f5ab0dc21","ios":"levelo://app?vid=ca2ad060-9ff3-491f-8b90-837f5ab0dc21"},"vehicle_type_id":"4","last_reported":1700809593,"current_range_meters":9200,"station_id":"ce4bgup2rcd13ifvqcn0","pricing_plan_id":"free"},{"bike_id":"1f62dc47-a107-4457-bcf5-eb1313d926fa","system_id":"levelo_inurba_marseille","lat":43.304606,"lon":5.379026,"is_reserved":false,"is_disabled":false,"rental_uris":{"android":"levelo://app?vid=1f62dc47-a107-4457-bcf5-eb1313d926fa","ios":"levelo://app?vid=1f62dc47-a107-4457-bcf5-eb1313d926fa"},"vehicle_type_id":"4","last_reported":1700809593,"current_range_meters":17200,"station_id":"ce4bgup2rcd13ifvqcn0","pricing_plan_id":"free"},{"bike_id":"88f9885d-2aba-4ffd-98e6-b3afeb25071d","system_id":"levelo_inurba_marseille","lat":43.304606,"lon":5.379026,"is_reserved":false,"is_disabled":false,"rental_uris":{"android":"levelo://app?vid=88f9885d-2aba-4ffd-98e6-b3afeb25071d","ios":"levelo://app?vid=88f9885d-2aba-4ffd-98e6-b3afeb25071d"},"vehicle_type_id":"4","last_reported":1700809593,"current_range_meters":31200,"station_id":"ce4bgup2rcd13ifvqcn0","pricing_plan_id":"free"},{"bike_id":"7a302b99-78fb-4b44-a678-797e4ef58861","system_id":"levelo_inurba_marseille","lat":43.304606,"lon":5.379026,"is_reserved":false,"is_disabled":false,"rental_uris":{"android":"levelo://app?vid=7a302b99-78fb-4b44-a678-797e4ef58861","ios":"levelo://app?vid=7a302b99-78fb-4b44-a678-797e4ef58861"},"vehicle_type_id":"4","last_reported":1700809593,"current_range_meters":23600,"station_id":"ce4bgup2rcd13ifvqcn0","pricing_plan_id":"free"},{"bike_id":"a95dfbcd-204e-4572-9d8b-1efb3562f131","system_id":"levelo_inurba_marseille","lat":43.304606,"lon":5.379026,"is_reserved":false,"is_disabled":false,"rental_uris":{"android":"levelo://app?vid=a95dfbcd-204e-4572-9d8b-1efb3562f131","ios":"levelo://app?vid=a95dfbcd-204e-4572-9d8b-1efb3562f131"},"vehicle_type_id":"4","last_reported":1700809593,"current_range_meters":27200,"station_id":"ce4bgup2rcd13ifvqcn0","pricing_plan_id":"free"},{"bike_id":"e8cc6fcf-f363-4bba-b0e2-bb9aaed0d1a2","system_id":"levelo_inurba_marseille","lat":43.304606,"lon":5.379026,"is_reserved":false,"is_disabled":false,"rental_uris":{"android":"levelo://app?vid=e8cc6fcf-f363-4bba-b0e2-bb9aaed0d1a2","ios":"levelo://app?vid=e8cc6fcf-f363-4bba-b0e2-bb9aaed0d1a2"},"vehicle_type_id":"4","last_reported":1700809593,"current_range_meters":24800,"station_id":"ce4bgup2rcd13ifvqcn0","pricing_plan_id":"free"},{"bike_id":"e9195d15-d893-4327-bf63-d0405fb69e95","system_id":"levelo_inurba_marseille","lat":43.304606,"lon":5.379026,"is_reserved":false,"is_disabled":false,"rental_uris":{"android":"levelo://app?vid=e9195d15-d893-4327-bf63-d0405fb69e95","ios":"levelo://app?vid=e9195d15-d893-4327-bf63-d0405fb69e95"},"vehicle_type_id":"4","last_reported":1700809593,"current_range_meters":6800,"station_id":"ce4bgup2rcd13ifvqcn0","pricing_plan_id":"free"},{"bike_id":"b81ff271-8371-49d0-bf62-835fec7950b5","system_id":"levelo_inurba_marseille","lat":43.304606,"lon":5.379026,"is_reserved":false,"is_disabled":false,"rental_uris":{"android":"levelo://app?vid=b81ff271-8371-49d0-bf62-835fec7950b5","ios":"levelo://app?vid=b81ff271-8371-49d0-bf62-835fec7950b5"},"vehicle_type_id":"4","last_reported":1700809593,"current_range_meters":22400,"station_id":"ce4bgup2rcd13ifvqcn0","pricing_plan_id":"free"},{"bike_id":"cb6473fa-4d3d-428d-876e-2a8d89dc00e1","system_id":"levelo_inurba_marseille","lat":43.304606,"lon":5.379026,"is_reserved":false,"is_disabled":false,"rental_uris":{"android":"levelo://app?vid=cb6473fa-4d3d-428d-876e-2a8d89dc00e1","ios":"levelo://app?vid=cb6473fa-4d3d-428d-876e-2a8d89dc00e1"},"vehicle_type_id":"4","last_reported":1700809593,"current_range_meters":24000,"station_id":"ce4bgup2rcd13ifvqcn0","pricing_plan_id":"free"},{"bike_id":"7a029a82-552d-487f-bf4c-ac28cf4e1050","system_id":"levelo_inurba_marseille","lat":43.304606,"lon":5.379026,"is_reserved":false,"is_disabled":false,"rental_uris":{"android":"levelo://app?vid=7a029a82-552d-487f-bf4c-ac28cf4e1050","ios":"levelo://app?vid=7a029a82-552d-487f-bf4c-ac28cf4e1050"},"vehicle_type_id":"4","last_reported":1700809593,"current_range_meters":19600,"station_id":"ce4bgup2rcd13ifvqcn0","pricing_plan_id":"free"},{"bike_id":"31aaaaea-6e93-4c98-844e-f84473341621","system_id":"levelo_inurba_marseille","lat":43.304606,"lon":5.379026,"is_reserved":false,"is_disabled":false,"rental_uris":{"android":"levelo://app?vid=31aaaaea-6e93-4c98-844e-f84473341621","ios":"levelo://app?vid=31aaaaea-6e93-4c98-844e-f84473341621"},"vehicle_type_id":"4","last_reported":1700809593,"current_range_meters":18800,"station_id":"ce4bgup2rcd13ifvqcn0","pricing_plan_id":"free"},{"bike_id":"343a5ed7-267d-4836-abfd-8a847f1cf217","system_id":"levelo_inurba_marseille","lat":43.304606,"lon":5.379026,"is_reserved":false,"is_disabled":false,"rental_uris":{"android":"levelo://app?vid=343a5ed7-267d-4836-abfd-8a847f1cf217","ios":"levelo://app?vid=343a5ed7-267d-4836-abfd-8a847f1cf217"},"vehicle_type_id":"4","last_reported":1700809593,"current_range_meters":22000,"station_id":"ce4bgup2rcd13ifvqcn0","pricing_plan_id":"free"},{"bike_id":"45d93b2b-e763-4ae3-b99f-d5ea218f5eac","system_id":"levelo_inurba_marseille","lat":43.304606,"lon":5.379026,"is_reserved":false,"is_disabled":false,"rental_uris":{"android":"levelo://app?vid=45d93b2b-e763-4ae3-b99f-d5ea218f5eac","ios":"levelo://app?vid=45d93b2b-e763-4ae3-b99f-d5ea218f5eac"},"vehicle_type_id":"4","last_reported":1700809593,"current_range_meters":28400,"station_id":"ce4bgup2rcd13ifvqcn0","pricing_plan_id":"free"},{"bike_id":"02844435-9fe0-49f2-a7ff-177d2c5e017a","system_id":"levelo_inurba_marseille","lat":43.304606,"lon":5.379026,"is_reserved":false,"is_disabled":false,"rental_uris":{"android":"levelo://app?vid=02844435-9fe0-49f2-a7ff-177d2c5e017a","ios":"levelo://app?vid=02844435-9fe0-49f2-a7ff-177d2c5e017a"},"vehicle_type_id":"4","last_reported":1700809593,"current_range_meters":24800,"station_id":"ce4bgup2rcd13ifvqcn0","pricing_plan_id":"free"},{"bike_id":"9840d147-3732-481f-8346-79ab687e23ab","system_id":"levelo_inurba_marseille","lat":43.304606,"lon":5.379026,"is_reserved":false,"is_disabled":false,"rental_uris":{"android":"levelo://app?vid=9840d147-3732-481f-8346-79ab687e23ab","ios":"levelo://app?vid=9840d147-3732-481f-8346-79ab687e23ab"},"vehicle_type_id":"4","last_reported":1700809593,"current_range_meters":24000,"station_id":"ce4bgup2rcd13ifvqcn0","pricing_plan_id":"free"},{"bike_id":"65108491-434b-4db8-a67f-5a10d47366b7","system_id":"levelo_inurba_marseille","lat":43.304606,"lon":5.379026,"is_reserved":false,"is_disabled":false,"rental_uris":{"android":"levelo://app?vid=65108491-434b-4db8-a67f-5a10d47366b7","ios":"levelo://app?vid=65108491-434b-4db8-a67f-5a10d47366b7"},"vehicle_type_id":"4","last_reported":1700809593,"current_range_meters":21600,"station_id":"ce4bgup2rcd13ifvqcn0","pricing_plan_id":"free"},{"bike_id":"2bf366e8-5828-4626-a5f2-8fdcd9e9b6d3","system_id":"levelo_inurba_marseille","lat":43.302784,"lon":5.377158,"is_reserved":false,"is_disabled":false,"rental_uris":{"android":"levelo://app?vid=2bf366e8-5828-4626-a5f2-8fdcd9e9b6d3","ios":"levelo://app?vid=2bf366e8-5828-4626-a5f2-8fdcd9e9b6d3"},"vehicle_type_id":"4","last_reported":1700809593,"current_range_meters":22400,"station_id":"ce4bguh2rcd13ifvqcj0","pricing_plan_id":"free"},{"bike_id":"4a9c6fa3-235e-483e-9e8f-e82d12d74620","system_id":"levelo_inurba_marseille","lat":43.302784,"lon":5.377158,"is_reserved":false,"is_disabled":false,"rental_uris":{"android":"levelo://app?vid=4a9c6fa3-235e-483e-9e8f-e82d12d74620","ios":"levelo://app?vid=4a9c6fa3-235e-483e-9e8f-e82d12d74620"},"vehicle_type_id":"4","last_reported":1700809593,"current_range_meters":30400,"station_id":"ce4bguh2rcd13ifvqcj0","pricing_plan_id":"free"},{"bike_id":"d37bc3cd-2110-4b66-9a06-091b8ba4a451","system_id":"levelo_inurba_marseille","lat":43.302784,"lon":5.377158,"is_reserved":false,"is_disabled":false,"rental_uris":{"android":"levelo://app?vid=d37bc3cd-2110-4b66-9a06-091b8ba4a451","ios":"levelo://app?vid=d37bc3cd-2110-4b66-9a06-091b8ba4a451"},"vehicle_type_id":"4","last_reported":1700809593,"current_range_meters":31200,"station_id":"ce4bguh2rcd13ifvqcj0","pricing_plan_id":"free"},{"bike_id":"ddcd8fb5-e6f9-4509-b663-a5f016a9be0b","system_id":"levelo_inurba_marseille","lat":43.319935,"lon":5.381699,"is_reserved":false,"is_disabled":false,"rental_uris":{"android":"levelo://app?vid=ddcd8fb5-e6f9-4509-b663-a5f016a9be0b","ios":"levelo://app?vid=ddcd8fb5-e6f9-4509-b663-a5f016a9be0b"},"vehicle_type_id":"4","last_reported":1700809593,"current_range_meters":4800,"station_id":"ce4bhr12rcd13ifvqhpg","pricing_plan_id":"free"},{"bike_id":"626726e1-27ea-48c5-bbb6-b57416c0e64d","system_id":"levelo_inurba_marseille","lat":43.304606,"lon":5.379026,"is_reserved":false,"is_disabled":false,"rental_uris":{"android":"levelo://app?vid=626726e1-27ea-48c5-bbb6-b57416c0e64d","ios":"levelo://app?vid=626726e1-27ea-48c5-bbb6-b57416c0e64d"},"vehicle_type_id":"4","last_reported":1700809593,"current_range_meters":24400,"station_id":"ce4bgup2rcd13ifvqcn0","pricing_plan_id":"free"},{"bike_id":"1c6156a7-6b7e-4e9d-9d7d-aed5fdcff587","system_id":"levelo_inurba_marseille","lat":43.305364,"lon":5.384119,"is_reserved":false,"is_disabled":false,"rental_uris":{"android":"levelo://app?vid=1c6156a7-6b7e-4e9d-9d7d-aed5fdcff587","ios":"levelo://app?vid=1c6156a7-6b7e-4e9d-9d7d-aed5fdcff587"},"vehicle_type_id":"4","last_reported":1700809593,"current_range_meters":0,"station_id":"ce4bgg92rcd13ifvqb30","pricing_plan_id":"free"},{"bike_id":"b35d98a3-9c0d-4bc9-b7aa-dab5b52650cb","system_id":"levelo_inurba_marseille","lat":43.30199,"lon":5.38041,"is_reserved":false,"is_disabled":false,"rental_uris":{"android":"levelo://app?vid=b35d98a3-9c0d-4bc9-b7aa-dab5b52650cb","ios":"levelo://app?vid=b35d98a3-9c0d-4bc9-b7aa-dab5b52650cb"},"vehicle_type_id":"4","last_reported":1700809593,"current_range_meters":13600,"station_id":"","pricing_plan_id":"free"},{"bike_id":"0046eecc-ff7c-4287-8e67-69c8f009b134","system_id":"levelo_inurba_marseille","lat":43.298433,"lon":5.362774,"is_reserved":false,"is_disabled":false,"rental_uris":{"android":"levelo://app?vid=0046eecc-ff7c-4287-8e67-69c8f009b134","ios":"levelo://app?vid=0046eecc-ff7c-4287-8e67-69c8f009b134"},"vehicle_type_id":"4","last_reported":1700809593,"current_range_meters":28000,"station_id":"ce4bgpp2rcd13ifvqc3g","pricing_plan_id":"free"},{"bike_id":"97f47f95-f021-447c-aff0-60741620c28c","system_id":"levelo_inurba_marseille","lat":43.298433,"lon":5.362774,"is_reserved":false,"is_disabled":false,"rental_uris":{"android":"levelo://app?vid=97f47f95-f021-447c-aff0-60741620c28c","ios":"levelo://app?vid=97f47f95-f021-447c-aff0-60741620c28c"},"vehicle_type_id":"4","last_reported":1700809593,"current_range_meters":28400,"station_id":"ce4bgpp2rcd13ifvqc3g","pricing_plan_id":"free"},{"bike_id":"3b3cd6f3-c3f0-4ab5-a43b-c2272419affa","system_id":"levelo_inurba_marseille","lat":43.299243,"lon":5.374807,"is_reserved":false,"is_disabled":false,"rental_uris":{"android":"levelo://app?vid=3b3cd6f3-c3f0-4ab5-a43b-c2272419affa","ios":"levelo://app?vid=3b3cd6f3-c3f0-4ab5-a43b-c2272419affa"},"vehicle_type_id":"4","last_reported":1700809593,"current_range_meters":28400,"station_id":"ce4bgjh2rcd13ifvqbg0","pricing_plan_id":"free"},{"bike_id":"7263550a-732f-4c74-8c8a-3ec225b5f907","system_id":"levelo_inurba_marseille","lat":43.299243,"lon":5.37481,"is_reserved":false,"is_disabled":false,"rental_uris":{"android":"levelo://app?vid=7263550a-732f-4c74-8c8a-3ec225b5f907","ios":"levelo://app?vid=7263550a-732f-4c74-8c8a-3ec225b5f907"},"vehicle_type_id":"4","last_reported":1700809593,"current_range_meters":31200,"station_id":"ce4bgjh2rcd13ifvqbg0","pricing_plan_id":"free"},{"bike_id":"3d3b24e3-f0ce-4377-b136-04ebacc0aa74","system_id":"levelo_inurba_marseille","lat":43.299243,"lon":5.37481,"is_reserved":false,"is_disabled":false,"rental_uris":{"android":"levelo://app?vid=3d3b24e3-f0ce-4377-b136-04ebacc0aa74","ios":"levelo://app?vid=3d3b24e3-f0ce-4377-b136-04ebacc0aa74"},"vehicle_type_id":"4","last_reported":1700809593,"current_range_meters":800,"station_id":"ce4bgjh2rcd13ifvqbg0","pricing_plan_id":"free"},{"bike_id":"57f07daa-f979-41b2-bf81-49ff7a829b2a","system_id":"levelo_inurba_marseille","lat":43.3229,"lon":5.382665,"is_reserved":false,"is_disabled":false,"rental_uris":{"android":"levelo://app?vid=57f07daa-f979-41b2-bf81-49ff7a829b2a","ios":"levelo://app?vid=57f07daa-f979-41b2-bf81-49ff7a829b2a"},"vehicle_type_id":"4","last_reported":1700809593,"current_range_meters":7600,"station_id":"ce4bhr12rcd13ifvqhqg","pricing_plan_id":"free"},{"bike_id":"8eccf735-9f13-4d66-89ee-04a7bf59eec2","system_id":"levelo_inurba_marseille","lat":43.322872,"lon":5.382756,"is_reserved":false,"is_disabled":false,"rental_uris":{"android":"levelo://app?vid=8eccf735-9f13-4d66-89ee-04a7bf59eec2","ios":"levelo://app?vid=8eccf735-9f13-4d66-89ee-04a7bf59eec2"},"vehicle_type_id":"4","last_reported":1700809593,"current_range_meters":30800,"station_id":"ce4bhr12rcd13ifvqhqg","pricing_plan_id":"free"},{"bike_id":"ddd3fff7-fc57-48f9-825f-f47d18d1dbee","system_id":"levelo_inurba_marseille","lat":43.32826,"lon":5.36673,"is_reserved":false,"is_disabled":false,"rental_uris":{"android":"levelo://app?vid=ddd3fff7-fc57-48f9-825f-f47d18d1dbee","ios":"levelo://app?vid=ddd3fff7-fc57-48f9-825f-f47d18d1dbee"},"vehicle_type_id":"4","last_reported":1700809593,"current_range_meters":800,"station_id":"ce4bhs92rcd13ifvqi0g","pricing_plan_id":"free"},{"bike_id":"02f1d3d5-0f04-4159-9b7b-17f28025ba66","system_id":"levelo_inurba_marseille","lat":43.32831,"lon":5.36689,"is_reserved":false,"is_disabled":false,"rental_uris":{"android":"levelo://app?vid=02f1d3d5-0f04-4159-9b7b-17f28025ba66","ios":"levelo://app?vid=02f1d3d5-0f04-4159-9b7b-17f28025ba66"},"vehicle_type_id":"4","last_reported":1700809593,"current_range_meters":4400,"station_id":"ce4bhs92rcd13ifvqi0g","pricing_plan_id":"free"},{"bike_id":"4c8a9813-bfd4-486b-ae49-e19db6789e26","system_id":"levelo_inurba_marseille","lat":43.297163,"lon":5.365866,"is_reserved":false,"is_disabled":false,"rental_uris":{"android":"levelo://app?vid=4c8a9813-bfd4-486b-ae49-e19db6789e26","ios":"levelo://app?vid=4c8a9813-bfd4-486b-ae49-e19db6789e26"},"vehicle_type_id":"4","last_reported":1700809593,"current_range_meters":24400,"station_id":"ce4bgn12rcd13ifvqbt0","pricing_plan_id":"free"},{"bike_id":"4d7509f5-9559-42ca-a60d-bef9e80f0981","system_id":"levelo_inurba_marseille","lat":43.299579,"lon":5.379146,"is_reserved":false,"is_disabled":false,"rental_uris":{"android":"levelo://app?vid=4d7509f5-9559-42ca-a60d-bef9e80f0981","ios":"levelo://app?vid=4d7509f5-9559-42ca-a60d-bef9e80f0981"},"vehicle_type_id":"4","last_reported":1700809593,"current_range_meters":0,"station_id":"","pricing_plan_id":"free"},{"bike_id":"005fef89-5f6d-4b2f-b897-d01a5c40a45b","system_id":"levelo_inurba_marseille","lat":43.30286,"lon":5.38443,"is_reserved":false,"is_disabled":false,"rental_uris":{"android":"levelo://app?vid=005fef89-5f6d-4b2f-b897-d01a5c40a45b","ios":"levelo://app?vid=005fef89-5f6d-4b2f-b897-d01a5c40a45b"},"vehicle_type_id":"4","last_reported":1700809593,"current_range_meters":27600,"station_id":"","pricing_plan_id":"free"},{"bike_id":"8d6f7e85-40ba-4b13-9f5d-f73a2b06b67b","system_id":"levelo_inurba_marseille","lat":43.296131,"lon":5.370791,"is_reserved":false,"is_disabled":false,"rental_uris":{"android":"levelo://app?vid=8d6f7e85-40ba-4b13-9f5d-f73a2b06b67b","ios":"levelo://app?vid=8d6f7e85-40ba-4b13-9f5d-f73a2b06b67b"},"vehicle_type_id":"4","last_reported":1700809593,"current_range_meters":28400,"station_id":"ce4bgnh2rcd13ifvqc0g","pricing_plan_id":"free"},{"bike_id":"8a9b751e-d272-4335-837c-5fc9cf60a0a7","system_id":"levelo_inurba_marseille","lat":43.296935,"lon":5.376544,"is_reserved":false,"is_disabled":false,"rental_uris":{"android":"levelo://app?vid=8a9b751e-d272-4335-837c-5fc9cf60a0a7","ios":"levelo://app?vid=8a9b751e-d272-4335-837c-5fc9cf60a0a7"},"vehicle_type_id":"4","last_reported":1700809593,"current_range_meters":22800,"station_id":"ce4bgkh2rcd13ifvqbl0","pricing_plan_id":"free"},{"bike_id":"6d8e3cd9-aaff-4420-9616-b926d46af83e","system_id":"levelo_inurba_marseille","lat":43.30951,"lon":5.39029,"is_reserved":false,"is_disabled":false,"rental_uris":{"android":"levelo://app?vid=6d8e3cd9-aaff-4420-9616-b926d46af83e","ios":"levelo://app?vid=6d8e3cd9-aaff-4420-9616-b926d46af83e"},"vehicle_type_id":"4","last_reported":1700809593,"current_range_meters":24400,"station_id":"ce4bgup2rcd13ifvqco0","pricing_plan_id":"free"},{"bike_id":"c997e190-571f-4ece-b40f-8992c5fa0998","system_id":"levelo_inurba_marseille","lat":43.309589,"lon":5.390258,"is_reserved":false,"is_disabled":false,"rental_uris":{"android":"levelo://app?vid=c997e190-571f-4ece-b40f-8992c5fa0998","ios":"levelo://app?vid=c997e190-571f-4ece-b40f-8992c5fa0998"},"vehicle_type_id":"4","last_reported":1700809593,"current_range_meters":18800,"station_id":"ce4bgup2rcd13ifvqco0","pricing_plan_id":"free"},{"bike_id":"c915f272-1145-4e9d-b7c8-a32b5ded15dc","system_id":"levelo_inurba_marseille","lat":43.309545,"lon":5.390355,"is_reserved":false,"is_disabled":false,"rental_uris":{"android":"levelo://app?vid=c915f272-1145-4e9d-b7c8-a32b5ded15dc","ios":"levelo://app?vid=c915f272-1145-4e9d-b7c8-a32b5ded15dc"},"vehicle_type_id":"4","last_reported":1700809593,"current_range_meters":21200,"station_id":"ce4bgup2rcd13ifvqco0","pricing_plan_id":"free"},{"bike_id":"2fd66a92-ee25-4670-8013-fb1bdb2546d8","system_id":"levelo_inurba_marseille","lat":43.317557,"lon":5.390173,"is_reserved":false,"is_disabled":false,"rental_uris":{"android":"levelo://app?vid=2fd66a92-ee25-4670-8013-fb1bdb2546d8","ios":"levelo://app?vid=2fd66a92-ee25-4670-8013-fb1bdb2546d8"},"vehicle_type_id":"4","last_reported":1700809593,"current_range_meters":7200,"station_id":"ce4bhqp2rcd13ifvqhng","pricing_plan_id":"free"},{"bike_id":"2a3c9c28-9604-46c2-92b2-52853d55822e","system_id":"levelo_inurba_marseille","lat":43.317557,"lon":5.390173,"is_reserved":false,"is_disabled":false,"rental_uris":{"android":"levelo://app?vid=2a3c9c28-9604-46c2-92b2-52853d55822e","ios":"levelo://app?vid=2a3c9c28-9604-46c2-92b2-52853d55822e"},"vehicle_type_id":"4","last_reported":1700809593,"current_range_meters":27600,"station_id":"ce4bhqp2rcd13ifvqhng","pricing_plan_id":"free"},{"bike_id":"e870a805-2fbd-40ae-aeb8-108dc772ed5d","system_id":"levelo_inurba_marseille","lat":43.317582,"lon":5.390259,"is_reserved":false,"is_disabled":false,"rental_uris":{"android":"levelo://app?vid=e870a805-2fbd-40ae-aeb8-108dc772ed5d","ios":"levelo://app?vid=e870a805-2fbd-40ae-aeb8-108dc772ed5d"},"vehicle_type_id":"4","last_reported":1700809593,"current_range_meters":0,"station_id":"ce4bhqp2rcd13ifvqhng","pricing_plan_id":"free"},{"bike_id":"61b69f5a-42f9-4fb7-af5a-8bbf31a1a4f5","system_id":"levelo_inurba_marseille","lat":43.29797,"lon":5.38084,"is_reserved":false,"is_disabled":false,"rental_uris":{"android":"levelo://app?vid=61b69f5a-42f9-4fb7-af5a-8bbf31a1a4f5","ios":"levelo://app?vid=61b69f5a-42f9-4fb7-af5a-8bbf31a1a4f5"},"vehicle_type_id":"4","last_reported":1700809593,"current_range_meters":13600,"station_id":"","pricing_plan_id":"free"},{"bike_id":"189d6e33-3d6c-48db-8788-dfe046fc7e6e","system_id":"levelo_inurba_marseille","lat":43.29794,"lon":5.38106,"is_reserved":false,"is_disabled":false,"rental_uris":{"android":"levelo://app?vid=189d6e33-3d6c-48db-8788-dfe046fc7e6e","ios":"levelo://app?vid=189d6e33-3d6c-48db-8788-dfe046fc7e6e"},"vehicle_type_id":"4","last_reported":1700809593,"current_range_meters":28000,"station_id":"ce4bgip2rcd13ifvqbb0","pricing_plan_id":"free"},{"bike_id":"1158038a-afba-455f-8884-a9a984fb0acf","system_id":"levelo_inurba_marseille","lat":43.295748,"lon":5.37522,"is_reserved":false,"is_disabled":false,"rental_uris":{"android":"levelo://app?vid=1158038a-afba-455f-8884-a9a984fb0acf","ios":"levelo://app?vid=1158038a-afba-455f-8884-a9a984fb0acf"},"vehicle_type_id":"4","last_reported":1700809593,"current_range_meters":0,"station_id":"ce4bgh92rcd13ifvqb50","pricing_plan_id":"free"},{"bike_id":"75513b5c-7e7a-4cdf-9b2b-352b0fca8766","system_id":"levelo_inurba_marseille","lat":43.30431,"lon":5.38896,"is_reserved":false,"is_disabled":false,"rental_uris":{"android":"levelo://app?vid=75513b5c-7e7a-4cdf-9b2b-352b0fca8766","ios":"levelo://app?vid=75513b5c-7e7a-4cdf-9b2b-352b0fca8766"},"vehicle_type_id":"4","last_reported":1700809593,"current_range_meters":27600,"station_id":"ce4bgk12rcd13ifvqbi0","pricing_plan_id":"free"},{"bike_id":"f980c3f3-d907-4319-8760-9e0df4118cd3","system_id":"levelo_inurba_marseille","lat":43.304274,"lon":5.388873,"is_reserved":false,"is_disabled":false,"rental_uris":{"android":"levelo://app?vid=f980c3f3-d907-4319-8760-9e0df4118cd3","ios":"levelo://app?vid=f980c3f3-d907-4319-8760-9e0df4118cd3"},"vehicle_type_id":"4","last_reported":1700809593,"current_range_meters":26800,"station_id":"ce4bgk12rcd13ifvqbi0","pricing_plan_id":"free"},{"bike_id":"d5825029-25b2-4f65-bca8-ded4560501ba","system_id":"levelo_inurba_marseille","lat":43.296263,"lon":5.377094,"is_reserved":false,"is_disabled":false,"rental_uris":{"android":"levelo://app?vid=d5825029-25b2-4f65-bca8-ded4560501ba","ios":"levelo://app?vid=d5825029-25b2-4f65-bca8-ded4560501ba"},"vehicle_type_id":"4","last_reported":1700809593,"current_range_meters":9200,"station_id":"ce4bgi92rcd13ifvqb90","pricing_plan_id":"free"},{"bike_id":"f326d1bc-903d-4db4-9124-f47cba6d4483","system_id":"levelo_inurba_marseille","lat":43.29618,"lon":5.3775,"is_reserved":false,"is_disabled":false,"rental_uris":{"android":"levelo://app?vid=f326d1bc-903d-4db4-9124-f47cba6d4483","ios":"levelo://app?vid=f326d1bc-903d-4db4-9124-f47cba6d4483"},"vehicle_type_id":"4","last_reported":1700809593,"current_range_meters":20000,"station_id":"ce4bgi92rcd13ifvqb90","pricing_plan_id":"free"},{"bike_id":"6fab33f6-445e-4262-94b9-f73401d15f79","system_id":"levelo_inurba_marseille","lat":43.296263,"lon":5.377094,"is_reserved":false,"is_disabled":false,"rental_uris":{"android":"levelo://app?vid=6fab33f6-445e-4262-94b9-f73401d15f79","ios":"levelo://app?vid=6fab33f6-445e-4262-94b9-f73401d15f79"},"vehicle_type_id":"4","last_reported":1700809593,"current_range_meters":30000,"station_id":"ce4bgi92rcd13ifvqb90","pricing_plan_id":"free"},{"bike_id":"40d86864-9422-441f-99f1-6569244a297e","system_id":"levelo_inurba_marseille","lat":43.299724,"lon":5.384848,"is_reserved":false,"is_disabled":false,"rental_uris":{"android":"levelo://app?vid=40d86864-9422-441f-99f1-6569244a297e","ios":"levelo://app?vid=40d86864-9422-441f-99f1-6569244a297e"},"vehicle_type_id":"4","last_reported":1700809593,"current_range_meters":17600,"station_id":"ce4bgj92rcd13ifvqbd0","pricing_plan_id":"free"},{"bike_id":"c7404532-9796-4173-b2e6-2235b9ede2b1","system_id":"levelo_inurba_marseille","lat":43.300959,"lon":5.386933,"is_reserved":false,"is_disabled":false,"rental_uris":{"android":"levelo://app?vid=c7404532-9796-4173-b2e6-2235b9ede2b1","ios":"levelo://app?vid=c7404532-9796-4173-b2e6-2235b9ede2b1"},"vehicle_type_id":"4","last_reported":1700809593,"current_range_meters":0,"station_id":"","pricing_plan_id":"free"},{"bike_id":"6b621983-5e9e-42f7-990d-ad5a093820d2","system_id":"levelo_inurba_marseille","lat":43.293801,"lon":5.363066,"is_reserved":false,"is_disabled":false,"rental_uris":{"android":"levelo://app?vid=6b621983-5e9e-42f7-990d-ad5a093820d2","ios":"levelo://app?vid=6b621983-5e9e-42f7-990d-ad5a093820d2"},"vehicle_type_id":"4","last_reported":1700809593,"current_range_meters":5600,"station_id":"","pricing_plan_id":"free"},{"bike_id":"78b7593e-18ad-49ae-a972-7ec334bc1c59","system_id":"levelo_inurba_marseille","lat":43.29601,"lon":5.381084,"is_reserved":false,"is_disabled":false,"rental_uris":{"android":"levelo://app?vid=78b7593e-18ad-49ae-a972-7ec334bc1c59","ios":"levelo://app?vid=78b7593e-18ad-49ae-a972-7ec334bc1c59"},"vehicle_type_id":"4","last_reported":1700809593,"current_range_meters":30800,"station_id":"ce4bgl12rcd13ifvqbo0","pricing_plan_id":"free"},{"bike_id":"3b5ce91f-4509-4d53-8414-319f702fbfed","system_id":"levelo_inurba_marseille","lat":43.32367,"lon":5.388836,"is_reserved":false,"is_disabled":false,"rental_uris":{"android":"levelo://app?vid=3b5ce91f-4509-4d53-8414-319f702fbfed","ios":"levelo://app?vid=3b5ce91f-4509-4d53-8414-319f702fbfed"},"vehicle_type_id":"4","last_reported":1700809593,"current_range_meters":4800,"station_id":"ce4bhqp2rcd13ifvqhog","pricing_plan_id":"free"},{"bike_id":"59398d6a-1eaf-4e92-b0ad-03db71680ea9","system_id":"levelo_inurba_marseille","lat":43.32367,"lon":5.388836,"is_reserved":false,"is_disabled":false,"rental_uris":{"android":"levelo://app?vid=59398d6a-1eaf-4e92-b0ad-03db71680ea9","ios":"levelo://app?vid=59398d6a-1eaf-4e92-b0ad-03db71680ea9"},"vehicle_type_id":"4","last_reported":1700809593,"current_range_meters":1600,"station_id":"ce4bhqp2rcd13ifvqhog","pricing_plan_id":"free"},{"bike_id":"9b52f747-0491-4722-bbd3-88b8ef0d06e1","system_id":"levelo_inurba_marseille","lat":43.295905,"lon":5.38101,"is_reserved":false,"is_disabled":false,"rental_uris":{"android":"levelo://app?vid=9b52f747-0491-4722-bbd3-88b8ef0d06e1","ios":"levelo://app?vid=9b52f747-0491-4722-bbd3-88b8ef0d06e1"},"vehicle_type_id":"4","last_reported":1700809593,"current_range_meters":16000,"station_id":"ce4bgl12rcd13ifvqbo0","pricing_plan_id":"free"},{"bike_id":"1ecc7d14-4696-4a52-b829-13cff1d4e8f9","system_id":"levelo_inurba_marseille","lat":43.29602,"lon":5.381084,"is_reserved":false,"is_disabled":false,"rental_uris":{"android":"levelo://app?vid=1ecc7d14-4696-4a52-b829-13cff1d4e8f9","ios":"levelo://app?vid=1ecc7d14-4696-4a52-b829-13cff1d4e8f9"},"vehicle_type_id":"4","last_reported":1700809593,"current_range_meters":27200,"station_id":"ce4bgl12rcd13ifvqbo0","pricing_plan_id":"free"},{"bike_id":"ce2412ea-5a00-4357-9512-19213e082c67","system_id":"levelo_inurba_marseille","lat":43.29602,"lon":5.381084,"is_reserved":false,"is_disabled":false,"rental_uris":{"android":"levelo://app?vid=ce2412ea-5a00-4357-9512-19213e082c67","ios":"levelo://app?vid=ce2412ea-5a00-4357-9512-19213e082c67"},"vehicle_type_id":"4","last_reported":1700809593,"current_range_meters":29600,"station_id":"ce4bgl12rcd13ifvqbo0","pricing_plan_id":"free"},{"bike_id":"4cbf4ad3-9228-42cf-a8e8-d8441299a33a","system_id":"levelo_inurba_marseille","lat":43.293099,"lon":5.371677,"is_reserved":false,"is_disabled":false,"rental_uris":{"android":"levelo://app?vid=4cbf4ad3-9228-42cf-a8e8-d8441299a33a","ios":"levelo://app?vid=4cbf4ad3-9228-42cf-a8e8-d8441299a33a"},"vehicle_type_id":"4","last_reported":1700809593,"current_range_meters":23600,"station_id":"ce4bgh92rcd13ifvqb40","pricing_plan_id":"free"},{"bike_id":"03e2a5f3-2e3a-4754-ad15-00da59d71d39","system_id":"levelo_inurba_marseille","lat":43.293057,"lon":5.371695,"is_reserved":false,"is_disabled":false,"rental_uris":{"android":"levelo://app?vid=03e2a5f3-2e3a-4754-ad15-00da59d71d39","ios":"levelo://app?vid=03e2a5f3-2e3a-4754-ad15-00da59d71d39"},"vehicle_type_id":"4","last_reported":1700809593,"current_range_meters":30800,"station_id":"ce4bgh92rcd13ifvqb40","pricing_plan_id":"free"},{"bike_id":"093f5d5a-d597-4d8c-8c72-a558f1638945","system_id":"levelo_inurba_marseille","lat":43.293053,"lon":5.37168,"is_reserved":false,"is_disabled":false,"rental_uris":{"android":"levelo://app?vid=093f5d5a-d597-4d8c-8c72-a558f1638945","ios":"levelo://app?vid=093f5d5a-d597-4d8c-8c72-a558f1638945"},"vehicle_type_id":"4","last_reported":1700809593,"current_range_meters":26800,"station_id":"ce4bgh92rcd13ifvqb40","pricing_plan_id":"free"},{"bike_id":"100f76ef-7e63-4504-990d-940e3134d4cc","system_id":"levelo_inurba_marseille","lat":43.293031,"lon":5.371585,"is_reserved":false,"is_disabled":false,"rental_uris":{"android":"levelo://app?vid=100f76ef-7e63-4504-990d-940e3134d4cc","ios":"levelo://app?vid=100f76ef-7e63-4504-990d-940e3134d4cc"},"vehicle_type_id":"4","last_reported":1700809593,"current_range_meters":11600,"station_id":"ce4bgh92rcd13ifvqb40","pricing_plan_id":"free"},{"bike_id":"0eac0231-d167-4954-a886-ebe05f98ceca","system_id":"levelo_inurba_marseille","lat":43.29271,"lon":5.36847,"is_reserved":false,"is_disabled":false,"rental_uris":{"android":"levelo://app?vid=0eac0231-d167-4954-a886-ebe05f98ceca","ios":"levelo://app?vid=0eac0231-d167-4954-a886-ebe05f98ceca"},"vehicle_type_id":"4","last_reported":1700809593,"current_range_meters":10800,"station_id":"ce4bhbp2rcd13ifvqesg","pricing_plan_id":"free"},{"bike_id":"f8261468-d437-44ca-bc62-b7ed757e2eb9","system_id":"levelo_inurba_marseille","lat":43.293009,"lon":5.374584,"is_reserved":false,"is_disabled":false,"rental_uris":{"android":"levelo://app?vid=f8261468-d437-44ca-bc62-b7ed757e2eb9","ios":"levelo://app?vid=f8261468-d437-44ca-bc62-b7ed757e2eb9"},"vehicle_type_id":"4","last_reported":1700809593,"current_range_meters":28000,"station_id":"ce4bgi12rcd13ifvqb70","pricing_plan_id":"free"},{"bike_id":"85118859-7c9e-4a30-9bf3-bbacdd217e38","system_id":"levelo_inurba_marseille","lat":43.305994,"lon":5.393687,"is_reserved":false,"is_disabled":false,"rental_uris":{"android":"levelo://app?vid=85118859-7c9e-4a30-9bf3-bbacdd217e38","ios":"levelo://app?vid=85118859-7c9e-4a30-9bf3-bbacdd217e38"},"vehicle_type_id":"4","last_reported":1700809593,"current_range_meters":24000,"station_id":"ce4bh0p2rcd13ifvqd80","pricing_plan_id":"free"},{"bike_id":"bf3e3af8-82d3-4bd6-8bcc-85d1eb6cd0c0","system_id":"levelo_inurba_marseille","lat":43.302992,"lon":5.392136,"is_reserved":false,"is_disabled":false,"rental_uris":{"android":"levelo://app?vid=bf3e3af8-82d3-4bd6-8bcc-85d1eb6cd0c0","ios":"levelo://app?vid=bf3e3af8-82d3-4bd6-8bcc-85d1eb6cd0c0"},"vehicle_type_id":"4","last_reported":1700809593,"current_range_meters":28000,"station_id":"ce4bgkh2rcd13ifvqbk0","pricing_plan_id":"free"},{"bike_id":"c35a56bb-c96c-4fb6-8c5a-28b79315eb74","system_id":"levelo_inurba_marseille","lat":43.29365,"lon":5.37842,"is_reserved":false,"is_disabled":false,"rental_uris":{"android":"levelo://app?vid=c35a56bb-c96c-4fb6-8c5a-28b79315eb74","ios":"levelo://app?vid=c35a56bb-c96c-4fb6-8c5a-28b79315eb74"},"vehicle_type_id":"4","last_reported":1700809593,"current_range_meters":28800,"station_id":"","pricing_plan_id":"free"},{"bike_id":"f5e6ee77-f77b-4e07-8a55-2c939ba27144","system_id":"levelo_inurba_marseille","lat":43.2936,"lon":5.37835,"is_reserved":false,"is_disabled":false,"rental_uris":{"android":"levelo://app?vid=f5e6ee77-f77b-4e07-8a55-2c939ba27144","ios":"levelo://app?vid=f5e6ee77-f77b-4e07-8a55-2c939ba27144"},"vehicle_type_id":"4","last_reported":1700809593,"current_range_meters":30000,"station_id":"ce4bgjh2rcd13ifvqbf0","pricing_plan_id":"free"},{"bike_id":"a5f6ec02-a03b-41c1-818c-18de17d5d6c2","system_id":"levelo_inurba_marseille","lat":43.29263,"lon":5.3763,"is_reserved":false,"is_disabled":false,"rental_uris":{"android":"levelo://app?vid=a5f6ec02-a03b-41c1-818c-18de17d5d6c2","ios":"levelo://app?vid=a5f6ec02-a03b-41c1-818c-18de17d5d6c2"},"vehicle_type_id":"4","last_reported":1700809593,"current_range_meters":23200,"station_id":"ce4bgi12rcd13ifvqb80","pricing_plan_id":"free"},{"bike_id":"8a51b650-fe18-45d3-bacf-75930e701214","system_id":"levelo_inurba_marseille","lat":43.298764,"lon":5.388973,"is_reserved":false,"is_disabled":false,"rental_uris":{"android":"levelo://app?vid=8a51b650-fe18-45d3-bacf-75930e701214","ios":"levelo://app?vid=8a51b650-fe18-45d3-bacf-75930e701214"},"vehicle_type_id":"4","last_reported":1700809593,"current_range_meters":21200,"station_id":"ce4bh392rcd13ifvqdl0","pricing_plan_id":"free"},{"bike_id":"10d1fbae-befb-405f-ba6b-1c09bbd90568","system_id":"levelo_inurba_marseille","lat":43.298764,"lon":5.388973,"is_reserved":false,"is_disabled":false,"rental_uris":{"android":"levelo://app?vid=10d1fbae-befb-405f-ba6b-1c09bbd90568","ios":"levelo://app?vid=10d1fbae-befb-405f-ba6b-1c09bbd90568"},"vehicle_type_id":"4","last_reported":1700809593,"current_range_meters":22400,"station_id":"ce4bh392rcd13ifvqdl0","pricing_plan_id":"free"},{"bike_id":"9d51f85e-1308-45b7-a096-36449825b48c","system_id":"levelo_inurba_marseille","lat":43.29189,"lon":5.35804,"is_reserved":false,"is_disabled":false,"rental_uris":{"android":"levelo://app?vid=9d51f85e-1308-45b7-a096-36449825b48c","ios":"levelo://app?vid=9d51f85e-1308-45b7-a096-36449825b48c"},"vehicle_type_id":"4","last_reported":1700809593,"current_range_meters":24800,"station_id":"","pricing_plan_id":"free"},{"bike_id":"1d10a1b1-d55f-4279-928a-9c6858f32ca9","system_id":"levelo_inurba_marseille","lat":43.33211,"lon":5.38112,"is_reserved":false,"is_disabled":false,"rental_uris":{"android":"levelo://app?vid=1d10a1b1-d55f-4279-928a-9c6858f32ca9","ios":"levelo://app?vid=1d10a1b1-d55f-4279-928a-9c6858f32ca9"},"vehicle_type_id":"4","last_reported":1700809593,"current_range_meters":0,"station_id":"","pricing_plan_id":"free"},{"bike_id":"49625480-3f10-45da-a3b1-211594125e77","system_id":"levelo_inurba_marseille","lat":43.290779,"lon":5.371482,"is_reserved":false,"is_disabled":false,"rental_uris":{"android":"levelo://app?vid=49625480-3f10-45da-a3b1-211594125e77","ios":"levelo://app?vid=49625480-3f10-45da-a3b1-211594125e77"},"vehicle_type_id":"4","last_reported":1700809593,"current_range_meters":28800,"station_id":"ce4bh5p2rcd13ifvqe4g","pricing_plan_id":"free"},{"bike_id":"03c1c5f9-500f-4057-9929-5bc84d4e1004","system_id":"levelo_inurba_marseille","lat":43.3021,"lon":5.39466,"is_reserved":false,"is_disabled":false,"rental_uris":{"android":"levelo://app?vid=03c1c5f9-500f-4057-9929-5bc84d4e1004","ios":"levelo://app?vid=03c1c5f9-500f-4057-9929-5bc84d4e1004"},"vehicle_type_id":"4","last_reported":1700809593,"current_range_meters":0,"station_id":"ce4bh0p2rcd13ifvqd70","pricing_plan_id":"free"},{"bike_id":"70679565-a665-4b4c-be3e-d3db17a498c5","system_id":"levelo_inurba_marseille","lat":43.290327,"lon":5.375711,"is_reserved":false,"is_disabled":false,"rental_uris":{"android":"levelo://app?vid=70679565-a665-4b4c-be3e-d3db17a498c5","ios":"levelo://app?vid=70679565-a665-4b4c-be3e-d3db17a498c5"},"vehicle_type_id":"4","last_reported":1700809593,"current_range_meters":10400,"station_id":"ce4bh692rcd13ifvqe90","pricing_plan_id":"free"},{"bike_id":"19ad6cb7-0c19-48fd-aac5-40f35ae87458","system_id":"levelo_inurba_marseille","lat":43.29037,"lon":5.37558,"is_reserved":false,"is_disabled":false,"rental_uris":{"android":"levelo://app?vid=19ad6cb7-0c19-48fd-aac5-40f35ae87458","ios":"levelo://app?vid=19ad6cb7-0c19-48fd-aac5-40f35ae87458"},"vehicle_type_id":"4","last_reported":1700809593,"current_range_meters":31200,"station_id":"ce4bh692rcd13ifvqe90","pricing_plan_id":"free"},{"bike_id":"ec73c5cb-8e99-4849-bb6a-9e1f38805b89","system_id":"levelo_inurba_marseille","lat":43.294162,"lon":5.386292,"is_reserved":false,"is_disabled":false,"rental_uris":{"android":"levelo://app?vid=ec73c5cb-8e99-4849-bb6a-9e1f38805b89","ios":"levelo://app?vid=ec73c5cb-8e99-4849-bb6a-9e1f38805b89"},"vehicle_type_id":"4","last_reported":1700809593,"current_range_meters":30800,"station_id":"ce4bh2h2rcd13ifvqdh0","pricing_plan_id":"free"},{"bike_id":"819f8086-b171-41fd-bd6a-98768185aeba","system_id":"levelo_inurba_marseille","lat":43.290327,"lon":5.375711,"is_reserved":false,"is_disabled":false,"rental_uris":{"android":"levelo://app?vid=819f8086-b171-41fd-bd6a-98768185aeba","ios":"levelo://app?vid=819f8086-b171-41fd-bd6a-98768185aeba"},"vehicle_type_id":"4","last_reported":1700809593,"current_range_meters":28000,"station_id":"ce4bh692rcd13ifvqe90","pricing_plan_id":"free"},{"bike_id":"4effbe7d-a366-4c67-bee5-99ea66091dd0","system_id":"levelo_inurba_marseille","lat":43.2894,"lon":5.36387,"is_reserved":false,"is_disabled":false,"rental_uris":{"android":"levelo://app?vid=4effbe7d-a366-4c67-bee5-99ea66091dd0","ios":"levelo://app?vid=4effbe7d-a366-4c67-bee5-99ea66091dd0"},"vehicle_type_id":"4","last_reported":1700809593,"current_range_meters":18400,"station_id":"ce4bhc92rcd13ifvqetg","pricing_plan_id":"free"},{"bike_id":"d98b442b-9187-460d-89b6-dafcc7d64c9d","system_id":"levelo_inurba_marseille","lat":43.289184,"lon":5.366408,"is_reserved":false,"is_disabled":false,"rental_uris":{"android":"levelo://app?vid=d98b442b-9187-460d-89b6-dafcc7d64c9d","ios":"levelo://app?vid=d98b442b-9187-460d-89b6-dafcc7d64c9d"},"vehicle_type_id":"4","last_reported":1700809593,"current_range_meters":2400,"station_id":"ce4bhap2rcd13ifvqek0","pricing_plan_id":"free"},{"bike_id":"fa3a9792-9942-4a92-bb4e-6cc3f22c649c","system_id":"levelo_inurba_marseille","lat":43.28935,"lon":5.36401,"is_reserved":false,"is_disabled":false,"rental_uris":{"android":"levelo://app?vid=fa3a9792-9942-4a92-bb4e-6cc3f22c649c","ios":"levelo://app?vid=fa3a9792-9942-4a92-bb4e-6cc3f22c649c"},"vehicle_type_id":"4","last_reported":1700809593,"current_range_meters":20400,"station_id":"ce4bhc92rcd13ifvqetg","pricing_plan_id":"free"},{"bike_id":"1e9cb69b-ca21-4b17-94ec-1e4f981d8998","system_id":"levelo_inurba_marseille","lat":43.292644,"lon":5.384257,"is_reserved":false,"is_disabled":false,"rental_uris":{"android":"levelo://app?vid=1e9cb69b-ca21-4b17-94ec-1e4f981d8998","ios":"levelo://app?vid=1e9cb69b-ca21-4b17-94ec-1e4f981d8998"},"vehicle_type_id":"4","last_reported":1700809593,"current_range_meters":26000,"station_id":"ce4bh692rcd13ifvqea0","pricing_plan_id":"free"},{"bike_id":"863e6e56-adf6-442f-ae10-40308dd30818","system_id":"levelo_inurba_marseille","lat":43.231562,"lon":5.436933,"is_reserved":false,"is_disabled":false,"rental_uris":{"android":"levelo://app?vid=863e6e56-adf6-442f-ae10-40308dd30818","ios":"levelo://app?vid=863e6e56-adf6-442f-ae10-40308dd30818"},"vehicle_type_id":"4","last_reported":1700809593,"current_range_meters":13600,"station_id":"ce4bhmp2rcd13ifvqgog","pricing_plan_id":"free"},{"bike_id":"c846c7e9-99ee-4137-8ba3-55eb1a3af3d1","system_id":"levelo_inurba_marseille","lat":43.29261,"lon":5.38446,"is_reserved":false,"is_disabled":false,"rental_uris":{"android":"levelo://app?vid=c846c7e9-99ee-4137-8ba3-55eb1a3af3d1","ios":"levelo://app?vid=c846c7e9-99ee-4137-8ba3-55eb1a3af3d1"},"vehicle_type_id":"4","last_reported":1700809593,"current_range_meters":29200,"station_id":"ce4bh692rcd13ifvqea0","pricing_plan_id":"free"},{"bike_id":"62d626b9-9b74-4c67-b1bc-a3b947352e62","system_id":"levelo_inurba_marseille","lat":43.292644,"lon":5.384257,"is_reserved":false,"is_disabled":false,"rental_uris":{"android":"levelo://app?vid=62d626b9-9b74-4c67-b1bc-a3b947352e62","ios":"levelo://app?vid=62d626b9-9b74-4c67-b1bc-a3b947352e62"},"vehicle_type_id":"4","last_reported":1700809593,"current_range_meters":29600,"station_id":"ce4bh692rcd13ifvqea0","pricing_plan_id":"free"},{"bike_id":"6904b484-132c-42a8-a3c7-a1f453b205cd","system_id":"levelo_inurba_marseille","lat":43.3304,"lon":5.38919,"is_reserved":false,"is_disabled":false,"rental_uris":{"android":"levelo://app?vid=6904b484-132c-42a8-a3c7-a1f453b205cd","ios":"levelo://app?vid=6904b484-132c-42a8-a3c7-a1f453b205cd"},"vehicle_type_id":"4","last_reported":1700809593,"current_range_meters":19200,"station_id":"ce4bhr92rcd13ifvqhrg","pricing_plan_id":"free"},{"bike_id":"55466b2d-38b9-49ee-bda8-84fa58cf75ed","system_id":"levelo_inurba_marseille","lat":43.33045,"lon":5.38913,"is_reserved":false,"is_disabled":false,"rental_uris":{"android":"levelo://app?vid=55466b2d-38b9-49ee-bda8-84fa58cf75ed","ios":"levelo://app?vid=55466b2d-38b9-49ee-bda8-84fa58cf75ed"},"vehicle_type_id":"4","last_reported":1700809593,"current_range_meters":0,"station_id":"ce4bhr92rcd13ifvqhrg","pricing_plan_id":"free"},{"bike_id":"2d0ff3b7-87e0-4373-a019-a1ee022abad4","system_id":"levelo_inurba_marseille","lat":43.28875,"lon":5.37227,"is_reserved":false,"is_disabled":false,"rental_uris":{"android":"levelo://app?vid=2d0ff3b7-87e0-4373-a019-a1ee022abad4","ios":"levelo://app?vid=2d0ff3b7-87e0-4373-a019-a1ee022abad4"},"vehicle_type_id":"4","last_reported":1700809593,"current_range_meters":23200,"station_id":"ce4bh412rcd13ifvqds0","pricing_plan_id":"free"},{"bike_id":"09d61c92-4081-494c-80b4-b7aeb33d9cb6","system_id":"levelo_inurba_marseille","lat":43.289743,"lon":5.378304,"is_reserved":false,"is_disabled":false,"rental_uris":{"android":"levelo://app?vid=09d61c92-4081-494c-80b4-b7aeb33d9cb6","ios":"levelo://app?vid=09d61c92-4081-494c-80b4-b7aeb33d9cb6"},"vehicle_type_id":"4","last_reported":1700809593,"current_range_meters":24800,"station_id":"ce4bh9p2rcd13ifvqed0","pricing_plan_id":"free"},{"bike_id":"821a50aa-b6da-420f-b8c3-5feb1117110b","system_id":"levelo_inurba_marseille","lat":43.297815,"lon":5.393548,"is_reserved":false,"is_disabled":false,"rental_uris":{"android":"levelo://app?vid=821a50aa-b6da-420f-b8c3-5feb1117110b","ios":"levelo://app?vid=821a50aa-b6da-420f-b8c3-5feb1117110b"},"vehicle_type_id":"4","last_reported":1700809593,"current_range_meters":800,"station_id":"chh1huq6cuj3fo74tm60","pricing_plan_id":"free"},{"bike_id":"1dd3ab90-e36e-4307-88fd-dfab51efe060","system_id":"levelo_inurba_marseille","lat":43.289743,"lon":5.378304,"is_reserved":false,"is_disabled":false,"rental_uris":{"android":"levelo://app?vid=1dd3ab90-e36e-4307-88fd-dfab51efe060","ios":"levelo://app?vid=1dd3ab90-e36e-4307-88fd-dfab51efe060"},"vehicle_type_id":"4","last_reported":1700809593,"current_range_meters":16800,"station_id":"ce4bh9p2rcd13ifvqed0","pricing_plan_id":"free"},{"bike_id":"c96c8a11-0fe7-4dc6-99ee-ed1d4f971c2f","system_id":"levelo_inurba_marseille","lat":43.289741,"lon":5.378306,"is_reserved":false,"is_disabled":false,"rental_uris":{"android":"levelo://app?vid=c96c8a11-0fe7-4dc6-99ee-ed1d4f971c2f","ios":"levelo://app?vid=c96c8a11-0fe7-4dc6-99ee-ed1d4f971c2f"},"vehicle_type_id":"4","last_reported":1700809593,"current_range_meters":22400,"station_id":"ce4bh9p2rcd13ifvqed0","pricing_plan_id":"free"},{"bike_id":"b0014327-2692-4b1b-8ccb-9f663488f937","system_id":"levelo_inurba_marseille","lat":43.289743,"lon":5.378304,"is_reserved":false,"is_disabled":false,"rental_uris":{"android":"levelo://app?vid=b0014327-2692-4b1b-8ccb-9f663488f937","ios":"levelo://app?vid=b0014327-2692-4b1b-8ccb-9f663488f937"},"vehicle_type_id":"4","last_reported":1700809593,"current_range_meters":25200,"station_id":"ce4bh9p2rcd13ifvqed0","pricing_plan_id":"free"},{"bike_id":"82388919-49c2-4ada-876c-b10bf1534389","system_id":"levelo_inurba_marseille","lat":43.289665,"lon":5.378435,"is_reserved":false,"is_disabled":false,"rental_uris":{"android":"levelo://app?vid=82388919-49c2-4ada-876c-b10bf1534389","ios":"levelo://app?vid=82388919-49c2-4ada-876c-b10bf1534389"},"vehicle_type_id":"4","last_reported":1700809593,"current_range_meters":18400,"station_id":"ce4bh9p2rcd13ifvqed0","pricing_plan_id":"free"},{"bike_id":"88e31067-d2eb-40ef-9c4e-7d04a0275a66","system_id":"levelo_inurba_marseille","lat":43.2901,"lon":5.381269,"is_reserved":false,"is_disabled":false,"rental_uris":{"android":"levelo://app?vid=88e31067-d2eb-40ef-9c4e-7d04a0275a66","ios":"levelo://app?vid=88e31067-d2eb-40ef-9c4e-7d04a0275a66"},"vehicle_type_id":"4","last_reported":1700809593,"current_range_meters":6400,"station_id":"ce4bh4p2rcd13ifvqe1g","pricing_plan_id":"free"},{"bike_id":"4228e964-5244-4776-818e-0721d0827846","system_id":"levelo_inurba_marseille","lat":43.29022,"lon":5.38138,"is_reserved":false,"is_disabled":false,"rental_uris":{"android":"levelo://app?vid=4228e964-5244-4776-818e-0721d0827846","ios":"levelo://app?vid=4228e964-5244-4776-818e-0721d0827846"},"vehicle_type_id":"4","last_reported":1700809593,"current_range_meters":7200,"station_id":"ce4bh4p2rcd13ifvqe1g","pricing_plan_id":"free"},{"bike_id":"9bb01d71-293b-46bc-981c-9337defc9603","system_id":"levelo_inurba_marseille","lat":43.309291,"lon":5.401428,"is_reserved":false,"is_disabled":false,"rental_uris":{"android":"levelo://app?vid=9bb01d71-293b-46bc-981c-9337defc9603","ios":"levelo://app?vid=9bb01d71-293b-46bc-981c-9337defc9603"},"vehicle_type_id":"4","last_reported":1700809593,"current_range_meters":0,"station_id":"ce4bgvp2rcd13ifvqct0","pricing_plan_id":"free"},{"bike_id":"7a317aeb-c84d-4a4f-914f-fe7235e86552","system_id":"levelo_inurba_marseille","lat":43.287042,"lon":5.373834,"is_reserved":false,"is_disabled":false,"rental_uris":{"android":"levelo://app?vid=7a317aeb-c84d-4a4f-914f-fe7235e86552","ios":"levelo://app?vid=7a317aeb-c84d-4a4f-914f-fe7235e86552"},"vehicle_type_id":"4","last_reported":1700809593,"current_range_meters":18800,"station_id":"","pricing_plan_id":"free"},{"bike_id":"825cceaa-adfd-4ad4-8092-62ec85da9d00","system_id":"levelo_inurba_marseille","lat":43.29034,"lon":5.38635,"is_reserved":false,"is_disabled":false,"rental_uris":{"android":"levelo://app?vid=825cceaa-adfd-4ad4-8092-62ec85da9d00","ios":"levelo://app?vid=825cceaa-adfd-4ad4-8092-62ec85da9d00"},"vehicle_type_id":"4","last_reported":1700809593,"current_range_meters":15600,"station_id":"ce4bh4p2rcd13ifvqe0g","pricing_plan_id":"free"},{"bike_id":"8fa72159-91ce-4286-9b0a-aa422009d251","system_id":"levelo_inurba_marseille","lat":43.29033,"lon":5.38633,"is_reserved":false,"is_disabled":false,"rental_uris":{"android":"levelo://app?vid=8fa72159-91ce-4286-9b0a-aa422009d251","ios":"levelo://app?vid=8fa72159-91ce-4286-9b0a-aa422009d251"},"vehicle_type_id":"4","last_reported":1700809593,"current_range_meters":27600,"station_id":"ce4bh4p2rcd13ifvqe0g","pricing_plan_id":"free"},{"bike_id":"9a36c2a6-eb56-499a-ba9b-3aff0fa47d0c","system_id":"levelo_inurba_marseille","lat":43.29034,"lon":5.38639,"is_reserved":false,"is_disabled":false,"rental_uris":{"android":"levelo://app?vid=9a36c2a6-eb56-499a-ba9b-3aff0fa47d0c","ios":"levelo://app?vid=9a36c2a6-eb56-499a-ba9b-3aff0fa47d0c"},"vehicle_type_id":"4","last_reported":1700809593,"current_range_meters":24000,"station_id":"ce4bh4p2rcd13ifvqe0g","pricing_plan_id":"free"},{"bike_id":"e5085027-a5c1-4c7f-a4d5-5582a7a3bc33","system_id":"levelo_inurba_marseille","lat":43.29031,"lon":5.38639,"is_reserved":false,"is_disabled":false,"rental_uris":{"android":"levelo://app?vid=e5085027-a5c1-4c7f-a4d5-5582a7a3bc33","ios":"levelo://app?vid=e5085027-a5c1-4c7f-a4d5-5582a7a3bc33"},"vehicle_type_id":"4","last_reported":1700809593,"current_range_meters":22400,"station_id":"ce4bh4p2rcd13ifvqe0g","pricing_plan_id":"free"},{"bike_id":"7a363a39-a638-4309-bcbc-a334706df507","system_id":"levelo_inurba_marseille","lat":43.289307,"lon":5.38406,"is_reserved":false,"is_disabled":false,"rental_uris":{"android":"levelo://app?vid=7a363a39-a638-4309-bcbc-a334706df507","ios":"levelo://app?vid=7a363a39-a638-4309-bcbc-a334706df507"},"vehicle_type_id":"4","last_reported":1700809593,"current_range_meters":30000,"station_id":"ce4bh612rcd13ifvqe6g","pricing_plan_id":"free"},{"bike_id":"1ae693de-018b-4f4c-a7a3-61c676cff68d","system_id":"levelo_inurba_marseille","lat":43.28607,"lon":5.37065,"is_reserved":false,"is_disabled":false,"rental_uris":{"android":"levelo://app?vid=1ae693de-018b-4f4c-a7a3-61c676cff68d","ios":"levelo://app?vid=1ae693de-018b-4f4c-a7a3-61c676cff68d"},"vehicle_type_id":"4","last_reported":1700809593,"current_range_meters":22400,"station_id":"ce4bht12rcd13ifvqi60","pricing_plan_id":"free"},{"bike_id":"88680eff-1356-4e4b-8242-0bcb69fa8ea8","system_id":"levelo_inurba_marseille","lat":43.287184,"lon":5.37937,"is_reserved":false,"is_disabled":false,"rental_uris":{"android":"levelo://app?vid=88680eff-1356-4e4b-8242-0bcb69fa8ea8","ios":"levelo://app?vid=88680eff-1356-4e4b-8242-0bcb69fa8ea8"},"vehicle_type_id":"4","last_reported":1700809593,"current_range_meters":31200,"station_id":"ce4bh9p2rcd13ifvqec0","pricing_plan_id":"free"},{"bike_id":"1549d5e6-ea5f-4720-9d89-4b9a9bd0259c","system_id":"levelo_inurba_marseille","lat":43.287184,"lon":5.37937,"is_reserved":false,"is_disabled":false,"rental_uris":{"android":"levelo://app?vid=1549d5e6-ea5f-4720-9d89-4b9a9bd0259c","ios":"levelo://app?vid=1549d5e6-ea5f-4720-9d89-4b9a9bd0259c"},"vehicle_type_id":"4","last_reported":1700809593,"current_range_meters":22800,"station_id":"ce4bh9p2rcd13ifvqec0","pricing_plan_id":"free"},{"bike_id":"604a281b-c844-49ab-ae26-39a99e7e0f1c","system_id":"levelo_inurba_marseille","lat":43.287185,"lon":5.379373,"is_reserved":false,"is_disabled":false,"rental_uris":{"android":"levelo://app?vid=604a281b-c844-49ab-ae26-39a99e7e0f1c","ios":"levelo://app?vid=604a281b-c844-49ab-ae26-39a99e7e0f1c"},"vehicle_type_id":"4","last_reported":1700809593,"current_range_meters":26000,"station_id":"ce4bh9p2rcd13ifvqec0","pricing_plan_id":"free"},{"bike_id":"b61086e5-3f68-45ef-bd3b-d0d686fcf000","system_id":"levelo_inurba_marseille","lat":43.287184,"lon":5.37937,"is_reserved":false,"is_disabled":false,"rental_uris":{"android":"levelo://app?vid=b61086e5-3f68-45ef-bd3b-d0d686fcf000","ios":"levelo://app?vid=b61086e5-3f68-45ef-bd3b-d0d686fcf000"},"vehicle_type_id":"4","last_reported":1700809593,"current_range_meters":24400,"station_id":"ce4bh9p2rcd13ifvqec0","pricing_plan_id":"free"},{"bike_id":"fec28779-1b6a-4b78-b9e5-bffa9fe82365","system_id":"levelo_inurba_marseille","lat":43.28716,"lon":5.3795,"is_reserved":false,"is_disabled":false,"rental_uris":{"android":"levelo://app?vid=fec28779-1b6a-4b78-b9e5-bffa9fe82365","ios":"levelo://app?vid=fec28779-1b6a-4b78-b9e5-bffa9fe82365"},"vehicle_type_id":"4","last_reported":1700809593,"current_range_meters":4400,"station_id":"ce4bh9p2rcd13ifvqec0","pricing_plan_id":"free"},{"bike_id":"d4ce2763-8ec5-4b5d-971d-91f6d03fa477","system_id":"levelo_inurba_marseille","lat":43.287185,"lon":5.379373,"is_reserved":false,"is_disabled":false,"rental_uris":{"android":"levelo://app?vid=d4ce2763-8ec5-4b5d-971d-91f6d03fa477","ios":"levelo://app?vid=d4ce2763-8ec5-4b5d-971d-91f6d03fa477"},"vehicle_type_id":"4","last_reported":1700809593,"current_range_meters":20400,"station_id":"ce4bh9p2rcd13ifvqec0","pricing_plan_id":"free"},{"bike_id":"4df11736-64a4-4c6c-b40d-1dcdc4c117d5","system_id":"levelo_inurba_marseille","lat":43.291994,"lon":5.392907,"is_reserved":false,"is_disabled":false,"rental_uris":{"android":"levelo://app?vid=4df11736-64a4-4c6c-b40d-1dcdc4c117d5","ios":"levelo://app?vid=4df11736-64a4-4c6c-b40d-1dcdc4c117d5"},"vehicle_type_id":"4","last_reported":1700809593,"current_range_meters":30000,"station_id":"ce4bh192rcd13ifvqdd0","pricing_plan_id":"free"},{"bike_id":"2987c650-594f-4010-adbd-4c13c3de932b","system_id":"levelo_inurba_marseille","lat":43.283998,"lon":5.375062,"is_reserved":false,"is_disabled":false,"rental_uris":{"android":"levelo://app?vid=2987c650-594f-4010-adbd-4c13c3de932b","ios":"levelo://app?vid=2987c650-594f-4010-adbd-4c13c3de932b"},"vehicle_type_id":"4","last_reported":1700809593,"current_range_meters":26400,"station_id":"ce4bh412rcd13ifvqds0","pricing_plan_id":"free"},{"bike_id":"65536051-c83d-4e02-b4dd-4f1f369445db","system_id":"levelo_inurba_marseille","lat":43.284538,"lon":5.358657,"is_reserved":false,"is_disabled":false,"rental_uris":{"android":"levelo://app?vid=65536051-c83d-4e02-b4dd-4f1f369445db","ios":"levelo://app?vid=65536051-c83d-4e02-b4dd-4f1f369445db"},"vehicle_type_id":"4","last_reported":1700809593,"current_range_meters":27200,"station_id":"ce4bhah2rcd13ifvqei0","pricing_plan_id":"free"},{"bike_id":"34229c22-6060-49b5-82ec-c616f1f6c96f","system_id":"levelo_inurba_marseille","lat":43.284619,"lon":5.358901,"is_reserved":false,"is_disabled":false,"rental_uris":{"android":"levelo://app?vid=34229c22-6060-49b5-82ec-c616f1f6c96f","ios":"levelo://app?vid=34229c22-6060-49b5-82ec-c616f1f6c96f"},"vehicle_type_id":"4","last_reported":1700809593,"current_range_meters":31200,"station_id":"ce4bhah2rcd13ifvqei0","pricing_plan_id":"free"},{"bike_id":"a743f456-5a41-43d8-9e15-7dda4b853e2e","system_id":"levelo_inurba_marseille","lat":43.284595,"lon":5.358861,"is_reserved":false,"is_disabled":false,"rental_uris":{"android":"levelo://app?vid=a743f456-5a41-43d8-9e15-7dda4b853e2e","ios":"levelo://app?vid=a743f456-5a41-43d8-9e15-7dda4b853e2e"},"vehicle_type_id":"4","last_reported":1700809593,"current_range_meters":5600,"station_id":"ce4bhah2rcd13ifvqei0","pricing_plan_id":"free"},{"bike_id":"5adad94a-a6bc-4944-a8aa-264ec23de7ca","system_id":"levelo_inurba_marseille","lat":43.28456,"lon":5.35892,"is_reserved":false,"is_disabled":false,"rental_uris":{"android":"levelo://app?vid=5adad94a-a6bc-4944-a8aa-264ec23de7ca","ios":"levelo://app?vid=5adad94a-a6bc-4944-a8aa-264ec23de7ca"},"vehicle_type_id":"4","last_reported":1700809593,"current_range_meters":30000,"station_id":"ce4bhah2rcd13ifvqei0","pricing_plan_id":"free"},{"bike_id":"6640353e-f2aa-47ee-b7b1-cd2905c2a047","system_id":"levelo_inurba_marseille","lat":43.319179,"lon":5.407725,"is_reserved":false,"is_disabled":false,"rental_uris":{"android":"levelo://app?vid=6640353e-f2aa-47ee-b7b1-cd2905c2a047","ios":"levelo://app?vid=6640353e-f2aa-47ee-b7b1-cd2905c2a047"},"vehicle_type_id":"4","last_reported":1700809593,"current_range_meters":19600,"station_id":"ce4bhq12rcd13ifvqhig","pricing_plan_id":"free"},{"bike_id":"6d8ad3e9-27de-45c0-a3bc-e1ae0e08cf38","system_id":"levelo_inurba_marseille","lat":43.3189,"lon":5.40744,"is_reserved":false,"is_disabled":false,"rental_uris":{"android":"levelo://app?vid=6d8ad3e9-27de-45c0-a3bc-e1ae0e08cf38","ios":"levelo://app?vid=6d8ad3e9-27de-45c0-a3bc-e1ae0e08cf38"},"vehicle_type_id":"4","last_reported":1700809593,"current_range_meters":11600,"station_id":"ce4bhq12rcd13ifvqhig","pricing_plan_id":"free"},{"bike_id":"58542605-85da-4ed5-b606-9ce3ab03d0e2","system_id":"levelo_inurba_marseille","lat":43.33717,"lon":5.391857,"is_reserved":false,"is_disabled":false,"rental_uris":{"android":"levelo://app?vid=58542605-85da-4ed5-b606-9ce3ab03d0e2","ios":"levelo://app?vid=58542605-85da-4ed5-b606-9ce3ab03d0e2"},"vehicle_type_id":"4","last_reported":1700809593,"current_range_meters":30400,"station_id":"ce4bhr92rcd13ifvqhsg","pricing_plan_id":"free"},{"bike_id":"eb1529ca-da88-4ad1-8623-8a2076d8e5f7","system_id":"levelo_inurba_marseille","lat":43.323464,"lon":5.406297,"is_reserved":false,"is_disabled":false,"rental_uris":{"android":"levelo://app?vid=eb1529ca-da88-4ad1-8623-8a2076d8e5f7","ios":"levelo://app?vid=eb1529ca-da88-4ad1-8623-8a2076d8e5f7"},"vehicle_type_id":"4","last_reported":1700809593,"current_range_meters":30000,"station_id":"ce4bhq92rcd13ifvqhjg","pricing_plan_id":"free"},{"bike_id":"d9785b0c-0523-4b8b-9f28-f29210b1a5eb","system_id":"levelo_inurba_marseille","lat":43.32343,"lon":5.40621,"is_reserved":false,"is_disabled":false,"rental_uris":{"android":"levelo://app?vid=d9785b0c-0523-4b8b-9f28-f29210b1a5eb","ios":"levelo://app?vid=d9785b0c-0523-4b8b-9f28-f29210b1a5eb"},"vehicle_type_id":"4","last_reported":1700809593,"current_range_meters":27600,"station_id":"ce4bhq92rcd13ifvqhjg","pricing_plan_id":"free"},{"bike_id":"e15ebdca-41b0-4419-938f-5140514c1a22","system_id":"levelo_inurba_marseille","lat":43.28485,"lon":5.3842,"is_reserved":false,"is_disabled":false,"rental_uris":{"android":"levelo://app?vid=e15ebdca-41b0-4419-938f-5140514c1a22","ios":"levelo://app?vid=e15ebdca-41b0-4419-938f-5140514c1a22"},"vehicle_type_id":"4","last_reported":1700809593,"current_range_meters":19600,"station_id":"ce4bh512rcd13ifvqe3g","pricing_plan_id":"free"},{"bike_id":"c7217aeb-555a-4306-9a69-74cbaf733d27","system_id":"levelo_inurba_marseille","lat":43.29795,"lon":5.404086,"is_reserved":false,"is_disabled":false,"rental_uris":{"android":"levelo://app?vid=c7217aeb-555a-4306-9a69-74cbaf733d27","ios":"levelo://app?vid=c7217aeb-555a-4306-9a69-74cbaf733d27"},"vehicle_type_id":"4","last_reported":1700809593,"current_range_meters":26000,"station_id":"ce4bh112rcd13ifvqd90","pricing_plan_id":"free"},{"bike_id":"2070acb7-bcbb-4403-ba6a-18ccd4033915","system_id":"levelo_inurba_marseille","lat":43.29795,"lon":5.404086,"is_reserved":false,"is_disabled":false,"rental_uris":{"android":"levelo://app?vid=2070acb7-bcbb-4403-ba6a-18ccd4033915","ios":"levelo://app?vid=2070acb7-bcbb-4403-ba6a-18ccd4033915"},"vehicle_type_id":"4","last_reported":1700809593,"current_range_meters":30400,"station_id":"ce4bh112rcd13ifvqd90","pricing_plan_id":"free"},{"bike_id":"2e91d885-fe11-4995-b6eb-f767ea4dc383","system_id":"levelo_inurba_marseille","lat":43.29795,"lon":5.404086,"is_reserved":false,"is_disabled":false,"rental_uris":{"android":"levelo://app?vid=2e91d885-fe11-4995-b6eb-f767ea4dc383","ios":"levelo://app?vid=2e91d885-fe11-4995-b6eb-f767ea4dc383"},"vehicle_type_id":"4","last_reported":1700809593,"current_range_meters":21600,"station_id":"ce4bh112rcd13ifvqd90","pricing_plan_id":"free"},{"bike_id":"1b78cc78-87e2-439b-b898-4938ad3d9b33","system_id":"levelo_inurba_marseille","lat":43.2836,"lon":5.38102,"is_reserved":false,"is_disabled":false,"rental_uris":{"android":"levelo://app?vid=1b78cc78-87e2-439b-b898-4938ad3d9b33","ios":"levelo://app?vid=1b78cc78-87e2-439b-b898-4938ad3d9b33"},"vehicle_type_id":"4","last_reported":1700809593,"current_range_meters":15200,"station_id":"ce4bh412rcd13ifvqdr0","pricing_plan_id":"free"},{"bike_id":"2a943231-d7bb-4010-81e2-dee3ce9ed97d","system_id":"levelo_inurba_marseille","lat":43.28353,"lon":5.38098,"is_reserved":false,"is_disabled":false,"rental_uris":{"android":"levelo://app?vid=2a943231-d7bb-4010-81e2-dee3ce9ed97d","ios":"levelo://app?vid=2a943231-d7bb-4010-81e2-dee3ce9ed97d"},"vehicle_type_id":"4","last_reported":1700809593,"current_range_meters":29200,"station_id":"ce4bh412rcd13ifvqdr0","pricing_plan_id":"free"},{"bike_id":"21b22b7b-4d2f-4387-8c5e-692005bf0da8","system_id":"levelo_inurba_marseille","lat":43.283498,"lon":5.380948,"is_reserved":false,"is_disabled":false,"rental_uris":{"android":"levelo://app?vid=21b22b7b-4d2f-4387-8c5e-692005bf0da8","ios":"levelo://app?vid=21b22b7b-4d2f-4387-8c5e-692005bf0da8"},"vehicle_type_id":"4","last_reported":1700809593,"current_range_meters":10400,"station_id":"ce4bh412rcd13ifvqdr0","pricing_plan_id":"free"},{"bike_id":"7aa5e2ac-a765-47ab-a9c5-33ab7c387a75","system_id":"levelo_inurba_marseille","lat":43.283494,"lon":5.380945,"is_reserved":false,"is_disabled":false,"rental_uris":{"android":"levelo://app?vid=7aa5e2ac-a765-47ab-a9c5-33ab7c387a75","ios":"levelo://app?vid=7aa5e2ac-a765-47ab-a9c5-33ab7c387a75"},"vehicle_type_id":"4","last_reported":1700809593,"current_range_meters":31200,"station_id":"ce4bh412rcd13ifvqdr0","pricing_plan_id":"free"},{"bike_id":"d316f546-bdf3-4b5c-85bf-17593329fd90","system_id":"levelo_inurba_marseille","lat":43.283498,"lon":5.380948,"is_reserved":false,"is_disabled":false,"rental_uris":{"android":"levelo://app?vid=d316f546-bdf3-4b5c-85bf-17593329fd90","ios":"levelo://app?vid=d316f546-bdf3-4b5c-85bf-17593329fd90"},"vehicle_type_id":"4","last_reported":1700809593,"current_range_meters":4400,"station_id":"ce4bh412rcd13ifvqdr0","pricing_plan_id":"free"},{"bike_id":"63c32f64-667f-43e6-ae83-e32a61eed252","system_id":"levelo_inurba_marseille","lat":43.283498,"lon":5.380948,"is_reserved":false,"is_disabled":false,"rental_uris":{"android":"levelo://app?vid=63c32f64-667f-43e6-ae83-e32a61eed252","ios":"levelo://app?vid=63c32f64-667f-43e6-ae83-e32a61eed252"},"vehicle_type_id":"4","last_reported":1700809593,"current_range_meters":20400,"station_id":"ce4bh412rcd13ifvqdr0","pricing_plan_id":"free"},{"bike_id":"c64eee2e-a110-4df2-9eb5-0f7ae9bbf6c9","system_id":"levelo_inurba_marseille","lat":43.28353,"lon":5.3811,"is_reserved":false,"is_disabled":false,"rental_uris":{"android":"levelo://app?vid=c64eee2e-a110-4df2-9eb5-0f7ae9bbf6c9","ios":"levelo://app?vid=c64eee2e-a110-4df2-9eb5-0f7ae9bbf6c9"},"vehicle_type_id":"4","last_reported":1700809593,"current_range_meters":28000,"station_id":"ce4bh412rcd13ifvqdr0","pricing_plan_id":"free"},{"bike_id":"ea7d4898-2b32-4f2f-aca7-5b6f3f3e9eb0","system_id":"levelo_inurba_marseille","lat":43.283494,"lon":5.380945,"is_reserved":false,"is_disabled":false,"rental_uris":{"android":"levelo://app?vid=ea7d4898-2b32-4f2f-aca7-5b6f3f3e9eb0","ios":"levelo://app?vid=ea7d4898-2b32-4f2f-aca7-5b6f3f3e9eb0"},"vehicle_type_id":"4","last_reported":1700809593,"current_range_meters":30800,"station_id":"ce4bh412rcd13ifvqdr0","pricing_plan_id":"free"},{"bike_id":"70a49a83-3d2a-4093-9cb6-91855e264985","system_id":"levelo_inurba_marseille","lat":43.283432,"lon":5.381045,"is_reserved":false,"is_disabled":false,"rental_uris":{"android":"levelo://app?vid=70a49a83-3d2a-4093-9cb6-91855e264985","ios":"levelo://app?vid=70a49a83-3d2a-4093-9cb6-91855e264985"},"vehicle_type_id":"4","last_reported":1700809593,"current_range_meters":6000,"station_id":"ce4bh412rcd13ifvqdr0","pricing_plan_id":"free"},{"bike_id":"2087466b-8572-4def-aadd-314552370cf4","system_id":"levelo_inurba_marseille","lat":43.283498,"lon":5.380948,"is_reserved":false,"is_disabled":false,"rental_uris":{"android":"levelo://app?vid=2087466b-8572-4def-aadd-314552370cf4","ios":"levelo://app?vid=2087466b-8572-4def-aadd-314552370cf4"},"vehicle_type_id":"4","last_reported":1700809593,"current_range_meters":26000,"station_id":"ce4bh412rcd13ifvqdr0","pricing_plan_id":"free"},{"bike_id":"bb9e7f55-e832-4d3b-bbc3-d299b4f04884","system_id":"levelo_inurba_marseille","lat":43.28337,"lon":5.38103,"is_reserved":false,"is_disabled":false,"rental_uris":{"android":"levelo://app?vid=bb9e7f55-e832-4d3b-bbc3-d299b4f04884","ios":"levelo://app?vid=bb9e7f55-e832-4d3b-bbc3-d299b4f04884"},"vehicle_type_id":"4","last_reported":1700809593,"current_range_meters":26400,"station_id":"ce4bh412rcd13ifvqdr0","pricing_plan_id":"free"},{"bike_id":"c720f617-763d-4cf6-b9f2-f8e3d39c47cf","system_id":"levelo_inurba_marseille","lat":43.284217,"lon":5.349697,"is_reserved":false,"is_disabled":false,"rental_uris":{"android":"levelo://app?vid=c720f617-763d-4cf6-b9f2-f8e3d39c47cf","ios":"levelo://app?vid=c720f617-763d-4cf6-b9f2-f8e3d39c47cf"},"vehicle_type_id":"4","last_reported":1700809593,"current_range_meters":23200,"station_id":"ce4bhbh2rcd13ifvqepg","pricing_plan_id":"free"},{"bike_id":"e2284003-4e46-4e0a-93e7-73d05c3666d9","system_id":"levelo_inurba_marseille","lat":43.33479,"lon":5.39788,"is_reserved":false,"is_disabled":false,"rental_uris":{"android":"levelo://app?vid=e2284003-4e46-4e0a-93e7-73d05c3666d9","ios":"levelo://app?vid=e2284003-4e46-4e0a-93e7-73d05c3666d9"},"vehicle_type_id":"4","last_reported":1700809593,"current_range_meters":25600,"station_id":"","pricing_plan_id":"free"},{"bike_id":"a2a82350-e89c-48c5-ac73-d8218bdcfba0","system_id":"levelo_inurba_marseille","lat":43.289363,"lon":5.396322,"is_reserved":false,"is_disabled":false,"rental_uris":{"android":"levelo://app?vid=a2a82350-e89c-48c5-ac73-d8218bdcfba0","ios":"levelo://app?vid=a2a82350-e89c-48c5-ac73-d8218bdcfba0"},"vehicle_type_id":"4","last_reported":1700809593,"current_range_meters":21200,"station_id":"ce4bh3h2rcd13ifvqdn0","pricing_plan_id":"free"},{"bike_id":"b4bc6c19-20e6-4b1e-b989-40d4ba171e93","system_id":"levelo_inurba_marseille","lat":43.33528,"lon":5.397567,"is_reserved":false,"is_disabled":false,"rental_uris":{"android":"levelo://app?vid=b4bc6c19-20e6-4b1e-b989-40d4ba171e93","ios":"levelo://app?vid=b4bc6c19-20e6-4b1e-b989-40d4ba171e93"},"vehicle_type_id":"4","last_reported":1700809593,"current_range_meters":6400,"station_id":"","pricing_plan_id":"free"},{"bike_id":"fc231c5f-d015-44c9-bf62-cb4400e16e74","system_id":"levelo_inurba_marseille","lat":43.29199,"lon":5.40002,"is_reserved":false,"is_disabled":false,"rental_uris":{"android":"levelo://app?vid=fc231c5f-d015-44c9-bf62-cb4400e16e74","ios":"levelo://app?vid=fc231c5f-d015-44c9-bf62-cb4400e16e74"},"vehicle_type_id":"4","last_reported":1700809593,"current_range_meters":8000,"station_id":"","pricing_plan_id":"free"},{"bike_id":"3329559f-af99-4186-a1d6-aeb031e1f9f0","system_id":"levelo_inurba_marseille","lat":43.292724,"lon":5.401131,"is_reserved":false,"is_disabled":false,"rental_uris":{"android":"levelo://app?vid=3329559f-af99-4186-a1d6-aeb031e1f9f0","ios":"levelo://app?vid=3329559f-af99-4186-a1d6-aeb031e1f9f0"},"vehicle_type_id":"4","last_reported":1700809593,"current_range_meters":22400,"station_id":"ce4bh312rcd13ifvqdk0","pricing_plan_id":"free"},{"bike_id":"cc597062-c2b3-4454-ae2d-de2a596ef936","system_id":"levelo_inurba_marseille","lat":43.29126,"lon":5.3997,"is_reserved":false,"is_disabled":false,"rental_uris":{"android":"levelo://app?vid=cc597062-c2b3-4454-ae2d-de2a596ef936","ios":"levelo://app?vid=cc597062-c2b3-4454-ae2d-de2a596ef936"},"vehicle_type_id":"4","last_reported":1700809593,"current_range_meters":10800,"station_id":"","pricing_plan_id":"free"},{"bike_id":"e5bbb8fe-81fb-484e-8e21-9ee50ab8036f","system_id":"levelo_inurba_marseille","lat":43.28268,"lon":5.35082,"is_reserved":false,"is_disabled":false,"rental_uris":{"android":"levelo://app?vid=e5bbb8fe-81fb-484e-8e21-9ee50ab8036f","ios":"levelo://app?vid=e5bbb8fe-81fb-484e-8e21-9ee50ab8036f"},"vehicle_type_id":"4","last_reported":1700809593,"current_range_meters":27200,"station_id":"ce4bhbp2rcd13ifvqerg","pricing_plan_id":"free"},{"bike_id":"5bd64c01-7024-4992-89f7-444df0fb7af5","system_id":"levelo_inurba_marseille","lat":43.282754,"lon":5.350519,"is_reserved":false,"is_disabled":false,"rental_uris":{"android":"levelo://app?vid=5bd64c01-7024-4992-89f7-444df0fb7af5","ios":"levelo://app?vid=5bd64c01-7024-4992-89f7-444df0fb7af5"},"vehicle_type_id":"4","last_reported":1700809593,"current_range_meters":31200,"station_id":"ce4bhbp2rcd13ifvqerg","pricing_plan_id":"free"},{"bike_id":"044ec91b-193a-4843-84bb-e50cbbe58836","system_id":"levelo_inurba_marseille","lat":43.282754,"lon":5.350519,"is_reserved":false,"is_disabled":false,"rental_uris":{"android":"levelo://app?vid=044ec91b-193a-4843-84bb-e50cbbe58836","ios":"levelo://app?vid=044ec91b-193a-4843-84bb-e50cbbe58836"},"vehicle_type_id":"4","last_reported":1700809593,"current_range_meters":29600,"station_id":"ce4bhbp2rcd13ifvqerg","pricing_plan_id":"free"},{"bike_id":"cc85afd8-23f2-4489-be9e-43dde56b8c74","system_id":"levelo_inurba_marseille","lat":43.282754,"lon":5.350519,"is_reserved":false,"is_disabled":false,"rental_uris":{"android":"levelo://app?vid=cc85afd8-23f2-4489-be9e-43dde56b8c74","ios":"levelo://app?vid=cc85afd8-23f2-4489-be9e-43dde56b8c74"},"vehicle_type_id":"4","last_reported":1700809593,"current_range_meters":25200,"station_id":"ce4bhbp2rcd13ifvqerg","pricing_plan_id":"free"},{"bike_id":"db927534-230a-4c4e-ba4b-6e34d5468c87","system_id":"levelo_inurba_marseille","lat":43.282754,"lon":5.350519,"is_reserved":false,"is_disabled":false,"rental_uris":{"android":"levelo://app?vid=db927534-230a-4c4e-ba4b-6e34d5468c87","ios":"levelo://app?vid=db927534-230a-4c4e-ba4b-6e34d5468c87"},"vehicle_type_id":"4","last_reported":1700809593,"current_range_meters":6400,"station_id":"ce4bhbp2rcd13ifvqerg","pricing_plan_id":"free"},{"bike_id":"43f39379-8444-4334-83cf-c38f5d6ada34","system_id":"levelo_inurba_marseille","lat":43.290412,"lon":5.399633,"is_reserved":false,"is_disabled":false,"rental_uris":{"android":"levelo://app?vid=43f39379-8444-4334-83cf-c38f5d6ada34","ios":"levelo://app?vid=43f39379-8444-4334-83cf-c38f5d6ada34"},"vehicle_type_id":"4","last_reported":1700809593,"current_range_meters":23600,"station_id":"ce4bh392rcd13ifvqdm0","pricing_plan_id":"free"},{"bike_id":"28514709-c17b-481d-967c-f64731d17a06","system_id":"levelo_inurba_marseille","lat":43.29041,"lon":5.399634,"is_reserved":false,"is_disabled":false,"rental_uris":{"android":"levelo://app?vid=28514709-c17b-481d-967c-f64731d17a06","ios":"levelo://app?vid=28514709-c17b-481d-967c-f64731d17a06"},"vehicle_type_id":"4","last_reported":1700809593,"current_range_meters":800,"station_id":"ce4bh392rcd13ifvqdm0","pricing_plan_id":"free"},{"bike_id":"96067701-7dea-4707-9490-aadb87ed701b","system_id":"levelo_inurba_marseille","lat":43.290412,"lon":5.399633,"is_reserved":false,"is_disabled":false,"rental_uris":{"android":"levelo://app?vid=96067701-7dea-4707-9490-aadb87ed701b","ios":"levelo://app?vid=96067701-7dea-4707-9490-aadb87ed701b"},"vehicle_type_id":"4","last_reported":1700809593,"current_range_meters":31600,"station_id":"ce4bh392rcd13ifvqdm0","pricing_plan_id":"free"},{"bike_id":"baf62836-4b72-420b-a158-86e284a425b2","system_id":"levelo_inurba_marseille","lat":43.259013,"lon":5.409301,"is_reserved":false,"is_disabled":false,"rental_uris":{"android":"levelo://app?vid=baf62836-4b72-420b-a158-86e284a425b2","ios":"levelo://app?vid=baf62836-4b72-420b-a158-86e284a425b2"},"vehicle_type_id":"4","last_reported":1700809593,"current_range_meters":28400,"station_id":"ce4bhm92rcd13ifvqglg","pricing_plan_id":"free"},{"bike_id":"983911b0-09e9-4271-9035-1e4fe3da8518","system_id":"levelo_inurba_marseille","lat":43.28446,"lon":5.39189,"is_reserved":false,"is_disabled":false,"rental_uris":{"android":"levelo://app?vid=983911b0-09e9-4271-9035-1e4fe3da8518","ios":"levelo://app?vid=983911b0-09e9-4271-9035-1e4fe3da8518"},"vehicle_type_id":"4","last_reported":1700809593,"current_range_meters":23600,"station_id":"ce4bhoh2rcd13ifvqh5g","pricing_plan_id":"free"},{"bike_id":"798da89f-d49c-40a4-91c1-9dbb1c2ca304","system_id":"levelo_inurba_marseille","lat":43.28441,"lon":5.39186,"is_reserved":false,"is_disabled":false,"rental_uris":{"android":"levelo://app?vid=798da89f-d49c-40a4-91c1-9dbb1c2ca304","ios":"levelo://app?vid=798da89f-d49c-40a4-91c1-9dbb1c2ca304"},"vehicle_type_id":"4","last_reported":1700809593,"current_range_meters":12400,"station_id":"ce4bhoh2rcd13ifvqh5g","pricing_plan_id":"free"},{"bike_id":"5de45e7e-42bc-4fd8-9d52-80f700812aa8","system_id":"levelo_inurba_marseille","lat":43.326605,"lon":5.409903,"is_reserved":false,"is_disabled":false,"rental_uris":{"android":"levelo://app?vid=5de45e7e-42bc-4fd8-9d52-80f700812aa8","ios":"levelo://app?vid=5de45e7e-42bc-4fd8-9d52-80f700812aa8"},"vehicle_type_id":"4","last_reported":1700809593,"current_range_meters":16400,"station_id":"ce4bhpp2rcd13ifvqhgg","pricing_plan_id":"free"},{"bike_id":"e8997d84-e9e0-4aaa-a76a-c6d2af7271c7","system_id":"levelo_inurba_marseille","lat":43.298796,"lon":5.410182,"is_reserved":false,"is_disabled":false,"rental_uris":{"android":"levelo://app?vid=e8997d84-e9e0-4aaa-a76a-c6d2af7271c7","ios":"levelo://app?vid=e8997d84-e9e0-4aaa-a76a-c6d2af7271c7"},"vehicle_type_id":"4","last_reported":1700809593,"current_range_meters":800,"station_id":"","pricing_plan_id":"free"},{"bike_id":"d9ee1303-8257-4302-9f31-6d4519e7b33d","system_id":"levelo_inurba_marseille","lat":43.320045,"lon":5.415048,"is_reserved":false,"is_disabled":false,"rental_uris":{"android":"levelo://app?vid=d9ee1303-8257-4302-9f31-6d4519e7b33d","ios":"levelo://app?vid=d9ee1303-8257-4302-9f31-6d4519e7b33d"},"vehicle_type_id":"4","last_reported":1700809593,"current_range_meters":14800,"station_id":"ce4bhq92rcd13ifvqhkg","pricing_plan_id":"free"},{"bike_id":"a8e2b52b-9ba9-4b70-bcb4-1e1ad46ab6fe","system_id":"levelo_inurba_marseille","lat":43.29937,"lon":5.41327,"is_reserved":false,"is_disabled":false,"rental_uris":{"android":"levelo://app?vid=a8e2b52b-9ba9-4b70-bcb4-1e1ad46ab6fe","ios":"levelo://app?vid=a8e2b52b-9ba9-4b70-bcb4-1e1ad46ab6fe"},"vehicle_type_id":"4","last_reported":1700809593,"current_range_meters":28400,"station_id":"ce4bhp12rcd13ifvqh9g","pricing_plan_id":"free"},{"bike_id":"af500d93-c9ad-4e04-bf76-ece2ee2dea24","system_id":"levelo_inurba_marseille","lat":43.279742,"lon":5.38744,"is_reserved":false,"is_disabled":false,"rental_uris":{"android":"levelo://app?vid=af500d93-c9ad-4e04-bf76-ece2ee2dea24","ios":"levelo://app?vid=af500d93-c9ad-4e04-bf76-ece2ee2dea24"},"vehicle_type_id":"4","last_reported":1700809593,"current_range_meters":24800,"station_id":"ce4bhg12rcd13ifvqf80","pricing_plan_id":"free"},{"bike_id":"544de4ed-1963-4446-9cb3-8e2ebfad80af","system_id":"levelo_inurba_marseille","lat":43.292522,"lon":5.40908,"is_reserved":false,"is_disabled":false,"rental_uris":{"android":"levelo://app?vid=544de4ed-1963-4446-9cb3-8e2ebfad80af","ios":"levelo://app?vid=544de4ed-1963-4446-9cb3-8e2ebfad80af"},"vehicle_type_id":"4","last_reported":1700809593,"current_range_meters":0,"station_id":"ce4bh192rcd13ifvqdc0","pricing_plan_id":"free"},{"bike_id":"380bea03-66b9-494a-9d3c-ad0da1c35a22","system_id":"levelo_inurba_marseille","lat":43.293668,"lon":5.412606,"is_reserved":false,"is_disabled":false,"rental_uris":{"android":"levelo://app?vid=380bea03-66b9-494a-9d3c-ad0da1c35a22","ios":"levelo://app?vid=380bea03-66b9-494a-9d3c-ad0da1c35a22"},"vehicle_type_id":"4","last_reported":1700809593,"current_range_meters":0,"station_id":"","pricing_plan_id":"free"},{"bike_id":"cc2e1af4-93b7-4009-b68d-dd28b9f20357","system_id":"levelo_inurba_marseille","lat":43.275625,"lon":5.384392,"is_reserved":false,"is_disabled":false,"rental_uris":{"android":"levelo://app?vid=cc2e1af4-93b7-4009-b68d-dd28b9f20357","ios":"levelo://app?vid=cc2e1af4-93b7-4009-b68d-dd28b9f20357"},"vehicle_type_id":"4","last_reported":1700809593,"current_range_meters":14800,"station_id":"ce4bhh92rcd13ifvqfi0","pricing_plan_id":"free"},{"bike_id":"27ecb065-6c46-4fb1-b2f9-6ac22d921424","system_id":"levelo_inurba_marseille","lat":43.33612,"lon":5.410321,"is_reserved":false,"is_disabled":false,"rental_uris":{"android":"levelo://app?vid=27ecb065-6c46-4fb1-b2f9-6ac22d921424","ios":"levelo://app?vid=27ecb065-6c46-4fb1-b2f9-6ac22d921424"},"vehicle_type_id":"4","last_reported":1700809593,"current_range_meters":6400,"station_id":"ce4bhqh2rcd13ifvqhmg","pricing_plan_id":"free"},{"bike_id":"99cdfccc-b6d1-4d42-a20b-b719e8222b3e","system_id":"levelo_inurba_marseille","lat":43.33612,"lon":5.410321,"is_reserved":false,"is_disabled":false,"rental_uris":{"android":"levelo://app?vid=99cdfccc-b6d1-4d42-a20b-b719e8222b3e","ios":"levelo://app?vid=99cdfccc-b6d1-4d42-a20b-b719e8222b3e"},"vehicle_type_id":"4","last_reported":1700809593,"current_range_meters":28800,"station_id":"ce4bhqh2rcd13ifvqhmg","pricing_plan_id":"free"},{"bike_id":"cd7bd168-1769-4b32-aa23-8b4638965d6e","system_id":"levelo_inurba_marseille","lat":43.276769,"lon":5.388787,"is_reserved":false,"is_disabled":false,"rental_uris":{"android":"levelo://app?vid=cd7bd168-1769-4b32-aa23-8b4638965d6e","ios":"levelo://app?vid=cd7bd168-1769-4b32-aa23-8b4638965d6e"},"vehicle_type_id":"4","last_reported":1700809593,"current_range_meters":22400,"station_id":"ce4bhi12rcd13ifvqfo0","pricing_plan_id":"free"},{"bike_id":"9a8f26ec-f183-465f-9363-2c44d4d80177","system_id":"levelo_inurba_marseille","lat":43.33612,"lon":5.410321,"is_reserved":false,"is_disabled":false,"rental_uris":{"android":"levelo://app?vid=9a8f26ec-f183-465f-9363-2c44d4d80177","ios":"levelo://app?vid=9a8f26ec-f183-465f-9363-2c44d4d80177"},"vehicle_type_id":"4","last_reported":1700809593,"current_range_meters":26800,"station_id":"ce4bhqh2rcd13ifvqhmg","pricing_plan_id":"free"},{"bike_id":"b7ec749c-e206-49a9-85f1-90aade14f096","system_id":"levelo_inurba_marseille","lat":43.336134,"lon":5.410341,"is_reserved":false,"is_disabled":false,"rental_uris":{"android":"levelo://app?vid=b7ec749c-e206-49a9-85f1-90aade14f096","ios":"levelo://app?vid=b7ec749c-e206-49a9-85f1-90aade14f096"},"vehicle_type_id":"4","last_reported":1700809593,"current_range_meters":31200,"station_id":"ce4bhqh2rcd13ifvqhmg","pricing_plan_id":"free"},{"bike_id":"213432c7-3891-4672-8f3c-55afb1a60127","system_id":"levelo_inurba_marseille","lat":43.336148,"lon":5.410349,"is_reserved":false,"is_disabled":false,"rental_uris":{"android":"levelo://app?vid=213432c7-3891-4672-8f3c-55afb1a60127","ios":"levelo://app?vid=213432c7-3891-4672-8f3c-55afb1a60127"},"vehicle_type_id":"4","last_reported":1700809593,"current_range_meters":17200,"station_id":"ce4bhqh2rcd13ifvqhmg","pricing_plan_id":"free"},{"bike_id":"131f2037-90b7-4650-b485-3f061034eef5","system_id":"levelo_inurba_marseille","lat":43.336134,"lon":5.410341,"is_reserved":false,"is_disabled":false,"rental_uris":{"android":"levelo://app?vid=131f2037-90b7-4650-b485-3f061034eef5","ios":"levelo://app?vid=131f2037-90b7-4650-b485-3f061034eef5"},"vehicle_type_id":"4","last_reported":1700809593,"current_range_meters":18000,"station_id":"ce4bhqh2rcd13ifvqhmg","pricing_plan_id":"free"},{"bike_id":"f8a0f897-3932-442f-ac26-61c29ebf19a8","system_id":"levelo_inurba_marseille","lat":43.276769,"lon":5.388787,"is_reserved":false,"is_disabled":false,"rental_uris":{"android":"levelo://app?vid=f8a0f897-3932-442f-ac26-61c29ebf19a8","ios":"levelo://app?vid=f8a0f897-3932-442f-ac26-61c29ebf19a8"},"vehicle_type_id":"4","last_reported":1700809593,"current_range_meters":22400,"station_id":"ce4bhi12rcd13ifvqfo0","pricing_plan_id":"free"},{"bike_id":"422eaa23-7465-45a6-8f34-ef03bb0d0a13","system_id":"levelo_inurba_marseille","lat":43.340804,"lon":5.410219,"is_reserved":false,"is_disabled":false,"rental_uris":{"android":"levelo://app?vid=422eaa23-7465-45a6-8f34-ef03bb0d0a13","ios":"levelo://app?vid=422eaa23-7465-45a6-8f34-ef03bb0d0a13"},"vehicle_type_id":"4","last_reported":1700809593,"current_range_meters":24000,"station_id":"ce4bhqh2rcd13ifvqhlg","pricing_plan_id":"free"},{"bike_id":"ee3353de-ad16-41b2-900b-c0d5b5e68caf","system_id":"levelo_inurba_marseille","lat":43.340804,"lon":5.410219,"is_reserved":false,"is_disabled":false,"rental_uris":{"android":"levelo://app?vid=ee3353de-ad16-41b2-900b-c0d5b5e68caf","ios":"levelo://app?vid=ee3353de-ad16-41b2-900b-c0d5b5e68caf"},"vehicle_type_id":"4","last_reported":1700809593,"current_range_meters":30800,"station_id":"ce4bhqh2rcd13ifvqhlg","pricing_plan_id":"free"},{"bike_id":"f6d19d1b-693b-4963-ba5a-4b930cec88fd","system_id":"levelo_inurba_marseille","lat":43.340804,"lon":5.410219,"is_reserved":false,"is_disabled":false,"rental_uris":{"android":"levelo://app?vid=f6d19d1b-693b-4963-ba5a-4b930cec88fd","ios":"levelo://app?vid=f6d19d1b-693b-4963-ba5a-4b930cec88fd"},"vehicle_type_id":"4","last_reported":1700809593,"current_range_meters":30800,"station_id":"ce4bhqh2rcd13ifvqhlg","pricing_plan_id":"free"},{"bike_id":"e0251fd8-4e40-4ecc-8379-605029ccde6c","system_id":"levelo_inurba_marseille","lat":43.340804,"lon":5.410219,"is_reserved":false,"is_disabled":false,"rental_uris":{"android":"levelo://app?vid=e0251fd8-4e40-4ecc-8379-605029ccde6c","ios":"levelo://app?vid=e0251fd8-4e40-4ecc-8379-605029ccde6c"},"vehicle_type_id":"4","last_reported":1700809593,"current_range_meters":9600,"station_id":"ce4bhqh2rcd13ifvqhlg","pricing_plan_id":"free"},{"bike_id":"48565e36-de67-4c6a-8337-460138cf3900","system_id":"levelo_inurba_marseille","lat":43.340804,"lon":5.410219,"is_reserved":false,"is_disabled":false,"rental_uris":{"android":"levelo://app?vid=48565e36-de67-4c6a-8337-460138cf3900","ios":"levelo://app?vid=48565e36-de67-4c6a-8337-460138cf3900"},"vehicle_type_id":"4","last_reported":1700809593,"current_range_meters":13600,"station_id":"ce4bhqh2rcd13ifvqhlg","pricing_plan_id":"free"},{"bike_id":"04c48993-d044-41c4-9cb8-117723655329","system_id":"levelo_inurba_marseille","lat":43.340804,"lon":5.410219,"is_reserved":false,"is_disabled":false,"rental_uris":{"android":"levelo://app?vid=04c48993-d044-41c4-9cb8-117723655329","ios":"levelo://app?vid=04c48993-d044-41c4-9cb8-117723655329"},"vehicle_type_id":"4","last_reported":1700809593,"current_range_meters":20400,"station_id":"ce4bhqh2rcd13ifvqhlg","pricing_plan_id":"free"},{"bike_id":"f887818b-9791-45ee-a054-0829c42c44f8","system_id":"levelo_inurba_marseille","lat":43.274099,"lon":5.394019,"is_reserved":false,"is_disabled":false,"rental_uris":{"android":"levelo://app?vid=f887818b-9791-45ee-a054-0829c42c44f8","ios":"levelo://app?vid=f887818b-9791-45ee-a054-0829c42c44f8"},"vehicle_type_id":"4","last_reported":1700809593,"current_range_meters":23600,"station_id":"ce4bhdp2rcd13ifvqf20","pricing_plan_id":"free"},{"bike_id":"f81de44f-7c01-4de9-806e-35d8e8fbafd9","system_id":"levelo_inurba_marseille","lat":43.304096,"lon":5.425385,"is_reserved":false,"is_disabled":false,"rental_uris":{"android":"levelo://app?vid=f81de44f-7c01-4de9-806e-35d8e8fbafd9","ios":"levelo://app?vid=f81de44f-7c01-4de9-806e-35d8e8fbafd9"},"vehicle_type_id":"4","last_reported":1700809593,"current_range_meters":18800,"station_id":"ce4bhoh2rcd13ifvqh6g","pricing_plan_id":"free"},{"bike_id":"b044c956-5275-44de-9ec4-2b01ab2e08e5","system_id":"levelo_inurba_marseille","lat":43.295523,"lon":5.422926,"is_reserved":false,"is_disabled":false,"rental_uris":{"android":"levelo://app?vid=b044c956-5275-44de-9ec4-2b01ab2e08e5","ios":"levelo://app?vid=b044c956-5275-44de-9ec4-2b01ab2e08e5"},"vehicle_type_id":"4","last_reported":1700809593,"current_range_meters":18000,"station_id":"ce4bhph2rcd13ifvqhdg","pricing_plan_id":"free"},{"bike_id":"959365cd-4d36-4918-bc96-3e1db69d5c66","system_id":"levelo_inurba_marseille","lat":43.27198,"lon":5.39188,"is_reserved":false,"is_disabled":false,"rental_uris":{"android":"levelo://app?vid=959365cd-4d36-4918-bc96-3e1db69d5c66","ios":"levelo://app?vid=959365cd-4d36-4918-bc96-3e1db69d5c66"},"vehicle_type_id":"4","last_reported":1700809593,"current_range_meters":17200,"station_id":"ce4bhhp2rcd13ifvqfm0","pricing_plan_id":"free"},{"bike_id":"48c1fbfb-e6c4-4c56-a75c-55416f8bb4c3","system_id":"levelo_inurba_marseille","lat":43.271883,"lon":5.393016,"is_reserved":false,"is_disabled":false,"rental_uris":{"android":"levelo://app?vid=48c1fbfb-e6c4-4c56-a75c-55416f8bb4c3","ios":"levelo://app?vid=48c1fbfb-e6c4-4c56-a75c-55416f8bb4c3"},"vehicle_type_id":"4","last_reported":1700809593,"current_range_meters":24800,"station_id":"","pricing_plan_id":"free"},{"bike_id":"3bd2072c-403a-4cee-a67d-fb478cd7fff4","system_id":"levelo_inurba_marseille","lat":43.278128,"lon":5.407195,"is_reserved":false,"is_disabled":false,"rental_uris":{"android":"levelo://app?vid=3bd2072c-403a-4cee-a67d-fb478cd7fff4","ios":"levelo://app?vid=3bd2072c-403a-4cee-a67d-fb478cd7fff4"},"vehicle_type_id":"4","last_reported":1700809593,"current_range_meters":19200,"station_id":"ce4bhnh2rcd13ifvqgtg","pricing_plan_id":"free"},{"bike_id":"30a3118b-b8f9-4fc1-98b6-e119d9ea32a9","system_id":"levelo_inurba_marseille","lat":43.27811,"lon":5.40711,"is_reserved":false,"is_disabled":false,"rental_uris":{"android":"levelo://app?vid=30a3118b-b8f9-4fc1-98b6-e119d9ea32a9","ios":"levelo://app?vid=30a3118b-b8f9-4fc1-98b6-e119d9ea32a9"},"vehicle_type_id":"4","last_reported":1700809593,"current_range_meters":0,"station_id":"ce4bhnh2rcd13ifvqgtg","pricing_plan_id":"free"},{"bike_id":"877e4d8e-d6fb-46ee-bac7-71dd856239d3","system_id":"levelo_inurba_marseille","lat":43.269467,"lon":5.386439,"is_reserved":false,"is_disabled":false,"rental_uris":{"android":"levelo://app?vid=877e4d8e-d6fb-46ee-bac7-71dd856239d3","ios":"levelo://app?vid=877e4d8e-d6fb-46ee-bac7-71dd856239d3"},"vehicle_type_id":"4","last_reported":1700809593,"current_range_meters":26000,"station_id":"ce4bhh92rcd13ifvqfh0","pricing_plan_id":"free"},{"bike_id":"bf90ebe2-5073-4d53-9452-3da8dc6cc563","system_id":"levelo_inurba_marseille","lat":43.269467,"lon":5.386439,"is_reserved":false,"is_disabled":false,"rental_uris":{"android":"levelo://app?vid=bf90ebe2-5073-4d53-9452-3da8dc6cc563","ios":"levelo://app?vid=bf90ebe2-5073-4d53-9452-3da8dc6cc563"},"vehicle_type_id":"4","last_reported":1700809593,"current_range_meters":26000,"station_id":"ce4bhh92rcd13ifvqfh0","pricing_plan_id":"free"},{"bike_id":"5dc0f627-0f35-4ff0-98bb-de9d38eb222a","system_id":"levelo_inurba_marseille","lat":43.269467,"lon":5.386439,"is_reserved":false,"is_disabled":false,"rental_uris":{"android":"levelo://app?vid=5dc0f627-0f35-4ff0-98bb-de9d38eb222a","ios":"levelo://app?vid=5dc0f627-0f35-4ff0-98bb-de9d38eb222a"},"vehicle_type_id":"4","last_reported":1700809593,"current_range_meters":27200,"station_id":"ce4bhh92rcd13ifvqfh0","pricing_plan_id":"free"},{"bike_id":"1265869a-fa74-4043-8320-7eeb579749b3","system_id":"levelo_inurba_marseille","lat":43.269467,"lon":5.386439,"is_reserved":false,"is_disabled":false,"rental_uris":{"android":"levelo://app?vid=1265869a-fa74-4043-8320-7eeb579749b3","ios":"levelo://app?vid=1265869a-fa74-4043-8320-7eeb579749b3"},"vehicle_type_id":"4","last_reported":1700809593,"current_range_meters":31200,"station_id":"ce4bhh92rcd13ifvqfh0","pricing_plan_id":"free"},{"bike_id":"9d163fdb-7c1a-4067-a8fd-398dce9c71cf","system_id":"levelo_inurba_marseille","lat":43.269467,"lon":5.386439,"is_reserved":false,"is_disabled":false,"rental_uris":{"android":"levelo://app?vid=9d163fdb-7c1a-4067-a8fd-398dce9c71cf","ios":"levelo://app?vid=9d163fdb-7c1a-4067-a8fd-398dce9c71cf"},"vehicle_type_id":"4","last_reported":1700809593,"current_range_meters":1200,"station_id":"ce4bhh92rcd13ifvqfh0","pricing_plan_id":"free"},{"bike_id":"aa922da7-4aae-48ba-8a0a-f06ec41c5f66","system_id":"levelo_inurba_marseille","lat":43.269467,"lon":5.386439,"is_reserved":false,"is_disabled":false,"rental_uris":{"android":"levelo://app?vid=aa922da7-4aae-48ba-8a0a-f06ec41c5f66","ios":"levelo://app?vid=aa922da7-4aae-48ba-8a0a-f06ec41c5f66"},"vehicle_type_id":"4","last_reported":1700809593,"current_range_meters":24400,"station_id":"ce4bhh92rcd13ifvqfh0","pricing_plan_id":"free"},{"bike_id":"31fcc982-4a73-4e40-963e-315277929b25","system_id":"levelo_inurba_marseille","lat":43.269467,"lon":5.386439,"is_reserved":false,"is_disabled":false,"rental_uris":{"android":"levelo://app?vid=31fcc982-4a73-4e40-963e-315277929b25","ios":"levelo://app?vid=31fcc982-4a73-4e40-963e-315277929b25"},"vehicle_type_id":"4","last_reported":1700809593,"current_range_meters":2800,"station_id":"ce4bhh92rcd13ifvqfh0","pricing_plan_id":"free"},{"bike_id":"f60e0cdd-f643-4f09-b32f-53fdd78bcbb4","system_id":"levelo_inurba_marseille","lat":43.27949,"lon":5.41045,"is_reserved":false,"is_disabled":false,"rental_uris":{"android":"levelo://app?vid=f60e0cdd-f643-4f09-b32f-53fdd78bcbb4","ios":"levelo://app?vid=f60e0cdd-f643-4f09-b32f-53fdd78bcbb4"},"vehicle_type_id":"4","last_reported":1700809593,"current_range_meters":0,"station_id":"ce4bhnp2rcd13ifvqh0g","pricing_plan_id":"free"},{"bike_id":"cf3483f2-bf95-4e67-a276-3da7028dde07","system_id":"levelo_inurba_marseille","lat":43.26686,"lon":5.38281,"is_reserved":false,"is_disabled":false,"rental_uris":{"android":"levelo://app?vid=cf3483f2-bf95-4e67-a276-3da7028dde07","ios":"levelo://app?vid=cf3483f2-bf95-4e67-a276-3da7028dde07"},"vehicle_type_id":"4","last_reported":1700809593,"current_range_meters":28800,"station_id":"ce4bhg92rcd13ifvqf90","pricing_plan_id":"free"},{"bike_id":"afca0fe0-702c-4607-8149-ab8757df2f63","system_id":"levelo_inurba_marseille","lat":43.26555,"lon":5.37284,"is_reserved":false,"is_disabled":false,"rental_uris":{"android":"levelo://app?vid=afca0fe0-702c-4607-8149-ab8757df2f63","ios":"levelo://app?vid=afca0fe0-702c-4607-8149-ab8757df2f63"},"vehicle_type_id":"4","last_reported":1700809593,"current_range_meters":0,"station_id":"ce4bhg12rcd13ifvqf70","pricing_plan_id":"free"},{"bike_id":"28e8ce00-6b21-4e06-9930-c7c4408cc650","system_id":"levelo_inurba_marseille","lat":43.326174,"lon":5.430584,"is_reserved":false,"is_disabled":false,"rental_uris":{"android":"levelo://app?vid=28e8ce00-6b21-4e06-9930-c7c4408cc650","ios":"levelo://app?vid=28e8ce00-6b21-4e06-9930-c7c4408cc650"},"vehicle_type_id":"4","last_reported":1700809593,"current_range_meters":0,"station_id":"","pricing_plan_id":"free"},{"bike_id":"469e7050-f019-496e-9363-1d23df2574d7","system_id":"levelo_inurba_marseille","lat":43.27996,"lon":5.416624,"is_reserved":false,"is_disabled":false,"rental_uris":{"android":"levelo://app?vid=469e7050-f019-496e-9363-1d23df2574d7","ios":"levelo://app?vid=469e7050-f019-496e-9363-1d23df2574d7"},"vehicle_type_id":"4","last_reported":1700809593,"current_range_meters":2800,"station_id":"ce4bho12rcd13ifvqh1g","pricing_plan_id":"free"},{"bike_id":"e1c5aebc-ee6b-4705-aa75-1033e20494cf","system_id":"levelo_inurba_marseille","lat":43.27991,"lon":5.41669,"is_reserved":false,"is_disabled":false,"rental_uris":{"android":"levelo://app?vid=e1c5aebc-ee6b-4705-aa75-1033e20494cf","ios":"levelo://app?vid=e1c5aebc-ee6b-4705-aa75-1033e20494cf"},"vehicle_type_id":"4","last_reported":1700809593,"current_range_meters":0,"station_id":"ce4bho12rcd13ifvqh1g","pricing_plan_id":"free"},{"bike_id":"2b5f0b27-ae58-4e9e-bd76-c585f78e8a73","system_id":"levelo_inurba_marseille","lat":43.26386,"lon":5.37454,"is_reserved":false,"is_disabled":false,"rental_uris":{"android":"levelo://app?vid=2b5f0b27-ae58-4e9e-bd76-c585f78e8a73","ios":"levelo://app?vid=2b5f0b27-ae58-4e9e-bd76-c585f78e8a73"},"vehicle_type_id":"4","last_reported":1700809593,"current_range_meters":15600,"station_id":"","pricing_plan_id":"free"},{"bike_id":"0a49a0cf-85d9-43e4-ae35-e361baa0fa99","system_id":"levelo_inurba_marseille","lat":43.265569,"lon":5.390047,"is_reserved":false,"is_disabled":false,"rental_uris":{"android":"levelo://app?vid=0a49a0cf-85d9-43e4-ae35-e361baa0fa99","ios":"levelo://app?vid=0a49a0cf-85d9-43e4-ae35-e361baa0fa99"},"vehicle_type_id":"4","last_reported":1700809593,"current_range_meters":24000,"station_id":"ce4bhe12rcd13ifvqf30","pricing_plan_id":"free"},{"bike_id":"e11e7fb0-8305-440b-a7b0-10e1cf24eae0","system_id":"levelo_inurba_marseille","lat":43.26565,"lon":5.39004,"is_reserved":false,"is_disabled":false,"rental_uris":{"android":"levelo://app?vid=e11e7fb0-8305-440b-a7b0-10e1cf24eae0","ios":"levelo://app?vid=e11e7fb0-8305-440b-a7b0-10e1cf24eae0"},"vehicle_type_id":"4","last_reported":1700809593,"current_range_meters":26400,"station_id":"ce4bhe12rcd13ifvqf30","pricing_plan_id":"free"},{"bike_id":"3727318b-3a87-4bb1-8deb-da56d8fac0b7","system_id":"levelo_inurba_marseille","lat":43.26566,"lon":5.39013,"is_reserved":false,"is_disabled":false,"rental_uris":{"android":"levelo://app?vid=3727318b-3a87-4bb1-8deb-da56d8fac0b7","ios":"levelo://app?vid=3727318b-3a87-4bb1-8deb-da56d8fac0b7"},"vehicle_type_id":"4","last_reported":1700809593,"current_range_meters":17600,"station_id":"ce4bhe12rcd13ifvqf30","pricing_plan_id":"free"},{"bike_id":"b6dc2c27-2ae8-4f42-ac86-e716a4650e8e","system_id":"levelo_inurba_marseille","lat":43.26564,"lon":5.39014,"is_reserved":false,"is_disabled":false,"rental_uris":{"android":"levelo://app?vid=b6dc2c27-2ae8-4f42-ac86-e716a4650e8e","ios":"levelo://app?vid=b6dc2c27-2ae8-4f42-ac86-e716a4650e8e"},"vehicle_type_id":"4","last_reported":1700809593,"current_range_meters":6400,"station_id":"ce4bhe12rcd13ifvqf30","pricing_plan_id":"free"},{"bike_id":"17bf2bed-5e1c-4ca5-9bf6-eb5beb8569f6","system_id":"levelo_inurba_marseille","lat":43.26941,"lon":5.40248,"is_reserved":false,"is_disabled":false,"rental_uris":{"android":"levelo://app?vid=17bf2bed-5e1c-4ca5-9bf6-eb5beb8569f6","ios":"levelo://app?vid=17bf2bed-5e1c-4ca5-9bf6-eb5beb8569f6"},"vehicle_type_id":"4","last_reported":1700809593,"current_range_meters":20000,"station_id":"cjm6bp8fraef2m0cb0m0","pricing_plan_id":"free"},