{"last_updated":1714935975,"ttl":30,"version":"2.2","data":{"bikes":[{"bike_id":"b1433d7b-d001-474f-b9cc-c4a563b7ea57","system_id":"levelo_inurba_marseille","lat":43.31341,"lon":5.367098,"is_reserved":false,"is_disabled":false,"rental_uris":{"android":"levelo://app?vid=b1433d7b-d001-474f-b9cc-c4a563b7ea57","ios":"levelo://app?vid=b1433d7b-d001-474f-b9cc-c4a563b7ea57"},"vehicle_type_id":"4","last_reported":1714935975,"current_range_meters":2800,"station_id":"ce4bgr92rcd13ifvqc6g","pricing_plan_id":"cebpf4jnsgd1na2vs0mg"},{"bike_id":"cfbf2827-a735-4b78-a3f2-d03d42564099","system_id":"levelo_inurba_marseille","lat":43.312239,"lon":5.368562,"is_reserved":false,"is_disabled":false,"rental_uris":{"android":"levelo://app?vid=cfbf2827-a735-4b78-a3f2-d03d42564099","ios":"levelo://app?vid=cfbf2827-a735-4b78-a3f2-d03d42564099"},"vehicle_type_id":"4","last_reported":1714935975,"current_range_meters":2400,"station_id":"ce4bgl92rcd13ifvqbq0","pricing_plan_id":"cebpf4jnsgd1na2vs0mg"},{"bike_id":"bc01b98c-5195-4d1d-be9e-07195d11b50a","system_id":"levelo_inurba_marseille","lat":43.312239,"lon":5.368562,"is_reserved":false,"is_disabled":false,"rental_uris":{"android":"levelo://app?vid=bc01b98c-5195-4d1d-be9e-07195d11b50a","ios":"levelo://app?vid=bc01b98c-5195-4d1d-be9e-07195d11b50a"},"vehicle_type_id":"4","last_reported":1714935975,"current_range_meters":7200,"station_id":"ce4bgl92rcd13ifvqbq0","pricing_plan_id":"cebpf4jnsgd1na2vs0mg"},{"bike_id":"ae07a746-5225-47f2-8700-dfb00e7f7072","system_id":"levelo_inurba_marseille","lat":43.314811,"lon":5.373103,"is_reserved":false,"is_disabled":false,"rental_uris":{"android":"levelo://app?vid=ae07a746-5225-47f2-8700-dfb00e7f7072","ios":"levelo://app?vid=ae07a746-5225-47f2-8700-dfb00e7f7072"},"vehicle_type_id":"4","last_reported":1714935975,"current_range_meters":0,"station_id":"ce4bgt12rcd13ifvqcd0","pricing_plan_id":"cebpf4jnsgd1na2vs0mg"},{"bike_id":"795c1411-05dc-45e0-a6b1-e59dcf029131","system_id":"levelo_inurba_marseille","lat":43.309039,"lon":5.371797,"is_reserved":false,"is_disabled":false,"rental_uris":{"android":"levelo://app?vid=795c1411-05dc-45e0-a6b1-e59dcf029131","ios":"levelo://app?vid=795c1411-05dc-45e0-a6b1-e59dcf029131"},"vehicle_type_id":"4","last_reported":1714935975,"current_range_meters":0,"station_id":"ce4bguh2rcd13ifvqckg","pricing_plan_id":"cebpf4jnsgd1na2vs0mg"},{"bike_id":"7af15aaf-e8e0-416b-8d9d-6ffd9cab4a45","system_id":"levelo_inurba_marseille","lat":43.309039,"lon":5.371797,"is_reserved":false,"is_disabled":false,"rental_uris":{"android":"levelo://app?vid=7af15aaf-e8e0-416b-8d9d-6ffd9cab4a45","ios":"levelo://app?vid=7af15aaf-e8e0-416b-8d9d-6ffd9cab4a45"},"vehicle_type_id":"4","last_reported":1714935975,"current_range_meters":17600,"station_id":"ce4bguh2rcd13ifvqckg","pricing_plan_id":"cebpf4jnsgd1na2vs0mg"},{"bike_id":"f0b78e20-d2fd-4cce-b0d8-356db9bccb49","system_id":"levelo_inurba_marseille","lat":43.309039,"lon":5.371797,"is_reserved":false,"is_disabled":false,"rental_uris":{"android":"levelo://app?vid=f0b78e20-d2fd-4cce-b0d8-356db9bccb49","ios":"levelo://app?vid=f0b78e20-d2fd-4cce-b0d8-356db9bccb49"},"vehicle_type_id":"4","last_reported":1714935975,"current_range_meters":1200,"station_id":"ce4bguh2rcd13ifvqckg","pricing_plan_id":"cebpf4jnsgd1na2vs0mg"},{"bike_id":"687a4560-ac26-4b1e-8a61-e4d61eed7ff4","system_id":"levelo_inurba_marseille","lat":43.309039,"lon":5.371797,"is_reserved":false,"is_disabled":false,"rental_uris":{"android":"levelo://app?vid=687a4560-ac26-4b1e-8a61-e4d61eed7ff4","ios":"levelo://app?vid=687a4560-ac26-4b1e-8a61-e4d61eed7ff4"},"vehicle_type_id":"4","last_reported":1714935975,"current_range_meters":3200,"station_id":"ce4bguh2rcd13ifvqckg","pricing_plan_id":"cebpf4jnsgd1na2vs0mg"},{"bike_id":"077f227b-77c9-4917-926a-d0110e852c99","system_id":"levelo_inurba_marseille","lat":43.30538,"lon":5.36546,"is_reserved":false,"is_disabled":false,"rental_uris":{"android":"levelo://app?vid=077f227b-77c9-4917-926a-d0110e852c99","ios":"levelo://app?vid=077f227b-77c9-4917-926a-d0110e852c99"},"vehicle_type_id":"4","last_reported":1714935975,"current_range_meters":0,"station_id":"ce4bgs12rcd13ifvqcag","pricing_plan_id":"cebpf4jnsgd1na2vs0mg"},{"bike_id":"613c827d-6e7d-431a-a9b6-9fda039f1f34","system_id":"levelo_inurba_marseille","lat":43.305368,"lon":5.367343,"is_reserved":false,"is_disabled":false,"rental_uris":{"android":"levelo://app?vid=613c827d-6e7d-431a-a9b6-9fda039f1f34","ios":"levelo://app?vid=613c827d-6e7d-431a-a9b6-9fda039f1f34"},"vehicle_type_id":"4","last_reported":1714935975,"current_range_meters":27600,"station_id":"ce4bgrp2rcd13ifvqc9g","pricing_plan_id":"cebpf4jnsgd1na2vs0mg"},{"bike_id":"7c9eff19-233d-4b31-ad5c-55216a27cb97","system_id":"levelo_inurba_marseille","lat":43.3061,"lon":5.37217,"is_reserved":false,"is_disabled":false,"rental_uris":{"android":"levelo://app?vid=7c9eff19-233d-4b31-ad5c-55216a27cb97","ios":"levelo://app?vid=7c9eff19-233d-4b31-ad5c-55216a27cb97"},"vehicle_type_id":"4","last_reported":1714935975,"current_range_meters":0,"station_id":"ce4bgqh2rcd13ifvqc4g","pricing_plan_id":"cebpf4jnsgd1na2vs0mg"},{"bike_id":"744bfb9d-67e7-4d80-ab7f-b0af9b41d674","system_id":"levelo_inurba_marseille","lat":43.305989,"lon":5.37225,"is_reserved":false,"is_disabled":false,"rental_uris":{"android":"levelo://app?vid=744bfb9d-67e7-4d80-ab7f-b0af9b41d674","ios":"levelo://app?vid=744bfb9d-67e7-4d80-ab7f-b0af9b41d674"},"vehicle_type_id":"4","last_reported":1714935975,"current_range_meters":400,"station_id":"ce4bgqh2rcd13ifvqc4g","pricing_plan_id":"cebpf4jnsgd1na2vs0mg"},{"bike_id":"ae2ad7eb-2d93-4494-97b4-e8eb4330aadd","system_id":"levelo_inurba_marseille","lat":43.305989,"lon":5.37225,"is_reserved":false,"is_disabled":false,"rental_uris":{"android":"levelo://app?vid=ae2ad7eb-2d93-4494-97b4-e8eb4330aadd","ios":"levelo://app?vid=ae2ad7eb-2d93-4494-97b4-e8eb4330aadd"},"vehicle_type_id":"4","last_reported":1714935975,"current_range_meters":7200,"station_id":"ce4bgqh2rcd13ifvqc4g","pricing_plan_id":"cebpf4jnsgd1na2vs0mg"},{"bike_id":"3ca0cde4-5368-4c82-ac25-d84c67281027","system_id":"levelo_inurba_marseille","lat":43.305989,"lon":5.37225,"is_reserved":false,"is_disabled":false,"rental_uris":{"android":"levelo://app?vid=3ca0cde4-5368-4c82-ac25-d84c67281027","ios":"levelo://app?vid=3ca0cde4-5368-4c82-ac25-d84c67281027"},"vehicle_type_id":"4","last_reported":1714935975,"current_range_meters":12800,"station_id":"ce4bgqh2rcd13ifvqc4g","pricing_plan_id":"cebpf4jnsgd1na2vs0mg"},{"bike_id":"39dc0280-9c83-4b67-bb90-2181d13da68e","system_id":"levelo_inurba_marseille","lat":43.305989,"lon":5.37225,"is_reserved":false,"is_disabled":false,"rental_uris":{"android":"levelo://app?vid=39dc0280-9c83-4b67-bb90-2181d13da68e","ios":"levelo://app?vid=39dc0280-9c83-4b67-bb90-2181d13da68e"},"vehicle_type_id":"4","last_reported":1714935975,"current_range_meters":11200,"station_id":"ce4bgqh2rcd13ifvqc4g","pricing_plan_id":"cebpf4jnsgd1na2vs0mg"},{"bike_id":"c4ad88fa-dbde-4b0f-bbd2-9425cefc8d18","system_id":"levelo_inurba_marseille","lat":43.31107,"lon":5.3777,"is_reserved":false,"is_disabled":false,"rental_uris":{"android":"levelo://app?vid=c4ad88fa-dbde-4b0f-bbd2-9425cefc8d18","ios":"levelo://app?vid=c4ad88fa-dbde-4b0f-bbd2-9425cefc8d18"},"vehicle_type_id":"4","last_reported":1714935975,"current_range_meters":0,"station_id":"ce4bgt92rcd13ifvqcg0","pricing_plan_id":"cebpf4jnsgd1na2vs0mg"},{"bike_id":"fc2dc722-b144-4470-a77d-272d48df3e5e","system_id":"levelo_inurba_marseille","lat":43.311125,"lon":5.377624,"is_reserved":false,"is_disabled":false,"rental_uris":{"android":"levelo://app?vid=fc2dc722-b144-4470-a77d-272d48df3e5e","ios":"levelo://app?vid=fc2dc722-b144-4470-a77d-272d48df3e5e"},"vehicle_type_id":"4","last_reported":1714935975,"current_range_meters":20400,"station_id":"ce4bgt92rcd13ifvqcg0","pricing_plan_id":"cebpf4jnsgd1na2vs0mg"},{"bike_id":"271b2707-110e-4748-a371-58ffe3662035","system_id":"levelo_inurba_marseille","lat":43.307945,"lon":5.376487,"is_reserved":false,"is_disabled":false,"rental_uris":{"android":"levelo://app?vid=271b2707-110e-4748-a371-58ffe3662035","ios":"levelo://app?vid=271b2707-110e-4748-a371-58ffe3662035"},"vehicle_type_id":"4","last_reported":1714935975,"current_range_meters":6000,"station_id":"ce4bgv92rcd13ifvqcq0","pricing_plan_id":"cebpf4jnsgd1na2vs0mg"},{"bike_id":"d39bda1e-d904-47ff-947a-e7265cde3e0c","system_id":"levelo_inurba_marseille","lat":43.307945,"lon":5.376487,"is_reserved":false,"is_disabled":false,"rental_uris":{"android":"levelo://app?vid=d39bda1e-d904-47ff-947a-e7265cde3e0c","ios":"levelo://app?vid=d39bda1e-d904-47ff-947a-e7265cde3e0c"},"vehicle_type_id":"4","last_reported":1714935975,"current_range_meters":10800,"station_id":"ce4bgv92rcd13ifvqcq0","pricing_plan_id":"cebpf4jnsgd1na2vs0mg"},{"bike_id":"2fa5f777-c192-4ad1-9687-33e21d1d16d7","system_id":"levelo_inurba_marseille","lat":43.307945,"lon":5.376487,"is_reserved":false,"is_disabled":false,"rental_uris":{"android":"levelo://app?vid=2fa5f777-c192-4ad1-9687-33e21d1d16d7","ios":"levelo://app?vid=2fa5f777-c192-4ad1-9687-33e21d1d16d7"},"vehicle_type_id":"4","last_reported":1714935975,"current_range_meters":8000,"station_id":"ce4bgv92rcd13ifvqcq0","pricing_plan_id":"cebpf4jnsgd1na2vs0mg"},{"bike_id":"e62e6e00-9df9-4a06-bfaa-a17f80f83683","system_id":"levelo_inurba_marseille","lat":43.307875,"lon":5.376565,"is_reserved":false,"is_disabled":false,"rental_uris":{"android":"levelo://app?vid=e62e6e00-9df9-4a06-bfaa-a17f80f83683","ios":"levelo://app?vid=e62e6e00-9df9-4a06-bfaa-a17f80f83683"},"vehicle_type_id":"4","last_reported":1714935975,"current_range_meters":18000,"station_id":"","pricing_plan_id":"cebpf4jnsgd1na2vs0mg"},{"bike_id":"f638ef10-5955-4537-a399-43b50f8d02d9","system_id":"levelo_inurba_marseille","lat":43.307945,"lon":5.376487,"is_reserved":false,"is_disabled":false,"rental_uris":{"android":"levelo://app?vid=f638ef10-5955-4537-a399-43b50f8d02d9","ios":"levelo://app?vid=f638ef10-5955-4537-a399-43b50f8d02d9"},"vehicle_type_id":"4","last_reported":1714935975,"current_range_meters":19200,"station_id":"ce4bgv92rcd13ifvqcq0","pricing_plan_id":"cebpf4jnsgd1na2vs0mg"},{"bike_id":"fee1b8d0-b0a9-447c-ad14-06e0e9ea9f4b","system_id":"levelo_inurba_marseille","lat":43.307945,"lon":5.376487,"is_reserved":false,"is_disabled":false,"rental_uris":{"android":"levelo://app?vid=fee1b8d0-b0a9-447c-ad14-06e0e9ea9f4b","ios":"levelo://app?vid=fee1b8d0-b0a9-447c-ad14-06e0e9ea9f4b"},"vehicle_type_id":"4","last_reported":1714935975,"current_range_meters":1200,"station_id":"ce4bgv92rcd13ifvqcq0","pricing_plan_id":"cebpf4jnsgd1na2vs0mg"},{"bike_id":"66a95d25-c052-4191-8523-0a0fc9e5ddc6","system_id":"levelo_inurba_marseille","lat":43.307945,"lon":5.376487,"is_reserved":false,"is_disabled":false,"rental_uris":{"android":"levelo://app?vid=66a95d25-c052-4191-8523-0a0fc9e5ddc6","ios":"levelo://app?vid=66a95d25-c052-4191-8523-0a0fc9e5ddc6"},"vehicle_type_id":"4","last_reported":1714935975,"current_range_meters":12400,"station_id":"ce4bgv92rcd13ifvqcq0","pricing_plan_id":"cebpf4jnsgd1na2vs0mg"},{"bike_id":"183d5142-7e00-4aad-8376-617b24901c49","system_id":"levelo_inurba_marseille","lat":43.307945,"lon":5.376487,"is_reserved":false,"is_disabled":false,"rental_uris":{"android":"levelo://app?vid=183d5142-7e00-4aad-8376-617b24901c49","ios":"levelo://app?vid=183d5142-7e00-4aad-8376-617b24901c49"},"vehicle_type_id":"4","last_reported":1714935975,"current_range_meters":5600,"station_id":"ce4bgv92rcd13ifvqcq0","pricing_plan_id":"cebpf4jnsgd1na2vs0mg"},{"bike_id":"d83f3424-119a-42dd-90ed-c4fcefa6653d","system_id":"levelo_inurba_marseille","lat":43.307945,"lon":5.376487,"is_reserved":false,"is_disabled":false,"rental_uris":{"android":"levelo://app?vid=d83f3424-119a-42dd-90ed-c4fcefa6653d","ios":"levelo://app?vid=d83f3424-119a-42dd-90ed-c4fcefa6653d"},"vehicle_type_id":"4","last_reported":1714935975,"current_range_meters":7600,"station_id":"ce4bgv92rcd13ifvqcq0","pricing_plan_id":"cebpf4jnsgd1na2vs0mg"},{"bike_id":"674d86a4-1ca7-475f-9d35-27c57698729a","system_id":"levelo_inurba_marseille","lat":43.307945,"lon":5.376487,"is_reserved":false,"is_disabled":false,"rental_uris":{"android":"levelo://app?vid=674d86a4-1ca7-475f-9d35-27c57698729a","ios":"levelo://app?vid=674d86a4-1ca7-475f-9d35-27c57698729a"},"vehicle_type_id":"4","last_reported":1714935975,"current_range_meters":21600,"station_id":"ce4bgv92rcd13ifvqcq0","pricing_plan_id":"cebpf4jnsgd1na2vs0mg"},{"bike_id":"48f5ab4f-694c-4f7f-884a-6e63771b6d0b","system_id":"levelo_inurba_marseille","lat":43.310585,"lon":5.378902,"is_reserved":false,"is_disabled":false,"rental_uris":{"android":"levelo://app?vid=48f5ab4f-694c-4f7f-884a-6e63771b6d0b","ios":"levelo://app?vid=48f5ab4f-694c-4f7f-884a-6e63771b6d0b"},"vehicle_type_id":"4","last_reported":1714935975,"current_range_meters":0,"station_id":"","pricing_plan_id":"cebpf4jnsgd1na2vs0mg"},{"bike_id":"22a5cf82-e34d-448d-b083-d6d58622a21b","system_id":"levelo_inurba_marseille","lat":43.303046,"lon":5.368981,"is_reserved":false,"is_disabled":false,"rental_uris":{"android":"levelo://app?vid=22a5cf82-e34d-448d-b083-d6d58622a21b","ios":"levelo://app?vid=22a5cf82-e34d-448d-b083-d6d58622a21b"},"vehicle_type_id":"4","last_reported":1714935975,"current_range_meters":2400,"station_id":"ce4bgqh2rcd13ifvqc5g","pricing_plan_id":"cebpf4jnsgd1na2vs0mg"},{"bike_id":"d2da35d8-9695-4730-b1b7-b1acb34cddc9","system_id":"levelo_inurba_marseille","lat":43.303046,"lon":5.368981,"is_reserved":false,"is_disabled":false,"rental_uris":{"android":"levelo://app?vid=d2da35d8-9695-4730-b1b7-b1acb34cddc9","ios":"levelo://app?vid=d2da35d8-9695-4730-b1b7-b1acb34cddc9"},"vehicle_type_id":"4","last_reported":1714935975,"current_range_meters":15600,"station_id":"ce4bgqh2rcd13ifvqc5g","pricing_plan_id":"cebpf4jnsgd1na2vs0mg"},{"bike_id":"180410da-9fa0-4d42-a120-0e962f9178b6","system_id":"levelo_inurba_marseille","lat":43.315293,"lon":5.380349,"is_reserved":false,"is_disabled":false,"rental_uris":{"android":"levelo://app?vid=180410da-9fa0-4d42-a120-0e962f9178b6","ios":"levelo://app?vid=180410da-9fa0-4d42-a120-0e962f9178b6"},"vehicle_type_id":"4","last_reported":1714935975,"current_range_meters":7200,"station_id":"ce4bhsp2rcd13ifvqi50","pricing_plan_id":"cebpf4jnsgd1na2vs0mg"},{"bike_id":"acc9db81-4652-40f2-8779-398927171f7b","system_id":"levelo_inurba_marseille","lat":43.30304,"lon":5.368987,"is_reserved":false,"is_disabled":false,"rental_uris":{"android":"levelo://app?vid=acc9db81-4652-40f2-8779-398927171f7b","ios":"levelo://app?vid=acc9db81-4652-40f2-8779-398927171f7b"},"vehicle_type_id":"4","last_reported":1714935975,"current_range_meters":25600,"station_id":"ce4bgqh2rcd13ifvqc5g","pricing_plan_id":"cebpf4jnsgd1na2vs0mg"},{"bike_id":"62195c3a-58b1-4595-9180-0f8e8c60a33d","system_id":"levelo_inurba_marseille","lat":43.315289,"lon":5.380349,"is_reserved":false,"is_disabled":false,"rental_uris":{"android":"levelo://app?vid=62195c3a-58b1-4595-9180-0f8e8c60a33d","ios":"levelo://app?vid=62195c3a-58b1-4595-9180-0f8e8c60a33d"},"vehicle_type_id":"4","last_reported":1714935975,"current_range_meters":11200,"station_id":"ce4bhsp2rcd13ifvqi50","pricing_plan_id":"cebpf4jnsgd1na2vs0mg"},{"bike_id":"23e86c73-8cb4-4a7d-9724-af5bffc0e147","system_id":"levelo_inurba_marseille","lat":43.301939,"lon":5.366286,"is_reserved":false,"is_disabled":false,"rental_uris":{"android":"levelo://app?vid=23e86c73-8cb4-4a7d-9724-af5bffc0e147","ios":"levelo://app?vid=23e86c73-8cb4-4a7d-9724-af5bffc0e147"},"vehicle_type_id":"4","last_reported":1714935975,"current_range_meters":5600,"station_id":"ce4bgrh2rcd13ifvqc8g","pricing_plan_id":"cebpf4jnsgd1na2vs0mg"},{"bike_id":"2984f4f4-446f-4d88-acf2-c645d48e3043","system_id":"levelo_inurba_marseille","lat":43.324771,"lon":5.36557,"is_reserved":false,"is_disabled":false,"rental_uris":{"android":"levelo://app?vid=2984f4f4-446f-4d88-acf2-c645d48e3043","ios":"levelo://app?vid=2984f4f4-446f-4d88-acf2-c645d48e3043"},"vehicle_type_id":"4","last_reported":1714935975,"current_range_meters":19600,"station_id":"ce4bhs12rcd13ifvqhvg","pricing_plan_id":"cebpf4jnsgd1na2vs0mg"},{"bike_id":"123b5665-717c-49a0-abc7-b23bec7a92d3","system_id":"levelo_inurba_marseille","lat":43.324771,"lon":5.36557,"is_reserved":false,"is_disabled":false,"rental_uris":{"android":"levelo://app?vid=123b5665-717c-49a0-abc7-b23bec7a92d3","ios":"levelo://app?vid=123b5665-717c-49a0-abc7-b23bec7a92d3"},"vehicle_type_id":"4","last_reported":1714935975,"current_range_meters":0,"station_id":"ce4bhs12rcd13ifvqhvg","pricing_plan_id":"cebpf4jnsgd1na2vs0mg"},{"bike_id":"ec7cf067-eadd-4515-acea-63bae297214d","system_id":"levelo_inurba_marseille","lat":43.310804,"lon":5.38359,"is_reserved":false,"is_disabled":false,"rental_uris":{"android":"levelo://app?vid=ec7cf067-eadd-4515-acea-63bae297214d","ios":"levelo://app?vid=ec7cf067-eadd-4515-acea-63bae297214d"},"vehicle_type_id":"4","last_reported":1714935975,"current_range_meters":5600,"station_id":"ce4bgv92rcd13ifvqcr0","pricing_plan_id":"cebpf4jnsgd1na2vs0mg"},{"bike_id":"df7b26ac-d458-4543-a2de-cf222250af93","system_id":"levelo_inurba_marseille","lat":43.302784,"lon":5.377158,"is_reserved":false,"is_disabled":false,"rental_uris":{"android":"levelo://app?vid=df7b26ac-d458-4543-a2de-cf222250af93","ios":"levelo://app?vid=df7b26ac-d458-4543-a2de-cf222250af93"},"vehicle_type_id":"4","last_reported":1714935975,"current_range_meters":26000,"station_id":"ce4bguh2rcd13ifvqcj0","pricing_plan_id":"cebpf4jnsgd1na2vs0mg"},{"bike_id":"c7d9c234-42c6-4432-8a51-7c5780fa7b0c","system_id":"levelo_inurba_marseille","lat":43.302784,"lon":5.377158,"is_reserved":false,"is_disabled":false,"rental_uris":{"android":"levelo://app?vid=c7d9c234-42c6-4432-8a51-7c5780fa7b0c","ios":"levelo://app?vid=c7d9c234-42c6-4432-8a51-7c5780fa7b0c"},"vehicle_type_id":"4","last_reported":1714935975,"current_range_meters":22800,"station_id":"ce4bguh2rcd13ifvqcj0","pricing_plan_id":"cebpf4jnsgd1na2vs0mg"},{"bike_id":"92b0abce-18f4-4f69-af8a-3d2d9421134d","system_id":"levelo_inurba_marseille","lat":43.30143,"lon":5.37413,"is_reserved":false,"is_disabled":false,"rental_uris":{"android":"levelo://app?vid=92b0abce-18f4-4f69-af8a-3d2d9421134d","ios":"levelo://app?vid=92b0abce-18f4-4f69-af8a-3d2d9421134d"},"vehicle_type_id":"4","last_reported":1714935975,"current_range_meters":2000,"station_id":"ce4bgs92rcd13ifvqcc0","pricing_plan_id":"cebpf4jnsgd1na2vs0mg"},{"bike_id":"88e5fe8f-d192-4d08-b6e2-46d35a3ef5ec","system_id":"levelo_inurba_marseille","lat":43.301429,"lon":5.37413,"is_reserved":false,"is_disabled":false,"rental_uris":{"android":"levelo://app?vid=88e5fe8f-d192-4d08-b6e2-46d35a3ef5ec","ios":"levelo://app?vid=88e5fe8f-d192-4d08-b6e2-46d35a3ef5ec"},"vehicle_type_id":"4","last_reported":1714935975,"current_range_meters":0,"station_id":"ce4bgs92rcd13ifvqcc0","pricing_plan_id":"cebpf4jnsgd1na2vs0mg"},{"bike_id":"3889a7ed-6e1c-4553-ac68-6f7d07dcccd2","system_id":"levelo_inurba_marseille","lat":43.30143,"lon":5.37413,"is_reserved":false,"is_disabled":false,"rental_uris":{"android":"levelo://app?vid=3889a7ed-6e1c-4553-ac68-6f7d07dcccd2","ios":"levelo://app?vid=3889a7ed-6e1c-4553-ac68-6f7d07dcccd2"},"vehicle_type_id":"4","last_reported":1714935975,"current_range_meters":26800,"station_id":"ce4bgs92rcd13ifvqcc0","pricing_plan_id":"cebpf4jnsgd1na2vs0mg"},{"bike_id":"3d3e7f8b-0cd0-40fc-923c-01b1a196d757","system_id":"levelo_inurba_marseille","lat":43.302784,"lon":5.377158,"is_reserved":false,"is_disabled":false,"rental_uris":{"android":"levelo://app?vid=3d3e7f8b-0cd0-40fc-923c-01b1a196d757","ios":"levelo://app?vid=3d3e7f8b-0cd0-40fc-923c-01b1a196d757"},"vehicle_type_id":"4","last_reported":1714935975,"current_range_meters":15600,"station_id":"ce4bguh2rcd13ifvqcj0","pricing_plan_id":"cebpf4jnsgd1na2vs0mg"},{"bike_id":"e3e7e185-6f22-434f-a609-55ca226bcf65","system_id":"levelo_inurba_marseille","lat":43.319935,"lon":5.381699,"is_reserved":false,"is_disabled":false,"rental_uris":{"android":"levelo://app?vid=e3e7e185-6f22-434f-a609-55ca226bcf65","ios":"levelo://app?vid=e3e7e185-6f22-434f-a609-55ca226bcf65"},"vehicle_type_id":"4","last_reported":1714935975,"current_range_meters":16800,"station_id":"ce4bhr12rcd13ifvqhpg","pricing_plan_id":"cebpf4jnsgd1na2vs0mg"},{"bike_id":"5cd46c73-c81e-43a1-9c13-4f62e0c4f85f","system_id":"levelo_inurba_marseille","lat":43.319935,"lon":5.381699,"is_reserved":false,"is_disabled":false,"rental_uris":{"android":"levelo://app?vid=5cd46c73-c81e-43a1-9c13-4f62e0c4f85f","ios":"levelo://app?vid=5cd46c73-c81e-43a1-9c13-4f62e0c4f85f"},"vehicle_type_id":"4","last_reported":1714935975,"current_range_meters":5200,"station_id":"ce4bhr12rcd13ifvqhpg","pricing_plan_id":"cebpf4jnsgd1na2vs0mg"},{"bike_id":"971599e8-7632-40f9-87d7-d3078e01813a","system_id":"levelo_inurba_marseille","lat":43.319935,"lon":5.381699,"is_reserved":false,"is_disabled":false,"rental_uris":{"android":"levelo://app?vid=971599e8-7632-40f9-87d7-d3078e01813a","ios":"levelo://app?vid=971599e8-7632-40f9-87d7-d3078e01813a"},"vehicle_type_id":"4","last_reported":1714935975,"current_range_meters":4400,"station_id":"ce4bhr12rcd13ifvqhpg","pricing_plan_id":"cebpf4jnsgd1na2vs0mg"},{"bike_id":"e07befc2-9d87-484b-afe2-17bced68ff18","system_id":"levelo_inurba_marseille","lat":43.319935,"lon":5.381699,"is_reserved":false,"is_disabled":false,"rental_uris":{"android":"levelo://app?vid=e07befc2-9d87-484b-afe2-17bced68ff18","ios":"levelo://app?vid=e07befc2-9d87-484b-afe2-17bced68ff18"},"vehicle_type_id":"4","last_reported":1714935975,"current_range_meters":13200,"station_id":"ce4bhr12rcd13ifvqhpg","pricing_plan_id":"cebpf4jnsgd1na2vs0mg"},{"bike_id":"eee015c5-18c5-4dd7-b2ac-157b2f3d9067","system_id":"levelo_inurba_marseille","lat":43.313571,"lon":5.384829,"is_reserved":false,"is_disabled":false,"rental_uris":{"android":"levelo://app?vid=eee015c5-18c5-4dd7-b2ac-157b2f3d9067","ios":"levelo://app?vid=eee015c5-18c5-4dd7-b2ac-157b2f3d9067"},"vehicle_type_id":"4","last_reported":1714935975,"current_range_meters":22400,"station_id":"ce4bgt92rcd13ifvqcf0","pricing_plan_id":"cebpf4jnsgd1na2vs0mg"},{"bike_id":"3b5a3fde-7142-4579-8e9d-09c95a4f6617","system_id":"levelo_inurba_marseille","lat":43.31351,"lon":5.38495,"is_reserved":false,"is_disabled":false,"rental_uris":{"android":"levelo://app?vid=3b5a3fde-7142-4579-8e9d-09c95a4f6617","ios":"levelo://app?vid=3b5a3fde-7142-4579-8e9d-09c95a4f6617"},"vehicle_type_id":"4","last_reported":1714935975,"current_range_meters":0,"station_id":"ce4bgt92rcd13ifvqcf0","pricing_plan_id":"cebpf4jnsgd1na2vs0mg"},{"bike_id":"5371505a-b109-4cec-98b5-9417fb003167","system_id":"levelo_inurba_marseille","lat":43.313571,"lon":5.384829,"is_reserved":false,"is_disabled":false,"rental_uris":{"android":"levelo://app?vid=5371505a-b109-4cec-98b5-9417fb003167","ios":"levelo://app?vid=5371505a-b109-4cec-98b5-9417fb003167"},"vehicle_type_id":"4","last_reported":1714935975,"current_range_meters":10400,"station_id":"ce4bgt92rcd13ifvqcf0","pricing_plan_id":"cebpf4jnsgd1na2vs0mg"},{"bike_id":"2abd39ca-de6f-4c09-a899-395725998f03","system_id":"levelo_inurba_marseille","lat":43.299222,"lon":5.365554,"is_reserved":false,"is_disabled":false,"rental_uris":{"android":"levelo://app?vid=2abd39ca-de6f-4c09-a899-395725998f03","ios":"levelo://app?vid=2abd39ca-de6f-4c09-a899-395725998f03"},"vehicle_type_id":"4","last_reported":1714935975,"current_range_meters":13200,"station_id":"ce4bgm92rcd13ifvqbr0","pricing_plan_id":"cebpf4jnsgd1na2vs0mg"},{"bike_id":"329bc740-ea6d-4796-a2ed-b800216c64ab","system_id":"levelo_inurba_marseille","lat":43.299222,"lon":5.365554,"is_reserved":false,"is_disabled":false,"rental_uris":{"android":"levelo://app?vid=329bc740-ea6d-4796-a2ed-b800216c64ab","ios":"levelo://app?vid=329bc740-ea6d-4796-a2ed-b800216c64ab"},"vehicle_type_id":"4","last_reported":1714935975,"current_range_meters":0,"station_id":"ce4bgm92rcd13ifvqbr0","pricing_plan_id":"cebpf4jnsgd1na2vs0mg"},{"bike_id":"8032bbf1-c027-44fe-bb18-e2f7c5577ce5","system_id":"levelo_inurba_marseille","lat":43.299222,"lon":5.365554,"is_reserved":false,"is_disabled":false,"rental_uris":{"android":"levelo://app?vid=8032bbf1-c027-44fe-bb18-e2f7c5577ce5","ios":"levelo://app?vid=8032bbf1-c027-44fe-bb18-e2f7c5577ce5"},"vehicle_type_id":"4","last_reported":1714935975,"current_range_meters":20800,"station_id":"ce4bgm92rcd13ifvqbr0","pricing_plan_id":"cebpf4jnsgd1na2vs0mg"},{"bike_id":"cac868c4-9a7c-4022-bbca-9cd2744bca90","system_id":"levelo_inurba_marseille","lat":43.29975,"lon":5.37172,"is_reserved":false,"is_disabled":false,"rental_uris":{"android":"levelo://app?vid=cac868c4-9a7c-4022-bbca-9cd2744bca90","ios":"levelo://app?vid=cac868c4-9a7c-4022-bbca-9cd2744bca90"},"vehicle_type_id":"4","last_reported":1714935975,"current_range_meters":0,"station_id":"ce4bgr92rcd13ifvqc7g","pricing_plan_id":"cebpf4jnsgd1na2vs0mg"},{"bike_id":"477cd430-c24a-4da9-acf3-4b021514af61","system_id":"levelo_inurba_marseille","lat":43.299724,"lon":5.371829,"is_reserved":false,"is_disabled":false,"rental_uris":{"android":"levelo://app?vid=477cd430-c24a-4da9-acf3-4b021514af61","ios":"levelo://app?vid=477cd430-c24a-4da9-acf3-4b021514af61"},"vehicle_type_id":"4","last_reported":1714935975,"current_range_meters":30000,"station_id":"ce4bgr92rcd13ifvqc7g","pricing_plan_id":"cebpf4jnsgd1na2vs0mg"},{"bike_id":"8be8d8b3-dbe0-492d-b7a0-8c2a00aaf88c","system_id":"levelo_inurba_marseille","lat":43.299222,"lon":5.365554,"is_reserved":false,"is_disabled":false,"rental_uris":{"android":"levelo://app?vid=8be8d8b3-dbe0-492d-b7a0-8c2a00aaf88c","ios":"levelo://app?vid=8be8d8b3-dbe0-492d-b7a0-8c2a00aaf88c"},"vehicle_type_id":"4","last_reported":1714935975,"current_range_meters":0,"station_id":"ce4bgm92rcd13ifvqbr0","pricing_plan_id":"cebpf4jnsgd1na2vs0mg"},{"bike_id":"fdcc4100-3f5c-4d6f-bca2-9ebec982c864","system_id":"levelo_inurba_marseille","lat":43.299724,"lon":5.371829,"is_reserved":false,"is_disabled":false,"rental_uris":{"android":"levelo://app?vid=fdcc4100-3f5c-4d6f-bca2-9ebec982c864","ios":"levelo://app?vid=fdcc4100-3f5c-4d6f-bca2-9ebec982c864"},"vehicle_type_id":"4","last_reported":1714935975,"current_range_meters":16000,"station_id":"ce4bgr92rcd13ifvqc7g","pricing_plan_id":"cebpf4jnsgd1na2vs0mg"},{"bike_id":"e66de01b-1475-4e9c-8fe3-2eac784982ac","system_id":"levelo_inurba_marseille","lat":43.29966,"lon":5.3718,"is_reserved":false,"is_disabled":false,"rental_uris":{"android":"levelo://app?vid=e66de01b-1475-4e9c-8fe3-2eac784982ac","ios":"levelo://app?vid=e66de01b-1475-4e9c-8fe3-2eac784982ac"},"vehicle_type_id":"4","last_reported":1714935975,"current_range_meters":0,"station_id":"ce4bgr92rcd13ifvqc7g","pricing_plan_id":"cebpf4jnsgd1na2vs0mg"},{"bike_id":"393cb278-9663-4a9b-b0fc-bd87044a58dc","system_id":"levelo_inurba_marseille","lat":43.299724,"lon":5.371829,"is_reserved":false,"is_disabled":false,"rental_uris":{"android":"levelo://app?vid=393cb278-9663-4a9b-b0fc-bd87044a58dc","ios":"levelo://app?vid=393cb278-9663-4a9b-b0fc-bd87044a58dc"},"vehicle_type_id":"4","last_reported":1714935975,"current_range_meters":10800,"station_id":"ce4bgr92rcd13ifvqc7g","pricing_plan_id":"cebpf4jnsgd1na2vs0mg"},{"bike_id":"8e1d3838-fb87-460e-854b-2f59bdc5c93d","system_id":"levelo_inurba_marseille","lat":43.29851,"lon":5.36289,"is_reserved":false,"is_disabled":false,"rental_uris":{"android":"levelo://app?vid=8e1d3838-fb87-460e-854b-2f59bdc5c93d","ios":"levelo://app?vid=8e1d3838-fb87-460e-854b-2f59bdc5c93d"},"vehicle_type_id":"4","last_reported":1714935975,"current_range_meters":0,"station_id":"ce4bgpp2rcd13ifvqc3g","pricing_plan_id":"cebpf4jnsgd1na2vs0mg"},{"bike_id":"77bb4756-262a-4e39-a453-bde6c5e51ef9","system_id":"levelo_inurba_marseille","lat":43.305364,"lon":5.384119,"is_reserved":false,"is_disabled":false,"rental_uris":{"android":"levelo://app?vid=77bb4756-262a-4e39-a453-bde6c5e51ef9","ios":"levelo://app?vid=77bb4756-262a-4e39-a453-bde6c5e51ef9"},"vehicle_type_id":"4","last_reported":1714935975,"current_range_meters":14800,"station_id":"ce4bgg92rcd13ifvqb30","pricing_plan_id":"cebpf4jnsgd1na2vs0mg"},{"bike_id":"29399153-8e8b-4ad0-a9fb-405dbd134bc4","system_id":"levelo_inurba_marseille","lat":43.311722,"lon":5.387247,"is_reserved":false,"is_disabled":false,"rental_uris":{"android":"levelo://app?vid=29399153-8e8b-4ad0-a9fb-405dbd134bc4","ios":"levelo://app?vid=29399153-8e8b-4ad0-a9fb-405dbd134bc4"},"vehicle_type_id":"4","last_reported":1714935975,"current_range_meters":2800,"station_id":"ce4bgv12rcd13ifvqcp0","pricing_plan_id":"cebpf4jnsgd1na2vs0mg"},{"bike_id":"e4dd5f55-6761-4850-83a8-ff9465dd8502","system_id":"levelo_inurba_marseille","lat":43.29909,"lon":5.37464,"is_reserved":false,"is_disabled":false,"rental_uris":{"android":"levelo://app?vid=e4dd5f55-6761-4850-83a8-ff9465dd8502","ios":"levelo://app?vid=e4dd5f55-6761-4850-83a8-ff9465dd8502"},"vehicle_type_id":"4","last_reported":1714935975,"current_range_meters":11600,"station_id":"ce4bgjh2rcd13ifvqbg0","pricing_plan_id":"cebpf4jnsgd1na2vs0mg"},{"bike_id":"dc3e5ba4-7c11-4663-a45d-2c5871f27685","system_id":"levelo_inurba_marseille","lat":43.30522,"lon":5.38438,"is_reserved":false,"is_disabled":false,"rental_uris":{"android":"levelo://app?vid=dc3e5ba4-7c11-4663-a45d-2c5871f27685","ios":"levelo://app?vid=dc3e5ba4-7c11-4663-a45d-2c5871f27685"},"vehicle_type_id":"4","last_reported":1714935975,"current_range_meters":0,"station_id":"ce4bgg92rcd13ifvqb30","pricing_plan_id":"cebpf4jnsgd1na2vs0mg"},{"bike_id":"0205b486-0fb9-426a-bdd8-a2c8f832df12","system_id":"levelo_inurba_marseille","lat":43.305364,"lon":5.384119,"is_reserved":false,"is_disabled":false,"rental_uris":{"android":"levelo://app?vid=0205b486-0fb9-426a-bdd8-a2c8f832df12","ios":"levelo://app?vid=0205b486-0fb9-426a-bdd8-a2c8f832df12"},"vehicle_type_id":"4","last_reported":1714935975,"current_range_meters":0,"station_id":"ce4bgg92rcd13ifvqb30","pricing_plan_id":"cebpf4jnsgd1na2vs0mg"},{"bike_id":"ecc9a27e-2890-420b-bcba-2b54d8b21fe1","system_id":"levelo_inurba_marseille","lat":43.311722,"lon":5.387247,"is_reserved":false,"is_disabled":false,"rental_uris":{"android":"levelo://app?vid=ecc9a27e-2890-420b-bcba-2b54d8b21fe1","ios":"levelo://app?vid=ecc9a27e-2890-420b-bcba-2b54d8b21fe1"},"vehicle_type_id":"4","last_reported":1714935975,"current_range_meters":6800,"station_id":"ce4bgv12rcd13ifvqcp0","pricing_plan_id":"cebpf4jnsgd1na2vs0mg"},{"bike_id":"d4fcb559-c62b-41c4-a4dd-2d2e8f97ab7e","system_id":"levelo_inurba_marseille","lat":43.311722,"lon":5.387247,"is_reserved":false,"is_disabled":false,"rental_uris":{"android":"levelo://app?vid=d4fcb559-c62b-41c4-a4dd-2d2e8f97ab7e","ios":"levelo://app?vid=d4fcb559-c62b-41c4-a4dd-2d2e8f97ab7e"},"vehicle_type_id":"4","last_reported":1714935975,"current_range_meters":10400,"station_id":"ce4bgv12rcd13ifvqcp0","pricing_plan_id":"cebpf4jnsgd1na2vs0mg"},{"bike_id":"edee3f71-2722-4fdb-b2d0-6937ae2456b3","system_id":"levelo_inurba_marseille","lat":43.29912,"lon":5.37479,"is_reserved":false,"is_disabled":false,"rental_uris":{"android":"levelo://app?vid=edee3f71-2722-4fdb-b2d0-6937ae2456b3","ios":"levelo://app?vid=edee3f71-2722-4fdb-b2d0-6937ae2456b3"},"vehicle_type_id":"4","last_reported":1714935975,"current_range_meters":0,"station_id":"ce4bgjh2rcd13ifvqbg0","pricing_plan_id":"cebpf4jnsgd1na2vs0mg"},{"bike_id":"ae42631f-cede-45f2-b56c-4e233dacd568","system_id":"levelo_inurba_marseille","lat":43.30151,"lon":5.380485,"is_reserved":false,"is_disabled":false,"rental_uris":{"android":"levelo://app?vid=ae42631f-cede-45f2-b56c-4e233dacd568","ios":"levelo://app?vid=ae42631f-cede-45f2-b56c-4e233dacd568"},"vehicle_type_id":"4","last_reported":1714935975,"current_range_meters":21600,"station_id":"","pricing_plan_id":"cebpf4jnsgd1na2vs0mg"},{"bike_id":"2b006099-bac6-46dd-a661-65819321887c","system_id":"levelo_inurba_marseille","lat":43.297794,"lon":5.370888,"is_reserved":false,"is_disabled":false,"rental_uris":{"android":"levelo://app?vid=2b006099-bac6-46dd-a661-65819321887c","ios":"levelo://app?vid=2b006099-bac6-46dd-a661-65819321887c"},"vehicle_type_id":"4","last_reported":1714935975,"current_range_meters":24000,"station_id":"ce4bgop2rcd13ifvqc1g","pricing_plan_id":"cebpf4jnsgd1na2vs0mg"},{"bike_id":"d7a49e7b-e5b3-4601-bc3f-224dd83772cd","system_id":"levelo_inurba_marseille","lat":43.297774,"lon":5.370875,"is_reserved":false,"is_disabled":false,"rental_uris":{"android":"levelo://app?vid=d7a49e7b-e5b3-4601-bc3f-224dd83772cd","ios":"levelo://app?vid=d7a49e7b-e5b3-4601-bc3f-224dd83772cd"},"vehicle_type_id":"4","last_reported":1714935975,"current_range_meters":25200,"station_id":"ce4bgop2rcd13ifvqc1g","pricing_plan_id":"cebpf4jnsgd1na2vs0mg"},{"bike_id":"b4f41eb5-8e4b-4e1f-90e6-74933e75e9d0","system_id":"levelo_inurba_marseille","lat":43.314907,"lon":5.38778,"is_reserved":false,"is_disabled":false,"rental_uris":{"android":"levelo://app?vid=b4f41eb5-8e4b-4e1f-90e6-74933e75e9d0","ios":"levelo://app?vid=b4f41eb5-8e4b-4e1f-90e6-74933e75e9d0"},"vehicle_type_id":"4","last_reported":1714935975,"current_range_meters":29600,"station_id":"","pricing_plan_id":"cebpf4jnsgd1na2vs0mg"},{"bike_id":"bc0290ec-33c6-4fa2-ab8d-0c16eb1ded03","system_id":"levelo_inurba_marseille","lat":43.322872,"lon":5.382756,"is_reserved":false,"is_disabled":false,"rental_uris":{"android":"levelo://app?vid=bc0290ec-33c6-4fa2-ab8d-0c16eb1ded03","ios":"levelo://app?vid=bc0290ec-33c6-4fa2-ab8d-0c16eb1ded03"},"vehicle_type_id":"4","last_reported":1714935975,"current_range_meters":26000,"station_id":"ce4bhr12rcd13ifvqhqg","pricing_plan_id":"cebpf4jnsgd1na2vs0mg"},{"bike_id":"418917c6-2393-48b0-a756-46471c303d1d","system_id":"levelo_inurba_marseille","lat":43.297163,"lon":5.365866,"is_reserved":false,"is_disabled":false,"rental_uris":{"android":"levelo://app?vid=418917c6-2393-48b0-a756-46471c303d1d","ios":"levelo://app?vid=418917c6-2393-48b0-a756-46471c303d1d"},"vehicle_type_id":"4","last_reported":1714935975,"current_range_meters":13200,"station_id":"ce4bgn12rcd13ifvqbt0","pricing_plan_id":"cebpf4jnsgd1na2vs0mg"},{"bike_id":"9276f545-b2a0-4a85-acc6-851c77b40022","system_id":"levelo_inurba_marseille","lat":43.297163,"lon":5.365866,"is_reserved":false,"is_disabled":false,"rental_uris":{"android":"levelo://app?vid=9276f545-b2a0-4a85-acc6-851c77b40022","ios":"levelo://app?vid=9276f545-b2a0-4a85-acc6-851c77b40022"},"vehicle_type_id":"4","last_reported":1714935975,"current_range_meters":16400,"station_id":"ce4bgn12rcd13ifvqbt0","pricing_plan_id":"cebpf4jnsgd1na2vs0mg"},{"bike_id":"942c76f1-6179-497a-8df3-72f5a7c04673","system_id":"levelo_inurba_marseille","lat":43.297163,"lon":5.365866,"is_reserved":false,"is_disabled":false,"rental_uris":{"android":"levelo://app?vid=942c76f1-6179-497a-8df3-72f5a7c04673","ios":"levelo://app?vid=942c76f1-6179-497a-8df3-72f5a7c04673"},"vehicle_type_id":"4","last_reported":1714935975,"current_range_meters":1600,"station_id":"ce4bgn12rcd13ifvqbt0","pricing_plan_id":"cebpf4jnsgd1na2vs0mg"},{"bike_id":"84815684-f1aa-4ec3-848f-af5f78ceb80d","system_id":"levelo_inurba_marseille","lat":43.29622,"lon":5.37155,"is_reserved":false,"is_disabled":false,"rental_uris":{"android":"levelo://app?vid=84815684-f1aa-4ec3-848f-af5f78ceb80d","ios":"levelo://app?vid=84815684-f1aa-4ec3-848f-af5f78ceb80d"},"vehicle_type_id":"4","last_reported":1714935975,"current_range_meters":8400,"station_id":"","pricing_plan_id":"cebpf4jnsgd1na2vs0mg"},{"bike_id":"c33596d7-217d-4183-b5ca-440f3f7db9b6","system_id":"levelo_inurba_marseille","lat":43.299028,"lon":5.381509,"is_reserved":false,"is_disabled":false,"rental_uris":{"android":"levelo://app?vid=c33596d7-217d-4183-b5ca-440f3f7db9b6","ios":"levelo://app?vid=c33596d7-217d-4183-b5ca-440f3f7db9b6"},"vehicle_type_id":"4","last_reported":1714935975,"current_range_meters":10800,"station_id":"ce4bgj12rcd13ifvqbc0","pricing_plan_id":"cebpf4jnsgd1na2vs0mg"},{"bike_id":"6d992820-4476-44c7-bdbd-67c5f9864395","system_id":"levelo_inurba_marseille","lat":43.29712,"lon":5.37688,"is_reserved":false,"is_disabled":false,"rental_uris":{"android":"levelo://app?vid=6d992820-4476-44c7-bdbd-67c5f9864395","ios":"levelo://app?vid=6d992820-4476-44c7-bdbd-67c5f9864395"},"vehicle_type_id":"4","last_reported":1714935975,"current_range_meters":0,"station_id":"ce4bgkh2rcd13ifvqbl0","pricing_plan_id":"cebpf4jnsgd1na2vs0mg"},{"bike_id":"19b63bfc-a123-40c6-b24a-d9b6a1c7e2ee","system_id":"levelo_inurba_marseille","lat":43.299028,"lon":5.381509,"is_reserved":false,"is_disabled":false,"rental_uris":{"android":"levelo://app?vid=19b63bfc-a123-40c6-b24a-d9b6a1c7e2ee","ios":"levelo://app?vid=19b63bfc-a123-40c6-b24a-d9b6a1c7e2ee"},"vehicle_type_id":"4","last_reported":1714935975,"current_range_meters":3600,"station_id":"ce4bgj12rcd13ifvqbc0","pricing_plan_id":"cebpf4jnsgd1na2vs0mg"},{"bike_id":"b69e3248-bfd6-4159-bef4-610a2258756d","system_id":"levelo_inurba_marseille","lat":43.299028,"lon":5.381509,"is_reserved":false,"is_disabled":false,"rental_uris":{"android":"levelo://app?vid=b69e3248-bfd6-4159-bef4-610a2258756d","ios":"levelo://app?vid=b69e3248-bfd6-4159-bef4-610a2258756d"},"vehicle_type_id":"4","last_reported":1714935975,"current_range_meters":17600,"station_id":"ce4bgj12rcd13ifvqbc0","pricing_plan_id":"cebpf4jnsgd1na2vs0mg"},{"bike_id":"29804f8d-c16d-4829-815d-48844b26a221","system_id":"levelo_inurba_marseille","lat":43.299028,"lon":5.381509,"is_reserved":false,"is_disabled":false,"rental_uris":{"android":"levelo://app?vid=29804f8d-c16d-4829-815d-48844b26a221","ios":"levelo://app?vid=29804f8d-c16d-4829-815d-48844b26a221"},"vehicle_type_id":"4","last_reported":1714935975,"current_range_meters":17600,"station_id":"ce4bgj12rcd13ifvqbc0","pricing_plan_id":"cebpf4jnsgd1na2vs0mg"},{"bike_id":"5505f3ac-5e7d-4188-aa2e-a0126571fc0d","system_id":"levelo_inurba_marseille","lat":43.299028,"lon":5.381509,"is_reserved":false,"is_disabled":false,"rental_uris":{"android":"levelo://app?vid=5505f3ac-5e7d-4188-aa2e-a0126571fc0d","ios":"levelo://app?vid=5505f3ac-5e7d-4188-aa2e-a0126571fc0d"},"vehicle_type_id":"4","last_reported":1714935975,"current_range_meters":800,"station_id":"ce4bgj12rcd13ifvqbc0","pricing_plan_id":"cebpf4jnsgd1na2vs0mg"},{"bike_id":"663e171a-c53c-4f2c-b3f2-f53cb6c21b29","system_id":"levelo_inurba_marseille","lat":43.299028,"lon":5.381509,"is_reserved":false,"is_disabled":false,"rental_uris":{"android":"levelo://app?vid=663e171a-c53c-4f2c-b3f2-f53cb6c21b29","ios":"levelo://app?vid=663e171a-c53c-4f2c-b3f2-f53cb6c21b29"},"vehicle_type_id":"4","last_reported":1714935975,"current_range_meters":11200,"station_id":"ce4bgj12rcd13ifvqbc0","pricing_plan_id":"cebpf4jnsgd1na2vs0mg"},{"bike_id":"14d87b79-f0bc-418b-be82-3da129711c9c","system_id":"levelo_inurba_marseille","lat":43.309463,"lon":5.390347,"is_reserved":false,"is_disabled":false,"rental_uris":{"android":"levelo://app?vid=14d87b79-f0bc-418b-be82-3da129711c9c","ios":"levelo://app?vid=14d87b79-f0bc-418b-be82-3da129711c9c"},"vehicle_type_id":"4","last_reported":1714935975,"current_range_meters":0,"station_id":"ce4bgup2rcd13ifvqco0","pricing_plan_id":"cebpf4jnsgd1na2vs0mg"},{"bike_id":"35b70ffc-51ea-402e-93f7-932f466d751f","system_id":"levelo_inurba_marseille","lat":43.317497,"lon":5.390143,"is_reserved":false,"is_disabled":false,"rental_uris":{"android":"levelo://app?vid=35b70ffc-51ea-402e-93f7-932f466d751f","ios":"levelo://app?vid=35b70ffc-51ea-402e-93f7-932f466d751f"},"vehicle_type_id":"4","last_reported":1714935975,"current_range_meters":31200,"station_id":"ce4bhqp2rcd13ifvqhng","pricing_plan_id":"cebpf4jnsgd1na2vs0mg"},{"bike_id":"1da56a36-c66c-4d2d-8fd7-b897cbf1222b","system_id":"levelo_inurba_marseille","lat":43.317557,"lon":5.390173,"is_reserved":false,"is_disabled":false,"rental_uris":{"android":"levelo://app?vid=1da56a36-c66c-4d2d-8fd7-b897cbf1222b","ios":"levelo://app?vid=1da56a36-c66c-4d2d-8fd7-b897cbf1222b"},"vehicle_type_id":"4","last_reported":1714935975,"current_range_meters":400,"station_id":"ce4bhqp2rcd13ifvqhng","pricing_plan_id":"cebpf4jnsgd1na2vs0mg"},{"bike_id":"4ddd541f-a91c-4332-af75-af1d398e6841","system_id":"levelo_inurba_marseille","lat":43.296277,"lon":5.377108,"is_reserved":false,"is_disabled":false,"rental_uris":{"android":"levelo://app?vid=4ddd541f-a91c-4332-af75-af1d398e6841","ios":"levelo://app?vid=4ddd541f-a91c-4332-af75-af1d398e6841"},"vehicle_type_id":"4","last_reported":1714935975,"current_range_meters":7200,"station_id":"ce4bgi92rcd13ifvqb90","pricing_plan_id":"cebpf4jnsgd1na2vs0mg"},{"bike_id":"3d1f4be7-0d11-4aa9-9514-98223dd86f4f","system_id":"levelo_inurba_marseille","lat":43.298037,"lon":5.381066,"is_reserved":false,"is_disabled":false,"rental_uris":{"android":"levelo://app?vid=3d1f4be7-0d11-4aa9-9514-98223dd86f4f","ios":"levelo://app?vid=3d1f4be7-0d11-4aa9-9514-98223dd86f4f"},"vehicle_type_id":"4","last_reported":1714935975,"current_range_meters":400,"station_id":"ce4bgip2rcd13ifvqbb0","pricing_plan_id":"cebpf4jnsgd1na2vs0mg"},{"bike_id":"992cdbef-7a0a-445b-9851-6d7335b1f95e","system_id":"levelo_inurba_marseille","lat":43.298037,"lon":5.381066,"is_reserved":false,"is_disabled":false,"rental_uris":{"android":"levelo://app?vid=992cdbef-7a0a-445b-9851-6d7335b1f95e","ios":"levelo://app?vid=992cdbef-7a0a-445b-9851-6d7335b1f95e"},"vehicle_type_id":"4","last_reported":1714935975,"current_range_meters":2400,"station_id":"ce4bgip2rcd13ifvqbb0","pricing_plan_id":"cebpf4jnsgd1na2vs0mg"},{"bike_id":"bff30385-4f44-454b-a136-0d9067543934","system_id":"levelo_inurba_marseille","lat":43.29799,"lon":5.381,"is_reserved":false,"is_disabled":false,"rental_uris":{"android":"levelo://app?vid=bff30385-4f44-454b-a136-0d9067543934","ios":"levelo://app?vid=bff30385-4f44-454b-a136-0d9067543934"},"vehicle_type_id":"4","last_reported":1714935975,"current_range_meters":0,"station_id":"ce4bgip2rcd13ifvqbb0","pricing_plan_id":"cebpf4jnsgd1na2vs0mg"},{"bike_id":"f422616b-d146-4bdf-9a6f-3a99995564af","system_id":"levelo_inurba_marseille","lat":43.298037,"lon":5.381066,"is_reserved":false,"is_disabled":false,"rental_uris":{"android":"levelo://app?vid=f422616b-d146-4bdf-9a6f-3a99995564af","ios":"levelo://app?vid=f422616b-d146-4bdf-9a6f-3a99995564af"},"vehicle_type_id":"4","last_reported":1714935975,"current_range_meters":21200,"station_id":"ce4bgip2rcd13ifvqbb0","pricing_plan_id":"cebpf4jnsgd1na2vs0mg"},{"bike_id":"b0703693-5d02-408d-8d63-5332f25e2164","system_id":"levelo_inurba_marseille","lat":43.298037,"lon":5.381066,"is_reserved":false,"is_disabled":false,"rental_uris":{"android":"levelo://app?vid=b0703693-5d02-408d-8d63-5332f25e2164","ios":"levelo://app?vid=b0703693-5d02-408d-8d63-5332f25e2164"},"vehicle_type_id":"4","last_reported":1714935975,"current_range_meters":2000,"station_id":"ce4bgip2rcd13ifvqbb0","pricing_plan_id":"cebpf4jnsgd1na2vs0mg"},{"bike_id":"0bc076dd-8483-4253-a363-d65fab083e94","system_id":"levelo_inurba_marseille","lat":43.295703,"lon":5.374822,"is_reserved":false,"is_disabled":false,"rental_uris":{"android":"levelo://app?vid=0bc076dd-8483-4253-a363-d65fab083e94","ios":"levelo://app?vid=0bc076dd-8483-4253-a363-d65fab083e94"},"vehicle_type_id":"4","last_reported":1714935975,"current_range_meters":8800,"station_id":"ce4bgkp2rcd13ifvqbmg","pricing_plan_id":"cebpf4jnsgd1na2vs0mg"},{"bike_id":"91fedc52-e246-4e7a-aa2e-494a4212685a","system_id":"levelo_inurba_marseille","lat":43.295748,"lon":5.37522,"is_reserved":false,"is_disabled":false,"rental_uris":{"android":"levelo://app?vid=91fedc52-e246-4e7a-aa2e-494a4212685a","ios":"levelo://app?vid=91fedc52-e246-4e7a-aa2e-494a4212685a"},"vehicle_type_id":"4","last_reported":1714935975,"current_range_meters":18000,"station_id":"ce4bgh92rcd13ifvqb50","pricing_plan_id":"cebpf4jnsgd1na2vs0mg"},{"bike_id":"daf0d3cd-0a91-4e9a-9f41-0b5d7fb520ce","system_id":"levelo_inurba_marseille","lat":43.29568,"lon":5.37495,"is_reserved":false,"is_disabled":false,"rental_uris":{"android":"levelo://app?vid=daf0d3cd-0a91-4e9a-9f41-0b5d7fb520ce","ios":"levelo://app?vid=daf0d3cd-0a91-4e9a-9f41-0b5d7fb520ce"},"vehicle_type_id":"4","last_reported":1714935975,"current_range_meters":8800,"station_id":"ce4bgh92rcd13ifvqb50","pricing_plan_id":"cebpf4jnsgd1na2vs0mg"},{"bike_id":"0b26fdcf-d49f-4b64-8478-cc5218d59697","system_id":"levelo_inurba_marseille","lat":43.304278,"lon":5.388868,"is_reserved":false,"is_disabled":false,"rental_uris":{"android":"levelo://app?vid=0b26fdcf-d49f-4b64-8478-cc5218d59697","ios":"levelo://app?vid=0b26fdcf-d49f-4b64-8478-cc5218d59697"},"vehicle_type_id":"4","last_reported":1714935975,"current_range_meters":2800,"station_id":"ce4bgk12rcd13ifvqbi0","pricing_plan_id":"cebpf4jnsgd1na2vs0mg"},{"bike_id":"a63a2813-cc57-4d67-bf4a-7616ed281c7e","system_id":"levelo_inurba_marseille","lat":43.296277,"lon":5.377108,"is_reserved":false,"is_disabled":false,"rental_uris":{"android":"levelo://app?vid=a63a2813-cc57-4d67-bf4a-7616ed281c7e","ios":"levelo://app?vid=a63a2813-cc57-4d67-bf4a-7616ed281c7e"},"vehicle_type_id":"4","last_reported":1714935975,"current_range_meters":10400,"station_id":"ce4bgi92rcd13ifvqb90","pricing_plan_id":"cebpf4jnsgd1na2vs0mg"},{"bike_id":"da6f2c96-55ff-422c-b7b8-dd7efc146923","system_id":"levelo_inurba_marseille","lat":43.304278,"lon":5.388868,"is_reserved":false,"is_disabled":false,"rental_uris":{"android":"levelo://app?vid=da6f2c96-55ff-422c-b7b8-dd7efc146923","ios":"levelo://app?vid=da6f2c96-55ff-422c-b7b8-dd7efc146923"},"vehicle_type_id":"4","last_reported":1714935975,"current_range_meters":4400,"station_id":"ce4bgk12rcd13ifvqbi0","pricing_plan_id":"cebpf4jnsgd1na2vs0mg"},{"bike_id":"a57670a0-8c70-4fd6-ade5-29361fbb7628","system_id":"levelo_inurba_marseille","lat":43.29618,"lon":5.377212,"is_reserved":false,"is_disabled":false,"rental_uris":{"android":"levelo://app?vid=a57670a0-8c70-4fd6-ade5-29361fbb7628","ios":"levelo://app?vid=a57670a0-8c70-4fd6-ade5-29361fbb7628"},"vehicle_type_id":"4","last_reported":1714935975,"current_range_meters":0,"station_id":"","pricing_plan_id":"cebpf4jnsgd1na2vs0mg"},{"bike_id":"d7a92e89-3868-4ad9-9128-c961d2c6d155","system_id":"levelo_inurba_marseille","lat":43.296277,"lon":5.377108,"is_reserved":false,"is_disabled":false,"rental_uris":{"android":"levelo://app?vid=d7a92e89-3868-4ad9-9128-c961d2c6d155","ios":"levelo://app?vid=d7a92e89-3868-4ad9-9128-c961d2c6d155"},"vehicle_type_id":"4","last_reported":1714935975,"current_range_meters":2400,"station_id":"ce4bgi92rcd13ifvqb90","pricing_plan_id":"cebpf4jnsgd1na2vs0mg"},{"bike_id":"3c954b48-2a75-440e-823d-62d51914a48d","system_id":"levelo_inurba_marseille","lat":43.299707,"lon":5.384859,"is_reserved":false,"is_disabled":false,"rental_uris":{"android":"levelo://app?vid=3c954b48-2a75-440e-823d-62d51914a48d","ios":"levelo://app?vid=3c954b48-2a75-440e-823d-62d51914a48d"},"vehicle_type_id":"4","last_reported":1714935975,"current_range_meters":0,"station_id":"ce4bgj92rcd13ifvqbd0","pricing_plan_id":"cebpf4jnsgd1na2vs0mg"},{"bike_id":"067fe7b7-6fcc-41a5-ac84-59d37b9da3dd","system_id":"levelo_inurba_marseille","lat":43.298037,"lon":5.381066,"is_reserved":false,"is_disabled":false,"rental_uris":{"android":"levelo://app?vid=067fe7b7-6fcc-41a5-ac84-59d37b9da3dd","ios":"levelo://app?vid=067fe7b7-6fcc-41a5-ac84-59d37b9da3dd"},"vehicle_type_id":"4","last_reported":1714935975,"current_range_meters":24800,"station_id":"ce4bgip2rcd13ifvqbb0","pricing_plan_id":"cebpf4jnsgd1na2vs0mg"},{"bike_id":"f44178cf-5ab8-414b-9887-038eada93258","system_id":"levelo_inurba_marseille","lat":43.2997,"lon":5.38488,"is_reserved":false,"is_disabled":false,"rental_uris":{"android":"levelo://app?vid=f44178cf-5ab8-414b-9887-038eada93258","ios":"levelo://app?vid=f44178cf-5ab8-414b-9887-038eada93258"},"vehicle_type_id":"4","last_reported":1714935975,"current_range_meters":4000,"station_id":"ce4bgj92rcd13ifvqbd0","pricing_plan_id":"cebpf4jnsgd1na2vs0mg"},{"bike_id":"5a3d97cf-81aa-4f23-8aae-26c03ffc1f2d","system_id":"levelo_inurba_marseille","lat":43.299724,"lon":5.384848,"is_reserved":false,"is_disabled":false,"rental_uris":{"android":"levelo://app?vid=5a3d97cf-81aa-4f23-8aae-26c03ffc1f2d","ios":"levelo://app?vid=5a3d97cf-81aa-4f23-8aae-26c03ffc1f2d"},"vehicle_type_id":"4","last_reported":1714935975,"current_range_meters":21600,"station_id":"ce4bgj92rcd13ifvqbd0","pricing_plan_id":"cebpf4jnsgd1na2vs0mg"},{"bike_id":"2aad623e-e919-40fc-a498-476ba1351358","system_id":"levelo_inurba_marseille","lat":43.299707,"lon":5.384859,"is_reserved":false,"is_disabled":false,"rental_uris":{"android":"levelo://app?vid=2aad623e-e919-40fc-a498-476ba1351358","ios":"levelo://app?vid=2aad623e-e919-40fc-a498-476ba1351358"},"vehicle_type_id":"4","last_reported":1714935975,"current_range_meters":10000,"station_id":"ce4bgj92rcd13ifvqbd0","pricing_plan_id":"cebpf4jnsgd1na2vs0mg"},{"bike_id":"a3bba039-bbc7-4d13-a6b7-80105a2f9c7f","system_id":"levelo_inurba_marseille","lat":43.299717,"lon":5.384845,"is_reserved":false,"is_disabled":false,"rental_uris":{"android":"levelo://app?vid=a3bba039-bbc7-4d13-a6b7-80105a2f9c7f","ios":"levelo://app?vid=a3bba039-bbc7-4d13-a6b7-80105a2f9c7f"},"vehicle_type_id":"4","last_reported":1714935975,"current_range_meters":26400,"station_id":"ce4bgj92rcd13ifvqbd0","pricing_plan_id":"cebpf4jnsgd1na2vs0mg"},{"bike_id":"bd82215a-9095-409d-ac5f-e421d282b6fc","system_id":"levelo_inurba_marseille","lat":43.299713,"lon":5.38497,"is_reserved":false,"is_disabled":false,"rental_uris":{"android":"levelo://app?vid=bd82215a-9095-409d-ac5f-e421d282b6fc","ios":"levelo://app?vid=bd82215a-9095-409d-ac5f-e421d282b6fc"},"vehicle_type_id":"4","last_reported":1714935975,"current_range_meters":18800,"station_id":"ce4bgj92rcd13ifvqbd0","pricing_plan_id":"cebpf4jnsgd1na2vs0mg"},{"bike_id":"c6266137-e58f-47e6-a89f-7d8f29e1b93b","system_id":"levelo_inurba_marseille","lat":43.29516,"lon":5.37502,"is_reserved":false,"is_disabled":false,"rental_uris":{"android":"levelo://app?vid=c6266137-e58f-47e6-a89f-7d8f29e1b93b","ios":"levelo://app?vid=c6266137-e58f-47e6-a89f-7d8f29e1b93b"},"vehicle_type_id":"4","last_reported":1714935975,"current_range_meters":0,"station_id":"ce4bgkp2rcd13ifvqbmg","pricing_plan_id":"cebpf4jnsgd1na2vs0mg"},{"bike_id":"f611475c-29cc-462c-a351-0854045a8d46","system_id":"levelo_inurba_marseille","lat":43.29971,"lon":5.385075,"is_reserved":false,"is_disabled":false,"rental_uris":{"android":"levelo://app?vid=f611475c-29cc-462c-a351-0854045a8d46","ios":"levelo://app?vid=f611475c-29cc-462c-a351-0854045a8d46"},"vehicle_type_id":"4","last_reported":1714935975,"current_range_meters":23600,"station_id":"ce4bgj92rcd13ifvqbd0","pricing_plan_id":"cebpf4jnsgd1na2vs0mg"},{"bike_id":"2445eb17-8dac-4a2c-a51c-8b29bb7f28ae","system_id":"levelo_inurba_marseille","lat":43.29514,"lon":5.37509,"is_reserved":false,"is_disabled":false,"rental_uris":{"android":"levelo://app?vid=2445eb17-8dac-4a2c-a51c-8b29bb7f28ae","ios":"levelo://app?vid=2445eb17-8dac-4a2c-a51c-8b29bb7f28ae"},"vehicle_type_id":"4","last_reported":1714935975,"current_range_meters":0,"station_id":"ce4bgkp2rcd13ifvqbmg","pricing_plan_id":"cebpf4jnsgd1na2vs0mg"},{"bike_id":"e2d54ccf-de7f-4b0e-8275-872e71bbcc50","system_id":"levelo_inurba_marseille","lat":43.299295,"lon":5.384757,"is_reserved":false,"is_disabled":false,"rental_uris":{"android":"levelo://app?vid=e2d54ccf-de7f-4b0e-8275-872e71bbcc50","ios":"levelo://app?vid=e2d54ccf-de7f-4b0e-8275-872e71bbcc50"},"vehicle_type_id":"4","last_reported":1714935975,"current_range_meters":6400,"station_id":"ce4bgj92rcd13ifvqbd0","pricing_plan_id":"cebpf4jnsgd1na2vs0mg"},{"bike_id":"2ea73606-ba82-4619-919f-1d5025ae4d38","system_id":"levelo_inurba_marseille","lat":43.32365,"lon":5.38884,"is_reserved":false,"is_disabled":false,"rental_uris":{"android":"levelo://app?vid=2ea73606-ba82-4619-919f-1d5025ae4d38","ios":"levelo://app?vid=2ea73606-ba82-4619-919f-1d5025ae4d38"},"vehicle_type_id":"4","last_reported":1714935975,"current_range_meters":0,"station_id":"ce4bhqp2rcd13ifvqhog","pricing_plan_id":"cebpf4jnsgd1na2vs0mg"},{"bike_id":"4a39b302-b5a2-4539-b586-f66857dbb7c6","system_id":"levelo_inurba_marseille","lat":43.323669,"lon":5.388858,"is_reserved":false,"is_disabled":false,"rental_uris":{"android":"levelo://app?vid=4a39b302-b5a2-4539-b586-f66857dbb7c6","ios":"levelo://app?vid=4a39b302-b5a2-4539-b586-f66857dbb7c6"},"vehicle_type_id":"4","last_reported":1714935975,"current_range_meters":0,"station_id":"ce4bhqp2rcd13ifvqhog","pricing_plan_id":"cebpf4jnsgd1na2vs0mg"},{"bike_id":"d03e4823-3965-4a77-bf8c-89f6142da427","system_id":"levelo_inurba_marseille","lat":43.32366,"lon":5.38887,"is_reserved":false,"is_disabled":false,"rental_uris":{"android":"levelo://app?vid=d03e4823-3965-4a77-bf8c-89f6142da427","ios":"levelo://app?vid=d03e4823-3965-4a77-bf8c-89f6142da427"},"vehicle_type_id":"4","last_reported":1714935975,"current_range_meters":16400,"station_id":"ce4bhqp2rcd13ifvqhog","pricing_plan_id":"cebpf4jnsgd1na2vs0mg"},{"bike_id":"78f4da48-f197-4129-9b2f-293568914f27","system_id":"levelo_inurba_marseille","lat":43.296236,"lon":5.381219,"is_reserved":false,"is_disabled":false,"rental_uris":{"android":"levelo://app?vid=78f4da48-f197-4129-9b2f-293568914f27","ios":"levelo://app?vid=78f4da48-f197-4129-9b2f-293568914f27"},"vehicle_type_id":"4","last_reported":1714935975,"current_range_meters":15600,"station_id":"","pricing_plan_id":"cebpf4jnsgd1na2vs0mg"},{"bike_id":"c68c37dc-3511-4526-a794-4ba495fa305e","system_id":"levelo_inurba_marseille","lat":43.29601,"lon":5.381084,"is_reserved":false,"is_disabled":false,"rental_uris":{"android":"levelo://app?vid=c68c37dc-3511-4526-a794-4ba495fa305e","ios":"levelo://app?vid=c68c37dc-3511-4526-a794-4ba495fa305e"},"vehicle_type_id":"4","last_reported":1714935975,"current_range_meters":12000,"station_id":"ce4bgl12rcd13ifvqbo0","pricing_plan_id":"cebpf4jnsgd1na2vs0mg"},{"bike_id":"6dace706-4f24-42fe-af19-c744bf01f187","system_id":"levelo_inurba_marseille","lat":43.29593,"lon":5.38097,"is_reserved":false,"is_disabled":false,"rental_uris":{"android":"levelo://app?vid=6dace706-4f24-42fe-af19-c744bf01f187","ios":"levelo://app?vid=6dace706-4f24-42fe-af19-c744bf01f187"},"vehicle_type_id":"4","last_reported":1714935975,"current_range_meters":0,"station_id":"ce4bgl12rcd13ifvqbo0","pricing_plan_id":"cebpf4jnsgd1na2vs0mg"},{"bike_id":"571a2eac-c90b-48a6-8fe2-6a59d3f68f9e","system_id":"levelo_inurba_marseille","lat":43.29595,"lon":5.38106,"is_reserved":false,"is_disabled":false,"rental_uris":{"android":"levelo://app?vid=571a2eac-c90b-48a6-8fe2-6a59d3f68f9e","ios":"levelo://app?vid=571a2eac-c90b-48a6-8fe2-6a59d3f68f9e"},"vehicle_type_id":"4","last_reported":1714935975,"current_range_meters":1200,"station_id":"ce4bgl12rcd13ifvqbo0","pricing_plan_id":"cebpf4jnsgd1na2vs0mg"},{"bike_id":"c3685685-0e93-4be0-9bd3-7722eea47f1d","system_id":"levelo_inurba_marseille","lat":43.29595,"lon":5.38109,"is_reserved":false,"is_disabled":false,"rental_uris":{"android":"levelo://app?vid=c3685685-0e93-4be0-9bd3-7722eea47f1d","ios":"levelo://app?vid=c3685685-0e93-4be0-9bd3-7722eea47f1d"},"vehicle_type_id":"4","last_reported":1714935975,"current_range_meters":26400,"station_id":"ce4bgl12rcd13ifvqbo0","pricing_plan_id":"cebpf4jnsgd1na2vs0mg"},{"bike_id":"03877bf6-9352-450c-a5eb-0d8e52e9a1ac","system_id":"levelo_inurba_marseille","lat":43.293079,"lon":5.371605,"is_reserved":false,"is_disabled":false,"rental_uris":{"android":"levelo://app?vid=03877bf6-9352-450c-a5eb-0d8e52e9a1ac","ios":"levelo://app?vid=03877bf6-9352-450c-a5eb-0d8e52e9a1ac"},"vehicle_type_id":"4","last_reported":1714935975,"current_range_meters":4400,"station_id":"ce4bgh92rcd13ifvqb40","pricing_plan_id":"cebpf4jnsgd1na2vs0mg"},{"bike_id":"e4546b47-86f6-4b66-bfc6-2deb1294faf6","system_id":"levelo_inurba_marseille","lat":43.29307,"lon":5.37176,"is_reserved":false,"is_disabled":false,"rental_uris":{"android":"levelo://app?vid=e4546b47-86f6-4b66-bfc6-2deb1294faf6","ios":"levelo://app?vid=e4546b47-86f6-4b66-bfc6-2deb1294faf6"},"vehicle_type_id":"4","last_reported":1714935975,"current_range_meters":2400,"station_id":"ce4bgh92rcd13ifvqb40","pricing_plan_id":"cebpf4jnsgd1na2vs0mg"},{"bike_id":"d5c59f04-607b-4409-8aa8-73e8d9f35c87","system_id":"levelo_inurba_marseille","lat":43.293249,"lon":5.371578,"is_reserved":false,"is_disabled":false,"rental_uris":{"android":"levelo://app?vid=d5c59f04-607b-4409-8aa8-73e8d9f35c87","ios":"levelo://app?vid=d5c59f04-607b-4409-8aa8-73e8d9f35c87"},"vehicle_type_id":"4","last_reported":1714935975,"current_range_meters":2000,"station_id":"ce4bgh92rcd13ifvqb40","pricing_plan_id":"cebpf4jnsgd1na2vs0mg"},{"bike_id":"77acaabe-16c3-410a-a6fc-498fd3a318fc","system_id":"levelo_inurba_marseille","lat":43.292749,"lon":5.368402,"is_reserved":false,"is_disabled":false,"rental_uris":{"android":"levelo://app?vid=77acaabe-16c3-410a-a6fc-498fd3a318fc","ios":"levelo://app?vid=77acaabe-16c3-410a-a6fc-498fd3a318fc"},"vehicle_type_id":"4","last_reported":1714935975,"current_range_meters":21600,"station_id":"ce4bhbp2rcd13ifvqesg","pricing_plan_id":"cebpf4jnsgd1na2vs0mg"},{"bike_id":"07d81044-dbcd-4c01-9fac-0f82b429be37","system_id":"levelo_inurba_marseille","lat":43.292666,"lon":5.368388,"is_reserved":false,"is_disabled":false,"rental_uris":{"android":"levelo://app?vid=07d81044-dbcd-4c01-9fac-0f82b429be37","ios":"levelo://app?vid=07d81044-dbcd-4c01-9fac-0f82b429be37"},"vehicle_type_id":"4","last_reported":1714935975,"current_range_meters":0,"station_id":"ce4bhbp2rcd13ifvqesg","pricing_plan_id":"cebpf4jnsgd1na2vs0mg"},{"bike_id":"944b3e3b-b179-4d03-857f-4c9cdec5701c","system_id":"levelo_inurba_marseille","lat":43.29265,"lon":5.36847,"is_reserved":false,"is_disabled":false,"rental_uris":{"android":"levelo://app?vid=944b3e3b-b179-4d03-857f-4c9cdec5701c","ios":"levelo://app?vid=944b3e3b-b179-4d03-857f-4c9cdec5701c"},"vehicle_type_id":"4","last_reported":1714935975,"current_range_meters":0,"station_id":"ce4bhbp2rcd13ifvqesg","pricing_plan_id":"cebpf4jnsgd1na2vs0mg"},{"bike_id":"09f7cb5d-9edd-47d2-a04e-f1b90dc48fc4","system_id":"levelo_inurba_marseille","lat":43.292749,"lon":5.368402,"is_reserved":false,"is_disabled":false,"rental_uris":{"android":"levelo://app?vid=09f7cb5d-9edd-47d2-a04e-f1b90dc48fc4","ios":"levelo://app?vid=09f7cb5d-9edd-47d2-a04e-f1b90dc48fc4"},"vehicle_type_id":"4","last_reported":1714935975,"current_range_meters":20000,"station_id":"ce4bhbp2rcd13ifvqesg","pricing_plan_id":"cebpf4jnsgd1na2vs0mg"},{"bike_id":"64d7c112-976b-4f4b-a4ee-af5009a0b094","system_id":"levelo_inurba_marseille","lat":43.30595,"lon":5.39344,"is_reserved":false,"is_disabled":false,"rental_uris":{"android":"levelo://app?vid=64d7c112-976b-4f4b-a4ee-af5009a0b094","ios":"levelo://app?vid=64d7c112-976b-4f4b-a4ee-af5009a0b094"},"vehicle_type_id":"4","last_reported":1714935975,"current_range_meters":0,"station_id":"ce4bh0p2rcd13ifvqd80","pricing_plan_id":"cebpf4jnsgd1na2vs0mg"},{"bike_id":"379c021c-3fc3-47c3-97d5-3e5c50614e85","system_id":"levelo_inurba_marseille","lat":43.293009,"lon":5.374584,"is_reserved":false,"is_disabled":false,"rental_uris":{"android":"levelo://app?vid=379c021c-3fc3-47c3-97d5-3e5c50614e85","ios":"levelo://app?vid=379c021c-3fc3-47c3-97d5-3e5c50614e85"},"vehicle_type_id":"4","last_reported":1714935975,"current_range_meters":26000,"station_id":"ce4bgi12rcd13ifvqb70","pricing_plan_id":"cebpf4jnsgd1na2vs0mg"},{"bike_id":"af905aa2-3e73-44fb-8385-f496f8803d18","system_id":"levelo_inurba_marseille","lat":43.29304,"lon":5.37455,"is_reserved":false,"is_disabled":false,"rental_uris":{"android":"levelo://app?vid=af905aa2-3e73-44fb-8385-f496f8803d18","ios":"levelo://app?vid=af905aa2-3e73-44fb-8385-f496f8803d18"},"vehicle_type_id":"4","last_reported":1714935975,"current_range_meters":0,"station_id":"ce4bgi12rcd13ifvqb70","pricing_plan_id":"cebpf4jnsgd1na2vs0mg"},{"bike_id":"c045f88a-6d82-41be-9a17-2742425dbd15","system_id":"levelo_inurba_marseille","lat":43.293009,"lon":5.374584,"is_reserved":false,"is_disabled":false,"rental_uris":{"android":"levelo://app?vid=c045f88a-6d82-41be-9a17-2742425dbd15","ios":"levelo://app?vid=c045f88a-6d82-41be-9a17-2742425dbd15"},"vehicle_type_id":"4","last_reported":1714935975,"current_range_meters":11600,"station_id":"ce4bgi12rcd13ifvqb70","pricing_plan_id":"cebpf4jnsgd1na2vs0mg"},{"bike_id":"85b92c80-96e4-4b92-b186-6a65cabd7adf","system_id":"levelo_inurba_marseille","lat":43.293009,"lon":5.374584,"is_reserved":false,"is_disabled":false,"rental_uris":{"android":"levelo://app?vid=85b92c80-96e4-4b92-b186-6a65cabd7adf","ios":"levelo://app?vid=85b92c80-96e4-4b92-b186-6a65cabd7adf"},"vehicle_type_id":"4","last_reported":1714935975,"current_range_meters":4800,"station_id":"ce4bgi12rcd13ifvqb70","pricing_plan_id":"cebpf4jnsgd1na2vs0mg"},{"bike_id":"8aa5b4ed-8356-4904-8670-ff4aca032c78","system_id":"levelo_inurba_marseille","lat":43.293009,"lon":5.374584,"is_reserved":false,"is_disabled":false,"rental_uris":{"android":"levelo://app?vid=8aa5b4ed-8356-4904-8670-ff4aca032c78","ios":"levelo://app?vid=8aa5b4ed-8356-4904-8670-ff4aca032c78"},"vehicle_type_id":"4","last_reported":1714935975,"current_range_meters":12400,"station_id":"ce4bgi12rcd13ifvqb70","pricing_plan_id":"cebpf4jnsgd1na2vs0mg"},{"bike_id":"cd1d2595-cd89-474c-b993-6eee11f4c285","system_id":"levelo_inurba_marseille","lat":43.293009,"lon":5.374584,"is_reserved":false,"is_disabled":false,"rental_uris":{"android":"levelo://app?vid=cd1d2595-cd89-474c-b993-6eee11f4c285","ios":"levelo://app?vid=cd1d2595-cd89-474c-b993-6eee11f4c285"},"vehicle_type_id":"4","last_reported":1714935975,"current_range_meters":0,"station_id":"ce4bgi12rcd13ifvqb70","pricing_plan_id":"cebpf4jnsgd1na2vs0mg"},{"bike_id":"afa90e21-9471-4d05-aea8-5c6582dcd8de","system_id":"levelo_inurba_marseille","lat":43.293009,"lon":5.374584,"is_reserved":false,"is_disabled":false,"rental_uris":{"android":"levelo://app?vid=afa90e21-9471-4d05-aea8-5c6582dcd8de","ios":"levelo://app?vid=afa90e21-9471-4d05-aea8-5c6582dcd8de"},"vehicle_type_id":"4","last_reported":1714935975,"current_range_meters":27200,"station_id":"ce4bgi12rcd13ifvqb70","pricing_plan_id":"cebpf4jnsgd1na2vs0mg"},{"bike_id":"c3d882bd-f5d3-4236-8d64-ccbf163cf3b5","system_id":"levelo_inurba_marseille","lat":43.29298,"lon":5.37453,"is_reserved":false,"is_disabled":false,"rental_uris":{"android":"levelo://app?vid=c3d882bd-f5d3-4236-8d64-ccbf163cf3b5","ios":"levelo://app?vid=c3d882bd-f5d3-4236-8d64-ccbf163cf3b5"},"vehicle_type_id":"4","last_reported":1714935975,"current_range_meters":0,"station_id":"ce4bgi12rcd13ifvqb70","pricing_plan_id":"cebpf4jnsgd1na2vs0mg"},{"bike_id":"5dcdb604-4ab8-4247-90b5-ca7fb4615c1b","system_id":"levelo_inurba_marseille","lat":43.293009,"lon":5.374584,"is_reserved":false,"is_disabled":false,"rental_uris":{"android":"levelo://app?vid=5dcdb604-4ab8-4247-90b5-ca7fb4615c1b","ios":"levelo://app?vid=5dcdb604-4ab8-4247-90b5-ca7fb4615c1b"},"vehicle_type_id":"4","last_reported":1714935975,"current_range_meters":1600,"station_id":"ce4bgi12rcd13ifvqb70","pricing_plan_id":"cebpf4jnsgd1na2vs0mg"},{"bike_id":"3faa8ada-093f-4357-8d9b-3fb4b07e42ff","system_id":"levelo_inurba_marseille","lat":43.305994,"lon":5.393687,"is_reserved":false,"is_disabled":false,"rental_uris":{"android":"levelo://app?vid=3faa8ada-093f-4357-8d9b-3fb4b07e42ff","ios":"levelo://app?vid=3faa8ada-093f-4357-8d9b-3fb4b07e42ff"},"vehicle_type_id":"4","last_reported":1714935975,"current_range_meters":800,"station_id":"ce4bh0p2rcd13ifvqd80","pricing_plan_id":"cebpf4jnsgd1na2vs0mg"},{"bike_id":"90bd3bf8-dfe9-4f10-9f6c-bb7214b31c2a","system_id":"levelo_inurba_marseille","lat":43.303002,"lon":5.392142,"is_reserved":false,"is_disabled":false,"rental_uris":{"android":"levelo://app?vid=90bd3bf8-dfe9-4f10-9f6c-bb7214b31c2a","ios":"levelo://app?vid=90bd3bf8-dfe9-4f10-9f6c-bb7214b31c2a"},"vehicle_type_id":"4","last_reported":1714935975,"current_range_meters":9200,"station_id":"ce4bgkh2rcd13ifvqbk0","pricing_plan_id":"cebpf4jnsgd1na2vs0mg"},{"bike_id":"fe3266d0-e357-4b9e-913b-59e4cc22e609","system_id":"levelo_inurba_marseille","lat":43.2936,"lon":5.37835,"is_reserved":false,"is_disabled":false,"rental_uris":{"android":"levelo://app?vid=fe3266d0-e357-4b9e-913b-59e4cc22e609","ios":"levelo://app?vid=fe3266d0-e357-4b9e-913b-59e4cc22e609"},"vehicle_type_id":"4","last_reported":1714935975,"current_range_meters":800,"station_id":"ce4bgjh2rcd13ifvqbf0","pricing_plan_id":"cebpf4jnsgd1na2vs0mg"},{"bike_id":"0c66adba-04fc-4f1b-bebd-e4d00ce9e8e3","system_id":"levelo_inurba_marseille","lat":43.293767,"lon":5.37857,"is_reserved":false,"is_disabled":false,"rental_uris":{"android":"levelo://app?vid=0c66adba-04fc-4f1b-bebd-e4d00ce9e8e3","ios":"levelo://app?vid=0c66adba-04fc-4f1b-bebd-e4d00ce9e8e3"},"vehicle_type_id":"4","last_reported":1714935975,"current_range_meters":0,"station_id":"ce4bgjh2rcd13ifvqbf0","pricing_plan_id":"cebpf4jnsgd1na2vs0mg"},{"bike_id":"ba965f58-cb59-44d9-a355-4db9e389acd7","system_id":"levelo_inurba_marseille","lat":43.303002,"lon":5.392142,"is_reserved":false,"is_disabled":false,"rental_uris":{"android":"levelo://app?vid=ba965f58-cb59-44d9-a355-4db9e389acd7","ios":"levelo://app?vid=ba965f58-cb59-44d9-a355-4db9e389acd7"},"vehicle_type_id":"4","last_reported":1714935975,"current_range_meters":1200,"station_id":"ce4bgkh2rcd13ifvqbk0","pricing_plan_id":"cebpf4jnsgd1na2vs0mg"},{"bike_id":"096ff355-a2da-48dd-a440-4fdfa4c554e5","system_id":"levelo_inurba_marseille","lat":43.2936,"lon":5.37835,"is_reserved":false,"is_disabled":false,"rental_uris":{"android":"levelo://app?vid=096ff355-a2da-48dd-a440-4fdfa4c554e5","ios":"levelo://app?vid=096ff355-a2da-48dd-a440-4fdfa4c554e5"},"vehicle_type_id":"4","last_reported":1714935975,"current_range_meters":13200,"station_id":"ce4bgjh2rcd13ifvqbf0","pricing_plan_id":"cebpf4jnsgd1na2vs0mg"},{"bike_id":"10c24554-b75e-4ab6-a271-5fba8b45acf6","system_id":"levelo_inurba_marseille","lat":43.2936,"lon":5.37835,"is_reserved":false,"is_disabled":false,"rental_uris":{"android":"levelo://app?vid=10c24554-b75e-4ab6-a271-5fba8b45acf6","ios":"levelo://app?vid=10c24554-b75e-4ab6-a271-5fba8b45acf6"},"vehicle_type_id":"4","last_reported":1714935975,"current_range_meters":26400,"station_id":"ce4bgjh2rcd13ifvqbf0","pricing_plan_id":"cebpf4jnsgd1na2vs0mg"},{"bike_id":"aed91c11-993c-4a03-96cb-5a56c9913266","system_id":"levelo_inurba_marseille","lat":43.2936,"lon":5.37835,"is_reserved":false,"is_disabled":false,"rental_uris":{"android":"levelo://app?vid=aed91c11-993c-4a03-96cb-5a56c9913266","ios":"levelo://app?vid=aed91c11-993c-4a03-96cb-5a56c9913266"},"vehicle_type_id":"4","last_reported":1714935975,"current_range_meters":21200,"station_id":"ce4bgjh2rcd13ifvqbf0","pricing_plan_id":"cebpf4jnsgd1na2vs0mg"},{"bike_id":"054ab93c-0c70-4f82-8f6b-80f41580f4d3","system_id":"levelo_inurba_marseille","lat":43.292311,"lon":5.360731,"is_reserved":false,"is_disabled":false,"rental_uris":{"android":"levelo://app?vid=054ab93c-0c70-4f82-8f6b-80f41580f4d3","ios":"levelo://app?vid=054ab93c-0c70-4f82-8f6b-80f41580f4d3"},"vehicle_type_id":"4","last_reported":1714935975,"current_range_meters":400,"station_id":"ce4bhbh2rcd13ifvqeqg","pricing_plan_id":"cebpf4jnsgd1na2vs0mg"},{"bike_id":"9a552ee7-2f41-4cb8-8ade-4e347273b7a7","system_id":"levelo_inurba_marseille","lat":43.2936,"lon":5.37835,"is_reserved":false,"is_disabled":false,"rental_uris":{"android":"levelo://app?vid=9a552ee7-2f41-4cb8-8ade-4e347273b7a7","ios":"levelo://app?vid=9a552ee7-2f41-4cb8-8ade-4e347273b7a7"},"vehicle_type_id":"4","last_reported":1714935975,"current_range_meters":26000,"station_id":"ce4bgjh2rcd13ifvqbf0","pricing_plan_id":"cebpf4jnsgd1na2vs0mg"},{"bike_id":"a528ee69-74f5-4d32-947f-38fa943f9028","system_id":"levelo_inurba_marseille","lat":43.292311,"lon":5.360731,"is_reserved":false,"is_disabled":false,"rental_uris":{"android":"levelo://app?vid=a528ee69-74f5-4d32-947f-38fa943f9028","ios":"levelo://app?vid=a528ee69-74f5-4d32-947f-38fa943f9028"},"vehicle_type_id":"4","last_reported":1714935975,"current_range_meters":27600,"station_id":"ce4bhbh2rcd13ifvqeqg","pricing_plan_id":"cebpf4jnsgd1na2vs0mg"},{"bike_id":"a3e8686d-6093-464b-a925-1e21eaed18df","system_id":"levelo_inurba_marseille","lat":43.292311,"lon":5.360731,"is_reserved":false,"is_disabled":false,"rental_uris":{"android":"levelo://app?vid=a3e8686d-6093-464b-a925-1e21eaed18df","ios":"levelo://app?vid=a3e8686d-6093-464b-a925-1e21eaed18df"},"vehicle_type_id":"4","last_reported":1714935975,"current_range_meters":0,"station_id":"ce4bhbh2rcd13ifvqeqg","pricing_plan_id":"cebpf4jnsgd1na2vs0mg"},{"bike_id":"bd3ede52-067d-4f86-ad69-b42abca0c68a","system_id":"levelo_inurba_marseille","lat":43.2936,"lon":5.37835,"is_reserved":false,"is_disabled":false,"rental_uris":{"android":"levelo://app?vid=bd3ede52-067d-4f86-ad69-b42abca0c68a","ios":"levelo://app?vid=bd3ede52-067d-4f86-ad69-b42abca0c68a"},"vehicle_type_id":"4","last_reported":1714935975,"current_range_meters":2800,"station_id":"ce4bgjh2rcd13ifvqbf0","pricing_plan_id":"cebpf4jnsgd1na2vs0mg"},{"bike_id":"b031ee42-b0d0-4cd4-a8e1-4d8e6f9d3b79","system_id":"levelo_inurba_marseille","lat":43.29225,"lon":5.36057,"is_reserved":false,"is_disabled":false,"rental_uris":{"android":"levelo://app?vid=b031ee42-b0d0-4cd4-a8e1-4d8e6f9d3b79","ios":"levelo://app?vid=b031ee42-b0d0-4cd4-a8e1-4d8e6f9d3b79"},"vehicle_type_id":"4","last_reported":1714935975,"current_range_meters":0,"station_id":"ce4bhbh2rcd13ifvqeqg","pricing_plan_id":"cebpf4jnsgd1na2vs0mg"},{"bike_id":"dbd5a5c7-3dcf-4c2b-a130-7e7e6105e84f","system_id":"levelo_inurba_marseille","lat":43.2922,"lon":5.36049,"is_reserved":false,"is_disabled":false,"rental_uris":{"android":"levelo://app?vid=dbd5a5c7-3dcf-4c2b-a130-7e7e6105e84f","ios":"levelo://app?vid=dbd5a5c7-3dcf-4c2b-a130-7e7e6105e84f"},"vehicle_type_id":"4","last_reported":1714935975,"current_range_meters":0,"station_id":"ce4bhbh2rcd13ifvqeqg","pricing_plan_id":"cebpf4jnsgd1na2vs0mg"},{"bike_id":"65e130bf-94f2-4c5b-a927-3b88585a4953","system_id":"levelo_inurba_marseille","lat":43.292175,"lon":5.36055,"is_reserved":false,"is_disabled":false,"rental_uris":{"android":"levelo://app?vid=65e130bf-94f2-4c5b-a927-3b88585a4953","ios":"levelo://app?vid=65e130bf-94f2-4c5b-a927-3b88585a4953"},"vehicle_type_id":"4","last_reported":1714935975,"current_range_meters":800,"station_id":"ce4bhbh2rcd13ifvqeqg","pricing_plan_id":"cebpf4jnsgd1na2vs0mg"},{"bike_id":"f27ff229-0054-4fa3-81b3-1a9092c5dd19","system_id":"levelo_inurba_marseille","lat":43.29217,"lon":5.36054,"is_reserved":false,"is_disabled":false,"rental_uris":{"android":"levelo://app?vid=f27ff229-0054-4fa3-81b3-1a9092c5dd19","ios":"levelo://app?vid=f27ff229-0054-4fa3-81b3-1a9092c5dd19"},"vehicle_type_id":"4","last_reported":1714935975,"current_range_meters":0,"station_id":"ce4bhbh2rcd13ifvqeqg","pricing_plan_id":"cebpf4jnsgd1na2vs0mg"},{"bike_id":"08656641-bebc-4048-806a-15caa3f0bbb5","system_id":"levelo_inurba_marseille","lat":43.30085,"lon":5.390856,"is_reserved":false,"is_disabled":false,"rental_uris":{"android":"levelo://app?vid=08656641-bebc-4048-806a-15caa3f0bbb5","ios":"levelo://app?vid=08656641-bebc-4048-806a-15caa3f0bbb5"},"vehicle_type_id":"4","last_reported":1714935975,"current_range_meters":21600,"station_id":"ce4bh192rcd13ifvqdb0","pricing_plan_id":"cebpf4jnsgd1na2vs0mg"},{"bike_id":"c983c83d-7868-42f2-8d28-00acb459aab4","system_id":"levelo_inurba_marseille","lat":43.298764,"lon":5.388973,"is_reserved":false,"is_disabled":false,"rental_uris":{"android":"levelo://app?vid=c983c83d-7868-42f2-8d28-00acb459aab4","ios":"levelo://app?vid=c983c83d-7868-42f2-8d28-00acb459aab4"},"vehicle_type_id":"4","last_reported":1714935975,"current_range_meters":0,"station_id":"ce4bh392rcd13ifvqdl0","pricing_plan_id":"cebpf4jnsgd1na2vs0mg"},{"bike_id":"47089ff8-77be-4bea-9ec2-889322ec10ac","system_id":"levelo_inurba_marseille","lat":43.2987,"lon":5.38909,"is_reserved":false,"is_disabled":false,"rental_uris":{"android":"levelo://app?vid=47089ff8-77be-4bea-9ec2-889322ec10ac","ios":"levelo://app?vid=47089ff8-77be-4bea-9ec2-889322ec10ac"},"vehicle_type_id":"4","last_reported":1714935975,"current_range_meters":0,"station_id":"ce4bh392rcd13ifvqdl0","pricing_plan_id":"cebpf4jnsgd1na2vs0mg"},{"bike_id":"a1cdc4f6-ac2f-4963-9791-843568c895cc","system_id":"levelo_inurba_marseille","lat":43.291671,"lon":5.371575,"is_reserved":false,"is_disabled":false,"rental_uris":{"android":"levelo://app?vid=a1cdc4f6-ac2f-4963-9791-843568c895cc","ios":"levelo://app?vid=a1cdc4f6-ac2f-4963-9791-843568c895cc"},"vehicle_type_id":"4","last_reported":1714935975,"current_range_meters":2800,"station_id":"ce4bha92rcd13ifvqeh0","pricing_plan_id":"cebpf4jnsgd1na2vs0mg"},{"bike_id":"55b9782c-3118-4e85-a893-885287695174","system_id":"levelo_inurba_marseille","lat":43.291671,"lon":5.371575,"is_reserved":false,"is_disabled":false,"rental_uris":{"android":"levelo://app?vid=55b9782c-3118-4e85-a893-885287695174","ios":"levelo://app?vid=55b9782c-3118-4e85-a893-885287695174"},"vehicle_type_id":"4","last_reported":1714935975,"current_range_meters":7600,"station_id":"ce4bha92rcd13ifvqeh0","pricing_plan_id":"cebpf4jnsgd1na2vs0mg"},{"bike_id":"75803ff0-a600-44a0-bb5a-8364ef238f1d","system_id":"levelo_inurba_marseille","lat":43.309047,"lon":5.396551,"is_reserved":false,"is_disabled":false,"rental_uris":{"android":"levelo://app?vid=75803ff0-a600-44a0-bb5a-8364ef238f1d","ios":"levelo://app?vid=75803ff0-a600-44a0-bb5a-8364ef238f1d"},"vehicle_type_id":"4","last_reported":1714935975,"current_range_meters":400,"station_id":"ce4bh012rcd13ifvqcv0","pricing_plan_id":"cebpf4jnsgd1na2vs0mg"},{"bike_id":"c71d9a05-6755-4c9a-9874-80ef448a5785","system_id":"levelo_inurba_marseille","lat":43.292005,"lon":5.357875,"is_reserved":false,"is_disabled":false,"rental_uris":{"android":"levelo://app?vid=c71d9a05-6755-4c9a-9874-80ef448a5785","ios":"levelo://app?vid=c71d9a05-6755-4c9a-9874-80ef448a5785"},"vehicle_type_id":"4","last_reported":1714935975,"current_range_meters":16400,"station_id":"ce4bhb12rcd13ifvqel0","pricing_plan_id":"cebpf4jnsgd1na2vs0mg"},{"bike_id":"1e4a1176-3873-415b-92b7-c9baff5cb041","system_id":"levelo_inurba_marseille","lat":43.309047,"lon":5.396551,"is_reserved":false,"is_disabled":false,"rental_uris":{"android":"levelo://app?vid=1e4a1176-3873-415b-92b7-c9baff5cb041","ios":"levelo://app?vid=1e4a1176-3873-415b-92b7-c9baff5cb041"},"vehicle_type_id":"4","last_reported":1714935975,"current_range_meters":4400,"station_id":"ce4bh012rcd13ifvqcv0","pricing_plan_id":"cebpf4jnsgd1na2vs0mg"},{"bike_id":"c6309abc-eb87-481a-9ec4-b014bf279f1b","system_id":"levelo_inurba_marseille","lat":43.313291,"lon":5.396838,"is_reserved":false,"is_disabled":false,"rental_uris":{"android":"levelo://app?vid=c6309abc-eb87-481a-9ec4-b014bf279f1b","ios":"levelo://app?vid=c6309abc-eb87-481a-9ec4-b014bf279f1b"},"vehicle_type_id":"4","last_reported":1714935975,"current_range_meters":5600,"station_id":"ce4bgvp2rcd13ifvqcu0","pricing_plan_id":"cebpf4jnsgd1na2vs0mg"},{"bike_id":"4ea147cb-2e3b-49e1-b762-de27bc1e8448","system_id":"levelo_inurba_marseille","lat":43.313291,"lon":5.396838,"is_reserved":false,"is_disabled":false,"rental_uris":{"android":"levelo://app?vid=4ea147cb-2e3b-49e1-b762-de27bc1e8448","ios":"levelo://app?vid=4ea147cb-2e3b-49e1-b762-de27bc1e8448"},"vehicle_type_id":"4","last_reported":1714935975,"current_range_meters":9200,"station_id":"ce4bgvp2rcd13ifvqcu0","pricing_plan_id":"cebpf4jnsgd1na2vs0mg"},{"bike_id":"96995d77-859f-44a4-a56c-615586faa10f","system_id":"levelo_inurba_marseille","lat":43.309047,"lon":5.396551,"is_reserved":false,"is_disabled":false,"rental_uris":{"android":"levelo://app?vid=96995d77-859f-44a4-a56c-615586faa10f","ios":"levelo://app?vid=96995d77-859f-44a4-a56c-615586faa10f"},"vehicle_type_id":"4","last_reported":1714935975,"current_range_meters":14800,"station_id":"ce4bh012rcd13ifvqcv0","pricing_plan_id":"cebpf4jnsgd1na2vs0mg"},{"bike_id":"bce55cf7-1b4b-4e18-b9de-0c7cd1591256","system_id":"levelo_inurba_marseille","lat":43.31329,"lon":5.39694,"is_reserved":false,"is_disabled":false,"rental_uris":{"android":"levelo://app?vid=bce55cf7-1b4b-4e18-b9de-0c7cd1591256","ios":"levelo://app?vid=bce55cf7-1b4b-4e18-b9de-0c7cd1591256"},"vehicle_type_id":"4","last_reported":1714935975,"current_range_meters":9200,"station_id":"ce4bgvp2rcd13ifvqcu0","pricing_plan_id":"cebpf4jnsgd1na2vs0mg"},{"bike_id":"e7eb311d-6e9e-4921-80d5-dd3b324a7d13","system_id":"levelo_inurba_marseille","lat":43.313291,"lon":5.396838,"is_reserved":false,"is_disabled":false,"rental_uris":{"android":"levelo://app?vid=e7eb311d-6e9e-4921-80d5-dd3b324a7d13","ios":"levelo://app?vid=e7eb311d-6e9e-4921-80d5-dd3b324a7d13"},"vehicle_type_id":"4","last_reported":1714935975,"current_range_meters":30800,"station_id":"ce4bgvp2rcd13ifvqcu0","pricing_plan_id":"cebpf4jnsgd1na2vs0mg"},{"bike_id":"945a0a4f-34d7-4195-b2aa-e08fe97c7c2f","system_id":"levelo_inurba_marseille","lat":43.313291,"lon":5.396838,"is_reserved":false,"is_disabled":false,"rental_uris":{"android":"levelo://app?vid=945a0a4f-34d7-4195-b2aa-e08fe97c7c2f","ios":"levelo://app?vid=945a0a4f-34d7-4195-b2aa-e08fe97c7c2f"},"vehicle_type_id":"4","last_reported":1714935975,"current_range_meters":4000,"station_id":"ce4bgvp2rcd13ifvqcu0","pricing_plan_id":"cebpf4jnsgd1na2vs0mg"},{"bike_id":"7780c257-166f-4a5f-99bd-34354967e5cf","system_id":"levelo_inurba_marseille","lat":43.309038,"lon":5.396546,"is_reserved":false,"is_disabled":false,"rental_uris":{"android":"levelo://app?vid=7780c257-166f-4a5f-99bd-34354967e5cf","ios":"levelo://app?vid=7780c257-166f-4a5f-99bd-34354967e5cf"},"vehicle_type_id":"4","last_reported":1714935975,"current_range_meters":1600,"station_id":"ce4bh012rcd13ifvqcv0","pricing_plan_id":"cebpf4jnsgd1na2vs0mg"},{"bike_id":"4a9fba57-bd23-4da2-a520-15979301d4c7","system_id":"levelo_inurba_marseille","lat":43.29529,"lon":5.385581,"is_reserved":false,"is_disabled":false,"rental_uris":{"android":"levelo://app?vid=4a9fba57-bd23-4da2-a520-15979301d4c7","ios":"levelo://app?vid=4a9fba57-bd23-4da2-a520-15979301d4c7"},"vehicle_type_id":"4","last_reported":1714935975,"current_range_meters":19200,"station_id":"ce4bgih2rcd13ifvqba0","pricing_plan_id":"cebpf4jnsgd1na2vs0mg"},{"bike_id":"2517f457-20aa-4b98-a3a1-8d31f4923d6f","system_id":"levelo_inurba_marseille","lat":43.29531,"lon":5.38549,"is_reserved":false,"is_disabled":false,"rental_uris":{"android":"levelo://app?vid=2517f457-20aa-4b98-a3a1-8d31f4923d6f","ios":"levelo://app?vid=2517f457-20aa-4b98-a3a1-8d31f4923d6f"},"vehicle_type_id":"4","last_reported":1714935975,"current_range_meters":0,"station_id":"ce4bgih2rcd13ifvqba0","pricing_plan_id":"cebpf4jnsgd1na2vs0mg"},{"bike_id":"f417c173-4eaa-4d66-8e60-d55b30d58de9","system_id":"levelo_inurba_marseille","lat":43.290779,"lon":5.371482,"is_reserved":false,"is_disabled":false,"rental_uris":{"android":"levelo://app?vid=f417c173-4eaa-4d66-8e60-d55b30d58de9","ios":"levelo://app?vid=f417c173-4eaa-4d66-8e60-d55b30d58de9"},"vehicle_type_id":"4","last_reported":1714935975,"current_range_meters":12000,"station_id":"ce4bh5p2rcd13ifvqe4g","pricing_plan_id":"cebpf4jnsgd1na2vs0mg"},{"bike_id":"02e89473-233a-4e46-b7d1-16210418b3c7","system_id":"levelo_inurba_marseille","lat":43.290779,"lon":5.371482,"is_reserved":false,"is_disabled":false,"rental_uris":{"android":"levelo://app?vid=02e89473-233a-4e46-b7d1-16210418b3c7","ios":"levelo://app?vid=02e89473-233a-4e46-b7d1-16210418b3c7"},"vehicle_type_id":"4","last_reported":1714935975,"current_range_meters":6000,"station_id":"ce4bh5p2rcd13ifvqe4g","pricing_plan_id":"cebpf4jnsgd1na2vs0mg"},{"bike_id":"663807cb-7089-4e71-a9d8-d27762027742","system_id":"levelo_inurba_marseille","lat":43.29063,"lon":5.37157,"is_reserved":false,"is_disabled":false,"rental_uris":{"android":"levelo://app?vid=663807cb-7089-4e71-a9d8-d27762027742","ios":"levelo://app?vid=663807cb-7089-4e71-a9d8-d27762027742"},"vehicle_type_id":"4","last_reported":1714935975,"current_range_meters":0,"station_id":"ce4bh5p2rcd13ifvqe4g","pricing_plan_id":"cebpf4jnsgd1na2vs0mg"},{"bike_id":"412c2e58-815e-4f25-afcb-bd631547d79c","system_id":"levelo_inurba_marseille","lat":43.294153,"lon":5.386305,"is_reserved":false,"is_disabled":false,"rental_uris":{"android":"levelo://app?vid=412c2e58-815e-4f25-afcb-bd631547d79c","ios":"levelo://app?vid=412c2e58-815e-4f25-afcb-bd631547d79c"},"vehicle_type_id":"4","last_reported":1714935975,"current_range_meters":12000,"station_id":"ce4bh2h2rcd13ifvqdh0","pricing_plan_id":"cebpf4jnsgd1na2vs0mg"},{"bike_id":"b62c2ad9-7ea7-430f-9913-65ce75ae6bc9","system_id":"levelo_inurba_marseille","lat":43.29423,"lon":5.38617,"is_reserved":false,"is_disabled":false,"rental_uris":{"android":"levelo://app?vid=b62c2ad9-7ea7-430f-9913-65ce75ae6bc9","ios":"levelo://app?vid=b62c2ad9-7ea7-430f-9913-65ce75ae6bc9"},"vehicle_type_id":"4","last_reported":1714935975,"current_range_meters":3600,"station_id":"ce4bh2h2rcd13ifvqdh0","pricing_plan_id":"cebpf4jnsgd1na2vs0mg"},{"bike_id":"9b19f0bf-d5a5-4aa7-81ec-8f098fd53574","system_id":"levelo_inurba_marseille","lat":43.29419,"lon":5.38614,"is_reserved":false,"is_disabled":false,"rental_uris":{"android":"levelo://app?vid=9b19f0bf-d5a5-4aa7-81ec-8f098fd53574","ios":"levelo://app?vid=9b19f0bf-d5a5-4aa7-81ec-8f098fd53574"},"vehicle_type_id":"4","last_reported":1714935975,"current_range_meters":5600,"station_id":"ce4bh2h2rcd13ifvqdh0","pricing_plan_id":"cebpf4jnsgd1na2vs0mg"},{"bike_id":"c8cfa35b-434e-420d-a5c8-22d07e37e042","system_id":"levelo_inurba_marseille","lat":43.2942,"lon":5.38617,"is_reserved":false,"is_disabled":false,"rental_uris":{"android":"levelo://app?vid=c8cfa35b-434e-420d-a5c8-22d07e37e042","ios":"levelo://app?vid=c8cfa35b-434e-420d-a5c8-22d07e37e042"},"vehicle_type_id":"4","last_reported":1714935975,"current_range_meters":21600,"station_id":"ce4bh2h2rcd13ifvqdh0","pricing_plan_id":"cebpf4jnsgd1na2vs0mg"},{"bike_id":"ffd058db-2829-4214-aa52-528f95cf3f2c","system_id":"levelo_inurba_marseille","lat":43.290327,"lon":5.375711,"is_reserved":false,"is_disabled":false,"rental_uris":{"android":"levelo://app?vid=ffd058db-2829-4214-aa52-528f95cf3f2c","ios":"levelo://app?vid=ffd058db-2829-4214-aa52-528f95cf3f2c"},"vehicle_type_id":"4","last_reported":1714935975,"current_range_meters":24000,"station_id":"ce4bh692rcd13ifvqe90","pricing_plan_id":"cebpf4jnsgd1na2vs0mg"},{"bike_id":"45b1bdeb-5ff9-4f41-86b3-32e846ed3113","system_id":"levelo_inurba_marseille","lat":43.294162,"lon":5.386292,"is_reserved":false,"is_disabled":false,"rental_uris":{"android":"levelo://app?vid=45b1bdeb-5ff9-4f41-86b3-32e846ed3113","ios":"levelo://app?vid=45b1bdeb-5ff9-4f41-86b3-32e846ed3113"},"vehicle_type_id":"4","last_reported":1714935975,"current_range_meters":26800,"station_id":"ce4bh2h2rcd13ifvqdh0","pricing_plan_id":"cebpf4jnsgd1na2vs0mg"},{"bike_id":"8f0a1a37-961b-43fa-9a97-297fcb2d8c2b","system_id":"levelo_inurba_marseille","lat":43.294153,"lon":5.386305,"is_reserved":false,"is_disabled":false,"rental_uris":{"android":"levelo://app?vid=8f0a1a37-961b-43fa-9a97-297fcb2d8c2b","ios":"levelo://app?vid=8f0a1a37-961b-43fa-9a97-297fcb2d8c2b"},"vehicle_type_id":"4","last_reported":1714935975,"current_range_meters":4000,"station_id":"ce4bh2h2rcd13ifvqdh0","pricing_plan_id":"cebpf4jnsgd1na2vs0mg"},{"bike_id":"3b23fd44-40a7-4872-b074-ca4b7f3cd097","system_id":"levelo_inurba_marseille","lat":43.29419,"lon":5.38623,"is_reserved":false,"is_disabled":false,"rental_uris":{"android":"levelo://app?vid=3b23fd44-40a7-4872-b074-ca4b7f3cd097","ios":"levelo://app?vid=3b23fd44-40a7-4872-b074-ca4b7f3cd097"},"vehicle_type_id":"4","last_reported":1714935975,"current_range_meters":5200,"station_id":"ce4bh2h2rcd13ifvqdh0","pricing_plan_id":"cebpf4jnsgd1na2vs0mg"},{"bike_id":"d1ec9202-f6e7-4a91-bd8a-572ea0a0d8e4","system_id":"levelo_inurba_marseille","lat":43.29417,"lon":5.3862,"is_reserved":false,"is_disabled":false,"rental_uris":{"android":"levelo://app?vid=d1ec9202-f6e7-4a91-bd8a-572ea0a0d8e4","ios":"levelo://app?vid=d1ec9202-f6e7-4a91-bd8a-572ea0a0d8e4"},"vehicle_type_id":"4","last_reported":1714935975,"current_range_meters":1600,"station_id":"ce4bh2h2rcd13ifvqdh0","pricing_plan_id":"cebpf4jnsgd1na2vs0mg"},{"bike_id":"4ee84967-7004-4321-82a5-43b53eb4e424","system_id":"levelo_inurba_marseille","lat":43.29417,"lon":5.38621,"is_reserved":false,"is_disabled":false,"rental_uris":{"android":"levelo://app?vid=4ee84967-7004-4321-82a5-43b53eb4e424","ios":"levelo://app?vid=4ee84967-7004-4321-82a5-43b53eb4e424"},"vehicle_type_id":"4","last_reported":1714935975,"current_range_meters":2800,"station_id":"ce4bh2h2rcd13ifvqdh0","pricing_plan_id":"cebpf4jnsgd1na2vs0mg"},{"bike_id":"6e36210d-70b3-4125-8e43-a4f34f43304a","system_id":"levelo_inurba_marseille","lat":43.294162,"lon":5.386292,"is_reserved":false,"is_disabled":false,"rental_uris":{"android":"levelo://app?vid=6e36210d-70b3-4125-8e43-a4f34f43304a","ios":"levelo://app?vid=6e36210d-70b3-4125-8e43-a4f34f43304a"},"vehicle_type_id":"4","last_reported":1714935975,"current_range_meters":17200,"station_id":"ce4bh2h2rcd13ifvqdh0","pricing_plan_id":"cebpf4jnsgd1na2vs0mg"},{"bike_id":"fc17981a-d791-447e-8813-14664a7a24d7","system_id":"levelo_inurba_marseille","lat":43.294162,"lon":5.386292,"is_reserved":false,"is_disabled":false,"rental_uris":{"android":"levelo://app?vid=fc17981a-d791-447e-8813-14664a7a24d7","ios":"levelo://app?vid=fc17981a-d791-447e-8813-14664a7a24d7"},"vehicle_type_id":"4","last_reported":1714935975,"current_range_meters":19600,"station_id":"ce4bh2h2rcd13ifvqdh0","pricing_plan_id":"cebpf4jnsgd1na2vs0mg"},{"bike_id":"1dc366f5-a24e-4cc7-860c-f253cde13ba4","system_id":"levelo_inurba_marseille","lat":43.29416,"lon":5.38621,"is_reserved":false,"is_disabled":false,"rental_uris":{"android":"levelo://app?vid=1dc366f5-a24e-4cc7-860c-f253cde13ba4","ios":"levelo://app?vid=1dc366f5-a24e-4cc7-860c-f253cde13ba4"},"vehicle_type_id":"4","last_reported":1714935975,"current_range_meters":7200,"station_id":"ce4bh2h2rcd13ifvqdh0","pricing_plan_id":"cebpf4jnsgd1na2vs0mg"},{"bike_id":"df817235-3b9f-421b-805a-065cdd64affd","system_id":"levelo_inurba_marseille","lat":43.29414,"lon":5.38618,"is_reserved":false,"is_disabled":false,"rental_uris":{"android":"levelo://app?vid=df817235-3b9f-421b-805a-065cdd64affd","ios":"levelo://app?vid=df817235-3b9f-421b-805a-065cdd64affd"},"vehicle_type_id":"4","last_reported":1714935975,"current_range_meters":23600,"station_id":"ce4bh2h2rcd13ifvqdh0","pricing_plan_id":"cebpf4jnsgd1na2vs0mg"},{"bike_id":"db4c9210-4a71-452f-9db0-4fb1379a545d","system_id":"levelo_inurba_marseille","lat":43.29416,"lon":5.38623,"is_reserved":false,"is_disabled":false,"rental_uris":{"android":"levelo://app?vid=db4c9210-4a71-452f-9db0-4fb1379a545d","ios":"levelo://app?vid=db4c9210-4a71-452f-9db0-4fb1379a545d"},"vehicle_type_id":"4","last_reported":1714935975,"current_range_meters":26400,"station_id":"ce4bh2h2rcd13ifvqdh0","pricing_plan_id":"cebpf4jnsgd1na2vs0mg"},{"bike_id":"4aad27af-a401-4c77-90c9-10df54955c32","system_id":"levelo_inurba_marseille","lat":43.294162,"lon":5.386292,"is_reserved":false,"is_disabled":false,"rental_uris":{"android":"levelo://app?vid=4aad27af-a401-4c77-90c9-10df54955c32","ios":"levelo://app?vid=4aad27af-a401-4c77-90c9-10df54955c32"},"vehicle_type_id":"4","last_reported":1714935975,"current_range_meters":28000,"station_id":"ce4bh2h2rcd13ifvqdh0","pricing_plan_id":"cebpf4jnsgd1na2vs0mg"},{"bike_id":"2c2974d3-0f50-4bea-b959-b1cbce5a810a","system_id":"levelo_inurba_marseille","lat":43.290319,"lon":5.375732,"is_reserved":false,"is_disabled":false,"rental_uris":{"android":"levelo://app?vid=2c2974d3-0f50-4bea-b959-b1cbce5a810a","ios":"levelo://app?vid=2c2974d3-0f50-4bea-b959-b1cbce5a810a"},"vehicle_type_id":"4","last_reported":1714935975,"current_range_meters":3600,"station_id":"ce4bh692rcd13ifvqe90","pricing_plan_id":"cebpf4jnsgd1na2vs0mg"},{"bike_id":"53dd913b-20e4-401d-b92c-936fe2f0b26f","system_id":"levelo_inurba_marseille","lat":43.294162,"lon":5.386292,"is_reserved":false,"is_disabled":false,"rental_uris":{"android":"levelo://app?vid=53dd913b-20e4-401d-b92c-936fe2f0b26f","ios":"levelo://app?vid=53dd913b-20e4-401d-b92c-936fe2f0b26f"},"vehicle_type_id":"4","last_reported":1714935975,"current_range_meters":22800,"station_id":"ce4bh2h2rcd13ifvqdh0","pricing_plan_id":"cebpf4jnsgd1na2vs0mg"},{"bike_id":"9244f192-20f6-4853-8085-ebfb7d3053cd","system_id":"levelo_inurba_marseille","lat":43.29411,"lon":5.38617,"is_reserved":false,"is_disabled":false,"rental_uris":{"android":"levelo://app?vid=9244f192-20f6-4853-8085-ebfb7d3053cd","ios":"levelo://app?vid=9244f192-20f6-4853-8085-ebfb7d3053cd"},"vehicle_type_id":"4","last_reported":1714935975,"current_range_meters":4800,"station_id":"ce4bh2h2rcd13ifvqdh0","pricing_plan_id":"cebpf4jnsgd1na2vs0mg"},{"bike_id":"2205b130-cc67-42c3-8e1f-e06dca252c02","system_id":"levelo_inurba_marseille","lat":43.294184,"lon":5.386307,"is_reserved":false,"is_disabled":false,"rental_uris":{"android":"levelo://app?vid=2205b130-cc67-42c3-8e1f-e06dca252c02","ios":"levelo://app?vid=2205b130-cc67-42c3-8e1f-e06dca252c02"},"vehicle_type_id":"4","last_reported":1714935975,"current_range_meters":2000,"station_id":"","pricing_plan_id":"cebpf4jnsgd1na2vs0mg"},{"bike_id":"ae8117bc-a69c-489e-8365-eb0628bdd024","system_id":"levelo_inurba_marseille","lat":43.29415,"lon":5.38627,"is_reserved":false,"is_disabled":false,"rental_uris":{"android":"levelo://app?vid=ae8117bc-a69c-489e-8365-eb0628bdd024","ios":"levelo://app?vid=ae8117bc-a69c-489e-8365-eb0628bdd024"},"vehicle_type_id":"4","last_reported":1714935975,"current_range_meters":20000,"station_id":"ce4bh2h2rcd13ifvqdh0","pricing_plan_id":"cebpf4jnsgd1na2vs0mg"},{"bike_id":"dba7cf4b-8a63-488f-b0d0-9a98456be48d","system_id":"levelo_inurba_marseille","lat":43.294162,"lon":5.386292,"is_reserved":false,"is_disabled":false,"rental_uris":{"android":"levelo://app?vid=dba7cf4b-8a63-488f-b0d0-9a98456be48d","ios":"levelo://app?vid=dba7cf4b-8a63-488f-b0d0-9a98456be48d"},"vehicle_type_id":"4","last_reported":1714935975,"current_range_meters":12400,"station_id":"ce4bh2h2rcd13ifvqdh0","pricing_plan_id":"cebpf4jnsgd1na2vs0mg"},{"bike_id":"792b569f-5f4a-49b9-ae3e-20b603f89795","system_id":"levelo_inurba_marseille","lat":43.29413,"lon":5.38624,"is_reserved":false,"is_disabled":false,"rental_uris":{"android":"levelo://app?vid=792b569f-5f4a-49b9-ae3e-20b603f89795","ios":"levelo://app?vid=792b569f-5f4a-49b9-ae3e-20b603f89795"},"vehicle_type_id":"4","last_reported":1714935975,"current_range_meters":0,"station_id":"ce4bh2h2rcd13ifvqdh0","pricing_plan_id":"cebpf4jnsgd1na2vs0mg"},{"bike_id":"d3d55cc0-a9be-4b5e-be40-dbf6180c1a88","system_id":"levelo_inurba_marseille","lat":43.289184,"lon":5.366408,"is_reserved":false,"is_disabled":false,"rental_uris":{"android":"levelo://app?vid=d3d55cc0-a9be-4b5e-be40-dbf6180c1a88","ios":"levelo://app?vid=d3d55cc0-a9be-4b5e-be40-dbf6180c1a88"},"vehicle_type_id":"4","last_reported":1714935975,"current_range_meters":18000,"station_id":"ce4bhap2rcd13ifvqek0","pricing_plan_id":"cebpf4jnsgd1na2vs0mg"},{"bike_id":"40d01867-49b8-4638-b98a-6b5089606f68","system_id":"levelo_inurba_marseille","lat":43.29414,"lon":5.38628,"is_reserved":false,"is_disabled":false,"rental_uris":{"android":"levelo://app?vid=40d01867-49b8-4638-b98a-6b5089606f68","ios":"levelo://app?vid=40d01867-49b8-4638-b98a-6b5089606f68"},"vehicle_type_id":"4","last_reported":1714935975,"current_range_meters":0,"station_id":"ce4bh2h2rcd13ifvqdh0","pricing_plan_id":"cebpf4jnsgd1na2vs0mg"},{"bike_id":"d1349fad-7276-48d3-b0db-ec2ec4338a64","system_id":"levelo_inurba_marseille","lat":43.294153,"lon":5.386305,"is_reserved":false,"is_disabled":false,"rental_uris":{"android":"levelo://app?vid=d1349fad-7276-48d3-b0db-ec2ec4338a64","ios":"levelo://app?vid=d1349fad-7276-48d3-b0db-ec2ec4338a64"},"vehicle_type_id":"4","last_reported":1714935975,"current_range_meters":20000,"station_id":"ce4bh2h2rcd13ifvqdh0","pricing_plan_id":"cebpf4jnsgd1na2vs0mg"},{"bike_id":"137b5c02-f077-43c5-83a0-8ba1cf78ee3c","system_id":"levelo_inurba_marseille","lat":43.289184,"lon":5.366408,"is_reserved":false,"is_disabled":false,"rental_uris":{"android":"levelo://app?vid=137b5c02-f077-43c5-83a0-8ba1cf78ee3c","ios":"levelo://app?vid=137b5c02-f077-43c5-83a0-8ba1cf78ee3c"},"vehicle_type_id":"4","last_reported":1714935975,"current_range_meters":22000,"station_id":"ce4bhap2rcd13ifvqek0","pricing_plan_id":"cebpf4jnsgd1na2vs0mg"},{"bike_id":"48d47755-8a36-4a7a-b6d7-c657c60e3a79","system_id":"levelo_inurba_marseille","lat":43.289184,"lon":5.366408,"is_reserved":false,"is_disabled":false,"rental_uris":{"android":"levelo://app?vid=48d47755-8a36-4a7a-b6d7-c657c60e3a79","ios":"levelo://app?vid=48d47755-8a36-4a7a-b6d7-c657c60e3a79"},"vehicle_type_id":"4","last_reported":1714935975,"current_range_meters":18400,"station_id":"ce4bhap2rcd13ifvqek0","pricing_plan_id":"cebpf4jnsgd1na2vs0mg"},{"bike_id":"6db81e0c-99b7-412a-996f-bc1d4e6d7fc7","system_id":"levelo_inurba_marseille","lat":43.294162,"lon":5.386292,"is_reserved":false,"is_disabled":false,"rental_uris":{"android":"levelo://app?vid=6db81e0c-99b7-412a-996f-bc1d4e6d7fc7","ios":"levelo://app?vid=6db81e0c-99b7-412a-996f-bc1d4e6d7fc7"},"vehicle_type_id":"4","last_reported":1714935975,"current_range_meters":9600,"station_id":"ce4bh2h2rcd13ifvqdh0","pricing_plan_id":"cebpf4jnsgd1na2vs0mg"},{"bike_id":"96ce2d63-857e-486f-8d66-9381455ba8f7","system_id":"levelo_inurba_marseille","lat":43.289184,"lon":5.366408,"is_reserved":false,"is_disabled":false,"rental_uris":{"android":"levelo://app?vid=96ce2d63-857e-486f-8d66-9381455ba8f7","ios":"levelo://app?vid=96ce2d63-857e-486f-8d66-9381455ba8f7"},"vehicle_type_id":"4","last_reported":1714935975,"current_range_meters":28400,"station_id":"ce4bhap2rcd13ifvqek0","pricing_plan_id":"cebpf4jnsgd1na2vs0mg"},{"bike_id":"e9cfe703-8e82-41fd-8638-16d648c4d800","system_id":"levelo_inurba_marseille","lat":43.289184,"lon":5.366408,"is_reserved":false,"is_disabled":false,"rental_uris":{"android":"levelo://app?vid=e9cfe703-8e82-41fd-8638-16d648c4d800","ios":"levelo://app?vid=e9cfe703-8e82-41fd-8638-16d648c4d800"},"vehicle_type_id":"4","last_reported":1714935975,"current_range_meters":2000,"station_id":"ce4bhap2rcd13ifvqek0","pricing_plan_id":"cebpf4jnsgd1na2vs0mg"},{"bike_id":"f3828102-796d-446b-bd01-12fc93919222","system_id":"levelo_inurba_marseille","lat":43.289184,"lon":5.366408,"is_reserved":false,"is_disabled":false,"rental_uris":{"android":"levelo://app?vid=f3828102-796d-446b-bd01-12fc93919222","ios":"levelo://app?vid=f3828102-796d-446b-bd01-12fc93919222"},"vehicle_type_id":"4","last_reported":1714935975,"current_range_meters":9200,"station_id":"ce4bhap2rcd13ifvqek0","pricing_plan_id":"cebpf4jnsgd1na2vs0mg"},{"bike_id":"a1dc0cad-f467-483c-8a8c-2f192b8141ae","system_id":"levelo_inurba_marseille","lat":43.294162,"lon":5.386292,"is_reserved":false,"is_disabled":false,"rental_uris":{"android":"levelo://app?vid=a1dc0cad-f467-483c-8a8c-2f192b8141ae","ios":"levelo://app?vid=a1dc0cad-f467-483c-8a8c-2f192b8141ae"},"vehicle_type_id":"4","last_reported":1714935975,"current_range_meters":25200,"station_id":"ce4bh2h2rcd13ifvqdh0","pricing_plan_id":"cebpf4jnsgd1na2vs0mg"},{"bike_id":"a3947448-3779-42e9-9bc8-45ca7f338e67","system_id":"levelo_inurba_marseille","lat":43.294162,"lon":5.386292,"is_reserved":false,"is_disabled":false,"rental_uris":{"android":"levelo://app?vid=a3947448-3779-42e9-9bc8-45ca7f338e67","ios":"levelo://app?vid=a3947448-3779-42e9-9bc8-45ca7f338e67"},"vehicle_type_id":"4","last_reported":1714935975,"current_range_meters":0,"station_id":"ce4bh2h2rcd13ifvqdh0","pricing_plan_id":"cebpf4jnsgd1na2vs0mg"},{"bike_id":"497e6b77-082b-434e-b6d8-8551b082f002","system_id":"levelo_inurba_marseille","lat":43.289375,"lon":5.36635,"is_reserved":false,"is_disabled":false,"rental_uris":{"android":"levelo://app?vid=497e6b77-082b-434e-b6d8-8551b082f002","ios":"levelo://app?vid=497e6b77-082b-434e-b6d8-8551b082f002"},"vehicle_type_id":"4","last_reported":1714935975,"current_range_meters":27200,"station_id":"ce4bhap2rcd13ifvqek0","pricing_plan_id":"cebpf4jnsgd1na2vs0mg"},{"bike_id":"a77c97a1-ffae-4651-9788-182204d9baee","system_id":"levelo_inurba_marseille","lat":43.289184,"lon":5.366408,"is_reserved":false,"is_disabled":false,"rental_uris":{"android":"levelo://app?vid=a77c97a1-ffae-4651-9788-182204d9baee","ios":"levelo://app?vid=a77c97a1-ffae-4651-9788-182204d9baee"},"vehicle_type_id":"4","last_reported":1714935975,"current_range_meters":18400,"station_id":"ce4bhap2rcd13ifvqek0","pricing_plan_id":"cebpf4jnsgd1na2vs0mg"},{"bike_id":"a8cd38d5-60b9-40a4-829d-f936b0750742","system_id":"levelo_inurba_marseille","lat":43.28937,"lon":5.3663,"is_reserved":false,"is_disabled":false,"rental_uris":{"android":"levelo://app?vid=a8cd38d5-60b9-40a4-829d-f936b0750742","ios":"levelo://app?vid=a8cd38d5-60b9-40a4-829d-f936b0750742"},"vehicle_type_id":"4","last_reported":1714935975,"current_range_meters":26000,"station_id":"ce4bhap2rcd13ifvqek0","pricing_plan_id":"cebpf4jnsgd1na2vs0mg"},{"bike_id":"eed84951-1526-4e0d-923d-a28cd7bdba9e","system_id":"levelo_inurba_marseille","lat":43.289184,"lon":5.366408,"is_reserved":false,"is_disabled":false,"rental_uris":{"android":"levelo://app?vid=eed84951-1526-4e0d-923d-a28cd7bdba9e","ios":"levelo://app?vid=eed84951-1526-4e0d-923d-a28cd7bdba9e"},"vehicle_type_id":"4","last_reported":1714935975,"current_range_meters":3200,"station_id":"ce4bhap2rcd13ifvqek0","pricing_plan_id":"cebpf4jnsgd1na2vs0mg"},{"bike_id":"3771bc04-2848-4584-b774-5464a29cee7a","system_id":"levelo_inurba_marseille","lat":43.289184,"lon":5.366408,"is_reserved":false,"is_disabled":false,"rental_uris":{"android":"levelo://app?vid=3771bc04-2848-4584-b774-5464a29cee7a","ios":"levelo://app?vid=3771bc04-2848-4584-b774-5464a29cee7a"},"vehicle_type_id":"4","last_reported":1714935975,"current_range_meters":22000,"station_id":"ce4bhap2rcd13ifvqek0","pricing_plan_id":"cebpf4jnsgd1na2vs0mg"},{"bike_id":"bff540ee-b5e5-4b40-9e93-cbab71c9bdf2","system_id":"levelo_inurba_marseille","lat":43.289184,"lon":5.366408,"is_reserved":false,"is_disabled":false,"rental_uris":{"android":"levelo://app?vid=bff540ee-b5e5-4b40-9e93-cbab71c9bdf2","ios":"levelo://app?vid=bff540ee-b5e5-4b40-9e93-cbab71c9bdf2"},"vehicle_type_id":"4","last_reported":1714935975,"current_range_meters":4400,"station_id":"ce4bhap2rcd13ifvqek0","pricing_plan_id":"cebpf4jnsgd1na2vs0mg"},{"bike_id":"60aa760e-8b85-4c21-9ffd-1c0bfdb44dfe","system_id":"levelo_inurba_marseille","lat":43.28933,"lon":5.36645,"is_reserved":false,"is_disabled":false,"rental_uris":{"android":"levelo://app?vid=60aa760e-8b85-4c21-9ffd-1c0bfdb44dfe","ios":"levelo://app?vid=60aa760e-8b85-4c21-9ffd-1c0bfdb44dfe"},"vehicle_type_id":"4","last_reported":1714935975,"current_range_meters":25200,"station_id":"ce4bhap2rcd13ifvqek0","pricing_plan_id":"cebpf4jnsgd1na2vs0mg"},{"bike_id":"6b4b075e-59b2-47f8-9cf7-cb4241541bbe","system_id":"levelo_inurba_marseille","lat":43.289184,"lon":5.366408,"is_reserved":false,"is_disabled":false,"rental_uris":{"android":"levelo://app?vid=6b4b075e-59b2-47f8-9cf7-cb4241541bbe","ios":"levelo://app?vid=6b4b075e-59b2-47f8-9cf7-cb4241541bbe"},"vehicle_type_id":"4","last_reported":1714935975,"current_range_meters":6400,"station_id":"ce4bhap2rcd13ifvqek0","pricing_plan_id":"cebpf4jnsgd1na2vs0mg"},{"bike_id":"f2d7b1cb-a0a4-446b-ae1b-b6bf26f8a8b7","system_id":"levelo_inurba_marseille","lat":43.289184,"lon":5.366408,"is_reserved":false,"is_disabled":false,"rental_uris":{"android":"levelo://app?vid=f2d7b1cb-a0a4-446b-ae1b-b6bf26f8a8b7","ios":"levelo://app?vid=f2d7b1cb-a0a4-446b-ae1b-b6bf26f8a8b7"},"vehicle_type_id":"4","last_reported":1714935975,"current_range_meters":27200,"station_id":"ce4bhap2rcd13ifvqek0","pricing_plan_id":"cebpf4jnsgd1na2vs0mg"},{"bike_id":"d60097cb-a2cc-406c-8a19-03512e6590f9","system_id":"levelo_inurba_marseille","lat":43.289184,"lon":5.366408,"is_reserved":false,"is_disabled":false,"rental_uris":{"android":"levelo://app?vid=d60097cb-a2cc-406c-8a19-03512e6590f9","ios":"levelo://app?vid=d60097cb-a2cc-406c-8a19-03512e6590f9"},"vehicle_type_id":"4","last_reported":1714935975,"current_range_meters":6000,"station_id":"ce4bhap2rcd13ifvqek0","pricing_plan_id":"cebpf4jnsgd1na2vs0mg"},{"bike_id":"51d4c113-5c80-41ee-97b7-24942fc2a645","system_id":"levelo_inurba_marseille","lat":43.289184,"lon":5.366408,"is_reserved":false,"is_disabled":false,"rental_uris":{"android":"levelo://app?vid=51d4c113-5c80-41ee-97b7-24942fc2a645","ios":"levelo://app?vid=51d4c113-5c80-41ee-97b7-24942fc2a645"},