{"last_updated":1742487180,"ttl":60,"version":"2.2","data":{"bikes":[{"bike_id":"dd848438-a873-4866-8e18-955a238c67cf","system_id":"levelo_inurba_marseille","lat":43.27828,"lon":5.40724,"is_reserved":false,"is_disabled":false,"rental_uris":{"android":"levelo://app?vid=dd848438-a873-4866-8e18-955a238c67cf","ios":"levelo://app?vid=dd848438-a873-4866-8e18-955a238c67cf"},"vehicle_type_id":"4","last_reported":1742487180,"current_range_meters":2800,"station_id":"ce4bhnh2rcd13ifvqgtg","pricing_plan_id":"cebpf4jnsgd1na2vs0mg"},{"bike_id":"4f26ea25-c783-4129-82cc-65745c45c06d","system_id":"levelo_inurba_marseille","lat":43.26545,"lon":5.39002,"is_reserved":false,"is_disabled":false,"rental_uris":{"android":"levelo://app?vid=4f26ea25-c783-4129-82cc-65745c45c06d","ios":"levelo://app?vid=4f26ea25-c783-4129-82cc-65745c45c06d"},"vehicle_type_id":"4","last_reported":1742487180,"current_range_meters":2800,"station_id":"ce4bhe12rcd13ifvqf30","pricing_plan_id":"cebpf4jnsgd1na2vs0mg"},{"bike_id":"b5d20374-3ffc-4f21-b1d4-d83647af3cd5","system_id":"levelo_inurba_marseille","lat":43.28366,"lon":5.38639,"is_reserved":false,"is_disabled":false,"rental_uris":{"android":"levelo://app?vid=b5d20374-3ffc-4f21-b1d4-d83647af3cd5","ios":"levelo://app?vid=b5d20374-3ffc-4f21-b1d4-d83647af3cd5"},"vehicle_type_id":"4","last_reported":1742487180,"current_range_meters":1200,"station_id":"ce4bh492rcd13ifvqdvg","pricing_plan_id":"cebpf4jnsgd1na2vs0mg"},{"bike_id":"3d0e2687-5d9b-47e5-a49e-089a3dbbe25c","system_id":"levelo_inurba_marseille","lat":43.26897,"lon":5.38406,"is_reserved":false,"is_disabled":false,"rental_uris":{"android":"levelo://app?vid=3d0e2687-5d9b-47e5-a49e-089a3dbbe25c","ios":"levelo://app?vid=3d0e2687-5d9b-47e5-a49e-089a3dbbe25c"},"vehicle_type_id":"4","last_reported":1742487180,"current_range_meters":2800,"station_id":"","pricing_plan_id":"cebpf4jnsgd1na2vs0mg"},{"bike_id":"ce28ec21-fe4c-4faa-8e7e-ce9767bd4ded","system_id":"levelo_inurba_marseille","lat":43.258286,"lon":5.394366,"is_reserved":false,"is_disabled":false,"rental_uris":{"android":"levelo://app?vid=ce28ec21-fe4c-4faa-8e7e-ce9767bd4ded","ios":"levelo://app?vid=ce28ec21-fe4c-4faa-8e7e-ce9767bd4ded"},"vehicle_type_id":"4","last_reported":1742487180,"current_range_meters":2800,"station_id":"ce4bhip2rcd13ifvqft0","pricing_plan_id":"cebpf4jnsgd1na2vs0mg"},{"bike_id":"20ea2354-c2c8-4de7-b493-cd7a4504b28f","system_id":"levelo_inurba_marseille","lat":43.2319,"lon":5.39979,"is_reserved":false,"is_disabled":true,"rental_uris":{"android":"levelo://app?vid=20ea2354-c2c8-4de7-b493-cd7a4504b28f","ios":"levelo://app?vid=20ea2354-c2c8-4de7-b493-cd7a4504b28f"},"vehicle_type_id":"4","last_reported":1742487180,"current_range_meters":2800,"station_id":"ce4bhn12rcd13ifvqgqg","pricing_plan_id":"cebpf4jnsgd1na2vs0mg"},{"bike_id":"04bf3e68-6978-4cd7-8a56-35fdaa1ccbaf","system_id":"levelo_inurba_marseille","lat":43.2957,"lon":5.37528,"is_reserved":false,"is_disabled":false,"rental_uris":{"android":"levelo://app?vid=04bf3e68-6978-4cd7-8a56-35fdaa1ccbaf","ios":"levelo://app?vid=04bf3e68-6978-4cd7-8a56-35fdaa1ccbaf"},"vehicle_type_id":"4","last_reported":1742487180,"current_range_meters":3200,"station_id":"ce4bgh92rcd13ifvqb50","pricing_plan_id":"cebpf4jnsgd1na2vs0mg"},{"bike_id":"79ac52c4-aad9-445c-8843-eefe35c3c32e","system_id":"levelo_inurba_marseille","lat":43.30437,"lon":5.39748,"is_reserved":false,"is_disabled":false,"rental_uris":{"android":"levelo://app?vid=79ac52c4-aad9-445c-8843-eefe35c3c32e","ios":"levelo://app?vid=79ac52c4-aad9-445c-8843-eefe35c3c32e"},"vehicle_type_id":"4","last_reported":1742487180,"current_range_meters":3200,"station_id":"ce4bh092rcd13ifvqd20","pricing_plan_id":"cebpf4jnsgd1na2vs0mg"},{"bike_id":"d8b336d0-2a6d-4fac-b555-65c1c2bbe7ba","system_id":"levelo_inurba_marseille","lat":43.29847,"lon":5.36275,"is_reserved":false,"is_disabled":false,"rental_uris":{"android":"levelo://app?vid=d8b336d0-2a6d-4fac-b555-65c1c2bbe7ba","ios":"levelo://app?vid=d8b336d0-2a6d-4fac-b555-65c1c2bbe7ba"},"vehicle_type_id":"4","last_reported":1742487180,"current_range_meters":3200,"station_id":"ce4bgpp2rcd13ifvqc3g","pricing_plan_id":"cebpf4jnsgd1na2vs0mg"},{"bike_id":"478c66af-17e4-4035-857c-cf1cd76fb10e","system_id":"levelo_inurba_marseille","lat":43.28038,"lon":5.36938,"is_reserved":false,"is_disabled":false,"rental_uris":{"android":"levelo://app?vid=478c66af-17e4-4035-857c-cf1cd76fb10e","ios":"levelo://app?vid=478c66af-17e4-4035-857c-cf1cd76fb10e"},"vehicle_type_id":"4","last_reported":1742487180,"current_range_meters":3600,"station_id":"ce4bha12rcd13ifvqef0","pricing_plan_id":"cebpf4jnsgd1na2vs0mg"},{"bike_id":"8af1cd55-d296-4da2-8f7c-329f9cd634c3","system_id":"levelo_inurba_marseille","lat":43.305389,"lon":5.384126,"is_reserved":false,"is_disabled":false,"rental_uris":{"android":"levelo://app?vid=8af1cd55-d296-4da2-8f7c-329f9cd634c3","ios":"levelo://app?vid=8af1cd55-d296-4da2-8f7c-329f9cd634c3"},"vehicle_type_id":"4","last_reported":1742487180,"current_range_meters":3600,"station_id":"ce4bgg92rcd13ifvqb30","pricing_plan_id":"cebpf4jnsgd1na2vs0mg"},{"bike_id":"f0f950a2-79c9-4c63-86eb-fbbdab40aaa2","system_id":"levelo_inurba_marseille","lat":43.26558,"lon":5.37287,"is_reserved":false,"is_disabled":false,"rental_uris":{"android":"levelo://app?vid=f0f950a2-79c9-4c63-86eb-fbbdab40aaa2","ios":"levelo://app?vid=f0f950a2-79c9-4c63-86eb-fbbdab40aaa2"},"vehicle_type_id":"4","last_reported":1742487180,"current_range_meters":4000,"station_id":"ce4bhg12rcd13ifvqf70","pricing_plan_id":"cebpf4jnsgd1na2vs0mg"},{"bike_id":"7cba7419-4267-417d-be85-857d7287b380","system_id":"levelo_inurba_marseille","lat":43.31279,"lon":5.40162,"is_reserved":false,"is_disabled":false,"rental_uris":{"android":"levelo://app?vid=7cba7419-4267-417d-be85-857d7287b380","ios":"levelo://app?vid=7cba7419-4267-417d-be85-857d7287b380"},"vehicle_type_id":"4","last_reported":1742487180,"current_range_meters":3600,"station_id":"ce4bh092rcd13ifvqd30","pricing_plan_id":"cebpf4jnsgd1na2vs0mg"},{"bike_id":"a045fb2a-2587-4994-9868-0340a87c6827","system_id":"levelo_inurba_marseille","lat":43.24675,"lon":5.3815,"is_reserved":false,"is_disabled":false,"rental_uris":{"android":"levelo://app?vid=a045fb2a-2587-4994-9868-0340a87c6827","ios":"levelo://app?vid=a045fb2a-2587-4994-9868-0340a87c6827"},"vehicle_type_id":"4","last_reported":1742487180,"current_range_meters":4000,"station_id":"ce4bhih2rcd13ifvqfr0","pricing_plan_id":"cebpf4jnsgd1na2vs0mg"},{"bike_id":"acf59a5e-67de-4a0f-86f1-692fdb133212","system_id":"levelo_inurba_marseille","lat":43.28156,"lon":5.42645,"is_reserved":false,"is_disabled":false,"rental_uris":{"android":"levelo://app?vid=acf59a5e-67de-4a0f-86f1-692fdb133212","ios":"levelo://app?vid=acf59a5e-67de-4a0f-86f1-692fdb133212"},"vehicle_type_id":"4","last_reported":1742487180,"current_range_meters":4000,"station_id":"ce4bhnh2rcd13ifvqgug","pricing_plan_id":"cebpf4jnsgd1na2vs0mg"},{"bike_id":"78869651-11ac-433a-ab80-32d71c7a6183","system_id":"levelo_inurba_marseille","lat":43.30183,"lon":5.3661,"is_reserved":false,"is_disabled":false,"rental_uris":{"android":"levelo://app?vid=78869651-11ac-433a-ab80-32d71c7a6183","ios":"levelo://app?vid=78869651-11ac-433a-ab80-32d71c7a6183"},"vehicle_type_id":"4","last_reported":1742487180,"current_range_meters":4400,"station_id":"ce4bgrh2rcd13ifvqc8g","pricing_plan_id":"cebpf4jnsgd1na2vs0mg"},{"bike_id":"50c954ca-534e-44cb-b298-4b0e6941aece","system_id":"levelo_inurba_marseille","lat":43.271817,"lon":5.409878,"is_reserved":false,"is_disabled":false,"rental_uris":{"android":"levelo://app?vid=50c954ca-534e-44cb-b298-4b0e6941aece","ios":"levelo://app?vid=50c954ca-534e-44cb-b298-4b0e6941aece"},"vehicle_type_id":"4","last_reported":1742487180,"current_range_meters":4400,"station_id":"ce4bhl12rcd13ifvqgf0","pricing_plan_id":"cebpf4jnsgd1na2vs0mg"},{"bike_id":"4b222433-fe74-4f98-83d2-d48561dc2f12","system_id":"levelo_inurba_marseille","lat":43.3013,"lon":5.39845,"is_reserved":false,"is_disabled":false,"rental_uris":{"android":"levelo://app?vid=4b222433-fe74-4f98-83d2-d48561dc2f12","ios":"levelo://app?vid=4b222433-fe74-4f98-83d2-d48561dc2f12"},"vehicle_type_id":"4","last_reported":1742487180,"current_range_meters":4400,"station_id":"ce4bh0h2rcd13ifvqd40","pricing_plan_id":"cebpf4jnsgd1na2vs0mg"},{"bike_id":"d656ab45-089d-4033-b12a-b577835a8687","system_id":"levelo_inurba_marseille","lat":43.29262,"lon":5.40909,"is_reserved":false,"is_disabled":false,"rental_uris":{"android":"levelo://app?vid=d656ab45-089d-4033-b12a-b577835a8687","ios":"levelo://app?vid=d656ab45-089d-4033-b12a-b577835a8687"},"vehicle_type_id":"4","last_reported":1742487180,"current_range_meters":4800,"station_id":"ce4bh192rcd13ifvqdc0","pricing_plan_id":"cebpf4jnsgd1na2vs0mg"},{"bike_id":"efc3f8f5-6b6c-444d-a1f3-6fcf4b913f34","system_id":"levelo_inurba_marseille","lat":43.24673,"lon":5.38152,"is_reserved":false,"is_disabled":false,"rental_uris":{"android":"levelo://app?vid=efc3f8f5-6b6c-444d-a1f3-6fcf4b913f34","ios":"levelo://app?vid=efc3f8f5-6b6c-444d-a1f3-6fcf4b913f34"},"vehicle_type_id":"4","last_reported":1742487180,"current_range_meters":4800,"station_id":"ce4bhih2rcd13ifvqfr0","pricing_plan_id":"cebpf4jnsgd1na2vs0mg"},{"bike_id":"b3ae531d-3801-44f1-a40d-5e098d5858bc","system_id":"levelo_inurba_marseille","lat":43.27308,"lon":5.39088,"is_reserved":false,"is_disabled":false,"rental_uris":{"android":"levelo://app?vid=b3ae531d-3801-44f1-a40d-5e098d5858bc","ios":"levelo://app?vid=b3ae531d-3801-44f1-a40d-5e098d5858bc"},"vehicle_type_id":"4","last_reported":1742487180,"current_range_meters":4800,"station_id":"ce4bhgp2rcd13ifvqfe0","pricing_plan_id":"cebpf4jnsgd1na2vs0mg"},{"bike_id":"9247403d-25b3-4e92-9fdd-f6394e2e89d7","system_id":"levelo_inurba_marseille","lat":43.31066,"lon":5.38359,"is_reserved":false,"is_disabled":false,"rental_uris":{"android":"levelo://app?vid=9247403d-25b3-4e92-9fdd-f6394e2e89d7","ios":"levelo://app?vid=9247403d-25b3-4e92-9fdd-f6394e2e89d7"},"vehicle_type_id":"4","last_reported":1742487180,"current_range_meters":4800,"station_id":"ce4bgv92rcd13ifvqcr0","pricing_plan_id":"cebpf4jnsgd1na2vs0mg"},{"bike_id":"8f4aba26-310a-4061-907d-dd7bcaaf0b61","system_id":"levelo_inurba_marseille","lat":43.23185,"lon":5.39998,"is_reserved":false,"is_disabled":false,"rental_uris":{"android":"levelo://app?vid=8f4aba26-310a-4061-907d-dd7bcaaf0b61","ios":"levelo://app?vid=8f4aba26-310a-4061-907d-dd7bcaaf0b61"},"vehicle_type_id":"4","last_reported":1742487180,"current_range_meters":5600,"station_id":"ce4bhn12rcd13ifvqgqg","pricing_plan_id":"cebpf4jnsgd1na2vs0mg"},{"bike_id":"7c9cf1fe-d9a2-4001-a629-fcc670d7bf93","system_id":"levelo_inurba_marseille","lat":43.32656,"lon":5.4098,"is_reserved":false,"is_disabled":false,"rental_uris":{"android":"levelo://app?vid=7c9cf1fe-d9a2-4001-a629-fcc670d7bf93","ios":"levelo://app?vid=7c9cf1fe-d9a2-4001-a629-fcc670d7bf93"},"vehicle_type_id":"4","last_reported":1742487180,"current_range_meters":5600,"station_id":"ce4bhpp2rcd13ifvqhgg","pricing_plan_id":"cebpf4jnsgd1na2vs0mg"},{"bike_id":"be62f940-93e3-42b8-ae50-b1ab7efd46d1","system_id":"levelo_inurba_marseille","lat":43.25085,"lon":5.39517,"is_reserved":false,"is_disabled":false,"rental_uris":{"android":"levelo://app?vid=be62f940-93e3-42b8-ae50-b1ab7efd46d1","ios":"levelo://app?vid=be62f940-93e3-42b8-ae50-b1ab7efd46d1"},"vehicle_type_id":"4","last_reported":1742487180,"current_range_meters":5600,"station_id":"ce4bhm12rcd13ifvqgkg","pricing_plan_id":"cebpf4jnsgd1na2vs0mg"},{"bike_id":"5d6040da-a22d-4644-92cc-c182b7481377","system_id":"levelo_inurba_marseille","lat":43.27179,"lon":5.40985,"is_reserved":false,"is_disabled":false,"rental_uris":{"android":"levelo://app?vid=5d6040da-a22d-4644-92cc-c182b7481377","ios":"levelo://app?vid=5d6040da-a22d-4644-92cc-c182b7481377"},"vehicle_type_id":"4","last_reported":1742487180,"current_range_meters":6000,"station_id":"ce4bhl12rcd13ifvqgf0","pricing_plan_id":"cebpf4jnsgd1na2vs0mg"},{"bike_id":"3455258b-4135-46b9-9a26-10bf95160e40","system_id":"levelo_inurba_marseille","lat":43.23189,"lon":5.35548,"is_reserved":false,"is_disabled":false,"rental_uris":{"android":"levelo://app?vid=3455258b-4135-46b9-9a26-10bf95160e40","ios":"levelo://app?vid=3455258b-4135-46b9-9a26-10bf95160e40"},"vehicle_type_id":"4","last_reported":1742487180,"current_range_meters":6000,"station_id":"ce4bhu92rcd13ifvqi70","pricing_plan_id":"cebpf4jnsgd1na2vs0mg"},{"bike_id":"7bb8db14-6195-478d-a1f6-55e5483cc6bb","system_id":"levelo_inurba_marseille","lat":43.27808,"lon":5.40726,"is_reserved":false,"is_disabled":false,"rental_uris":{"android":"levelo://app?vid=7bb8db14-6195-478d-a1f6-55e5483cc6bb","ios":"levelo://app?vid=7bb8db14-6195-478d-a1f6-55e5483cc6bb"},"vehicle_type_id":"4","last_reported":1742487180,"current_range_meters":6000,"station_id":"ce4bhnh2rcd13ifvqgtg","pricing_plan_id":"cebpf4jnsgd1na2vs0mg"},{"bike_id":"30448cfc-53ac-4088-86ed-3a624fbeb1f7","system_id":"levelo_inurba_marseille","lat":43.23962,"lon":5.3664,"is_reserved":false,"is_disabled":false,"rental_uris":{"android":"levelo://app?vid=30448cfc-53ac-4088-86ed-3a624fbeb1f7","ios":"levelo://app?vid=30448cfc-53ac-4088-86ed-3a624fbeb1f7"},"vehicle_type_id":"4","last_reported":1742487180,"current_range_meters":6400,"station_id":"ce4bhi12rcd13ifvqfp0","pricing_plan_id":"cebpf4jnsgd1na2vs0mg"},{"bike_id":"bfb8aceb-271f-407e-8f66-f0880d7ac280","system_id":"levelo_inurba_marseille","lat":43.3133,"lon":5.39685,"is_reserved":false,"is_disabled":false,"rental_uris":{"android":"levelo://app?vid=bfb8aceb-271f-407e-8f66-f0880d7ac280","ios":"levelo://app?vid=bfb8aceb-271f-407e-8f66-f0880d7ac280"},"vehicle_type_id":"4","last_reported":1742487180,"current_range_meters":6000,"station_id":"ce4bgvp2rcd13ifvqcu0","pricing_plan_id":"cebpf4jnsgd1na2vs0mg"},{"bike_id":"0134c4eb-cb81-45fb-8190-07fb52725b22","system_id":"levelo_inurba_marseille","lat":43.272,"lon":5.40971,"is_reserved":false,"is_disabled":false,"rental_uris":{"android":"levelo://app?vid=0134c4eb-cb81-45fb-8190-07fb52725b22","ios":"levelo://app?vid=0134c4eb-cb81-45fb-8190-07fb52725b22"},"vehicle_type_id":"4","last_reported":1742487180,"current_range_meters":6000,"station_id":"ce4bhl12rcd13ifvqgf0","pricing_plan_id":"cebpf4jnsgd1na2vs0mg"},{"bike_id":"f5724d7f-2fa6-47f6-8761-44f3c83f5a16","system_id":"levelo_inurba_marseille","lat":43.29006,"lon":5.35607,"is_reserved":false,"is_disabled":false,"rental_uris":{"android":"levelo://app?vid=f5724d7f-2fa6-47f6-8761-44f3c83f5a16","ios":"levelo://app?vid=f5724d7f-2fa6-47f6-8761-44f3c83f5a16"},"vehicle_type_id":"4","last_reported":1742487180,"current_range_meters":6400,"station_id":"ce4bhb92rcd13ifvqen0","pricing_plan_id":"cebpf4jnsgd1na2vs0mg"},{"bike_id":"0ef11ccf-6515-47c0-acb2-1f7126ff0a10","system_id":"levelo_inurba_marseille","lat":43.30971,"lon":5.39032,"is_reserved":false,"is_disabled":true,"rental_uris":{"android":"levelo://app?vid=0ef11ccf-6515-47c0-acb2-1f7126ff0a10","ios":"levelo://app?vid=0ef11ccf-6515-47c0-acb2-1f7126ff0a10"},"vehicle_type_id":"4","last_reported":1742487180,"current_range_meters":6400,"station_id":"ce4bgup2rcd13ifvqco0","pricing_plan_id":"cebpf4jnsgd1na2vs0mg"},{"bike_id":"3daa504f-7b7f-4417-8fa3-61e8c0141c48","system_id":"levelo_inurba_marseille","lat":43.31276,"lon":5.40167,"is_reserved":false,"is_disabled":false,"rental_uris":{"android":"levelo://app?vid=3daa504f-7b7f-4417-8fa3-61e8c0141c48","ios":"levelo://app?vid=3daa504f-7b7f-4417-8fa3-61e8c0141c48"},"vehicle_type_id":"4","last_reported":1742487180,"current_range_meters":6400,"station_id":"ce4bh092rcd13ifvqd30","pricing_plan_id":"cebpf4jnsgd1na2vs0mg"},{"bike_id":"d45aa902-4bcb-471b-8a0f-8cdc3416ec8c","system_id":"levelo_inurba_marseille","lat":43.2762,"lon":5.36118,"is_reserved":false,"is_disabled":false,"rental_uris":{"android":"levelo://app?vid=d45aa902-4bcb-471b-8a0f-8cdc3416ec8c","ios":"levelo://app?vid=d45aa902-4bcb-471b-8a0f-8cdc3416ec8c"},"vehicle_type_id":"4","last_reported":1742487180,"current_range_meters":6400,"station_id":"ce4bgj92rcd13ifvqbe0","pricing_plan_id":"cebpf4jnsgd1na2vs0mg"},{"bike_id":"181a4fde-9b69-4103-90f9-7e9ef00b3a7a","system_id":"levelo_inurba_marseille","lat":43.24809,"lon":5.37457,"is_reserved":false,"is_disabled":false,"rental_uris":{"android":"levelo://app?vid=181a4fde-9b69-4103-90f9-7e9ef00b3a7a","ios":"levelo://app?vid=181a4fde-9b69-4103-90f9-7e9ef00b3a7a"},"vehicle_type_id":"4","last_reported":1742487180,"current_range_meters":6400,"station_id":"ce4bhgh2rcd13ifvqfb0","pricing_plan_id":"cebpf4jnsgd1na2vs0mg"},{"bike_id":"ee87f031-6d3b-4a2a-ac4f-80f1ab09529a","system_id":"levelo_inurba_marseille","lat":43.23153,"lon":5.43695,"is_reserved":false,"is_disabled":false,"rental_uris":{"android":"levelo://app?vid=ee87f031-6d3b-4a2a-ac4f-80f1ab09529a","ios":"levelo://app?vid=ee87f031-6d3b-4a2a-ac4f-80f1ab09529a"},"vehicle_type_id":"4","last_reported":1742487180,"current_range_meters":6400,"station_id":"ce4bhmp2rcd13ifvqgog","pricing_plan_id":"cebpf4jnsgd1na2vs0mg"},{"bike_id":"abcfe24d-7e33-4ccf-8bd1-34d9b3414afb","system_id":"levelo_inurba_marseille","lat":43.29553,"lon":5.42297,"is_reserved":false,"is_disabled":false,"rental_uris":{"android":"levelo://app?vid=abcfe24d-7e33-4ccf-8bd1-34d9b3414afb","ios":"levelo://app?vid=abcfe24d-7e33-4ccf-8bd1-34d9b3414afb"},"vehicle_type_id":"4","last_reported":1742487180,"current_range_meters":6800,"station_id":"ce4bhph2rcd13ifvqhdg","pricing_plan_id":"cebpf4jnsgd1na2vs0mg"},{"bike_id":"dd3884dc-0b6b-4a2b-8af5-b0f72ae3a61b","system_id":"levelo_inurba_marseille","lat":43.23203,"lon":5.35551,"is_reserved":false,"is_disabled":false,"rental_uris":{"android":"levelo://app?vid=dd3884dc-0b6b-4a2b-8af5-b0f72ae3a61b","ios":"levelo://app?vid=dd3884dc-0b6b-4a2b-8af5-b0f72ae3a61b"},"vehicle_type_id":"4","last_reported":1742487180,"current_range_meters":6400,"station_id":"ce4bhu92rcd13ifvqi70","pricing_plan_id":"cebpf4jnsgd1na2vs0mg"},{"bike_id":"f2dc44ab-4460-4ae6-9e8f-1abed24c55ae","system_id":"levelo_inurba_marseille","lat":43.27191,"lon":5.40981,"is_reserved":false,"is_disabled":false,"rental_uris":{"android":"levelo://app?vid=f2dc44ab-4460-4ae6-9e8f-1abed24c55ae","ios":"levelo://app?vid=f2dc44ab-4460-4ae6-9e8f-1abed24c55ae"},"vehicle_type_id":"4","last_reported":1742487180,"current_range_meters":6400,"station_id":"ce4bhl12rcd13ifvqgf0","pricing_plan_id":"cebpf4jnsgd1na2vs0mg"},{"bike_id":"35971730-6c6f-4719-99f2-a8cdad28de63","system_id":"levelo_inurba_marseille","lat":43.2991,"lon":5.43666,"is_reserved":false,"is_disabled":false,"rental_uris":{"android":"levelo://app?vid=35971730-6c6f-4719-99f2-a8cdad28de63","ios":"levelo://app?vid=35971730-6c6f-4719-99f2-a8cdad28de63"},"vehicle_type_id":"4","last_reported":1742487180,"current_range_meters":6400,"station_id":"ce4bhpp2rcd13ifvqhfg","pricing_plan_id":"cebpf4jnsgd1na2vs0mg"},{"bike_id":"ea91aac8-fd90-4aa0-97fd-ec515209a88f","system_id":"levelo_inurba_marseille","lat":43.27957,"lon":5.38733,"is_reserved":false,"is_disabled":false,"rental_uris":{"android":"levelo://app?vid=ea91aac8-fd90-4aa0-97fd-ec515209a88f","ios":"levelo://app?vid=ea91aac8-fd90-4aa0-97fd-ec515209a88f"},"vehicle_type_id":"4","last_reported":1742487180,"current_range_meters":6400,"station_id":"ce4bhg12rcd13ifvqf80","pricing_plan_id":"cebpf4jnsgd1na2vs0mg"},{"bike_id":"c76a4d35-3f4b-4728-a54f-decfdc407403","system_id":"levelo_inurba_marseille","lat":43.24673,"lon":5.38143,"is_reserved":false,"is_disabled":false,"rental_uris":{"android":"levelo://app?vid=c76a4d35-3f4b-4728-a54f-decfdc407403","ios":"levelo://app?vid=c76a4d35-3f4b-4728-a54f-decfdc407403"},"vehicle_type_id":"4","last_reported":1742487180,"current_range_meters":6800,"station_id":"ce4bhih2rcd13ifvqfr0","pricing_plan_id":"cebpf4jnsgd1na2vs0mg"},{"bike_id":"0f0379d0-9e31-4d59-aa71-1b8fef29c39c","system_id":"levelo_inurba_marseille","lat":43.25692,"lon":5.41106,"is_reserved":false,"is_disabled":false,"rental_uris":{"android":"levelo://app?vid=0f0379d0-9e31-4d59-aa71-1b8fef29c39c","ios":"levelo://app?vid=0f0379d0-9e31-4d59-aa71-1b8fef29c39c"},"vehicle_type_id":"4","last_reported":1742487180,"current_range_meters":6800,"station_id":"ce4bhkp2rcd13ifvqgd0","pricing_plan_id":"cebpf4jnsgd1na2vs0mg"},{"bike_id":"a27e9e25-06bf-4175-9bd6-9c00c02ad86d","system_id":"levelo_inurba_marseille","lat":43.244,"lon":5.37054,"is_reserved":false,"is_disabled":false,"rental_uris":{"android":"levelo://app?vid=a27e9e25-06bf-4175-9bd6-9c00c02ad86d","ios":"levelo://app?vid=a27e9e25-06bf-4175-9bd6-9c00c02ad86d"},"vehicle_type_id":"4","last_reported":1742487180,"current_range_meters":6800,"station_id":"ce4bhhh2rcd13ifvqfk0","pricing_plan_id":"cebpf4jnsgd1na2vs0mg"},{"bike_id":"1f042b36-db96-4fbc-be63-97d09cd09054","system_id":"levelo_inurba_marseille","lat":43.30528,"lon":5.36542,"is_reserved":false,"is_disabled":false,"rental_uris":{"android":"levelo://app?vid=1f042b36-db96-4fbc-be63-97d09cd09054","ios":"levelo://app?vid=1f042b36-db96-4fbc-be63-97d09cd09054"},"vehicle_type_id":"4","last_reported":1742487180,"current_range_meters":6000,"station_id":"ce4bgs12rcd13ifvqcag","pricing_plan_id":"cebpf4jnsgd1na2vs0mg"},{"bike_id":"55ad49f9-0efd-4b86-b877-a9d555d462db","system_id":"levelo_inurba_marseille","lat":43.29518,"lon":5.39396,"is_reserved":false,"is_disabled":false,"rental_uris":{"android":"levelo://app?vid=55ad49f9-0efd-4b86-b877-a9d555d462db","ios":"levelo://app?vid=55ad49f9-0efd-4b86-b877-a9d555d462db"},"vehicle_type_id":"4","last_reported":1742487180,"current_range_meters":6800,"station_id":"ce4bh292rcd13ifvqdf0","pricing_plan_id":"cebpf4jnsgd1na2vs0mg"},{"bike_id":"95c05065-d729-45d5-aa4a-b59a79291382","system_id":"levelo_inurba_marseille","lat":43.24183,"lon":5.39733,"is_reserved":false,"is_disabled":false,"rental_uris":{"android":"levelo://app?vid=95c05065-d729-45d5-aa4a-b59a79291382","ios":"levelo://app?vid=95c05065-d729-45d5-aa4a-b59a79291382"},"vehicle_type_id":"4","last_reported":1742487180,"current_range_meters":6800,"station_id":"ce4bhn12rcd13ifvqgpg","pricing_plan_id":"cebpf4jnsgd1na2vs0mg"},{"bike_id":"02f43b01-3b74-45fa-a40e-2df823c84cda","system_id":"levelo_inurba_marseille","lat":43.24188,"lon":5.39728,"is_reserved":false,"is_disabled":false,"rental_uris":{"android":"levelo://app?vid=02f43b01-3b74-45fa-a40e-2df823c84cda","ios":"levelo://app?vid=02f43b01-3b74-45fa-a40e-2df823c84cda"},"vehicle_type_id":"4","last_reported":1742487180,"current_range_meters":6800,"station_id":"ce4bhn12rcd13ifvqgpg","pricing_plan_id":"cebpf4jnsgd1na2vs0mg"},{"bike_id":"0745c29c-ae64-4bfc-a327-32e507a4e24b","system_id":"levelo_inurba_marseille","lat":43.27919,"lon":5.39581,"is_reserved":false,"is_disabled":false,"rental_uris":{"android":"levelo://app?vid=0745c29c-ae64-4bfc-a327-32e507a4e24b","ios":"levelo://app?vid=0745c29c-ae64-4bfc-a327-32e507a4e24b"},"vehicle_type_id":"4","last_reported":1742487180,"current_range_meters":6800,"station_id":"ce4bhf92rcd13ifvqf40","pricing_plan_id":"cebpf4jnsgd1na2vs0mg"},{"bike_id":"ee8bad5b-fe0a-4b36-8607-c5ad71f32273","system_id":"levelo_inurba_marseille","lat":43.27693,"lon":5.38913,"is_reserved":false,"is_disabled":false,"rental_uris":{"android":"levelo://app?vid=ee8bad5b-fe0a-4b36-8607-c5ad71f32273","ios":"levelo://app?vid=ee8bad5b-fe0a-4b36-8607-c5ad71f32273"},"vehicle_type_id":"4","last_reported":1742487180,"current_range_meters":6800,"station_id":"ce4bhi12rcd13ifvqfo0","pricing_plan_id":"cebpf4jnsgd1na2vs0mg"},{"bike_id":"1fea0b3c-94ab-41af-b18e-d9bbaa7dda49","system_id":"levelo_inurba_marseille","lat":43.31723,"lon":5.43706,"is_reserved":false,"is_disabled":false,"rental_uris":{"android":"levelo://app?vid=1fea0b3c-94ab-41af-b18e-d9bbaa7dda49","ios":"levelo://app?vid=1fea0b3c-94ab-41af-b18e-d9bbaa7dda49"},"vehicle_type_id":"4","last_reported":1742487180,"current_range_meters":6800,"station_id":"ce4bhp92rcd13ifvqhcg","pricing_plan_id":"cebpf4jnsgd1na2vs0mg"},{"bike_id":"d526b6e2-b103-4339-baa5-b85128efba8c","system_id":"levelo_inurba_marseille","lat":43.23064,"lon":5.35492,"is_reserved":false,"is_disabled":false,"rental_uris":{"android":"levelo://app?vid=d526b6e2-b103-4339-baa5-b85128efba8c","ios":"levelo://app?vid=d526b6e2-b103-4339-baa5-b85128efba8c"},"vehicle_type_id":"4","last_reported":1742487180,"current_range_meters":6800,"station_id":"cpo3342slgdg3j2ifvpg","pricing_plan_id":"cebpf4jnsgd1na2vs0mg"},{"bike_id":"f336da5e-a0d5-49c6-a7c8-045ff3a1a8e4","system_id":"levelo_inurba_marseille","lat":43.27207,"lon":5.39166,"is_reserved":false,"is_disabled":false,"rental_uris":{"android":"levelo://app?vid=f336da5e-a0d5-49c6-a7c8-045ff3a1a8e4","ios":"levelo://app?vid=f336da5e-a0d5-49c6-a7c8-045ff3a1a8e4"},"vehicle_type_id":"4","last_reported":1742487180,"current_range_meters":7200,"station_id":"ce4bhhp2rcd13ifvqfm0","pricing_plan_id":"cebpf4jnsgd1na2vs0mg"},{"bike_id":"4947a637-33af-49de-98ce-80f437c03e62","system_id":"levelo_inurba_marseille","lat":43.28801,"lon":5.41121,"is_reserved":false,"is_disabled":false,"rental_uris":{"android":"levelo://app?vid=4947a637-33af-49de-98ce-80f437c03e62","ios":"levelo://app?vid=4947a637-33af-49de-98ce-80f437c03e62"},"vehicle_type_id":"4","last_reported":1742487180,"current_range_meters":7200,"station_id":"","pricing_plan_id":"cebpf4jnsgd1na2vs0mg"},{"bike_id":"a8b8dae1-87ef-4f8a-a2c8-fe9fd9bf0f77","system_id":"levelo_inurba_marseille","lat":43.23519,"lon":5.37746,"is_reserved":false,"is_disabled":false,"rental_uris":{"android":"levelo://app?vid=a8b8dae1-87ef-4f8a-a2c8-fe9fd9bf0f77","ios":"levelo://app?vid=a8b8dae1-87ef-4f8a-a2c8-fe9fd9bf0f77"},"vehicle_type_id":"4","last_reported":1742487180,"current_range_meters":7200,"station_id":"","pricing_plan_id":"cebpf4jnsgd1na2vs0mg"},{"bike_id":"20276738-7231-4b1e-8926-d014cc3ce7a5","system_id":"levelo_inurba_marseille","lat":43.24184,"lon":5.39696,"is_reserved":false,"is_disabled":false,"rental_uris":{"android":"levelo://app?vid=20276738-7231-4b1e-8926-d014cc3ce7a5","ios":"levelo://app?vid=20276738-7231-4b1e-8926-d014cc3ce7a5"},"vehicle_type_id":"4","last_reported":1742487180,"current_range_meters":7200,"station_id":"ce4bhn12rcd13ifvqgpg","pricing_plan_id":"cebpf4jnsgd1na2vs0mg"},{"bike_id":"51303281-4f04-43e8-b00c-08d0d12305ef","system_id":"levelo_inurba_marseille","lat":43.3268,"lon":5.40998,"is_reserved":false,"is_disabled":false,"rental_uris":{"android":"levelo://app?vid=51303281-4f04-43e8-b00c-08d0d12305ef","ios":"levelo://app?vid=51303281-4f04-43e8-b00c-08d0d12305ef"},"vehicle_type_id":"4","last_reported":1742487180,"current_range_meters":7200,"station_id":"ce4bhpp2rcd13ifvqhgg","pricing_plan_id":"cebpf4jnsgd1na2vs0mg"},{"bike_id":"bfd67b10-fd7c-4b25-bc6e-0830b23c1f4b","system_id":"levelo_inurba_marseille","lat":43.25822,"lon":5.39432,"is_reserved":false,"is_disabled":false,"rental_uris":{"android":"levelo://app?vid=bfd67b10-fd7c-4b25-bc6e-0830b23c1f4b","ios":"levelo://app?vid=bfd67b10-fd7c-4b25-bc6e-0830b23c1f4b"},"vehicle_type_id":"4","last_reported":1742487180,"current_range_meters":7200,"station_id":"ce4bhip2rcd13ifvqft0","pricing_plan_id":"cebpf4jnsgd1na2vs0mg"},{"bike_id":"9d26c008-8ec1-4269-9cd2-f45774f03ccb","system_id":"levelo_inurba_marseille","lat":43.2797,"lon":5.37939,"is_reserved":false,"is_disabled":false,"rental_uris":{"android":"levelo://app?vid=9d26c008-8ec1-4269-9cd2-f45774f03ccb","ios":"levelo://app?vid=9d26c008-8ec1-4269-9cd2-f45774f03ccb"},"vehicle_type_id":"4","last_reported":1742487180,"current_range_meters":7200,"station_id":"","pricing_plan_id":"cebpf4jnsgd1na2vs0mg"},{"bike_id":"ace03f6b-f2d6-45e9-8357-f872c39bd7e9","system_id":"levelo_inurba_marseille","lat":43.23194,"lon":5.35553,"is_reserved":false,"is_disabled":false,"rental_uris":{"android":"levelo://app?vid=ace03f6b-f2d6-45e9-8357-f872c39bd7e9","ios":"levelo://app?vid=ace03f6b-f2d6-45e9-8357-f872c39bd7e9"},"vehicle_type_id":"4","last_reported":1742487180,"current_range_meters":8000,"station_id":"ce4bhu92rcd13ifvqi70","pricing_plan_id":"cebpf4jnsgd1na2vs0mg"},{"bike_id":"3ae4f3bd-c485-4c98-8e8e-3c9bb312423a","system_id":"levelo_inurba_marseille","lat":43.24807,"lon":5.3745,"is_reserved":false,"is_disabled":false,"rental_uris":{"android":"levelo://app?vid=3ae4f3bd-c485-4c98-8e8e-3c9bb312423a","ios":"levelo://app?vid=3ae4f3bd-c485-4c98-8e8e-3c9bb312423a"},"vehicle_type_id":"4","last_reported":1742487180,"current_range_meters":8000,"station_id":"ce4bhgh2rcd13ifvqfb0","pricing_plan_id":"cebpf4jnsgd1na2vs0mg"},{"bike_id":"ed5cea79-0bea-4c86-8c80-f8de23687c7f","system_id":"levelo_inurba_marseille","lat":43.27496,"lon":5.43978,"is_reserved":false,"is_disabled":false,"rental_uris":{"android":"levelo://app?vid=ed5cea79-0bea-4c86-8c80-f8de23687c7f","ios":"levelo://app?vid=ed5cea79-0bea-4c86-8c80-f8de23687c7f"},"vehicle_type_id":"4","last_reported":1742487180,"current_range_meters":8000,"station_id":"","pricing_plan_id":"cebpf4jnsgd1na2vs0mg"},{"bike_id":"176d2e0b-da43-4b98-b92e-b45d4ab12b2f","system_id":"levelo_inurba_marseille","lat":43.30246,"lon":5.38387,"is_reserved":false,"is_disabled":false,"rental_uris":{"android":"levelo://app?vid=176d2e0b-da43-4b98-b92e-b45d4ab12b2f","ios":"levelo://app?vid=176d2e0b-da43-4b98-b92e-b45d4ab12b2f"},"vehicle_type_id":"4","last_reported":1742487180,"current_range_meters":8000,"station_id":"","pricing_plan_id":"cebpf4jnsgd1na2vs0mg"},{"bike_id":"6eb98e18-92f8-411c-92c0-82d5569fb85c","system_id":"levelo_inurba_marseille","lat":43.32364,"lon":5.36756,"is_reserved":false,"is_disabled":false,"rental_uris":{"android":"levelo://app?vid=6eb98e18-92f8-411c-92c0-82d5569fb85c","ios":"levelo://app?vid=6eb98e18-92f8-411c-92c0-82d5569fb85c"},"vehicle_type_id":"4","last_reported":1742487180,"current_range_meters":8400,"station_id":"ce4bhsh2rcd13ifvqi2g","pricing_plan_id":"cebpf4jnsgd1na2vs0mg"},{"bike_id":"0366b056-e065-4a25-8dcd-3c802314aa9d","system_id":"levelo_inurba_marseille","lat":43.27066,"lon":5.42263,"is_reserved":false,"is_disabled":false,"rental_uris":{"android":"levelo://app?vid=0366b056-e065-4a25-8dcd-3c802314aa9d","ios":"levelo://app?vid=0366b056-e065-4a25-8dcd-3c802314aa9d"},"vehicle_type_id":"4","last_reported":1742487180,"current_range_meters":8400,"station_id":"ce4bhk92rcd13ifvqgb0","pricing_plan_id":"cebpf4jnsgd1na2vs0mg"},{"bike_id":"3c4a5071-afd8-4132-943a-c731f217d950","system_id":"levelo_inurba_marseille","lat":43.27375,"lon":5.36256,"is_reserved":false,"is_disabled":false,"rental_uris":{"android":"levelo://app?vid=3c4a5071-afd8-4132-943a-c731f217d950","ios":"levelo://app?vid=3c4a5071-afd8-4132-943a-c731f217d950"},"vehicle_type_id":"4","last_reported":1742487180,"current_range_meters":8400,"station_id":"ce4bhbh2rcd13ifvqeo0","pricing_plan_id":"cebpf4jnsgd1na2vs0mg"},{"bike_id":"f4c4bf6d-48a4-4198-942b-eda89b945e41","system_id":"levelo_inurba_marseille","lat":43.27368,"lon":5.36253,"is_reserved":false,"is_disabled":false,"rental_uris":{"android":"levelo://app?vid=f4c4bf6d-48a4-4198-942b-eda89b945e41","ios":"levelo://app?vid=f4c4bf6d-48a4-4198-942b-eda89b945e41"},"vehicle_type_id":"4","last_reported":1742487180,"current_range_meters":8400,"station_id":"ce4bhbh2rcd13ifvqeo0","pricing_plan_id":"cebpf4jnsgd1na2vs0mg"},{"bike_id":"b31900d6-900b-4641-9480-da40bc2408ab","system_id":"levelo_inurba_marseille","lat":43.3089,"lon":5.39654,"is_reserved":false,"is_disabled":false,"rental_uris":{"android":"levelo://app?vid=b31900d6-900b-4641-9480-da40bc2408ab","ios":"levelo://app?vid=b31900d6-900b-4641-9480-da40bc2408ab"},"vehicle_type_id":"4","last_reported":1742487180,"current_range_meters":8400,"station_id":"ce4bh012rcd13ifvqcv0","pricing_plan_id":"cebpf4jnsgd1na2vs0mg"},{"bike_id":"471b8c1a-1a85-4080-b533-fb41f3dbfd81","system_id":"levelo_inurba_marseille","lat":43.23207,"lon":5.35562,"is_reserved":false,"is_disabled":false,"rental_uris":{"android":"levelo://app?vid=471b8c1a-1a85-4080-b533-fb41f3dbfd81","ios":"levelo://app?vid=471b8c1a-1a85-4080-b533-fb41f3dbfd81"},"vehicle_type_id":"4","last_reported":1742487180,"current_range_meters":8400,"station_id":"ce4bhu92rcd13ifvqi70","pricing_plan_id":"cebpf4jnsgd1na2vs0mg"},{"bike_id":"834589e7-4cc1-4fbe-8942-590388918a42","system_id":"levelo_inurba_marseille","lat":43.23146,"lon":5.43721,"is_reserved":false,"is_disabled":false,"rental_uris":{"android":"levelo://app?vid=834589e7-4cc1-4fbe-8942-590388918a42","ios":"levelo://app?vid=834589e7-4cc1-4fbe-8942-590388918a42"},"vehicle_type_id":"4","last_reported":1742487180,"current_range_meters":8400,"station_id":"ce4bhmp2rcd13ifvqgog","pricing_plan_id":"cebpf4jnsgd1na2vs0mg"},{"bike_id":"9ca04de1-e0f1-4186-9bba-159fbcc2fc30","system_id":"levelo_inurba_marseille","lat":43.26208,"lon":5.37918,"is_reserved":false,"is_disabled":true,"rental_uris":{"android":"levelo://app?vid=9ca04de1-e0f1-4186-9bba-159fbcc2fc30","ios":"levelo://app?vid=9ca04de1-e0f1-4186-9bba-159fbcc2fc30"},"vehicle_type_id":"4","last_reported":1742487180,"current_range_meters":8400,"station_id":"ce4bhjp2rcd13ifvqg90","pricing_plan_id":"cebpf4jnsgd1na2vs0mg"},{"bike_id":"ad2a19a0-4a96-41c3-aff9-b51c29639a9f","system_id":"levelo_inurba_marseille","lat":43.28155,"lon":5.42641,"is_reserved":false,"is_disabled":false,"rental_uris":{"android":"levelo://app?vid=ad2a19a0-4a96-41c3-aff9-b51c29639a9f","ios":"levelo://app?vid=ad2a19a0-4a96-41c3-aff9-b51c29639a9f"},"vehicle_type_id":"4","last_reported":1742487180,"current_range_meters":8400,"station_id":"ce4bhnh2rcd13ifvqgug","pricing_plan_id":"cebpf4jnsgd1na2vs0mg"},{"bike_id":"9974ed04-669d-417e-a595-4201eab40493","system_id":"levelo_inurba_marseille","lat":43.31719,"lon":5.42397,"is_reserved":false,"is_disabled":false,"rental_uris":{"android":"levelo://app?vid=9974ed04-669d-417e-a595-4201eab40493","ios":"levelo://app?vid=9974ed04-669d-417e-a595-4201eab40493"},"vehicle_type_id":"4","last_reported":1742487180,"current_range_meters":8800,"station_id":"ce4bhp92rcd13ifvqhbg","pricing_plan_id":"cebpf4jnsgd1na2vs0mg"},{"bike_id":"9b2a4ae1-45d2-42a7-b1d8-970226b193d0","system_id":"levelo_inurba_marseille","lat":43.24187,"lon":5.39736,"is_reserved":false,"is_disabled":false,"rental_uris":{"android":"levelo://app?vid=9b2a4ae1-45d2-42a7-b1d8-970226b193d0","ios":"levelo://app?vid=9b2a4ae1-45d2-42a7-b1d8-970226b193d0"},"vehicle_type_id":"4","last_reported":1742487180,"current_range_meters":8800,"station_id":"ce4bhn12rcd13ifvqgpg","pricing_plan_id":"cebpf4jnsgd1na2vs0mg"},{"bike_id":"d96160e5-8d5b-4a20-ab7c-388f9914087a","system_id":"levelo_inurba_marseille","lat":43.27318,"lon":5.39102,"is_reserved":false,"is_disabled":false,"rental_uris":{"android":"levelo://app?vid=d96160e5-8d5b-4a20-ab7c-388f9914087a","ios":"levelo://app?vid=d96160e5-8d5b-4a20-ab7c-388f9914087a"},"vehicle_type_id":"4","last_reported":1742487180,"current_range_meters":8800,"station_id":"ce4bhgp2rcd13ifvqfe0","pricing_plan_id":"cebpf4jnsgd1na2vs0mg"},{"bike_id":"504ee4bc-f94f-46d1-b4aa-bb159ff861b7","system_id":"levelo_inurba_marseille","lat":43.27194,"lon":5.40986,"is_reserved":false,"is_disabled":false,"rental_uris":{"android":"levelo://app?vid=504ee4bc-f94f-46d1-b4aa-bb159ff861b7","ios":"levelo://app?vid=504ee4bc-f94f-46d1-b4aa-bb159ff861b7"},"vehicle_type_id":"4","last_reported":1742487180,"current_range_meters":8800,"station_id":"ce4bhl12rcd13ifvqgf0","pricing_plan_id":"cebpf4jnsgd1na2vs0mg"},{"bike_id":"671210b1-9e8f-4893-953f-985ab8b97e34","system_id":"levelo_inurba_marseille","lat":43.32111,"lon":5.3678,"is_reserved":false,"is_disabled":false,"rental_uris":{"android":"levelo://app?vid=671210b1-9e8f-4893-953f-985ab8b97e34","ios":"levelo://app?vid=671210b1-9e8f-4893-953f-985ab8b97e34"},"vehicle_type_id":"4","last_reported":1742487180,"current_range_meters":8800,"station_id":"ce4bhrh2rcd13ifvqhug","pricing_plan_id":"cebpf4jnsgd1na2vs0mg"},{"bike_id":"36da024f-25c5-4e27-ab27-eac2931abc92","system_id":"levelo_inurba_marseille","lat":43.30802,"lon":5.38162,"is_reserved":false,"is_disabled":false,"rental_uris":{"android":"levelo://app?vid=36da024f-25c5-4e27-ab27-eac2931abc92","ios":"levelo://app?vid=36da024f-25c5-4e27-ab27-eac2931abc92"},"vehicle_type_id":"4","last_reported":1742487180,"current_range_meters":8400,"station_id":"ce4bgt12rcd13ifvqce0","pricing_plan_id":"cebpf4jnsgd1na2vs0mg"},{"bike_id":"1983241e-dcf4-412a-b965-b9e661a9d6d5","system_id":"levelo_inurba_marseille","lat":43.29823,"lon":5.4014,"is_reserved":false,"is_disabled":false,"rental_uris":{"android":"levelo://app?vid=1983241e-dcf4-412a-b965-b9e661a9d6d5","ios":"levelo://app?vid=1983241e-dcf4-412a-b965-b9e661a9d6d5"},"vehicle_type_id":"4","last_reported":1742487180,"current_range_meters":8800,"station_id":"","pricing_plan_id":"cebpf4jnsgd1na2vs0mg"},{"bike_id":"cb6062cd-3cfa-4917-b79b-5707b99e3c03","system_id":"levelo_inurba_marseille","lat":43.321185,"lon":5.367534,"is_reserved":false,"is_disabled":false,"rental_uris":{"android":"levelo://app?vid=cb6062cd-3cfa-4917-b79b-5707b99e3c03","ios":"levelo://app?vid=cb6062cd-3cfa-4917-b79b-5707b99e3c03"},"vehicle_type_id":"4","last_reported":1742487180,"current_range_meters":9200,"station_id":"ce4bho92rcd13ifvqh3g","pricing_plan_id":"cebpf4jnsgd1na2vs0mg"},{"bike_id":"6d3f830c-4185-4d92-aa5d-1c17ab550c3a","system_id":"levelo_inurba_marseille","lat":43.32114,"lon":5.36771,"is_reserved":false,"is_disabled":false,"rental_uris":{"android":"levelo://app?vid=6d3f830c-4185-4d92-aa5d-1c17ab550c3a","ios":"levelo://app?vid=6d3f830c-4185-4d92-aa5d-1c17ab550c3a"},"vehicle_type_id":"4","last_reported":1742487180,"current_range_meters":9200,"station_id":"ce4bhrh2rcd13ifvqhug","pricing_plan_id":"cebpf4jnsgd1na2vs0mg"},{"bike_id":"6f160cdf-a1d0-43f4-83b6-5e01203e42c8","system_id":"levelo_inurba_marseille","lat":43.26553,"lon":5.37287,"is_reserved":false,"is_disabled":false,"rental_uris":{"android":"levelo://app?vid=6f160cdf-a1d0-43f4-83b6-5e01203e42c8","ios":"levelo://app?vid=6f160cdf-a1d0-43f4-83b6-5e01203e42c8"},"vehicle_type_id":"4","last_reported":1742487180,"current_range_meters":9200,"station_id":"ce4bhg12rcd13ifvqf70","pricing_plan_id":"cebpf4jnsgd1na2vs0mg"},{"bike_id":"06d0e448-9a0a-4f39-bfaf-824aafe9c300","system_id":"levelo_inurba_marseille","lat":43.32669,"lon":5.40986,"is_reserved":false,"is_disabled":false,"rental_uris":{"android":"levelo://app?vid=06d0e448-9a0a-4f39-bfaf-824aafe9c300","ios":"levelo://app?vid=06d0e448-9a0a-4f39-bfaf-824aafe9c300"},"vehicle_type_id":"4","last_reported":1742487180,"current_range_meters":9200,"station_id":"ce4bhpp2rcd13ifvqhgg","pricing_plan_id":"cebpf4jnsgd1na2vs0mg"},{"bike_id":"b82c5ddb-8f1c-4247-a6a9-a4ae05b201df","system_id":"levelo_inurba_marseille","lat":43.30082,"lon":5.39067,"is_reserved":false,"is_disabled":false,"rental_uris":{"android":"levelo://app?vid=b82c5ddb-8f1c-4247-a6a9-a4ae05b201df","ios":"levelo://app?vid=b82c5ddb-8f1c-4247-a6a9-a4ae05b201df"},"vehicle_type_id":"4","last_reported":1742487180,"current_range_meters":9200,"station_id":"ce4bh192rcd13ifvqdb0","pricing_plan_id":"cebpf4jnsgd1na2vs0mg"},{"bike_id":"d0055090-5b6d-4e71-8718-8c52e87c892c","system_id":"levelo_inurba_marseille","lat":43.29254,"lon":5.40907,"is_reserved":false,"is_disabled":false,"rental_uris":{"android":"levelo://app?vid=d0055090-5b6d-4e71-8718-8c52e87c892c","ios":"levelo://app?vid=d0055090-5b6d-4e71-8718-8c52e87c892c"},"vehicle_type_id":"4","last_reported":1742487180,"current_range_meters":9200,"station_id":"ce4bh192rcd13ifvqdc0","pricing_plan_id":"cebpf4jnsgd1na2vs0mg"},{"bike_id":"d7645557-54c5-44ed-8c44-41e433a350da","system_id":"levelo_inurba_marseille","lat":43.29474,"lon":5.35566,"is_reserved":false,"is_disabled":false,"rental_uris":{"android":"levelo://app?vid=d7645557-54c5-44ed-8c44-41e433a350da","ios":"levelo://app?vid=d7645557-54c5-44ed-8c44-41e433a350da"},"vehicle_type_id":"4","last_reported":1742487180,"current_range_meters":9200,"station_id":"","pricing_plan_id":"cebpf4jnsgd1na2vs0mg"},{"bike_id":"0d95e6a4-60fa-4989-a414-058ecea80aee","system_id":"levelo_inurba_marseille","lat":43.30597,"lon":5.36523,"is_reserved":false,"is_disabled":false,"rental_uris":{"android":"levelo://app?vid=0d95e6a4-60fa-4989-a414-058ecea80aee","ios":"levelo://app?vid=0d95e6a4-60fa-4989-a414-058ecea80aee"},"vehicle_type_id":"4","last_reported":1742487180,"current_range_meters":9600,"station_id":"ce4bgs12rcd13ifvqcag","pricing_plan_id":"cebpf4jnsgd1na2vs0mg"},{"bike_id":"2dd0ff71-e537-4def-b638-51ff0cccd990","system_id":"levelo_inurba_marseille","lat":43.27375,"lon":5.36257,"is_reserved":false,"is_disabled":false,"rental_uris":{"android":"levelo://app?vid=2dd0ff71-e537-4def-b638-51ff0cccd990","ios":"levelo://app?vid=2dd0ff71-e537-4def-b638-51ff0cccd990"},"vehicle_type_id":"4","last_reported":1742487180,"current_range_meters":9600,"station_id":"ce4bhbh2rcd13ifvqeo0","pricing_plan_id":"cebpf4jnsgd1na2vs0mg"},{"bike_id":"bd2e72e2-6ae3-41f8-84dc-79cbf208609c","system_id":"levelo_inurba_marseille","lat":43.27842,"lon":5.40735,"is_reserved":false,"is_disabled":false,"rental_uris":{"android":"levelo://app?vid=bd2e72e2-6ae3-41f8-84dc-79cbf208609c","ios":"levelo://app?vid=bd2e72e2-6ae3-41f8-84dc-79cbf208609c"},"vehicle_type_id":"4","last_reported":1742487180,"current_range_meters":5600,"station_id":"ce4bhnh2rcd13ifvqgtg","pricing_plan_id":"cebpf4jnsgd1na2vs0mg"},{"bike_id":"efb9ed43-dd51-4c99-a034-3cda93bac910","system_id":"levelo_inurba_marseille","lat":43.29932,"lon":5.36549,"is_reserved":false,"is_disabled":false,"rental_uris":{"android":"levelo://app?vid=efb9ed43-dd51-4c99-a034-3cda93bac910","ios":"levelo://app?vid=efb9ed43-dd51-4c99-a034-3cda93bac910"},"vehicle_type_id":"4","last_reported":1742487180,"current_range_meters":9600,"station_id":"ce4bgm92rcd13ifvqbr0","pricing_plan_id":"cebpf4jnsgd1na2vs0mg"},{"bike_id":"a0deeb6c-62a7-4efb-834c-1bec837aaba6","system_id":"levelo_inurba_marseille","lat":43.33689,"lon":5.37817,"is_reserved":false,"is_disabled":false,"rental_uris":{"android":"levelo://app?vid=a0deeb6c-62a7-4efb-834c-1bec837aaba6","ios":"levelo://app?vid=a0deeb6c-62a7-4efb-834c-1bec837aaba6"},"vehicle_type_id":"4","last_reported":1742487180,"current_range_meters":9600,"station_id":"","pricing_plan_id":"cebpf4jnsgd1na2vs0mg"},{"bike_id":"83068c63-910e-4e4d-8114-9c438eedb323","system_id":"levelo_inurba_marseille","lat":43.322913,"lon":5.3827,"is_reserved":false,"is_disabled":false,"rental_uris":{"android":"levelo://app?vid=83068c63-910e-4e4d-8114-9c438eedb323","ios":"levelo://app?vid=83068c63-910e-4e4d-8114-9c438eedb323"},"vehicle_type_id":"4","last_reported":1742487180,"current_range_meters":9200,"station_id":"ce4bhr12rcd13ifvqhqg","pricing_plan_id":"cebpf4jnsgd1na2vs0mg"},{"bike_id":"0e05d3a2-e7c2-417a-8518-3b00440d49d9","system_id":"levelo_inurba_marseille","lat":43.29032,"lon":5.37564,"is_reserved":false,"is_disabled":false,"rental_uris":{"android":"levelo://app?vid=0e05d3a2-e7c2-417a-8518-3b00440d49d9","ios":"levelo://app?vid=0e05d3a2-e7c2-417a-8518-3b00440d49d9"},"vehicle_type_id":"4","last_reported":1742487180,"current_range_meters":9600,"station_id":"ce4bh692rcd13ifvqe90","pricing_plan_id":"cebpf4jnsgd1na2vs0mg"},{"bike_id":"181b1742-09ee-46ab-8712-67d8396af664","system_id":"levelo_inurba_marseille","lat":43.24179,"lon":5.3973,"is_reserved":false,"is_disabled":false,"rental_uris":{"android":"levelo://app?vid=181b1742-09ee-46ab-8712-67d8396af664","ios":"levelo://app?vid=181b1742-09ee-46ab-8712-67d8396af664"},"vehicle_type_id":"4","last_reported":1742487180,"current_range_meters":9600,"station_id":"ce4bhn12rcd13ifvqgpg","pricing_plan_id":"cebpf4jnsgd1na2vs0mg"},{"bike_id":"2e74df5a-435f-4314-bc0a-7ec012fcec33","system_id":"levelo_inurba_marseille","lat":43.29194,"lon":5.39318,"is_reserved":false,"is_disabled":false,"rental_uris":{"android":"levelo://app?vid=2e74df5a-435f-4314-bc0a-7ec012fcec33","ios":"levelo://app?vid=2e74df5a-435f-4314-bc0a-7ec012fcec33"},"vehicle_type_id":"4","last_reported":1742487180,"current_range_meters":9600,"station_id":"ce4bh192rcd13ifvqdd0","pricing_plan_id":"cebpf4jnsgd1na2vs0mg"},{"bike_id":"ffbee1c9-ab8d-45ee-b606-c546ab78c5f2","system_id":"levelo_inurba_marseille","lat":43.29684,"lon":5.37707,"is_reserved":false,"is_disabled":false,"rental_uris":{"android":"levelo://app?vid=ffbee1c9-ab8d-45ee-b606-c546ab78c5f2","ios":"levelo://app?vid=ffbee1c9-ab8d-45ee-b606-c546ab78c5f2"},"vehicle_type_id":"4","last_reported":1742487180,"current_range_meters":10000,"station_id":"ce4bgkh2rcd13ifvqbl0","pricing_plan_id":"cebpf4jnsgd1na2vs0mg"},{"bike_id":"b9e4bdd0-024c-4547-9a94-39d0c7923642","system_id":"levelo_inurba_marseille","lat":43.24185,"lon":5.36344,"is_reserved":false,"is_disabled":false,"rental_uris":{"android":"levelo://app?vid=b9e4bdd0-024c-4547-9a94-39d0c7923642","ios":"levelo://app?vid=b9e4bdd0-024c-4547-9a94-39d0c7923642"},"vehicle_type_id":"4","last_reported":1742487180,"current_range_meters":10000,"station_id":"cpo36qri1sfpv3e86is0","pricing_plan_id":"cebpf4jnsgd1na2vs0mg"},{"bike_id":"5a744e10-af42-4895-8ea6-4be2388dba33","system_id":"levelo_inurba_marseille","lat":43.28442,"lon":5.39168,"is_reserved":false,"is_disabled":false,"rental_uris":{"android":"levelo://app?vid=5a744e10-af42-4895-8ea6-4be2388dba33","ios":"levelo://app?vid=5a744e10-af42-4895-8ea6-4be2388dba33"},"vehicle_type_id":"4","last_reported":1742487180,"current_range_meters":10000,"station_id":"ce4bhoh2rcd13ifvqh5g","pricing_plan_id":"cebpf4jnsgd1na2vs0mg"},{"bike_id":"c5bb5dca-1dc9-450e-9a3d-9fa737cf345d","system_id":"levelo_inurba_marseille","lat":43.24658,"lon":5.38902,"is_reserved":false,"is_disabled":false,"rental_uris":{"android":"levelo://app?vid=c5bb5dca-1dc9-450e-9a3d-9fa737cf345d","ios":"levelo://app?vid=c5bb5dca-1dc9-450e-9a3d-9fa737cf345d"},"vehicle_type_id":"4","last_reported":1742487180,"current_range_meters":10000,"station_id":"ce4bhg12rcd13ifvqf60","pricing_plan_id":"cebpf4jnsgd1na2vs0mg"},{"bike_id":"b4f58fb9-f8fc-49f3-b537-d6ea695f1338","system_id":"levelo_inurba_marseille","lat":43.24674,"lon":5.38142,"is_reserved":false,"is_disabled":false,"rental_uris":{"android":"levelo://app?vid=b4f58fb9-f8fc-49f3-b537-d6ea695f1338","ios":"levelo://app?vid=b4f58fb9-f8fc-49f3-b537-d6ea695f1338"},"vehicle_type_id":"4","last_reported":1742487180,"current_range_meters":10000,"station_id":"ce4bhih2rcd13ifvqfr0","pricing_plan_id":"cebpf4jnsgd1na2vs0mg"},{"bike_id":"db120431-099e-403b-b657-ab87b0ef3dd4","system_id":"levelo_inurba_marseille","lat":43.24801,"lon":5.37452,"is_reserved":false,"is_disabled":false,"rental_uris":{"android":"levelo://app?vid=db120431-099e-403b-b657-ab87b0ef3dd4","ios":"levelo://app?vid=db120431-099e-403b-b657-ab87b0ef3dd4"},"vehicle_type_id":"4","last_reported":1742487180,"current_range_meters":10800,"station_id":"ce4bhgh2rcd13ifvqfb0","pricing_plan_id":"cebpf4jnsgd1na2vs0mg"},{"bike_id":"c040e407-3e83-4d28-bb1d-6a7eb5bf8aa8","system_id":"levelo_inurba_marseille","lat":43.29263,"lon":5.37622,"is_reserved":false,"is_disabled":false,"rental_uris":{"android":"levelo://app?vid=c040e407-3e83-4d28-bb1d-6a7eb5bf8aa8","ios":"levelo://app?vid=c040e407-3e83-4d28-bb1d-6a7eb5bf8aa8"},"vehicle_type_id":"4","last_reported":1742487180,"current_range_meters":10800,"station_id":"ce4bgi12rcd13ifvqb80","pricing_plan_id":"cebpf4jnsgd1na2vs0mg"},{"bike_id":"09dd9e64-e6d6-4c39-ae29-c9a73254bfeb","system_id":"levelo_inurba_marseille","lat":43.28678,"lon":5.36361,"is_reserved":false,"is_disabled":false,"rental_uris":{"android":"levelo://app?vid=09dd9e64-e6d6-4c39-ae29-c9a73254bfeb","ios":"levelo://app?vid=09dd9e64-e6d6-4c39-ae29-c9a73254bfeb"},"vehicle_type_id":"4","last_reported":1742487180,"current_range_meters":10800,"station_id":"ce4bhah2rcd13ifvqej0","pricing_plan_id":"cebpf4jnsgd1na2vs0mg"},{"bike_id":"0127acc2-243d-4e21-a437-8949ccf5b907","system_id":"levelo_inurba_marseille","lat":43.23191,"lon":5.39979,"is_reserved":false,"is_disabled":false,"rental_uris":{"android":"levelo://app?vid=0127acc2-243d-4e21-a437-8949ccf5b907","ios":"levelo://app?vid=0127acc2-243d-4e21-a437-8949ccf5b907"},"vehicle_type_id":"4","last_reported":1742487180,"current_range_meters":10800,"station_id":"ce4bhn12rcd13ifvqgqg","pricing_plan_id":"cebpf4jnsgd1na2vs0mg"},{"bike_id":"ec1c8476-096c-4a46-8e67-8b1db798f877","system_id":"levelo_inurba_marseille","lat":43.2907,"lon":5.37165,"is_reserved":false,"is_disabled":false,"rental_uris":{"android":"levelo://app?vid=ec1c8476-096c-4a46-8e67-8b1db798f877","ios":"levelo://app?vid=ec1c8476-096c-4a46-8e67-8b1db798f877"},"vehicle_type_id":"4","last_reported":1742487180,"current_range_meters":10000,"station_id":"ce4bh5p2rcd13ifvqe4g","pricing_plan_id":"cebpf4jnsgd1na2vs0mg"},{"bike_id":"6370e802-1ce7-46b3-ab38-c299ec041499","system_id":"levelo_inurba_marseille","lat":43.26669,"lon":5.38275,"is_reserved":false,"is_disabled":false,"rental_uris":{"android":"levelo://app?vid=6370e802-1ce7-46b3-ab38-c299ec041499","ios":"levelo://app?vid=6370e802-1ce7-46b3-ab38-c299ec041499"},"vehicle_type_id":"4","last_reported":1742487180,"current_range_meters":10800,"station_id":"ce4bhg92rcd13ifvqf90","pricing_plan_id":"cebpf4jnsgd1na2vs0mg"},{"bike_id":"40cfcd5b-9407-4673-a1a6-111284ca474b","system_id":"levelo_inurba_marseille","lat":43.29374,"lon":5.37841,"is_reserved":false,"is_disabled":false,"rental_uris":{"android":"levelo://app?vid=40cfcd5b-9407-4673-a1a6-111284ca474b","ios":"levelo://app?vid=40cfcd5b-9407-4673-a1a6-111284ca474b"},"vehicle_type_id":"4","last_reported":1742487180,"current_range_meters":10800,"station_id":"ce4bgjh2rcd13ifvqbf0","pricing_plan_id":"cebpf4jnsgd1na2vs0mg"},{"bike_id":"47282877-a85c-4db3-b01f-2d30eea0c956","system_id":"levelo_inurba_marseille","lat":43.298431,"lon":5.362698,"is_reserved":false,"is_disabled":false,"rental_uris":{"android":"levelo://app?vid=47282877-a85c-4db3-b01f-2d30eea0c956","ios":"levelo://app?vid=47282877-a85c-4db3-b01f-2d30eea0c956"},"vehicle_type_id":"4","last_reported":1742487180,"current_range_meters":11200,"station_id":"ce4bgpp2rcd13ifvqc3g","pricing_plan_id":"cebpf4jnsgd1na2vs0mg"},{"bike_id":"ea66a9bd-d443-4e04-a6a8-fa05ce88dd67","system_id":"levelo_inurba_marseille","lat":43.28665,"lon":5.3634,"is_reserved":false,"is_disabled":false,"rental_uris":{"android":"levelo://app?vid=ea66a9bd-d443-4e04-a6a8-fa05ce88dd67","ios":"levelo://app?vid=ea66a9bd-d443-4e04-a6a8-fa05ce88dd67"},"vehicle_type_id":"4","last_reported":1742487180,"current_range_meters":11200,"station_id":"ce4bhah2rcd13ifvqej0","pricing_plan_id":"cebpf4jnsgd1na2vs0mg"},{"bike_id":"97e0158f-d7ee-4715-b9dd-801d6a3c70c3","system_id":"levelo_inurba_marseille","lat":43.28565,"lon":5.39486,"is_reserved":false,"is_disabled":false,"rental_uris":{"android":"levelo://app?vid=97e0158f-d7ee-4715-b9dd-801d6a3c70c3","ios":"levelo://app?vid=97e0158f-d7ee-4715-b9dd-801d6a3c70c3"},"vehicle_type_id":"4","last_reported":1742487180,"current_range_meters":11200,"station_id":"ce4bh292rcd13ifvqdg0","pricing_plan_id":"cebpf4jnsgd1na2vs0mg"},{"bike_id":"2d4876fa-4901-4b8b-8d4d-d815a4fdf95b","system_id":"levelo_inurba_marseille","lat":43.27659,"lon":5.38914,"is_reserved":false,"is_disabled":false,"rental_uris":{"android":"levelo://app?vid=2d4876fa-4901-4b8b-8d4d-d815a4fdf95b","ios":"levelo://app?vid=2d4876fa-4901-4b8b-8d4d-d815a4fdf95b"},"vehicle_type_id":"4","last_reported":1742487180,"current_range_meters":11200,"station_id":"ce4bhi12rcd13ifvqfo0","pricing_plan_id":"cebpf4jnsgd1na2vs0mg"},{"bike_id":"e22f5e34-57ac-4cb1-b2a6-eda12c5fa87e","system_id":"levelo_inurba_marseille","lat":43.29029,"lon":5.35912,"is_reserved":false,"is_disabled":false,"rental_uris":{"android":"levelo://app?vid=e22f5e34-57ac-4cb1-b2a6-eda12c5fa87e","ios":"levelo://app?vid=e22f5e34-57ac-4cb1-b2a6-eda12c5fa87e"},"vehicle_type_id":"4","last_reported":1742487180,"current_range_meters":11200,"station_id":"ce4bha92rcd13ifvqeg0","pricing_plan_id":"cebpf4jnsgd1na2vs0mg"},{"bike_id":"7640924d-70c3-4639-ad70-fe91caf999b0","system_id":"levelo_inurba_marseille","lat":43.25588,"lon":5.38265,"is_reserved":false,"is_disabled":false,"rental_uris":{"android":"levelo://app?vid=7640924d-70c3-4639-ad70-fe91caf999b0","ios":"levelo://app?vid=7640924d-70c3-4639-ad70-fe91caf999b0"},"vehicle_type_id":"4","last_reported":1742487180,"current_range_meters":11200,"station_id":"ce4bhih2rcd13ifvqfs0","pricing_plan_id":"cebpf4jnsgd1na2vs0mg"},{"bike_id":"f75d32cd-32c5-4f70-9df2-f2320d24a18d","system_id":"levelo_inurba_marseille","lat":43.31994,"lon":5.3814,"is_reserved":false,"is_disabled":false,"rental_uris":{"android":"levelo://app?vid=f75d32cd-32c5-4f70-9df2-f2320d24a18d","ios":"levelo://app?vid=f75d32cd-32c5-4f70-9df2-f2320d24a18d"},"vehicle_type_id":"4","last_reported":1742487180,"current_range_meters":11200,"station_id":"ce4bhr12rcd13ifvqhpg","pricing_plan_id":"cebpf4jnsgd1na2vs0mg"},{"bike_id":"1c40a03b-2121-48b4-af60-0533f1d02a8d","system_id":"levelo_inurba_marseille","lat":43.305422,"lon":5.365472,"is_reserved":false,"is_disabled":false,"rental_uris":{"android":"levelo://app?vid=1c40a03b-2121-48b4-af60-0533f1d02a8d","ios":"levelo://app?vid=1c40a03b-2121-48b4-af60-0533f1d02a8d"},"vehicle_type_id":"4","last_reported":1742487180,"current_range_meters":11600,"station_id":"ce4bgs12rcd13ifvqcag","pricing_plan_id":"cebpf4jnsgd1na2vs0mg"},{"bike_id":"4ad02f92-df1e-4602-9f5a-fe2c45a4c428","system_id":"levelo_inurba_marseille","lat":43.28081,"lon":5.39655,"is_reserved":false,"is_disabled":false,"rental_uris":{"android":"levelo://app?vid=4ad02f92-df1e-4602-9f5a-fe2c45a4c428","ios":"levelo://app?vid=4ad02f92-df1e-4602-9f5a-fe2c45a4c428"},"vehicle_type_id":"4","last_reported":1742487180,"current_range_meters":11600,"station_id":"ce4bho12rcd13ifvqh2g","pricing_plan_id":"cebpf4jnsgd1na2vs0mg"},{"bike_id":"10040ff5-09c7-4549-9697-fbeae20cf216","system_id":"levelo_inurba_marseille","lat":43.24656,"lon":5.38892,"is_reserved":false,"is_disabled":false,"rental_uris":{"android":"levelo://app?vid=10040ff5-09c7-4549-9697-fbeae20cf216","ios":"levelo://app?vid=10040ff5-09c7-4549-9697-fbeae20cf216"},"vehicle_type_id":"4","last_reported":1742487180,"current_range_meters":11600,"station_id":"ce4bhg12rcd13ifvqf60","pricing_plan_id":"cebpf4jnsgd1na2vs0mg"},{"bike_id":"777d259c-3aff-4e1d-a0c8-7abb9a149cbe","system_id":"levelo_inurba_marseille","lat":43.28661,"lon":5.3635,"is_reserved":false,"is_disabled":false,"rental_uris":{"android":"levelo://app?vid=777d259c-3aff-4e1d-a0c8-7abb9a149cbe","ios":"levelo://app?vid=777d259c-3aff-4e1d-a0c8-7abb9a149cbe"},"vehicle_type_id":"4","last_reported":1742487180,"current_range_meters":11600,"station_id":"ce4bhah2rcd13ifvqej0","pricing_plan_id":"cebpf4jnsgd1na2vs0mg"},{"bike_id":"563ee584-476e-43f4-83dc-52890f9997a1","system_id":"levelo_inurba_marseille","lat":43.25584,"lon":5.38242,"is_reserved":false,"is_disabled":false,"rental_uris":{"android":"levelo://app?vid=563ee584-476e-43f4-83dc-52890f9997a1","ios":"levelo://app?vid=563ee584-476e-43f4-83dc-52890f9997a1"},"vehicle_type_id":"4","last_reported":1742487180,"current_range_meters":11600,"station_id":"ce4bhih2rcd13ifvqfs0","pricing_plan_id":"cebpf4jnsgd1na2vs0mg"},{"bike_id":"c914c58e-ae12-4444-9779-79b8a916e1ef","system_id":"levelo_inurba_marseille","lat":43.25113,"lon":5.4032,"is_reserved":false,"is_disabled":false,"rental_uris":{"android":"levelo://app?vid=c914c58e-ae12-4444-9779-79b8a916e1ef","ios":"levelo://app?vid=c914c58e-ae12-4444-9779-79b8a916e1ef"},"vehicle_type_id":"4","last_reported":1742487180,"current_range_meters":11600,"station_id":"ce4bhlh2rcd13ifvqgig","pricing_plan_id":"cebpf4jnsgd1na2vs0mg"},{"bike_id":"24ea597e-5efe-4b0e-b607-64144170e3ec","system_id":"levelo_inurba_marseille","lat":43.28741,"lon":5.37949,"is_reserved":false,"is_disabled":false,"rental_uris":{"android":"levelo://app?vid=24ea597e-5efe-4b0e-b607-64144170e3ec","ios":"levelo://app?vid=24ea597e-5efe-4b0e-b607-64144170e3ec"},"vehicle_type_id":"4","last_reported":1742487180,"current_range_meters":12000,"station_id":"ce4bh9p2rcd13ifvqec0","pricing_plan_id":"cebpf4jnsgd1na2vs0mg"},{"bike_id":"61beb19c-cd23-4ff0-b7fe-ad927d04e3f2","system_id":"levelo_inurba_marseille","lat":43.2887,"lon":5.35849,"is_reserved":false,"is_disabled":false,"rental_uris":{"android":"levelo://app?vid=61beb19c-cd23-4ff0-b7fe-ad927d04e3f2","ios":"levelo://app?vid=61beb19c-cd23-4ff0-b7fe-ad927d04e3f2"},"vehicle_type_id":"4","last_reported":1742487180,"current_range_meters":12000,"station_id":"ce4bhb12rcd13ifvqem0","pricing_plan_id":"cebpf4jnsgd1na2vs0mg"},{"bike_id":"1c3b5361-695c-4ccc-94f9-aca7f37b6d45","system_id":"levelo_inurba_marseille","lat":43.23193,"lon":5.35557,"is_reserved":false,"is_disabled":false,"rental_uris":{"android":"levelo://app?vid=1c3b5361-695c-4ccc-94f9-aca7f37b6d45","ios":"levelo://app?vid=1c3b5361-695c-4ccc-94f9-aca7f37b6d45"},"vehicle_type_id":"4","last_reported":1742487180,"current_range_meters":12400,"station_id":"ce4bhu92rcd13ifvqi70","pricing_plan_id":"cebpf4jnsgd1na2vs0mg"},{"bike_id":"89931dd0-537e-48bf-be5a-31a31475b33b","system_id":"levelo_inurba_marseille","lat":43.303,"lon":5.36889,"is_reserved":false,"is_disabled":false,"rental_uris":{"android":"levelo://app?vid=89931dd0-537e-48bf-be5a-31a31475b33b","ios":"levelo://app?vid=89931dd0-537e-48bf-be5a-31a31475b33b"},"vehicle_type_id":"4","last_reported":1742487180,"current_range_meters":12400,"station_id":"ce4bgqh2rcd13ifvqc5g","pricing_plan_id":"cebpf4jnsgd1na2vs0mg"},{"bike_id":"1295e912-beee-47fe-a5c8-2ae149d6d129","system_id":"levelo_inurba_marseille","lat":43.31627,"lon":5.37965,"is_reserved":false,"is_disabled":false,"rental_uris":{"android":"levelo://app?vid=1295e912-beee-47fe-a5c8-2ae149d6d129","ios":"levelo://app?vid=1295e912-beee-47fe-a5c8-2ae149d6d129"},"vehicle_type_id":"4","last_reported":1742487180,"current_range_meters":12400,"station_id":"","pricing_plan_id":"cebpf4jnsgd1na2vs0mg"},{"bike_id":"bd2debbc-a04d-408f-8590-e4cf67a8484c","system_id":"levelo_inurba_marseille","lat":43.32337,"lon":5.4062,"is_reserved":false,"is_disabled":false,"rental_uris":{"android":"levelo://app?vid=bd2debbc-a04d-408f-8590-e4cf67a8484c","ios":"levelo://app?vid=bd2debbc-a04d-408f-8590-e4cf67a8484c"},"vehicle_type_id":"4","last_reported":1742487180,"current_range_meters":12400,"station_id":"ce4bhq92rcd13ifvqhjg","pricing_plan_id":"cebpf4jnsgd1na2vs0mg"},{"bike_id":"33eac996-04c1-4244-862e-d262aa2b7f9f","system_id":"levelo_inurba_marseille","lat":43.29925,"lon":5.36502,"is_reserved":false,"is_disabled":false,"rental_uris":{"android":"levelo://app?vid=33eac996-04c1-4244-862e-d262aa2b7f9f","ios":"levelo://app?vid=33eac996-04c1-4244-862e-d262aa2b7f9f"},"vehicle_type_id":"4","last_reported":1742487180,"current_range_meters":12400,"station_id":"ce4bgm92rcd13ifvqbr0","pricing_plan_id":"cebpf4jnsgd1na2vs0mg"},{"bike_id":"83fe4b7d-c313-402b-a1b1-9f765824d193","system_id":"levelo_inurba_marseille","lat":43.26207,"lon":5.37458,"is_reserved":false,"is_disabled":false,"rental_uris":{"android":"levelo://app?vid=83fe4b7d-c313-402b-a1b1-9f765824d193","ios":"levelo://app?vid=83fe4b7d-c313-402b-a1b1-9f765824d193"},"vehicle_type_id":"4","last_reported":1742487180,"current_range_meters":12400,"station_id":"ce4bhgp2rcd13ifvqfc0","pricing_plan_id":"cebpf4jnsgd1na2vs0mg"},{"bike_id":"cc00e5b3-2a31-4078-a29d-cb6df9efbfb2","system_id":"levelo_inurba_marseille","lat":43.229675,"lon":5.35432,"is_reserved":false,"is_disabled":false,"rental_uris":{"android":"levelo://app?vid=cc00e5b3-2a31-4078-a29d-cb6df9efbfb2","ios":"levelo://app?vid=cc00e5b3-2a31-4078-a29d-cb6df9efbfb2"},"vehicle_type_id":"4","last_reported":1742487180,"current_range_meters":12800,"station_id":"ce4bhu92rcd13ifvqi70","pricing_plan_id":"cebpf4jnsgd1na2vs0mg"},{"bike_id":"be57c311-f7b3-4df5-9fb1-8dbee6c30321","system_id":"levelo_inurba_marseille","lat":43.239655,"lon":5.366197,"is_reserved":false,"is_disabled":false,"rental_uris":{"android":"levelo://app?vid=be57c311-f7b3-4df5-9fb1-8dbee6c30321","ios":"levelo://app?vid=be57c311-f7b3-4df5-9fb1-8dbee6c30321"},"vehicle_type_id":"4","last_reported":1742487180,"current_range_meters":12800,"station_id":"ce4bgk12rcd13ifvqbi0","pricing_plan_id":"cebpf4jnsgd1na2vs0mg"},{"bike_id":"2678929a-312d-4089-b116-1e816de7db90","system_id":"levelo_inurba_marseille","lat":43.32109,"lon":5.36773,"is_reserved":false,"is_disabled":false,"rental_uris":{"android":"levelo://app?vid=2678929a-312d-4089-b116-1e816de7db90","ios":"levelo://app?vid=2678929a-312d-4089-b116-1e816de7db90"},"vehicle_type_id":"4","last_reported":1742487180,"current_range_meters":12800,"station_id":"ce4bhrh2rcd13ifvqhug","pricing_plan_id":"cebpf4jnsgd1na2vs0mg"},{"bike_id":"35b0018b-cfae-4abe-b408-c50fb94c9dcf","system_id":"levelo_inurba_marseille","lat":43.30532,"lon":5.36539,"is_reserved":false,"is_disabled":false,"rental_uris":{"android":"levelo://app?vid=35b0018b-cfae-4abe-b408-c50fb94c9dcf","ios":"levelo://app?vid=35b0018b-cfae-4abe-b408-c50fb94c9dcf"},"vehicle_type_id":"4","last_reported":1742487180,"current_range_meters":12800,"station_id":"ce4bgs12rcd13ifvqcag","pricing_plan_id":"cebpf4jnsgd1na2vs0mg"},{"bike_id":"495eb305-673f-45fe-9a5f-98c76a08b604","system_id":"levelo_inurba_marseille","lat":43.28799,"lon":5.35858,"is_reserved":false,"is_disabled":false,"rental_uris":{"android":"levelo://app?vid=495eb305-673f-45fe-9a5f-98c76a08b604","ios":"levelo://app?vid=495eb305-673f-45fe-9a5f-98c76a08b604"},"vehicle_type_id":"4","last_reported":1742487180,"current_range_meters":12800,"station_id":"","pricing_plan_id":"cebpf4jnsgd1na2vs0mg"},{"bike_id":"6bb71293-893a-445a-981a-dd86f726209b","system_id":"levelo_inurba_marseille","lat":43.28621,"lon":5.35115,"is_reserved":false,"is_disabled":false,"rental_uris":{"android":"levelo://app?vid=6bb71293-893a-445a-981a-dd86f726209b","ios":"levelo://app?vid=6bb71293-893a-445a-981a-dd86f726209b"},"vehicle_type_id":"4","last_reported":1742487180,"current_range_meters":13600,"station_id":"ce4bhch2rcd13ifvqeug","pricing_plan_id":"cebpf4jnsgd1na2vs0mg"},{"bike_id":"2666ae67-7da0-4e2f-946c-9e093a3ed98f","system_id":"levelo_inurba_marseille","lat":43.2817,"lon":5.39179,"is_reserved":false,"is_disabled":false,"rental_uris":{"android":"levelo://app?vid=2666ae67-7da0-4e2f-946c-9e093a3ed98f","ios":"levelo://app?vid=2666ae67-7da0-4e2f-946c-9e093a3ed98f"},"vehicle_type_id":"4","last_reported":1742487180,"current_range_meters":13600,"station_id":"ce4bhgp2rcd13ifvqfe0","pricing_plan_id":"cebpf4jnsgd1na2vs0mg"},{"bike_id":"2c6ec5b8-10b6-419d-8412-c1690a480f55","system_id":"levelo_inurba_marseille","lat":43.27903,"lon":5.38011,"is_reserved":false,"is_disabled":false,"rental_uris":{"android":"levelo://app?vid=2c6ec5b8-10b6-419d-8412-c1690a480f55","ios":"levelo://app?vid=2c6ec5b8-10b6-419d-8412-c1690a480f55"},"vehicle_type_id":"4","last_reported":1742487180,"current_range_meters":12800,"station_id":"ce4bhf92rcd13ifvqf50","pricing_plan_id":"cebpf4jnsgd1na2vs0mg"},{"bike_id":"8d8cf311-25e2-4802-a568-5c3b5820d440","system_id":"levelo_inurba_marseille","lat":43.29256,"lon":5.37621,"is_reserved":false,"is_disabled":false,"rental_uris":{"android":"levelo://app?vid=8d8cf311-25e2-4802-a568-5c3b5820d440","ios":"levelo://app?vid=8d8cf311-25e2-4802-a568-5c3b5820d440"},"vehicle_type_id":"4","last_reported":1742487180,"current_range_meters":13600,"station_id":"ce4bgi12rcd13ifvqb80","pricing_plan_id":"cebpf4jnsgd1na2vs0mg"},{"bike_id":"e5aa7dd4-d37e-4309-b217-eaa18ab0d609","system_id":"levelo_inurba_marseille","lat":43.28643,"lon":5.35021,"is_reserved":false,"is_disabled":false,"rental_uris":{"android":"levelo://app?vid=e5aa7dd4-d37e-4309-b217-eaa18ab0d609","ios":"levelo://app?vid=e5aa7dd4-d37e-4309-b217-eaa18ab0d609"},"vehicle_type_id":"4","last_reported":1742487180,"current_range_meters":13600,"station_id":"ce4bhch2rcd13ifvqeug","pricing_plan_id":"cebpf4jnsgd1na2vs0mg"},{"bike_id":"c24d9f67-ee61-4261-b17d-f7544fd66cff","system_id":"levelo_inurba_marseille","lat":43.28438,"lon":5.39184,"is_reserved":false,"is_disabled":false,"rental_uris":{"android":"levelo://app?vid=c24d9f67-ee61-4261-b17d-f7544fd66cff","ios":"levelo://app?vid=c24d9f67-ee61-4261-b17d-f7544fd66cff"},"vehicle_type_id":"4","last_reported":1742487180,"current_range_meters":13600,"station_id":"ce4bhoh2rcd13ifvqh5g","pricing_plan_id":"cebpf4jnsgd1na2vs0mg"},{"bike_id":"6ece9270-e15a-4127-9c0f-c9850b0a17d2","system_id":"levelo_inurba_marseille","lat":43.2861,"lon":5.37059,"is_reserved":false,"is_disabled":false,"rental_uris":{"android":"levelo://app?vid=6ece9270-e15a-4127-9c0f-c9850b0a17d2","ios":"levelo://app?vid=6ece9270-e15a-4127-9c0f-c9850b0a17d2"},"vehicle_type_id":"4","last_reported":1742487180,"current_range_meters":14000,"station_id":"ce4bht12rcd13ifvqi60","pricing_plan_id":"cebpf4jnsgd1na2vs0mg"},{"bike_id":"bf5d7bdb-65a8-4310-b955-6a76e2cbd7fe","system_id":"levelo_inurba_marseille","lat":43.33768,"lon":5.3912,"is_reserved":false,"is_disabled":false,"rental_uris":{"android":"levelo://app?vid=bf5d7bdb-65a8-4310-b955-6a76e2cbd7fe","ios":"levelo://app?vid=bf5d7bdb-65a8-4310-b955-6a76e2cbd7fe"},"vehicle_type_id":"4","last_reported":1742487180,"current_range_meters":14000,"station_id":"","pricing_plan_id":"cebpf4jnsgd1na2vs0mg"},{"bike_id":"a67c54b6-5ce9-4632-8070-5ca7d5b7fc9e","system_id":"levelo_inurba_marseille","lat":43.23058,"lon":5.35496,"is_reserved":false,"is_disabled":false,"rental_uris":{"android":"levelo://app?vid=a67c54b6-5ce9-4632-8070-5ca7d5b7fc9e","ios":"levelo://app?vid=a67c54b6-5ce9-4632-8070-5ca7d5b7fc9e"},"vehicle_type_id":"4","last_reported":1742487180,"current_range_meters":14000,"station_id":"cpo3342slgdg3j2ifvpg","pricing_plan_id":"cebpf4jnsgd1na2vs0mg"},{"bike_id":"dedef285-0edb-4e3b-bfb2-6d2ae02cf774","system_id":"levelo_inurba_marseille","lat":43.30137,"lon":5.38079,"is_reserved":false,"is_disabled":false,"rental_uris":{"android":"levelo://app?vid=dedef285-0edb-4e3b-bfb2-6d2ae02cf774","ios":"levelo://app?vid=dedef285-0edb-4e3b-bfb2-6d2ae02cf774"},"vehicle_type_id":"4","last_reported":1742487180,"current_range_meters":14000,"station_id":"ce4bgjp2rcd13ifvqbh0","pricing_plan_id":"cebpf4jnsgd1na2vs0mg"},{"bike_id":"1d4db06c-30b3-44e6-85a0-9f776949b4f1","system_id":"levelo_inurba_marseille","lat":43.24665,"lon":5.38158,"is_reserved":false,"is_disabled":false,"rental_uris":{"android":"levelo://app?vid=1d4db06c-30b3-44e6-85a0-9f776949b4f1","ios":"levelo://app?vid=1d4db06c-30b3-44e6-85a0-9f776949b4f1"},"vehicle_type_id":"4","last_reported":1742487180,"current_range_meters":14000,"station_id":"ce4bhih2rcd13ifvqfr0","pricing_plan_id":"cebpf4jnsgd1na2vs0mg"},{"bike_id":"43e5ed76-b877-4467-a192-8a53b6368cc0","system_id":"levelo_inurba_marseille","lat":43.25497,"lon":5.37646,"is_reserved":false,"is_disabled":false,"rental_uris":{"android":"levelo://app?vid=43e5ed76-b877-4467-a192-8a53b6368cc0","ios":"levelo://app?vid=43e5ed76-b877-4467-a192-8a53b6368cc0"},"vehicle_type_id":"4","last_reported":1742487180,"current_range_meters":13600,"station_id":"ce4bhh12rcd13ifvqff0","pricing_plan_id":"cebpf4jnsgd1na2vs0mg"},{"bike_id":"120584f9-2a17-4486-a091-5117f620b7a9","system_id":"levelo_inurba_marseille","lat":43.31761,"lon":5.39012,"is_reserved":false,"is_disabled":false,"rental_uris":{"android":"levelo://app?vid=120584f9-2a17-4486-a091-5117f620b7a9","ios":"levelo://app?vid=120584f9-2a17-4486-a091-5117f620b7a9"},"vehicle_type_id":"4","last_reported":1742487180,"current_range_meters":14400,"station_id":"ce4bhqp2rcd13ifvqhng","pricing_plan_id":"cebpf4jnsgd1na2vs0mg"},{"bike_id":"a1ff1f82-9b6e-4060-80d4-ee6e5f9ca134","system_id":"levelo_inurba_marseille","lat":43.2998,"lon":5.38487,"is_reserved":false,"is_disabled":false,"rental_uris":{"android":"levelo://app?vid=a1ff1f82-9b6e-4060-80d4-ee6e5f9ca134","ios":"levelo://app?vid=a1ff1f82-9b6e-4060-80d4-ee6e5f9ca134"},"vehicle_type_id":"4","last_reported":1742487180,"current_range_meters":14400,"station_id":"ce4bgj92rcd13ifvqbd0","pricing_plan_id":"cebpf4jnsgd1na2vs0mg"},{"bike_id":"b2258fb1-1895-421d-9d4b-af7fb8e0c04b","system_id":"levelo_inurba_marseille","lat":43.26208,"lon":5.37438,"is_reserved":false,"is_disabled":false,"rental_uris":{"android":"levelo://app?vid=b2258fb1-1895-421d-9d4b-af7fb8e0c04b","ios":"levelo://app?vid=b2258fb1-1895-421d-9d4b-af7fb8e0c04b"},"vehicle_type_id":"4","last_reported":1742487180,"current_range_meters":14400,"station_id":"ce4bhgp2rcd13ifvqfc0","pricing_plan_id":"cebpf4jnsgd1na2vs0mg"},{"bike_id":"9ab7874a-2876-4c5b-918a-b308f13dd17c","system_id":"levelo_inurba_marseille","lat":43.29942,"lon":5.36532,"is_reserved":false,"is_disabled":false,"rental_uris":{"android":"levelo://app?vid=9ab7874a-2876-4c5b-918a-b308f13dd17c","ios":"levelo://app?vid=9ab7874a-2876-4c5b-918a-b308f13dd17c"},"vehicle_type_id":"4","last_reported":1742487180,"current_range_meters":14400,"station_id":"ce4bgm92rcd13ifvqbr0","pricing_plan_id":"cebpf4jnsgd1na2vs0mg"},{"bike_id":"e795d3cc-97db-4e6e-99aa-82acacd9927e","system_id":"levelo_inurba_marseille","lat":43.27818,"lon":5.40712,"is_reserved":false,"is_disabled":false,"rental_uris":{"android":"levelo://app?vid=e795d3cc-97db-4e6e-99aa-82acacd9927e","ios":"levelo://app?vid=e795d3cc-97db-4e6e-99aa-82acacd9927e"},"vehicle_type_id":"4","last_reported":1742487180,"current_range_meters":14400,"station_id":"ce4bhnh2rcd13ifvqgtg","pricing_plan_id":"cebpf4jnsgd1na2vs0mg"},{"bike_id":"3b4607c3-f79c-41fe-a61b-082f7b16d761","system_id":"levelo_inurba_marseille","lat":43.28423,"lon":5.3498,"is_reserved":false,"is_disabled":false,"rental_uris":{"android":"levelo://app?vid=3b4607c3-f79c-41fe-a61b-082f7b16d761","ios":"levelo://app?vid=3b4607c3-f79c-41fe-a61b-082f7b16d761"},"vehicle_type_id":"4","last_reported":1742487180,"current_range_meters":14400,"station_id":"ce4bhbh2rcd13ifvqepg","pricing_plan_id":"cebpf4jnsgd1na2vs0mg"},{"bike_id":"1c842d54-2b7e-411a-baac-27fd618236b9","system_id":"levelo_inurba_marseille","lat":43.27062,"lon":5.40262,"is_reserved":false,"is_disabled":false,"rental_uris":{"android":"levelo://app?vid=1c842d54-2b7e-411a-baac-27fd618236b9","ios":"levelo://app?vid=1c842d54-2b7e-411a-baac-27fd618236b9"},"vehicle_type_id":"4","last_reported":1742487180,"current_range_meters":14400,"station_id":"ce4bhk92rcd13ifvqgc0","pricing_plan_id":"cebpf4jnsgd1na2vs0mg"},{"bike_id":"51d0ef6c-34f0-40ca-b806-a1b7cc4965cb","system_id":"levelo_inurba_marseille","lat":43.29024,"lon":5.38644,"is_reserved":false,"is_disabled":false,"rental_uris":{"android":"levelo://app?vid=51d0ef6c-34f0-40ca-b806-a1b7cc4965cb","ios":"levelo://app?vid=51d0ef6c-34f0-40ca-b806-a1b7cc4965cb"},"vehicle_type_id":"4","last_reported":1742487180,"current_range_meters":14400,"station_id":"ce4bh4p2rcd13ifvqe0g","pricing_plan_id":"cebpf4jnsgd1na2vs0mg"},{"bike_id":"e73729bd-557a-4549-896c-92c5651c4983","system_id":"levelo_inurba_marseille","lat":43.29802,"lon":5.40401,"is_reserved":false,"is_disabled":false,"rental_uris":{"android":"levelo://app?vid=e73729bd-557a-4549-896c-92c5651c4983","ios":"levelo://app?vid=e73729bd-557a-4549-896c-92c5651c4983"},"vehicle_type_id":"4","last_reported":1742487180,"current_range_meters":14000,"station_id":"ce4bh112rcd13ifvqd90","pricing_plan_id":"cebpf4jnsgd1na2vs0mg"},{"bike_id":"6e52c562-04ee-46a8-98b3-1119be6518a3","system_id":"levelo_inurba_marseille","lat":43.279,"lon":5.38018,"is_reserved":false,"is_disabled":false,"rental_uris":{"android":"levelo://app?vid=6e52c562-04ee-46a8-98b3-1119be6518a3","ios":"levelo://app?vid=6e52c562-04ee-46a8-98b3-1119be6518a3"},"vehicle_type_id":"4","last_reported":1742487180,"current_range_meters":14000,"station_id":"ce4bhf92rcd13ifvqf50","pricing_plan_id":"cebpf4jnsgd1na2vs0mg"},{"bike_id":"24d2e582-cd13-45af-872e-42a2a7a0962e","system_id":"levelo_inurba_marseille","lat":43.29025,"lon":5.38646,"is_reserved":false,"is_disabled":false,"rental_uris":{"android":"levelo://app?vid=24d2e582-cd13-45af-872e-42a2a7a0962e","ios":"levelo://app?vid=24d2e582-cd13-45af-872e-42a2a7a0962e"},"vehicle_type_id":"4","last_reported":1742487180,"current_range_meters":14400,"station_id":"ce4bh4p2rcd13ifvqe0g","pricing_plan_id":"cebpf4jnsgd1na2vs0mg"},{"bike_id":"aba7a31c-d1db-4bb4-ba56-e84838fed699","system_id":"levelo_inurba_marseille","lat":43.2465,"lon":5.38898,"is_reserved":false,"is_disabled":false,"rental_uris":{"android":"levelo://app?vid=aba7a31c-d1db-4bb4-ba56-e84838fed699","ios":"levelo://app?vid=aba7a31c-d1db-4bb4-ba56-e84838fed699"},"vehicle_type_id":"4","last_reported":1742487180,"current_range_meters":14400,"station_id":"ce4bhg12rcd13ifvqf60","pricing_plan_id":"cebpf4jnsgd1na2vs0mg"},{"bike_id":"246272dc-2b2f-4a32-8317-e56c7c99cd46","system_id":"levelo_inurba_marseille","lat":43.26942,"lon":5.40246,"is_reserved":false,"is_disabled":false,"rental_uris":{"android":"levelo://app?vid=246272dc-2b2f-4a32-8317-e56c7c99cd46","ios":"levelo://app?vid=246272dc-2b2f-4a32-8317-e56c7c99cd46"},"vehicle_type_id":"4","last_reported":1742487180,"current_range_meters":14800,"station_id":"cjm6bp8fraef2m0cb0m0","pricing_plan_id":"cebpf4jnsgd1na2vs0mg"},{"bike_id":"2192697b-3e2c-4184-aef8-1e13684aa3fc","system_id":"levelo_inurba_marseille","lat":43.29872,"lon":5.38894,"is_reserved":false,"is_disabled":false,"rental_uris":{"android":"levelo://app?vid=2192697b-3e2c-4184-aef8-1e13684aa3fc","ios":"levelo://app?vid=2192697b-3e2c-4184-aef8-1e13684aa3fc"},"vehicle_type_id":"4","last_reported":1742487180,"current_range_meters":14800,"station_id":"ce4bh392rcd13ifvqdl0","pricing_plan_id":"cebpf4jnsgd1na2vs0mg"},{"bike_id":"15ecf1da-a7e5-4f8a-a83b-5761a6e31ae3","system_id":"levelo_inurba_marseille","lat":43.231171,"lon":5.355029,"is_reserved":false,"is_disabled":false,"rental_uris":{"android":"levelo://app?vid=15ecf1da-a7e5-4f8a-a83b-5761a6e31ae3","ios":"levelo://app?vid=15ecf1da-a7e5-4f8a-a83b-5761a6e31ae3"},"vehicle_type_id":"4","last_reported":1742487180,"current_range_meters":14800,"station_id":"ce4bhu92rcd13ifvqi70","pricing_plan_id":"cebpf4jnsgd1na2vs0mg"},{"bike_id":"c239b307-a42c-4cfd-b5fc-105d04a3256f","system_id":"levelo_inurba_marseille","lat":43.23955,"lon":5.36622,"is_reserved":false,"is_disabled":false,"rental_uris":{"android":"levelo://app?vid=c239b307-a42c-4cfd-b5fc-105d04a3256f","ios":"levelo://app?vid=c239b307-a42c-4cfd-b5fc-105d04a3256f"},"vehicle_type_id":"4","last_reported":1742487180,"current_range_meters":15200,"station_id":"ce4bhi12rcd13ifvqfp0","pricing_plan_id":"cebpf4jnsgd1na2vs0mg"},{"bike_id":"a1041188-6377-4dc0-808b-553dfa8836d0","system_id":"levelo_inurba_marseille","lat":43.30531,"lon":5.36538,"is_reserved":false,"is_disabled":false,"rental_uris":{"android":"levelo://app?vid=a1041188-6377-4dc0-808b-553dfa8836d0","ios":"levelo://app?vid=a1041188-6377-4dc0-808b-553dfa8836d0"},"vehicle_type_id":"4","last_reported":1742487180,"current_range_meters":15200,"station_id":"ce4bgs12rcd13ifvqcag","pricing_plan_id":"cebpf4jnsgd1na2vs0mg"},{"bike_id":"70546797-1d75-4a7f-82b9-c05161c15bb4","system_id":"levelo_inurba_marseille","lat":43.33026,"lon":5.39038,"is_reserved":false,"is_disabled":false,"rental_uris":{"android":"levelo://app?vid=70546797-1d75-4a7f-82b9-c05161c15bb4","ios":"levelo://app?vid=70546797-1d75-4a7f-82b9-c05161c15bb4"},"vehicle_type_id":"4","last_reported":1742487180,"current_range_meters":15200,"station_id":"ce4bhr92rcd13ifvqhrg","pricing_plan_id":"cebpf4jnsgd1na2vs0mg"},{"bike_id":"a81e7547-55d7-4c1c-a724-2c96fce552a8","system_id":"levelo_inurba_marseille","lat":43.23954,"lon":5.36635,"is_reserved":false,"is_disabled":false,"rental_uris":{"android":"levelo://app?vid=a81e7547-55d7-4c1c-a724-2c96fce552a8","ios":"levelo://app?vid=a81e7547-55d7-4c1c-a724-2c96fce552a8"},"vehicle_type_id":"4","last_reported":1742487180,"current_range_meters":15200,"station_id":"ce4bhi12rcd13ifvqfp0","pricing_plan_id":"cebpf4jnsgd1na2vs0mg"},{"bike_id":"9b513519-6571-4512-9426-8178711eafb7","system_id":"levelo_inurba_marseille","lat":43.29452,"lon":5.39749,"is_reserved":false,"is_disabled":true,"rental_uris":{"android":"levelo://app?vid=9b513519-6571-4512-9426-8178711eafb7","ios":"levelo://app?vid=9b513519-6571-4512-9426-8178711eafb7"},"vehicle_type_id":"4","last_reported":1742487180,"current_range_meters":15200,"station_id":"ce4bh3h2rcd13ifvqdo0","pricing_plan_id":"cebpf4jnsgd1na2vs0mg"},{"bike_id":"d466a903-6071-4e59-b1ef-4ffaa43c5848","system_id":"levelo_inurba_marseille","lat":43.28464,"lon":5.35875,"is_reserved":false,"is_disabled":false,"rental_uris":{"android":"levelo://app?vid=d466a903-6071-4e59-b1ef-4ffaa43c5848","ios":"levelo://app?vid=d466a903-6071-4e59-b1ef-4ffaa43c5848"},"vehicle_type_id":"4","last_reported":1742487180,"current_range_meters":16000,"station_id":"ce4bhah2rcd13ifvqei0","pricing_plan_id":"cebpf4jnsgd1na2vs0mg"},{"bike_id":"5aaffbf1-0195-45a0-9700-484a2fabd484","system_id":"levelo_inurba_marseille","lat":43.31068,"lon":5.38375,"is_reserved":false,"is_disabled":false,"rental_uris":{"android":"levelo://app?vid=5aaffbf1-0195-45a0-9700-484a2fabd484","ios":"levelo://app?vid=5aaffbf1-0195-45a0-9700-484a2fabd484"},"vehicle_type_id":"4","last_reported":1742487180,"current_range_meters":16000,"station_id":"ce4bgv92rcd13ifvqcr0","pricing_plan_id":"cebpf4jnsgd1na2vs0mg"},{"bike_id":"d7b8a76a-1f16-487d-8130-40c4274b0bfd","system_id":"levelo_inurba_marseille","lat":43.28659,"lon":5.36336,"is_reserved":false,"is_disabled":false,"rental_uris":{"android":"levelo://app?vid=d7b8a76a-1f16-487d-8130-40c4274b0bfd","ios":"levelo://app?vid=d7b8a76a-1f16-487d-8130-40c4274b0bfd"},"vehicle_type_id":"4","last_reported":1742487180,"current_range_meters":16000,"station_id":"ce4bhah2rcd13ifvqej0","pricing_plan_id":"cebpf4jnsgd1na2vs0mg"},{"bike_id":"b643cb55-35d1-402a-b1cd-3fb2233cca96","system_id":"levelo_inurba_marseille","lat":43.26682,"lon":5.3827,"is_reserved":false,"is_disabled":false,"rental_uris":{"android":"levelo://app?vid=b643cb55-35d1-402a-b1cd-3fb2233cca96","ios":"levelo://app?vid=b643cb55-35d1-402a-b1cd-3fb2233cca96"},"vehicle_type_id":"4","last_reported":1742487180,"current_range_meters":16000,"station_id":"ce4bhg92rcd13ifvqf90","pricing_plan_id":"cebpf4jnsgd1na2vs0mg"},{"bike_id":"1473e9d2-e028-4f9d-ac55-35772ae4cb99","system_id":"levelo_inurba_marseille","lat":43.29167,"lon":5.37161,"is_reserved":false,"is_disabled":false,"rental_uris":{"android":"levelo://app?vid=1473e9d2-e028-4f9d-ac55-35772ae4cb99","ios":"levelo://app?vid=1473e9d2-e028-4f9d-ac55-35772ae4cb99"},"vehicle_type_id":"4","last_reported":1742487180,"current_range_meters":15200,"station_id":"ce4bha92rcd13ifvqeh0","pricing_plan_id":"cebpf4jnsgd1na2vs0mg"},{"bike_id":"15c04b88-d898-4f59-9522-4058565a4835","system_id":"levelo_inurba_marseille","lat":43.23194,"lon":5.35549,"is_reserved":false,"is_disabled":false,"rental_uris":{"android":"levelo://app?vid=15c04b88-d898-4f59-9522-4058565a4835","ios":"levelo://app?vid=15c04b88-d898-4f59-9522-4058565a4835"},"vehicle_type_id":"4","last_reported":1742487180,"current_range_meters":16000,"station_id":"ce4bhu92rcd13ifvqi70","pricing_plan_id":"cebpf4jnsgd1na2vs0mg"},{"bike_id":"53e438fa-dedb-4d74-83bd-4285ba9df014","system_id":"levelo_inurba_marseille","lat":43.26023,"lon":5.41746,"is_reserved":false,"is_disabled":false,"rental_uris":{"android":"levelo://app?vid=53e438fa-dedb-4d74-83bd-4285ba9df014","ios":"levelo://app?vid=53e438fa-dedb-4d74-83bd-4285ba9df014"},"vehicle_type_id":"4","last_reported":1742487180,"current_range_meters":16000,"station_id":"","pricing_plan_id":"cebpf4jnsgd1na2vs0mg"},{"bike_id":"addc9e43-cb17-41f3-a0d8-a264d0dc9a57","system_id":"levelo_inurba_marseille","lat":43.34863,"lon":5.38107,"is_reserved":false,"is_disabled":false,"rental_uris":{"android":"levelo://app?vid=addc9e43-cb17-41f3-a0d8-a264d0dc9a57","ios":"levelo://app?vid=addc9e43-cb17-41f3-a0d8-a264d0dc9a57"},"vehicle_type_id":"4","last_reported":1742487180,"current_range_meters":16000,"station_id":"","pricing_plan_id":"cebpf4jnsgd1na2vs0mg"},{"bike_id":"8c3c6e64-a224-4b4f-b4f3-712e20d75b68","system_id":"levelo_inurba_marseille","lat":43.29885,"lon":5.39734,"is_reserved":false,"is_disabled":false,"rental_uris":{"android":"levelo://app?vid=8c3c6e64-a224-4b4f-b4f3-712e20d75b68","ios":"levelo://app?vid=8c3c6e64-a224-4b4f-b4f3-712e20d75b68"},"vehicle_type_id":"4","last_reported":1742487180,"current_range_meters":16000,"station_id":"ce4bh0h2rcd13ifvqd50","pricing_plan_id":"cebpf4jnsgd1na2vs0mg"},{"bike_id":"cd5951e7-d44a-4c61-a7e7-6c95a3e5673b","system_id":"levelo_inurba_marseille","lat":43.31691,"lon":5.40465,"is_reserved":false,"is_disabled":false,"rental_uris":{"android":"levelo://app?vid=cd5951e7-d44a-4c61-a7e7-6c95a3e5673b","ios":"levelo://app?vid=cd5951e7-d44a-4c61-a7e7-6c95a3e5673b"},"vehicle_type_id":"4","last_reported":1742487180,"current_range_meters":16000,"station_id":"ce4bh012rcd13ifvqd00","pricing_plan_id":"cebpf4jnsgd1na2vs0mg"},{"bike_id":"aca85f7e-b8a2-4870-b39b-b288e2417b85","system_id":"levelo_inurba_marseille","lat":43.324746,"lon":5.365532,"is_reserved":false,"is_disabled":false,"rental_uris":{"android":"levelo://app?vid=aca85f7e-b8a2-4870-b39b-b288e2417b85","ios":"levelo://app?vid=aca85f7e-b8a2-4870-b39b-b288e2417b85"},"vehicle_type_id":"4","last_reported":1742487180,"current_range_meters":16000,"station_id":"ce4bhs12rcd13ifvqhvg","pricing_plan_id":"cebpf4jnsgd1na2vs0mg"},{"bike_id":"ec8924c1-2957-4152-90a2-e07871ff928b","system_id":"levelo_inurba_marseille","lat":43.27427,"lon":5.39411,"is_reserved":false,"is_disabled":false,"rental_uris":{"android":"levelo://app?vid=ec8924c1-2957-4152-90a2-e07871ff928b","ios":"levelo://app?vid=ec8924c1-2957-4152-90a2-e07871ff928b"},"vehicle_type_id":"4","last_reported":1742487180,"current_range_meters":16000,"station_id":"ce4bhdp2rcd13ifvqf20","pricing_plan_id":"cebpf4jnsgd1na2vs0mg"},{"bike_id":"e492177b-e9ed-4cac-baed-0b7ba54277b7","system_id":"levelo_inurba_marseille","lat":43.29582,"lon":5.39976,"is_reserved":false,"is_disabled":false,"rental_uris":{"android":"levelo://app?vid=e492177b-e9ed-4cac-baed-0b7ba54277b7","ios":"levelo://app?vid=e492177b-e9ed-4cac-baed-0b7ba54277b7"},"vehicle_type_id":"4","last_reported":1742487180,"current_range_meters":16400,"station_id":"ce4bh312rcd13ifvqdj0","pricing_plan_id":"cebpf4jnsgd1na2vs0mg"},{"bike_id":"a5c386ac-249c-4b86-9396-ef94a5394a34","system_id":"levelo_inurba_marseille","lat":43.29911,"lon":5.37637,"is_reserved":false,"is_disabled":false,"rental_uris":{"android":"levelo://app?vid=a5c386ac-249c-4b86-9396-ef94a5394a34","ios":"levelo://app?vid=a5c386ac-249c-4b86-9396-ef94a5394a34"},"vehicle_type_id":"4","last_reported":1742487180,"current_range_meters":17200,"station_id":"","pricing_plan_id":"cebpf4jnsgd1na2vs0mg"},{"bike_id":"141e4538-1f64-4f7a-83b9-c8f36a5d0fbc","system_id":"levelo_inurba_marseille","lat":43.24174,"lon":5.36384,"is_reserved":false,"is_disabled":false,"rental_uris":{"android":"levelo://app?vid=141e4538-1f64-4f7a-83b9-c8f36a5d0fbc","ios":"levelo://app?vid=141e4538-1f64-4f7a-83b9-c8f36a5d0fbc"},"vehicle_type_id":"4","last_reported":1742487180,"current_range_meters":16400,"station_id":"cpo36qri1sfpv3e86is0","pricing_plan_id":"cebpf4jnsgd1na2vs0mg"},{"bike_id":"97a59dfd-a467-4107-b9ea-d52dc5e580ad","system_id":"levelo_inurba_marseille","lat":43.317,"lon":5.3772,"is_reserved":false,"is_disabled":false,"rental_uris":{"android":"levelo://app?vid=97a59dfd-a467-4107-b9ea-d52dc5e580ad","ios":"levelo://app?vid=97a59dfd-a467-4107-b9ea-d52dc5e580ad"},"vehicle_type_id":"4","last_reported":1742487180,"current_range_meters":16400,"station_id":"ce4bgth2rcd13ifvqch0","pricing_plan_id":"cebpf4jnsgd1na2vs0mg"},{"bike_id":"fbbb3028-b15b-4750-98dc-ac90972ecc9b","system_id":"levelo_inurba_marseille","lat":43.32104,"lon":5.36779,"is_reserved":false,"is_disabled":false,"rental_uris":{"android":"levelo://app?vid=fbbb3028-b15b-4750-98dc-ac90972ecc9b","ios":"levelo://app?vid=fbbb3028-b15b-4750-98dc-ac90972ecc9b"},"vehicle_type_id":"4","last_reported":1742487180,"current_range_meters":16400,"station_id":"ce4bhrh2rcd13ifvqhug","pricing_plan_id":"cebpf4jnsgd1na2vs0mg"},{"bike_id":"80858cef-2f22-42bc-b925-6c21ab1318aa","system_id":"levelo_inurba_marseille","lat":43.30795,"lon":5.43526,"is_reserved":false,"is_disabled":false,"rental_uris":{"android":"levelo://app?vid=80858cef-2f22-42bc-b925-6c21ab1318aa","ios":"levelo://app?vid=80858cef-2f22-42bc-b925-6c21ab1318aa"},"vehicle_type_id":"4","last_reported":1742487180,"current_range_meters":16400,"station_id":"ce4bhph2rcd13ifvqheg","pricing_plan_id":"cebpf4jnsgd1na2vs0mg"},{"bike_id":"edbe049a-5eb5-4254-9e35-267e02465ba2","system_id":"levelo_inurba_marseille","lat":43.28609,"lon":5.35103,"is_reserved":false,"is_disabled":false,"rental_uris":{"android":"levelo://app?vid=edbe049a-5eb5-4254-9e35-267e02465ba2","ios":"levelo://app?vid=edbe049a-5eb5-4254-9e35-267e02465ba2"},"vehicle_type_id":"4","last_reported":1742487180,"current_range_meters":16400,"station_id":"ce4bhch2rcd13ifvqeug","pricing_plan_id":"cebpf4jnsgd1na2vs0mg"},{"bike_id":"3e26cbf8-ea7c-4fbc-a23e-f98f8f0d5728","system_id":"levelo_inurba_marseille","lat":43.27375,"lon":5.36252,"is_reserved":false,"is_disabled":false,"rental_uris":{"android":"levelo://app?vid=3e26cbf8-ea7c-4fbc-a23e-f98f8f0d5728","ios":"levelo://app?vid=3e26cbf8-ea7c-4fbc-a23e-f98f8f0d5728"},"vehicle_type_id":"4","last_reported":1742487180,"current_range_meters":16400,"station_id":"ce4bhbh2rcd13ifvqeo0","pricing_plan_id":"cebpf4jnsgd1na2vs0mg"},{"bike_id":"c40cad6e-50ff-46e7-8ccd-6fea39167325","system_id":"levelo_inurba_marseille","lat":43.25935,"lon":5.40888,"is_reserved":false,"is_disabled":false,"rental_uris":{"android":"levelo://app?vid=c40cad6e-50ff-46e7-8ccd-6fea39167325","ios":"levelo://app?vid=c40cad6e-50ff-46e7-8ccd-6fea39167325"},"vehicle_type_id":"4","last_reported":1742487180,"current_range_meters":16400,"station_id":"ce4bhm92rcd13ifvqglg","pricing_plan_id":"cebpf4jnsgd1na2vs0mg"},{"bike_id":"09e54730-3ad2-419a-9317-3cefe8196151","system_id":"levelo_inurba_marseille","lat":43.27374,"lon":5.36251,"is_reserved":false,"is_disabled":false,"rental_uris":{"android":"levelo://app?vid=09e54730-3ad2-419a-9317-3cefe8196151","ios":"levelo://app?vid=09e54730-3ad2-419a-9317-3cefe8196151"},"vehicle_type_id":"4","last_reported":1742487180,"current_range_meters":16800,"station_id":"ce4bhbh2rcd13ifvqeo0","pricing_plan_id":"cebpf4jnsgd1na2vs0mg"},{"bike_id":"a06df953-ee24-4eee-acd9-cfb685fc1c62","system_id":"levelo_inurba_marseille","lat":43.31404,"lon":5.37438,"is_reserved":false,"is_disabled":false,"rental_uris":{"android":"levelo://app?vid=a06df953-ee24-4eee-acd9-cfb685fc1c62","ios":"levelo://app?vid=a06df953-ee24-4eee-acd9-cfb685fc1c62"},"vehicle_type_id":"4","last_reported":1742487180,"current_range_meters":16800,"station_id":"","pricing_plan_id":"cebpf4jnsgd1na2vs0mg"},{"bike_id":"2f608053-a475-4cd0-9217-fb6dc09de981","system_id":"levelo_inurba_marseille","lat":43.24651,"lon":5.38886,"is_reserved":false,"is_disabled":false,"rental_uris":{"android":"levelo://app?vid=2f608053-a475-4cd0-9217-fb6dc09de981","ios":"levelo://app?vid=2f608053-a475-4cd0-9217-fb6dc09de981"},"vehicle_type_id":"4","last_reported":1742487180,"current_range_meters":16800,"station_id":"ce4bhg12rcd13ifvqf60","pricing_plan_id":"cebpf4jnsgd1na2vs0mg"},{"bike_id":"52c16ac5-3447-4053-956c-78fc8bf0dc7c","system_id":"levelo_inurba_marseille","lat":43.32262,"lon":5.36666,"is_reserved":false,"is_disabled":false,"rental_uris":{"android":"levelo://app?vid=52c16ac5-3447-4053-956c-78fc8bf0dc7c","ios":"levelo://app?vid=52c16ac5-3447-4053-956c-78fc8bf0dc7c"},"vehicle_type_id":"4","last_reported":1742487180,"current_range_meters":16800,"station_id":"ce4bhsh2rcd13ifvqi2g","pricing_plan_id":"cebpf4jnsgd1na2vs0mg"},{"bike_id":"9f1c3e5c-869d-4869-b7c6-0c926f2da6bf","system_id":"levelo_inurba_marseille","lat":43.28347,"lon":5.39807,"is_reserved":false,"is_disabled":false,"rental_uris":{"android":"levelo://app?vid=9f1c3e5c-869d-4869-b7c6-0c926f2da6bf","ios":"levelo://app?vid=9f1c3e5c-869d-4869-b7c6-0c926f2da6bf"},"vehicle_type_id":"4","last_reported":1742487180,"current_range_meters":16800,"station_id":"","pricing_plan_id":"cebpf4jnsgd1na2vs0mg"},{"bike_id":"96029180-54ef-4379-bfaf-7e88c91090c2","system_id":"levelo_inurba_marseille","lat":43.3088,"lon":5.39646,"is_reserved":false,"is_disabled":false,"rental_uris":{"android":"levelo://app?vid=96029180-54ef-4379-bfaf-7e88c91090c2","ios":"levelo://app?vid=96029180-54ef-4379-bfaf-7e88c91090c2"},"vehicle_type_id":"4","last_reported":1742487180,"current_range_meters":16800,"station_id":"ce4bh012rcd13ifvqcv0","pricing_plan_id":"cebpf4jnsgd1na2vs0mg"},{"bike_id":"9def5b30-da64-40ca-a4f8-f22e1a604ee3","system_id":"levelo_inurba_marseille","lat":43.24163,"lon":5.39723,"is_reserved":false,"is_disabled":false,"rental_uris":{"android":"levelo://app?vid=9def5b30-da64-40ca-a4f8-f22e1a604ee3","ios":"levelo://app?vid=9def5b30-da64-40ca-a4f8-f22e1a604ee3"},"vehicle_type_id":"4","last_reported":1742487180,"current_range_meters":16800,"station_id":"ce4bhn12rcd13ifvqgpg","pricing_plan_id":"cebpf4jnsgd1na2vs0mg"},{"bike_id":"2b94e4dd-2dd5-4881-ab38-40eb855f87c1","system_id":"levelo_inurba_marseille","lat":43.29859,"lon":5.36295,"is_reserved":false,"is_disabled":false,"rental_uris":{"android":"levelo://app?vid=2b94e4dd-2dd5-4881-ab38-40eb855f87c1","ios":"levelo://app?vid=2b94e4dd-2dd5-4881-ab38-40eb855f87c1"},"vehicle_type_id":"4","last_reported":1742487180,"current_range_meters":16800,"station_id":"ce4bgpp2rcd13ifvqc3g","pricing_plan_id":"cebpf4jnsgd1na2vs0mg"},{"bike_id":"df69a1bc-c6f3-404c-be84-ae20afad99f9","system_id":"levelo_inurba_marseille","lat":43.28675,"lon":5.36348,"is_reserved":false,"is_disabled":false,"rental_uris":{"android":"levelo://app?vid=df69a1bc-c6f3-404c-be84-ae20afad99f9","ios":"levelo://app?vid=df69a1bc-c6f3-404c-be84-ae20afad99f9"},"vehicle_type_id":"4","last_reported":1742487180,"current_range_meters":16800,"station_id":"ce4bhah2rcd13ifvqej0","pricing_plan_id":"cebpf4jnsgd1na2vs0mg"},{"bike_id":"cadfb301-cb4c-487b-83d0-c6aa47aadf8a","system_id":"levelo_inurba_marseille","lat":43.29313,"lon":5.37453,"is_reserved":false,"is_disabled":false,"rental_uris":{"android":"levelo://app?vid=cadfb301-cb4c-487b-83d0-c6aa47aadf8a","ios":"levelo://app?vid=cadfb301-cb4c-487b-83d0-c6aa47aadf8a"},"vehicle_type_id":"4","last_reported":1742487180,"current_range_meters":16800,"station_id":"ce4bgi12rcd13ifvqb70","pricing_plan_id":"cebpf4jnsgd1na2vs0mg"},{"bike_id":"24670d70-7fbc-4e98-bfcf-e2c5d0ad4d42","system_id":"levelo_inurba_marseille","lat":43.30481,"lon":5.37275,"is_reserved":false,"is_disabled":false,"rental_uris":{"android":"levelo://app?vid=24670d70-7fbc-4e98-bfcf-e2c5d0ad4d42","ios":"levelo://app?vid=24670d70-7fbc-4e98-bfcf-e2c5d0ad4d42"},"vehicle_type_id":"4","last_reported":1742487180,"current_range_meters":16800,"station_id":"","pricing_plan_id":"cebpf4jnsgd1na2vs0mg"},{"bike_id":"df64c8b2-e5a7-47d6-a1b0-61c2edd02094","system_id":"levelo_inurba_marseille","lat":43.25491,"lon":5.37657,"is_reserved":false,"is_disabled":false,"rental_uris":{"android":"levelo://app?vid=df64c8b2-e5a7-47d6-a1b0-61c2edd02094","ios":"levelo://app?vid=df64c8b2-e5a7-47d6-a1b0-61c2edd02094"},"vehicle_type_id":"4","last_reported":1742487180,"current_range_meters":16400,"station_id":"ce4bhh12rcd13ifvqff0","pricing_plan_id":"cebpf4jnsgd1na2vs0mg"},{"bike_id":"adf9b4fe-5db7-4357-b293-cc0424d5d9b6","system_id":"levelo_inurba_marseille","lat":43.29856,"lon":5.36277,"is_reserved":false,"is_disabled":false,"rental_uris":{"android":"levelo://app?vid=adf9b4fe-5db7-4357-b293-cc0424d5d9b6","ios":"levelo://app?vid=adf9b4fe-5db7-4357-b293-cc0424d5d9b6"},"vehicle_type_id":"4","last_reported":1742487180,"current_range_meters":16800,"station_id":"ce4bgpp2rcd13ifvqc3g","pricing_plan_id":"cebpf4jnsgd1na2vs0mg"},{"bike_id":"293089b4-dcf0-4672-9c32-bbd688d949e9","system_id":"levelo_inurba_marseille","lat":43.31339,"lon":5.3971,"is_reserved":false,"is_disabled":false,"rental_uris":{"android":"levelo://app?vid=293089b4-dcf0-4672-9c32-bbd688d949e9","ios":"levelo://app?vid=293089b4-dcf0-4672-9c32-bbd688d949e9"},"vehicle_type_id":"4","last_reported":1742487180,"current_range_meters":16800,"station_id":"ce4bgvp2rcd13ifvqcu0","pricing_plan_id":"cebpf4jnsgd1na2vs0mg"},{"bike_id":"64312d82-9e8b-474f-9d4e-50106c1d05a8","system_id":"levelo_inurba_marseille","lat":43.23187,"lon":5.39985,"is_reserved":false,"is_disabled":false,"rental_uris":{"android":"levelo://app?vid=64312d82-9e8b-474f-9d4e-50106c1d05a8","ios":"levelo://app?vid=64312d82-9e8b-474f-9d4e-50106c1d05a8"},"vehicle_type_id":"4","last_reported":1742487180,"current_range_meters":16800,"station_id":"ce4bhn12rcd13ifvqgqg","pricing_plan_id":"cebpf4jnsgd1na2vs0mg"},{"bike_id":"43e6c561-2764-4767-bcb2-f6c0b05599bb","system_id":"levelo_inurba_marseille","lat":43.304294,"lon":5.397437,"is_reserved":false,"is_disabled":false,"rental_uris":{"android":"levelo://app?vid=43e6c561-2764-4767-bcb2-f6c0b05599bb","ios":"levelo://app?vid=43e6c561-2764-4767-bcb2-f6c0b05599bb"},"vehicle_type_id":"4","last_reported":1742487180,"current_range_meters":16800,"station_id":"ce4bhr92rcd13ifvqhrg","pricing_plan_id":"cebpf4jnsgd1na2vs0mg"},{"bike_id":"c5c72dbc-bdee-478c-8ffc-2a91e1c31a40","system_id":"levelo_inurba_marseille","lat":43.30144,"lon":5.38534,"is_reserved":false,"is_disabled":false,"rental_uris":{"android":"levelo://app?vid=c5c72dbc-bdee-478c-8ffc-2a91e1c31a40","ios":"levelo://app?vid=c5c72dbc-bdee-478c-8ffc-2a91e1c31a40"},"vehicle_type_id":"4","last_reported":1742487180,"current_range_meters":17200,"station_id":"","pricing_plan_id":"cebpf4jnsgd1na2vs0mg"},{"bike_id":"2c694cef-fb74-4304-821f-d9695eae9712","system_id":"levelo_inurba_marseille","lat":43.25851,"lon":5.39429,"is_reserved":false,"is_disabled":false,"rental_uris":{"android":"levelo://app?vid=2c694cef-fb74-4304-821f-d9695eae9712","ios":"levelo://app?vid=2c694cef-fb74-4304-821f-d9695eae9712"},"vehicle_type_id":"4","last_reported":1742487180,"current_range_meters":17200,"station_id":"ce4bhip2rcd13ifvqft0","pricing_plan_id":"cebpf4jnsgd1na2vs0mg"},{"bike_id":"9e3d55ff-203d-46ab-99fa-69313c0f2ab9","system_id":"levelo_inurba_marseille","lat":43.30928,"lon":5.40136,"is_reserved":false,"is_disabled":false,"rental_uris":{"android":"levelo://app?vid=9e3d55ff-203d-46ab-99fa-69313c0f2ab9","ios":"levelo://app?vid=9e3d55ff-203d-46ab-99fa-69313c0f2ab9"},"vehicle_type_id":"4","last_reported":1742487180,"current_range_meters":17200,"station_id":"ce4bgvp2rcd13ifvqct0","pricing_plan_id":"cebpf4jnsgd1na2vs0mg"},{"bike_id":"8d0d2abd-6630-4f94-bca2-55b42196737d","system_id":"levelo_inurba_marseille","lat":43.28662,"lon":5.36349,"is_reserved":false,"is_disabled":false,"rental_uris":{"android":"levelo://app?vid=8d0d2abd-6630-4f94-bca2-55b42196737d","ios":"levelo://app?vid=8d0d2abd-6630-4f94-bca2-55b42196737d"},"vehicle_type_id":"4","last_reported":1742487180,"current_range_meters":17200,"station_id":"ce4bhah2rcd13ifvqej0","pricing_plan_id":"cebpf4jnsgd1na2vs0mg"},{"bike_id":"645efd77-d718-43c2-ab07-f2b2dc60afa6","system_id":"levelo_inurba_marseille","lat":43.32,"lon":5.38141,"is_reserved":false,"is_disabled":false,"rental_uris":{"android":"levelo://app?vid=645efd77-d718-43c2-ab07-f2b2dc60afa6","ios":"levelo://app?vid=645efd77-d718-43c2-ab07-f2b2dc60afa6"},"vehicle_type_id":"4","last_reported":1742487180,"current_range_meters":17200,"station_id":"ce4bhr12rcd13ifvqhpg","pricing_plan_id":"cebpf4jnsgd1na2vs0mg"},{"bike_id":"137e46c1-f521-4007-a1ef-979a3c687fe0","system_id":"levelo_inurba_marseille","lat":43.2904,"lon":5.37565,"is_reserved":false,"is_disabled":false,"rental_uris":{"android":"levelo://app?vid=137e46c1-f521-4007-a1ef-979a3c687fe0","ios":"levelo://app?vid=137e46c1-f521-4007-a1ef-979a3c687fe0"},"vehicle_type_id":"4","last_reported":1742487180,"current_range_meters":17200,"station_id":"ce4bh692rcd13ifvqe90","pricing_plan_id":"cebpf4jnsgd1na2vs0mg"},{"bike_id":"c93cf7a9-5637-4547-9cda-7e71ef8a7ce0","system_id":"levelo_inurba_marseille","lat":43.28699,"lon":5.4,"is_reserved":false,"is_disabled":false,"rental_uris":{"android":"levelo://app?vid=c93cf7a9-5637-4547-9cda-7e71ef8a7ce0","ios":"levelo://app?vid=c93cf7a9-5637-4547-9cda-7e71ef8a7ce0"},"vehicle_type_id":"4","last_reported":1742487180,"current_range_meters":17600,"station_id":"ce4bho92rcd13ifvqh3g","pricing_plan_id":"cebpf4jnsgd1na2vs0mg"},{"bike_id":"0fb54bf1-2224-4fef-b967-32b447b8fc33","system_id":"levelo_inurba_marseille","lat":43.24657,"lon":5.38875,"is_reserved":false,"is_disabled":false,"rental_uris":{"android":"levelo://app?vid=0fb54bf1-2224-4fef-b967-32b447b8fc33","ios":"levelo://app?vid=0fb54bf1-2224-4fef-b967-32b447b8fc33"},"vehicle_type_id":"4","last_reported":1742487180,"current_range_meters":17600,"station_id":"ce4bhg12rcd13ifvqf60","pricing_plan_id":"cebpf4jnsgd1na2vs0mg"},{"bike_id":"5196b91f-0050-4126-9559-1523178982d6","system_id":"levelo_inurba_marseille","lat":43.27574,"lon":5.3842,"is_reserved":false,"is_disabled":false,"rental_uris":{"android":"levelo://app?vid=5196b91f-0050-4126-9559-1523178982d6","ios":"levelo://app?vid=5196b91f-0050-4126-9559-1523178982d6"},"vehicle_type_id":"4","last_reported":1742487180,"current_range_meters":17600,"station_id":"ce4bhh92rcd13ifvqfi0","pricing_plan_id":"cebpf4jnsgd1na2vs0mg"},{"bike_id":"2d89546b-a298-40db-9b8d-ad994adbef15","system_id":"levelo_inurba_marseille","lat":43.32739,"lon":5.39248,"is_reserved":false,"is_disabled":false,"rental_uris":{"android":"levelo://app?vid=2d89546b-a298-40db-9b8d-ad994adbef15","ios":"levelo://app?vid=2d89546b-a298-40db-9b8d-ad994adbef15"},"vehicle_type_id":"4","last_reported":1742487180,"current_range_meters":17600,"station_id":"","pricing_plan_id":"cebpf4jnsgd1na2vs0mg"},{"bike_id":"9a38be51-742a-499c-b135-52a9b96a6e18","system_id":"levelo_inurba_marseille","lat":43.298859,"lon":5.389027,"is_reserved":false,"is_disabled":false,"rental_uris":{"android":"levelo://app?vid=9a38be51-742a-499c-b135-52a9b96a6e18","ios":"levelo://app?vid=9a38be51-742a-499c-b135-52a9b96a6e18"},"vehicle_type_id":"4","last_reported":1742487180,"current_range_meters":17600,"station_id":"ce4bgop2rcd13ifvqc1g","pricing_plan_id":"cebpf4jnsgd1na2vs0mg"},{"bike_id":"34c9d711-d0a5-4652-8d7d-b51c579e1754","system_id":"levelo_inurba_marseille","lat":43.31328,"lon":5.39698,"is_reserved":false,"is_disabled":false,"rental_uris":{"android":"levelo://app?vid=34c9d711-d0a5-4652-8d7d-b51c579e1754","ios":"levelo://app?vid=34c9d711-d0a5-4652-8d7d-b51c579e1754"},"vehicle_type_id":"4","last_reported":1742487180,"current_range_meters":17600,"station_id":"ce4bgvp2rcd13ifvqcu0","pricing_plan_id":"cebpf4jnsgd1na2vs0mg"},{"bike_id":"f0fcd320-c5bd-443c-aab0-102d6103287c","system_id":"levelo_inurba_marseille","lat":43.272147,"lon":5.391866,"is_reserved":false,"is_disabled":false,"rental_uris":{"android":"levelo://app?vid=f0fcd320-c5bd-443c-aab0-102d6103287c","ios":"levelo://app?vid=f0fcd320-c5bd-443c-aab0-102d6103287c"},"vehicle_type_id":"4","last_reported":1742487180,"current_range_meters":17600,"station_id":"ce4bhhp2rcd13ifvqfm0","pricing_plan_id":"cebpf4jnsgd1na2vs0mg"},{"bike_id":"8170ea26-0701-4c65-b290-debe2b7b6549","system_id":"levelo_inurba_marseille","lat":43.3119,"lon":5.3872,"is_reserved":false,"is_disabled":false,"rental_uris":{"android":"levelo://app?vid=8170ea26-0701-4c65-b290-debe2b7b6549","ios":"levelo://app?vid=8170ea26-0701-4c65-b290-debe2b7b6549"},"vehicle_type_id":"4","last_reported":1742487180,"current_range_meters":18000,"station_id":"ce4bgv12rcd13ifvqcp0","pricing_plan_id":"cebpf4jnsgd1na2vs0mg"},{"bike_id":"09b93946-5c5d-4096-8e33-a0ec3c8d2cb8","system_id":"levelo_inurba_marseille","lat":43.29921,"lon":5.37476,"is_reserved":false,"is_disabled":false,"rental_uris":{"android":"levelo://app?vid=09b93946-5c5d-4096-8e33-a0ec3c8d2cb8","ios":"levelo://app?vid=09b93946-5c5d-4096-8e33-a0ec3c8d2cb8"},"vehicle_type_id":"4","last_reported":1742487180,"current_range_meters":18000,"station_id":"ce4bgjh2rcd13ifvqbg0","pricing_plan_id":"cebpf4jnsgd1na2vs0mg"},{"bike_id":"10bd7feb-5058-4bdc-a0d5-d78e513183f9","system_id":"levelo_inurba_marseille","lat":43.29908,"lon":5.43665,"is_reserved":false,"is_disabled":false,"rental_uris":{"android":"levelo://app?vid=10bd7feb-5058-4bdc-a0d5-d78e513183f9","ios":"levelo://app?vid=10bd7feb-5058-4bdc-a0d5-d78e513183f9"},"vehicle_type_id":"4","last_reported":1742487180,"current_range_meters":18000,"station_id":"ce4bhpp2rcd13ifvqhfg","pricing_plan_id":"cebpf4jnsgd1na2vs0mg"},{"bike_id":"1ad25fb7-27c0-45a7-9caf-de98dd13f30e","system_id":"levelo_inurba_marseille","lat":43.28667,"lon":5.36352,"is_reserved":false,"is_disabled":false,"rental_uris":{"android":"levelo://app?vid=1ad25fb7-27c0-45a7-9caf-de98dd13f30e","ios":"levelo://app?vid=1ad25fb7-27c0-45a7-9caf-de98dd13f30e"},