{"last_updated":1689710860,"ttl":30,"version":"2.2","data":{"bikes":[{"bike_id":"9599d06c-f2d2-480d-8dc4-8b7f52bae309","system_id":"levelo_inurba_marseille","lat":43.312239,"lon":5.368562,"is_reserved":false,"is_disabled":false,"rental_uris":{"android":"levelo://app?vid=9599d06c-f2d2-480d-8dc4-8b7f52bae309","ios":"levelo://app?vid=9599d06c-f2d2-480d-8dc4-8b7f52bae309"},"vehicle_type_id":"4","last_reported":1689710860,"current_range_meters":6800,"station_id":"ce4bgl92rcd13ifvqbq0","pricing_plan_id":"free"},{"bike_id":"ba04e87e-f4ac-4a9d-803c-6ab5febd9b1f","system_id":"levelo_inurba_marseille","lat":43.312239,"lon":5.368562,"is_reserved":false,"is_disabled":false,"rental_uris":{"android":"levelo://app?vid=ba04e87e-f4ac-4a9d-803c-6ab5febd9b1f","ios":"levelo://app?vid=ba04e87e-f4ac-4a9d-803c-6ab5febd9b1f"},"vehicle_type_id":"4","last_reported":1689710860,"current_range_meters":11200,"station_id":"ce4bgl92rcd13ifvqbq0","pricing_plan_id":"free"},{"bike_id":"b65e9fb1-761d-45f8-a43e-c25bf0fa119a","system_id":"levelo_inurba_marseille","lat":43.31304,"lon":5.37127,"is_reserved":false,"is_disabled":false,"rental_uris":{"android":"levelo://app?vid=b65e9fb1-761d-45f8-a43e-c25bf0fa119a","ios":"levelo://app?vid=b65e9fb1-761d-45f8-a43e-c25bf0fa119a"},"vehicle_type_id":"4","last_reported":1689710860,"current_range_meters":27200,"station_id":"","pricing_plan_id":"free"},{"bike_id":"aaa6b16b-5739-494e-993f-6809ceed59e3","system_id":"levelo_inurba_marseille","lat":43.309076,"lon":5.368465,"is_reserved":false,"is_disabled":false,"rental_uris":{"android":"levelo://app?vid=aaa6b16b-5739-494e-993f-6809ceed59e3","ios":"levelo://app?vid=aaa6b16b-5739-494e-993f-6809ceed59e3"},"vehicle_type_id":"4","last_reported":1689710860,"current_range_meters":30400,"station_id":"ce4bgn92rcd13ifvqbvg","pricing_plan_id":"free"},{"bike_id":"31db8727-fc52-40c4-b714-ff6544885ba4","system_id":"levelo_inurba_marseille","lat":43.314811,"lon":5.373104,"is_reserved":false,"is_disabled":false,"rental_uris":{"android":"levelo://app?vid=31db8727-fc52-40c4-b714-ff6544885ba4","ios":"levelo://app?vid=31db8727-fc52-40c4-b714-ff6544885ba4"},"vehicle_type_id":"4","last_reported":1689710860,"current_range_meters":20400,"station_id":"ce4bgt12rcd13ifvqcd0","pricing_plan_id":"free"},{"bike_id":"77649e0f-36df-464c-8596-0f1c4c35cc65","system_id":"levelo_inurba_marseille","lat":43.314811,"lon":5.373103,"is_reserved":false,"is_disabled":false,"rental_uris":{"android":"levelo://app?vid=77649e0f-36df-464c-8596-0f1c4c35cc65","ios":"levelo://app?vid=77649e0f-36df-464c-8596-0f1c4c35cc65"},"vehicle_type_id":"4","last_reported":1689710860,"current_range_meters":8800,"station_id":"ce4bgt12rcd13ifvqcd0","pricing_plan_id":"free"},{"bike_id":"77f82340-953f-41f4-ba11-5554b100418f","system_id":"levelo_inurba_marseille","lat":43.314811,"lon":5.373103,"is_reserved":false,"is_disabled":false,"rental_uris":{"android":"levelo://app?vid=77f82340-953f-41f4-ba11-5554b100418f","ios":"levelo://app?vid=77f82340-953f-41f4-ba11-5554b100418f"},"vehicle_type_id":"4","last_reported":1689710860,"current_range_meters":27200,"station_id":"ce4bgt12rcd13ifvqcd0","pricing_plan_id":"free"},{"bike_id":"f6133b9b-e45b-4d60-bd50-81fc35775f55","system_id":"levelo_inurba_marseille","lat":43.309039,"lon":5.371797,"is_reserved":false,"is_disabled":false,"rental_uris":{"android":"levelo://app?vid=f6133b9b-e45b-4d60-bd50-81fc35775f55","ios":"levelo://app?vid=f6133b9b-e45b-4d60-bd50-81fc35775f55"},"vehicle_type_id":"4","last_reported":1689710860,"current_range_meters":13200,"station_id":"ce4bguh2rcd13ifvqckg","pricing_plan_id":"free"},{"bike_id":"9ebfdadf-eebb-4934-973d-55963c25c762","system_id":"levelo_inurba_marseille","lat":43.31562,"lon":5.37345,"is_reserved":false,"is_disabled":false,"rental_uris":{"android":"levelo://app?vid=9ebfdadf-eebb-4934-973d-55963c25c762","ios":"levelo://app?vid=9ebfdadf-eebb-4934-973d-55963c25c762"},"vehicle_type_id":"4","last_reported":1689710860,"current_range_meters":31200,"station_id":"","pricing_plan_id":"free"},{"bike_id":"f508272a-ab00-434e-841c-4959d5643898","system_id":"levelo_inurba_marseille","lat":43.31673,"lon":5.37311,"is_reserved":false,"is_disabled":false,"rental_uris":{"android":"levelo://app?vid=f508272a-ab00-434e-841c-4959d5643898","ios":"levelo://app?vid=f508272a-ab00-434e-841c-4959d5643898"},"vehicle_type_id":"4","last_reported":1689710860,"current_range_meters":25600,"station_id":"","pricing_plan_id":"free"},{"bike_id":"8dab606f-2c1b-4486-94b1-66ef570c57d5","system_id":"levelo_inurba_marseille","lat":43.30876,"lon":5.37331,"is_reserved":false,"is_disabled":false,"rental_uris":{"android":"levelo://app?vid=8dab606f-2c1b-4486-94b1-66ef570c57d5","ios":"levelo://app?vid=8dab606f-2c1b-4486-94b1-66ef570c57d5"},"vehicle_type_id":"4","last_reported":1689710860,"current_range_meters":22400,"station_id":"","pricing_plan_id":"free"},{"bike_id":"d5452eac-45ec-41ca-8734-58f25f4b1789","system_id":"levelo_inurba_marseille","lat":43.31307,"lon":5.37682,"is_reserved":false,"is_disabled":false,"rental_uris":{"android":"levelo://app?vid=d5452eac-45ec-41ca-8734-58f25f4b1789","ios":"levelo://app?vid=d5452eac-45ec-41ca-8734-58f25f4b1789"},"vehicle_type_id":"4","last_reported":1689710860,"current_range_meters":29600,"station_id":"","pricing_plan_id":"free"},{"bike_id":"f25852df-6061-4d2a-8b2d-d508e9925946","system_id":"levelo_inurba_marseille","lat":43.305368,"lon":5.367343,"is_reserved":false,"is_disabled":false,"rental_uris":{"android":"levelo://app?vid=f25852df-6061-4d2a-8b2d-d508e9925946","ios":"levelo://app?vid=f25852df-6061-4d2a-8b2d-d508e9925946"},"vehicle_type_id":"4","last_reported":1689710860,"current_range_meters":24400,"station_id":"ce4bgrp2rcd13ifvqc9g","pricing_plan_id":"free"},{"bike_id":"a2e136f1-c728-4018-88c2-a46aa30aa3c2","system_id":"levelo_inurba_marseille","lat":43.305368,"lon":5.367343,"is_reserved":false,"is_disabled":false,"rental_uris":{"android":"levelo://app?vid=a2e136f1-c728-4018-88c2-a46aa30aa3c2","ios":"levelo://app?vid=a2e136f1-c728-4018-88c2-a46aa30aa3c2"},"vehicle_type_id":"4","last_reported":1689710860,"current_range_meters":24400,"station_id":"ce4bgrp2rcd13ifvqc9g","pricing_plan_id":"free"},{"bike_id":"7601db01-c7c6-4675-af69-0c131c48bffb","system_id":"levelo_inurba_marseille","lat":43.305368,"lon":5.367343,"is_reserved":false,"is_disabled":false,"rental_uris":{"android":"levelo://app?vid=7601db01-c7c6-4675-af69-0c131c48bffb","ios":"levelo://app?vid=7601db01-c7c6-4675-af69-0c131c48bffb"},"vehicle_type_id":"4","last_reported":1689710860,"current_range_meters":6400,"station_id":"ce4bgrp2rcd13ifvqc9g","pricing_plan_id":"free"},{"bike_id":"72a1f216-6989-434e-9788-c841724c85de","system_id":"levelo_inurba_marseille","lat":43.305279,"lon":5.367218,"is_reserved":false,"is_disabled":false,"rental_uris":{"android":"levelo://app?vid=72a1f216-6989-434e-9788-c841724c85de","ios":"levelo://app?vid=72a1f216-6989-434e-9788-c841724c85de"},"vehicle_type_id":"4","last_reported":1689710860,"current_range_meters":2000,"station_id":"","pricing_plan_id":"free"},{"bike_id":"216fc881-3b2e-4e6f-ab3b-5427938c4fb2","system_id":"levelo_inurba_marseille","lat":43.305989,"lon":5.37225,"is_reserved":false,"is_disabled":false,"rental_uris":{"android":"levelo://app?vid=216fc881-3b2e-4e6f-ab3b-5427938c4fb2","ios":"levelo://app?vid=216fc881-3b2e-4e6f-ab3b-5427938c4fb2"},"vehicle_type_id":"4","last_reported":1689710860,"current_range_meters":2800,"station_id":"ce4bgqh2rcd13ifvqc4g","pricing_plan_id":"free"},{"bike_id":"1a41001d-ab65-4ff5-a90f-b6620146ec98","system_id":"levelo_inurba_marseille","lat":43.311125,"lon":5.377624,"is_reserved":false,"is_disabled":false,"rental_uris":{"android":"levelo://app?vid=1a41001d-ab65-4ff5-a90f-b6620146ec98","ios":"levelo://app?vid=1a41001d-ab65-4ff5-a90f-b6620146ec98"},"vehicle_type_id":"4","last_reported":1689710860,"current_range_meters":1200,"station_id":"ce4bgt92rcd13ifvqcg0","pricing_plan_id":"free"},{"bike_id":"75f806f0-7871-4f16-a944-41aaaba75a74","system_id":"levelo_inurba_marseille","lat":43.317075,"lon":5.377367,"is_reserved":false,"is_disabled":false,"rental_uris":{"android":"levelo://app?vid=75f806f0-7871-4f16-a944-41aaaba75a74","ios":"levelo://app?vid=75f806f0-7871-4f16-a944-41aaaba75a74"},"vehicle_type_id":"4","last_reported":1689710860,"current_range_meters":26400,"station_id":"ce4bgth2rcd13ifvqch0","pricing_plan_id":"free"},{"bike_id":"071e26e0-af79-4432-93e0-2b23acda0269","system_id":"levelo_inurba_marseille","lat":43.317075,"lon":5.377367,"is_reserved":false,"is_disabled":false,"rental_uris":{"android":"levelo://app?vid=071e26e0-af79-4432-93e0-2b23acda0269","ios":"levelo://app?vid=071e26e0-af79-4432-93e0-2b23acda0269"},"vehicle_type_id":"4","last_reported":1689710860,"current_range_meters":30000,"station_id":"ce4bgth2rcd13ifvqch0","pricing_plan_id":"free"},{"bike_id":"a3f4c536-8c2c-442e-83df-fe41c5dfa652","system_id":"levelo_inurba_marseille","lat":43.317075,"lon":5.377367,"is_reserved":false,"is_disabled":false,"rental_uris":{"android":"levelo://app?vid=a3f4c536-8c2c-442e-83df-fe41c5dfa652","ios":"levelo://app?vid=a3f4c536-8c2c-442e-83df-fe41c5dfa652"},"vehicle_type_id":"4","last_reported":1689710860,"current_range_meters":30400,"station_id":"ce4bgth2rcd13ifvqch0","pricing_plan_id":"free"},{"bike_id":"99b12b5c-e5b5-4a7b-86f6-c5d3455b84dc","system_id":"levelo_inurba_marseille","lat":43.303046,"lon":5.368981,"is_reserved":false,"is_disabled":false,"rental_uris":{"android":"levelo://app?vid=99b12b5c-e5b5-4a7b-86f6-c5d3455b84dc","ios":"levelo://app?vid=99b12b5c-e5b5-4a7b-86f6-c5d3455b84dc"},"vehicle_type_id":"4","last_reported":1689710860,"current_range_meters":20000,"station_id":"ce4bgqh2rcd13ifvqc5g","pricing_plan_id":"free"},{"bike_id":"3b5adf91-9019-4966-9be5-457ef9969770","system_id":"levelo_inurba_marseille","lat":43.315289,"lon":5.380349,"is_reserved":false,"is_disabled":false,"rental_uris":{"android":"levelo://app?vid=3b5adf91-9019-4966-9be5-457ef9969770","ios":"levelo://app?vid=3b5adf91-9019-4966-9be5-457ef9969770"},"vehicle_type_id":"4","last_reported":1689710860,"current_range_meters":20000,"station_id":"ce4bhsp2rcd13ifvqi50","pricing_plan_id":"free"},{"bike_id":"6763bc13-1a65-4adb-8e2f-7fd8ef2476ad","system_id":"levelo_inurba_marseille","lat":43.315293,"lon":5.380349,"is_reserved":false,"is_disabled":false,"rental_uris":{"android":"levelo://app?vid=6763bc13-1a65-4adb-8e2f-7fd8ef2476ad","ios":"levelo://app?vid=6763bc13-1a65-4adb-8e2f-7fd8ef2476ad"},"vehicle_type_id":"4","last_reported":1689710860,"current_range_meters":24800,"station_id":"ce4bhsp2rcd13ifvqi50","pricing_plan_id":"free"},{"bike_id":"75e3c4fe-84b6-4386-9d3e-2453be7848f5","system_id":"levelo_inurba_marseille","lat":43.315293,"lon":5.380349,"is_reserved":false,"is_disabled":false,"rental_uris":{"android":"levelo://app?vid=75e3c4fe-84b6-4386-9d3e-2453be7848f5","ios":"levelo://app?vid=75e3c4fe-84b6-4386-9d3e-2453be7848f5"},"vehicle_type_id":"4","last_reported":1689710860,"current_range_meters":31600,"station_id":"ce4bhsp2rcd13ifvqi50","pricing_plan_id":"free"},{"bike_id":"3d0d6cd0-af46-4175-80bc-7c603c012432","system_id":"levelo_inurba_marseille","lat":43.315289,"lon":5.380349,"is_reserved":false,"is_disabled":false,"rental_uris":{"android":"levelo://app?vid=3d0d6cd0-af46-4175-80bc-7c603c012432","ios":"levelo://app?vid=3d0d6cd0-af46-4175-80bc-7c603c012432"},"vehicle_type_id":"4","last_reported":1689710860,"current_range_meters":16000,"station_id":"ce4bhsp2rcd13ifvqi50","pricing_plan_id":"free"},{"bike_id":"1c2b76b0-817d-41f0-b57f-304238302622","system_id":"levelo_inurba_marseille","lat":43.301939,"lon":5.366286,"is_reserved":false,"is_disabled":false,"rental_uris":{"android":"levelo://app?vid=1c2b76b0-817d-41f0-b57f-304238302622","ios":"levelo://app?vid=1c2b76b0-817d-41f0-b57f-304238302622"},"vehicle_type_id":"4","last_reported":1689710860,"current_range_meters":0,"station_id":"ce4bgrh2rcd13ifvqc8g","pricing_plan_id":"free"},{"bike_id":"56a1eeb2-20be-477f-b423-4b291fc605f0","system_id":"levelo_inurba_marseille","lat":43.301939,"lon":5.366286,"is_reserved":false,"is_disabled":false,"rental_uris":{"android":"levelo://app?vid=56a1eeb2-20be-477f-b423-4b291fc605f0","ios":"levelo://app?vid=56a1eeb2-20be-477f-b423-4b291fc605f0"},"vehicle_type_id":"4","last_reported":1689710860,"current_range_meters":19200,"station_id":"ce4bgrh2rcd13ifvqc8g","pricing_plan_id":"free"},{"bike_id":"d45c9090-05bd-41cf-9622-23bfa67d1a26","system_id":"levelo_inurba_marseille","lat":43.308012,"lon":5.381511,"is_reserved":false,"is_disabled":false,"rental_uris":{"android":"levelo://app?vid=d45c9090-05bd-41cf-9622-23bfa67d1a26","ios":"levelo://app?vid=d45c9090-05bd-41cf-9622-23bfa67d1a26"},"vehicle_type_id":"4","last_reported":1689710860,"current_range_meters":8000,"station_id":"ce4bgt12rcd13ifvqce0","pricing_plan_id":"free"},{"bike_id":"350caf44-0877-47eb-a4d2-430105cd943c","system_id":"levelo_inurba_marseille","lat":43.30801,"lon":5.38149,"is_reserved":false,"is_disabled":false,"rental_uris":{"android":"levelo://app?vid=350caf44-0877-47eb-a4d2-430105cd943c","ios":"levelo://app?vid=350caf44-0877-47eb-a4d2-430105cd943c"},"vehicle_type_id":"4","last_reported":1689710860,"current_range_meters":4400,"station_id":"ce4bgt12rcd13ifvqce0","pricing_plan_id":"free"},{"bike_id":"ea3a1c29-6bbd-4bb1-83f1-f34c8657d52a","system_id":"levelo_inurba_marseille","lat":43.308012,"lon":5.381511,"is_reserved":false,"is_disabled":false,"rental_uris":{"android":"levelo://app?vid=ea3a1c29-6bbd-4bb1-83f1-f34c8657d52a","ios":"levelo://app?vid=ea3a1c29-6bbd-4bb1-83f1-f34c8657d52a"},"vehicle_type_id":"4","last_reported":1689710860,"current_range_meters":8400,"station_id":"ce4bgt12rcd13ifvqce0","pricing_plan_id":"free"},{"bike_id":"e734a6ac-96cb-4f32-9afe-ae85f2938dcb","system_id":"levelo_inurba_marseille","lat":43.304606,"lon":5.379026,"is_reserved":false,"is_disabled":false,"rental_uris":{"android":"levelo://app?vid=e734a6ac-96cb-4f32-9afe-ae85f2938dcb","ios":"levelo://app?vid=e734a6ac-96cb-4f32-9afe-ae85f2938dcb"},"vehicle_type_id":"4","last_reported":1689710860,"current_range_meters":22400,"station_id":"ce4bgup2rcd13ifvqcn0","pricing_plan_id":"free"},{"bike_id":"b70b1aae-051d-4ff1-893a-62d6424e10d6","system_id":"levelo_inurba_marseille","lat":43.304606,"lon":5.379026,"is_reserved":false,"is_disabled":false,"rental_uris":{"android":"levelo://app?vid=b70b1aae-051d-4ff1-893a-62d6424e10d6","ios":"levelo://app?vid=b70b1aae-051d-4ff1-893a-62d6424e10d6"},"vehicle_type_id":"4","last_reported":1689710860,"current_range_meters":24400,"station_id":"ce4bgup2rcd13ifvqcn0","pricing_plan_id":"free"},{"bike_id":"0ba0eabe-3b25-4af9-943d-ad629868e8af","system_id":"levelo_inurba_marseille","lat":43.304606,"lon":5.379026,"is_reserved":false,"is_disabled":false,"rental_uris":{"android":"levelo://app?vid=0ba0eabe-3b25-4af9-943d-ad629868e8af","ios":"levelo://app?vid=0ba0eabe-3b25-4af9-943d-ad629868e8af"},"vehicle_type_id":"4","last_reported":1689710860,"current_range_meters":16800,"station_id":"ce4bgup2rcd13ifvqcn0","pricing_plan_id":"free"},{"bike_id":"8748c4b9-dec9-4776-95e8-d5adee548607","system_id":"levelo_inurba_marseille","lat":43.304606,"lon":5.379026,"is_reserved":false,"is_disabled":false,"rental_uris":{"android":"levelo://app?vid=8748c4b9-dec9-4776-95e8-d5adee548607","ios":"levelo://app?vid=8748c4b9-dec9-4776-95e8-d5adee548607"},"vehicle_type_id":"4","last_reported":1689710860,"current_range_meters":18800,"station_id":"ce4bgup2rcd13ifvqcn0","pricing_plan_id":"free"},{"bike_id":"b6a545ed-30fd-4410-aac8-4789fd2decb0","system_id":"levelo_inurba_marseille","lat":43.304606,"lon":5.379026,"is_reserved":false,"is_disabled":false,"rental_uris":{"android":"levelo://app?vid=b6a545ed-30fd-4410-aac8-4789fd2decb0","ios":"levelo://app?vid=b6a545ed-30fd-4410-aac8-4789fd2decb0"},"vehicle_type_id":"4","last_reported":1689710860,"current_range_meters":26000,"station_id":"ce4bgup2rcd13ifvqcn0","pricing_plan_id":"free"},{"bike_id":"08b38734-2a2a-4ce9-915f-bc4809b22cc5","system_id":"levelo_inurba_marseille","lat":43.302784,"lon":5.377158,"is_reserved":false,"is_disabled":false,"rental_uris":{"android":"levelo://app?vid=08b38734-2a2a-4ce9-915f-bc4809b22cc5","ios":"levelo://app?vid=08b38734-2a2a-4ce9-915f-bc4809b22cc5"},"vehicle_type_id":"4","last_reported":1689710860,"current_range_meters":12800,"station_id":"ce4bguh2rcd13ifvqcj0","pricing_plan_id":"free"},{"bike_id":"1ae5c83a-0a82-467b-8717-5357162561cd","system_id":"levelo_inurba_marseille","lat":43.302784,"lon":5.377158,"is_reserved":false,"is_disabled":false,"rental_uris":{"android":"levelo://app?vid=1ae5c83a-0a82-467b-8717-5357162561cd","ios":"levelo://app?vid=1ae5c83a-0a82-467b-8717-5357162561cd"},"vehicle_type_id":"4","last_reported":1689710860,"current_range_meters":6800,"station_id":"ce4bguh2rcd13ifvqcj0","pricing_plan_id":"free"},{"bike_id":"19100311-c096-4ea3-9658-fe0675467fb5","system_id":"levelo_inurba_marseille","lat":43.319935,"lon":5.381699,"is_reserved":false,"is_disabled":false,"rental_uris":{"android":"levelo://app?vid=19100311-c096-4ea3-9658-fe0675467fb5","ios":"levelo://app?vid=19100311-c096-4ea3-9658-fe0675467fb5"},"vehicle_type_id":"4","last_reported":1689710860,"current_range_meters":30400,"station_id":"ce4bhr12rcd13ifvqhpg","pricing_plan_id":"free"},{"bike_id":"aecf68cc-6dab-4d48-9b33-456f56f1c060","system_id":"levelo_inurba_marseille","lat":43.319935,"lon":5.381699,"is_reserved":false,"is_disabled":false,"rental_uris":{"android":"levelo://app?vid=aecf68cc-6dab-4d48-9b33-456f56f1c060","ios":"levelo://app?vid=aecf68cc-6dab-4d48-9b33-456f56f1c060"},"vehicle_type_id":"4","last_reported":1689710860,"current_range_meters":25200,"station_id":"ce4bhr12rcd13ifvqhpg","pricing_plan_id":"free"},{"bike_id":"b0dd87b2-d98f-41f0-92f5-f872f1fe0084","system_id":"levelo_inurba_marseille","lat":43.319935,"lon":5.381699,"is_reserved":false,"is_disabled":false,"rental_uris":{"android":"levelo://app?vid=b0dd87b2-d98f-41f0-92f5-f872f1fe0084","ios":"levelo://app?vid=b0dd87b2-d98f-41f0-92f5-f872f1fe0084"},"vehicle_type_id":"4","last_reported":1689710860,"current_range_meters":30400,"station_id":"ce4bhr12rcd13ifvqhpg","pricing_plan_id":"free"},{"bike_id":"81dbb561-ba63-4cda-a721-d080e1d9f826","system_id":"levelo_inurba_marseille","lat":43.319935,"lon":5.381699,"is_reserved":false,"is_disabled":false,"rental_uris":{"android":"levelo://app?vid=81dbb561-ba63-4cda-a721-d080e1d9f826","ios":"levelo://app?vid=81dbb561-ba63-4cda-a721-d080e1d9f826"},"vehicle_type_id":"4","last_reported":1689710860,"current_range_meters":18800,"station_id":"ce4bhr12rcd13ifvqhpg","pricing_plan_id":"free"},{"bike_id":"399df473-ca0d-4307-a31b-1e2c3dd75986","system_id":"levelo_inurba_marseille","lat":43.319935,"lon":5.381699,"is_reserved":false,"is_disabled":false,"rental_uris":{"android":"levelo://app?vid=399df473-ca0d-4307-a31b-1e2c3dd75986","ios":"levelo://app?vid=399df473-ca0d-4307-a31b-1e2c3dd75986"},"vehicle_type_id":"4","last_reported":1689710860,"current_range_meters":15200,"station_id":"ce4bhr12rcd13ifvqhpg","pricing_plan_id":"free"},{"bike_id":"caf24fa0-878d-425f-b12a-0c83ba6ccf9b","system_id":"levelo_inurba_marseille","lat":43.319935,"lon":5.381699,"is_reserved":false,"is_disabled":false,"rental_uris":{"android":"levelo://app?vid=caf24fa0-878d-425f-b12a-0c83ba6ccf9b","ios":"levelo://app?vid=caf24fa0-878d-425f-b12a-0c83ba6ccf9b"},"vehicle_type_id":"4","last_reported":1689710860,"current_range_meters":9600,"station_id":"ce4bhr12rcd13ifvqhpg","pricing_plan_id":"free"},{"bike_id":"2b65a5b6-650e-4bff-a741-cb44cccd0a5e","system_id":"levelo_inurba_marseille","lat":43.313571,"lon":5.384829,"is_reserved":false,"is_disabled":false,"rental_uris":{"android":"levelo://app?vid=2b65a5b6-650e-4bff-a741-cb44cccd0a5e","ios":"levelo://app?vid=2b65a5b6-650e-4bff-a741-cb44cccd0a5e"},"vehicle_type_id":"4","last_reported":1689710860,"current_range_meters":4800,"station_id":"ce4bgt92rcd13ifvqcf0","pricing_plan_id":"free"},{"bike_id":"1b498175-c20f-4ab7-8fa5-370ed4da5d88","system_id":"levelo_inurba_marseille","lat":43.31367,"lon":5.38495,"is_reserved":false,"is_disabled":false,"rental_uris":{"android":"levelo://app?vid=1b498175-c20f-4ab7-8fa5-370ed4da5d88","ios":"levelo://app?vid=1b498175-c20f-4ab7-8fa5-370ed4da5d88"},"vehicle_type_id":"4","last_reported":1689710860,"current_range_meters":30000,"station_id":"ce4bgt92rcd13ifvqcf0","pricing_plan_id":"free"},{"bike_id":"95297fda-c486-44e0-8146-67beb1d1d1c0","system_id":"levelo_inurba_marseille","lat":43.305364,"lon":5.384119,"is_reserved":false,"is_disabled":false,"rental_uris":{"android":"levelo://app?vid=95297fda-c486-44e0-8146-67beb1d1d1c0","ios":"levelo://app?vid=95297fda-c486-44e0-8146-67beb1d1d1c0"},"vehicle_type_id":"4","last_reported":1689710860,"current_range_meters":10400,"station_id":"ce4bgg92rcd13ifvqb30","pricing_plan_id":"free"},{"bike_id":"09d9a63f-ae6b-40de-aa99-2b02f69c781a","system_id":"levelo_inurba_marseille","lat":43.305364,"lon":5.384119,"is_reserved":false,"is_disabled":false,"rental_uris":{"android":"levelo://app?vid=09d9a63f-ae6b-40de-aa99-2b02f69c781a","ios":"levelo://app?vid=09d9a63f-ae6b-40de-aa99-2b02f69c781a"},"vehicle_type_id":"4","last_reported":1689710860,"current_range_meters":2400,"station_id":"ce4bgg92rcd13ifvqb30","pricing_plan_id":"free"},{"bike_id":"d37443ee-928f-4706-94cd-aba60b33da75","system_id":"levelo_inurba_marseille","lat":43.298433,"lon":5.362774,"is_reserved":false,"is_disabled":false,"rental_uris":{"android":"levelo://app?vid=d37443ee-928f-4706-94cd-aba60b33da75","ios":"levelo://app?vid=d37443ee-928f-4706-94cd-aba60b33da75"},"vehicle_type_id":"4","last_reported":1689710860,"current_range_meters":1200,"station_id":"ce4bgpp2rcd13ifvqc3g","pricing_plan_id":"free"},{"bike_id":"b659ada8-e5a2-4afd-8c30-d1c2a53760ea","system_id":"levelo_inurba_marseille","lat":43.311722,"lon":5.387247,"is_reserved":false,"is_disabled":false,"rental_uris":{"android":"levelo://app?vid=b659ada8-e5a2-4afd-8c30-d1c2a53760ea","ios":"levelo://app?vid=b659ada8-e5a2-4afd-8c30-d1c2a53760ea"},"vehicle_type_id":"4","last_reported":1689710860,"current_range_meters":24000,"station_id":"ce4bgv12rcd13ifvqcp0","pricing_plan_id":"free"},{"bike_id":"8f04d8c2-a6e1-4541-904e-be32ea83deb3","system_id":"levelo_inurba_marseille","lat":43.311722,"lon":5.387247,"is_reserved":false,"is_disabled":false,"rental_uris":{"android":"levelo://app?vid=8f04d8c2-a6e1-4541-904e-be32ea83deb3","ios":"levelo://app?vid=8f04d8c2-a6e1-4541-904e-be32ea83deb3"},"vehicle_type_id":"4","last_reported":1689710860,"current_range_meters":15600,"station_id":"ce4bgv12rcd13ifvqcp0","pricing_plan_id":"free"},{"bike_id":"e697e18c-fafb-4c9b-8866-9c7f49b7ab11","system_id":"levelo_inurba_marseille","lat":43.31165,"lon":5.38714,"is_reserved":false,"is_disabled":false,"rental_uris":{"android":"levelo://app?vid=e697e18c-fafb-4c9b-8866-9c7f49b7ab11","ios":"levelo://app?vid=e697e18c-fafb-4c9b-8866-9c7f49b7ab11"},"vehicle_type_id":"4","last_reported":1689710860,"current_range_meters":22000,"station_id":"ce4bgv12rcd13ifvqcp0","pricing_plan_id":"free"},{"bike_id":"5f0f16f6-eaf3-449b-b282-81400274a1a2","system_id":"levelo_inurba_marseille","lat":43.31165,"lon":5.38719,"is_reserved":false,"is_disabled":false,"rental_uris":{"android":"levelo://app?vid=5f0f16f6-eaf3-449b-b282-81400274a1a2","ios":"levelo://app?vid=5f0f16f6-eaf3-449b-b282-81400274a1a2"},"vehicle_type_id":"4","last_reported":1689710860,"current_range_meters":31600,"station_id":"","pricing_plan_id":"free"},{"bike_id":"406c2b94-9d29-4ad7-8040-a22997e9ed59","system_id":"levelo_inurba_marseille","lat":43.299243,"lon":5.374807,"is_reserved":false,"is_disabled":false,"rental_uris":{"android":"levelo://app?vid=406c2b94-9d29-4ad7-8040-a22997e9ed59","ios":"levelo://app?vid=406c2b94-9d29-4ad7-8040-a22997e9ed59"},"vehicle_type_id":"4","last_reported":1689710860,"current_range_meters":26800,"station_id":"ce4bgjh2rcd13ifvqbg0","pricing_plan_id":"free"},{"bike_id":"824bfc82-a279-410e-bd14-9e977fc7c8d6","system_id":"levelo_inurba_marseille","lat":43.311722,"lon":5.387247,"is_reserved":false,"is_disabled":false,"rental_uris":{"android":"levelo://app?vid=824bfc82-a279-410e-bd14-9e977fc7c8d6","ios":"levelo://app?vid=824bfc82-a279-410e-bd14-9e977fc7c8d6"},"vehicle_type_id":"4","last_reported":1689710860,"current_range_meters":18000,"station_id":"ce4bgv12rcd13ifvqcp0","pricing_plan_id":"free"},{"bike_id":"38cb8470-ab16-4d1e-bd37-13ef2ac7db48","system_id":"levelo_inurba_marseille","lat":43.322872,"lon":5.382756,"is_reserved":false,"is_disabled":false,"rental_uris":{"android":"levelo://app?vid=38cb8470-ab16-4d1e-bd37-13ef2ac7db48","ios":"levelo://app?vid=38cb8470-ab16-4d1e-bd37-13ef2ac7db48"},"vehicle_type_id":"4","last_reported":1689710860,"current_range_meters":24800,"station_id":"ce4bhr12rcd13ifvqhqg","pricing_plan_id":"free"},{"bike_id":"2ed41945-cea8-4afa-87d0-4eb6bbef9c57","system_id":"levelo_inurba_marseille","lat":43.32286,"lon":5.38263,"is_reserved":false,"is_disabled":false,"rental_uris":{"android":"levelo://app?vid=2ed41945-cea8-4afa-87d0-4eb6bbef9c57","ios":"levelo://app?vid=2ed41945-cea8-4afa-87d0-4eb6bbef9c57"},"vehicle_type_id":"4","last_reported":1689710860,"current_range_meters":24800,"station_id":"ce4bhr12rcd13ifvqhqg","pricing_plan_id":"free"},{"bike_id":"7c154cf1-be76-45ac-8f98-526cdbeb1a99","system_id":"levelo_inurba_marseille","lat":43.322872,"lon":5.382756,"is_reserved":false,"is_disabled":false,"rental_uris":{"android":"levelo://app?vid=7c154cf1-be76-45ac-8f98-526cdbeb1a99","ios":"levelo://app?vid=7c154cf1-be76-45ac-8f98-526cdbeb1a99"},"vehicle_type_id":"4","last_reported":1689710860,"current_range_meters":25200,"station_id":"ce4bhr12rcd13ifvqhqg","pricing_plan_id":"free"},{"bike_id":"e916ca30-98a4-4365-b6d6-d96cd71c267d","system_id":"levelo_inurba_marseille","lat":43.32291,"lon":5.38265,"is_reserved":false,"is_disabled":false,"rental_uris":{"android":"levelo://app?vid=e916ca30-98a4-4365-b6d6-d96cd71c267d","ios":"levelo://app?vid=e916ca30-98a4-4365-b6d6-d96cd71c267d"},"vehicle_type_id":"4","last_reported":1689710860,"current_range_meters":16000,"station_id":"ce4bhr12rcd13ifvqhqg","pricing_plan_id":"free"},{"bike_id":"64127e17-b117-4a26-b5b1-f27db8ca0e03","system_id":"levelo_inurba_marseille","lat":43.322872,"lon":5.382756,"is_reserved":false,"is_disabled":false,"rental_uris":{"android":"levelo://app?vid=64127e17-b117-4a26-b5b1-f27db8ca0e03","ios":"levelo://app?vid=64127e17-b117-4a26-b5b1-f27db8ca0e03"},"vehicle_type_id":"4","last_reported":1689710860,"current_range_meters":21600,"station_id":"ce4bhr12rcd13ifvqhqg","pricing_plan_id":"free"},{"bike_id":"3296666b-4550-46e5-8780-de3f4f4bdb22","system_id":"levelo_inurba_marseille","lat":43.32289,"lon":5.38279,"is_reserved":false,"is_disabled":false,"rental_uris":{"android":"levelo://app?vid=3296666b-4550-46e5-8780-de3f4f4bdb22","ios":"levelo://app?vid=3296666b-4550-46e5-8780-de3f4f4bdb22"},"vehicle_type_id":"4","last_reported":1689710860,"current_range_meters":23600,"station_id":"ce4bhr12rcd13ifvqhqg","pricing_plan_id":"free"},{"bike_id":"be92d518-68b8-4f05-a3c0-5d2d0d4d757d","system_id":"levelo_inurba_marseille","lat":43.32822,"lon":5.36688,"is_reserved":false,"is_disabled":false,"rental_uris":{"android":"levelo://app?vid=be92d518-68b8-4f05-a3c0-5d2d0d4d757d","ios":"levelo://app?vid=be92d518-68b8-4f05-a3c0-5d2d0d4d757d"},"vehicle_type_id":"4","last_reported":1689710860,"current_range_meters":20800,"station_id":"ce4bhs92rcd13ifvqi0g","pricing_plan_id":"free"},{"bike_id":"ca80ddc9-4224-4881-ba12-3ea418891e6c","system_id":"levelo_inurba_marseille","lat":43.32823,"lon":5.36684,"is_reserved":false,"is_disabled":false,"rental_uris":{"android":"levelo://app?vid=ca80ddc9-4224-4881-ba12-3ea418891e6c","ios":"levelo://app?vid=ca80ddc9-4224-4881-ba12-3ea418891e6c"},"vehicle_type_id":"4","last_reported":1689710860,"current_range_meters":0,"station_id":"ce4bhs92rcd13ifvqi0g","pricing_plan_id":"free"},{"bike_id":"c52398db-3149-4ccd-8b41-49b4cc753238","system_id":"levelo_inurba_marseille","lat":43.32825,"lon":5.36686,"is_reserved":false,"is_disabled":false,"rental_uris":{"android":"levelo://app?vid=c52398db-3149-4ccd-8b41-49b4cc753238","ios":"levelo://app?vid=c52398db-3149-4ccd-8b41-49b4cc753238"},"vehicle_type_id":"4","last_reported":1689710860,"current_range_meters":20400,"station_id":"ce4bhs92rcd13ifvqi0g","pricing_plan_id":"free"},{"bike_id":"bccd87f9-44fb-4c8c-b55e-836d1e79bd1d","system_id":"levelo_inurba_marseille","lat":43.328371,"lon":5.366909,"is_reserved":false,"is_disabled":false,"rental_uris":{"android":"levelo://app?vid=bccd87f9-44fb-4c8c-b55e-836d1e79bd1d","ios":"levelo://app?vid=bccd87f9-44fb-4c8c-b55e-836d1e79bd1d"},"vehicle_type_id":"4","last_reported":1689710860,"current_range_meters":24800,"station_id":"ce4bhs92rcd13ifvqi0g","pricing_plan_id":"free"},{"bike_id":"c60ae560-9dc6-4bdd-b313-baa25229a308","system_id":"levelo_inurba_marseille","lat":43.32826,"lon":5.36687,"is_reserved":false,"is_disabled":false,"rental_uris":{"android":"levelo://app?vid=c60ae560-9dc6-4bdd-b313-baa25229a308","ios":"levelo://app?vid=c60ae560-9dc6-4bdd-b313-baa25229a308"},"vehicle_type_id":"4","last_reported":1689710860,"current_range_meters":22800,"station_id":"ce4bhs92rcd13ifvqi0g","pricing_plan_id":"free"},{"bike_id":"05f61ee2-50db-419a-b4c2-15d64fa3a4b7","system_id":"levelo_inurba_marseille","lat":43.32826,"lon":5.36677,"is_reserved":false,"is_disabled":false,"rental_uris":{"android":"levelo://app?vid=05f61ee2-50db-419a-b4c2-15d64fa3a4b7","ios":"levelo://app?vid=05f61ee2-50db-419a-b4c2-15d64fa3a4b7"},"vehicle_type_id":"4","last_reported":1689710860,"current_range_meters":16400,"station_id":"ce4bhs92rcd13ifvqi0g","pricing_plan_id":"free"},{"bike_id":"68aff992-6a2f-4df7-84f1-5f129124d378","system_id":"levelo_inurba_marseille","lat":43.32827,"lon":5.36688,"is_reserved":false,"is_disabled":false,"rental_uris":{"android":"levelo://app?vid=68aff992-6a2f-4df7-84f1-5f129124d378","ios":"levelo://app?vid=68aff992-6a2f-4df7-84f1-5f129124d378"},"vehicle_type_id":"4","last_reported":1689710860,"current_range_meters":30800,"station_id":"ce4bhs92rcd13ifvqi0g","pricing_plan_id":"free"},{"bike_id":"eb414e3d-48ee-4bed-aadf-aaf017756557","system_id":"levelo_inurba_marseille","lat":43.32827,"lon":5.36685,"is_reserved":false,"is_disabled":false,"rental_uris":{"android":"levelo://app?vid=eb414e3d-48ee-4bed-aadf-aaf017756557","ios":"levelo://app?vid=eb414e3d-48ee-4bed-aadf-aaf017756557"},"vehicle_type_id":"4","last_reported":1689710860,"current_range_meters":23200,"station_id":"ce4bhs92rcd13ifvqi0g","pricing_plan_id":"free"},{"bike_id":"fa22a42c-19fd-4d4c-b13d-acfa470204e5","system_id":"levelo_inurba_marseille","lat":43.328371,"lon":5.366909,"is_reserved":false,"is_disabled":false,"rental_uris":{"android":"levelo://app?vid=fa22a42c-19fd-4d4c-b13d-acfa470204e5","ios":"levelo://app?vid=fa22a42c-19fd-4d4c-b13d-acfa470204e5"},"vehicle_type_id":"4","last_reported":1689710860,"current_range_meters":23200,"station_id":"ce4bhs92rcd13ifvqi0g","pricing_plan_id":"free"},{"bike_id":"1785ac81-c45b-4e28-b2e3-d4fb077dcc49","system_id":"levelo_inurba_marseille","lat":43.32828,"lon":5.36686,"is_reserved":false,"is_disabled":false,"rental_uris":{"android":"levelo://app?vid=1785ac81-c45b-4e28-b2e3-d4fb077dcc49","ios":"levelo://app?vid=1785ac81-c45b-4e28-b2e3-d4fb077dcc49"},"vehicle_type_id":"4","last_reported":1689710860,"current_range_meters":18400,"station_id":"ce4bhs92rcd13ifvqi0g","pricing_plan_id":"free"},{"bike_id":"c2dbc644-c7fb-4fb5-923b-703ff3d9c54f","system_id":"levelo_inurba_marseille","lat":43.32828,"lon":5.36683,"is_reserved":false,"is_disabled":false,"rental_uris":{"android":"levelo://app?vid=c2dbc644-c7fb-4fb5-923b-703ff3d9c54f","ios":"levelo://app?vid=c2dbc644-c7fb-4fb5-923b-703ff3d9c54f"},"vehicle_type_id":"4","last_reported":1689710860,"current_range_meters":1600,"station_id":"ce4bhs92rcd13ifvqi0g","pricing_plan_id":"free"},{"bike_id":"1b1a92f9-a469-49be-ae33-4794a606317c","system_id":"levelo_inurba_marseille","lat":43.328371,"lon":5.366909,"is_reserved":false,"is_disabled":false,"rental_uris":{"android":"levelo://app?vid=1b1a92f9-a469-49be-ae33-4794a606317c","ios":"levelo://app?vid=1b1a92f9-a469-49be-ae33-4794a606317c"},"vehicle_type_id":"4","last_reported":1689710860,"current_range_meters":18400,"station_id":"ce4bhs92rcd13ifvqi0g","pricing_plan_id":"free"},{"bike_id":"a183349e-8fc2-422b-a1a4-311bf42922ae","system_id":"levelo_inurba_marseille","lat":43.32832,"lon":5.36681,"is_reserved":false,"is_disabled":false,"rental_uris":{"android":"levelo://app?vid=a183349e-8fc2-422b-a1a4-311bf42922ae","ios":"levelo://app?vid=a183349e-8fc2-422b-a1a4-311bf42922ae"},"vehicle_type_id":"4","last_reported":1689710860,"current_range_meters":24000,"station_id":"ce4bhs92rcd13ifvqi0g","pricing_plan_id":"free"},{"bike_id":"8d37cf8e-3395-4f8f-a943-77ef2cb8f5e6","system_id":"levelo_inurba_marseille","lat":43.297163,"lon":5.365866,"is_reserved":false,"is_disabled":false,"rental_uris":{"android":"levelo://app?vid=8d37cf8e-3395-4f8f-a943-77ef2cb8f5e6","ios":"levelo://app?vid=8d37cf8e-3395-4f8f-a943-77ef2cb8f5e6"},"vehicle_type_id":"4","last_reported":1689710860,"current_range_meters":14400,"station_id":"ce4bgn12rcd13ifvqbt0","pricing_plan_id":"free"},{"bike_id":"3916e407-8c11-4a2b-8e00-1d25f7bfdca8","system_id":"levelo_inurba_marseille","lat":43.29701,"lon":5.36604,"is_reserved":false,"is_disabled":false,"rental_uris":{"android":"levelo://app?vid=3916e407-8c11-4a2b-8e00-1d25f7bfdca8","ios":"levelo://app?vid=3916e407-8c11-4a2b-8e00-1d25f7bfdca8"},"vehicle_type_id":"4","last_reported":1689710860,"current_range_meters":30000,"station_id":"ce4bgn12rcd13ifvqbt0","pricing_plan_id":"free"},{"bike_id":"73e8850f-29d7-4798-83cd-4b2ed3f9b421","system_id":"levelo_inurba_marseille","lat":43.2968,"lon":5.37291,"is_reserved":false,"is_disabled":false,"rental_uris":{"android":"levelo://app?vid=73e8850f-29d7-4798-83cd-4b2ed3f9b421","ios":"levelo://app?vid=73e8850f-29d7-4798-83cd-4b2ed3f9b421"},"vehicle_type_id":"4","last_reported":1689710860,"current_range_meters":0,"station_id":"ce4bgk12rcd13ifvqbj0","pricing_plan_id":"free"},{"bike_id":"b6c369a4-34b6-4787-8ce1-83b1ed994e77","system_id":"levelo_inurba_marseille","lat":43.2968,"lon":5.37291,"is_reserved":false,"is_disabled":false,"rental_uris":{"android":"levelo://app?vid=b6c369a4-34b6-4787-8ce1-83b1ed994e77","ios":"levelo://app?vid=b6c369a4-34b6-4787-8ce1-83b1ed994e77"},"vehicle_type_id":"4","last_reported":1689710860,"current_range_meters":16000,"station_id":"ce4bgk12rcd13ifvqbj0","pricing_plan_id":"free"},{"bike_id":"f9d209b6-dc93-4a81-b83c-3c2bb6c98dd6","system_id":"levelo_inurba_marseille","lat":43.29644,"lon":5.36027,"is_reserved":false,"is_disabled":false,"rental_uris":{"android":"levelo://app?vid=f9d209b6-dc93-4a81-b83c-3c2bb6c98dd6","ios":"levelo://app?vid=f9d209b6-dc93-4a81-b83c-3c2bb6c98dd6"},"vehicle_type_id":"4","last_reported":1689710860,"current_range_meters":30400,"station_id":"","pricing_plan_id":"free"},{"bike_id":"f5e47134-c5b6-4562-9370-72afdde80d88","system_id":"levelo_inurba_marseille","lat":43.296921,"lon":5.376579,"is_reserved":false,"is_disabled":false,"rental_uris":{"android":"levelo://app?vid=f5e47134-c5b6-4562-9370-72afdde80d88","ios":"levelo://app?vid=f5e47134-c5b6-4562-9370-72afdde80d88"},"vehicle_type_id":"4","last_reported":1689710860,"current_range_meters":400,"station_id":"ce4bgkh2rcd13ifvqbl0","pricing_plan_id":"free"},{"bike_id":"0bf23327-56dd-4228-aedc-4b1c325da72d","system_id":"levelo_inurba_marseille","lat":43.299028,"lon":5.381509,"is_reserved":false,"is_disabled":false,"rental_uris":{"android":"levelo://app?vid=0bf23327-56dd-4228-aedc-4b1c325da72d","ios":"levelo://app?vid=0bf23327-56dd-4228-aedc-4b1c325da72d"},"vehicle_type_id":"4","last_reported":1689710860,"current_range_meters":6400,"station_id":"ce4bgj12rcd13ifvqbc0","pricing_plan_id":"free"},{"bike_id":"cd6694af-dc75-40e0-8b1a-805edc7c9d44","system_id":"levelo_inurba_marseille","lat":43.299028,"lon":5.381509,"is_reserved":false,"is_disabled":false,"rental_uris":{"android":"levelo://app?vid=cd6694af-dc75-40e0-8b1a-805edc7c9d44","ios":"levelo://app?vid=cd6694af-dc75-40e0-8b1a-805edc7c9d44"},"vehicle_type_id":"4","last_reported":1689710860,"current_range_meters":400,"station_id":"ce4bgj12rcd13ifvqbc0","pricing_plan_id":"free"},{"bike_id":"b09be58a-48bb-4663-9df9-dbaabf6f21df","system_id":"levelo_inurba_marseille","lat":43.299028,"lon":5.381509,"is_reserved":false,"is_disabled":false,"rental_uris":{"android":"levelo://app?vid=b09be58a-48bb-4663-9df9-dbaabf6f21df","ios":"levelo://app?vid=b09be58a-48bb-4663-9df9-dbaabf6f21df"},"vehicle_type_id":"4","last_reported":1689710860,"current_range_meters":7200,"station_id":"ce4bgj12rcd13ifvqbc0","pricing_plan_id":"free"},{"bike_id":"6d77de10-2745-4e4f-b827-53d301017e26","system_id":"levelo_inurba_marseille","lat":43.299028,"lon":5.381509,"is_reserved":false,"is_disabled":false,"rental_uris":{"android":"levelo://app?vid=6d77de10-2745-4e4f-b827-53d301017e26","ios":"levelo://app?vid=6d77de10-2745-4e4f-b827-53d301017e26"},"vehicle_type_id":"4","last_reported":1689710860,"current_range_meters":8800,"station_id":"ce4bgj12rcd13ifvqbc0","pricing_plan_id":"free"},{"bike_id":"942481de-43d6-4f48-bf2e-454f1f772366","system_id":"levelo_inurba_marseille","lat":43.309589,"lon":5.390258,"is_reserved":false,"is_disabled":false,"rental_uris":{"android":"levelo://app?vid=942481de-43d6-4f48-bf2e-454f1f772366","ios":"levelo://app?vid=942481de-43d6-4f48-bf2e-454f1f772366"},"vehicle_type_id":"4","last_reported":1689710860,"current_range_meters":22000,"station_id":"ce4bgup2rcd13ifvqco0","pricing_plan_id":"free"},{"bike_id":"463d6c70-243f-4d17-820a-d248920c6269","system_id":"levelo_inurba_marseille","lat":43.317557,"lon":5.390173,"is_reserved":false,"is_disabled":false,"rental_uris":{"android":"levelo://app?vid=463d6c70-243f-4d17-820a-d248920c6269","ios":"levelo://app?vid=463d6c70-243f-4d17-820a-d248920c6269"},"vehicle_type_id":"4","last_reported":1689710860,"current_range_meters":15200,"station_id":"ce4bhqp2rcd13ifvqhng","pricing_plan_id":"free"},{"bike_id":"3ffcd7ca-33b6-4140-867d-c4a471c3ed2d","system_id":"levelo_inurba_marseille","lat":43.317557,"lon":5.390173,"is_reserved":false,"is_disabled":false,"rental_uris":{"android":"levelo://app?vid=3ffcd7ca-33b6-4140-867d-c4a471c3ed2d","ios":"levelo://app?vid=3ffcd7ca-33b6-4140-867d-c4a471c3ed2d"},"vehicle_type_id":"4","last_reported":1689710860,"current_range_meters":23200,"station_id":"ce4bhqp2rcd13ifvqhng","pricing_plan_id":"free"},{"bike_id":"3daa75b0-6298-4859-80cd-9f42f5dd00c5","system_id":"levelo_inurba_marseille","lat":43.317557,"lon":5.390173,"is_reserved":false,"is_disabled":false,"rental_uris":{"android":"levelo://app?vid=3daa75b0-6298-4859-80cd-9f42f5dd00c5","ios":"levelo://app?vid=3daa75b0-6298-4859-80cd-9f42f5dd00c5"},"vehicle_type_id":"4","last_reported":1689710860,"current_range_meters":9200,"station_id":"ce4bhqp2rcd13ifvqhng","pricing_plan_id":"free"},{"bike_id":"94959e57-b440-423f-8dc5-bb4906fcdbdd","system_id":"levelo_inurba_marseille","lat":43.317557,"lon":5.390173,"is_reserved":false,"is_disabled":false,"rental_uris":{"android":"levelo://app?vid=94959e57-b440-423f-8dc5-bb4906fcdbdd","ios":"levelo://app?vid=94959e57-b440-423f-8dc5-bb4906fcdbdd"},"vehicle_type_id":"4","last_reported":1689710860,"current_range_meters":31200,"station_id":"ce4bhqp2rcd13ifvqhng","pricing_plan_id":"free"},{"bike_id":"149c94ad-2e03-4c5c-a382-ac5d9737014a","system_id":"levelo_inurba_marseille","lat":43.317557,"lon":5.390173,"is_reserved":false,"is_disabled":false,"rental_uris":{"android":"levelo://app?vid=149c94ad-2e03-4c5c-a382-ac5d9737014a","ios":"levelo://app?vid=149c94ad-2e03-4c5c-a382-ac5d9737014a"},"vehicle_type_id":"4","last_reported":1689710860,"current_range_meters":31600,"station_id":"ce4bhqp2rcd13ifvqhng","pricing_plan_id":"free"},{"bike_id":"11ee362a-447b-437c-9cc1-8c2c1025c76f","system_id":"levelo_inurba_marseille","lat":43.317557,"lon":5.390173,"is_reserved":false,"is_disabled":false,"rental_uris":{"android":"levelo://app?vid=11ee362a-447b-437c-9cc1-8c2c1025c76f","ios":"levelo://app?vid=11ee362a-447b-437c-9cc1-8c2c1025c76f"},"vehicle_type_id":"4","last_reported":1689710860,"current_range_meters":21600,"station_id":"ce4bhqp2rcd13ifvqhng","pricing_plan_id":"free"},{"bike_id":"a4ce986c-bb39-40b0-9ba0-9e7c714bc33e","system_id":"levelo_inurba_marseille","lat":43.317557,"lon":5.390173,"is_reserved":false,"is_disabled":false,"rental_uris":{"android":"levelo://app?vid=a4ce986c-bb39-40b0-9ba0-9e7c714bc33e","ios":"levelo://app?vid=a4ce986c-bb39-40b0-9ba0-9e7c714bc33e"},"vehicle_type_id":"4","last_reported":1689710860,"current_range_meters":21600,"station_id":"ce4bhqp2rcd13ifvqhng","pricing_plan_id":"free"},{"bike_id":"5a3bae3f-877a-4441-96ce-3bab3b483ea1","system_id":"levelo_inurba_marseille","lat":43.317557,"lon":5.390173,"is_reserved":false,"is_disabled":false,"rental_uris":{"android":"levelo://app?vid=5a3bae3f-877a-4441-96ce-3bab3b483ea1","ios":"levelo://app?vid=5a3bae3f-877a-4441-96ce-3bab3b483ea1"},"vehicle_type_id":"4","last_reported":1689710860,"current_range_meters":31200,"station_id":"ce4bhqp2rcd13ifvqhng","pricing_plan_id":"free"},{"bike_id":"97c69e7b-d785-4d2e-a444-b3f7be1ffbfb","system_id":"levelo_inurba_marseille","lat":43.317557,"lon":5.390173,"is_reserved":false,"is_disabled":false,"rental_uris":{"android":"levelo://app?vid=97c69e7b-d785-4d2e-a444-b3f7be1ffbfb","ios":"levelo://app?vid=97c69e7b-d785-4d2e-a444-b3f7be1ffbfb"},"vehicle_type_id":"4","last_reported":1689710860,"current_range_meters":26400,"station_id":"ce4bhqp2rcd13ifvqhng","pricing_plan_id":"free"},{"bike_id":"d2cd3bd4-8c22-42bd-960c-0d87b738e930","system_id":"levelo_inurba_marseille","lat":43.29792,"lon":5.38092,"is_reserved":false,"is_disabled":false,"rental_uris":{"android":"levelo://app?vid=d2cd3bd4-8c22-42bd-960c-0d87b738e930","ios":"levelo://app?vid=d2cd3bd4-8c22-42bd-960c-0d87b738e930"},"vehicle_type_id":"4","last_reported":1689710860,"current_range_meters":5200,"station_id":"ce4bgip2rcd13ifvqbb0","pricing_plan_id":"free"},{"bike_id":"94658cc8-05e8-4903-be84-fbb258d35938","system_id":"levelo_inurba_marseille","lat":43.30431,"lon":5.38882,"is_reserved":false,"is_disabled":false,"rental_uris":{"android":"levelo://app?vid=94658cc8-05e8-4903-be84-fbb258d35938","ios":"levelo://app?vid=94658cc8-05e8-4903-be84-fbb258d35938"},"vehicle_type_id":"4","last_reported":1689710860,"current_range_meters":28800,"station_id":"ce4bgk12rcd13ifvqbi0","pricing_plan_id":"free"},{"bike_id":"3b8f0463-619d-4a78-b48f-23a37f654ddd","system_id":"levelo_inurba_marseille","lat":43.304274,"lon":5.388873,"is_reserved":false,"is_disabled":false,"rental_uris":{"android":"levelo://app?vid=3b8f0463-619d-4a78-b48f-23a37f654ddd","ios":"levelo://app?vid=3b8f0463-619d-4a78-b48f-23a37f654ddd"},"vehicle_type_id":"4","last_reported":1689710860,"current_range_meters":14400,"station_id":"ce4bgk12rcd13ifvqbi0","pricing_plan_id":"free"},{"bike_id":"92146313-dc46-41c0-a678-a6ad30febdd4","system_id":"levelo_inurba_marseille","lat":43.304274,"lon":5.388873,"is_reserved":false,"is_disabled":false,"rental_uris":{"android":"levelo://app?vid=92146313-dc46-41c0-a678-a6ad30febdd4","ios":"levelo://app?vid=92146313-dc46-41c0-a678-a6ad30febdd4"},"vehicle_type_id":"4","last_reported":1689710860,"current_range_meters":21600,"station_id":"ce4bgk12rcd13ifvqbi0","pricing_plan_id":"free"},{"bike_id":"6b6c639e-b2bc-4fbe-9df1-214c86c857a4","system_id":"levelo_inurba_marseille","lat":43.295279,"lon":5.375048,"is_reserved":false,"is_disabled":false,"rental_uris":{"android":"levelo://app?vid=6b6c639e-b2bc-4fbe-9df1-214c86c857a4","ios":"levelo://app?vid=6b6c639e-b2bc-4fbe-9df1-214c86c857a4"},"vehicle_type_id":"4","last_reported":1689710860,"current_range_meters":25200,"station_id":"ce4bgkp2rcd13ifvqbmg","pricing_plan_id":"free"},{"bike_id":"1c772097-0f8e-4a7f-9543-dac990ef25af","system_id":"levelo_inurba_marseille","lat":43.299707,"lon":5.384859,"is_reserved":false,"is_disabled":false,"rental_uris":{"android":"levelo://app?vid=1c772097-0f8e-4a7f-9543-dac990ef25af","ios":"levelo://app?vid=1c772097-0f8e-4a7f-9543-dac990ef25af"},"vehicle_type_id":"4","last_reported":1689710860,"current_range_meters":17200,"station_id":"ce4bgj92rcd13ifvqbd0","pricing_plan_id":"free"},{"bike_id":"86f1c943-b73a-46a3-ba40-dd1a432118f2","system_id":"levelo_inurba_marseille","lat":43.299707,"lon":5.384859,"is_reserved":false,"is_disabled":false,"rental_uris":{"android":"levelo://app?vid=86f1c943-b73a-46a3-ba40-dd1a432118f2","ios":"levelo://app?vid=86f1c943-b73a-46a3-ba40-dd1a432118f2"},"vehicle_type_id":"4","last_reported":1689710860,"current_range_meters":4400,"station_id":"ce4bgj92rcd13ifvqbd0","pricing_plan_id":"free"},{"bike_id":"93a7006c-ecd8-4cc8-9253-91bc117325ce","system_id":"levelo_inurba_marseille","lat":43.299707,"lon":5.384859,"is_reserved":false,"is_disabled":false,"rental_uris":{"android":"levelo://app?vid=93a7006c-ecd8-4cc8-9253-91bc117325ce","ios":"levelo://app?vid=93a7006c-ecd8-4cc8-9253-91bc117325ce"},"vehicle_type_id":"4","last_reported":1689710860,"current_range_meters":20400,"station_id":"ce4bgj92rcd13ifvqbd0","pricing_plan_id":"free"},{"bike_id":"68672ced-4a2a-4f2a-816b-4cb90345b728","system_id":"levelo_inurba_marseille","lat":43.299707,"lon":5.384859,"is_reserved":false,"is_disabled":false,"rental_uris":{"android":"levelo://app?vid=68672ced-4a2a-4f2a-816b-4cb90345b728","ios":"levelo://app?vid=68672ced-4a2a-4f2a-816b-4cb90345b728"},"vehicle_type_id":"4","last_reported":1689710860,"current_range_meters":30400,"station_id":"ce4bgj92rcd13ifvqbd0","pricing_plan_id":"free"},{"bike_id":"bb3256f2-8aba-4c05-9248-a1effafac4ce","system_id":"levelo_inurba_marseille","lat":43.299707,"lon":5.384859,"is_reserved":false,"is_disabled":false,"rental_uris":{"android":"levelo://app?vid=bb3256f2-8aba-4c05-9248-a1effafac4ce","ios":"levelo://app?vid=bb3256f2-8aba-4c05-9248-a1effafac4ce"},"vehicle_type_id":"4","last_reported":1689710860,"current_range_meters":26400,"station_id":"ce4bgj92rcd13ifvqbd0","pricing_plan_id":"free"},{"bike_id":"fe65c3f5-eaaa-43b8-b477-8d5ee12c5433","system_id":"levelo_inurba_marseille","lat":43.29981,"lon":5.385,"is_reserved":false,"is_disabled":false,"rental_uris":{"android":"levelo://app?vid=fe65c3f5-eaaa-43b8-b477-8d5ee12c5433","ios":"levelo://app?vid=fe65c3f5-eaaa-43b8-b477-8d5ee12c5433"},"vehicle_type_id":"4","last_reported":1689710860,"current_range_meters":23200,"station_id":"ce4bgj92rcd13ifvqbd0","pricing_plan_id":"free"},{"bike_id":"a5df507c-c5de-4b40-9e46-ba182afd39a7","system_id":"levelo_inurba_marseille","lat":43.29974,"lon":5.38493,"is_reserved":false,"is_disabled":false,"rental_uris":{"android":"levelo://app?vid=a5df507c-c5de-4b40-9e46-ba182afd39a7","ios":"levelo://app?vid=a5df507c-c5de-4b40-9e46-ba182afd39a7"},"vehicle_type_id":"4","last_reported":1689710860,"current_range_meters":27200,"station_id":"ce4bgj92rcd13ifvqbd0","pricing_plan_id":"free"},{"bike_id":"ee5e2eea-172a-4525-849a-945f7e821c9b","system_id":"levelo_inurba_marseille","lat":43.29975,"lon":5.38496,"is_reserved":false,"is_disabled":false,"rental_uris":{"android":"levelo://app?vid=ee5e2eea-172a-4525-849a-945f7e821c9b","ios":"levelo://app?vid=ee5e2eea-172a-4525-849a-945f7e821c9b"},"vehicle_type_id":"4","last_reported":1689710860,"current_range_meters":20800,"station_id":"ce4bgj92rcd13ifvqbd0","pricing_plan_id":"free"},{"bike_id":"1f4a2dde-ccef-408a-98e7-8dc22eb80b1f","system_id":"levelo_inurba_marseille","lat":43.29966,"lon":5.3849,"is_reserved":false,"is_disabled":false,"rental_uris":{"android":"levelo://app?vid=1f4a2dde-ccef-408a-98e7-8dc22eb80b1f","ios":"levelo://app?vid=1f4a2dde-ccef-408a-98e7-8dc22eb80b1f"},"vehicle_type_id":"4","last_reported":1689710860,"current_range_meters":10400,"station_id":"ce4bgj92rcd13ifvqbd0","pricing_plan_id":"free"},{"bike_id":"40414916-a5c5-4cf2-99e8-a4b22d2d61da","system_id":"levelo_inurba_marseille","lat":43.29971,"lon":5.38497,"is_reserved":false,"is_disabled":false,"rental_uris":{"android":"levelo://app?vid=40414916-a5c5-4cf2-99e8-a4b22d2d61da","ios":"levelo://app?vid=40414916-a5c5-4cf2-99e8-a4b22d2d61da"},"vehicle_type_id":"4","last_reported":1689710860,"current_range_meters":11600,"station_id":"ce4bgj92rcd13ifvqbd0","pricing_plan_id":"free"},{"bike_id":"badfbcae-3bea-4c9b-b06a-421448319e08","system_id":"levelo_inurba_marseille","lat":43.299707,"lon":5.384859,"is_reserved":false,"is_disabled":false,"rental_uris":{"android":"levelo://app?vid=badfbcae-3bea-4c9b-b06a-421448319e08","ios":"levelo://app?vid=badfbcae-3bea-4c9b-b06a-421448319e08"},"vehicle_type_id":"4","last_reported":1689710860,"current_range_meters":25600,"station_id":"ce4bgj92rcd13ifvqbd0","pricing_plan_id":"free"},{"bike_id":"1c770dec-0d22-49c9-bbe4-89e4d3fcf85e","system_id":"levelo_inurba_marseille","lat":43.29965,"lon":5.38495,"is_reserved":false,"is_disabled":false,"rental_uris":{"android":"levelo://app?vid=1c770dec-0d22-49c9-bbe4-89e4d3fcf85e","ios":"levelo://app?vid=1c770dec-0d22-49c9-bbe4-89e4d3fcf85e"},"vehicle_type_id":"4","last_reported":1689710860,"current_range_meters":4400,"station_id":"ce4bgj92rcd13ifvqbd0","pricing_plan_id":"free"},{"bike_id":"cf7ba923-1ffc-429f-9bfc-edc68077373d","system_id":"levelo_inurba_marseille","lat":43.29969,"lon":5.38501,"is_reserved":false,"is_disabled":false,"rental_uris":{"android":"levelo://app?vid=cf7ba923-1ffc-429f-9bfc-edc68077373d","ios":"levelo://app?vid=cf7ba923-1ffc-429f-9bfc-edc68077373d"},"vehicle_type_id":"4","last_reported":1689710860,"current_range_meters":28000,"station_id":"ce4bgj92rcd13ifvqbd0","pricing_plan_id":"free"},{"bike_id":"e5fb3f21-87f4-4ecf-bd8f-e0b963a8d40b","system_id":"levelo_inurba_marseille","lat":43.29965,"lon":5.38498,"is_reserved":false,"is_disabled":false,"rental_uris":{"android":"levelo://app?vid=e5fb3f21-87f4-4ecf-bd8f-e0b963a8d40b","ios":"levelo://app?vid=e5fb3f21-87f4-4ecf-bd8f-e0b963a8d40b"},"vehicle_type_id":"4","last_reported":1689710860,"current_range_meters":9200,"station_id":"ce4bgj92rcd13ifvqbd0","pricing_plan_id":"free"},{"bike_id":"11b13b30-23bd-42b0-aed4-d19c7c41188c","system_id":"levelo_inurba_marseille","lat":43.29967,"lon":5.38501,"is_reserved":false,"is_disabled":false,"rental_uris":{"android":"levelo://app?vid=11b13b30-23bd-42b0-aed4-d19c7c41188c","ios":"levelo://app?vid=11b13b30-23bd-42b0-aed4-d19c7c41188c"},"vehicle_type_id":"4","last_reported":1689710860,"current_range_meters":8400,"station_id":"ce4bgj92rcd13ifvqbd0","pricing_plan_id":"free"},{"bike_id":"34ad228e-9a4b-40f1-be92-a1f91583b52b","system_id":"levelo_inurba_marseille","lat":43.29963,"lon":5.38498,"is_reserved":false,"is_disabled":false,"rental_uris":{"android":"levelo://app?vid=34ad228e-9a4b-40f1-be92-a1f91583b52b","ios":"levelo://app?vid=34ad228e-9a4b-40f1-be92-a1f91583b52b"},"vehicle_type_id":"4","last_reported":1689710860,"current_range_meters":19600,"station_id":"ce4bgj92rcd13ifvqbd0","pricing_plan_id":"free"},{"bike_id":"bb55b825-ec27-4492-8abe-7612079c76e3","system_id":"levelo_inurba_marseille","lat":43.29963,"lon":5.38499,"is_reserved":false,"is_disabled":false,"rental_uris":{"android":"levelo://app?vid=bb55b825-ec27-4492-8abe-7612079c76e3","ios":"levelo://app?vid=bb55b825-ec27-4492-8abe-7612079c76e3"},"vehicle_type_id":"4","last_reported":1689710860,"current_range_meters":20400,"station_id":"ce4bgj92rcd13ifvqbd0","pricing_plan_id":"free"},{"bike_id":"8a8f8e70-3b2c-4ea9-98b8-08687217ff01","system_id":"levelo_inurba_marseille","lat":43.29962,"lon":5.38499,"is_reserved":false,"is_disabled":false,"rental_uris":{"android":"levelo://app?vid=8a8f8e70-3b2c-4ea9-98b8-08687217ff01","ios":"levelo://app?vid=8a8f8e70-3b2c-4ea9-98b8-08687217ff01"},"vehicle_type_id":"4","last_reported":1689710860,"current_range_meters":14800,"station_id":"ce4bgj92rcd13ifvqbd0","pricing_plan_id":"free"},{"bike_id":"2a3b59d6-4b98-474c-9970-b370191a2178","system_id":"levelo_inurba_marseille","lat":43.29962,"lon":5.38504,"is_reserved":false,"is_disabled":false,"rental_uris":{"android":"levelo://app?vid=2a3b59d6-4b98-474c-9970-b370191a2178","ios":"levelo://app?vid=2a3b59d6-4b98-474c-9970-b370191a2178"},"vehicle_type_id":"4","last_reported":1689710860,"current_range_meters":16400,"station_id":"ce4bgj92rcd13ifvqbd0","pricing_plan_id":"free"},{"bike_id":"f2cc5b5b-53a8-4b4c-8ca2-b39be4d5bd87","system_id":"levelo_inurba_marseille","lat":43.29961,"lon":5.38504,"is_reserved":false,"is_disabled":false,"rental_uris":{"android":"levelo://app?vid=f2cc5b5b-53a8-4b4c-8ca2-b39be4d5bd87","ios":"levelo://app?vid=f2cc5b5b-53a8-4b4c-8ca2-b39be4d5bd87"},"vehicle_type_id":"4","last_reported":1689710860,"current_range_meters":2000,"station_id":"ce4bgj92rcd13ifvqbd0","pricing_plan_id":"free"},{"bike_id":"a5ac91dd-494a-4153-ab5e-96317e5d6b50","system_id":"levelo_inurba_marseille","lat":43.32367,"lon":5.388836,"is_reserved":false,"is_disabled":false,"rental_uris":{"android":"levelo://app?vid=a5ac91dd-494a-4153-ab5e-96317e5d6b50","ios":"levelo://app?vid=a5ac91dd-494a-4153-ab5e-96317e5d6b50"},"vehicle_type_id":"4","last_reported":1689710860,"current_range_meters":22800,"station_id":"ce4bhqp2rcd13ifvqhog","pricing_plan_id":"free"},{"bike_id":"5ec41c3e-a4d7-4bef-9b5f-e4125a041933","system_id":"levelo_inurba_marseille","lat":43.32361,"lon":5.38883,"is_reserved":false,"is_disabled":false,"rental_uris":{"android":"levelo://app?vid=5ec41c3e-a4d7-4bef-9b5f-e4125a041933","ios":"levelo://app?vid=5ec41c3e-a4d7-4bef-9b5f-e4125a041933"},"vehicle_type_id":"4","last_reported":1689710860,"current_range_meters":18400,"station_id":"ce4bhqp2rcd13ifvqhog","pricing_plan_id":"free"},{"bike_id":"37489774-59bf-4a84-a322-f6765d786c75","system_id":"levelo_inurba_marseille","lat":43.32367,"lon":5.388836,"is_reserved":false,"is_disabled":false,"rental_uris":{"android":"levelo://app?vid=37489774-59bf-4a84-a322-f6765d786c75","ios":"levelo://app?vid=37489774-59bf-4a84-a322-f6765d786c75"},"vehicle_type_id":"4","last_reported":1689710860,"current_range_meters":10000,"station_id":"ce4bhqp2rcd13ifvqhog","pricing_plan_id":"free"},{"bike_id":"fdf33e7e-bc6f-46fb-88e2-7a5aede71038","system_id":"levelo_inurba_marseille","lat":43.32363,"lon":5.38887,"is_reserved":false,"is_disabled":false,"rental_uris":{"android":"levelo://app?vid=fdf33e7e-bc6f-46fb-88e2-7a5aede71038","ios":"levelo://app?vid=fdf33e7e-bc6f-46fb-88e2-7a5aede71038"},"vehicle_type_id":"4","last_reported":1689710860,"current_range_meters":23600,"station_id":"ce4bhqp2rcd13ifvqhog","pricing_plan_id":"free"},{"bike_id":"4290b152-9a44-4358-9a64-332a32078433","system_id":"levelo_inurba_marseille","lat":43.32367,"lon":5.388836,"is_reserved":false,"is_disabled":false,"rental_uris":{"android":"levelo://app?vid=4290b152-9a44-4358-9a64-332a32078433","ios":"levelo://app?vid=4290b152-9a44-4358-9a64-332a32078433"},"vehicle_type_id":"4","last_reported":1689710860,"current_range_meters":17200,"station_id":"ce4bhqp2rcd13ifvqhog","pricing_plan_id":"free"},{"bike_id":"2baf5c12-896e-4857-beb1-c0b457a46e61","system_id":"levelo_inurba_marseille","lat":43.32368,"lon":5.38884,"is_reserved":false,"is_disabled":false,"rental_uris":{"android":"levelo://app?vid=2baf5c12-896e-4857-beb1-c0b457a46e61","ios":"levelo://app?vid=2baf5c12-896e-4857-beb1-c0b457a46e61"},"vehicle_type_id":"4","last_reported":1689710860,"current_range_meters":24800,"station_id":"ce4bhqp2rcd13ifvqhog","pricing_plan_id":"free"},{"bike_id":"9c907640-9236-440f-a192-f45a0e70843e","system_id":"levelo_inurba_marseille","lat":43.30736,"lon":5.39248,"is_reserved":false,"is_disabled":false,"rental_uris":{"android":"levelo://app?vid=9c907640-9236-440f-a192-f45a0e70843e","ios":"levelo://app?vid=9c907640-9236-440f-a192-f45a0e70843e"},"vehicle_type_id":"4","last_reported":1689710860,"current_range_meters":3600,"station_id":"","pricing_plan_id":"free"},{"bike_id":"33af6360-898e-403d-80f9-b88a5dacf14e","system_id":"levelo_inurba_marseille","lat":43.29602,"lon":5.381084,"is_reserved":false,"is_disabled":false,"rental_uris":{"android":"levelo://app?vid=33af6360-898e-403d-80f9-b88a5dacf14e","ios":"levelo://app?vid=33af6360-898e-403d-80f9-b88a5dacf14e"},"vehicle_type_id":"4","last_reported":1689710860,"current_range_meters":16400,"station_id":"ce4bgl12rcd13ifvqbo0","pricing_plan_id":"free"},{"bike_id":"9511b522-183f-4f99-b89c-c7ec7066ad65","system_id":"levelo_inurba_marseille","lat":43.29602,"lon":5.381084,"is_reserved":false,"is_disabled":false,"rental_uris":{"android":"levelo://app?vid=9511b522-183f-4f99-b89c-c7ec7066ad65","ios":"levelo://app?vid=9511b522-183f-4f99-b89c-c7ec7066ad65"},"vehicle_type_id":"4","last_reported":1689710860,"current_range_meters":17200,"station_id":"ce4bgl12rcd13ifvqbo0","pricing_plan_id":"free"},{"bike_id":"ad5889f3-e71a-4e16-89de-ffdff95c95a1","system_id":"levelo_inurba_marseille","lat":43.29327,"lon":5.37275,"is_reserved":false,"is_disabled":false,"rental_uris":{"android":"levelo://app?vid=ad5889f3-e71a-4e16-89de-ffdff95c95a1","ios":"levelo://app?vid=ad5889f3-e71a-4e16-89de-ffdff95c95a1"},"vehicle_type_id":"4","last_reported":1689710860,"current_range_meters":21200,"station_id":"","pricing_plan_id":"free"},{"bike_id":"c7b0bde6-2a97-4a95-819d-eb06baa55977","system_id":"levelo_inurba_marseille","lat":43.293249,"lon":5.371578,"is_reserved":false,"is_disabled":false,"rental_uris":{"android":"levelo://app?vid=c7b0bde6-2a97-4a95-819d-eb06baa55977","ios":"levelo://app?vid=c7b0bde6-2a97-4a95-819d-eb06baa55977"},"vehicle_type_id":"4","last_reported":1689710860,"current_range_meters":17600,"station_id":"ce4bgh92rcd13ifvqb40","pricing_plan_id":"free"},{"bike_id":"e967f356-d35a-49e0-b30a-59c7f34a52b1","system_id":"levelo_inurba_marseille","lat":43.29267,"lon":5.36842,"is_reserved":false,"is_disabled":false,"rental_uris":{"android":"levelo://app?vid=e967f356-d35a-49e0-b30a-59c7f34a52b1","ios":"levelo://app?vid=e967f356-d35a-49e0-b30a-59c7f34a52b1"},"vehicle_type_id":"4","last_reported":1689710860,"current_range_meters":15600,"station_id":"ce4bhbp2rcd13ifvqesg","pricing_plan_id":"free"},{"bike_id":"ab982072-605e-4b8b-9e95-e94af7203960","system_id":"levelo_inurba_marseille","lat":43.29267,"lon":5.36845,"is_reserved":false,"is_disabled":false,"rental_uris":{"android":"levelo://app?vid=ab982072-605e-4b8b-9e95-e94af7203960","ios":"levelo://app?vid=ab982072-605e-4b8b-9e95-e94af7203960"},"vehicle_type_id":"4","last_reported":1689710860,"current_range_meters":0,"station_id":"ce4bhbp2rcd13ifvqesg","pricing_plan_id":"free"},{"bike_id":"94484169-2d51-46e6-aede-73c21eac8a82","system_id":"levelo_inurba_marseille","lat":43.30245,"lon":5.3907,"is_reserved":false,"is_disabled":false,"rental_uris":{"android":"levelo://app?vid=94484169-2d51-46e6-aede-73c21eac8a82","ios":"levelo://app?vid=94484169-2d51-46e6-aede-73c21eac8a82"},"vehicle_type_id":"4","last_reported":1689710860,"current_range_meters":25200,"station_id":"","pricing_plan_id":"free"},{"bike_id":"ae360c4d-c96f-48df-8f89-f43a11a9a3e9","system_id":"levelo_inurba_marseille","lat":43.305994,"lon":5.393687,"is_reserved":false,"is_disabled":false,"rental_uris":{"android":"levelo://app?vid=ae360c4d-c96f-48df-8f89-f43a11a9a3e9","ios":"levelo://app?vid=ae360c4d-c96f-48df-8f89-f43a11a9a3e9"},"vehicle_type_id":"4","last_reported":1689710860,"current_range_meters":0,"station_id":"ce4bh0p2rcd13ifvqd80","pricing_plan_id":"free"},{"bike_id":"4aecb377-07b0-466f-91d8-f4a356e96425","system_id":"levelo_inurba_marseille","lat":43.302992,"lon":5.392136,"is_reserved":false,"is_disabled":false,"rental_uris":{"android":"levelo://app?vid=4aecb377-07b0-466f-91d8-f4a356e96425","ios":"levelo://app?vid=4aecb377-07b0-466f-91d8-f4a356e96425"},"vehicle_type_id":"4","last_reported":1689710860,"current_range_meters":24000,"station_id":"ce4bgkh2rcd13ifvqbk0","pricing_plan_id":"free"},{"bike_id":"7d1e62de-b987-4338-b425-5f2fb43db52d","system_id":"levelo_inurba_marseille","lat":43.2936,"lon":5.37835,"is_reserved":false,"is_disabled":false,"rental_uris":{"android":"levelo://app?vid=7d1e62de-b987-4338-b425-5f2fb43db52d","ios":"levelo://app?vid=7d1e62de-b987-4338-b425-5f2fb43db52d"},"vehicle_type_id":"4","last_reported":1689710860,"current_range_meters":3600,"station_id":"ce4bgjh2rcd13ifvqbf0","pricing_plan_id":"free"},{"bike_id":"f3624a40-ac86-400a-93d1-c867ef5585f7","system_id":"levelo_inurba_marseille","lat":43.302992,"lon":5.392136,"is_reserved":false,"is_disabled":false,"rental_uris":{"android":"levelo://app?vid=f3624a40-ac86-400a-93d1-c867ef5585f7","ios":"levelo://app?vid=f3624a40-ac86-400a-93d1-c867ef5585f7"},"vehicle_type_id":"4","last_reported":1689710860,"current_range_meters":21600,"station_id":"ce4bgkh2rcd13ifvqbk0","pricing_plan_id":"free"},{"bike_id":"1904193a-6e4a-455c-8c12-526a577581e5","system_id":"levelo_inurba_marseille","lat":43.2936,"lon":5.37835,"is_reserved":false,"is_disabled":false,"rental_uris":{"android":"levelo://app?vid=1904193a-6e4a-455c-8c12-526a577581e5","ios":"levelo://app?vid=1904193a-6e4a-455c-8c12-526a577581e5"},"vehicle_type_id":"4","last_reported":1689710860,"current_range_meters":29600,"station_id":"ce4bgjh2rcd13ifvqbf0","pricing_plan_id":"free"},{"bike_id":"b8e626da-42cf-4557-981f-3ec0d1764a38","system_id":"levelo_inurba_marseille","lat":43.2936,"lon":5.37835,"is_reserved":false,"is_disabled":false,"rental_uris":{"android":"levelo://app?vid=b8e626da-42cf-4557-981f-3ec0d1764a38","ios":"levelo://app?vid=b8e626da-42cf-4557-981f-3ec0d1764a38"},"vehicle_type_id":"4","last_reported":1689710860,"current_range_meters":23600,"station_id":"ce4bgjh2rcd13ifvqbf0","pricing_plan_id":"free"},{"bike_id":"6e5d9a10-e067-4704-b778-495fd36d83dd","system_id":"levelo_inurba_marseille","lat":43.2936,"lon":5.37835,"is_reserved":false,"is_disabled":false,"rental_uris":{"android":"levelo://app?vid=6e5d9a10-e067-4704-b778-495fd36d83dd","ios":"levelo://app?vid=6e5d9a10-e067-4704-b778-495fd36d83dd"},"vehicle_type_id":"4","last_reported":1689710860,"current_range_meters":30400,"station_id":"ce4bgjh2rcd13ifvqbf0","pricing_plan_id":"free"},{"bike_id":"0d919619-8fc7-4f22-8136-907ef97da48b","system_id":"levelo_inurba_marseille","lat":43.2936,"lon":5.37835,"is_reserved":false,"is_disabled":false,"rental_uris":{"android":"levelo://app?vid=0d919619-8fc7-4f22-8136-907ef97da48b","ios":"levelo://app?vid=0d919619-8fc7-4f22-8136-907ef97da48b"},"vehicle_type_id":"4","last_reported":1689710860,"current_range_meters":0,"station_id":"ce4bgjh2rcd13ifvqbf0","pricing_plan_id":"free"},{"bike_id":"fea4861d-7a2b-4392-9a1f-d37d2ea25648","system_id":"levelo_inurba_marseille","lat":43.2936,"lon":5.37835,"is_reserved":false,"is_disabled":false,"rental_uris":{"android":"levelo://app?vid=fea4861d-7a2b-4392-9a1f-d37d2ea25648","ios":"levelo://app?vid=fea4861d-7a2b-4392-9a1f-d37d2ea25648"},"vehicle_type_id":"4","last_reported":1689710860,"current_range_meters":18400,"station_id":"ce4bgjh2rcd13ifvqbf0","pricing_plan_id":"free"},{"bike_id":"9c9ddd3f-c995-4a72-8a06-bd8e0c307ebe","system_id":"levelo_inurba_marseille","lat":43.2936,"lon":5.37835,"is_reserved":false,"is_disabled":false,"rental_uris":{"android":"levelo://app?vid=9c9ddd3f-c995-4a72-8a06-bd8e0c307ebe","ios":"levelo://app?vid=9c9ddd3f-c995-4a72-8a06-bd8e0c307ebe"},"vehicle_type_id":"4","last_reported":1689710860,"current_range_meters":20000,"station_id":"ce4bgjh2rcd13ifvqbf0","pricing_plan_id":"free"},{"bike_id":"448cb009-0d49-4146-80e5-04f40cacaeee","system_id":"levelo_inurba_marseille","lat":43.2936,"lon":5.37835,"is_reserved":false,"is_disabled":false,"rental_uris":{"android":"levelo://app?vid=448cb009-0d49-4146-80e5-04f40cacaeee","ios":"levelo://app?vid=448cb009-0d49-4146-80e5-04f40cacaeee"},"vehicle_type_id":"4","last_reported":1689710860,"current_range_meters":8000,"station_id":"ce4bgjh2rcd13ifvqbf0","pricing_plan_id":"free"},{"bike_id":"b811759e-bcac-43ca-9712-d8b8821eb537","system_id":"levelo_inurba_marseille","lat":43.2936,"lon":5.37835,"is_reserved":false,"is_disabled":false,"rental_uris":{"android":"levelo://app?vid=b811759e-bcac-43ca-9712-d8b8821eb537","ios":"levelo://app?vid=b811759e-bcac-43ca-9712-d8b8821eb537"},"vehicle_type_id":"4","last_reported":1689710860,"current_range_meters":18400,"station_id":"ce4bgjh2rcd13ifvqbf0","pricing_plan_id":"free"},{"bike_id":"05911c12-db29-4578-9efe-cda63b893780","system_id":"levelo_inurba_marseille","lat":43.300852,"lon":5.390859,"is_reserved":false,"is_disabled":false,"rental_uris":{"android":"levelo://app?vid=05911c12-db29-4578-9efe-cda63b893780","ios":"levelo://app?vid=05911c12-db29-4578-9efe-cda63b893780"},"vehicle_type_id":"4","last_reported":1689710860,"current_range_meters":31200,"station_id":"ce4bh192rcd13ifvqdb0","pricing_plan_id":"free"},{"bike_id":"bfe374d8-5da5-4ab6-96aa-49b1bc8b92e0","system_id":"levelo_inurba_marseille","lat":43.30085,"lon":5.390856,"is_reserved":false,"is_disabled":false,"rental_uris":{"android":"levelo://app?vid=bfe374d8-5da5-4ab6-96aa-49b1bc8b92e0","ios":"levelo://app?vid=bfe374d8-5da5-4ab6-96aa-49b1bc8b92e0"},"vehicle_type_id":"4","last_reported":1689710860,"current_range_meters":27200,"station_id":"ce4bh192rcd13ifvqdb0","pricing_plan_id":"free"},{"bike_id":"49bbda67-6a9b-4b4f-a496-e8ace85afffd","system_id":"levelo_inurba_marseille","lat":43.30085,"lon":5.390856,"is_reserved":false,"is_disabled":false,"rental_uris":{"android":"levelo://app?vid=49bbda67-6a9b-4b4f-a496-e8ace85afffd","ios":"levelo://app?vid=49bbda67-6a9b-4b4f-a496-e8ace85afffd"},"vehicle_type_id":"4","last_reported":1689710860,"current_range_meters":3200,"station_id":"ce4bh192rcd13ifvqdb0","pricing_plan_id":"free"},{"bike_id":"75580bd0-72fc-4395-a368-4de2f4ae78b0","system_id":"levelo_inurba_marseille","lat":43.300852,"lon":5.390859,"is_reserved":false,"is_disabled":false,"rental_uris":{"android":"levelo://app?vid=75580bd0-72fc-4395-a368-4de2f4ae78b0","ios":"levelo://app?vid=75580bd0-72fc-4395-a368-4de2f4ae78b0"},"vehicle_type_id":"4","last_reported":1689710860,"current_range_meters":17600,"station_id":"ce4bh192rcd13ifvqdb0","pricing_plan_id":"free"},{"bike_id":"1304b5df-c1a0-438a-9d68-87b3950b8c9e","system_id":"levelo_inurba_marseille","lat":43.30085,"lon":5.390856,"is_reserved":false,"is_disabled":false,"rental_uris":{"android":"levelo://app?vid=1304b5df-c1a0-438a-9d68-87b3950b8c9e","ios":"levelo://app?vid=1304b5df-c1a0-438a-9d68-87b3950b8c9e"},"vehicle_type_id":"4","last_reported":1689710860,"current_range_meters":15200,"station_id":"ce4bh192rcd13ifvqdb0","pricing_plan_id":"free"},{"bike_id":"505b5842-b625-451f-9737-97f1138fea3c","system_id":"levelo_inurba_marseille","lat":43.292663,"lon":5.376394,"is_reserved":false,"is_disabled":false,"rental_uris":{"android":"levelo://app?vid=505b5842-b625-451f-9737-97f1138fea3c","ios":"levelo://app?vid=505b5842-b625-451f-9737-97f1138fea3c"},"vehicle_type_id":"4","last_reported":1689710860,"current_range_meters":19600,"station_id":"ce4bgi12rcd13ifvqb80","pricing_plan_id":"free"},{"bike_id":"ef54cbd3-6071-47c6-8f88-a45eb4858763","system_id":"levelo_inurba_marseille","lat":43.298764,"lon":5.388973,"is_reserved":false,"is_disabled":false,"rental_uris":{"android":"levelo://app?vid=ef54cbd3-6071-47c6-8f88-a45eb4858763","ios":"levelo://app?vid=ef54cbd3-6071-47c6-8f88-a45eb4858763"},"vehicle_type_id":"4","last_reported":1689710860,"current_range_meters":26000,"station_id":"ce4bh392rcd13ifvqdl0","pricing_plan_id":"free"},{"bike_id":"4cffccfc-b4d2-4367-ad49-2b1674102e10","system_id":"levelo_inurba_marseille","lat":43.291675,"lon":5.371583,"is_reserved":false,"is_disabled":false,"rental_uris":{"android":"levelo://app?vid=4cffccfc-b4d2-4367-ad49-2b1674102e10","ios":"levelo://app?vid=4cffccfc-b4d2-4367-ad49-2b1674102e10"},"vehicle_type_id":"4","last_reported":1689710860,"current_range_meters":1200,"station_id":"ce4bha92rcd13ifvqeh0","pricing_plan_id":"free"},{"bike_id":"7601673f-cd43-4d61-a87a-9ef03f053527","system_id":"levelo_inurba_marseille","lat":43.298764,"lon":5.388973,"is_reserved":false,"is_disabled":false,"rental_uris":{"android":"levelo://app?vid=7601673f-cd43-4d61-a87a-9ef03f053527","ios":"levelo://app?vid=7601673f-cd43-4d61-a87a-9ef03f053527"},"vehicle_type_id":"4","last_reported":1689710860,"current_range_meters":5200,"station_id":"ce4bh392rcd13ifvqdl0","pricing_plan_id":"free"},{"bike_id":"42590978-69ff-4e55-95be-943b603d30a1","system_id":"levelo_inurba_marseille","lat":43.309038,"lon":5.396546,"is_reserved":false,"is_disabled":false,"rental_uris":{"android":"levelo://app?vid=42590978-69ff-4e55-95be-943b603d30a1","ios":"levelo://app?vid=42590978-69ff-4e55-95be-943b603d30a1"},"vehicle_type_id":"4","last_reported":1689710860,"current_range_meters":0,"station_id":"ce4bh012rcd13ifvqcv0","pricing_plan_id":"free"},{"bike_id":"68c1a075-d57b-454d-b4fe-76e9e4e420f0","system_id":"levelo_inurba_marseille","lat":43.309038,"lon":5.396546,"is_reserved":false,"is_disabled":false,"rental_uris":{"android":"levelo://app?vid=68c1a075-d57b-454d-b4fe-76e9e4e420f0","ios":"levelo://app?vid=68c1a075-d57b-454d-b4fe-76e9e4e420f0"},"vehicle_type_id":"4","last_reported":1689710860,"current_range_meters":5600,"station_id":"ce4bh012rcd13ifvqcv0","pricing_plan_id":"free"},{"bike_id":"cd60b1c2-fd73-4472-b305-cdc611f32f3d","system_id":"levelo_inurba_marseille","lat":43.309038,"lon":5.396546,"is_reserved":false,"is_disabled":false,"rental_uris":{"android":"levelo://app?vid=cd60b1c2-fd73-4472-b305-cdc611f32f3d","ios":"levelo://app?vid=cd60b1c2-fd73-4472-b305-cdc611f32f3d"},"vehicle_type_id":"4","last_reported":1689710860,"current_range_meters":14000,"station_id":"ce4bh012rcd13ifvqcv0","pricing_plan_id":"free"},{"bike_id":"6e23cd9d-44c2-489f-ba55-76d6bdb11da0","system_id":"levelo_inurba_marseille","lat":43.309038,"lon":5.396546,"is_reserved":false,"is_disabled":false,"rental_uris":{"android":"levelo://app?vid=6e23cd9d-44c2-489f-ba55-76d6bdb11da0","ios":"levelo://app?vid=6e23cd9d-44c2-489f-ba55-76d6bdb11da0"},"vehicle_type_id":"4","last_reported":1689710860,"current_range_meters":12400,"station_id":"ce4bh012rcd13ifvqcv0","pricing_plan_id":"free"},{"bike_id":"b743e2f8-ee5f-4815-a3f2-767cbe033cd4","system_id":"levelo_inurba_marseille","lat":43.313291,"lon":5.396838,"is_reserved":false,"is_disabled":false,"rental_uris":{"android":"levelo://app?vid=b743e2f8-ee5f-4815-a3f2-767cbe033cd4","ios":"levelo://app?vid=b743e2f8-ee5f-4815-a3f2-767cbe033cd4"},"vehicle_type_id":"4","last_reported":1689710860,"current_range_meters":16400,"station_id":"ce4bgvp2rcd13ifvqcu0","pricing_plan_id":"free"},{"bike_id":"16962afa-b0d0-4595-b621-cb36f849dd8a","system_id":"levelo_inurba_marseille","lat":43.313291,"lon":5.396838,"is_reserved":false,"is_disabled":false,"rental_uris":{"android":"levelo://app?vid=16962afa-b0d0-4595-b621-cb36f849dd8a","ios":"levelo://app?vid=16962afa-b0d0-4595-b621-cb36f849dd8a"},"vehicle_type_id":"4","last_reported":1689710860,"current_range_meters":800,"station_id":"ce4bgvp2rcd13ifvqcu0","pricing_plan_id":"free"},{"bike_id":"053b46e9-a1d4-49d5-a63f-d6cc85f9b736","system_id":"levelo_inurba_marseille","lat":43.313291,"lon":5.396838,"is_reserved":false,"is_disabled":false,"rental_uris":{"android":"levelo://app?vid=053b46e9-a1d4-49d5-a63f-d6cc85f9b736","ios":"levelo://app?vid=053b46e9-a1d4-49d5-a63f-d6cc85f9b736"},"vehicle_type_id":"4","last_reported":1689710860,"current_range_meters":21600,"station_id":"ce4bgvp2rcd13ifvqcu0","pricing_plan_id":"free"},{"bike_id":"323da666-0fd8-4eca-8066-9db0fbfb3069","system_id":"levelo_inurba_marseille","lat":43.309038,"lon":5.396546,"is_reserved":false,"is_disabled":false,"rental_uris":{"android":"levelo://app?vid=323da666-0fd8-4eca-8066-9db0fbfb3069","ios":"levelo://app?vid=323da666-0fd8-4eca-8066-9db0fbfb3069"},"vehicle_type_id":"4","last_reported":1689710860,"current_range_meters":0,"station_id":"ce4bh012rcd13ifvqcv0","pricing_plan_id":"free"},{"bike_id":"f78a13d5-38e6-45fd-a2b7-8eeade76b6a5","system_id":"levelo_inurba_marseille","lat":43.309038,"lon":5.396546,"is_reserved":false,"is_disabled":false,"rental_uris":{"android":"levelo://app?vid=f78a13d5-38e6-45fd-a2b7-8eeade76b6a5","ios":"levelo://app?vid=f78a13d5-38e6-45fd-a2b7-8eeade76b6a5"},"vehicle_type_id":"4","last_reported":1689710860,"current_range_meters":400,"station_id":"ce4bh012rcd13ifvqcv0","pricing_plan_id":"free"},{"bike_id":"59fef7d9-7dbc-4f5c-b53e-3774bc5f2672","system_id":"levelo_inurba_marseille","lat":43.29529,"lon":5.385581,"is_reserved":false,"is_disabled":false,"rental_uris":{"android":"levelo://app?vid=59fef7d9-7dbc-4f5c-b53e-3774bc5f2672","ios":"levelo://app?vid=59fef7d9-7dbc-4f5c-b53e-3774bc5f2672"},"vehicle_type_id":"4","last_reported":1689710860,"current_range_meters":23600,"station_id":"ce4bgih2rcd13ifvqba0","pricing_plan_id":"free"},{"bike_id":"b62e8d9f-8e28-412f-b6b2-a720766020a9","system_id":"levelo_inurba_marseille","lat":43.29529,"lon":5.385581,"is_reserved":false,"is_disabled":false,"rental_uris":{"android":"levelo://app?vid=b62e8d9f-8e28-412f-b6b2-a720766020a9","ios":"levelo://app?vid=b62e8d9f-8e28-412f-b6b2-a720766020a9"},"vehicle_type_id":"4","last_reported":1689710860,"current_range_meters":27200,"station_id":"ce4bgih2rcd13ifvqba0","pricing_plan_id":"free"},{"bike_id":"93f98e6c-5954-4653-b863-1e13b40dc8de","system_id":"levelo_inurba_marseille","lat":43.29529,"lon":5.385581,"is_reserved":false,"is_disabled":false,"rental_uris":{"android":"levelo://app?vid=93f98e6c-5954-4653-b863-1e13b40dc8de","ios":"levelo://app?vid=93f98e6c-5954-4653-b863-1e13b40dc8de"},"vehicle_type_id":"4","last_reported":1689710860,"current_range_meters":23200,"station_id":"ce4bgih2rcd13ifvqba0","pricing_plan_id":"free"},{"bike_id":"e0e8eaa9-907f-4459-81c7-b090ef7640a5","system_id":"levelo_inurba_marseille","lat":43.29529,"lon":5.38542,"is_reserved":false,"is_disabled":false,"rental_uris":{"android":"levelo://app?vid=e0e8eaa9-907f-4459-81c7-b090ef7640a5","ios":"levelo://app?vid=e0e8eaa9-907f-4459-81c7-b090ef7640a5"},"vehicle_type_id":"4","last_reported":1689710860,"current_range_meters":7200,"station_id":"ce4bgih2rcd13ifvqba0","pricing_plan_id":"free"},{"bike_id":"20cc959f-b9b2-4e87-89c4-58dbd6c96fe9","system_id":"levelo_inurba_marseille","lat":43.29529,"lon":5.385581,"is_reserved":false,"is_disabled":false,"rental_uris":{"android":"levelo://app?vid=20cc959f-b9b2-4e87-89c4-58dbd6c96fe9","ios":"levelo://app?vid=20cc959f-b9b2-4e87-89c4-58dbd6c96fe9"},"vehicle_type_id":"4","last_reported":1689710860,"current_range_meters":15600,"station_id":"ce4bgih2rcd13ifvqba0","pricing_plan_id":"free"},{"bike_id":"60fedae2-4cb2-47fc-82ad-7756bbdd0412","system_id":"levelo_inurba_marseille","lat":43.29529,"lon":5.385581,"is_reserved":false,"is_disabled":false,"rental_uris":{"android":"levelo://app?vid=60fedae2-4cb2-47fc-82ad-7756bbdd0412","ios":"levelo://app?vid=60fedae2-4cb2-47fc-82ad-7756bbdd0412"},"vehicle_type_id":"4","last_reported":1689710860,"current_range_meters":26800,"station_id":"ce4bgih2rcd13ifvqba0","pricing_plan_id":"free"},{"bike_id":"b4e22dba-0de4-40ea-8917-d35a310e7a6a","system_id":"levelo_inurba_marseille","lat":43.29527,"lon":5.38541,"is_reserved":false,"is_disabled":false,"rental_uris":{"android":"levelo://app?vid=b4e22dba-0de4-40ea-8917-d35a310e7a6a","ios":"levelo://app?vid=b4e22dba-0de4-40ea-8917-d35a310e7a6a"},"vehicle_type_id":"4","last_reported":1689710860,"current_range_meters":10400,"station_id":"ce4bgih2rcd13ifvqba0","pricing_plan_id":"free"},{"bike_id":"34171484-fff7-4358-a96e-58ccaf75f9fb","system_id":"levelo_inurba_marseille","lat":43.29529,"lon":5.385581,"is_reserved":false,"is_disabled":false,"rental_uris":{"android":"levelo://app?vid=34171484-fff7-4358-a96e-58ccaf75f9fb","ios":"levelo://app?vid=34171484-fff7-4358-a96e-58ccaf75f9fb"},"vehicle_type_id":"4","last_reported":1689710860,"current_range_meters":0,"station_id":"ce4bgih2rcd13ifvqba0","pricing_plan_id":"free"},{"bike_id":"fed04d56-2924-4e9f-89fa-fb02ce99a531","system_id":"levelo_inurba_marseille","lat":43.295296,"lon":5.385487,"is_reserved":false,"is_disabled":false,"rental_uris":{"android":"levelo://app?vid=fed04d56-2924-4e9f-89fa-fb02ce99a531","ios":"levelo://app?vid=fed04d56-2924-4e9f-89fa-fb02ce99a531"},"vehicle_type_id":"4","last_reported":1689710860,"current_range_meters":10800,"station_id":"ce4bgih2rcd13ifvqba0","pricing_plan_id":"free"},{"bike_id":"e858e6f0-175e-4cc2-a483-9ab4551c43c7","system_id":"levelo_inurba_marseille","lat":43.29529,"lon":5.385581,"is_reserved":false,"is_disabled":false,"rental_uris":{"android":"levelo://app?vid=e858e6f0-175e-4cc2-a483-9ab4551c43c7","ios":"levelo://app?vid=e858e6f0-175e-4cc2-a483-9ab4551c43c7"},"vehicle_type_id":"4","last_reported":1689710860,"current_range_meters":4400,"station_id":"ce4bgih2rcd13ifvqba0","pricing_plan_id":"free"},{"bike_id":"75bcb5dc-54ab-4969-9917-dec98d7d35f0","system_id":"levelo_inurba_marseille","lat":43.29226,"lon":5.35565,"is_reserved":false,"is_disabled":false,"rental_uris":{"android":"levelo://app?vid=75bcb5dc-54ab-4969-9917-dec98d7d35f0","ios":"levelo://app?vid=75bcb5dc-54ab-4969-9917-dec98d7d35f0"},"vehicle_type_id":"4","last_reported":1689710860,"current_range_meters":14000,"station_id":"","pricing_plan_id":"free"},{"bike_id":"d83c7af1-741e-42ee-9baf-2181cac64845","system_id":"levelo_inurba_marseille","lat":43.29529,"lon":5.385581,"is_reserved":false,"is_disabled":false,"rental_uris":{"android":"levelo://app?vid=d83c7af1-741e-42ee-9baf-2181cac64845","ios":"levelo://app?vid=d83c7af1-741e-42ee-9baf-2181cac64845"},"vehicle_type_id":"4","last_reported":1689710860,"current_range_meters":25200,"station_id":"ce4bgih2rcd13ifvqba0","pricing_plan_id":"free"},{"bike_id":"b69faa0e-7096-4522-acce-d15564b8da8f","system_id":"levelo_inurba_marseille","lat":43.29059,"lon":5.37163,"is_reserved":false,"is_disabled":false,"rental_uris":{"android":"levelo://app?vid=b69faa0e-7096-4522-acce-d15564b8da8f","ios":"levelo://app?vid=b69faa0e-7096-4522-acce-d15564b8da8f"},"vehicle_type_id":"4","last_reported":1689710860,"current_range_meters":31200,"station_id":"ce4bh5p2rcd13ifvqe4g","pricing_plan_id":"free"},{"bike_id":"b8463e71-1334-4eab-98c2-a78c681e17a0","system_id":"levelo_inurba_marseille","lat":43.30205,"lon":5.39453,"is_reserved":false,"is_disabled":false,"rental_uris":{"android":"levelo://app?vid=b8463e71-1334-4eab-98c2-a78c681e17a0","ios":"levelo://app?vid=b8463e71-1334-4eab-98c2-a78c681e17a0"},"vehicle_type_id":"4","last_reported":1689710860,"current_range_meters":24800,"station_id":"ce4bh0p2rcd13ifvqd70","pricing_plan_id":"free"},{"bike_id":"16a7b46d-1947-49c4-af6b-f1a8e4de19ea","system_id":"levelo_inurba_marseille","lat":43.302008,"lon":5.394694,"is_reserved":false,"is_disabled":false,"rental_uris":{"android":"levelo://app?vid=16a7b46d-1947-49c4-af6b-f1a8e4de19ea","ios":"levelo://app?vid=16a7b46d-1947-49c4-af6b-f1a8e4de19ea"},"vehicle_type_id":"4","last_reported":1689710860,"current_range_meters":19200,"station_id":"ce4bh0p2rcd13ifvqd70","pricing_plan_id":"free"},{"bike_id":"ed1aa537-1d2c-49da-8aab-3a8f99027880","system_id":"levelo_inurba_marseille","lat":43.302008,"lon":5.394694,"is_reserved":false,"is_disabled":false,"rental_uris":{"android":"levelo://app?vid=ed1aa537-1d2c-49da-8aab-3a8f99027880","ios":"levelo://app?vid=ed1aa537-1d2c-49da-8aab-3a8f99027880"},"vehicle_type_id":"4","last_reported":1689710860,"current_range_meters":13200,"station_id":"ce4bh0p2rcd13ifvqd70","pricing_plan_id":"free"},{"bike_id":"3cc56ff1-83f9-4cc5-b83b-098a763ee4a3","system_id":"levelo_inurba_marseille","lat":43.302008,"lon":5.394694,"is_reserved":false,"is_disabled":false,"rental_uris":{"android":"levelo://app?vid=3cc56ff1-83f9-4cc5-b83b-098a763ee4a3","ios":"levelo://app?vid=3cc56ff1-83f9-4cc5-b83b-098a763ee4a3"},"vehicle_type_id":"4","last_reported":1689710860,"current_range_meters":18800,"station_id":"ce4bh0p2rcd13ifvqd70","pricing_plan_id":"free"},{"bike_id":"8eeb8b78-709a-4cce-9183-5afe4da509ff","system_id":"levelo_inurba_marseille","lat":43.302008,"lon":5.394694,"is_reserved":false,"is_disabled":false,"rental_uris":{"android":"levelo://app?vid=8eeb8b78-709a-4cce-9183-5afe4da509ff","ios":"levelo://app?vid=8eeb8b78-709a-4cce-9183-5afe4da509ff"},"vehicle_type_id":"4","last_reported":1689710860,"current_range_meters":2400,"station_id":"ce4bh0p2rcd13ifvqd70","pricing_plan_id":"free"},{"bike_id":"f9c4e8ee-03a9-4994-828a-5fa4eb928d74","system_id":"levelo_inurba_marseille","lat":43.290631,"lon":5.359244,"is_reserved":false,"is_disabled":false,"rental_uris":{"android":"levelo://app?vid=f9c4e8ee-03a9-4994-828a-5fa4eb928d74","ios":"levelo://app?vid=f9c4e8ee-03a9-4994-828a-5fa4eb928d74"},"vehicle_type_id":"4","last_reported":1689710860,"current_range_meters":14400,"station_id":"ce4bha92rcd13ifvqeg0","pricing_plan_id":"free"},{"bike_id":"98d1b043-d079-42fc-b2d7-78f80138d28a","system_id":"levelo_inurba_marseille","lat":43.302008,"lon":5.394694,"is_reserved":false,"is_disabled":false,"rental_uris":{"android":"levelo://app?vid=98d1b043-d079-42fc-b2d7-78f80138d28a","ios":"levelo://app?vid=98d1b043-d079-42fc-b2d7-78f80138d28a"},"vehicle_type_id":"4","last_reported":1689710860,"current_range_meters":21600,"station_id":"ce4bh0p2rcd13ifvqd70","pricing_plan_id":"free"},{"bike_id":"9b608693-214c-4a37-89c6-b689e4426384","system_id":"levelo_inurba_marseille","lat":43.302008,"lon":5.394694,"is_reserved":false,"is_disabled":false,"rental_uris":{"android":"levelo://app?vid=9b608693-214c-4a37-89c6-b689e4426384","ios":"levelo://app?vid=9b608693-214c-4a37-89c6-b689e4426384"},"vehicle_type_id":"4","last_reported":1689710860,"current_range_meters":4400,"station_id":"ce4bh0p2rcd13ifvqd70","pricing_plan_id":"free"},{"bike_id":"f370fa82-b774-4654-baa3-3dd9d02a65b5","system_id":"levelo_inurba_marseille","lat":43.30194,"lon":5.39469,"is_reserved":false,"is_disabled":false,"rental_uris":{"android":"levelo://app?vid=f370fa82-b774-4654-baa3-3dd9d02a65b5","ios":"levelo://app?vid=f370fa82-b774-4654-baa3-3dd9d02a65b5"},"vehicle_type_id":"4","last_reported":1689710860,"current_range_meters":30000,"station_id":"ce4bh0p2rcd13ifvqd70","pricing_plan_id":"free"},{"bike_id":"f24fa47d-c2d3-427a-867b-3463b0338231","system_id":"levelo_inurba_marseille","lat":43.261782,"lon":5.374515,"is_reserved":false,"is_disabled":false,"rental_uris":{"android":"levelo://app?vid=f24fa47d-c2d3-427a-867b-3463b0338231","ios":"levelo://app?vid=f24fa47d-c2d3-427a-867b-3463b0338231"},"vehicle_type_id":"4","last_reported":1689710860,"current_range_meters":15200,"station_id":"ce4bhgp2rcd13ifvqfc0","pricing_plan_id":"free"},{"bike_id":"ed7c573d-54de-4d6e-85ee-c771ee0849eb","system_id":"levelo_inurba_marseille","lat":43.29422,"lon":5.38611,"is_reserved":false,"is_disabled":false,"rental_uris":{"android":"levelo://app?vid=ed7c573d-54de-4d6e-85ee-c771ee0849eb","ios":"levelo://app?vid=ed7c573d-54de-4d6e-85ee-c771ee0849eb"},"vehicle_type_id":"4","last_reported":1689710860,"current_range_meters":14400,"station_id":"ce4bh2h2rcd13ifvqdh0","pricing_plan_id":"free"},{"bike_id":"8142f7e6-0a8a-4bc6-b6b7-ef9c8e5469b4","system_id":"levelo_inurba_marseille","lat":43.29425,"lon":5.3862,"is_reserved":false,"is_disabled":false,"rental_uris":{"android":"levelo://app?vid=8142f7e6-0a8a-4bc6-b6b7-ef9c8e5469b4","ios":"levelo://app?vid=8142f7e6-0a8a-4bc6-b6b7-ef9c8e5469b4"},"vehicle_type_id":"4","last_reported":1689710860,"current_range_meters":18000,"station_id":"ce4bh2h2rcd13ifvqdh0","pricing_plan_id":"free"},{"bike_id":"c6c81bef-7139-4bea-9905-f7b34613c73b","system_id":"levelo_inurba_marseille","lat":43.29421,"lon":5.38621,"is_reserved":false,"is_disabled":false,"rental_uris":{"android":"levelo://app?vid=c6c81bef-7139-4bea-9905-f7b34613c73b","ios":"levelo://app?vid=c6c81bef-7139-4bea-9905-f7b34613c73b"},"vehicle_type_id":"4","last_reported":1689710860,"current_range_meters":28800,"station_id":"ce4bh2h2rcd13ifvqdh0","pricing_plan_id":"free"},{"bike_id":"6a7a13f7-afdd-4b2e-b1df-3ef610daea49","system_id":"levelo_inurba_marseille","lat":43.33532,"lon":5.37458,"is_reserved":false,"is_disabled":false,"rental_uris":{"android":"levelo://app?vid=6a7a13f7-afdd-4b2e-b1df-3ef610daea49","ios":"levelo://app?vid=6a7a13f7-afdd-4b2e-b1df-3ef610daea49"},"vehicle_type_id":"4","last_reported":1689710860,"current_range_meters":26400,"station_id":"","pricing_plan_id":"free"},{"bike_id":"95209c08-113b-416a-9c17-c54601a296f8","system_id":"levelo_inurba_marseille","lat":43.2942,"lon":5.38623,"is_reserved":false,"is_disabled":false,"rental_uris":{"android":"levelo://app?vid=95209c08-113b-416a-9c17-c54601a296f8","ios":"levelo://app?vid=95209c08-113b-416a-9c17-c54601a296f8"},"vehicle_type_id":"4","last_reported":1689710860,"current_range_meters":14000,"station_id":"ce4bh2h2rcd13ifvqdh0","pricing_plan_id":"free"},{"bike_id":"9d901efc-f69c-41d4-924b-947c64cbc79f","system_id":"levelo_inurba_marseille","lat":43.29418,"lon":5.3862,"is_reserved":false,"is_disabled":false,"rental_uris":{"android":"levelo://app?vid=9d901efc-f69c-41d4-924b-947c64cbc79f","ios":"levelo://app?vid=9d901efc-f69c-41d4-924b-947c64cbc79f"},"vehicle_type_id":"4","last_reported":1689710860,"current_range_meters":12800,"station_id":"ce4bh2h2rcd13ifvqdh0","pricing_plan_id":"free"},{"bike_id":"f4b47e1d-2f5d-4e00-a430-4697c86fca4f","system_id":"levelo_inurba_marseille","lat":43.294162,"lon":5.386292,"is_reserved":false,"is_disabled":false,"rental_uris":{"android":"levelo://app?vid=f4b47e1d-2f5d-4e00-a430-4697c86fca4f","ios":"levelo://app?vid=f4b47e1d-2f5d-4e00-a430-4697c86fca4f"},"vehicle_type_id":"4","last_reported":1689710860,"current_range_meters":31200,"station_id":"ce4bh2h2rcd13ifvqdh0","pricing_plan_id":"free"},{"bike_id":"dd43993a-46bd-40e6-8963-956dcd3b3445","system_id":"levelo_inurba_marseille","lat":43.29416,"lon":5.3862,"is_reserved":false,"is_disabled":false,"rental_uris":{"android":"levelo://app?vid=dd43993a-46bd-40e6-8963-956dcd3b3445","ios":"levelo://app?vid=dd43993a-46bd-40e6-8963-956dcd3b3445"},"vehicle_type_id":"4","last_reported":1689710860,"current_range_meters":31200,"station_id":"ce4bh2h2rcd13ifvqdh0","pricing_plan_id":"free"},{"bike_id":"b2cf5865-fb1b-4d00-8a90-4fbaed6d2d99","system_id":"levelo_inurba_marseille","lat":43.294162,"lon":5.386292,"is_reserved":false,"is_disabled":false,"rental_uris":{"android":"levelo://app?vid=b2cf5865-fb1b-4d00-8a90-4fbaed6d2d99","ios":"levelo://app?vid=b2cf5865-fb1b-4d00-8a90-4fbaed6d2d99"},"vehicle_type_id":"4","last_reported":1689710860,"current_range_meters":13600,"station_id":"ce4bh2h2rcd13ifvqdh0","pricing_plan_id":"free"},{"bike_id":"4b564cee-f1d6-4147-8ed5-6fd3754d80b1","system_id":"levelo_inurba_marseille","lat":43.29415,"lon":5.38622,"is_reserved":false,"is_disabled":false,"rental_uris":{"android":"levelo://app?vid=4b564cee-f1d6-4147-8ed5-6fd3754d80b1","ios":"levelo://app?vid=4b564cee-f1d6-4147-8ed5-6fd3754d80b1"},"vehicle_type_id":"4","last_reported":1689710860,"current_range_meters":20400,"station_id":"ce4bh2h2rcd13ifvqdh0","pricing_plan_id":"free"},{"bike_id":"f571b1cb-1673-4c66-9ef5-2cc4392284eb","system_id":"levelo_inurba_marseille","lat":43.294162,"lon":5.386292,"is_reserved":false,"is_disabled":false,"rental_uris":{"android":"levelo://app?vid=f571b1cb-1673-4c66-9ef5-2cc4392284eb","ios":"levelo://app?vid=f571b1cb-1673-4c66-9ef5-2cc4392284eb"},"vehicle_type_id":"4","last_reported":1689710860,"current_range_meters":14000,"station_id":"ce4bh2h2rcd13ifvqdh0","pricing_plan_id":"free"},{"bike_id":"94ee896c-a65e-4271-accf-047482948161","system_id":"levelo_inurba_marseille","lat":43.294162,"lon":5.386292,"is_reserved":false,"is_disabled":false,"rental_uris":{"android":"levelo://app?vid=94ee896c-a65e-4271-accf-047482948161","ios":"levelo://app?vid=94ee896c-a65e-4271-accf-047482948161"},"vehicle_type_id":"4","last_reported":1689710860,"current_range_meters":20000,"station_id":"ce4bh2h2rcd13ifvqdh0","pricing_plan_id":"free"},{"bike_id":"838ae5f9-b8e6-4fbe-abf8-69d918d00fe3","system_id":"levelo_inurba_marseille","lat":43.294162,"lon":5.386292,"is_reserved":false,"is_disabled":false,"rental_uris":{"android":"levelo://app?vid=838ae5f9-b8e6-4fbe-abf8-69d918d00fe3","ios":"levelo://app?vid=838ae5f9-b8e6-4fbe-abf8-69d918d00fe3"},"vehicle_type_id":"4","last_reported":1689710860,"current_range_meters":31200,"station_id":"ce4bh2h2rcd13ifvqdh0","pricing_plan_id":"free"},{"bike_id":"59fb0fe2-d83f-4024-a6b8-89c0c8ee7110","system_id":"levelo_inurba_marseille","lat":43.29413,"lon":5.38623,"is_reserved":false,"is_disabled":false,"rental_uris":{"android":"levelo://app?vid=59fb0fe2-d83f-4024-a6b8-89c0c8ee7110","ios":"levelo://app?vid=59fb0fe2-d83f-4024-a6b8-89c0c8ee7110"},"vehicle_type_id":"4","last_reported":1689710860,"current_range_meters":12000,"station_id":"ce4bh2h2rcd13ifvqdh0","pricing_plan_id":"free"},{"bike_id":"0f265242-486a-484c-966f-95640f0a5c57","system_id":"levelo_inurba_marseille","lat":43.294162,"lon":5.386292,"is_reserved":false,"is_disabled":false,"rental_uris":{"android":"levelo://app?vid=0f265242-486a-484c-966f-95640f0a5c57","ios":"levelo://app?vid=0f265242-486a-484c-966f-95640f0a5c57"},"vehicle_type_id":"4","last_reported":1689710860,"current_range_meters":22400,"station_id":"ce4bh2h2rcd13ifvqdh0","pricing_plan_id":"free"},{"bike_id":"dfddc5c3-41aa-4215-a383-9e61a7e6947b","system_id":"levelo_inurba_marseille","lat":43.290327,"lon":5.375711,"is_reserved":false,"is_disabled":false,"rental_uris":{"android":"levelo://app?vid=dfddc5c3-41aa-4215-a383-9e61a7e6947b","ios":"levelo://app?vid=dfddc5c3-41aa-4215-a383-9e61a7e6947b"},"vehicle_type_id":"4","last_reported":1689710860,"current_range_meters":12400,"station_id":"ce4bh692rcd13ifvqe90","pricing_plan_id":"free"},{"bike_id":"ae21bfe1-4fb0-4b96-90e7-618c04a2e974","system_id":"levelo_inurba_marseille","lat":43.294162,"lon":5.386292,"is_reserved":false,"is_disabled":false,"rental_uris":{"android":"levelo://app?vid=ae21bfe1-4fb0-4b96-90e7-618c04a2e974","ios":"levelo://app?vid=ae21bfe1-4fb0-4b96-90e7-618c04a2e974"},"vehicle_type_id":"4","last_reported":1689710860,"current_range_meters":11200,"station_id":"ce4bh2h2rcd13ifvqdh0","pricing_plan_id":"free"},{"bike_id":"62137d15-4c84-458f-a2ca-b50a90b7efbc","system_id":"levelo_inurba_marseille","lat":43.294162,"lon":5.386292,"is_reserved":false,"is_disabled":false,"rental_uris":{"android":"levelo://app?vid=62137d15-4c84-458f-a2ca-b50a90b7efbc","ios":"levelo://app?vid=62137d15-4c84-458f-a2ca-b50a90b7efbc"},"vehicle_type_id":"4","last_reported":1689710860,"current_range_meters":20000,"station_id":"ce4bh2h2rcd13ifvqdh0","pricing_plan_id":"free"},{"bike_id":"c02e0936-7955-4fd2-be91-bf6400004d96","system_id":"levelo_inurba_marseille","lat":43.294162,"lon":5.386292,"is_reserved":false,"is_disabled":false,"rental_uris":{"android":"levelo://app?vid=c02e0936-7955-4fd2-be91-bf6400004d96","ios":"levelo://app?vid=c02e0936-7955-4fd2-be91-bf6400004d96"},"vehicle_type_id":"4","last_reported":1689710860,"current_range_meters":31200,"station_id":"ce4bh2h2rcd13ifvqdh0","pricing_plan_id":"free"},{"bike_id":"2b2c88aa-76ce-4515-a1cb-6087c48eaf67","system_id":"levelo_inurba_marseille","lat":43.29415,"lon":5.38637,"is_reserved":false,"is_disabled":false,"rental_uris":{"android":"levelo://app?vid=2b2c88aa-76ce-4515-a1cb-6087c48eaf67","ios":"levelo://app?vid=2b2c88aa-76ce-4515-a1cb-6087c48eaf67"},"vehicle_type_id":"4","last_reported":1689710860,"current_range_meters":2400,"station_id":"ce4bh2h2rcd13ifvqdh0","pricing_plan_id":"free"},{"bike_id":"3042492b-0f45-4c2c-aaa6-abbe52d1b5bc","system_id":"levelo_inurba_marseille","lat":43.294162,"lon":5.386292,"is_reserved":false,"is_disabled":false,"rental_uris":{"android":"levelo://app?vid=3042492b-0f45-4c2c-aaa6-abbe52d1b5bc","ios":"levelo://app?vid=3042492b-0f45-4c2c-aaa6-abbe52d1b5bc"},"vehicle_type_id":"4","last_reported":1689710860,"current_range_meters":22800,"station_id":"ce4bh2h2rcd13ifvqdh0","pricing_plan_id":"free"},{"bike_id":"9d755c2a-557b-41ca-97d9-925645eee08b","system_id":"levelo_inurba_marseille","lat":43.289468,"lon":5.363719,"is_reserved":false,"is_disabled":false,"rental_uris":{"android":"levelo://app?vid=9d755c2a-557b-41ca-97d9-925645eee08b","ios":"levelo://app?vid=9d755c2a-557b-41ca-97d9-925645eee08b"},"vehicle_type_id":"4","last_reported":1689710860,"current_range_meters":28800,"station_id":"ce4bhc92rcd13ifvqetg","pricing_plan_id":"free"},{"bike_id":"9668a2cc-bcf7-4cbb-af6d-8ee888d55f6f","system_id":"levelo_inurba_marseille","lat":43.289184,"lon":5.366408,"is_reserved":false,"is_disabled":false,"rental_uris":{"android":"levelo://app?vid=9668a2cc-bcf7-4cbb-af6d-8ee888d55f6f","ios":"levelo://app?vid=9668a2cc-bcf7-4cbb-af6d-8ee888d55f6f"},"vehicle_type_id":"4","last_reported":1689710860,"current_range_meters":18400,"station_id":"ce4bhap2rcd13ifvqek0","pricing_plan_id":"free"},{"bike_id":"312ecb83-8db2-49d9-b806-86ad1b415d3c","system_id":"levelo_inurba_marseille","lat":43.289184,"lon":5.366408,"is_reserved":false,"is_disabled":false,"rental_uris":{"android":"levelo://app?vid=312ecb83-8db2-49d9-b806-86ad1b415d3c","ios":"levelo://app?vid=312ecb83-8db2-49d9-b806-86ad1b415d3c"},"vehicle_type_id":"4","last_reported":1689710860,"current_range_meters":28800,"station_id":"ce4bhap2rcd13ifvqek0","pricing_plan_id":"free"},{"bike_id":"92f65670-dd38-4361-be20-b42c95734cf1","system_id":"levelo_inurba_marseille","lat":43.289184,"lon":5.366408,"is_reserved":false,"is_disabled":false,"rental_uris":{"android":"levelo://app?vid=92f65670-dd38-4361-be20-b42c95734cf1","ios":"levelo://app?vid=92f65670-dd38-4361-be20-b42c95734cf1"},"vehicle_type_id":"4","last_reported":1689710860,"current_range_meters":17600,"station_id":"ce4bhap2rcd13ifvqek0","pricing_plan_id":"free"},{"bike_id":"522edb8a-1a1f-4edb-82c8-5b9cd8f5e179","system_id":"levelo_inurba_marseille","lat":43.289184,"lon":5.366408,"is_reserved":false,"is_disabled":false,"rental_uris":{"android":"levelo://app?vid=522edb8a-1a1f-4edb-82c8-5b9cd8f5e179","ios":"levelo://app?vid=522edb8a-1a1f-4edb-82c8-5b9cd8f5e179"},"vehicle_type_id":"4","last_reported":1689710860,"current_range_meters":7600,"station_id":"ce4bhap2rcd13ifvqek0","pricing_plan_id":"free"},{"bike_id":"a39389fd-9f53-4587-9ff1-ab4ea68651a0","system_id":"levelo_inurba_marseille","lat":43.289184,"lon":5.366408,"is_reserved":false,"is_disabled":false,"rental_uris":{"android":"levelo://app?vid=a39389fd-9f53-4587-9ff1-ab4ea68651a0","ios":"levelo://app?vid=a39389fd-9f53-4587-9ff1-ab4ea68651a0"},"vehicle_type_id":"4","last_reported":1689710860,"current_range_meters":11200,"station_id":"ce4bhap2rcd13ifvqek0","pricing_plan_id":"free"},{"bike_id":"75155bc8-44bb-480c-bc85-0454cff40e97","system_id":"levelo_inurba_marseille","lat":43.28932,"lon":5.36638,"is_reserved":false,"is_disabled":false,"rental_uris":{"android":"levelo://app?vid=75155bc8-44bb-480c-bc85-0454cff40e97","ios":"levelo://app?vid=75155bc8-44bb-480c-bc85-0454cff40e97"},"vehicle_type_id":"4","last_reported":1689710860,"current_range_meters":0,"station_id":"ce4bhap2rcd13ifvqek0","pricing_plan_id":"free"},{"bike_id":"4a919888-9d94-4053-ba60-979ddb2c3ce2","system_id":"levelo_inurba_marseille","lat":43.289184,"lon":5.366408,"is_reserved":false,"is_disabled":false,"rental_uris":{"android":"levelo://app?vid=4a919888-9d94-4053-ba60-979ddb2c3ce2","ios":"levelo://app?vid=4a919888-9d94-4053-ba60-979ddb2c3ce2"},"vehicle_type_id":"4","last_reported":1689710860,"current_range_meters":24800,"station_id":"ce4bhap2rcd13ifvqek0","pricing_plan_id":"free"},{"bike_id":"55c09699-7829-4946-af14-bc6afcb3db38","system_id":"levelo_inurba_marseille","lat":43.28931,"lon":5.36637,"is_reserved":false,"is_disabled":false,"rental_uris":{"android":"levelo://app?vid=55c09699-7829-4946-af14-bc6afcb3db38","ios":"levelo://app?vid=55c09699-7829-4946-af14-bc6afcb3db38"},"vehicle_type_id":"4","last_reported":1689710860,"current_range_meters":31600,"station_id":"ce4bhap2rcd13ifvqek0","pricing_plan_id":"free"},{"bike_id":"c925120d-a10e-4a19-a192-22c358953b81","system_id":"levelo_inurba_marseille","lat":43.289184,"lon":5.366408,"is_reserved":false,"is_disabled":false,"rental_uris":{"android":"levelo://app?vid=c925120d-a10e-4a19-a192-22c358953b81","ios":"levelo://app?vid=c925120d-a10e-4a19-a192-22c358953b81"},"vehicle_type_id":"4","last_reported":1689710860,"current_range_meters":14000,"station_id":"ce4bhap2rcd13ifvqek0","pricing_plan_id":"free"},{"bike_id":"ccedf69a-0038-4fb9-a5ae-a70c92845df4","system_id":"levelo_inurba_marseille","lat":43.289184,"lon":5.366408,"is_reserved":false,"is_disabled":false,"rental_uris":{"android":"levelo://app?vid=ccedf69a-0038-4fb9-a5ae-a70c92845df4","ios":"levelo://app?vid=ccedf69a-0038-4fb9-a5ae-a70c92845df4"},"vehicle_type_id":"4","last_reported":1689710860,"current_range_meters":8400,"station_id":"ce4bhap2rcd13ifvqek0","pricing_plan_id":"free"},{"bike_id":"c7f07f31-d9c4-47d2-82d1-2b15b22fcced","system_id":"levelo_inurba_marseille","lat":43.289184,"lon":5.366408,"is_reserved":false,"is_disabled":false,"rental_uris":{"android":"levelo://app?vid=c7f07f31-d9c4-47d2-82d1-2b15b22fcced","ios":"levelo://app?vid=c7f07f31-d9c4-47d2-82d1-2b15b22fcced"},"vehicle_type_id":"4","last_reported":1689710860,"current_range_meters":22400,"station_id":"ce4bhap2rcd13ifvqek0","pricing_plan_id":"free"},{"bike_id":"8aabce08-d486-4569-95df-ad3cf10f4613","system_id":"levelo_inurba_marseille","lat":43.289184,"lon":5.366408,"is_reserved":false,"is_disabled":false,"rental_uris":{"android":"levelo://app?vid=8aabce08-d486-4569-95df-ad3cf10f4613","ios":"levelo://app?vid=8aabce08-d486-4569-95df-ad3cf10f4613"},"vehicle_type_id":"4","last_reported":1689710860,"current_range_meters":7600,"station_id":"ce4bhap2rcd13ifvqek0","pricing_plan_id":"free"},{"bike_id":"2b873659-2edd-47ae-af57-2a51ae11aa7b","system_id":"levelo_inurba_marseille","lat":43.289184,"lon":5.366408,"is_reserved":false,"is_disabled":false,"rental_uris":{"android":"levelo://app?vid=2b873659-2edd-47ae-af57-2a51ae11aa7b","ios":"levelo://app?vid=2b873659-2edd-47ae-af57-2a51ae11aa7b"},"vehicle_type_id":"4","last_reported":1689710860,"current_range_meters":12800,"station_id":"ce4bhap2rcd13ifvqek0","pricing_plan_id":"free"},{"bike_id":"a612846f-6328-4b39-b10c-3573d56aba8e","system_id":"levelo_inurba_marseille","lat":43.289184,"lon":5.366408,"is_reserved":false,"is_disabled":false,"rental_uris":{"android":"levelo://app?vid=a612846f-6328-4b39-b10c-3573d56aba8e","ios":"levelo://app?vid=a612846f-6328-4b39-b10c-3573d56aba8e"},"vehicle_type_id":"4","last_reported":1689710860,"current_range_meters":21200,"station_id":"ce4bhap2rcd13ifvqek0","pricing_plan_id":"free"},{"bike_id":"70bc1472-05bc-4855-82e7-fc27d4396648","system_id":"levelo_inurba_marseille","lat":43.289184,"lon":5.366408,"is_reserved":false,"is_disabled":false,"rental_uris":{"android":"levelo://app?vid=70bc1472-05bc-4855-82e7-fc27d4396648","ios":"levelo://app?vid=70bc1472-05bc-4855-82e7-fc27d4396648"},"vehicle_type_id":"4","last_reported":1689710860,"current_range_meters":18800,"station_id":"ce4bhap2rcd13ifvqek0","pricing_plan_id":"free"},{"bike_id":"aecd2ae7-4813-4023-98a2-275063e17ecb","system_id":"levelo_inurba_marseille","lat":43.28926,"lon":5.36404,"is_reserved":false,"is_disabled":false,"rental_uris":{"android":"levelo://app?vid=aecd2ae7-4813-4023-98a2-275063e17ecb","ios":"levelo://app?vid=aecd2ae7-4813-4023-98a2-275063e17ecb"},"vehicle_type_id":"4","last_reported":1689710860,"current_range_meters":20400,"station_id":"ce4bhc92rcd13ifvqetg","pricing_plan_id":"free"},{"bike_id":"261967d8-8879-4e88-9439-b84441253210","system_id":"levelo_inurba_marseille","lat":43.29268,"lon":5.38432,"is_reserved":false,"is_disabled":false,"rental_uris":{"android":"levelo://app?vid=261967d8-8879-4e88-9439-b84441253210","ios":"levelo://app?vid=261967d8-8879-4e88-9439-b84441253210"},"vehicle_type_id":"4","last_reported":1689710860,"current_range_meters":8800,"station_id":"ce4bh692rcd13ifvqea0","pricing_plan_id":"free"},{"bike_id":"4da6b949-09d6-41e5-9db4-a9b4996964b9","system_id":"levelo_inurba_marseille","lat":43.29267,"lon":5.38438,"is_reserved":false,"is_disabled":false,"rental_uris":{"android":"levelo://app?vid=4da6b949-09d6-41e5-9db4-a9b4996964b9","ios":"levelo://app?vid=4da6b949-09d6-41e5-9db4-a9b4996964b9"},"vehicle_type_id":"4","last_reported":1689710860,"current_range_meters":24800,"station_id":"ce4bh692rcd13ifvqea0","pricing_plan_id":"free"},{"bike_id":"6c9cb0d5-9568-4b1b-8705-90c4d105f01a","system_id":"levelo_inurba_marseille","lat":43.292644,"lon":5.384257,"is_reserved":false,"is_disabled":false,"rental_uris":{"android":"levelo://app?vid=6c9cb0d5-9568-4b1b-8705-90c4d105f01a","ios":"levelo://app?vid=6c9cb0d5-9568-4b1b-8705-90c4d105f01a"},