{"last_updated":1733655994,"ttl":60,"version":"2.2","data":{"bikes":[{"bike_id":"315cda4d-54e6-44c6-9a3e-df4c6e9b61b0","system_id":"levelo_inurba_marseille","lat":43.337444,"lon":5.374475,"is_reserved":false,"is_disabled":false,"rental_uris":{"android":"levelo://app?vid=315cda4d-54e6-44c6-9a3e-df4c6e9b61b0","ios":"levelo://app?vid=315cda4d-54e6-44c6-9a3e-df4c6e9b61b0"},"vehicle_type_id":"4","last_reported":1733655994,"current_range_meters":16400,"station_id":"","pricing_plan_id":"cebpf4jnsgd1na2vs0mg"},{"bike_id":"84041e52-693d-4174-b244-2a69f2b7b850","system_id":"levelo_inurba_marseille","lat":43.26926,"lon":5.3892,"is_reserved":false,"is_disabled":false,"rental_uris":{"android":"levelo://app?vid=84041e52-693d-4174-b244-2a69f2b7b850","ios":"levelo://app?vid=84041e52-693d-4174-b244-2a69f2b7b850"},"vehicle_type_id":"4","last_reported":1733655994,"current_range_meters":35200,"station_id":"ce4bhhh2rcd13ifvqfl0","pricing_plan_id":"cebpf4jnsgd1na2vs0mg"},{"bike_id":"55d7a831-40f8-4501-9bc4-264da11c1dd0","system_id":"levelo_inurba_marseille","lat":43.29262,"lon":5.40118,"is_reserved":false,"is_disabled":true,"rental_uris":{"android":"levelo://app?vid=55d7a831-40f8-4501-9bc4-264da11c1dd0","ios":"levelo://app?vid=55d7a831-40f8-4501-9bc4-264da11c1dd0"},"vehicle_type_id":"4","last_reported":1733655994,"current_range_meters":23200,"station_id":"ce4bh312rcd13ifvqdk0","pricing_plan_id":"cebpf4jnsgd1na2vs0mg"},{"bike_id":"8e029eaf-e104-4c5d-858d-6cd39de73d09","system_id":"levelo_inurba_marseille","lat":43.24168,"lon":5.3639,"is_reserved":false,"is_disabled":false,"rental_uris":{"android":"levelo://app?vid=8e029eaf-e104-4c5d-858d-6cd39de73d09","ios":"levelo://app?vid=8e029eaf-e104-4c5d-858d-6cd39de73d09"},"vehicle_type_id":"4","last_reported":1733655994,"current_range_meters":27600,"station_id":"cpo36qri1sfpv3e86is0","pricing_plan_id":"cebpf4jnsgd1na2vs0mg"},{"bike_id":"7dea0d96-70fa-4522-82a7-67f7fc092a81","system_id":"levelo_inurba_marseille","lat":43.29581,"lon":5.37507,"is_reserved":false,"is_disabled":true,"rental_uris":{"android":"levelo://app?vid=7dea0d96-70fa-4522-82a7-67f7fc092a81","ios":"levelo://app?vid=7dea0d96-70fa-4522-82a7-67f7fc092a81"},"vehicle_type_id":"4","last_reported":1733655994,"current_range_meters":0,"station_id":"ce4bgh92rcd13ifvqb50","pricing_plan_id":"cebpf4jnsgd1na2vs0mg"},{"bike_id":"1595fe43-3a99-4caa-98c6-5b347449a2e3","system_id":"levelo_inurba_marseille","lat":43.2721,"lon":5.39183,"is_reserved":false,"is_disabled":false,"rental_uris":{"android":"levelo://app?vid=1595fe43-3a99-4caa-98c6-5b347449a2e3","ios":"levelo://app?vid=1595fe43-3a99-4caa-98c6-5b347449a2e3"},"vehicle_type_id":"4","last_reported":1733655994,"current_range_meters":34000,"station_id":"ce4bhhp2rcd13ifvqfm0","pricing_plan_id":"cebpf4jnsgd1na2vs0mg"},{"bike_id":"57f9d204-854c-45fc-9046-daeeecec359e","system_id":"levelo_inurba_marseille","lat":43.28152,"lon":5.4265,"is_reserved":false,"is_disabled":false,"rental_uris":{"android":"levelo://app?vid=57f9d204-854c-45fc-9046-daeeecec359e","ios":"levelo://app?vid=57f9d204-854c-45fc-9046-daeeecec359e"},"vehicle_type_id":"4","last_reported":1733655994,"current_range_meters":29600,"station_id":"ce4bhnh2rcd13ifvqgug","pricing_plan_id":"cebpf4jnsgd1na2vs0mg"},{"bike_id":"e232d7ae-0864-4a70-8b5e-627ae37536a1","system_id":"levelo_inurba_marseille","lat":43.28108,"lon":5.37843,"is_reserved":false,"is_disabled":false,"rental_uris":{"android":"levelo://app?vid=e232d7ae-0864-4a70-8b5e-627ae37536a1","ios":"levelo://app?vid=e232d7ae-0864-4a70-8b5e-627ae37536a1"},"vehicle_type_id":"4","last_reported":1733655994,"current_range_meters":38800,"station_id":"ce4bha12rcd13ifvqee0","pricing_plan_id":"cebpf4jnsgd1na2vs0mg"},{"bike_id":"e37f0f48-ff13-4242-bca9-0687552cbad4","system_id":"levelo_inurba_marseille","lat":43.33023,"lon":5.39041,"is_reserved":false,"is_disabled":true,"rental_uris":{"android":"levelo://app?vid=e37f0f48-ff13-4242-bca9-0687552cbad4","ios":"levelo://app?vid=e37f0f48-ff13-4242-bca9-0687552cbad4"},"vehicle_type_id":"4","last_reported":1733655994,"current_range_meters":0,"station_id":"ce4bhr92rcd13ifvqhrg","pricing_plan_id":"cebpf4jnsgd1na2vs0mg"},{"bike_id":"f9e2e07a-1a1c-476a-b907-f71ab25c578d","system_id":"levelo_inurba_marseille","lat":43.3149,"lon":5.373,"is_reserved":false,"is_disabled":false,"rental_uris":{"android":"levelo://app?vid=f9e2e07a-1a1c-476a-b907-f71ab25c578d","ios":"levelo://app?vid=f9e2e07a-1a1c-476a-b907-f71ab25c578d"},"vehicle_type_id":"4","last_reported":1733655994,"current_range_meters":37600,"station_id":"ce4bgt12rcd13ifvqcd0","pricing_plan_id":"cebpf4jnsgd1na2vs0mg"},{"bike_id":"ba5e9603-9efa-46a1-a491-af58be8cd5cb","system_id":"levelo_inurba_marseille","lat":43.3236,"lon":5.36755,"is_reserved":false,"is_disabled":false,"rental_uris":{"android":"levelo://app?vid=ba5e9603-9efa-46a1-a491-af58be8cd5cb","ios":"levelo://app?vid=ba5e9603-9efa-46a1-a491-af58be8cd5cb"},"vehicle_type_id":"4","last_reported":1733655994,"current_range_meters":38800,"station_id":"ce4bhsh2rcd13ifvqi2g","pricing_plan_id":"cebpf4jnsgd1na2vs0mg"},{"bike_id":"7fd5b847-add1-4980-83eb-b48b120a693f","system_id":"levelo_inurba_marseille","lat":43.30596,"lon":5.39363,"is_reserved":false,"is_disabled":false,"rental_uris":{"android":"levelo://app?vid=7fd5b847-add1-4980-83eb-b48b120a693f","ios":"levelo://app?vid=7fd5b847-add1-4980-83eb-b48b120a693f"},"vehicle_type_id":"4","last_reported":1733655994,"current_range_meters":38000,"station_id":"ce4bh0p2rcd13ifvqd80","pricing_plan_id":"cebpf4jnsgd1na2vs0mg"},{"bike_id":"5fd8fda4-5ceb-4e39-b9f4-ea27acda2ce7","system_id":"levelo_inurba_marseille","lat":43.27185,"lon":5.40994,"is_reserved":false,"is_disabled":true,"rental_uris":{"android":"levelo://app?vid=5fd8fda4-5ceb-4e39-b9f4-ea27acda2ce7","ios":"levelo://app?vid=5fd8fda4-5ceb-4e39-b9f4-ea27acda2ce7"},"vehicle_type_id":"4","last_reported":1733655994,"current_range_meters":16800,"station_id":"ce4bhl12rcd13ifvqgf0","pricing_plan_id":"cebpf4jnsgd1na2vs0mg"},{"bike_id":"8bd642b2-0279-44c7-9ee2-fc3b57332c83","system_id":"levelo_inurba_marseille","lat":43.27455,"lon":5.40073,"is_reserved":false,"is_disabled":true,"rental_uris":{"android":"levelo://app?vid=8bd642b2-0279-44c7-9ee2-fc3b57332c83","ios":"levelo://app?vid=8bd642b2-0279-44c7-9ee2-fc3b57332c83"},"vehicle_type_id":"4","last_reported":1733655994,"current_range_meters":0,"station_id":"","pricing_plan_id":"cebpf4jnsgd1na2vs0mg"},{"bike_id":"43dab060-77d9-45f9-9294-991f921b3bcf","system_id":"levelo_inurba_marseille","lat":43.27569,"lon":5.38418,"is_reserved":false,"is_disabled":false,"rental_uris":{"android":"levelo://app?vid=43dab060-77d9-45f9-9294-991f921b3bcf","ios":"levelo://app?vid=43dab060-77d9-45f9-9294-991f921b3bcf"},"vehicle_type_id":"4","last_reported":1733655994,"current_range_meters":37600,"station_id":"ce4bhh92rcd13ifvqfi0","pricing_plan_id":"cebpf4jnsgd1na2vs0mg"},{"bike_id":"805c63b5-31c1-469b-bd21-13e1ca6f103a","system_id":"levelo_inurba_marseille","lat":43.29617,"lon":5.37719,"is_reserved":false,"is_disabled":false,"rental_uris":{"android":"levelo://app?vid=805c63b5-31c1-469b-bd21-13e1ca6f103a","ios":"levelo://app?vid=805c63b5-31c1-469b-bd21-13e1ca6f103a"},"vehicle_type_id":"4","last_reported":1733655994,"current_range_meters":38400,"station_id":"ce4bgi92rcd13ifvqb90","pricing_plan_id":"cebpf4jnsgd1na2vs0mg"},{"bike_id":"6293356c-f2a8-454b-8fae-7ad113ad0512","system_id":"levelo_inurba_marseille","lat":43.30643,"lon":5.40074,"is_reserved":false,"is_disabled":false,"rental_uris":{"android":"levelo://app?vid=6293356c-f2a8-454b-8fae-7ad113ad0512","ios":"levelo://app?vid=6293356c-f2a8-454b-8fae-7ad113ad0512"},"vehicle_type_id":"4","last_reported":1733655994,"current_range_meters":28400,"station_id":"ce4bh112rcd13ifvqda0","pricing_plan_id":"cebpf4jnsgd1na2vs0mg"},{"bike_id":"2800bad1-9cb3-47dc-86d2-2fd6326ffee4","system_id":"levelo_inurba_marseille","lat":43.26489,"lon":5.3955,"is_reserved":false,"is_disabled":false,"rental_uris":{"android":"levelo://app?vid=2800bad1-9cb3-47dc-86d2-2fd6326ffee4","ios":"levelo://app?vid=2800bad1-9cb3-47dc-86d2-2fd6326ffee4"},"vehicle_type_id":"4","last_reported":1733655994,"current_range_meters":21600,"station_id":"ce4bhi12rcd13ifvqfq0","pricing_plan_id":"cebpf4jnsgd1na2vs0mg"},{"bike_id":"cb442d5a-cce0-41d7-9c51-b4c2e4d876d4","system_id":"levelo_inurba_marseille","lat":43.32641,"lon":5.36469,"is_reserved":false,"is_disabled":false,"rental_uris":{"android":"levelo://app?vid=cb442d5a-cce0-41d7-9c51-b4c2e4d876d4","ios":"levelo://app?vid=cb442d5a-cce0-41d7-9c51-b4c2e4d876d4"},"vehicle_type_id":"4","last_reported":1733655994,"current_range_meters":32800,"station_id":"","pricing_plan_id":"cebpf4jnsgd1na2vs0mg"},{"bike_id":"650aedbd-7fe9-41b2-ab79-4b8450652642","system_id":"levelo_inurba_marseille","lat":43.29193,"lon":5.35796,"is_reserved":false,"is_disabled":true,"rental_uris":{"android":"levelo://app?vid=650aedbd-7fe9-41b2-ab79-4b8450652642","ios":"levelo://app?vid=650aedbd-7fe9-41b2-ab79-4b8450652642"},"vehicle_type_id":"4","last_reported":1733655994,"current_range_meters":36800,"station_id":"ce4bhb12rcd13ifvqel0","pricing_plan_id":"cebpf4jnsgd1na2vs0mg"},{"bike_id":"b6cd33e4-0642-461d-8eaf-df407b0147c9","system_id":"levelo_inurba_marseille","lat":43.29417,"lon":5.38616,"is_reserved":false,"is_disabled":false,"rental_uris":{"android":"levelo://app?vid=b6cd33e4-0642-461d-8eaf-df407b0147c9","ios":"levelo://app?vid=b6cd33e4-0642-461d-8eaf-df407b0147c9"},"vehicle_type_id":"4","last_reported":1733655994,"current_range_meters":38000,"station_id":"ce4bh2h2rcd13ifvqdh0","pricing_plan_id":"cebpf4jnsgd1na2vs0mg"},{"bike_id":"479889bf-dbf3-4abb-926f-bf7556951acc","system_id":"levelo_inurba_marseille","lat":43.29894,"lon":5.43657,"is_reserved":false,"is_disabled":false,"rental_uris":{"android":"levelo://app?vid=479889bf-dbf3-4abb-926f-bf7556951acc","ios":"levelo://app?vid=479889bf-dbf3-4abb-926f-bf7556951acc"},"vehicle_type_id":"4","last_reported":1733655994,"current_range_meters":37600,"station_id":"ce4bhpp2rcd13ifvqhfg","pricing_plan_id":"cebpf4jnsgd1na2vs0mg"},{"bike_id":"3000a861-0903-41f2-bb5d-48554b17ed5a","system_id":"levelo_inurba_marseille","lat":43.337444,"lon":5.374475,"is_reserved":false,"is_disabled":false,"rental_uris":{"android":"levelo://app?vid=3000a861-0903-41f2-bb5d-48554b17ed5a","ios":"levelo://app?vid=3000a861-0903-41f2-bb5d-48554b17ed5a"},"vehicle_type_id":"4","last_reported":1733655994,"current_range_meters":28400,"station_id":"","pricing_plan_id":"cebpf4jnsgd1na2vs0mg"},{"bike_id":"e14ff483-f290-4a96-beab-fc577b54c818","system_id":"levelo_inurba_marseille","lat":43.28491,"lon":5.36814,"is_reserved":false,"is_disabled":false,"rental_uris":{"android":"levelo://app?vid=e14ff483-f290-4a96-beab-fc577b54c818","ios":"levelo://app?vid=e14ff483-f290-4a96-beab-fc577b54c818"},"vehicle_type_id":"4","last_reported":1733655994,"current_range_meters":11600,"station_id":"","pricing_plan_id":"cebpf4jnsgd1na2vs0mg"},{"bike_id":"95cfddd6-1f3c-4fd2-9652-931f20cf06bd","system_id":"levelo_inurba_marseille","lat":43.25576,"lon":5.38231,"is_reserved":false,"is_disabled":false,"rental_uris":{"android":"levelo://app?vid=95cfddd6-1f3c-4fd2-9652-931f20cf06bd","ios":"levelo://app?vid=95cfddd6-1f3c-4fd2-9652-931f20cf06bd"},"vehicle_type_id":"4","last_reported":1733655994,"current_range_meters":25600,"station_id":"ce4bhih2rcd13ifvqfs0","pricing_plan_id":"cebpf4jnsgd1na2vs0mg"},{"bike_id":"004b42fd-f2b5-4c02-8283-9ad1986583be","system_id":"levelo_inurba_marseille","lat":43.29533,"lon":5.38546,"is_reserved":false,"is_disabled":true,"rental_uris":{"android":"levelo://app?vid=004b42fd-f2b5-4c02-8283-9ad1986583be","ios":"levelo://app?vid=004b42fd-f2b5-4c02-8283-9ad1986583be"},"vehicle_type_id":"4","last_reported":1733655994,"current_range_meters":38000,"station_id":"ce4bgih2rcd13ifvqba0","pricing_plan_id":"cebpf4jnsgd1na2vs0mg"},{"bike_id":"89ceac00-2c22-4cb1-b85d-583fccdb788b","system_id":"levelo_inurba_marseille","lat":43.3211,"lon":5.36755,"is_reserved":false,"is_disabled":false,"rental_uris":{"android":"levelo://app?vid=89ceac00-2c22-4cb1-b85d-583fccdb788b","ios":"levelo://app?vid=89ceac00-2c22-4cb1-b85d-583fccdb788b"},"vehicle_type_id":"4","last_reported":1733655994,"current_range_meters":12400,"station_id":"ce4bhrh2rcd13ifvqhug","pricing_plan_id":"cebpf4jnsgd1na2vs0mg"},{"bike_id":"2058edaa-4d7d-4849-be6b-23e794fcaa84","system_id":"levelo_inurba_marseille","lat":43.27945,"lon":5.4105,"is_reserved":false,"is_disabled":false,"rental_uris":{"android":"levelo://app?vid=2058edaa-4d7d-4849-be6b-23e794fcaa84","ios":"levelo://app?vid=2058edaa-4d7d-4849-be6b-23e794fcaa84"},"vehicle_type_id":"4","last_reported":1733655994,"current_range_meters":34800,"station_id":"ce4bhnp2rcd13ifvqh0g","pricing_plan_id":"cebpf4jnsgd1na2vs0mg"},{"bike_id":"ab1f0d28-f380-4551-95aa-09889e73948a","system_id":"levelo_inurba_marseille","lat":43.31125,"lon":5.37738,"is_reserved":false,"is_disabled":false,"rental_uris":{"android":"levelo://app?vid=ab1f0d28-f380-4551-95aa-09889e73948a","ios":"levelo://app?vid=ab1f0d28-f380-4551-95aa-09889e73948a"},"vehicle_type_id":"4","last_reported":1733655994,"current_range_meters":27600,"station_id":"ce4bgt92rcd13ifvqcg0","pricing_plan_id":"cebpf4jnsgd1na2vs0mg"},{"bike_id":"40d6932b-e763-4aa8-a7f1-007bb68b35a7","system_id":"levelo_inurba_marseille","lat":43.34143,"lon":5.40899,"is_reserved":false,"is_disabled":false,"rental_uris":{"android":"levelo://app?vid=40d6932b-e763-4aa8-a7f1-007bb68b35a7","ios":"levelo://app?vid=40d6932b-e763-4aa8-a7f1-007bb68b35a7"},"vehicle_type_id":"4","last_reported":1733655994,"current_range_meters":38800,"station_id":"ce4bhqh2rcd13ifvqhlg","pricing_plan_id":"cebpf4jnsgd1na2vs0mg"},{"bike_id":"e6ef4c64-4c4c-48fa-a061-246db244ae4c","system_id":"levelo_inurba_marseille","lat":43.2558,"lon":5.38236,"is_reserved":false,"is_disabled":false,"rental_uris":{"android":"levelo://app?vid=e6ef4c64-4c4c-48fa-a061-246db244ae4c","ios":"levelo://app?vid=e6ef4c64-4c4c-48fa-a061-246db244ae4c"},"vehicle_type_id":"4","last_reported":1733655994,"current_range_meters":20400,"station_id":"ce4bhih2rcd13ifvqfs0","pricing_plan_id":"cebpf4jnsgd1na2vs0mg"},{"bike_id":"2b247ce2-f875-40e9-bf2a-461f41bc9f8c","system_id":"levelo_inurba_marseille","lat":43.24811,"lon":5.37456,"is_reserved":false,"is_disabled":true,"rental_uris":{"android":"levelo://app?vid=2b247ce2-f875-40e9-bf2a-461f41bc9f8c","ios":"levelo://app?vid=2b247ce2-f875-40e9-bf2a-461f41bc9f8c"},"vehicle_type_id":"4","last_reported":1733655994,"current_range_meters":38800,"station_id":"ce4bhgh2rcd13ifvqfb0","pricing_plan_id":"cebpf4jnsgd1na2vs0mg"},{"bike_id":"938640b4-f78c-4def-9b16-e6205edb88bc","system_id":"levelo_inurba_marseille","lat":43.28151,"lon":5.42641,"is_reserved":false,"is_disabled":true,"rental_uris":{"android":"levelo://app?vid=938640b4-f78c-4def-9b16-e6205edb88bc","ios":"levelo://app?vid=938640b4-f78c-4def-9b16-e6205edb88bc"},"vehicle_type_id":"4","last_reported":1733655994,"current_range_meters":38800,"station_id":"ce4bhnh2rcd13ifvqgug","pricing_plan_id":"cebpf4jnsgd1na2vs0mg"},{"bike_id":"bd66e220-aa2d-4e33-82f2-5837531933f5","system_id":"levelo_inurba_marseille","lat":43.26937,"lon":5.3892,"is_reserved":false,"is_disabled":false,"rental_uris":{"android":"levelo://app?vid=bd66e220-aa2d-4e33-82f2-5837531933f5","ios":"levelo://app?vid=bd66e220-aa2d-4e33-82f2-5837531933f5"},"vehicle_type_id":"4","last_reported":1733655994,"current_range_meters":14800,"station_id":"ce4bhhh2rcd13ifvqfl0","pricing_plan_id":"cebpf4jnsgd1na2vs0mg"},{"bike_id":"3b3116bf-5eac-4825-80fd-c3d8a243a0a6","system_id":"levelo_inurba_marseille","lat":43.31687,"lon":5.40464,"is_reserved":false,"is_disabled":false,"rental_uris":{"android":"levelo://app?vid=3b3116bf-5eac-4825-80fd-c3d8a243a0a6","ios":"levelo://app?vid=3b3116bf-5eac-4825-80fd-c3d8a243a0a6"},"vehicle_type_id":"4","last_reported":1733655994,"current_range_meters":27200,"station_id":"ce4bh012rcd13ifvqd00","pricing_plan_id":"cebpf4jnsgd1na2vs0mg"},{"bike_id":"cf55b169-9388-4819-bfa4-c55a8fa03873","system_id":"levelo_inurba_marseille","lat":43.2761,"lon":5.36115,"is_reserved":false,"is_disabled":false,"rental_uris":{"android":"levelo://app?vid=cf55b169-9388-4819-bfa4-c55a8fa03873","ios":"levelo://app?vid=cf55b169-9388-4819-bfa4-c55a8fa03873"},"vehicle_type_id":"4","last_reported":1733655994,"current_range_meters":36000,"station_id":"ce4bgj92rcd13ifvqbe0","pricing_plan_id":"cebpf4jnsgd1na2vs0mg"},{"bike_id":"32d80771-6afa-481c-905b-bbdfdc2c61dd","system_id":"levelo_inurba_marseille","lat":43.32482,"lon":5.36574,"is_reserved":false,"is_disabled":true,"rental_uris":{"android":"levelo://app?vid=32d80771-6afa-481c-905b-bbdfdc2c61dd","ios":"levelo://app?vid=32d80771-6afa-481c-905b-bbdfdc2c61dd"},"vehicle_type_id":"4","last_reported":1733655994,"current_range_meters":23200,"station_id":"ce4bhs12rcd13ifvqhvg","pricing_plan_id":"cebpf4jnsgd1na2vs0mg"},{"bike_id":"2f3968e7-9336-4ee4-ba78-8e92c0a818cc","system_id":"levelo_inurba_marseille","lat":43.31322,"lon":5.36647,"is_reserved":false,"is_disabled":true,"rental_uris":{"android":"levelo://app?vid=2f3968e7-9336-4ee4-ba78-8e92c0a818cc","ios":"levelo://app?vid=2f3968e7-9336-4ee4-ba78-8e92c0a818cc"},"vehicle_type_id":"4","last_reported":1733655994,"current_range_meters":0,"station_id":"","pricing_plan_id":"cebpf4jnsgd1na2vs0mg"},{"bike_id":"5ebc19a5-4eab-4ea6-b558-b6d986ab3c2e","system_id":"levelo_inurba_marseille","lat":43.24651,"lon":5.38889,"is_reserved":false,"is_disabled":false,"rental_uris":{"android":"levelo://app?vid=5ebc19a5-4eab-4ea6-b558-b6d986ab3c2e","ios":"levelo://app?vid=5ebc19a5-4eab-4ea6-b558-b6d986ab3c2e"},"vehicle_type_id":"4","last_reported":1733655994,"current_range_meters":38800,"station_id":"ce4bhg12rcd13ifvqf60","pricing_plan_id":"cebpf4jnsgd1na2vs0mg"},{"bike_id":"f90acbfa-8837-46cb-be58-d2336535a1bc","system_id":"levelo_inurba_marseille","lat":43.31486,"lon":5.37305,"is_reserved":false,"is_disabled":false,"rental_uris":{"android":"levelo://app?vid=f90acbfa-8837-46cb-be58-d2336535a1bc","ios":"levelo://app?vid=f90acbfa-8837-46cb-be58-d2336535a1bc"},"vehicle_type_id":"4","last_reported":1733655994,"current_range_meters":32800,"station_id":"ce4bgt12rcd13ifvqcd0","pricing_plan_id":"cebpf4jnsgd1na2vs0mg"},{"bike_id":"be8e5d99-a976-4d6a-a6df-a8f67e6c89cd","system_id":"levelo_inurba_marseille","lat":43.27374,"lon":5.36259,"is_reserved":false,"is_disabled":false,"rental_uris":{"android":"levelo://app?vid=be8e5d99-a976-4d6a-a6df-a8f67e6c89cd","ios":"levelo://app?vid=be8e5d99-a976-4d6a-a6df-a8f67e6c89cd"},"vehicle_type_id":"4","last_reported":1733655994,"current_range_meters":14800,"station_id":"ce4bhbh2rcd13ifvqeo0","pricing_plan_id":"cebpf4jnsgd1na2vs0mg"},{"bike_id":"3ba2ee36-2b31-4bc9-b8c0-c8096e25c27c","system_id":"levelo_inurba_marseille","lat":43.29891,"lon":5.43669,"is_reserved":false,"is_disabled":false,"rental_uris":{"android":"levelo://app?vid=3ba2ee36-2b31-4bc9-b8c0-c8096e25c27c","ios":"levelo://app?vid=3ba2ee36-2b31-4bc9-b8c0-c8096e25c27c"},"vehicle_type_id":"4","last_reported":1733655994,"current_range_meters":25200,"station_id":"ce4bhpp2rcd13ifvqhfg","pricing_plan_id":"cebpf4jnsgd1na2vs0mg"},{"bike_id":"df3163dd-8e0b-4bd9-a826-5332456fb502","system_id":"levelo_inurba_marseille","lat":43.28276,"lon":5.3507,"is_reserved":false,"is_disabled":false,"rental_uris":{"android":"levelo://app?vid=df3163dd-8e0b-4bd9-a826-5332456fb502","ios":"levelo://app?vid=df3163dd-8e0b-4bd9-a826-5332456fb502"},"vehicle_type_id":"4","last_reported":1733655994,"current_range_meters":11200,"station_id":"ce4bhbp2rcd13ifvqerg","pricing_plan_id":"cebpf4jnsgd1na2vs0mg"},{"bike_id":"400f0ea8-6588-4f76-b369-fca13002ea1f","system_id":"levelo_inurba_marseille","lat":43.27612,"lon":5.36112,"is_reserved":false,"is_disabled":false,"rental_uris":{"android":"levelo://app?vid=400f0ea8-6588-4f76-b369-fca13002ea1f","ios":"levelo://app?vid=400f0ea8-6588-4f76-b369-fca13002ea1f"},"vehicle_type_id":"4","last_reported":1733655994,"current_range_meters":30000,"station_id":"ce4bgj92rcd13ifvqbe0","pricing_plan_id":"cebpf4jnsgd1na2vs0mg"},{"bike_id":"7736d0dc-1989-4505-a61b-7fdb0a6489c6","system_id":"levelo_inurba_marseille","lat":43.32373,"lon":5.38884,"is_reserved":false,"is_disabled":true,"rental_uris":{"android":"levelo://app?vid=7736d0dc-1989-4505-a61b-7fdb0a6489c6","ios":"levelo://app?vid=7736d0dc-1989-4505-a61b-7fdb0a6489c6"},"vehicle_type_id":"4","last_reported":1733655994,"current_range_meters":800,"station_id":"ce4bhqp2rcd13ifvqhog","pricing_plan_id":"cebpf4jnsgd1na2vs0mg"},{"bike_id":"1e8f9911-49f1-40e7-b2c6-a411a48272e0","system_id":"levelo_inurba_marseille","lat":43.29789,"lon":5.38117,"is_reserved":false,"is_disabled":true,"rental_uris":{"android":"levelo://app?vid=1e8f9911-49f1-40e7-b2c6-a411a48272e0","ios":"levelo://app?vid=1e8f9911-49f1-40e7-b2c6-a411a48272e0"},"vehicle_type_id":"4","last_reported":1733655994,"current_range_meters":20400,"station_id":"ce4bgip2rcd13ifvqbb0","pricing_plan_id":"cebpf4jnsgd1na2vs0mg"},{"bike_id":"6583aefc-6815-4bd5-8f5c-a9c5d794f47e","system_id":"levelo_inurba_marseille","lat":43.36495,"lon":5.34272,"is_reserved":false,"is_disabled":false,"rental_uris":{"android":"levelo://app?vid=6583aefc-6815-4bd5-8f5c-a9c5d794f47e","ios":"levelo://app?vid=6583aefc-6815-4bd5-8f5c-a9c5d794f47e"},"vehicle_type_id":"4","last_reported":1733655994,"current_range_meters":22000,"station_id":"","pricing_plan_id":"cebpf4jnsgd1na2vs0mg"},{"bike_id":"b111a005-487d-4998-af6a-c101a127cb1a","system_id":"levelo_inurba_marseille","lat":43.26942,"lon":5.40255,"is_reserved":false,"is_disabled":false,"rental_uris":{"android":"levelo://app?vid=b111a005-487d-4998-af6a-c101a127cb1a","ios":"levelo://app?vid=b111a005-487d-4998-af6a-c101a127cb1a"},"vehicle_type_id":"4","last_reported":1733655994,"current_range_meters":30400,"station_id":"cjm6bp8fraef2m0cb0m0","pricing_plan_id":"cebpf4jnsgd1na2vs0mg"},{"bike_id":"18c465ad-16a0-4d72-a337-11a15929aab8","system_id":"levelo_inurba_marseille","lat":43.23952,"lon":5.36642,"is_reserved":false,"is_disabled":true,"rental_uris":{"android":"levelo://app?vid=18c465ad-16a0-4d72-a337-11a15929aab8","ios":"levelo://app?vid=18c465ad-16a0-4d72-a337-11a15929aab8"},"vehicle_type_id":"4","last_reported":1733655994,"current_range_meters":37600,"station_id":"ce4bhi12rcd13ifvqfp0","pricing_plan_id":"cebpf4jnsgd1na2vs0mg"},{"bike_id":"5abd469a-7386-4b4a-a2de-a9c3ef73095b","system_id":"levelo_inurba_marseille","lat":43.30161,"lon":5.38091,"is_reserved":false,"is_disabled":false,"rental_uris":{"android":"levelo://app?vid=5abd469a-7386-4b4a-a2de-a9c3ef73095b","ios":"levelo://app?vid=5abd469a-7386-4b4a-a2de-a9c3ef73095b"},"vehicle_type_id":"4","last_reported":1733655994,"current_range_meters":29600,"station_id":"ce4bgjp2rcd13ifvqbh0","pricing_plan_id":"cebpf4jnsgd1na2vs0mg"},{"bike_id":"f825a6e3-d202-4ddc-917b-5da49c4114c4","system_id":"levelo_inurba_marseille","lat":43.23194,"lon":5.35552,"is_reserved":false,"is_disabled":false,"rental_uris":{"android":"levelo://app?vid=f825a6e3-d202-4ddc-917b-5da49c4114c4","ios":"levelo://app?vid=f825a6e3-d202-4ddc-917b-5da49c4114c4"},"vehicle_type_id":"4","last_reported":1733655994,"current_range_meters":37600,"station_id":"ce4bhu92rcd13ifvqi70","pricing_plan_id":"cebpf4jnsgd1na2vs0mg"},{"bike_id":"49872fcd-8271-43e7-84e6-b771a2f305b8","system_id":"levelo_inurba_marseille","lat":43.273159,"lon":5.390969,"is_reserved":false,"is_disabled":false,"rental_uris":{"android":"levelo://app?vid=49872fcd-8271-43e7-84e6-b771a2f305b8","ios":"levelo://app?vid=49872fcd-8271-43e7-84e6-b771a2f305b8"},"vehicle_type_id":"4","last_reported":1733655994,"current_range_meters":38800,"station_id":"ce4bhgp2rcd13ifvqfe0","pricing_plan_id":"cebpf4jnsgd1na2vs0mg"},{"bike_id":"468d023e-e483-49f2-92d7-7b95c7b3c650","system_id":"levelo_inurba_marseille","lat":43.29904,"lon":5.43645,"is_reserved":false,"is_disabled":false,"rental_uris":{"android":"levelo://app?vid=468d023e-e483-49f2-92d7-7b95c7b3c650","ios":"levelo://app?vid=468d023e-e483-49f2-92d7-7b95c7b3c650"},"vehicle_type_id":"4","last_reported":1733655994,"current_range_meters":9200,"station_id":"ce4bhpp2rcd13ifvqhfg","pricing_plan_id":"cebpf4jnsgd1na2vs0mg"},{"bike_id":"88d8a068-919b-425b-a1b7-91cf1ad24571","system_id":"levelo_inurba_marseille","lat":43.27224,"lon":5.39168,"is_reserved":false,"is_disabled":false,"rental_uris":{"android":"levelo://app?vid=88d8a068-919b-425b-a1b7-91cf1ad24571","ios":"levelo://app?vid=88d8a068-919b-425b-a1b7-91cf1ad24571"},"vehicle_type_id":"4","last_reported":1733655994,"current_range_meters":32000,"station_id":"ce4bhhp2rcd13ifvqfm0","pricing_plan_id":"cebpf4jnsgd1na2vs0mg"},{"bike_id":"1c27174c-f196-485f-a04a-9a3251f6b4d2","system_id":"levelo_inurba_marseille","lat":43.25933,"lon":5.40911,"is_reserved":false,"is_disabled":false,"rental_uris":{"android":"levelo://app?vid=1c27174c-f196-485f-a04a-9a3251f6b4d2","ios":"levelo://app?vid=1c27174c-f196-485f-a04a-9a3251f6b4d2"},"vehicle_type_id":"4","last_reported":1733655994,"current_range_meters":24400,"station_id":"ce4bhm92rcd13ifvqglg","pricing_plan_id":"cebpf4jnsgd1na2vs0mg"},{"bike_id":"325aa2f9-ee83-43c4-ba05-b650ab98515a","system_id":"levelo_inurba_marseille","lat":43.25081,"lon":5.39534,"is_reserved":false,"is_disabled":false,"rental_uris":{"android":"levelo://app?vid=325aa2f9-ee83-43c4-ba05-b650ab98515a","ios":"levelo://app?vid=325aa2f9-ee83-43c4-ba05-b650ab98515a"},"vehicle_type_id":"4","last_reported":1733655994,"current_range_meters":38800,"station_id":"ce4bhm12rcd13ifvqgkg","pricing_plan_id":"cebpf4jnsgd1na2vs0mg"},{"bike_id":"0ae91b1e-777d-4df5-a12e-1138de124b4a","system_id":"levelo_inurba_marseille","lat":43.28269,"lon":5.35075,"is_reserved":false,"is_disabled":false,"rental_uris":{"android":"levelo://app?vid=0ae91b1e-777d-4df5-a12e-1138de124b4a","ios":"levelo://app?vid=0ae91b1e-777d-4df5-a12e-1138de124b4a"},"vehicle_type_id":"4","last_reported":1733655994,"current_range_meters":24000,"station_id":"ce4bhbp2rcd13ifvqerg","pricing_plan_id":"cebpf4jnsgd1na2vs0mg"},{"bike_id":"f10c5e90-601b-4bd4-87e7-4cbb6a13a4fb","system_id":"levelo_inurba_marseille","lat":43.26123,"lon":5.39268,"is_reserved":false,"is_disabled":true,"rental_uris":{"android":"levelo://app?vid=f10c5e90-601b-4bd4-87e7-4cbb6a13a4fb","ios":"levelo://app?vid=f10c5e90-601b-4bd4-87e7-4cbb6a13a4fb"},"vehicle_type_id":"4","last_reported":1733655994,"current_range_meters":0,"station_id":"","pricing_plan_id":"cebpf4jnsgd1na2vs0mg"},{"bike_id":"a01eb9e0-5566-4d39-b1a3-d47e7808d193","system_id":"levelo_inurba_marseille","lat":43.29415,"lon":5.38611,"is_reserved":false,"is_disabled":true,"rental_uris":{"android":"levelo://app?vid=a01eb9e0-5566-4d39-b1a3-d47e7808d193","ios":"levelo://app?vid=a01eb9e0-5566-4d39-b1a3-d47e7808d193"},"vehicle_type_id":"4","last_reported":1733655994,"current_range_meters":2800,"station_id":"ce4bh2h2rcd13ifvqdh0","pricing_plan_id":"cebpf4jnsgd1na2vs0mg"},{"bike_id":"34574282-00e6-4091-bf54-f23676224834","system_id":"levelo_inurba_marseille","lat":43.30556,"lon":5.36555,"is_reserved":false,"is_disabled":false,"rental_uris":{"android":"levelo://app?vid=34574282-00e6-4091-bf54-f23676224834","ios":"levelo://app?vid=34574282-00e6-4091-bf54-f23676224834"},"vehicle_type_id":"4","last_reported":1733655994,"current_range_meters":9600,"station_id":"ce4bgs12rcd13ifvqcag","pricing_plan_id":"cebpf4jnsgd1na2vs0mg"},{"bike_id":"5e97fed8-89ab-4f05-a102-5850caf0b4c1","system_id":"levelo_inurba_marseille","lat":43.27056,"lon":5.40259,"is_reserved":false,"is_disabled":false,"rental_uris":{"android":"levelo://app?vid=5e97fed8-89ab-4f05-a102-5850caf0b4c1","ios":"levelo://app?vid=5e97fed8-89ab-4f05-a102-5850caf0b4c1"},"vehicle_type_id":"4","last_reported":1733655994,"current_range_meters":25600,"station_id":"ce4bhk92rcd13ifvqgc0","pricing_plan_id":"cebpf4jnsgd1na2vs0mg"},{"bike_id":"5d5e8e08-dd36-4331-9be8-d7717274c4bc","system_id":"levelo_inurba_marseille","lat":43.31269,"lon":5.40161,"is_reserved":false,"is_disabled":false,"rental_uris":{"android":"levelo://app?vid=5d5e8e08-dd36-4331-9be8-d7717274c4bc","ios":"levelo://app?vid=5d5e8e08-dd36-4331-9be8-d7717274c4bc"},"vehicle_type_id":"4","last_reported":1733655994,"current_range_meters":38000,"station_id":"ce4bh092rcd13ifvqd30","pricing_plan_id":"cebpf4jnsgd1na2vs0mg"},{"bike_id":"836e31b4-84ea-485a-9aef-0c295c7b4152","system_id":"levelo_inurba_marseille","lat":43.23199,"lon":5.35556,"is_reserved":false,"is_disabled":false,"rental_uris":{"android":"levelo://app?vid=836e31b4-84ea-485a-9aef-0c295c7b4152","ios":"levelo://app?vid=836e31b4-84ea-485a-9aef-0c295c7b4152"},"vehicle_type_id":"4","last_reported":1733655994,"current_range_meters":38800,"station_id":"ce4bhu92rcd13ifvqi70","pricing_plan_id":"cebpf4jnsgd1na2vs0mg"},{"bike_id":"95414d5c-6629-4e8c-8b6c-ad295613082f","system_id":"levelo_inurba_marseille","lat":43.30545,"lon":5.36523,"is_reserved":false,"is_disabled":true,"rental_uris":{"android":"levelo://app?vid=95414d5c-6629-4e8c-8b6c-ad295613082f","ios":"levelo://app?vid=95414d5c-6629-4e8c-8b6c-ad295613082f"},"vehicle_type_id":"4","last_reported":1733655994,"current_range_meters":0,"station_id":"ce4bgs12rcd13ifvqcag","pricing_plan_id":"cebpf4jnsgd1na2vs0mg"},{"bike_id":"d1c54e29-6abc-46ab-acdc-a92a33356190","system_id":"levelo_inurba_marseille","lat":43.33601,"lon":5.41026,"is_reserved":false,"is_disabled":false,"rental_uris":{"android":"levelo://app?vid=d1c54e29-6abc-46ab-acdc-a92a33356190","ios":"levelo://app?vid=d1c54e29-6abc-46ab-acdc-a92a33356190"},"vehicle_type_id":"4","last_reported":1733655994,"current_range_meters":27200,"station_id":"ce4bhqh2rcd13ifvqhmg","pricing_plan_id":"cebpf4jnsgd1na2vs0mg"},{"bike_id":"71512a7b-46c5-4d45-9ffe-dca1cfaf71f8","system_id":"levelo_inurba_marseille","lat":43.32542,"lon":5.41448,"is_reserved":false,"is_disabled":false,"rental_uris":{"android":"levelo://app?vid=71512a7b-46c5-4d45-9ffe-dca1cfaf71f8","ios":"levelo://app?vid=71512a7b-46c5-4d45-9ffe-dca1cfaf71f8"},"vehicle_type_id":"4","last_reported":1733655994,"current_range_meters":38000,"station_id":"ce4bhq12rcd13ifvqhhg","pricing_plan_id":"cebpf4jnsgd1na2vs0mg"},{"bike_id":"167b6ed8-8748-4e86-b29b-c446786e3dcf","system_id":"levelo_inurba_marseille","lat":43.28661,"lon":5.36356,"is_reserved":false,"is_disabled":false,"rental_uris":{"android":"levelo://app?vid=167b6ed8-8748-4e86-b29b-c446786e3dcf","ios":"levelo://app?vid=167b6ed8-8748-4e86-b29b-c446786e3dcf"},"vehicle_type_id":"4","last_reported":1733655994,"current_range_meters":38800,"station_id":"ce4bhah2rcd13ifvqej0","pricing_plan_id":"cebpf4jnsgd1na2vs0mg"},{"bike_id":"4e8813f7-059e-4f1a-92cd-87fd97b079e7","system_id":"levelo_inurba_marseille","lat":43.30415,"lon":5.41288,"is_reserved":false,"is_disabled":false,"rental_uris":{"android":"levelo://app?vid=4e8813f7-059e-4f1a-92cd-87fd97b079e7","ios":"levelo://app?vid=4e8813f7-059e-4f1a-92cd-87fd97b079e7"},"vehicle_type_id":"4","last_reported":1733655994,"current_range_meters":38800,"station_id":"ce4bhop2rcd13ifvqh8g","pricing_plan_id":"cebpf4jnsgd1na2vs0mg"},{"bike_id":"21835eb8-c8da-486b-9ba8-505880f36e12","system_id":"levelo_inurba_marseille","lat":43.31277,"lon":5.40162,"is_reserved":false,"is_disabled":false,"rental_uris":{"android":"levelo://app?vid=21835eb8-c8da-486b-9ba8-505880f36e12","ios":"levelo://app?vid=21835eb8-c8da-486b-9ba8-505880f36e12"},"vehicle_type_id":"4","last_reported":1733655994,"current_range_meters":32800,"station_id":"ce4bh092rcd13ifvqd30","pricing_plan_id":"cebpf4jnsgd1na2vs0mg"},{"bike_id":"c9b870d0-adbc-477b-b2c3-23e72738799d","system_id":"levelo_inurba_marseille","lat":43.24178,"lon":5.3973,"is_reserved":false,"is_disabled":false,"rental_uris":{"android":"levelo://app?vid=c9b870d0-adbc-477b-b2c3-23e72738799d","ios":"levelo://app?vid=c9b870d0-adbc-477b-b2c3-23e72738799d"},"vehicle_type_id":"4","last_reported":1733655994,"current_range_meters":21600,"station_id":"ce4bhn12rcd13ifvqgpg","pricing_plan_id":"cebpf4jnsgd1na2vs0mg"},{"bike_id":"03c4b514-1e04-4eb6-a786-9a598b7d0c89","system_id":"levelo_inurba_marseille","lat":43.28371,"lon":5.3863,"is_reserved":false,"is_disabled":false,"rental_uris":{"android":"levelo://app?vid=03c4b514-1e04-4eb6-a786-9a598b7d0c89","ios":"levelo://app?vid=03c4b514-1e04-4eb6-a786-9a598b7d0c89"},"vehicle_type_id":"4","last_reported":1733655994,"current_range_meters":28000,"station_id":"ce4bh492rcd13ifvqdvg","pricing_plan_id":"cebpf4jnsgd1na2vs0mg"},{"bike_id":"ead6dd2d-8b85-418f-9b60-2247a1f48f6a","system_id":"levelo_inurba_marseille","lat":43.28939,"lon":5.36626,"is_reserved":false,"is_disabled":false,"rental_uris":{"android":"levelo://app?vid=ead6dd2d-8b85-418f-9b60-2247a1f48f6a","ios":"levelo://app?vid=ead6dd2d-8b85-418f-9b60-2247a1f48f6a"},"vehicle_type_id":"4","last_reported":1733655994,"current_range_meters":36000,"station_id":"ce4bhap2rcd13ifvqek0","pricing_plan_id":"cebpf4jnsgd1na2vs0mg"},{"bike_id":"9d519bb5-921f-4226-bc2d-b710c52af635","system_id":"levelo_inurba_marseille","lat":43.30635,"lon":5.40075,"is_reserved":false,"is_disabled":false,"rental_uris":{"android":"levelo://app?vid=9d519bb5-921f-4226-bc2d-b710c52af635","ios":"levelo://app?vid=9d519bb5-921f-4226-bc2d-b710c52af635"},"vehicle_type_id":"4","last_reported":1733655994,"current_range_meters":30400,"station_id":"ce4bh112rcd13ifvqda0","pricing_plan_id":"cebpf4jnsgd1na2vs0mg"},{"bike_id":"2a022814-f741-4adf-a235-83d4941bf5e2","system_id":"levelo_inurba_marseille","lat":43.28426,"lon":5.34985,"is_reserved":false,"is_disabled":false,"rental_uris":{"android":"levelo://app?vid=2a022814-f741-4adf-a235-83d4941bf5e2","ios":"levelo://app?vid=2a022814-f741-4adf-a235-83d4941bf5e2"},"vehicle_type_id":"4","last_reported":1733655994,"current_range_meters":12400,"station_id":"ce4bhbh2rcd13ifvqepg","pricing_plan_id":"cebpf4jnsgd1na2vs0mg"},{"bike_id":"67378829-8746-46f4-aa10-ed9b35d85ab5","system_id":"levelo_inurba_marseille","lat":43.28942,"lon":5.36627,"is_reserved":false,"is_disabled":true,"rental_uris":{"android":"levelo://app?vid=67378829-8746-46f4-aa10-ed9b35d85ab5","ios":"levelo://app?vid=67378829-8746-46f4-aa10-ed9b35d85ab5"},"vehicle_type_id":"4","last_reported":1733655994,"current_range_meters":8000,"station_id":"ce4bhap2rcd13ifvqek0","pricing_plan_id":"cebpf4jnsgd1na2vs0mg"},{"bike_id":"74ddbdc3-b082-4f44-a075-38dfc2e6b2cd","system_id":"levelo_inurba_marseille","lat":43.24156,"lon":5.36392,"is_reserved":false,"is_disabled":false,"rental_uris":{"android":"levelo://app?vid=74ddbdc3-b082-4f44-a075-38dfc2e6b2cd","ios":"levelo://app?vid=74ddbdc3-b082-4f44-a075-38dfc2e6b2cd"},"vehicle_type_id":"4","last_reported":1733655994,"current_range_meters":32000,"station_id":"cpo36qri1sfpv3e86is0","pricing_plan_id":"cebpf4jnsgd1na2vs0mg"},{"bike_id":"ff1487de-9db3-4a1c-b6c6-f78c0363a488","system_id":"levelo_inurba_marseille","lat":43.24647,"lon":5.38891,"is_reserved":false,"is_disabled":false,"rental_uris":{"android":"levelo://app?vid=ff1487de-9db3-4a1c-b6c6-f78c0363a488","ios":"levelo://app?vid=ff1487de-9db3-4a1c-b6c6-f78c0363a488"},"vehicle_type_id":"4","last_reported":1733655994,"current_range_meters":25200,"station_id":"ce4bhg12rcd13ifvqf60","pricing_plan_id":"cebpf4jnsgd1na2vs0mg"},{"bike_id":"0f648a96-f2cf-48bb-a72b-212423b7af8d","system_id":"levelo_inurba_marseille","lat":43.25818,"lon":5.39438,"is_reserved":false,"is_disabled":false,"rental_uris":{"android":"levelo://app?vid=0f648a96-f2cf-48bb-a72b-212423b7af8d","ios":"levelo://app?vid=0f648a96-f2cf-48bb-a72b-212423b7af8d"},"vehicle_type_id":"4","last_reported":1733655994,"current_range_meters":35600,"station_id":"ce4bhip2rcd13ifvqft0","pricing_plan_id":"cebpf4jnsgd1na2vs0mg"},{"bike_id":"35661c68-4556-404f-92a3-d0ce53496d79","system_id":"levelo_inurba_marseille","lat":43.28486,"lon":5.38419,"is_reserved":false,"is_disabled":false,"rental_uris":{"android":"levelo://app?vid=35661c68-4556-404f-92a3-d0ce53496d79","ios":"levelo://app?vid=35661c68-4556-404f-92a3-d0ce53496d79"},"vehicle_type_id":"4","last_reported":1733655994,"current_range_meters":23200,"station_id":"ce4bh512rcd13ifvqe3g","pricing_plan_id":"cebpf4jnsgd1na2vs0mg"},{"bike_id":"f942e722-5039-4601-9971-0207b150598d","system_id":"levelo_inurba_marseille","lat":43.29854,"lon":5.36283,"is_reserved":false,"is_disabled":false,"rental_uris":{"android":"levelo://app?vid=f942e722-5039-4601-9971-0207b150598d","ios":"levelo://app?vid=f942e722-5039-4601-9971-0207b150598d"},"vehicle_type_id":"4","last_reported":1733655994,"current_range_meters":32000,"station_id":"ce4bgpp2rcd13ifvqc3g","pricing_plan_id":"cebpf4jnsgd1na2vs0mg"},{"bike_id":"987a5ab4-d60c-480c-94b6-7cab38975402","system_id":"levelo_inurba_marseille","lat":43.29748,"lon":5.37971,"is_reserved":false,"is_disabled":true,"rental_uris":{"android":"levelo://app?vid=987a5ab4-d60c-480c-94b6-7cab38975402","ios":"levelo://app?vid=987a5ab4-d60c-480c-94b6-7cab38975402"},"vehicle_type_id":"4","last_reported":1733655994,"current_range_meters":0,"station_id":"","pricing_plan_id":"cebpf4jnsgd1na2vs0mg"},{"bike_id":"9cd79aab-6f4c-4919-b570-803a9e8b35c5","system_id":"levelo_inurba_marseille","lat":43.30624,"lon":5.36565,"is_reserved":false,"is_disabled":true,"rental_uris":{"android":"levelo://app?vid=9cd79aab-6f4c-4919-b570-803a9e8b35c5","ios":"levelo://app?vid=9cd79aab-6f4c-4919-b570-803a9e8b35c5"},"vehicle_type_id":"4","last_reported":1733655994,"current_range_meters":34000,"station_id":"","pricing_plan_id":"cebpf4jnsgd1na2vs0mg"},{"bike_id":"4eefcf26-4664-49ba-9407-cd06e7ba50a5","system_id":"levelo_inurba_marseille","lat":43.27375,"lon":5.36256,"is_reserved":false,"is_disabled":false,"rental_uris":{"android":"levelo://app?vid=4eefcf26-4664-49ba-9407-cd06e7ba50a5","ios":"levelo://app?vid=4eefcf26-4664-49ba-9407-cd06e7ba50a5"},"vehicle_type_id":"4","last_reported":1733655994,"current_range_meters":29600,"station_id":"ce4bhbh2rcd13ifvqeo0","pricing_plan_id":"cebpf4jnsgd1na2vs0mg"},{"bike_id":"165d3311-a977-4745-b689-5e6993d37f26","system_id":"levelo_inurba_marseille","lat":43.32484,"lon":5.3658,"is_reserved":false,"is_disabled":true,"rental_uris":{"android":"levelo://app?vid=165d3311-a977-4745-b689-5e6993d37f26","ios":"levelo://app?vid=165d3311-a977-4745-b689-5e6993d37f26"},"vehicle_type_id":"4","last_reported":1733655994,"current_range_meters":32400,"station_id":"ce4bhs12rcd13ifvqhvg","pricing_plan_id":"cebpf4jnsgd1na2vs0mg"},{"bike_id":"b6da6692-7e69-4e98-8ae5-84a8533f251e","system_id":"levelo_inurba_marseille","lat":43.30546,"lon":5.36526,"is_reserved":false,"is_disabled":true,"rental_uris":{"android":"levelo://app?vid=b6da6692-7e69-4e98-8ae5-84a8533f251e","ios":"levelo://app?vid=b6da6692-7e69-4e98-8ae5-84a8533f251e"},"vehicle_type_id":"4","last_reported":1733655994,"current_range_meters":6800,"station_id":"ce4bgs12rcd13ifvqcag","pricing_plan_id":"cebpf4jnsgd1na2vs0mg"},{"bike_id":"05f50a29-9b9d-41ae-8b43-3d69a9a4fb88","system_id":"levelo_inurba_marseille","lat":43.25577,"lon":5.38237,"is_reserved":false,"is_disabled":false,"rental_uris":{"android":"levelo://app?vid=05f50a29-9b9d-41ae-8b43-3d69a9a4fb88","ios":"levelo://app?vid=05f50a29-9b9d-41ae-8b43-3d69a9a4fb88"},"vehicle_type_id":"4","last_reported":1733655994,"current_range_meters":38800,"station_id":"ce4bhih2rcd13ifvqfs0","pricing_plan_id":"cebpf4jnsgd1na2vs0mg"},{"bike_id":"11e86528-eb6b-4391-86a5-9b1822d069a4","system_id":"levelo_inurba_marseille","lat":43.278805,"lon":5.388003,"is_reserved":false,"is_disabled":true,"rental_uris":{"android":"levelo://app?vid=11e86528-eb6b-4391-86a5-9b1822d069a4","ios":"levelo://app?vid=11e86528-eb6b-4391-86a5-9b1822d069a4"},"vehicle_type_id":"4","last_reported":1733655994,"current_range_meters":0,"station_id":"","pricing_plan_id":"cebpf4jnsgd1na2vs0mg"},{"bike_id":"6cc6805f-c0ca-4585-bdf1-b5a0339762b0","system_id":"levelo_inurba_marseille","lat":43.29027,"lon":5.42744,"is_reserved":false,"is_disabled":true,"rental_uris":{"android":"levelo://app?vid=6cc6805f-c0ca-4585-bdf1-b5a0339762b0","ios":"levelo://app?vid=6cc6805f-c0ca-4585-bdf1-b5a0339762b0"},"vehicle_type_id":"4","last_reported":1733655994,"current_range_meters":0,"station_id":"","pricing_plan_id":"cebpf4jnsgd1na2vs0mg"},{"bike_id":"fbab0e01-40cc-4eff-939a-d9a8fdd7ac42","system_id":"levelo_inurba_marseille","lat":43.25729,"lon":5.41108,"is_reserved":false,"is_disabled":false,"rental_uris":{"android":"levelo://app?vid=fbab0e01-40cc-4eff-939a-d9a8fdd7ac42","ios":"levelo://app?vid=fbab0e01-40cc-4eff-939a-d9a8fdd7ac42"},"vehicle_type_id":"4","last_reported":1733655994,"current_range_meters":38800,"station_id":"ce4bhkp2rcd13ifvqgd0","pricing_plan_id":"cebpf4jnsgd1na2vs0mg"},{"bike_id":"7fe86e8b-f1b3-47fd-84b6-643366f68e78","system_id":"levelo_inurba_marseille","lat":43.35563,"lon":5.36195,"is_reserved":false,"is_disabled":false,"rental_uris":{"android":"levelo://app?vid=7fe86e8b-f1b3-47fd-84b6-643366f68e78","ios":"levelo://app?vid=7fe86e8b-f1b3-47fd-84b6-643366f68e78"},"vehicle_type_id":"4","last_reported":1733655994,"current_range_meters":8800,"station_id":"","pricing_plan_id":"cebpf4jnsgd1na2vs0mg"},{"bike_id":"9af01a05-a8fb-4fa7-8f0a-ce4ab06b3598","system_id":"levelo_inurba_marseille","lat":43.29039,"lon":5.3757,"is_reserved":false,"is_disabled":false,"rental_uris":{"android":"levelo://app?vid=9af01a05-a8fb-4fa7-8f0a-ce4ab06b3598","ios":"levelo://app?vid=9af01a05-a8fb-4fa7-8f0a-ce4ab06b3598"},"vehicle_type_id":"4","last_reported":1733655994,"current_range_meters":10800,"station_id":"ce4bh692rcd13ifvqe90","pricing_plan_id":"cebpf4jnsgd1na2vs0mg"},{"bike_id":"c930db70-43dd-4312-95ff-977a1b5b5dd8","system_id":"levelo_inurba_marseille","lat":43.28154,"lon":5.42642,"is_reserved":false,"is_disabled":false,"rental_uris":{"android":"levelo://app?vid=c930db70-43dd-4312-95ff-977a1b5b5dd8","ios":"levelo://app?vid=c930db70-43dd-4312-95ff-977a1b5b5dd8"},"vehicle_type_id":"4","last_reported":1733655994,"current_range_meters":18000,"station_id":"ce4bhnh2rcd13ifvqgug","pricing_plan_id":"cebpf4jnsgd1na2vs0mg"},{"bike_id":"ea9504d9-aff2-4542-b984-f952cc4ceb4b","system_id":"levelo_inurba_marseille","lat":43.25004,"lon":5.38912,"is_reserved":false,"is_disabled":false,"rental_uris":{"android":"levelo://app?vid=ea9504d9-aff2-4542-b984-f952cc4ceb4b","ios":"levelo://app?vid=ea9504d9-aff2-4542-b984-f952cc4ceb4b"},"vehicle_type_id":"4","last_reported":1733655994,"current_range_meters":10800,"station_id":"ce4bhgp2rcd13ifvqfd0","pricing_plan_id":"cebpf4jnsgd1na2vs0mg"},{"bike_id":"395453e6-426b-48cc-9eca-fa5cc17cbe1b","system_id":"levelo_inurba_marseille","lat":43.24809,"lon":5.3746,"is_reserved":false,"is_disabled":false,"rental_uris":{"android":"levelo://app?vid=395453e6-426b-48cc-9eca-fa5cc17cbe1b","ios":"levelo://app?vid=395453e6-426b-48cc-9eca-fa5cc17cbe1b"},"vehicle_type_id":"4","last_reported":1733655994,"current_range_meters":30800,"station_id":"ce4bhgh2rcd13ifvqfb0","pricing_plan_id":"cebpf4jnsgd1na2vs0mg"},{"bike_id":"0bd2b5a5-76e4-4322-ba09-2a37d60b63ea","system_id":"levelo_inurba_marseille","lat":43.26211,"lon":5.37441,"is_reserved":false,"is_disabled":false,"rental_uris":{"android":"levelo://app?vid=0bd2b5a5-76e4-4322-ba09-2a37d60b63ea","ios":"levelo://app?vid=0bd2b5a5-76e4-4322-ba09-2a37d60b63ea"},"vehicle_type_id":"4","last_reported":1733655994,"current_range_meters":6800,"station_id":"ce4bhgp2rcd13ifvqfc0","pricing_plan_id":"cebpf4jnsgd1na2vs0mg"},{"bike_id":"968a09cf-4a23-4936-af82-5c1ca631252a","system_id":"levelo_inurba_marseille","lat":43.33602,"lon":5.4103,"is_reserved":false,"is_disabled":false,"rental_uris":{"android":"levelo://app?vid=968a09cf-4a23-4936-af82-5c1ca631252a","ios":"levelo://app?vid=968a09cf-4a23-4936-af82-5c1ca631252a"},"vehicle_type_id":"4","last_reported":1733655994,"current_range_meters":35600,"station_id":"ce4bhqh2rcd13ifvqhmg","pricing_plan_id":"cebpf4jnsgd1na2vs0mg"},{"bike_id":"b04b4f64-4677-4acc-9cf8-88c63ef2a0e8","system_id":"levelo_inurba_marseille","lat":43.2315,"lon":5.43704,"is_reserved":false,"is_disabled":false,"rental_uris":{"android":"levelo://app?vid=b04b4f64-4677-4acc-9cf8-88c63ef2a0e8","ios":"levelo://app?vid=b04b4f64-4677-4acc-9cf8-88c63ef2a0e8"},"vehicle_type_id":"4","last_reported":1733655994,"current_range_meters":38800,"station_id":"ce4bhmp2rcd13ifvqgog","pricing_plan_id":"cebpf4jnsgd1na2vs0mg"},{"bike_id":"3a1cabfd-7ea0-40e5-ba2a-bc16f7acb1fa","system_id":"levelo_inurba_marseille","lat":43.34336,"lon":5.35813,"is_reserved":false,"is_disabled":true,"rental_uris":{"android":"levelo://app?vid=3a1cabfd-7ea0-40e5-ba2a-bc16f7acb1fa","ios":"levelo://app?vid=3a1cabfd-7ea0-40e5-ba2a-bc16f7acb1fa"},"vehicle_type_id":"4","last_reported":1733655994,"current_range_meters":1600,"station_id":"","pricing_plan_id":"cebpf4jnsgd1na2vs0mg"},{"bike_id":"243c0fa9-fb27-4111-81f0-175e30eaaaed","system_id":"levelo_inurba_marseille","lat":43.29046,"lon":5.35917,"is_reserved":false,"is_disabled":true,"rental_uris":{"android":"levelo://app?vid=243c0fa9-fb27-4111-81f0-175e30eaaaed","ios":"levelo://app?vid=243c0fa9-fb27-4111-81f0-175e30eaaaed"},"vehicle_type_id":"4","last_reported":1733655994,"current_range_meters":28000,"station_id":"ce4bha92rcd13ifvqeg0","pricing_plan_id":"cebpf4jnsgd1na2vs0mg"},{"bike_id":"14726b6f-5ec7-4a0f-85ef-530d09932e2f","system_id":"levelo_inurba_marseille","lat":43.25718,"lon":5.41113,"is_reserved":false,"is_disabled":false,"rental_uris":{"android":"levelo://app?vid=14726b6f-5ec7-4a0f-85ef-530d09932e2f","ios":"levelo://app?vid=14726b6f-5ec7-4a0f-85ef-530d09932e2f"},"vehicle_type_id":"4","last_reported":1733655994,"current_range_meters":12000,"station_id":"ce4bhkp2rcd13ifvqgd0","pricing_plan_id":"cebpf4jnsgd1na2vs0mg"},{"bike_id":"95b68163-8c31-4ce4-989b-0d594a1f53e9","system_id":"levelo_inurba_marseille","lat":43.29676,"lon":5.37252,"is_reserved":false,"is_disabled":false,"rental_uris":{"android":"levelo://app?vid=95b68163-8c31-4ce4-989b-0d594a1f53e9","ios":"levelo://app?vid=95b68163-8c31-4ce4-989b-0d594a1f53e9"},"vehicle_type_id":"4","last_reported":1733655994,"current_range_meters":32400,"station_id":"ce4bgk12rcd13ifvqbj0","pricing_plan_id":"cebpf4jnsgd1na2vs0mg"},{"bike_id":"fbcf886d-6d6c-4e87-9335-231f3937d367","system_id":"levelo_inurba_marseille","lat":43.31528,"lon":5.38032,"is_reserved":false,"is_disabled":false,"rental_uris":{"android":"levelo://app?vid=fbcf886d-6d6c-4e87-9335-231f3937d367","ios":"levelo://app?vid=fbcf886d-6d6c-4e87-9335-231f3937d367"},"vehicle_type_id":"4","last_reported":1733655994,"current_range_meters":35200,"station_id":"ce4bhsp2rcd13ifvqi50","pricing_plan_id":"cebpf4jnsgd1na2vs0mg"},{"bike_id":"98894517-de22-4018-8b81-3703181b3509","system_id":"levelo_inurba_marseille","lat":43.2957,"lon":5.37528,"is_reserved":false,"is_disabled":false,"rental_uris":{"android":"levelo://app?vid=98894517-de22-4018-8b81-3703181b3509","ios":"levelo://app?vid=98894517-de22-4018-8b81-3703181b3509"},"vehicle_type_id":"4","last_reported":1733655994,"current_range_meters":28800,"station_id":"ce4bgh92rcd13ifvqb50","pricing_plan_id":"cebpf4jnsgd1na2vs0mg"},{"bike_id":"9fad8584-a25a-433b-87dc-5728e0e1b6f4","system_id":"levelo_inurba_marseille","lat":43.33025,"lon":5.39034,"is_reserved":false,"is_disabled":false,"rental_uris":{"android":"levelo://app?vid=9fad8584-a25a-433b-87dc-5728e0e1b6f4","ios":"levelo://app?vid=9fad8584-a25a-433b-87dc-5728e0e1b6f4"},"vehicle_type_id":"4","last_reported":1733655994,"current_range_meters":28400,"station_id":"ce4bhr92rcd13ifvqhrg","pricing_plan_id":"cebpf4jnsgd1na2vs0mg"},{"bike_id":"e505588b-2390-4a5a-aa8e-e97e870d1c73","system_id":"levelo_inurba_marseille","lat":43.31279,"lon":5.40166,"is_reserved":false,"is_disabled":false,"rental_uris":{"android":"levelo://app?vid=e505588b-2390-4a5a-aa8e-e97e870d1c73","ios":"levelo://app?vid=e505588b-2390-4a5a-aa8e-e97e870d1c73"},"vehicle_type_id":"4","last_reported":1733655994,"current_range_meters":26800,"station_id":"ce4bh092rcd13ifvqd30","pricing_plan_id":"cebpf4jnsgd1na2vs0mg"},{"bike_id":"f8240494-345f-4e24-9eed-066119e728d5","system_id":"levelo_inurba_marseille","lat":43.23158,"lon":5.43704,"is_reserved":false,"is_disabled":false,"rental_uris":{"android":"levelo://app?vid=f8240494-345f-4e24-9eed-066119e728d5","ios":"levelo://app?vid=f8240494-345f-4e24-9eed-066119e728d5"},"vehicle_type_id":"4","last_reported":1733655994,"current_range_meters":36400,"station_id":"ce4bhmp2rcd13ifvqgog","pricing_plan_id":"cebpf4jnsgd1na2vs0mg"},{"bike_id":"344526a9-8d0b-479c-9bd3-d552a4e510d2","system_id":"levelo_inurba_marseille","lat":43.32655,"lon":5.40993,"is_reserved":false,"is_disabled":false,"rental_uris":{"android":"levelo://app?vid=344526a9-8d0b-479c-9bd3-d552a4e510d2","ios":"levelo://app?vid=344526a9-8d0b-479c-9bd3-d552a4e510d2"},"vehicle_type_id":"4","last_reported":1733655994,"current_range_meters":37600,"station_id":"ce4bhpp2rcd13ifvqhgg","pricing_plan_id":"cebpf4jnsgd1na2vs0mg"},{"bike_id":"877c40fc-293b-4084-9181-f3e153e6f4a7","system_id":"levelo_inurba_marseille","lat":43.31364,"lon":5.38491,"is_reserved":false,"is_disabled":false,"rental_uris":{"android":"levelo://app?vid=877c40fc-293b-4084-9181-f3e153e6f4a7","ios":"levelo://app?vid=877c40fc-293b-4084-9181-f3e153e6f4a7"},"vehicle_type_id":"4","last_reported":1733655994,"current_range_meters":35600,"station_id":"ce4bgt92rcd13ifvqcf0","pricing_plan_id":"cebpf4jnsgd1na2vs0mg"},{"bike_id":"067d4f8e-eded-4040-9b89-eb14aebc4852","system_id":"levelo_inurba_marseille","lat":43.29897,"lon":5.43678,"is_reserved":false,"is_disabled":false,"rental_uris":{"android":"levelo://app?vid=067d4f8e-eded-4040-9b89-eb14aebc4852","ios":"levelo://app?vid=067d4f8e-eded-4040-9b89-eb14aebc4852"},"vehicle_type_id":"4","last_reported":1733655994,"current_range_meters":8000,"station_id":"ce4bhpp2rcd13ifvqhfg","pricing_plan_id":"cebpf4jnsgd1na2vs0mg"},{"bike_id":"fd142eec-a69c-4ce2-9399-b1bfbe3961af","system_id":"levelo_inurba_marseille","lat":43.30586,"lon":5.39359,"is_reserved":false,"is_disabled":false,"rental_uris":{"android":"levelo://app?vid=fd142eec-a69c-4ce2-9399-b1bfbe3961af","ios":"levelo://app?vid=fd142eec-a69c-4ce2-9399-b1bfbe3961af"},"vehicle_type_id":"4","last_reported":1733655994,"current_range_meters":17600,"station_id":"ce4bh0p2rcd13ifvqd80","pricing_plan_id":"cebpf4jnsgd1na2vs0mg"},{"bike_id":"de7a63dd-ae5c-4394-8745-333286a31461","system_id":"levelo_inurba_marseille","lat":43.30421,"lon":5.41284,"is_reserved":false,"is_disabled":false,"rental_uris":{"android":"levelo://app?vid=de7a63dd-ae5c-4394-8745-333286a31461","ios":"levelo://app?vid=de7a63dd-ae5c-4394-8745-333286a31461"},"vehicle_type_id":"4","last_reported":1733655994,"current_range_meters":18000,"station_id":"ce4bhop2rcd13ifvqh8g","pricing_plan_id":"cebpf4jnsgd1na2vs0mg"},{"bike_id":"83985555-c848-4b28-808f-8a7e7cf8519e","system_id":"levelo_inurba_marseille","lat":43.28115,"lon":5.43955,"is_reserved":false,"is_disabled":true,"rental_uris":{"android":"levelo://app?vid=83985555-c848-4b28-808f-8a7e7cf8519e","ios":"levelo://app?vid=83985555-c848-4b28-808f-8a7e7cf8519e"},"vehicle_type_id":"4","last_reported":1733655994,"current_range_meters":0,"station_id":"","pricing_plan_id":"cebpf4jnsgd1na2vs0mg"},{"bike_id":"3b8cd883-f7fd-4d97-aa8a-c6c2de425401","system_id":"levelo_inurba_marseille","lat":43.27212,"lon":5.39192,"is_reserved":false,"is_disabled":false,"rental_uris":{"android":"levelo://app?vid=3b8cd883-f7fd-4d97-aa8a-c6c2de425401","ios":"levelo://app?vid=3b8cd883-f7fd-4d97-aa8a-c6c2de425401"},"vehicle_type_id":"4","last_reported":1733655994,"current_range_meters":32400,"station_id":"ce4bhhp2rcd13ifvqfm0","pricing_plan_id":"cebpf4jnsgd1na2vs0mg"},{"bike_id":"84eddd35-4076-462c-b0e4-9c17c748aeff","system_id":"levelo_inurba_marseille","lat":43.33771,"lon":5.37491,"is_reserved":false,"is_disabled":false,"rental_uris":{"android":"levelo://app?vid=84eddd35-4076-462c-b0e4-9c17c748aeff","ios":"levelo://app?vid=84eddd35-4076-462c-b0e4-9c17c748aeff"},"vehicle_type_id":"4","last_reported":1733655994,"current_range_meters":14400,"station_id":"","pricing_plan_id":"cebpf4jnsgd1na2vs0mg"},{"bike_id":"66d0f71e-5d76-4274-a432-4dd216931dd0","system_id":"levelo_inurba_marseille","lat":43.28423,"lon":5.34984,"is_reserved":false,"is_disabled":false,"rental_uris":{"android":"levelo://app?vid=66d0f71e-5d76-4274-a432-4dd216931dd0","ios":"levelo://app?vid=66d0f71e-5d76-4274-a432-4dd216931dd0"},"vehicle_type_id":"4","last_reported":1733655994,"current_range_meters":38000,"station_id":"ce4bhbh2rcd13ifvqepg","pricing_plan_id":"cebpf4jnsgd1na2vs0mg"},{"bike_id":"97ac6443-d24f-4abe-a801-acce28103b41","system_id":"levelo_inurba_marseille","lat":43.29847,"lon":5.36281,"is_reserved":false,"is_disabled":false,"rental_uris":{"android":"levelo://app?vid=97ac6443-d24f-4abe-a801-acce28103b41","ios":"levelo://app?vid=97ac6443-d24f-4abe-a801-acce28103b41"},"vehicle_type_id":"4","last_reported":1733655994,"current_range_meters":38800,"station_id":"ce4bgpp2rcd13ifvqc3g","pricing_plan_id":"cebpf4jnsgd1na2vs0mg"},{"bike_id":"85bb25a5-6313-4f76-a5db-8e9d1481f707","system_id":"levelo_inurba_marseille","lat":43.31074,"lon":5.38361,"is_reserved":false,"is_disabled":true,"rental_uris":{"android":"levelo://app?vid=85bb25a5-6313-4f76-a5db-8e9d1481f707","ios":"levelo://app?vid=85bb25a5-6313-4f76-a5db-8e9d1481f707"},"vehicle_type_id":"4","last_reported":1733655994,"current_range_meters":0,"station_id":"ce4bgv92rcd13ifvqcr0","pricing_plan_id":"cebpf4jnsgd1na2vs0mg"},{"bike_id":"4e688bf2-5391-49e6-95d4-87c45034105c","system_id":"levelo_inurba_marseille","lat":43.32657,"lon":5.40985,"is_reserved":false,"is_disabled":false,"rental_uris":{"android":"levelo://app?vid=4e688bf2-5391-49e6-95d4-87c45034105c","ios":"levelo://app?vid=4e688bf2-5391-49e6-95d4-87c45034105c"},"vehicle_type_id":"4","last_reported":1733655994,"current_range_meters":10000,"station_id":"ce4bhpp2rcd13ifvqhgg","pricing_plan_id":"cebpf4jnsgd1na2vs0mg"},{"bike_id":"59ec8469-de73-4900-aee6-d1b157890d0d","system_id":"levelo_inurba_marseille","lat":43.24664,"lon":5.38162,"is_reserved":false,"is_disabled":false,"rental_uris":{"android":"levelo://app?vid=59ec8469-de73-4900-aee6-d1b157890d0d","ios":"levelo://app?vid=59ec8469-de73-4900-aee6-d1b157890d0d"},"vehicle_type_id":"4","last_reported":1733655994,"current_range_meters":38800,"station_id":"ce4bhih2rcd13ifvqfr0","pricing_plan_id":"cebpf4jnsgd1na2vs0mg"},{"bike_id":"34cd3179-a984-4984-ba39-77f55cba8dc9","system_id":"levelo_inurba_marseille","lat":43.32657,"lon":5.40992,"is_reserved":false,"is_disabled":true,"rental_uris":{"android":"levelo://app?vid=34cd3179-a984-4984-ba39-77f55cba8dc9","ios":"levelo://app?vid=34cd3179-a984-4984-ba39-77f55cba8dc9"},"vehicle_type_id":"4","last_reported":1733655994,"current_range_meters":32000,"station_id":"ce4bhpp2rcd13ifvqhgg","pricing_plan_id":"cebpf4jnsgd1na2vs0mg"},{"bike_id":"5687e068-69cc-4397-b6fb-a40653dbd395","system_id":"levelo_inurba_marseille","lat":43.31761,"lon":5.39014,"is_reserved":false,"is_disabled":false,"rental_uris":{"android":"levelo://app?vid=5687e068-69cc-4397-b6fb-a40653dbd395","ios":"levelo://app?vid=5687e068-69cc-4397-b6fb-a40653dbd395"},"vehicle_type_id":"4","last_reported":1733655994,"current_range_meters":37600,"station_id":"ce4bhqp2rcd13ifvqhng","pricing_plan_id":"cebpf4jnsgd1na2vs0mg"},{"bike_id":"5edf82fa-e9d0-4d1f-98f1-37c98092771a","system_id":"levelo_inurba_marseille","lat":43.23196,"lon":5.35552,"is_reserved":false,"is_disabled":false,"rental_uris":{"android":"levelo://app?vid=5edf82fa-e9d0-4d1f-98f1-37c98092771a","ios":"levelo://app?vid=5edf82fa-e9d0-4d1f-98f1-37c98092771a"},"vehicle_type_id":"4","last_reported":1733655994,"current_range_meters":39200,"station_id":"ce4bhu92rcd13ifvqi70","pricing_plan_id":"cebpf4jnsgd1na2vs0mg"},{"bike_id":"c2fec4a2-7019-4722-9535-487b9ffdfbe8","system_id":"levelo_inurba_marseille","lat":43.26556,"lon":5.37289,"is_reserved":false,"is_disabled":true,"rental_uris":{"android":"levelo://app?vid=c2fec4a2-7019-4722-9535-487b9ffdfbe8","ios":"levelo://app?vid=c2fec4a2-7019-4722-9535-487b9ffdfbe8"},"vehicle_type_id":"4","last_reported":1733655994,"current_range_meters":0,"station_id":"ce4bhg12rcd13ifvqf70","pricing_plan_id":"cebpf4jnsgd1na2vs0mg"},{"bike_id":"68feebb6-fec8-45a5-9e2d-70c530f4e011","system_id":"levelo_inurba_marseille","lat":43.27619,"lon":5.36108,"is_reserved":false,"is_disabled":false,"rental_uris":{"android":"levelo://app?vid=68feebb6-fec8-45a5-9e2d-70c530f4e011","ios":"levelo://app?vid=68feebb6-fec8-45a5-9e2d-70c530f4e011"},"vehicle_type_id":"4","last_reported":1733655994,"current_range_meters":28800,"station_id":"ce4bgj92rcd13ifvqbe0","pricing_plan_id":"cebpf4jnsgd1na2vs0mg"},{"bike_id":"3afcb54a-b8a5-40bb-8ae8-ddf1f47b8268","system_id":"levelo_inurba_marseille","lat":43.30538,"lon":5.38437,"is_reserved":false,"is_disabled":true,"rental_uris":{"android":"levelo://app?vid=3afcb54a-b8a5-40bb-8ae8-ddf1f47b8268","ios":"levelo://app?vid=3afcb54a-b8a5-40bb-8ae8-ddf1f47b8268"},"vehicle_type_id":"4","last_reported":1733655994,"current_range_meters":31200,"station_id":"ce4bgg92rcd13ifvqb30","pricing_plan_id":"cebpf4jnsgd1na2vs0mg"},{"bike_id":"a76f0499-0af6-402b-8f9f-ddd78320a7b4","system_id":"levelo_inurba_marseille","lat":43.30454,"lon":5.37897,"is_reserved":false,"is_disabled":true,"rental_uris":{"android":"levelo://app?vid=a76f0499-0af6-402b-8f9f-ddd78320a7b4","ios":"levelo://app?vid=a76f0499-0af6-402b-8f9f-ddd78320a7b4"},"vehicle_type_id":"4","last_reported":1733655994,"current_range_meters":0,"station_id":"ce4bgup2rcd13ifvqcn0","pricing_plan_id":"cebpf4jnsgd1na2vs0mg"},{"bike_id":"83319820-ad4f-4208-bf65-c9fc431b1a4c","system_id":"levelo_inurba_marseille","lat":43.25828,"lon":5.39437,"is_reserved":false,"is_disabled":false,"rental_uris":{"android":"levelo://app?vid=83319820-ad4f-4208-bf65-c9fc431b1a4c","ios":"levelo://app?vid=83319820-ad4f-4208-bf65-c9fc431b1a4c"},"vehicle_type_id":"4","last_reported":1733655994,"current_range_meters":28400,"station_id":"ce4bhip2rcd13ifvqft0","pricing_plan_id":"cebpf4jnsgd1na2vs0mg"},{"bike_id":"9c2d089d-e580-464c-a254-a84d0c5baff8","system_id":"levelo_inurba_marseille","lat":43.25868,"lon":5.39899,"is_reserved":false,"is_disabled":false,"rental_uris":{"android":"levelo://app?vid=9c2d089d-e580-464c-a254-a84d0c5baff8","ios":"levelo://app?vid=9c2d089d-e580-464c-a254-a84d0c5baff8"},"vehicle_type_id":"4","last_reported":1733655994,"current_range_meters":38000,"station_id":"ce4bhl92rcd13ifvqghg","pricing_plan_id":"cebpf4jnsgd1na2vs0mg"},{"bike_id":"b497ad4d-1643-419c-aba6-8e8a5474d77a","system_id":"levelo_inurba_marseille","lat":43.29895,"lon":5.43666,"is_reserved":false,"is_disabled":false,"rental_uris":{"android":"levelo://app?vid=b497ad4d-1643-419c-aba6-8e8a5474d77a","ios":"levelo://app?vid=b497ad4d-1643-419c-aba6-8e8a5474d77a"},"vehicle_type_id":"4","last_reported":1733655994,"current_range_meters":13600,"station_id":"ce4bhpp2rcd13ifvqhfg","pricing_plan_id":"cebpf4jnsgd1na2vs0mg"},{"bike_id":"5dcd9825-d865-4299-b8c6-2961caf3e9b6","system_id":"levelo_inurba_marseille","lat":43.29718,"lon":5.37704,"is_reserved":false,"is_disabled":false,"rental_uris":{"android":"levelo://app?vid=5dcd9825-d865-4299-b8c6-2961caf3e9b6","ios":"levelo://app?vid=5dcd9825-d865-4299-b8c6-2961caf3e9b6"},"vehicle_type_id":"4","last_reported":1733655994,"current_range_meters":30000,"station_id":"ce4bgkh2rcd13ifvqbl0","pricing_plan_id":"cebpf4jnsgd1na2vs0mg"},{"bike_id":"1b0cf7b0-f1f1-420d-b39e-8993110a2cf3","system_id":"levelo_inurba_marseille","lat":43.29476,"lon":5.43837,"is_reserved":false,"is_disabled":false,"rental_uris":{"android":"levelo://app?vid=1b0cf7b0-f1f1-420d-b39e-8993110a2cf3","ios":"levelo://app?vid=1b0cf7b0-f1f1-420d-b39e-8993110a2cf3"},"vehicle_type_id":"4","last_reported":1733655994,"current_range_meters":20800,"station_id":"","pricing_plan_id":"cebpf4jnsgd1na2vs0mg"},{"bike_id":"872baac7-a790-472e-a4d5-8894eb9605e5","system_id":"levelo_inurba_marseille","lat":43.28778,"lon":5.36252,"is_reserved":false,"is_disabled":false,"rental_uris":{"android":"levelo://app?vid=872baac7-a790-472e-a4d5-8894eb9605e5","ios":"levelo://app?vid=872baac7-a790-472e-a4d5-8894eb9605e5"},"vehicle_type_id":"4","last_reported":1733655994,"current_range_meters":14800,"station_id":"","pricing_plan_id":"cebpf4jnsgd1na2vs0mg"},{"bike_id":"15e21ff4-debb-4d61-969a-5518cc99a71c","system_id":"levelo_inurba_marseille","lat":43.27566,"lon":5.38412,"is_reserved":false,"is_disabled":false,"rental_uris":{"android":"levelo://app?vid=15e21ff4-debb-4d61-969a-5518cc99a71c","ios":"levelo://app?vid=15e21ff4-debb-4d61-969a-5518cc99a71c"},"vehicle_type_id":"4","last_reported":1733655994,"current_range_meters":38800,"station_id":"ce4bhh92rcd13ifvqfi0","pricing_plan_id":"cebpf4jnsgd1na2vs0mg"},{"bike_id":"0deb7b46-3bee-4382-87b1-3984fb62457f","system_id":"levelo_inurba_marseille","lat":43.28742,"lon":5.389119,"is_reserved":false,"is_disabled":true,"rental_uris":{"android":"levelo://app?vid=0deb7b46-3bee-4382-87b1-3984fb62457f","ios":"levelo://app?vid=0deb7b46-3bee-4382-87b1-3984fb62457f"},"vehicle_type_id":"4","last_reported":1733655994,"current_range_meters":22800,"station_id":"","pricing_plan_id":"cebpf4jnsgd1na2vs0mg"},{"bike_id":"99d798fc-c0e8-43d7-9e3a-746df89e479b","system_id":"levelo_inurba_marseille","lat":43.25577,"lon":5.38239,"is_reserved":false,"is_disabled":false,"rental_uris":{"android":"levelo://app?vid=99d798fc-c0e8-43d7-9e3a-746df89e479b","ios":"levelo://app?vid=99d798fc-c0e8-43d7-9e3a-746df89e479b"},"vehicle_type_id":"4","last_reported":1733655994,"current_range_meters":27600,"station_id":"ce4bhih2rcd13ifvqfs0","pricing_plan_id":"cebpf4jnsgd1na2vs0mg"},{"bike_id":"45f2f193-ddd1-4495-bae6-92db8f004346","system_id":"levelo_inurba_marseille","lat":43.26492,"lon":5.39546,"is_reserved":false,"is_disabled":false,"rental_uris":{"android":"levelo://app?vid=45f2f193-ddd1-4495-bae6-92db8f004346","ios":"levelo://app?vid=45f2f193-ddd1-4495-bae6-92db8f004346"},"vehicle_type_id":"4","last_reported":1733655994,"current_range_meters":17600,"station_id":"ce4bhi12rcd13ifvqfq0","pricing_plan_id":"cebpf4jnsgd1na2vs0mg"},{"bike_id":"398a3dd5-fb0d-4fd4-84e5-06fd531ca873","system_id":"levelo_inurba_marseille","lat":43.31882,"lon":5.40735,"is_reserved":false,"is_disabled":false,"rental_uris":{"android":"levelo://app?vid=398a3dd5-fb0d-4fd4-84e5-06fd531ca873","ios":"levelo://app?vid=398a3dd5-fb0d-4fd4-84e5-06fd531ca873"},"vehicle_type_id":"4","last_reported":1733655994,"current_range_meters":8000,"station_id":"ce4bhq12rcd13ifvqhig","pricing_plan_id":"cebpf4jnsgd1na2vs0mg"},{"bike_id":"e5d371d9-789d-4065-9a1d-234e47ae4477","system_id":"levelo_inurba_marseille","lat":43.27319,"lon":5.39086,"is_reserved":false,"is_disabled":false,"rental_uris":{"android":"levelo://app?vid=e5d371d9-789d-4065-9a1d-234e47ae4477","ios":"levelo://app?vid=e5d371d9-789d-4065-9a1d-234e47ae4477"},"vehicle_type_id":"4","last_reported":1733655994,"current_range_meters":38800,"station_id":"ce4bhgp2rcd13ifvqfe0","pricing_plan_id":"cebpf4jnsgd1na2vs0mg"},{"bike_id":"f6670071-3500-42c9-9916-322a21a4e625","system_id":"levelo_inurba_marseille","lat":43.27423,"lon":5.39426,"is_reserved":false,"is_disabled":false,"rental_uris":{"android":"levelo://app?vid=f6670071-3500-42c9-9916-322a21a4e625","ios":"levelo://app?vid=f6670071-3500-42c9-9916-322a21a4e625"},"vehicle_type_id":"4","last_reported":1733655994,"current_range_meters":23200,"station_id":"ce4bhdp2rcd13ifvqf20","pricing_plan_id":"cebpf4jnsgd1na2vs0mg"},{"bike_id":"7a0a2714-105e-4622-8b3e-a7dd62dc6941","system_id":"levelo_inurba_marseille","lat":43.29266,"lon":5.384189,"is_reserved":false,"is_disabled":true,"rental_uris":{"android":"levelo://app?vid=7a0a2714-105e-4622-8b3e-a7dd62dc6941","ios":"levelo://app?vid=7a0a2714-105e-4622-8b3e-a7dd62dc6941"},"vehicle_type_id":"4","last_reported":1733655994,"current_range_meters":0,"station_id":"","pricing_plan_id":"cebpf4jnsgd1na2vs0mg"},{"bike_id":"9f53acdf-b2be-4b69-b01b-87cbf7343be4","system_id":"levelo_inurba_marseille","lat":43.26489,"lon":5.39537,"is_reserved":false,"is_disabled":true,"rental_uris":{"android":"levelo://app?vid=9f53acdf-b2be-4b69-b01b-87cbf7343be4","ios":"levelo://app?vid=9f53acdf-b2be-4b69-b01b-87cbf7343be4"},"vehicle_type_id":"4","last_reported":1733655994,"current_range_meters":30800,"station_id":"ce4bhi12rcd13ifvqfq0","pricing_plan_id":"cebpf4jnsgd1na2vs0mg"},{"bike_id":"50f52497-54ca-47ea-a19e-1fc86f8c6045","system_id":"levelo_inurba_marseille","lat":43.28243,"lon":5.42395,"is_reserved":false,"is_disabled":true,"rental_uris":{"android":"levelo://app?vid=50f52497-54ca-47ea-a19e-1fc86f8c6045","ios":"levelo://app?vid=50f52497-54ca-47ea-a19e-1fc86f8c6045"},"vehicle_type_id":"4","last_reported":1733655994,"current_range_meters":14000,"station_id":"","pricing_plan_id":"cebpf4jnsgd1na2vs0mg"},{"bike_id":"a5f05a06-bff4-4f39-af01-91b3d19736b8","system_id":"levelo_inurba_marseille","lat":43.23199,"lon":5.35551,"is_reserved":false,"is_disabled":false,"rental_uris":{"android":"levelo://app?vid=a5f05a06-bff4-4f39-af01-91b3d19736b8","ios":"levelo://app?vid=a5f05a06-bff4-4f39-af01-91b3d19736b8"},"vehicle_type_id":"4","last_reported":1733655994,"current_range_meters":26000,"station_id":"ce4bhu92rcd13ifvqi70","pricing_plan_id":"cebpf4jnsgd1na2vs0mg"},{"bike_id":"f78f6fdb-9ed6-4876-ae8a-e811786baeef","system_id":"levelo_inurba_marseille","lat":43.29199,"lon":5.35805,"is_reserved":false,"is_disabled":false,"rental_uris":{"android":"levelo://app?vid=f78f6fdb-9ed6-4876-ae8a-e811786baeef","ios":"levelo://app?vid=f78f6fdb-9ed6-4876-ae8a-e811786baeef"},"vehicle_type_id":"4","last_reported":1733655994,"current_range_meters":28400,"station_id":"ce4bhb12rcd13ifvqel0","pricing_plan_id":"cebpf4jnsgd1na2vs0mg"},{"bike_id":"33f1a526-a5a3-4261-b1e0-d90c46ff918d","system_id":"levelo_inurba_marseille","lat":43.28155,"lon":5.4264,"is_reserved":false,"is_disabled":true,"rental_uris":{"android":"levelo://app?vid=33f1a526-a5a3-4261-b1e0-d90c46ff918d","ios":"levelo://app?vid=33f1a526-a5a3-4261-b1e0-d90c46ff918d"},"vehicle_type_id":"4","last_reported":1733655994,"current_range_meters":27200,"station_id":"ce4bhnh2rcd13ifvqgug","pricing_plan_id":"cebpf4jnsgd1na2vs0mg"},{"bike_id":"fbe73133-f485-4aa9-9698-ee86772b743d","system_id":"levelo_inurba_marseille","lat":43.27494,"lon":5.4245,"is_reserved":false,"is_disabled":false,"rental_uris":{"android":"levelo://app?vid=fbe73133-f485-4aa9-9698-ee86772b743d","ios":"levelo://app?vid=fbe73133-f485-4aa9-9698-ee86772b743d"},"vehicle_type_id":"4","last_reported":1733655994,"current_range_meters":19600,"station_id":"ce4bhn92rcd13ifvqgrg","pricing_plan_id":"cebpf4jnsgd1na2vs0mg"},{"bike_id":"7d60acff-cb6c-4a92-aca6-d0de3845edf6","system_id":"levelo_inurba_marseille","lat":43.29533,"lon":5.38552,"is_reserved":false,"is_disabled":true,"rental_uris":{"android":"levelo://app?vid=7d60acff-cb6c-4a92-aca6-d0de3845edf6","ios":"levelo://app?vid=7d60acff-cb6c-4a92-aca6-d0de3845edf6"},"vehicle_type_id":"4","last_reported":1733655994,"current_range_meters":22000,"station_id":"ce4bgih2rcd13ifvqba0","pricing_plan_id":"cebpf4jnsgd1na2vs0mg"},{"bike_id":"987a1e27-c7ac-4001-a268-c7e2ad73c734","system_id":"levelo_inurba_marseille","lat":43.25724,"lon":5.41106,"is_reserved":false,"is_disabled":false,"rental_uris":{"android":"levelo://app?vid=987a1e27-c7ac-4001-a268-c7e2ad73c734","ios":"levelo://app?vid=987a1e27-c7ac-4001-a268-c7e2ad73c734"},"vehicle_type_id":"4","last_reported":1733655994,"current_range_meters":39200,"station_id":"ce4bhkp2rcd13ifvqgd0","pricing_plan_id":"cebpf4jnsgd1na2vs0mg"},{"bike_id":"00fea40c-3f30-4c2b-96e2-43b5ab400ffa","system_id":"levelo_inurba_marseille","lat":43.22929,"lon":5.35381,"is_reserved":false,"is_disabled":false,"rental_uris":{"android":"levelo://app?vid=00fea40c-3f30-4c2b-96e2-43b5ab400ffa","ios":"levelo://app?vid=00fea40c-3f30-4c2b-96e2-43b5ab400ffa"},"vehicle_type_id":"4","last_reported":1733655994,"current_range_meters":36800,"station_id":"cpo3532slgdg3j2ikp40","pricing_plan_id":"cebpf4jnsgd1na2vs0mg"},{"bike_id":"9edb8813-5b67-4640-9762-ac6616d400a0","system_id":"levelo_inurba_marseille","lat":43.29621,"lon":5.37156,"is_reserved":false,"is_disabled":false,"rental_uris":{"android":"levelo://app?vid=9edb8813-5b67-4640-9762-ac6616d400a0","ios":"levelo://app?vid=9edb8813-5b67-4640-9762-ac6616d400a0"},"vehicle_type_id":"4","last_reported":1733655994,"current_range_meters":29600,"station_id":"ce4bgnh2rcd13ifvqc0g","pricing_plan_id":"cebpf4jnsgd1na2vs0mg"},{"bike_id":"be2bf5d5-0827-4ad5-9f75-a43ca765fc98","system_id":"levelo_inurba_marseille","lat":43.28979,"lon":5.37835,"is_reserved":false,"is_disabled":true,"rental_uris":{"android":"levelo://app?vid=be2bf5d5-0827-4ad5-9f75-a43ca765fc98","ios":"levelo://app?vid=be2bf5d5-0827-4ad5-9f75-a43ca765fc98"},"vehicle_type_id":"4","last_reported":1733655994,"current_range_meters":30800,"station_id":"ce4bh9p2rcd13ifvqed0","pricing_plan_id":"cebpf4jnsgd1na2vs0mg"},{"bike_id":"54048e8f-6d11-4769-8f46-c79c18bfa3e5","system_id":"levelo_inurba_marseille","lat":43.24808,"lon":5.37455,"is_reserved":false,"is_disabled":false,"rental_uris":{"android":"levelo://app?vid=54048e8f-6d11-4769-8f46-c79c18bfa3e5","ios":"levelo://app?vid=54048e8f-6d11-4769-8f46-c79c18bfa3e5"},"vehicle_type_id":"4","last_reported":1733655994,"current_range_meters":38800,"station_id":"ce4bhgh2rcd13ifvqfb0","pricing_plan_id":"cebpf4jnsgd1na2vs0mg"},{"bike_id":"aeb5b9ef-cf83-4f2b-8e3d-091258186d3c","system_id":"levelo_inurba_marseille","lat":43.25078,"lon":5.39516,"is_reserved":false,"is_disabled":false,"rental_uris":{"android":"levelo://app?vid=aeb5b9ef-cf83-4f2b-8e3d-091258186d3c","ios":"levelo://app?vid=aeb5b9ef-cf83-4f2b-8e3d-091258186d3c"},"vehicle_type_id":"4","last_reported":1733655994,"current_range_meters":35600,"station_id":"ce4bhm12rcd13ifvqgkg","pricing_plan_id":"cebpf4jnsgd1na2vs0mg"},{"bike_id":"bf76a888-bd85-4306-88c3-aa532cd407f7","system_id":"levelo_inurba_marseille","lat":43.29845,"lon":5.36288,"is_reserved":false,"is_disabled":false,"rental_uris":{"android":"levelo://app?vid=bf76a888-bd85-4306-88c3-aa532cd407f7","ios":"levelo://app?vid=bf76a888-bd85-4306-88c3-aa532cd407f7"},"vehicle_type_id":"4","last_reported":1733655994,"current_range_meters":16000,"station_id":"ce4bgpp2rcd13ifvqc3g","pricing_plan_id":"cebpf4jnsgd1na2vs0mg"},{"bike_id":"108e2137-b154-45b2-b42f-ff4b6bbead3d","system_id":"levelo_inurba_marseille","lat":43.2762,"lon":5.3611,"is_reserved":false,"is_disabled":false,"rental_uris":{"android":"levelo://app?vid=108e2137-b154-45b2-b42f-ff4b6bbead3d","ios":"levelo://app?vid=108e2137-b154-45b2-b42f-ff4b6bbead3d"},"vehicle_type_id":"4","last_reported":1733655994,"current_range_meters":30400,"station_id":"ce4bgj92rcd13ifvqbe0","pricing_plan_id":"cebpf4jnsgd1na2vs0mg"},{"bike_id":"b865b877-dc22-4c08-b951-30df1268edff","system_id":"levelo_inurba_marseille","lat":43.26806,"lon":5.40268,"is_reserved":false,"is_disabled":false,"rental_uris":{"android":"levelo://app?vid=b865b877-dc22-4c08-b951-30df1268edff","ios":"levelo://app?vid=b865b877-dc22-4c08-b951-30df1268edff"},"vehicle_type_id":"4","last_reported":1733655994,"current_range_meters":38800,"station_id":"ce501612rcd8frsf0b60","pricing_plan_id":"cebpf4jnsgd1na2vs0mg"},{"bike_id":"5c884da4-841f-4b0a-9224-f533cad9f8d9","system_id":"levelo_inurba_marseille","lat":43.26041,"lon":5.37552,"is_reserved":false,"is_disabled":false,"rental_uris":{"android":"levelo://app?vid=5c884da4-841f-4b0a-9224-f533cad9f8d9","ios":"levelo://app?vid=5c884da4-841f-4b0a-9224-f533cad9f8d9"},"vehicle_type_id":"4","last_reported":1733655994,"current_range_meters":25600,"station_id":"ce4bhgh2rcd13ifvqfa0","pricing_plan_id":"cebpf4jnsgd1na2vs0mg"},{"bike_id":"a3dd1984-4193-477f-b9a6-7f14c8f93b26","system_id":"levelo_inurba_marseille","lat":43.30095,"lon":5.39088,"is_reserved":false,"is_disabled":true,"rental_uris":{"android":"levelo://app?vid=a3dd1984-4193-477f-b9a6-7f14c8f93b26","ios":"levelo://app?vid=a3dd1984-4193-477f-b9a6-7f14c8f93b26"},"vehicle_type_id":"4","last_reported":1733655994,"current_range_meters":34000,"station_id":"ce4bh192rcd13ifvqdb0","pricing_plan_id":"cebpf4jnsgd1na2vs0mg"},{"bike_id":"31efb096-cf35-4841-8a8c-fcb0e0cddf70","system_id":"levelo_inurba_marseille","lat":43.28415,"lon":5.3498,"is_reserved":false,"is_disabled":false,"rental_uris":{"android":"levelo://app?vid=31efb096-cf35-4841-8a8c-fcb0e0cddf70","ios":"levelo://app?vid=31efb096-cf35-4841-8a8c-fcb0e0cddf70"},"vehicle_type_id":"4","last_reported":1733655994,"current_range_meters":27600,"station_id":"ce4bhbh2rcd13ifvqepg","pricing_plan_id":"cebpf4jnsgd1na2vs0mg"},{"bike_id":"4c729a4a-b6dc-4fd1-a3b4-fe3921c7572c","system_id":"levelo_inurba_marseille","lat":43.29847,"lon":5.36273,"is_reserved":false,"is_disabled":false,"rental_uris":{"android":"levelo://app?vid=4c729a4a-b6dc-4fd1-a3b4-fe3921c7572c","ios":"levelo://app?vid=4c729a4a-b6dc-4fd1-a3b4-fe3921c7572c"},"vehicle_type_id":"4","last_reported":1733655994,"current_range_meters":20400,"station_id":"ce4bgpp2rcd13ifvqc3g","pricing_plan_id":"cebpf4jnsgd1na2vs0mg"},{"bike_id":"6ad8fff5-6505-40fc-8922-2acdd3c82e7b","system_id":"levelo_inurba_marseille","lat":43.29785,"lon":5.38112,"is_reserved":false,"is_disabled":true,"rental_uris":{"android":"levelo://app?vid=6ad8fff5-6505-40fc-8922-2acdd3c82e7b","ios":"levelo://app?vid=6ad8fff5-6505-40fc-8922-2acdd3c82e7b"},"vehicle_type_id":"4","last_reported":1733655994,"current_range_meters":11200,"station_id":"ce4bgip2rcd13ifvqbb0","pricing_plan_id":"cebpf4jnsgd1na2vs0mg"},{"bike_id":"196979d7-d1d3-4cfd-94e5-6c500ecf15b9","system_id":"levelo_inurba_marseille","lat":43.27205,"lon":5.39184,"is_reserved":false,"is_disabled":false,"rental_uris":{"android":"levelo://app?vid=196979d7-d1d3-4cfd-94e5-6c500ecf15b9","ios":"levelo://app?vid=196979d7-d1d3-4cfd-94e5-6c500ecf15b9"},"vehicle_type_id":"4","last_reported":1733655994,"current_range_meters":38800,"station_id":"ce4bhhp2rcd13ifvqfm0","pricing_plan_id":"cebpf4jnsgd1na2vs0mg"},{"bike_id":"8adb385c-4540-45bd-bf84-7345f9c5670e","system_id":"levelo_inurba_marseille","lat":43.23211,"lon":5.35546,"is_reserved":false,"is_disabled":false,"rental_uris":{"android":"levelo://app?vid=8adb385c-4540-45bd-bf84-7345f9c5670e","ios":"levelo://app?vid=8adb385c-4540-45bd-bf84-7345f9c5670e"},"vehicle_type_id":"4","last_reported":1733655994,"current_range_meters":38800,"station_id":"ce4bhu92rcd13ifvqi70","pricing_plan_id":"cebpf4jnsgd1na2vs0mg"},{"bike_id":"876b7213-145e-431e-a516-92adf95b96aa","system_id":"levelo_inurba_marseille","lat":43.27378,"lon":5.36247,"is_reserved":false,"is_disabled":false,"rental_uris":{"android":"levelo://app?vid=876b7213-145e-431e-a516-92adf95b96aa","ios":"levelo://app?vid=876b7213-145e-431e-a516-92adf95b96aa"},"vehicle_type_id":"4","last_reported":1733655994,"current_range_meters":7200,"station_id":"ce4bhbh2rcd13ifvqeo0","pricing_plan_id":"cebpf4jnsgd1na2vs0mg"},{"bike_id":"bd3d93d0-c84a-462e-b36b-4ae426a49f78","system_id":"levelo_inurba_marseille","lat":43.2815,"lon":5.4265,"is_reserved":false,"is_disabled":false,"rental_uris":{"android":"levelo://app?vid=bd3d93d0-c84a-462e-b36b-4ae426a49f78","ios":"levelo://app?vid=bd3d93d0-c84a-462e-b36b-4ae426a49f78"},"vehicle_type_id":"4","last_reported":1733655994,"current_range_meters":39200,"station_id":"ce4bhnh2rcd13ifvqgug","pricing_plan_id":"cebpf4jnsgd1na2vs0mg"},{"bike_id":"7dda2d1a-f24a-4912-afeb-219bbd8aa86d","system_id":"levelo_inurba_marseille","lat":43.29094,"lon":5.3812,"is_reserved":false,"is_disabled":false,"rental_uris":{"android":"levelo://app?vid=7dda2d1a-f24a-4912-afeb-219bbd8aa86d","ios":"levelo://app?vid=7dda2d1a-f24a-4912-afeb-219bbd8aa86d"},"vehicle_type_id":"4","last_reported":1733655994,"current_range_meters":34800,"station_id":"ce4bh512rcd13ifvqe2g","pricing_plan_id":"cebpf4jnsgd1na2vs0mg"},{"bike_id":"f941a6e2-aa6e-4ba9-a1c7-961119966291","system_id":"levelo_inurba_marseille","lat":43.31323,"lon":5.39699,"is_reserved":false,"is_disabled":false,"rental_uris":{"android":"levelo://app?vid=f941a6e2-aa6e-4ba9-a1c7-961119966291","ios":"levelo://app?vid=f941a6e2-aa6e-4ba9-a1c7-961119966291"},"vehicle_type_id":"4","last_reported":1733655994,"current_range_meters":16400,"station_id":"ce4bgvp2rcd13ifvqcu0","pricing_plan_id":"cebpf4jnsgd1na2vs0mg"},{"bike_id":"4527669e-b7bf-4bfd-ace2-19b92402cb9c","system_id":"levelo_inurba_marseille","lat":43.28107,"lon":5.37844,"is_reserved":false,"is_disabled":false,"rental_uris":{"android":"levelo://app?vid=4527669e-b7bf-4bfd-ace2-19b92402cb9c","ios":"levelo://app?vid=4527669e-b7bf-4bfd-ace2-19b92402cb9c"},"vehicle_type_id":"4","last_reported":1733655994,"current_range_meters":38800,"station_id":"ce4bha12rcd13ifvqee0","pricing_plan_id":"cebpf4jnsgd1na2vs0mg"},{"bike_id":"003a0423-dbbb-4892-9836-52426f6bb5a1","system_id":"levelo_inurba_marseille","lat":43.31481,"lon":5.37299,"is_reserved":false,"is_disabled":false,"rental_uris":{"android":"levelo://app?vid=003a0423-dbbb-4892-9836-52426f6bb5a1","ios":"levelo://app?vid=003a0423-dbbb-4892-9836-52426f6bb5a1"},"vehicle_type_id":"4","last_reported":1733655994,"current_range_meters":38000,"station_id":"ce4bgt12rcd13ifvqcd0","pricing_plan_id":"cebpf4jnsgd1na2vs0mg"},{"bike_id":"eb4e32cd-a02d-4e92-a013-1fdc0dd71ccb","system_id":"levelo_inurba_marseille","lat":43.324799,"lon":5.365716,"is_reserved":false,"is_disabled":true,"rental_uris":{"android":"levelo://app?vid=eb4e32cd-a02d-4e92-a013-1fdc0dd71ccb","ios":"levelo://app?vid=eb4e32cd-a02d-4e92-a013-1fdc0dd71ccb"},"vehicle_type_id":"4","last_reported":1733655994,"current_range_meters":1200,"station_id":"","pricing_plan_id":"cebpf4jnsgd1na2vs0mg"},{"bike_id":"dfa84c82-c68e-41c1-9e82-a06716faba53","system_id":"levelo_inurba_marseille","lat":43.243882,"lon":5.370555,"is_reserved":false,"is_disabled":false,"rental_uris":{"android":"levelo://app?vid=dfa84c82-c68e-41c1-9e82-a06716faba53","ios":"levelo://app?vid=dfa84c82-c68e-41c1-9e82-a06716faba53"},"vehicle_type_id":"4","last_reported":1733655994,"current_range_meters":24000,"station_id":"ce4bhhh2rcd13ifvqfk0","pricing_plan_id":"cebpf4jnsgd1na2vs0mg"},{"bike_id":"7e0373f0-85f3-4ccf-b084-e5358e7224cd","system_id":"levelo_inurba_marseille","lat":43.24661,"lon":5.38174,"is_reserved":false,"is_disabled":false,"rental_uris":{"android":"levelo://app?vid=7e0373f0-85f3-4ccf-b084-e5358e7224cd","ios":"levelo://app?vid=7e0373f0-85f3-4ccf-b084-e5358e7224cd"},"vehicle_type_id":"4","last_reported":1733655994,"current_range_meters":37600,"station_id":"ce4bhih2rcd13ifvqfr0","pricing_plan_id":"cebpf4jnsgd1na2vs0mg"},{"bike_id":"a9717f45-e2c9-4ac2-9c5d-0103bd8d5df2","system_id":"levelo_inurba_marseille","lat":43.26785,"lon":5.39417,"is_reserved":false,"is_disabled":false,"rental_uris":{"android":"levelo://app?vid=a9717f45-e2c9-4ac2-9c5d-0103bd8d5df2","ios":"levelo://app?vid=a9717f45-e2c9-4ac2-9c5d-0103bd8d5df2"},"vehicle_type_id":"4","last_reported":1733655994,"current_range_meters":22800,"station_id":"ce4bhh12rcd13ifvqfg0","pricing_plan_id":"cebpf4jnsgd1na2vs0mg"},{"bike_id":"bbf2a15a-7c34-4cdd-8f7d-611582aea846","system_id":"levelo_inurba_marseille","lat":43.27313,"lon":5.39082,"is_reserved":false,"is_disabled":false,"rental_uris":{"android":"levelo://app?vid=bbf2a15a-7c34-4cdd-8f7d-611582aea846","ios":"levelo://app?vid=bbf2a15a-7c34-4cdd-8f7d-611582aea846"},"vehicle_type_id":"4","last_reported":1733655994,"current_range_meters":12400,"station_id":"ce4bhgp2rcd13ifvqfe0","pricing_plan_id":"cebpf4jnsgd1na2vs0mg"},{"bike_id":"5189ae3f-c807-455c-b5a1-b437b3840d9d","system_id":"levelo_inurba_marseille","lat":43.29843,"lon":5.36272,"is_reserved":false,"is_disabled":false,"rental_uris":{"android":"levelo://app?vid=5189ae3f-c807-455c-b5a1-b437b3840d9d","ios":"levelo://app?vid=5189ae3f-c807-455c-b5a1-b437b3840d9d"},"vehicle_type_id":"4","last_reported":1733655994,"current_range_meters":38800,"station_id":"ce4bgpp2rcd13ifvqc3g","pricing_plan_id":"cebpf4jnsgd1na2vs0mg"},{"bike_id":"fd98eaa9-4d55-4e7b-aa90-0d14707466d9","system_id":"levelo_inurba_marseille","lat":43.337444,"lon":5.374475,"is_reserved":false,"is_disabled":true,"rental_uris":{"android":"levelo://app?vid=fd98eaa9-4d55-4e7b-aa90-0d14707466d9","ios":"levelo://app?vid=fd98eaa9-4d55-4e7b-aa90-0d14707466d9"},"vehicle_type_id":"4","last_reported":1733655994,"current_range_meters":0,"station_id":"","pricing_plan_id":"cebpf4jnsgd1na2vs0mg"},{"bike_id":"06f294bd-d283-4b87-866b-9173a9d88558","system_id":"levelo_inurba_marseille","lat":43.25859,"lon":5.39902,"is_reserved":false,"is_disabled":false,"rental_uris":{"android":"levelo://app?vid=06f294bd-d283-4b87-866b-9173a9d88558","ios":"levelo://app?vid=06f294bd-d283-4b87-866b-9173a9d88558"},"vehicle_type_id":"4","last_reported":1733655994,"current_range_meters":37600,"station_id":"ce4bhl92rcd13ifvqghg","pricing_plan_id":"cebpf4jnsgd1na2vs0mg"},{"bike_id":"facf932b-e5d3-4c09-ba35-46272c4d486d","system_id":"levelo_inurba_marseille","lat":43.27809,"lon":5.40699,"is_reserved":false,"is_disabled":false,"rental_uris":{"android":"levelo://app?vid=facf932b-e5d3-4c09-ba35-46272c4d486d","ios":"levelo://app?vid=facf932b-e5d3-4c09-ba35-46272c4d486d"},"vehicle_type_id":"4","last_reported":1733655994,"current_range_meters":38800,"station_id":"ce4bhnh2rcd13ifvqgtg","pricing_plan_id":"cebpf4jnsgd1na2vs0mg"},{"bike_id":"a4cd63fb-eed3-468f-beb7-c6e5140a377f","system_id":"levelo_inurba_marseille","lat":43.28151,"lon":5.4265,"is_reserved":false,"is_disabled":false,"rental_uris":{"android":"levelo://app?vid=a4cd63fb-eed3-468f-beb7-c6e5140a377f","ios":"levelo://app?vid=a4cd63fb-eed3-468f-beb7-c6e5140a377f"},"vehicle_type_id":"4","last_reported":1733655994,"current_range_meters":38400,"station_id":"ce4bhnh2rcd13ifvqgug","pricing_plan_id":"cebpf4jnsgd1na2vs0mg"},{"bike_id":"4da1f21a-a94b-4e40-8119-4f95d0593822","system_id":"levelo_inurba_marseille","lat":43.32662,"lon":5.40994,"is_reserved":false,"is_disabled":false,"rental_uris":{"android":"levelo://app?vid=4da1f21a-a94b-4e40-8119-4f95d0593822","ios":"levelo://app?vid=4da1f21a-a94b-4e40-8119-4f95d0593822"},"vehicle_type_id":"4","last_reported":1733655994,"current_range_meters":36800,"station_id":"ce4bhpp2rcd13ifvqhgg","pricing_plan_id":"cebpf4jnsgd1na2vs0mg"},{"bike_id":"c2d8a1c2-d166-4a36-b32f-beec95c93bd5","system_id":"levelo_inurba_marseille","lat":43.33756,"lon":5.37459,"is_reserved":false,"is_disabled":true,"rental_uris":{"android":"levelo://app?vid=c2d8a1c2-d166-4a36-b32f-beec95c93bd5","ios":"levelo://app?vid=c2d8a1c2-d166-4a36-b32f-beec95c93bd5"},"vehicle_type_id":"4","last_reported":1733655994,"current_range_meters":0,"station_id":"","pricing_plan_id":"cebpf4jnsgd1na2vs0mg"},{"bike_id":"0d2a82c3-c33b-45fd-9446-a07acc9367ef","system_id":"levelo_inurba_marseille","lat":43.28926,"lon":5.38408,"is_reserved":false,"is_disabled":false,"rental_uris":{"android":"levelo://app?vid=0d2a82c3-c33b-45fd-9446-a07acc9367ef","ios":"levelo://app?vid=0d2a82c3-c33b-45fd-9446-a07acc9367ef"},"vehicle_type_id":"4","last_reported":1733655994,"current_range_meters":34000,"station_id":"ce4bh612rcd13ifvqe6g","pricing_plan_id":"cebpf4jnsgd1na2vs0mg"},{"bike_id":"0e3451bb-7a71-49a1-b69e-200c6dd6b013","system_id":"levelo_inurba_marseille","lat":43.2912,"lon":5.40063,"is_reserved":false,"is_disabled":true,"rental_uris":{"android":"levelo://app?vid=0e3451bb-7a71-49a1-b69e-200c6dd6b013","ios":"levelo://app?vid=0e3451bb-7a71-49a1-b69e-200c6dd6b013"},"vehicle_type_id":"4","last_reported":1733655994,"current_range_meters":36400,"station_id":"","pricing_plan_id":"cebpf4jnsgd1na2vs0mg"},{"bike_id":"c30bbda9-751f-4f9d-b4b8-160ab0d78b74","system_id":"levelo_inurba_marseille","lat":43.29506,"lon":5.37502,"is_reserved":false,"is_disabled":false,"rental_uris":{"android":"levelo://app?vid=c30bbda9-751f-4f9d-b4b8-160ab0d78b74","ios":"levelo://app?vid=c30bbda9-751f-4f9d-b4b8-160ab0d78b74"},"vehicle_type_id":"4","last_reported":1733655994,"current_range_meters":27200,"station_id":"ce4bgkp2rcd13ifvqbmg","pricing_plan_id":"cebpf4jnsgd1na2vs0mg"},{"bike_id":"e64994ed-dd36-4c68-a041-ccfb2f7a9a3a","system_id":"levelo_inurba_marseille","lat":43.29523,"lon":5.39034,"is_reserved":false,"is_disabled":false,"rental_uris":{"android":"levelo://app?vid=e64994ed-dd36-4c68-a041-ccfb2f7a9a3a","ios":"levelo://app?vid=e64994ed-dd36-4c68-a041-ccfb2f7a9a3a"},"vehicle_type_id":"4","last_reported":1733655994,"current_range_meters":15200,"station_id":"ce4bh3p2rcd13ifvqdp0","pricing_plan_id":"cebpf4jnsgd1na2vs0mg"},{"bike_id":"1c116fee-2365-407f-b033-8ab53c14818b","system_id":"levelo_inurba_marseille","lat":43.337444,"lon":5.374475,"is_reserved":false,"is_disabled":false,"rental_uris":{"android":"levelo://app?vid=1c116fee-2365-407f-b033-8ab53c14818b","ios":"levelo://app?vid=1c116fee-2365-407f-b033-8ab53c14818b"},"vehicle_type_id":"4","last_reported":1733655994,"current_range_meters":24800,"station_id":"","pricing_plan_id":"cebpf4jnsgd1na2vs0mg"},{"bike_id":"730672ec-b02f-41ee-8556-9ff64a4a287d","system_id":"levelo_inurba_marseille","lat":43.25563,"lon":5.38243,"is_reserved":false,"is_disabled":false,"rental_uris":{"android":"levelo://app?vid=730672ec-b02f-41ee-8556-9ff64a4a287d","ios":"levelo://app?vid=730672ec-b02f-41ee-8556-9ff64a4a287d"},"vehicle_type_id":"4","last_reported":1733655994,"current_range_meters":8800,"station_id":"ce4bhih2rcd13ifvqfs0","pricing_plan_id":"cebpf4jnsgd1na2vs0mg"},{"bike_id":"1f7490b8-d609-4915-a25f-efaf09b46d3f","system_id":"levelo_inurba_marseille","lat":43.29004,"lon":5.35606,"is_reserved":false,"is_disabled":false,"rental_uris":{"android":"levelo://app?vid=1f7490b8-d609-4915-a25f-efaf09b46d3f","ios":"levelo://app?vid=1f7490b8-d609-4915-a25f-efaf09b46d3f"},"vehicle_type_id":"4","last_reported":1733655994,"current_range_meters":38800,"station_id":"ce4bhb92rcd13ifvqen0","pricing_plan_id":"cebpf4jnsgd1na2vs0mg"},{"bike_id":"86aca69e-0d33-4fed-952b-e637ce943ac6","system_id":"levelo_inurba_marseille","lat":43.24547,"lon":5.39524,"is_reserved":false,"is_disabled":false,"rental_uris":{"android":"levelo://app?vid=86aca69e-0d33-4fed-952b-e637ce943ac6","ios":"levelo://app?vid=86aca69e-0d33-4fed-952b-e637ce943ac6"},"vehicle_type_id":"4","last_reported":1733655994,"current_range_meters":39200,"station_id":"ce4bhlp2rcd13ifvqgjg","pricing_plan_id":"cebpf4jnsgd1na2vs0mg"},{"bike_id":"f5561434-0740-4a3c-abc2-013f37687b8d","system_id":"levelo_inurba_marseille","lat":43.24813,"lon":5.37456,"is_reserved":false,"is_disabled":true,"rental_uris":{"android":"levelo://app?vid=f5561434-0740-4a3c-abc2-013f37687b8d","ios":"levelo://app?vid=f5561434-0740-4a3c-abc2-013f37687b8d"},"vehicle_type_id":"4","last_reported":1733655994,"current_range_meters":32800,"station_id":"ce4bhgh2rcd13ifvqfb0","pricing_plan_id":"cebpf4jnsgd1na2vs0mg"},{"bike_id":"1ff3733c-9a34-434f-8dc7-56d2663cdbbf","system_id":"levelo_inurba_marseille","lat":43.32045,"lon":5.41556,"is_reserved":false,"is_disabled":false,"rental_uris":{"android":"levelo://app?vid=1ff3733c-9a34-434f-8dc7-56d2663cdbbf","ios":"levelo://app?vid=1ff3733c-9a34-434f-8dc7-56d2663cdbbf"},"vehicle_type_id":"4","last_reported":1733655994,"current_range_meters":8400,"station_id":"ce4bhq92rcd13ifvqhkg","pricing_plan_id":"cebpf4jnsgd1na2vs0mg"},{"bike_id":"aedbf628-20ee-4eda-8b33-1cf044cd7fd0","system_id":"levelo_inurba_marseille","lat":43.24637,"lon":5.38888,"is_reserved":false,"is_disabled":false,"rental_uris":{"android":"levelo://app?vid=aedbf628-20ee-4eda-8b33-1cf044cd7fd0","ios":"levelo://app?vid=aedbf628-20ee-4eda-8b33-1cf044cd7fd0"},"vehicle_type_id":"4","last_reported":1733655994,"current_range_meters":22400,"station_id":"ce4bhg12rcd13ifvqf60","pricing_plan_id":"cebpf4jnsgd1na2vs0mg"},{"bike_id":"4b05f2c4-0143-4544-b36d-3d48813b5889","system_id":"levelo_inurba_marseille","lat":43.28942,"lon":5.36633,"is_reserved":false,"is_disabled":false,"rental_uris":{"android":"levelo://app?vid=4b05f2c4-0143-4544-b36d-3d48813b5889","ios":"levelo://app?vid=4b05f2c4-0143-4544-b36d-3d48813b5889"},"vehicle_type_id":"4","last_reported":1733655994,"current_range_meters":39200,"station_id":"ce4bhap2rcd13ifvqek0","pricing_plan_id":"cebpf4jnsgd1na2vs0mg"},{"bike_id":"6c660714-bd36-4e1d-858f-095636bba76e","system_id":"levelo_inurba_marseille","lat":43.25939,"lon":5.40906,"is_reserved":false,"is_disabled":false,"rental_uris":{"android":"levelo://app?vid=6c660714-bd36-4e1d-858f-095636bba76e","ios":"levelo://app?vid=6c660714-bd36-4e1d-858f-095636bba76e"},"vehicle_type_id":"4","last_reported":1733655994,"current_range_meters":12800,"station_id":"ce4bhm92rcd13ifvqglg","pricing_plan_id":"cebpf4jnsgd1na2vs0mg"},{"bike_id":"66d09863-c6e5-42e8-9866-6a51ab3f2bba","system_id":"levelo_inurba_marseille","lat":43.31279,"lon":5.40167,"is_reserved":false,"is_disabled":false,"rental_uris":{"android":"levelo://app?vid=66d09863-c6e5-42e8-9866-6a51ab3f2bba","ios":"levelo://app?vid=66d09863-c6e5-42e8-9866-6a51ab3f2bba"},"vehicle_type_id":"4","last_reported":1733655994,"current_range_meters":37600,"station_id":"ce4bh092rcd13ifvqd30","pricing_plan_id":"cebpf4jnsgd1na2vs0mg"},{"bike_id":"9590a1ec-3b52-4a2c-b718-b1fd91dd14e9","system_id":"levelo_inurba_marseille","lat":43.30273,"lon":5.38459,"is_reserved":false,"is_disabled":false,"rental_uris":{"android":"levelo://app?vid=9590a1ec-3b52-4a2c-b718-b1fd91dd14e9","ios":"levelo://app?vid=9590a1ec-3b52-4a2c-b718-b1fd91dd14e9"},"vehicle_type_id":"4","last_reported":1733655994,"current_range_meters":35600,"station_id":"","pricing_plan_id":"cebpf4jnsgd1na2vs0mg"},{"bike_id":"fba928cc-f076-4343-a3c8-208112428337","system_id":"levelo_inurba_marseille","lat":43.3134,"lon":5.39696,"is_reserved":false,"is_disabled":false,"rental_uris":{"android":"levelo://app?vid=fba928cc-f076-4343-a3c8-208112428337","ios":"levelo://app?vid=fba928cc-f076-4343-a3c8-208112428337"},"vehicle_type_id":"4","last_reported":1733655994,"current_range_meters":38800,"station_id":"ce4bgvp2rcd13ifvqcu0","pricing_plan_id":"cebpf4jnsgd1na2vs0mg"},{"bike_id":"bacc3450-9073-4434-a77d-41c29d8453a7","system_id":"levelo_inurba_marseille","lat":43.25726,"lon":5.41105,"is_reserved":false,"is_disabled":false,"rental_uris":{"android":"levelo://app?vid=bacc3450-9073-4434-a77d-41c29d8453a7","ios":"levelo://app?vid=bacc3450-9073-4434-a77d-41c29d8453a7"},"vehicle_type_id":"4","last_reported":1733655994,"current_range_meters":39200,"station_id":"ce4bhkp2rcd13ifvqgd0","pricing_plan_id":"cebpf4jnsgd1na2vs0mg"},{"bike_id":"16fdaed6-6b0f-4944-a1dd-a481190e8ade","system_id":"levelo_inurba_marseille","lat":43.26203,"lon":5.37931,"is_reserved":false,"is_disabled":false,"rental_uris":{"android":"levelo://app?vid=16fdaed6-6b0f-4944-a1dd-a481190e8ade","ios":"levelo://app?vid=16fdaed6-6b0f-4944-a1dd-a481190e8ade"},"vehicle_type_id":"4","last_reported":1733655994,"current_range_meters":38800,"station_id":"ce4bhjp2rcd13ifvqg90","pricing_plan_id":"cebpf4jnsgd1na2vs0mg"},{"bike_id":"18cdda37-c078-44c1-ae6c-8a7ab3a2d4e4","system_id":"levelo_inurba_marseille","lat":43.28728,"lon":5.36096,"is_reserved":false,"is_disabled":false,"rental_uris":{"android":"levelo://app?vid=18cdda37-c078-44c1-ae6c-8a7ab3a2d4e4","ios":"levelo://app?vid=18cdda37-c078-44c1-ae6c-8a7ab3a2d4e4"},"vehicle_type_id":"4","last_reported":1733655994,"current_range_meters":36800,"station_id":"cki0cbj6b192h4jlfktg","pricing_plan_id":"cebpf4jnsgd1na2vs0mg"},{"bike_id":"080fcb1c-52b8-42d7-b477-4dbab7fa601d","system_id":"levelo_inurba_marseille","lat":43.33025,"lon":5.39037,"is_reserved":false,"is_disabled":false,"rental_uris":{"android":"levelo://app?vid=080fcb1c-52b8-42d7-b477-4dbab7fa601d","ios":"levelo://app?vid=080fcb1c-52b8-42d7-b477-4dbab7fa601d"},"vehicle_type_id":"4","last_reported":1733655994,"current_range_meters":22800,"station_id":"ce4bhr92rcd13ifvqhrg","pricing_plan_id":"cebpf4jnsgd1na2vs0mg"},{"bike_id":"db4a5734-7020-40dc-bc03-5d3f18951fb5","system_id":"levelo_inurba_marseille","lat":43.246505,"lon":5.38891,"is_reserved":false,"is_disabled":false,"rental_uris":{"android":"levelo://app?vid=db4a5734-7020-40dc-bc03-5d3f18951fb5","ios":"levelo://app?vid=db4a5734-7020-40dc-bc03-5d3f18951fb5"},"vehicle_type_id":"4","last_reported":1733655994,"current_range_meters":39200,"station_id":"ce4bhg12rcd13ifvqf60","pricing_plan_id":"cebpf4jnsgd1na2vs0mg"},{"bike_id":"e9ef961b-4726-435f-8aa5-570b37e73f94","system_id":"levelo_inurba_marseille","lat":43.27318,"lon":5.39089,"is_reserved":false,"is_disabled":false,"rental_uris":{"android":"levelo://app?vid=e9ef961b-4726-435f-8aa5-570b37e73f94","ios":"levelo://app?vid=e9ef961b-4726-435f-8aa5-570b37e73f94"},"vehicle_type_id":"4","last_reported":1733655994,"current_range_meters":32400,"station_id":"ce4bhgp2rcd13ifvqfe0","pricing_plan_id":"cebpf4jnsgd1na2vs0mg"},{"bike_id":"0a5ac30e-86e1-4275-bad9-9f07d41227f8","system_id":"levelo_inurba_marseille","lat":43.25865,"lon":5.39916,"is_reserved":false,"is_disabled":false,"rental_uris":{"android":"levelo://app?vid=0a5ac30e-86e1-4275-bad9-9f07d41227f8","ios":"levelo://app?vid=0a5ac30e-86e1-4275-bad9-9f07d41227f8"},"vehicle_type_id":"4","last_reported":1733655994,"current_range_meters":14800,"station_id":"ce4bhl92rcd13ifvqghg","pricing_plan_id":"cebpf4jnsgd1na2vs0mg"},{"bike_id":"28b16c12-530c-4918-8814-311ad3447400","system_id":"levelo_inurba_marseille","lat":43.33611,"lon":5.41006,"is_reserved":false,"is_disabled":false,"rental_uris":{"android":"levelo://app?vid=28b16c12-530c-4918-8814-311ad3447400","ios":"levelo://app?vid=28b16c12-530c-4918-8814-311ad3447400"},"vehicle_type_id":"4","last_reported":1733655994,"current_range_meters":29600,"station_id":"ce4bhqh2rcd13ifvqhmg","pricing_plan_id":"cebpf4jnsgd1na2vs0mg"},{"bike_id":"91ba67a8-fa82-4064-bca6-f2cbf9bac40e","system_id":"levelo_inurba_marseille","lat":43.28609,"lon":5.37063,"is_reserved":false,"is_disabled":false,"rental_uris":{"android":"levelo://app?vid=91ba67a8-fa82-4064-bca6-f2cbf9bac40e","ios":"levelo://app?vid=91ba67a8-fa82-4064-bca6-f2cbf9bac40e"},"vehicle_type_id":"4","last_reported":1733655994,"current_range_meters":38800,"station_id":"ce4bht12rcd13ifvqi60","pricing_plan_id":"cebpf4jnsgd1na2vs0mg"},{"bike_id":"2f2a3ada-40df-4b54-ab89-4f6fd4db6789","system_id":"levelo_inurba_marseille","lat":43.33024,"lon":5.39048,"is_reserved":false,"is_disabled":false,"rental_uris":{"android":"levelo://app?vid=2f2a3ada-40df-4b54-ab89-4f6fd4db6789","ios":"levelo://app?vid=2f2a3ada-40df-4b54-ab89-4f6fd4db6789"},"vehicle_type_id":"4","last_reported":1733655994,"current_range_meters":30000,"station_id":"ce4bhr92rcd13ifvqhrg","pricing_plan_id":"cebpf4jnsgd1na2vs0mg"},{"bike_id":"4c8b77e0-44a3-4695-a664-ecb5da6a9925","system_id":"levelo_inurba_marseille","lat":43.29573,"lon":5.39704,"is_reserved":false,"is_disabled":true,"rental_uris":{"android":"levelo://app?vid=4c8b77e0-44a3-4695-a664-ecb5da6a9925","ios":"levelo://app?vid=4c8b77e0-44a3-4695-a664-ecb5da6a9925"},"vehicle_type_id":"4","last_reported":1733655994,"current_range_meters":0,"station_id":"","pricing_plan_id":"cebpf4jnsgd1na2vs0mg"},{"bike_id":"1ffad3b5-538c-4029-805a-c645c37c2a70","system_id":"levelo_inurba_marseille","lat":43.31171,"lon":5.38714,"is_reserved":false,"is_disabled":false,"rental_uris":{"android":"levelo://app?vid=1ffad3b5-538c-4029-805a-c645c37c2a70","ios":"levelo://app?vid=1ffad3b5-538c-4029-805a-c645c37c2a70"},"vehicle_type_id":"4","last_reported":1733655994,"current_range_meters":36400,"station_id":"ce4bgv12rcd13ifvqcp0","pricing_plan_id":"cebpf4jnsgd1na2vs0mg"},{"bike_id":"b4dcc1f3-3f76-4db4-bf7a-4749a5f68b68","system_id":"levelo_inurba_marseille","lat":43.30204,"lon":5.41981,"is_reserved":false,"is_disabled":false,"rental_uris":{"android":"levelo://app?vid=b4dcc1f3-3f76-4db4-bf7a-4749a5f68b68","ios":"levelo://app?vid=b4dcc1f3-3f76-4db4-bf7a-4749a5f68b68"},"vehicle_type_id":"4","last_reported":1733655994,"current_range_meters":36000,"station_id":"","pricing_plan_id":"cebpf4jnsgd1na2vs0mg"},{"bike_id":"56e0a87a-f35c-4ec3-aa2d-84cbb173c550","system_id":"levelo_inurba_marseille","lat":43.31712,"lon":5.43701,"is_reserved":false,"is_disabled":true,"rental_uris":{"android":"levelo://app?vid=56e0a87a-f35c-4ec3-aa2d-84cbb173c550","ios":"levelo://app?vid=56e0a87a-f35c-4ec3-aa2d-84cbb173c550"},"vehicle_type_id":"4","last_reported":1733655994,"current_range_meters":0,"station_id":"ce4bhp92rcd13ifvqhcg","pricing_plan_id":"cebpf4jnsgd1na2vs0mg"},{"bike_id":"a863de87-dd8b-425f-aac3-2b5579a20dd2","system_id":"levelo_inurba_marseille","lat":43.29573,"lon":5.36737,"is_reserved":false,"is_disabled":false,"rental_uris":{"android":"levelo://app?vid=a863de87-dd8b-425f-aac3-2b5579a20dd2","ios":"levelo://app?vid=a863de87-dd8b-425f-aac3-2b5579a20dd2"},"vehicle_type_id":"4","last_reported":1733655994,"current_range_meters":12000,"station_id":"ce4bgph2rcd13ifvqc2g","pricing_plan_id":"cebpf4jnsgd1na2vs0mg"},{"bike_id":"35116aeb-0a76-4797-a5b2-a18534d3382f","system_id":"levelo_inurba_marseille","lat":43.337444,"lon":5.374475,"is_reserved":false,"is_disabled":false,"rental_uris":{"android":"levelo://app?vid=35116aeb-0a76-4797-a5b2-a18534d3382f","ios":"levelo://app?vid=35116aeb-0a76-4797-a5b2-a18534d3382f"},"vehicle_type_id":"4","last_reported":1733655994,"current_range_meters":24400,"station_id":"","pricing_plan_id":"cebpf4jnsgd1na2vs0mg"},{"bike_id":"4ae5fe7f-a755-40fe-9b35-59fbb2437146","system_id":"levelo_inurba_marseille","lat":43.24135,"lon":5.36417,"is_reserved":false,"is_disabled":false,"rental_uris":{"android":"levelo://app?vid=4ae5fe7f-a755-40fe-9b35-59fbb2437146","ios":"levelo://app?vid=4ae5fe7f-a755-40fe-9b35-59fbb2437146"},"vehicle_type_id":"4","last_reported":1733655994,"current_range_meters":27200,"station_id":"cpo36qri1sfpv3e86is0","pricing_plan_id":"cebpf4jnsgd1na2vs0mg"},{"bike_id":"d37e0be7-89bd-4af6-9121-2e09ca7bbc14","system_id":"levelo_inurba_marseille","lat":43.25576,"lon":5.38237,"is_reserved":false,"is_disabled":false,"rental_uris":{"android":"levelo://app?vid=d37e0be7-89bd-4af6-9121-2e09ca7bbc14","ios":"levelo://app?vid=d37e0be7-89bd-4af6-9121-2e09ca7bbc14"},"vehicle_type_id":"4","last_reported":1733655994,"current_range_meters":24400,"station_id":"ce4bhih2rcd13ifvqfs0","pricing_plan_id":"cebpf4jnsgd1na2vs0mg"},{"bike_id":"134a8de6-9389-4a84-b0ed-ee37297d7ef8","system_id":"levelo_inurba_marseille","lat":43.29624,"lon":5.37723,"is_reserved":false,"is_disabled":false,"rental_uris":{"android":"levelo://app?vid=134a8de6-9389-4a84-b0ed-ee37297d7ef8","ios":"levelo://app?vid=134a8de6-9389-4a84-b0ed-ee37297d7ef8"},"vehicle_type_id":"4","last_reported":1733655994,"current_range_meters":19200,"station_id":"ce4bgi92rcd13ifvqb90","pricing_plan_id":"cebpf4jnsgd1na2vs0mg"},{"bike_id":"7f9e53fd-9a82-402e-9d47-19c067bdb1a5","system_id":"levelo_inurba_marseille","lat":43.281,"lon":5.37838,"is_reserved":false,"is_disabled":false,"rental_uris":{"android":"levelo://app?vid=7f9e53fd-9a82-402e-9d47-19c067bdb1a5","ios":"levelo://app?vid=7f9e53fd-9a82-402e-9d47-19c067bdb1a5"},"vehicle_type_id":"4","last_reported":1733655994,"current_range_meters":31200,"station_id":"ce4bha12rcd13ifvqee0","pricing_plan_id":"cebpf4jnsgd1na2vs0mg"},{"bike_id":"43c79427-2d1c-4138-8ce1-75d34664a098","system_id":"levelo_inurba_marseille","lat":43.31759,"lon":5.39021,"is_reserved":false,"is_disabled":false,"rental_uris":{"android":"levelo://app?vid=43c79427-2d1c-4138-8ce1-75d34664a098","ios":"levelo://app?vid=43c79427-2d1c-4138-8ce1-75d34664a098"},"vehicle_type_id":"4","last_reported":1733655994,"current_range_meters":25200,"station_id":"ce4bhqp2rcd13ifvqhng","pricing_plan_id":"cebpf4jnsgd1na2vs0mg"},{"bike_id":"f5695b3d-aaf2-41d4-9cb0-052c626cb432","system_id":"levelo_inurba_marseille","lat":43.3176,"lon":5.39007,"is_reserved":false,"is_disabled":false,"rental_uris":{"android":"levelo://app?vid=f5695b3d-aaf2-41d4-9cb0-052c626cb432","ios":"levelo://app?vid=f5695b3d-aaf2-41d4-9cb0-052c626cb432"},"vehicle_type_id":"4","last_reported":1733655994,"current_range_meters":25600,"station_id":"ce4bhqp2rcd13ifvqhng","pricing_plan_id":"cebpf4jnsgd1na2vs0mg"},{"bike_id":"5ba59dd9-36ee-4b3e-b5c0-b09c3fdc7f8d","system_id":"levelo_inurba_marseille","lat":43.29187,"lon":5.35799,"is_reserved":false,"is_disabled":false,"rental_uris":{"android":"levelo://app?vid=5ba59dd9-36ee-4b3e-b5c0-b09c3fdc7f8d","ios":"levelo://app?vid=5ba59dd9-36ee-4b3e-b5c0-b09c3fdc7f8d"},"vehicle_type_id":"4","last_reported":1733655994,"current_range_meters":33200,"station_id":"ce4bhb12rcd13ifvqel0","pricing_plan_id":"cebpf4jnsgd1na2vs0mg"},