{"last_updated":1735841553,"ttl":60,"version":"2.2","data":{"bikes":[{"bike_id":"5fc33033-4827-4528-9193-70aaad8ca07b","system_id":"levelo_inurba_marseille","lat":43.26935,"lon":5.38927,"is_reserved":false,"is_disabled":false,"rental_uris":{"android":"levelo://app?vid=5fc33033-4827-4528-9193-70aaad8ca07b","ios":"levelo://app?vid=5fc33033-4827-4528-9193-70aaad8ca07b"},"vehicle_type_id":"4","last_reported":1735841553,"current_range_meters":8400,"station_id":"ce4bhhh2rcd13ifvqfl0","pricing_plan_id":"cebpf4jnsgd1na2vs0mg"},{"bike_id":"5ee06d1f-f474-4883-9d52-622f82f42531","system_id":"levelo_inurba_marseille","lat":43.32542,"lon":5.41448,"is_reserved":false,"is_disabled":false,"rental_uris":{"android":"levelo://app?vid=5ee06d1f-f474-4883-9d52-622f82f42531","ios":"levelo://app?vid=5ee06d1f-f474-4883-9d52-622f82f42531"},"vehicle_type_id":"4","last_reported":1735841553,"current_range_meters":38800,"station_id":"ce4bhq12rcd13ifvqhhg","pricing_plan_id":"cebpf4jnsgd1na2vs0mg"},{"bike_id":"172ccd61-d49f-41ee-9d70-c90aa70835fe","system_id":"levelo_inurba_marseille","lat":43.27436,"lon":5.39426,"is_reserved":false,"is_disabled":false,"rental_uris":{"android":"levelo://app?vid=172ccd61-d49f-41ee-9d70-c90aa70835fe","ios":"levelo://app?vid=172ccd61-d49f-41ee-9d70-c90aa70835fe"},"vehicle_type_id":"4","last_reported":1735841553,"current_range_meters":33600,"station_id":"ce4bhdp2rcd13ifvqf20","pricing_plan_id":"cebpf4jnsgd1na2vs0mg"},{"bike_id":"28e8aa91-0b5c-4928-aafc-7115b5b1168e","system_id":"levelo_inurba_marseille","lat":43.27178,"lon":5.40998,"is_reserved":false,"is_disabled":false,"rental_uris":{"android":"levelo://app?vid=28e8aa91-0b5c-4928-aafc-7115b5b1168e","ios":"levelo://app?vid=28e8aa91-0b5c-4928-aafc-7115b5b1168e"},"vehicle_type_id":"4","last_reported":1735841553,"current_range_meters":16400,"station_id":"ce4bhl12rcd13ifvqgf0","pricing_plan_id":"cebpf4jnsgd1na2vs0mg"},{"bike_id":"bc774450-9e82-4b77-bec0-9757df77a13c","system_id":"levelo_inurba_marseille","lat":43.26497,"lon":5.39566,"is_reserved":false,"is_disabled":false,"rental_uris":{"android":"levelo://app?vid=bc774450-9e82-4b77-bec0-9757df77a13c","ios":"levelo://app?vid=bc774450-9e82-4b77-bec0-9757df77a13c"},"vehicle_type_id":"4","last_reported":1735841553,"current_range_meters":38800,"station_id":"ce4bhi12rcd13ifvqfq0","pricing_plan_id":"cebpf4jnsgd1na2vs0mg"},{"bike_id":"3e92df57-e4ba-4a2b-a540-d8085cdee01f","system_id":"levelo_inurba_marseille","lat":43.26949,"lon":5.38919,"is_reserved":false,"is_disabled":false,"rental_uris":{"android":"levelo://app?vid=3e92df57-e4ba-4a2b-a540-d8085cdee01f","ios":"levelo://app?vid=3e92df57-e4ba-4a2b-a540-d8085cdee01f"},"vehicle_type_id":"4","last_reported":1735841553,"current_range_meters":38800,"station_id":"ce4bhhh2rcd13ifvqfl0","pricing_plan_id":"cebpf4jnsgd1na2vs0mg"},{"bike_id":"6bd5f962-fbf1-4f4a-9fce-1b11db41e7ba","system_id":"levelo_inurba_marseille","lat":43.29017,"lon":5.38178,"is_reserved":false,"is_disabled":false,"rental_uris":{"android":"levelo://app?vid=6bd5f962-fbf1-4f4a-9fce-1b11db41e7ba","ios":"levelo://app?vid=6bd5f962-fbf1-4f4a-9fce-1b11db41e7ba"},"vehicle_type_id":"4","last_reported":1735841553,"current_range_meters":27200,"station_id":"ce4bh4p2rcd13ifvqe1g","pricing_plan_id":"cebpf4jnsgd1na2vs0mg"},{"bike_id":"0cc226b6-5f36-4e90-9e5b-497bf45d78e0","system_id":"levelo_inurba_marseille","lat":43.27989,"lon":5.40017,"is_reserved":false,"is_disabled":false,"rental_uris":{"android":"levelo://app?vid=0cc226b6-5f36-4e90-9e5b-497bf45d78e0","ios":"levelo://app?vid=0cc226b6-5f36-4e90-9e5b-497bf45d78e0"},"vehicle_type_id":"4","last_reported":1735841553,"current_range_meters":6800,"station_id":"ce4bho92rcd13ifvqh4g","pricing_plan_id":"cebpf4jnsgd1na2vs0mg"},{"bike_id":"e42aed87-b9c2-4f04-8982-50394cba4bfe","system_id":"levelo_inurba_marseille","lat":43.29534,"lon":5.38541,"is_reserved":false,"is_disabled":false,"rental_uris":{"android":"levelo://app?vid=e42aed87-b9c2-4f04-8982-50394cba4bfe","ios":"levelo://app?vid=e42aed87-b9c2-4f04-8982-50394cba4bfe"},"vehicle_type_id":"4","last_reported":1735841553,"current_range_meters":11200,"station_id":"ce4bgih2rcd13ifvqba0","pricing_plan_id":"cebpf4jnsgd1na2vs0mg"},{"bike_id":"116f92ae-65b4-4f7c-a23b-1117c0a69b33","system_id":"levelo_inurba_marseille","lat":43.28633,"lon":5.35105,"is_reserved":false,"is_disabled":false,"rental_uris":{"android":"levelo://app?vid=116f92ae-65b4-4f7c-a23b-1117c0a69b33","ios":"levelo://app?vid=116f92ae-65b4-4f7c-a23b-1117c0a69b33"},"vehicle_type_id":"4","last_reported":1735841553,"current_range_meters":30000,"station_id":"ce4bhch2rcd13ifvqeug","pricing_plan_id":"cebpf4jnsgd1na2vs0mg"},{"bike_id":"cf9371cf-b4a6-4f3a-92f4-f898ea85e696","system_id":"levelo_inurba_marseille","lat":43.25585,"lon":5.38236,"is_reserved":false,"is_disabled":false,"rental_uris":{"android":"levelo://app?vid=cf9371cf-b4a6-4f3a-92f4-f898ea85e696","ios":"levelo://app?vid=cf9371cf-b4a6-4f3a-92f4-f898ea85e696"},"vehicle_type_id":"4","last_reported":1735841553,"current_range_meters":10800,"station_id":"ce4bhih2rcd13ifvqfs0","pricing_plan_id":"cebpf4jnsgd1na2vs0mg"},{"bike_id":"000b1f26-0899-4594-b3f4-68fc4cfeb19c","system_id":"levelo_inurba_marseille","lat":43.28401,"lon":5.35002,"is_reserved":false,"is_disabled":false,"rental_uris":{"android":"levelo://app?vid=000b1f26-0899-4594-b3f4-68fc4cfeb19c","ios":"levelo://app?vid=000b1f26-0899-4594-b3f4-68fc4cfeb19c"},"vehicle_type_id":"4","last_reported":1735841553,"current_range_meters":18000,"station_id":"ce4bhbh2rcd13ifvqepg","pricing_plan_id":"cebpf4jnsgd1na2vs0mg"},{"bike_id":"5430a545-a0f1-45ad-a500-b4193006fdcf","system_id":"levelo_inurba_marseille","lat":43.28476,"lon":5.35868,"is_reserved":false,"is_disabled":false,"rental_uris":{"android":"levelo://app?vid=5430a545-a0f1-45ad-a500-b4193006fdcf","ios":"levelo://app?vid=5430a545-a0f1-45ad-a500-b4193006fdcf"},"vehicle_type_id":"4","last_reported":1735841553,"current_range_meters":19200,"station_id":"ce4bhah2rcd13ifvqei0","pricing_plan_id":"cebpf4jnsgd1na2vs0mg"},{"bike_id":"aeeed8ed-dc28-4cf0-a615-f0e4eef78677","system_id":"levelo_inurba_marseille","lat":43.30143,"lon":5.3989,"is_reserved":false,"is_disabled":false,"rental_uris":{"android":"levelo://app?vid=aeeed8ed-dc28-4cf0-a615-f0e4eef78677","ios":"levelo://app?vid=aeeed8ed-dc28-4cf0-a615-f0e4eef78677"},"vehicle_type_id":"4","last_reported":1735841553,"current_range_meters":21600,"station_id":"ce4bh0h2rcd13ifvqd40","pricing_plan_id":"cebpf4jnsgd1na2vs0mg"},{"bike_id":"76d392c8-6dd4-4fbf-b626-27c2990c047b","system_id":"levelo_inurba_marseille","lat":43.281629,"lon":5.428202,"is_reserved":false,"is_disabled":false,"rental_uris":{"android":"levelo://app?vid=76d392c8-6dd4-4fbf-b626-27c2990c047b","ios":"levelo://app?vid=76d392c8-6dd4-4fbf-b626-27c2990c047b"},"vehicle_type_id":"4","last_reported":1735841553,"current_range_meters":24400,"station_id":"","pricing_plan_id":"cebpf4jnsgd1na2vs0mg"},{"bike_id":"ebb56956-e2e2-4f51-8f7a-80ccc26c078c","system_id":"levelo_inurba_marseille","lat":43.28165,"lon":5.42633,"is_reserved":false,"is_disabled":false,"rental_uris":{"android":"levelo://app?vid=ebb56956-e2e2-4f51-8f7a-80ccc26c078c","ios":"levelo://app?vid=ebb56956-e2e2-4f51-8f7a-80ccc26c078c"},"vehicle_type_id":"4","last_reported":1735841553,"current_range_meters":34800,"station_id":"ce4bhnh2rcd13ifvqgug","pricing_plan_id":"cebpf4jnsgd1na2vs0mg"},{"bike_id":"627d709c-099a-4a46-9aa4-b04d18f91469","system_id":"levelo_inurba_marseille","lat":43.29973,"lon":5.38497,"is_reserved":false,"is_disabled":false,"rental_uris":{"android":"levelo://app?vid=627d709c-099a-4a46-9aa4-b04d18f91469","ios":"levelo://app?vid=627d709c-099a-4a46-9aa4-b04d18f91469"},"vehicle_type_id":"4","last_reported":1735841553,"current_range_meters":25600,"station_id":"ce4bgj92rcd13ifvqbd0","pricing_plan_id":"cebpf4jnsgd1na2vs0mg"},{"bike_id":"fa5a2333-4659-49cf-9477-c6a891576398","system_id":"levelo_inurba_marseille","lat":43.27368,"lon":5.3625,"is_reserved":false,"is_disabled":false,"rental_uris":{"android":"levelo://app?vid=fa5a2333-4659-49cf-9477-c6a891576398","ios":"levelo://app?vid=fa5a2333-4659-49cf-9477-c6a891576398"},"vehicle_type_id":"4","last_reported":1735841553,"current_range_meters":20800,"station_id":"ce4bhbh2rcd13ifvqeo0","pricing_plan_id":"cebpf4jnsgd1na2vs0mg"},{"bike_id":"1092ba04-af73-4900-bcc8-d451eecf7da8","system_id":"levelo_inurba_marseille","lat":43.27684,"lon":5.38904,"is_reserved":false,"is_disabled":false,"rental_uris":{"android":"levelo://app?vid=1092ba04-af73-4900-bcc8-d451eecf7da8","ios":"levelo://app?vid=1092ba04-af73-4900-bcc8-d451eecf7da8"},"vehicle_type_id":"4","last_reported":1735841553,"current_range_meters":38400,"station_id":"ce4bhi12rcd13ifvqfo0","pricing_plan_id":"cebpf4jnsgd1na2vs0mg"},{"bike_id":"439818dc-86f0-4179-8c0e-05632c3a5134","system_id":"levelo_inurba_marseille","lat":43.23209,"lon":5.35545,"is_reserved":false,"is_disabled":false,"rental_uris":{"android":"levelo://app?vid=439818dc-86f0-4179-8c0e-05632c3a5134","ios":"levelo://app?vid=439818dc-86f0-4179-8c0e-05632c3a5134"},"vehicle_type_id":"4","last_reported":1735841553,"current_range_meters":39200,"station_id":"ce4bhu92rcd13ifvqi70","pricing_plan_id":"cebpf4jnsgd1na2vs0mg"},{"bike_id":"97717a3a-5240-48fe-b29e-9e7f0d2b5fba","system_id":"levelo_inurba_marseille","lat":43.31702,"lon":5.43701,"is_reserved":false,"is_disabled":false,"rental_uris":{"android":"levelo://app?vid=97717a3a-5240-48fe-b29e-9e7f0d2b5fba","ios":"levelo://app?vid=97717a3a-5240-48fe-b29e-9e7f0d2b5fba"},"vehicle_type_id":"4","last_reported":1735841553,"current_range_meters":39200,"station_id":"ce4bhp92rcd13ifvqhcg","pricing_plan_id":"cebpf4jnsgd1na2vs0mg"},{"bike_id":"84eb5d38-88df-4670-810e-6edcb5c9f5e3","system_id":"levelo_inurba_marseille","lat":43.25508,"lon":5.37656,"is_reserved":false,"is_disabled":false,"rental_uris":{"android":"levelo://app?vid=84eb5d38-88df-4670-810e-6edcb5c9f5e3","ios":"levelo://app?vid=84eb5d38-88df-4670-810e-6edcb5c9f5e3"},"vehicle_type_id":"4","last_reported":1735841553,"current_range_meters":24400,"station_id":"ce4bhh12rcd13ifvqff0","pricing_plan_id":"cebpf4jnsgd1na2vs0mg"},{"bike_id":"d66c261c-4c92-4d58-90a6-fd0ca5318371","system_id":"levelo_inurba_marseille","lat":43.27811,"lon":5.40709,"is_reserved":false,"is_disabled":false,"rental_uris":{"android":"levelo://app?vid=d66c261c-4c92-4d58-90a6-fd0ca5318371","ios":"levelo://app?vid=d66c261c-4c92-4d58-90a6-fd0ca5318371"},"vehicle_type_id":"4","last_reported":1735841553,"current_range_meters":8400,"station_id":"ce4bhnh2rcd13ifvqgtg","pricing_plan_id":"cebpf4jnsgd1na2vs0mg"},{"bike_id":"05a944e5-5628-44b6-8e66-0c233343aeb8","system_id":"levelo_inurba_marseille","lat":43.29032,"lon":5.38642,"is_reserved":false,"is_disabled":false,"rental_uris":{"android":"levelo://app?vid=05a944e5-5628-44b6-8e66-0c233343aeb8","ios":"levelo://app?vid=05a944e5-5628-44b6-8e66-0c233343aeb8"},"vehicle_type_id":"4","last_reported":1735841553,"current_range_meters":38800,"station_id":"ce4bh4p2rcd13ifvqe0g","pricing_plan_id":"cebpf4jnsgd1na2vs0mg"},{"bike_id":"77eeef57-6137-4383-9ed7-fa5009a9319e","system_id":"levelo_inurba_marseille","lat":43.31687,"lon":5.40479,"is_reserved":false,"is_disabled":false,"rental_uris":{"android":"levelo://app?vid=77eeef57-6137-4383-9ed7-fa5009a9319e","ios":"levelo://app?vid=77eeef57-6137-4383-9ed7-fa5009a9319e"},"vehicle_type_id":"4","last_reported":1735841553,"current_range_meters":25600,"station_id":"ce4bh012rcd13ifvqd00","pricing_plan_id":"cebpf4jnsgd1na2vs0mg"},{"bike_id":"dcd711c6-0b92-490f-97df-470d44c16843","system_id":"levelo_inurba_marseille","lat":43.27918,"lon":5.3959,"is_reserved":false,"is_disabled":false,"rental_uris":{"android":"levelo://app?vid=dcd711c6-0b92-490f-97df-470d44c16843","ios":"levelo://app?vid=dcd711c6-0b92-490f-97df-470d44c16843"},"vehicle_type_id":"4","last_reported":1735841553,"current_range_meters":38000,"station_id":"ce4bhf92rcd13ifvqf40","pricing_plan_id":"cebpf4jnsgd1na2vs0mg"},{"bike_id":"2b1f1a73-b2aa-4c36-82fc-2e60f4aa7e99","system_id":"levelo_inurba_marseille","lat":43.28922,"lon":5.384,"is_reserved":false,"is_disabled":false,"rental_uris":{"android":"levelo://app?vid=2b1f1a73-b2aa-4c36-82fc-2e60f4aa7e99","ios":"levelo://app?vid=2b1f1a73-b2aa-4c36-82fc-2e60f4aa7e99"},"vehicle_type_id":"4","last_reported":1735841553,"current_range_meters":37600,"station_id":"ce4bh612rcd13ifvqe6g","pricing_plan_id":"cebpf4jnsgd1na2vs0mg"},{"bike_id":"1efb6e70-f243-4ee4-8c73-08ef2a2c6772","system_id":"levelo_inurba_marseille","lat":43.2582,"lon":5.39422,"is_reserved":false,"is_disabled":false,"rental_uris":{"android":"levelo://app?vid=1efb6e70-f243-4ee4-8c73-08ef2a2c6772","ios":"levelo://app?vid=1efb6e70-f243-4ee4-8c73-08ef2a2c6772"},"vehicle_type_id":"4","last_reported":1735841553,"current_range_meters":39200,"station_id":"ce4bhip2rcd13ifvqft0","pricing_plan_id":"cebpf4jnsgd1na2vs0mg"},{"bike_id":"681d262b-bedb-4bd6-bef0-fb090a07de85","system_id":"levelo_inurba_marseille","lat":43.29282,"lon":5.38421,"is_reserved":false,"is_disabled":false,"rental_uris":{"android":"levelo://app?vid=681d262b-bedb-4bd6-bef0-fb090a07de85","ios":"levelo://app?vid=681d262b-bedb-4bd6-bef0-fb090a07de85"},"vehicle_type_id":"4","last_reported":1735841553,"current_range_meters":26000,"station_id":"ce4bh692rcd13ifvqea0","pricing_plan_id":"cebpf4jnsgd1na2vs0mg"},{"bike_id":"269eda74-bc19-459b-a632-ad324cf7cf92","system_id":"levelo_inurba_marseille","lat":43.265,"lon":5.39572,"is_reserved":false,"is_disabled":false,"rental_uris":{"android":"levelo://app?vid=269eda74-bc19-459b-a632-ad324cf7cf92","ios":"levelo://app?vid=269eda74-bc19-459b-a632-ad324cf7cf92"},"vehicle_type_id":"4","last_reported":1735841553,"current_range_meters":18000,"station_id":"ce4bhi12rcd13ifvqfq0","pricing_plan_id":"cebpf4jnsgd1na2vs0mg"},{"bike_id":"90be4ecf-e9e3-49e6-8acd-ca50a85b4085","system_id":"levelo_inurba_marseille","lat":43.3124,"lon":5.36848,"is_reserved":false,"is_disabled":true,"rental_uris":{"android":"levelo://app?vid=90be4ecf-e9e3-49e6-8acd-ca50a85b4085","ios":"levelo://app?vid=90be4ecf-e9e3-49e6-8acd-ca50a85b4085"},"vehicle_type_id":"4","last_reported":1735841553,"current_range_meters":25600,"station_id":"ce4bgl92rcd13ifvqbq0","pricing_plan_id":"cebpf4jnsgd1na2vs0mg"},{"bike_id":"bcc47b98-405a-4d86-8e5f-bbe262abbd0d","system_id":"levelo_inurba_marseille","lat":43.32104,"lon":5.36784,"is_reserved":false,"is_disabled":false,"rental_uris":{"android":"levelo://app?vid=bcc47b98-405a-4d86-8e5f-bbe262abbd0d","ios":"levelo://app?vid=bcc47b98-405a-4d86-8e5f-bbe262abbd0d"},"vehicle_type_id":"4","last_reported":1735841553,"current_range_meters":28800,"station_id":"ce4bhrh2rcd13ifvqhug","pricing_plan_id":"cebpf4jnsgd1na2vs0mg"},{"bike_id":"4ff02992-46d1-4939-b33e-7e9de4ef7281","system_id":"levelo_inurba_marseille","lat":43.25827,"lon":5.39442,"is_reserved":false,"is_disabled":false,"rental_uris":{"android":"levelo://app?vid=4ff02992-46d1-4939-b33e-7e9de4ef7281","ios":"levelo://app?vid=4ff02992-46d1-4939-b33e-7e9de4ef7281"},"vehicle_type_id":"4","last_reported":1735841553,"current_range_meters":30400,"station_id":"ce4bhip2rcd13ifvqft0","pricing_plan_id":"cebpf4jnsgd1na2vs0mg"},{"bike_id":"ad5d619f-e317-4d1a-a060-50e3c0dc4d55","system_id":"levelo_inurba_marseille","lat":43.24195,"lon":5.39719,"is_reserved":false,"is_disabled":false,"rental_uris":{"android":"levelo://app?vid=ad5d619f-e317-4d1a-a060-50e3c0dc4d55","ios":"levelo://app?vid=ad5d619f-e317-4d1a-a060-50e3c0dc4d55"},"vehicle_type_id":"4","last_reported":1735841553,"current_range_meters":10800,"station_id":"ce4bhn12rcd13ifvqgpg","pricing_plan_id":"cebpf4jnsgd1na2vs0mg"},{"bike_id":"027085de-3c06-4c90-8099-b9537f78e863","system_id":"levelo_inurba_marseille","lat":43.23168,"lon":5.43659,"is_reserved":false,"is_disabled":false,"rental_uris":{"android":"levelo://app?vid=027085de-3c06-4c90-8099-b9537f78e863","ios":"levelo://app?vid=027085de-3c06-4c90-8099-b9537f78e863"},"vehicle_type_id":"4","last_reported":1735841553,"current_range_meters":29600,"station_id":"ce4bhmp2rcd13ifvqgog","pricing_plan_id":"cebpf4jnsgd1na2vs0mg"},{"bike_id":"ef5d6c81-921a-4daf-9840-224b9d92bb9f","system_id":"levelo_inurba_marseille","lat":43.28086,"lon":5.39657,"is_reserved":false,"is_disabled":false,"rental_uris":{"android":"levelo://app?vid=ef5d6c81-921a-4daf-9840-224b9d92bb9f","ios":"levelo://app?vid=ef5d6c81-921a-4daf-9840-224b9d92bb9f"},"vehicle_type_id":"4","last_reported":1735841553,"current_range_meters":34800,"station_id":"ce4bho12rcd13ifvqh2g","pricing_plan_id":"cebpf4jnsgd1na2vs0mg"},{"bike_id":"ee9995f0-c104-4c7d-8c6a-3bf64585da32","system_id":"levelo_inurba_marseille","lat":43.28926,"lon":5.38401,"is_reserved":false,"is_disabled":false,"rental_uris":{"android":"levelo://app?vid=ee9995f0-c104-4c7d-8c6a-3bf64585da32","ios":"levelo://app?vid=ee9995f0-c104-4c7d-8c6a-3bf64585da32"},"vehicle_type_id":"4","last_reported":1735841553,"current_range_meters":34800,"station_id":"ce4bh612rcd13ifvqe6g","pricing_plan_id":"cebpf4jnsgd1na2vs0mg"},{"bike_id":"7a63d77d-b3e4-4713-9060-b918ad8247d2","system_id":"levelo_inurba_marseille","lat":43.22936,"lon":5.35374,"is_reserved":false,"is_disabled":false,"rental_uris":{"android":"levelo://app?vid=7a63d77d-b3e4-4713-9060-b918ad8247d2","ios":"levelo://app?vid=7a63d77d-b3e4-4713-9060-b918ad8247d2"},"vehicle_type_id":"4","last_reported":1735841553,"current_range_meters":38400,"station_id":"cpo3532slgdg3j2ikp40","pricing_plan_id":"cebpf4jnsgd1na2vs0mg"},{"bike_id":"55e21000-1bfe-4926-9e9b-bbab942d7159","system_id":"levelo_inurba_marseille","lat":43.27914,"lon":5.39571,"is_reserved":false,"is_disabled":false,"rental_uris":{"android":"levelo://app?vid=55e21000-1bfe-4926-9e9b-bbab942d7159","ios":"levelo://app?vid=55e21000-1bfe-4926-9e9b-bbab942d7159"},"vehicle_type_id":"4","last_reported":1735841553,"current_range_meters":11200,"station_id":"ce4bhf92rcd13ifvqf40","pricing_plan_id":"cebpf4jnsgd1na2vs0mg"},{"bike_id":"2d19455f-92ea-4afc-ad8d-46ae27592cb0","system_id":"levelo_inurba_marseille","lat":43.28562,"lon":5.39492,"is_reserved":false,"is_disabled":false,"rental_uris":{"android":"levelo://app?vid=2d19455f-92ea-4afc-ad8d-46ae27592cb0","ios":"levelo://app?vid=2d19455f-92ea-4afc-ad8d-46ae27592cb0"},"vehicle_type_id":"4","last_reported":1735841553,"current_range_meters":30000,"station_id":"ce4bh292rcd13ifvqdg0","pricing_plan_id":"cebpf4jnsgd1na2vs0mg"},{"bike_id":"277d9579-fc29-4ce6-94cb-f3e169453ace","system_id":"levelo_inurba_marseille","lat":43.31756,"lon":5.39017,"is_reserved":false,"is_disabled":false,"rental_uris":{"android":"levelo://app?vid=277d9579-fc29-4ce6-94cb-f3e169453ace","ios":"levelo://app?vid=277d9579-fc29-4ce6-94cb-f3e169453ace"},"vehicle_type_id":"4","last_reported":1735841553,"current_range_meters":39200,"station_id":"ce4bhqp2rcd13ifvqhng","pricing_plan_id":"cebpf4jnsgd1na2vs0mg"},{"bike_id":"3c7472a4-a45c-4f46-a692-aa44ebf92f21","system_id":"levelo_inurba_marseille","lat":43.27448,"lon":5.39393,"is_reserved":false,"is_disabled":false,"rental_uris":{"android":"levelo://app?vid=3c7472a4-a45c-4f46-a692-aa44ebf92f21","ios":"levelo://app?vid=3c7472a4-a45c-4f46-a692-aa44ebf92f21"},"vehicle_type_id":"4","last_reported":1735841553,"current_range_meters":35600,"station_id":"ce4bhdp2rcd13ifvqf20","pricing_plan_id":"cebpf4jnsgd1na2vs0mg"},{"bike_id":"15f428d5-04a0-4b6a-a23c-757c18fbf743","system_id":"levelo_inurba_marseille","lat":43.30839,"lon":5.39669,"is_reserved":false,"is_disabled":false,"rental_uris":{"android":"levelo://app?vid=15f428d5-04a0-4b6a-a23c-757c18fbf743","ios":"levelo://app?vid=15f428d5-04a0-4b6a-a23c-757c18fbf743"},"vehicle_type_id":"4","last_reported":1735841553,"current_range_meters":39200,"station_id":"ce4bh012rcd13ifvqcv0","pricing_plan_id":"cebpf4jnsgd1na2vs0mg"},{"bike_id":"91f22d61-a9e0-4c89-b636-39a16917d513","system_id":"levelo_inurba_marseille","lat":43.26942,"lon":5.38919,"is_reserved":false,"is_disabled":true,"rental_uris":{"android":"levelo://app?vid=91f22d61-a9e0-4c89-b636-39a16917d513","ios":"levelo://app?vid=91f22d61-a9e0-4c89-b636-39a16917d513"},"vehicle_type_id":"4","last_reported":1735841553,"current_range_meters":28800,"station_id":"ce4bhhh2rcd13ifvqfl0","pricing_plan_id":"cebpf4jnsgd1na2vs0mg"},{"bike_id":"60aa8768-465e-4e59-8359-ab05b91a90a1","system_id":"levelo_inurba_marseille","lat":43.28947,"lon":5.3641,"is_reserved":false,"is_disabled":false,"rental_uris":{"android":"levelo://app?vid=60aa8768-465e-4e59-8359-ab05b91a90a1","ios":"levelo://app?vid=60aa8768-465e-4e59-8359-ab05b91a90a1"},"vehicle_type_id":"4","last_reported":1735841553,"current_range_meters":38800,"station_id":"ce4bhc92rcd13ifvqetg","pricing_plan_id":"cebpf4jnsgd1na2vs0mg"},{"bike_id":"4b9b3c02-7773-410b-a74d-2537aad0fdc1","system_id":"levelo_inurba_marseille","lat":43.2842,"lon":5.37493,"is_reserved":false,"is_disabled":false,"rental_uris":{"android":"levelo://app?vid=4b9b3c02-7773-410b-a74d-2537aad0fdc1","ios":"levelo://app?vid=4b9b3c02-7773-410b-a74d-2537aad0fdc1"},"vehicle_type_id":"4","last_reported":1735841553,"current_range_meters":25600,"station_id":"ce4bh412rcd13ifvqds0","pricing_plan_id":"cebpf4jnsgd1na2vs0mg"},{"bike_id":"e3736c07-1f20-46a9-8fea-1baae69a6a9b","system_id":"levelo_inurba_marseille","lat":43.29536,"lon":5.3855,"is_reserved":false,"is_disabled":false,"rental_uris":{"android":"levelo://app?vid=e3736c07-1f20-46a9-8fea-1baae69a6a9b","ios":"levelo://app?vid=e3736c07-1f20-46a9-8fea-1baae69a6a9b"},"vehicle_type_id":"4","last_reported":1735841553,"current_range_meters":16400,"station_id":"ce4bgih2rcd13ifvqba0","pricing_plan_id":"cebpf4jnsgd1na2vs0mg"},{"bike_id":"99d073c4-215c-4731-b21d-38160f789195","system_id":"levelo_inurba_marseille","lat":43.29967,"lon":5.385,"is_reserved":false,"is_disabled":false,"rental_uris":{"android":"levelo://app?vid=99d073c4-215c-4731-b21d-38160f789195","ios":"levelo://app?vid=99d073c4-215c-4731-b21d-38160f789195"},"vehicle_type_id":"4","last_reported":1735841553,"current_range_meters":8000,"station_id":"ce4bgj92rcd13ifvqbd0","pricing_plan_id":"cebpf4jnsgd1na2vs0mg"},{"bike_id":"bbfa0de7-9dfe-4809-9cc6-d46a70815b49","system_id":"levelo_inurba_marseille","lat":43.32074,"lon":5.4153,"is_reserved":false,"is_disabled":false,"rental_uris":{"android":"levelo://app?vid=bbfa0de7-9dfe-4809-9cc6-d46a70815b49","ios":"levelo://app?vid=bbfa0de7-9dfe-4809-9cc6-d46a70815b49"},"vehicle_type_id":"4","last_reported":1735841553,"current_range_meters":39200,"station_id":"ce4bhq92rcd13ifvqhkg","pricing_plan_id":"cebpf4jnsgd1na2vs0mg"},{"bike_id":"a704d00f-fa02-4fe3-91e2-2416c16951bb","system_id":"levelo_inurba_marseille","lat":43.24078,"lon":5.37748,"is_reserved":false,"is_disabled":false,"rental_uris":{"android":"levelo://app?vid=a704d00f-fa02-4fe3-91e2-2416c16951bb","ios":"levelo://app?vid=a704d00f-fa02-4fe3-91e2-2416c16951bb"},"vehicle_type_id":"4","last_reported":1735841553,"current_range_meters":37600,"station_id":"ce4bhnp2rcd13ifvqgvg","pricing_plan_id":"cebpf4jnsgd1na2vs0mg"},{"bike_id":"1b0b8897-032a-46c6-aaf7-d764fab8e97a","system_id":"levelo_inurba_marseille","lat":43.25891,"lon":5.39898,"is_reserved":false,"is_disabled":false,"rental_uris":{"android":"levelo://app?vid=1b0b8897-032a-46c6-aaf7-d764fab8e97a","ios":"levelo://app?vid=1b0b8897-032a-46c6-aaf7-d764fab8e97a"},"vehicle_type_id":"4","last_reported":1735841553,"current_range_meters":28000,"station_id":"ce4bhl92rcd13ifvqghg","pricing_plan_id":"cebpf4jnsgd1na2vs0mg"},{"bike_id":"e6fa8bd9-5f74-401a-b12e-57e85af877cf","system_id":"levelo_inurba_marseille","lat":43.30331,"lon":5.36891,"is_reserved":false,"is_disabled":false,"rental_uris":{"android":"levelo://app?vid=e6fa8bd9-5f74-401a-b12e-57e85af877cf","ios":"levelo://app?vid=e6fa8bd9-5f74-401a-b12e-57e85af877cf"},"vehicle_type_id":"4","last_reported":1735841553,"current_range_meters":28400,"station_id":"ce4bgqh2rcd13ifvqc5g","pricing_plan_id":"cebpf4jnsgd1na2vs0mg"},{"bike_id":"4483098c-d27d-4534-ad16-c209ae457c9a","system_id":"levelo_inurba_marseille","lat":43.31539,"lon":5.38001,"is_reserved":false,"is_disabled":false,"rental_uris":{"android":"levelo://app?vid=4483098c-d27d-4534-ad16-c209ae457c9a","ios":"levelo://app?vid=4483098c-d27d-4534-ad16-c209ae457c9a"},"vehicle_type_id":"4","last_reported":1735841553,"current_range_meters":39200,"station_id":"ce4bhsp2rcd13ifvqi50","pricing_plan_id":"cebpf4jnsgd1na2vs0mg"},{"bike_id":"2cad5e9d-f183-4c3f-a642-7c176e4884d1","system_id":"levelo_inurba_marseille","lat":43.25826,"lon":5.39431,"is_reserved":false,"is_disabled":false,"rental_uris":{"android":"levelo://app?vid=2cad5e9d-f183-4c3f-a642-7c176e4884d1","ios":"levelo://app?vid=2cad5e9d-f183-4c3f-a642-7c176e4884d1"},"vehicle_type_id":"4","last_reported":1735841553,"current_range_meters":33200,"station_id":"ce4bhip2rcd13ifvqft0","pricing_plan_id":"cebpf4jnsgd1na2vs0mg"},{"bike_id":"2bc85ea5-00ae-44c0-a255-cc0d04be90b9","system_id":"levelo_inurba_marseille","lat":43.28422,"lon":5.35,"is_reserved":false,"is_disabled":false,"rental_uris":{"android":"levelo://app?vid=2bc85ea5-00ae-44c0-a255-cc0d04be90b9","ios":"levelo://app?vid=2bc85ea5-00ae-44c0-a255-cc0d04be90b9"},"vehicle_type_id":"4","last_reported":1735841553,"current_range_meters":12000,"station_id":"ce4bhbh2rcd13ifvqepg","pricing_plan_id":"cebpf4jnsgd1na2vs0mg"},{"bike_id":"9ec22bb6-ddde-4544-bfca-bd222a10c5d4","system_id":"levelo_inurba_marseille","lat":43.28628,"lon":5.35094,"is_reserved":false,"is_disabled":false,"rental_uris":{"android":"levelo://app?vid=9ec22bb6-ddde-4544-bfca-bd222a10c5d4","ios":"levelo://app?vid=9ec22bb6-ddde-4544-bfca-bd222a10c5d4"},"vehicle_type_id":"4","last_reported":1735841553,"current_range_meters":12000,"station_id":"ce4bhch2rcd13ifvqeug","pricing_plan_id":"cebpf4jnsgd1na2vs0mg"},{"bike_id":"97906f7b-eda2-4c80-8b4b-122bc957a1cd","system_id":"levelo_inurba_marseille","lat":43.2861,"lon":5.35106,"is_reserved":false,"is_disabled":false,"rental_uris":{"android":"levelo://app?vid=97906f7b-eda2-4c80-8b4b-122bc957a1cd","ios":"levelo://app?vid=97906f7b-eda2-4c80-8b4b-122bc957a1cd"},"vehicle_type_id":"4","last_reported":1735841553,"current_range_meters":24800,"station_id":"ce4bhch2rcd13ifvqeug","pricing_plan_id":"cebpf4jnsgd1na2vs0mg"},{"bike_id":"1c062351-f698-4ee4-87ae-fce7281bfbb0","system_id":"levelo_inurba_marseille","lat":43.29535,"lon":5.38551,"is_reserved":false,"is_disabled":false,"rental_uris":{"android":"levelo://app?vid=1c062351-f698-4ee4-87ae-fce7281bfbb0","ios":"levelo://app?vid=1c062351-f698-4ee4-87ae-fce7281bfbb0"},"vehicle_type_id":"4","last_reported":1735841553,"current_range_meters":38800,"station_id":"ce4bgih2rcd13ifvqba0","pricing_plan_id":"cebpf4jnsgd1na2vs0mg"},{"bike_id":"a767814d-32c1-4888-928e-16b2e9383b03","system_id":"levelo_inurba_marseille","lat":43.28675,"lon":5.38674,"is_reserved":false,"is_disabled":true,"rental_uris":{"android":"levelo://app?vid=a767814d-32c1-4888-928e-16b2e9383b03","ios":"levelo://app?vid=a767814d-32c1-4888-928e-16b2e9383b03"},"vehicle_type_id":"4","last_reported":1735841553,"current_range_meters":1600,"station_id":"ce4bh492rcd13ifvqdug","pricing_plan_id":"cebpf4jnsgd1na2vs0mg"},{"bike_id":"a6722a38-7e36-4e68-ba55-b9a28204ee62","system_id":"levelo_inurba_marseille","lat":43.31322,"lon":5.39689,"is_reserved":false,"is_disabled":false,"rental_uris":{"android":"levelo://app?vid=a6722a38-7e36-4e68-ba55-b9a28204ee62","ios":"levelo://app?vid=a6722a38-7e36-4e68-ba55-b9a28204ee62"},"vehicle_type_id":"4","last_reported":1735841553,"current_range_meters":11200,"station_id":"ce4bgvp2rcd13ifvqcu0","pricing_plan_id":"cebpf4jnsgd1na2vs0mg"},{"bike_id":"d99750b8-6ade-4149-99fa-c28c2d4fba43","system_id":"levelo_inurba_marseille","lat":43.29707,"lon":5.366,"is_reserved":false,"is_disabled":false,"rental_uris":{"android":"levelo://app?vid=d99750b8-6ade-4149-99fa-c28c2d4fba43","ios":"levelo://app?vid=d99750b8-6ade-4149-99fa-c28c2d4fba43"},"vehicle_type_id":"4","last_reported":1735841553,"current_range_meters":39200,"station_id":"ce4bgn12rcd13ifvqbt0","pricing_plan_id":"cebpf4jnsgd1na2vs0mg"},{"bike_id":"a1c87532-6196-402b-916e-8ad945b95f72","system_id":"levelo_inurba_marseille","lat":43.25122,"lon":5.40305,"is_reserved":false,"is_disabled":false,"rental_uris":{"android":"levelo://app?vid=a1c87532-6196-402b-916e-8ad945b95f72","ios":"levelo://app?vid=a1c87532-6196-402b-916e-8ad945b95f72"},"vehicle_type_id":"4","last_reported":1735841553,"current_range_meters":11600,"station_id":"ce4bhlh2rcd13ifvqgig","pricing_plan_id":"cebpf4jnsgd1na2vs0mg"},{"bike_id":"4ce38f45-b3ef-4ce1-84b1-8cf7c7ee4592","system_id":"levelo_inurba_marseille","lat":43.27939,"lon":5.41038,"is_reserved":false,"is_disabled":false,"rental_uris":{"android":"levelo://app?vid=4ce38f45-b3ef-4ce1-84b1-8cf7c7ee4592","ios":"levelo://app?vid=4ce38f45-b3ef-4ce1-84b1-8cf7c7ee4592"},"vehicle_type_id":"4","last_reported":1735841553,"current_range_meters":32400,"station_id":"ce4bhnp2rcd13ifvqh0g","pricing_plan_id":"cebpf4jnsgd1na2vs0mg"},{"bike_id":"77a46b5a-7f75-488d-8889-551eaccec189","system_id":"levelo_inurba_marseille","lat":43.29297,"lon":5.37464,"is_reserved":false,"is_disabled":true,"rental_uris":{"android":"levelo://app?vid=77a46b5a-7f75-488d-8889-551eaccec189","ios":"levelo://app?vid=77a46b5a-7f75-488d-8889-551eaccec189"},"vehicle_type_id":"4","last_reported":1735841553,"current_range_meters":0,"station_id":"ce4bgi12rcd13ifvqb70","pricing_plan_id":"cebpf4jnsgd1na2vs0mg"},{"bike_id":"3cd20a9a-d73e-4af3-b37f-ceeb8ad73b58","system_id":"levelo_inurba_marseille","lat":43.3108,"lon":5.38357,"is_reserved":false,"is_disabled":false,"rental_uris":{"android":"levelo://app?vid=3cd20a9a-d73e-4af3-b37f-ceeb8ad73b58","ios":"levelo://app?vid=3cd20a9a-d73e-4af3-b37f-ceeb8ad73b58"},"vehicle_type_id":"4","last_reported":1735841553,"current_range_meters":19600,"station_id":"ce4bgv92rcd13ifvqcr0","pricing_plan_id":"cebpf4jnsgd1na2vs0mg"},{"bike_id":"4fac24f8-e903-4fc5-8b98-0947685b5962","system_id":"levelo_inurba_marseille","lat":43.29251,"lon":5.38458,"is_reserved":false,"is_disabled":false,"rental_uris":{"android":"levelo://app?vid=4fac24f8-e903-4fc5-8b98-0947685b5962","ios":"levelo://app?vid=4fac24f8-e903-4fc5-8b98-0947685b5962"},"vehicle_type_id":"4","last_reported":1735841553,"current_range_meters":17600,"station_id":"ce4bh692rcd13ifvqea0","pricing_plan_id":"cebpf4jnsgd1na2vs0mg"},{"bike_id":"911d6d05-ac54-4235-8106-6f0f3e8eadf3","system_id":"levelo_inurba_marseille","lat":43.24643,"lon":5.38899,"is_reserved":false,"is_disabled":false,"rental_uris":{"android":"levelo://app?vid=911d6d05-ac54-4235-8106-6f0f3e8eadf3","ios":"levelo://app?vid=911d6d05-ac54-4235-8106-6f0f3e8eadf3"},"vehicle_type_id":"4","last_reported":1735841553,"current_range_meters":8000,"station_id":"ce4bhg12rcd13ifvqf60","pricing_plan_id":"cebpf4jnsgd1na2vs0mg"},{"bike_id":"c4cc7743-49d8-4543-9ab0-1d4e0caacf19","system_id":"levelo_inurba_marseille","lat":43.31993,"lon":5.38156,"is_reserved":false,"is_disabled":false,"rental_uris":{"android":"levelo://app?vid=c4cc7743-49d8-4543-9ab0-1d4e0caacf19","ios":"levelo://app?vid=c4cc7743-49d8-4543-9ab0-1d4e0caacf19"},"vehicle_type_id":"4","last_reported":1735841553,"current_range_meters":32400,"station_id":"ce4bhr12rcd13ifvqhpg","pricing_plan_id":"cebpf4jnsgd1na2vs0mg"},{"bike_id":"a6b8c5d1-0194-4497-b505-a51fde692143","system_id":"levelo_inurba_marseille","lat":43.29004,"lon":5.35608,"is_reserved":false,"is_disabled":true,"rental_uris":{"android":"levelo://app?vid=a6b8c5d1-0194-4497-b505-a51fde692143","ios":"levelo://app?vid=a6b8c5d1-0194-4497-b505-a51fde692143"},"vehicle_type_id":"4","last_reported":1735841553,"current_range_meters":0,"station_id":"ce4bhb92rcd13ifvqen0","pricing_plan_id":"cebpf4jnsgd1na2vs0mg"},{"bike_id":"17610682-d58a-440a-b1ad-5839744809d6","system_id":"levelo_inurba_marseille","lat":43.28418,"lon":5.37514,"is_reserved":false,"is_disabled":true,"rental_uris":{"android":"levelo://app?vid=17610682-d58a-440a-b1ad-5839744809d6","ios":"levelo://app?vid=17610682-d58a-440a-b1ad-5839744809d6"},"vehicle_type_id":"4","last_reported":1735841553,"current_range_meters":2000,"station_id":"ce4bh412rcd13ifvqds0","pricing_plan_id":"cebpf4jnsgd1na2vs0mg"},{"bike_id":"56bdb422-1fba-40c6-a561-4149646c6440","system_id":"levelo_inurba_marseille","lat":43.30311,"lon":5.39232,"is_reserved":false,"is_disabled":false,"rental_uris":{"android":"levelo://app?vid=56bdb422-1fba-40c6-a561-4149646c6440","ios":"levelo://app?vid=56bdb422-1fba-40c6-a561-4149646c6440"},"vehicle_type_id":"4","last_reported":1735841553,"current_range_meters":12000,"station_id":"ce4bgkh2rcd13ifvqbk0","pricing_plan_id":"cebpf4jnsgd1na2vs0mg"},{"bike_id":"62d408d0-e0fd-421c-8a1a-168ab701b6d1","system_id":"levelo_inurba_marseille","lat":43.28609,"lon":5.35123,"is_reserved":false,"is_disabled":false,"rental_uris":{"android":"levelo://app?vid=62d408d0-e0fd-421c-8a1a-168ab701b6d1","ios":"levelo://app?vid=62d408d0-e0fd-421c-8a1a-168ab701b6d1"},"vehicle_type_id":"4","last_reported":1735841553,"current_range_meters":24400,"station_id":"ce4bhch2rcd13ifvqeug","pricing_plan_id":"cebpf4jnsgd1na2vs0mg"},{"bike_id":"a953f6ba-d779-401c-85a9-1469d6c329eb","system_id":"levelo_inurba_marseille","lat":43.28687,"lon":5.38676,"is_reserved":false,"is_disabled":false,"rental_uris":{"android":"levelo://app?vid=a953f6ba-d779-401c-85a9-1469d6c329eb","ios":"levelo://app?vid=a953f6ba-d779-401c-85a9-1469d6c329eb"},"vehicle_type_id":"4","last_reported":1735841553,"current_range_meters":27600,"station_id":"ce4bh492rcd13ifvqdug","pricing_plan_id":"cebpf4jnsgd1na2vs0mg"},{"bike_id":"61145c38-69e6-40aa-98ce-2e37c606abcc","system_id":"levelo_inurba_marseille","lat":43.2953,"lon":5.38554,"is_reserved":false,"is_disabled":false,"rental_uris":{"android":"levelo://app?vid=61145c38-69e6-40aa-98ce-2e37c606abcc","ios":"levelo://app?vid=61145c38-69e6-40aa-98ce-2e37c606abcc"},"vehicle_type_id":"4","last_reported":1735841553,"current_range_meters":38000,"station_id":"ce4bgih2rcd13ifvqba0","pricing_plan_id":"cebpf4jnsgd1na2vs0mg"},{"bike_id":"56f472aa-6acc-47d3-ada3-27f6fe447e34","system_id":"levelo_inurba_marseille","lat":43.28109,"lon":5.37844,"is_reserved":false,"is_disabled":false,"rental_uris":{"android":"levelo://app?vid=56f472aa-6acc-47d3-ada3-27f6fe447e34","ios":"levelo://app?vid=56f472aa-6acc-47d3-ada3-27f6fe447e34"},"vehicle_type_id":"4","last_reported":1735841553,"current_range_meters":20000,"station_id":"ce4bha12rcd13ifvqee0","pricing_plan_id":"cebpf4jnsgd1na2vs0mg"},{"bike_id":"dee78109-84f9-41f0-908a-d3712b287174","system_id":"levelo_inurba_marseille","lat":43.29621,"lon":5.37723,"is_reserved":false,"is_disabled":false,"rental_uris":{"android":"levelo://app?vid=dee78109-84f9-41f0-908a-d3712b287174","ios":"levelo://app?vid=dee78109-84f9-41f0-908a-d3712b287174"},"vehicle_type_id":"4","last_reported":1735841553,"current_range_meters":31200,"station_id":"ce4bgi92rcd13ifvqb90","pricing_plan_id":"cebpf4jnsgd1na2vs0mg"},{"bike_id":"c94d6d47-fa69-4353-b9fe-d0bce4038695","system_id":"levelo_inurba_marseille","lat":43.25119,"lon":5.40321,"is_reserved":false,"is_disabled":false,"rental_uris":{"android":"levelo://app?vid=c94d6d47-fa69-4353-b9fe-d0bce4038695","ios":"levelo://app?vid=c94d6d47-fa69-4353-b9fe-d0bce4038695"},"vehicle_type_id":"4","last_reported":1735841553,"current_range_meters":25200,"station_id":"ce4bhlh2rcd13ifvqgig","pricing_plan_id":"cebpf4jnsgd1na2vs0mg"},{"bike_id":"36b44304-4e81-43c8-b291-bd90ab2e4e78","system_id":"levelo_inurba_marseille","lat":43.26799,"lon":5.39403,"is_reserved":false,"is_disabled":false,"rental_uris":{"android":"levelo://app?vid=36b44304-4e81-43c8-b291-bd90ab2e4e78","ios":"levelo://app?vid=36b44304-4e81-43c8-b291-bd90ab2e4e78"},"vehicle_type_id":"4","last_reported":1735841553,"current_range_meters":28800,"station_id":"ce4bhh12rcd13ifvqfg0","pricing_plan_id":"cebpf4jnsgd1na2vs0mg"},{"bike_id":"b1650b6b-8edc-4f81-a3ba-94700ac4cc56","system_id":"levelo_inurba_marseille","lat":43.3169,"lon":5.40456,"is_reserved":false,"is_disabled":false,"rental_uris":{"android":"levelo://app?vid=b1650b6b-8edc-4f81-a3ba-94700ac4cc56","ios":"levelo://app?vid=b1650b6b-8edc-4f81-a3ba-94700ac4cc56"},"vehicle_type_id":"4","last_reported":1735841553,"current_range_meters":39200,"station_id":"ce4bh012rcd13ifvqd00","pricing_plan_id":"cebpf4jnsgd1na2vs0mg"},{"bike_id":"6ed3fdbb-b150-4868-b3fe-dcf7dbba80db","system_id":"levelo_inurba_marseille","lat":43.27319,"lon":5.39107,"is_reserved":false,"is_disabled":false,"rental_uris":{"android":"levelo://app?vid=6ed3fdbb-b150-4868-b3fe-dcf7dbba80db","ios":"levelo://app?vid=6ed3fdbb-b150-4868-b3fe-dcf7dbba80db"},"vehicle_type_id":"4","last_reported":1735841553,"current_range_meters":27600,"station_id":"ce4bhgp2rcd13ifvqfe0","pricing_plan_id":"cebpf4jnsgd1na2vs0mg"},{"bike_id":"ee0d261b-56e7-4c74-8b7b-dab7dc05cba9","system_id":"levelo_inurba_marseille","lat":43.29521,"lon":5.39408,"is_reserved":false,"is_disabled":false,"rental_uris":{"android":"levelo://app?vid=ee0d261b-56e7-4c74-8b7b-dab7dc05cba9","ios":"levelo://app?vid=ee0d261b-56e7-4c74-8b7b-dab7dc05cba9"},"vehicle_type_id":"4","last_reported":1735841553,"current_range_meters":29600,"station_id":"ce4bh292rcd13ifvqdf0","pricing_plan_id":"cebpf4jnsgd1na2vs0mg"},{"bike_id":"25c73ff4-b516-4ca7-9e8d-cb16f8cf8ef6","system_id":"levelo_inurba_marseille","lat":43.24065,"lon":5.37755,"is_reserved":false,"is_disabled":false,"rental_uris":{"android":"levelo://app?vid=25c73ff4-b516-4ca7-9e8d-cb16f8cf8ef6","ios":"levelo://app?vid=25c73ff4-b516-4ca7-9e8d-cb16f8cf8ef6"},"vehicle_type_id":"4","last_reported":1735841553,"current_range_meters":38800,"station_id":"ce4bhnp2rcd13ifvqgvg","pricing_plan_id":"cebpf4jnsgd1na2vs0mg"},{"bike_id":"f102d633-29e9-4295-ad76-a1e2a9694a93","system_id":"levelo_inurba_marseille","lat":43.29014,"lon":5.38623,"is_reserved":false,"is_disabled":false,"rental_uris":{"android":"levelo://app?vid=f102d633-29e9-4295-ad76-a1e2a9694a93","ios":"levelo://app?vid=f102d633-29e9-4295-ad76-a1e2a9694a93"},"vehicle_type_id":"4","last_reported":1735841553,"current_range_meters":39200,"station_id":"ce4bh4p2rcd13ifvqe0g","pricing_plan_id":"cebpf4jnsgd1na2vs0mg"},{"bike_id":"7ae518aa-f0ce-47ad-bd22-43661bc4e52f","system_id":"levelo_inurba_marseille","lat":43.29806,"lon":5.38102,"is_reserved":false,"is_disabled":false,"rental_uris":{"android":"levelo://app?vid=7ae518aa-f0ce-47ad-bd22-43661bc4e52f","ios":"levelo://app?vid=7ae518aa-f0ce-47ad-bd22-43661bc4e52f"},"vehicle_type_id":"4","last_reported":1735841553,"current_range_meters":33600,"station_id":"ce4bgip2rcd13ifvqbb0","pricing_plan_id":"cebpf4jnsgd1na2vs0mg"},{"bike_id":"68e8ba49-ace1-4911-8592-6dd4b6589007","system_id":"levelo_inurba_marseille","lat":43.31073,"lon":5.38358,"is_reserved":false,"is_disabled":false,"rental_uris":{"android":"levelo://app?vid=68e8ba49-ace1-4911-8592-6dd4b6589007","ios":"levelo://app?vid=68e8ba49-ace1-4911-8592-6dd4b6589007"},"vehicle_type_id":"4","last_reported":1735841553,"current_range_meters":30800,"station_id":"ce4bgv92rcd13ifvqcr0","pricing_plan_id":"cebpf4jnsgd1na2vs0mg"},{"bike_id":"e618fc4c-10a4-4d27-a564-7804cf94ac8c","system_id":"levelo_inurba_marseille","lat":43.29258,"lon":5.38434,"is_reserved":false,"is_disabled":false,"rental_uris":{"android":"levelo://app?vid=e618fc4c-10a4-4d27-a564-7804cf94ac8c","ios":"levelo://app?vid=e618fc4c-10a4-4d27-a564-7804cf94ac8c"},"vehicle_type_id":"4","last_reported":1735841553,"current_range_meters":18000,"station_id":"ce4bh692rcd13ifvqea0","pricing_plan_id":"cebpf4jnsgd1na2vs0mg"},{"bike_id":"a6f828f1-5f97-4da7-bf33-7d48a155db3e","system_id":"levelo_inurba_marseille","lat":43.27834,"lon":5.39202,"is_reserved":false,"is_disabled":false,"rental_uris":{"android":"levelo://app?vid=a6f828f1-5f97-4da7-bf33-7d48a155db3e","ios":"levelo://app?vid=a6f828f1-5f97-4da7-bf33-7d48a155db3e"},"vehicle_type_id":"4","last_reported":1735841553,"current_range_meters":35200,"station_id":"ce4bhjp2rcd13ifvqga0","pricing_plan_id":"cebpf4jnsgd1na2vs0mg"},{"bike_id":"59abb303-3e7c-49ef-b3cf-c47042a75f5c","system_id":"levelo_inurba_marseille","lat":43.30534,"lon":5.36698,"is_reserved":false,"is_disabled":false,"rental_uris":{"android":"levelo://app?vid=59abb303-3e7c-49ef-b3cf-c47042a75f5c","ios":"levelo://app?vid=59abb303-3e7c-49ef-b3cf-c47042a75f5c"},"vehicle_type_id":"4","last_reported":1735841553,"current_range_meters":38800,"station_id":"ce4bgrp2rcd13ifvqc9g","pricing_plan_id":"cebpf4jnsgd1na2vs0mg"},{"bike_id":"bf9445a2-922e-4fb3-ae85-42b7dcb8df87","system_id":"levelo_inurba_marseille","lat":43.30146,"lon":5.37419,"is_reserved":false,"is_disabled":false,"rental_uris":{"android":"levelo://app?vid=bf9445a2-922e-4fb3-ae85-42b7dcb8df87","ios":"levelo://app?vid=bf9445a2-922e-4fb3-ae85-42b7dcb8df87"},"vehicle_type_id":"4","last_reported":1735841553,"current_range_meters":38400,"station_id":"ce4bgs92rcd13ifvqcc0","pricing_plan_id":"cebpf4jnsgd1na2vs0mg"},{"bike_id":"f20c015a-0ed9-41c9-b102-c68f5f84fd52","system_id":"levelo_inurba_marseille","lat":43.29531,"lon":5.3854,"is_reserved":false,"is_disabled":false,"rental_uris":{"android":"levelo://app?vid=f20c015a-0ed9-41c9-b102-c68f5f84fd52","ios":"levelo://app?vid=f20c015a-0ed9-41c9-b102-c68f5f84fd52"},"vehicle_type_id":"4","last_reported":1735841553,"current_range_meters":38800,"station_id":"ce4bgih2rcd13ifvqba0","pricing_plan_id":"cebpf4jnsgd1na2vs0mg"},{"bike_id":"0d22c007-f5b2-4481-9b21-08f35f061702","system_id":"levelo_inurba_marseille","lat":43.29616,"lon":5.37164,"is_reserved":false,"is_disabled":true,"rental_uris":{"android":"levelo://app?vid=0d22c007-f5b2-4481-9b21-08f35f061702","ios":"levelo://app?vid=0d22c007-f5b2-4481-9b21-08f35f061702"},"vehicle_type_id":"4","last_reported":1735841553,"current_range_meters":0,"station_id":"ce4bgnh2rcd13ifvqc0g","pricing_plan_id":"cebpf4jnsgd1na2vs0mg"},{"bike_id":"a4f49449-71df-4edf-82eb-2fee00faea11","system_id":"levelo_inurba_marseille","lat":43.28671,"lon":5.38687,"is_reserved":false,"is_disabled":false,"rental_uris":{"android":"levelo://app?vid=a4f49449-71df-4edf-82eb-2fee00faea11","ios":"levelo://app?vid=a4f49449-71df-4edf-82eb-2fee00faea11"},"vehicle_type_id":"4","last_reported":1735841553,"current_range_meters":3200,"station_id":"ce4bh492rcd13ifvqdug","pricing_plan_id":"cebpf4jnsgd1na2vs0mg"},{"bike_id":"924beefc-7f17-496a-b7df-d11950357e09","system_id":"levelo_inurba_marseille","lat":43.2902,"lon":5.38625,"is_reserved":false,"is_disabled":false,"rental_uris":{"android":"levelo://app?vid=924beefc-7f17-496a-b7df-d11950357e09","ios":"levelo://app?vid=924beefc-7f17-496a-b7df-d11950357e09"},"vehicle_type_id":"4","last_reported":1735841553,"current_range_meters":18000,"station_id":"ce4bh4p2rcd13ifvqe0g","pricing_plan_id":"cebpf4jnsgd1na2vs0mg"},{"bike_id":"b36d0aa9-35b5-4ab6-b66b-656e8883a3a5","system_id":"levelo_inurba_marseille","lat":43.29533,"lon":5.39037,"is_reserved":false,"is_disabled":false,"rental_uris":{"android":"levelo://app?vid=b36d0aa9-35b5-4ab6-b66b-656e8883a3a5","ios":"levelo://app?vid=b36d0aa9-35b5-4ab6-b66b-656e8883a3a5"},"vehicle_type_id":"4","last_reported":1735841553,"current_range_meters":10800,"station_id":"ce4bh3p2rcd13ifvqdp0","pricing_plan_id":"cebpf4jnsgd1na2vs0mg"},{"bike_id":"216ae330-dfd1-48ab-b413-8516d8b96dbe","system_id":"levelo_inurba_marseille","lat":43.23281,"lon":5.37213,"is_reserved":false,"is_disabled":false,"rental_uris":{"android":"levelo://app?vid=216ae330-dfd1-48ab-b413-8516d8b96dbe","ios":"levelo://app?vid=216ae330-dfd1-48ab-b413-8516d8b96dbe"},"vehicle_type_id":"4","last_reported":1735841553,"current_range_meters":11200,"station_id":"","pricing_plan_id":"cebpf4jnsgd1na2vs0mg"},{"bike_id":"451bbe4b-fbe8-4767-901c-92a916d89bc8","system_id":"levelo_inurba_marseille","lat":43.27416,"lon":5.39409,"is_reserved":false,"is_disabled":false,"rental_uris":{"android":"levelo://app?vid=451bbe4b-fbe8-4767-901c-92a916d89bc8","ios":"levelo://app?vid=451bbe4b-fbe8-4767-901c-92a916d89bc8"},"vehicle_type_id":"4","last_reported":1735841553,"current_range_meters":38000,"station_id":"ce4bhdp2rcd13ifvqf20","pricing_plan_id":"cebpf4jnsgd1na2vs0mg"},{"bike_id":"f811a98b-9aa7-419d-8e74-1c4088ab1bbc","system_id":"levelo_inurba_marseille","lat":43.2707,"lon":5.42281,"is_reserved":false,"is_disabled":false,"rental_uris":{"android":"levelo://app?vid=f811a98b-9aa7-419d-8e74-1c4088ab1bbc","ios":"levelo://app?vid=f811a98b-9aa7-419d-8e74-1c4088ab1bbc"},"vehicle_type_id":"4","last_reported":1735841553,"current_range_meters":27600,"station_id":"ce4bhk92rcd13ifvqgb0","pricing_plan_id":"cebpf4jnsgd1na2vs0mg"},{"bike_id":"8f236aa0-69d9-4777-af98-8397a0b1ff94","system_id":"levelo_inurba_marseille","lat":43.28155,"lon":5.42634,"is_reserved":false,"is_disabled":true,"rental_uris":{"android":"levelo://app?vid=8f236aa0-69d9-4777-af98-8397a0b1ff94","ios":"levelo://app?vid=8f236aa0-69d9-4777-af98-8397a0b1ff94"},"vehicle_type_id":"4","last_reported":1735841553,"current_range_meters":8800,"station_id":"ce4bhnh2rcd13ifvqgug","pricing_plan_id":"cebpf4jnsgd1na2vs0mg"},{"bike_id":"77219e2c-6b35-4634-aad9-c10b435669fd","system_id":"levelo_inurba_marseille","lat":43.32346,"lon":5.38889,"is_reserved":false,"is_disabled":false,"rental_uris":{"android":"levelo://app?vid=77219e2c-6b35-4634-aad9-c10b435669fd","ios":"levelo://app?vid=77219e2c-6b35-4634-aad9-c10b435669fd"},"vehicle_type_id":"4","last_reported":1735841553,"current_range_meters":24400,"station_id":"ce4bhqp2rcd13ifvqhog","pricing_plan_id":"cebpf4jnsgd1na2vs0mg"},{"bike_id":"8e936699-fb94-4c05-a18e-6a31521ab968","system_id":"levelo_inurba_marseille","lat":43.2846,"lon":5.35889,"is_reserved":false,"is_disabled":false,"rental_uris":{"android":"levelo://app?vid=8e936699-fb94-4c05-a18e-6a31521ab968","ios":"levelo://app?vid=8e936699-fb94-4c05-a18e-6a31521ab968"},"vehicle_type_id":"4","last_reported":1735841553,"current_range_meters":38400,"station_id":"ce4bhah2rcd13ifvqei0","pricing_plan_id":"cebpf4jnsgd1na2vs0mg"},{"bike_id":"8fd41660-9f08-4b00-98ad-83838f12a0e9","system_id":"levelo_inurba_marseille","lat":43.29612,"lon":5.38064,"is_reserved":false,"is_disabled":false,"rental_uris":{"android":"levelo://app?vid=8fd41660-9f08-4b00-98ad-83838f12a0e9","ios":"levelo://app?vid=8fd41660-9f08-4b00-98ad-83838f12a0e9"},"vehicle_type_id":"4","last_reported":1735841553,"current_range_meters":28400,"station_id":"ce4bgl12rcd13ifvqbo0","pricing_plan_id":"cebpf4jnsgd1na2vs0mg"},{"bike_id":"d9039fb6-1526-43a5-ab47-bf6c74051347","system_id":"levelo_inurba_marseille","lat":43.28168,"lon":5.4265,"is_reserved":false,"is_disabled":true,"rental_uris":{"android":"levelo://app?vid=d9039fb6-1526-43a5-ab47-bf6c74051347","ios":"levelo://app?vid=d9039fb6-1526-43a5-ab47-bf6c74051347"},"vehicle_type_id":"4","last_reported":1735841553,"current_range_meters":800,"station_id":"ce4bhnh2rcd13ifvqgug","pricing_plan_id":"cebpf4jnsgd1na2vs0mg"},{"bike_id":"b75425bf-1cd6-4844-ab47-bc3c836e9525","system_id":"levelo_inurba_marseille","lat":43.28038,"lon":5.36948,"is_reserved":false,"is_disabled":false,"rental_uris":{"android":"levelo://app?vid=b75425bf-1cd6-4844-ab47-bc3c836e9525","ios":"levelo://app?vid=b75425bf-1cd6-4844-ab47-bc3c836e9525"},"vehicle_type_id":"4","last_reported":1735841553,"current_range_meters":38400,"station_id":"ce4bha12rcd13ifvqef0","pricing_plan_id":"cebpf4jnsgd1na2vs0mg"},{"bike_id":"7f2f74bf-a86a-47e5-8eab-727e731613d7","system_id":"levelo_inurba_marseille","lat":43.28463,"lon":5.38408,"is_reserved":false,"is_disabled":false,"rental_uris":{"android":"levelo://app?vid=7f2f74bf-a86a-47e5-8eab-727e731613d7","ios":"levelo://app?vid=7f2f74bf-a86a-47e5-8eab-727e731613d7"},"vehicle_type_id":"4","last_reported":1735841553,"current_range_meters":34000,"station_id":"ce4bh512rcd13ifvqe3g","pricing_plan_id":"cebpf4jnsgd1na2vs0mg"},{"bike_id":"65c7064d-258e-4f50-8bbc-b2187209a0c7","system_id":"levelo_inurba_marseille","lat":43.29257,"lon":5.38435,"is_reserved":false,"is_disabled":false,"rental_uris":{"android":"levelo://app?vid=65c7064d-258e-4f50-8bbc-b2187209a0c7","ios":"levelo://app?vid=65c7064d-258e-4f50-8bbc-b2187209a0c7"},"vehicle_type_id":"4","last_reported":1735841553,"current_range_meters":10000,"station_id":"ce4bh692rcd13ifvqea0","pricing_plan_id":"cebpf4jnsgd1na2vs0mg"},{"bike_id":"022d826a-d31d-48ef-b07e-f8dd0ceaa746","system_id":"levelo_inurba_marseille","lat":43.24996,"lon":5.38935,"is_reserved":false,"is_disabled":false,"rental_uris":{"android":"levelo://app?vid=022d826a-d31d-48ef-b07e-f8dd0ceaa746","ios":"levelo://app?vid=022d826a-d31d-48ef-b07e-f8dd0ceaa746"},"vehicle_type_id":"4","last_reported":1735841553,"current_range_meters":27200,"station_id":"ce4bhgp2rcd13ifvqfd0","pricing_plan_id":"cebpf4jnsgd1na2vs0mg"},{"bike_id":"70ee4478-ac87-44ac-9629-260ae42c0798","system_id":"levelo_inurba_marseille","lat":43.30304,"lon":5.39225,"is_reserved":false,"is_disabled":false,"rental_uris":{"android":"levelo://app?vid=70ee4478-ac87-44ac-9629-260ae42c0798","ios":"levelo://app?vid=70ee4478-ac87-44ac-9629-260ae42c0798"},"vehicle_type_id":"4","last_reported":1735841553,"current_range_meters":36400,"station_id":"ce4bgkh2rcd13ifvqbk0","pricing_plan_id":"cebpf4jnsgd1na2vs0mg"},{"bike_id":"5f97eee1-4bb9-43f4-8e6e-a0b21a58fdc8","system_id":"levelo_inurba_marseille","lat":43.31889,"lon":5.40736,"is_reserved":false,"is_disabled":false,"rental_uris":{"android":"levelo://app?vid=5f97eee1-4bb9-43f4-8e6e-a0b21a58fdc8","ios":"levelo://app?vid=5f97eee1-4bb9-43f4-8e6e-a0b21a58fdc8"},"vehicle_type_id":"4","last_reported":1735841553,"current_range_meters":37600,"station_id":"ce4bhq12rcd13ifvqhig","pricing_plan_id":"cebpf4jnsgd1na2vs0mg"},{"bike_id":"9c975c47-5371-4921-b2e9-5b31b3588bc1","system_id":"levelo_inurba_marseille","lat":43.29269,"lon":5.3844,"is_reserved":false,"is_disabled":false,"rental_uris":{"android":"levelo://app?vid=9c975c47-5371-4921-b2e9-5b31b3588bc1","ios":"levelo://app?vid=9c975c47-5371-4921-b2e9-5b31b3588bc1"},"vehicle_type_id":"4","last_reported":1735841553,"current_range_meters":39200,"station_id":"ce4bh692rcd13ifvqea0","pricing_plan_id":"cebpf4jnsgd1na2vs0mg"},{"bike_id":"2ff07e1e-bc5a-4742-97da-c3ff1c19ed9c","system_id":"levelo_inurba_marseille","lat":43.2931,"lon":5.37461,"is_reserved":false,"is_disabled":false,"rental_uris":{"android":"levelo://app?vid=2ff07e1e-bc5a-4742-97da-c3ff1c19ed9c","ios":"levelo://app?vid=2ff07e1e-bc5a-4742-97da-c3ff1c19ed9c"},"vehicle_type_id":"4","last_reported":1735841553,"current_range_meters":10800,"station_id":"ce4bgi12rcd13ifvqb70","pricing_plan_id":"cebpf4jnsgd1na2vs0mg"},{"bike_id":"cb463b1c-2e27-475d-af4b-2a476e81130e","system_id":"levelo_inurba_marseille","lat":43.28266,"lon":5.35061,"is_reserved":false,"is_disabled":false,"rental_uris":{"android":"levelo://app?vid=cb463b1c-2e27-475d-af4b-2a476e81130e","ios":"levelo://app?vid=cb463b1c-2e27-475d-af4b-2a476e81130e"},"vehicle_type_id":"4","last_reported":1735841553,"current_range_meters":17600,"station_id":"ce4bhbp2rcd13ifvqerg","pricing_plan_id":"cebpf4jnsgd1na2vs0mg"},{"bike_id":"c4fbcc42-103d-43d3-9aa5-668ce19a2a39","system_id":"levelo_inurba_marseille","lat":43.29096,"lon":5.3812,"is_reserved":false,"is_disabled":false,"rental_uris":{"android":"levelo://app?vid=c4fbcc42-103d-43d3-9aa5-668ce19a2a39","ios":"levelo://app?vid=c4fbcc42-103d-43d3-9aa5-668ce19a2a39"},"vehicle_type_id":"4","last_reported":1735841553,"current_range_meters":10800,"station_id":"ce4bh512rcd13ifvqe2g","pricing_plan_id":"cebpf4jnsgd1na2vs0mg"},{"bike_id":"33dc37c8-ad31-4bbb-a502-8ad8309bfdd3","system_id":"levelo_inurba_marseille","lat":43.29892,"lon":5.43667,"is_reserved":false,"is_disabled":false,"rental_uris":{"android":"levelo://app?vid=33dc37c8-ad31-4bbb-a502-8ad8309bfdd3","ios":"levelo://app?vid=33dc37c8-ad31-4bbb-a502-8ad8309bfdd3"},"vehicle_type_id":"4","last_reported":1735841553,"current_range_meters":38800,"station_id":"ce4bhpp2rcd13ifvqhfg","pricing_plan_id":"cebpf4jnsgd1na2vs0mg"},{"bike_id":"375263f7-8be8-4e9c-8273-54301f8efcdc","system_id":"levelo_inurba_marseille","lat":43.28162,"lon":5.42643,"is_reserved":false,"is_disabled":false,"rental_uris":{"android":"levelo://app?vid=375263f7-8be8-4e9c-8273-54301f8efcdc","ios":"levelo://app?vid=375263f7-8be8-4e9c-8273-54301f8efcdc"},"vehicle_type_id":"4","last_reported":1735841553,"current_range_meters":8400,"station_id":"ce4bhnh2rcd13ifvqgug","pricing_plan_id":"cebpf4jnsgd1na2vs0mg"},{"bike_id":"d0030ff6-f8b3-4b75-bb9b-f2175ff4ca9d","system_id":"levelo_inurba_marseille","lat":43.24059,"lon":5.37745,"is_reserved":false,"is_disabled":false,"rental_uris":{"android":"levelo://app?vid=d0030ff6-f8b3-4b75-bb9b-f2175ff4ca9d","ios":"levelo://app?vid=d0030ff6-f8b3-4b75-bb9b-f2175ff4ca9d"},"vehicle_type_id":"4","last_reported":1735841553,"current_range_meters":38800,"station_id":"ce4bhnp2rcd13ifvqgvg","pricing_plan_id":"cebpf4jnsgd1na2vs0mg"},{"bike_id":"9d3fc8c9-2a30-46f6-a17d-7e1c0cdaa39c","system_id":"levelo_inurba_marseille","lat":43.29786,"lon":5.38088,"is_reserved":false,"is_disabled":false,"rental_uris":{"android":"levelo://app?vid=9d3fc8c9-2a30-46f6-a17d-7e1c0cdaa39c","ios":"levelo://app?vid=9d3fc8c9-2a30-46f6-a17d-7e1c0cdaa39c"},"vehicle_type_id":"4","last_reported":1735841553,"current_range_meters":36400,"station_id":"ce4bgip2rcd13ifvqbb0","pricing_plan_id":"cebpf4jnsgd1na2vs0mg"},{"bike_id":"288df3f3-407a-4ba2-b112-c5ead5bfabe0","system_id":"levelo_inurba_marseille","lat":43.29,"lon":5.35612,"is_reserved":false,"is_disabled":true,"rental_uris":{"android":"levelo://app?vid=288df3f3-407a-4ba2-b112-c5ead5bfabe0","ios":"levelo://app?vid=288df3f3-407a-4ba2-b112-c5ead5bfabe0"},"vehicle_type_id":"4","last_reported":1735841553,"current_range_meters":38400,"station_id":"ce4bhb92rcd13ifvqen0","pricing_plan_id":"cebpf4jnsgd1na2vs0mg"},{"bike_id":"d7dd4655-727f-4539-a0c9-24644492b966","system_id":"levelo_inurba_marseille","lat":43.241739,"lon":5.39733,"is_reserved":false,"is_disabled":false,"rental_uris":{"android":"levelo://app?vid=d7dd4655-727f-4539-a0c9-24644492b966","ios":"levelo://app?vid=d7dd4655-727f-4539-a0c9-24644492b966"},"vehicle_type_id":"4","last_reported":1735841553,"current_range_meters":38800,"station_id":"ce4bhn12rcd13ifvqgpg","pricing_plan_id":"cebpf4jnsgd1na2vs0mg"},{"bike_id":"e147a7b3-9e94-4f33-a9e2-8b559e074ee3","system_id":"levelo_inurba_marseille","lat":43.2794,"lon":5.41035,"is_reserved":false,"is_disabled":false,"rental_uris":{"android":"levelo://app?vid=e147a7b3-9e94-4f33-a9e2-8b559e074ee3","ios":"levelo://app?vid=e147a7b3-9e94-4f33-a9e2-8b559e074ee3"},"vehicle_type_id":"4","last_reported":1735841553,"current_range_meters":27200,"station_id":"ce4bhnp2rcd13ifvqh0g","pricing_plan_id":"cebpf4jnsgd1na2vs0mg"},{"bike_id":"df4442c2-98ea-45f1-acd1-a238ca2aaec0","system_id":"levelo_inurba_marseille","lat":43.26678,"lon":5.38263,"is_reserved":false,"is_disabled":false,"rental_uris":{"android":"levelo://app?vid=df4442c2-98ea-45f1-acd1-a238ca2aaec0","ios":"levelo://app?vid=df4442c2-98ea-45f1-acd1-a238ca2aaec0"},"vehicle_type_id":"4","last_reported":1735841553,"current_range_meters":38800,"station_id":"ce4bhg92rcd13ifvqf90","pricing_plan_id":"cebpf4jnsgd1na2vs0mg"},{"bike_id":"e7f232e6-9751-45f4-a24f-005b95d10947","system_id":"levelo_inurba_marseille","lat":43.29618,"lon":5.37703,"is_reserved":false,"is_disabled":true,"rental_uris":{"android":"levelo://app?vid=e7f232e6-9751-45f4-a24f-005b95d10947","ios":"levelo://app?vid=e7f232e6-9751-45f4-a24f-005b95d10947"},"vehicle_type_id":"4","last_reported":1735841553,"current_range_meters":1200,"station_id":"ce4bgi92rcd13ifvqb90","pricing_plan_id":"cebpf4jnsgd1na2vs0mg"},{"bike_id":"4cf49d06-d12a-4f67-a04c-da55d1b6d7b0","system_id":"levelo_inurba_marseille","lat":43.28105,"lon":5.3784,"is_reserved":false,"is_disabled":false,"rental_uris":{"android":"levelo://app?vid=4cf49d06-d12a-4f67-a04c-da55d1b6d7b0","ios":"levelo://app?vid=4cf49d06-d12a-4f67-a04c-da55d1b6d7b0"},"vehicle_type_id":"4","last_reported":1735841553,"current_range_meters":20000,"station_id":"ce4bha12rcd13ifvqee0","pricing_plan_id":"cebpf4jnsgd1na2vs0mg"},{"bike_id":"f3998a04-3b93-4948-8eb7-aa16047370fd","system_id":"levelo_inurba_marseille","lat":43.279559,"lon":5.410508,"is_reserved":false,"is_disabled":false,"rental_uris":{"android":"levelo://app?vid=f3998a04-3b93-4948-8eb7-aa16047370fd","ios":"levelo://app?vid=f3998a04-3b93-4948-8eb7-aa16047370fd"},"vehicle_type_id":"4","last_reported":1735841553,"current_range_meters":22800,"station_id":"ce4bhnp2rcd13ifvqh0g","pricing_plan_id":"cebpf4jnsgd1na2vs0mg"},{"bike_id":"1c5434c6-81cf-4ea8-9bf2-abfb41c12665","system_id":"levelo_inurba_marseille","lat":43.30884,"lon":5.37208,"is_reserved":false,"is_disabled":true,"rental_uris":{"android":"levelo://app?vid=1c5434c6-81cf-4ea8-9bf2-abfb41c12665","ios":"levelo://app?vid=1c5434c6-81cf-4ea8-9bf2-abfb41c12665"},"vehicle_type_id":"4","last_reported":1735841553,"current_range_meters":37600,"station_id":"ce4bguh2rcd13ifvqckg","pricing_plan_id":"cebpf4jnsgd1na2vs0mg"},{"bike_id":"bbb173c2-5fa6-4439-999a-e24a3ecc81ee","system_id":"levelo_inurba_marseille","lat":43.29543,"lon":5.42267,"is_reserved":false,"is_disabled":false,"rental_uris":{"android":"levelo://app?vid=bbb173c2-5fa6-4439-999a-e24a3ecc81ee","ios":"levelo://app?vid=bbb173c2-5fa6-4439-999a-e24a3ecc81ee"},"vehicle_type_id":"4","last_reported":1735841553,"current_range_meters":31200,"station_id":"ce4bhph2rcd13ifvqhdg","pricing_plan_id":"cebpf4jnsgd1na2vs0mg"},{"bike_id":"1a179dc3-f8e0-460a-82bb-c6968a20da94","system_id":"levelo_inurba_marseille","lat":43.30083,"lon":5.39062,"is_reserved":false,"is_disabled":false,"rental_uris":{"android":"levelo://app?vid=1a179dc3-f8e0-460a-82bb-c6968a20da94","ios":"levelo://app?vid=1a179dc3-f8e0-460a-82bb-c6968a20da94"},"vehicle_type_id":"4","last_reported":1735841553,"current_range_meters":27600,"station_id":"ce4bh192rcd13ifvqdb0","pricing_plan_id":"cebpf4jnsgd1na2vs0mg"},{"bike_id":"53ac8beb-1f18-4ded-9255-fba6a9f31f33","system_id":"levelo_inurba_marseille","lat":43.29045,"lon":5.38133,"is_reserved":false,"is_disabled":false,"rental_uris":{"android":"levelo://app?vid=53ac8beb-1f18-4ded-9255-fba6a9f31f33","ios":"levelo://app?vid=53ac8beb-1f18-4ded-9255-fba6a9f31f33"},"vehicle_type_id":"4","last_reported":1735841553,"current_range_meters":35600,"station_id":"ce4bh4p2rcd13ifvqe1g","pricing_plan_id":"cebpf4jnsgd1na2vs0mg"},{"bike_id":"e157af35-862f-4ff3-a971-0cec14143385","system_id":"levelo_inurba_marseille","lat":43.27937,"lon":5.41043,"is_reserved":false,"is_disabled":false,"rental_uris":{"android":"levelo://app?vid=e157af35-862f-4ff3-a971-0cec14143385","ios":"levelo://app?vid=e157af35-862f-4ff3-a971-0cec14143385"},"vehicle_type_id":"4","last_reported":1735841553,"current_range_meters":27200,"station_id":"ce4bhnp2rcd13ifvqh0g","pricing_plan_id":"cebpf4jnsgd1na2vs0mg"},{"bike_id":"a4828b82-6158-43c7-aedb-77476d918880","system_id":"levelo_inurba_marseille","lat":43.28622,"lon":5.35088,"is_reserved":false,"is_disabled":true,"rental_uris":{"android":"levelo://app?vid=a4828b82-6158-43c7-aedb-77476d918880","ios":"levelo://app?vid=a4828b82-6158-43c7-aedb-77476d918880"},"vehicle_type_id":"4","last_reported":1735841553,"current_range_meters":25600,"station_id":"ce4bhch2rcd13ifvqeug","pricing_plan_id":"cebpf4jnsgd1na2vs0mg"},{"bike_id":"43c64af5-9471-4260-89db-8ab112e03a32","system_id":"levelo_inurba_marseille","lat":43.27387,"lon":5.42578,"is_reserved":false,"is_disabled":false,"rental_uris":{"android":"levelo://app?vid=43c64af5-9471-4260-89db-8ab112e03a32","ios":"levelo://app?vid=43c64af5-9471-4260-89db-8ab112e03a32"},"vehicle_type_id":"4","last_reported":1735841553,"current_range_meters":11600,"station_id":"","pricing_plan_id":"cebpf4jnsgd1na2vs0mg"},{"bike_id":"aab95f4a-8936-4128-a3c4-5f9f8cdc46fb","system_id":"levelo_inurba_marseille","lat":43.29959,"lon":5.38502,"is_reserved":false,"is_disabled":false,"rental_uris":{"android":"levelo://app?vid=aab95f4a-8936-4128-a3c4-5f9f8cdc46fb","ios":"levelo://app?vid=aab95f4a-8936-4128-a3c4-5f9f8cdc46fb"},"vehicle_type_id":"4","last_reported":1735841553,"current_range_meters":24000,"station_id":"ce4bgj92rcd13ifvqbd0","pricing_plan_id":"cebpf4jnsgd1na2vs0mg"},{"bike_id":"bb7e0253-4de1-45a9-937a-dde49e321461","system_id":"levelo_inurba_marseille","lat":43.29872,"lon":5.39732,"is_reserved":false,"is_disabled":false,"rental_uris":{"android":"levelo://app?vid=bb7e0253-4de1-45a9-937a-dde49e321461","ios":"levelo://app?vid=bb7e0253-4de1-45a9-937a-dde49e321461"},"vehicle_type_id":"4","last_reported":1735841553,"current_range_meters":16400,"station_id":"ce4bh0h2rcd13ifvqd50","pricing_plan_id":"cebpf4jnsgd1na2vs0mg"},{"bike_id":"1ad449fd-a0f5-4eaf-a7f9-8f01ede6b725","system_id":"levelo_inurba_marseille","lat":43.28446,"lon":5.39198,"is_reserved":false,"is_disabled":false,"rental_uris":{"android":"levelo://app?vid=1ad449fd-a0f5-4eaf-a7f9-8f01ede6b725","ios":"levelo://app?vid=1ad449fd-a0f5-4eaf-a7f9-8f01ede6b725"},"vehicle_type_id":"4","last_reported":1735841553,"current_range_meters":30800,"station_id":"ce4bhoh2rcd13ifvqh5g","pricing_plan_id":"cebpf4jnsgd1na2vs0mg"},{"bike_id":"21c3fd71-6792-4d05-b2eb-440eaddccc32","system_id":"levelo_inurba_marseille","lat":43.28413,"lon":5.37519,"is_reserved":false,"is_disabled":true,"rental_uris":{"android":"levelo://app?vid=21c3fd71-6792-4d05-b2eb-440eaddccc32","ios":"levelo://app?vid=21c3fd71-6792-4d05-b2eb-440eaddccc32"},"vehicle_type_id":"4","last_reported":1735841553,"current_range_meters":0,"station_id":"ce4bh412rcd13ifvqds0","pricing_plan_id":"cebpf4jnsgd1na2vs0mg"},{"bike_id":"ab19117f-5bb6-45ca-80d6-df5d77d8dd7e","system_id":"levelo_inurba_marseille","lat":43.28431,"lon":5.34977,"is_reserved":false,"is_disabled":true,"rental_uris":{"android":"levelo://app?vid=ab19117f-5bb6-45ca-80d6-df5d77d8dd7e","ios":"levelo://app?vid=ab19117f-5bb6-45ca-80d6-df5d77d8dd7e"},"vehicle_type_id":"4","last_reported":1735841553,"current_range_meters":400,"station_id":"ce4bhbh2rcd13ifvqepg","pricing_plan_id":"cebpf4jnsgd1na2vs0mg"},{"bike_id":"0e4da931-c1cd-432c-831a-40cedf064cc3","system_id":"levelo_inurba_marseille","lat":43.26779,"lon":5.39419,"is_reserved":false,"is_disabled":false,"rental_uris":{"android":"levelo://app?vid=0e4da931-c1cd-432c-831a-40cedf064cc3","ios":"levelo://app?vid=0e4da931-c1cd-432c-831a-40cedf064cc3"},"vehicle_type_id":"4","last_reported":1735841553,"current_range_meters":19600,"station_id":"ce4bhh12rcd13ifvqfg0","pricing_plan_id":"cebpf4jnsgd1na2vs0mg"},{"bike_id":"1992d5e4-55ec-48e3-b1b4-629cf7035294","system_id":"levelo_inurba_marseille","lat":43.30432,"lon":5.38881,"is_reserved":false,"is_disabled":false,"rental_uris":{"android":"levelo://app?vid=1992d5e4-55ec-48e3-b1b4-629cf7035294","ios":"levelo://app?vid=1992d5e4-55ec-48e3-b1b4-629cf7035294"},"vehicle_type_id":"4","last_reported":1735841553,"current_range_meters":38800,"station_id":"ce4bgk12rcd13ifvqbi0","pricing_plan_id":"cebpf4jnsgd1na2vs0mg"},{"bike_id":"1d64e5d9-6db1-4098-b8df-bf1bbd653564","system_id":"levelo_inurba_marseille","lat":43.27364,"lon":5.36251,"is_reserved":false,"is_disabled":true,"rental_uris":{"android":"levelo://app?vid=1d64e5d9-6db1-4098-b8df-bf1bbd653564","ios":"levelo://app?vid=1d64e5d9-6db1-4098-b8df-bf1bbd653564"},"vehicle_type_id":"4","last_reported":1735841553,"current_range_meters":0,"station_id":"ce4bhbh2rcd13ifvqeo0","pricing_plan_id":"cebpf4jnsgd1na2vs0mg"},{"bike_id":"313a9a0d-cbde-465d-8a65-140655419224","system_id":"levelo_inurba_marseille","lat":43.255017,"lon":5.376753,"is_reserved":false,"is_disabled":false,"rental_uris":{"android":"levelo://app?vid=313a9a0d-cbde-465d-8a65-140655419224","ios":"levelo://app?vid=313a9a0d-cbde-465d-8a65-140655419224"},"vehicle_type_id":"4","last_reported":1735841553,"current_range_meters":38800,"station_id":"ce4bhh12rcd13ifvqff0","pricing_plan_id":"cebpf4jnsgd1na2vs0mg"},{"bike_id":"660aed1d-cdeb-4a3c-a6d4-d19ef9a2563b","system_id":"levelo_inurba_marseille","lat":43.29895,"lon":5.43673,"is_reserved":false,"is_disabled":false,"rental_uris":{"android":"levelo://app?vid=660aed1d-cdeb-4a3c-a6d4-d19ef9a2563b","ios":"levelo://app?vid=660aed1d-cdeb-4a3c-a6d4-d19ef9a2563b"},"vehicle_type_id":"4","last_reported":1735841553,"current_range_meters":38800,"station_id":"ce4bhpp2rcd13ifvqhfg","pricing_plan_id":"cebpf4jnsgd1na2vs0mg"},{"bike_id":"725999bb-8b32-4e5b-95fc-d63880a1b626","system_id":"levelo_inurba_marseille","lat":43.32649,"lon":5.409975,"is_reserved":false,"is_disabled":false,"rental_uris":{"android":"levelo://app?vid=725999bb-8b32-4e5b-95fc-d63880a1b626","ios":"levelo://app?vid=725999bb-8b32-4e5b-95fc-d63880a1b626"},"vehicle_type_id":"4","last_reported":1735841553,"current_range_meters":39200,"station_id":"ce4bhpp2rcd13ifvqhgg","pricing_plan_id":"cebpf4jnsgd1na2vs0mg"},{"bike_id":"2af79f06-2f41-443a-8c98-b554c72b55db","system_id":"levelo_inurba_marseille","lat":43.24805,"lon":5.37454,"is_reserved":false,"is_disabled":false,"rental_uris":{"android":"levelo://app?vid=2af79f06-2f41-443a-8c98-b554c72b55db","ios":"levelo://app?vid=2af79f06-2f41-443a-8c98-b554c72b55db"},"vehicle_type_id":"4","last_reported":1735841553,"current_range_meters":38800,"station_id":"ce4bhgh2rcd13ifvqfb0","pricing_plan_id":"cebpf4jnsgd1na2vs0mg"},{"bike_id":"52a03fe5-70da-4ffb-9e84-1d2cd36fbd3f","system_id":"levelo_inurba_marseille","lat":43.28447,"lon":5.39194,"is_reserved":false,"is_disabled":false,"rental_uris":{"android":"levelo://app?vid=52a03fe5-70da-4ffb-9e84-1d2cd36fbd3f","ios":"levelo://app?vid=52a03fe5-70da-4ffb-9e84-1d2cd36fbd3f"},"vehicle_type_id":"4","last_reported":1735841553,"current_range_meters":26000,"station_id":"ce4bhoh2rcd13ifvqh5g","pricing_plan_id":"cebpf4jnsgd1na2vs0mg"},{"bike_id":"a8b7a510-a7e7-4a7b-ad97-33f87bc14df9","system_id":"levelo_inurba_marseille","lat":43.31758,"lon":5.3901,"is_reserved":false,"is_disabled":false,"rental_uris":{"android":"levelo://app?vid=a8b7a510-a7e7-4a7b-ad97-33f87bc14df9","ios":"levelo://app?vid=a8b7a510-a7e7-4a7b-ad97-33f87bc14df9"},"vehicle_type_id":"4","last_reported":1735841553,"current_range_meters":35600,"station_id":"ce4bhqp2rcd13ifvqhng","pricing_plan_id":"cebpf4jnsgd1na2vs0mg"},{"bike_id":"ae7f5a15-7345-402e-a7c4-afd8065dacb8","system_id":"levelo_inurba_marseille","lat":43.3266,"lon":5.40997,"is_reserved":false,"is_disabled":false,"rental_uris":{"android":"levelo://app?vid=ae7f5a15-7345-402e-a7c4-afd8065dacb8","ios":"levelo://app?vid=ae7f5a15-7345-402e-a7c4-afd8065dacb8"},"vehicle_type_id":"4","last_reported":1735841553,"current_range_meters":23200,"station_id":"ce4bhpp2rcd13ifvqhgg","pricing_plan_id":"cebpf4jnsgd1na2vs0mg"},{"bike_id":"25f017e2-8427-4b69-9f0e-51f8f47d9a44","system_id":"levelo_inurba_marseille","lat":43.32536,"lon":5.41427,"is_reserved":false,"is_disabled":false,"rental_uris":{"android":"levelo://app?vid=25f017e2-8427-4b69-9f0e-51f8f47d9a44","ios":"levelo://app?vid=25f017e2-8427-4b69-9f0e-51f8f47d9a44"},"vehicle_type_id":"4","last_reported":1735841553,"current_range_meters":35600,"station_id":"ce4bhq12rcd13ifvqhhg","pricing_plan_id":"cebpf4jnsgd1na2vs0mg"},{"bike_id":"601c233c-4f4f-4237-a34f-152a39e61bd4","system_id":"levelo_inurba_marseille","lat":43.2929,"lon":5.37463,"is_reserved":false,"is_disabled":false,"rental_uris":{"android":"levelo://app?vid=601c233c-4f4f-4237-a34f-152a39e61bd4","ios":"levelo://app?vid=601c233c-4f4f-4237-a34f-152a39e61bd4"},"vehicle_type_id":"4","last_reported":1735841553,"current_range_meters":31200,"station_id":"ce4bgi12rcd13ifvqb70","pricing_plan_id":"cebpf4jnsgd1na2vs0mg"},{"bike_id":"85f66c35-cf00-496f-866f-ed1cc2019cfb","system_id":"levelo_inurba_marseille","lat":43.28095,"lon":5.37803,"is_reserved":false,"is_disabled":false,"rental_uris":{"android":"levelo://app?vid=85f66c35-cf00-496f-866f-ed1cc2019cfb","ios":"levelo://app?vid=85f66c35-cf00-496f-866f-ed1cc2019cfb"},"vehicle_type_id":"4","last_reported":1735841553,"current_range_meters":38400,"station_id":"ce4bha12rcd13ifvqee0","pricing_plan_id":"cebpf4jnsgd1na2vs0mg"},{"bike_id":"71d7fd86-ae0c-4b15-9ac5-1afdce815ed0","system_id":"levelo_inurba_marseille","lat":43.29872,"lon":5.39731,"is_reserved":false,"is_disabled":false,"rental_uris":{"android":"levelo://app?vid=71d7fd86-ae0c-4b15-9ac5-1afdce815ed0","ios":"levelo://app?vid=71d7fd86-ae0c-4b15-9ac5-1afdce815ed0"},"vehicle_type_id":"4","last_reported":1735841553,"current_range_meters":28400,"station_id":"ce4bh0h2rcd13ifvqd50","pricing_plan_id":"cebpf4jnsgd1na2vs0mg"},{"bike_id":"ec111443-7348-404c-b72e-17a3fbfb142f","system_id":"levelo_inurba_marseille","lat":43.26509,"lon":5.39546,"is_reserved":false,"is_disabled":false,"rental_uris":{"android":"levelo://app?vid=ec111443-7348-404c-b72e-17a3fbfb142f","ios":"levelo://app?vid=ec111443-7348-404c-b72e-17a3fbfb142f"},"vehicle_type_id":"4","last_reported":1735841553,"current_range_meters":39200,"station_id":"ce4bhi12rcd13ifvqfq0","pricing_plan_id":"cebpf4jnsgd1na2vs0mg"},{"bike_id":"4e2e926a-cc62-4529-8b24-3abbcf0f0be2","system_id":"levelo_inurba_marseille","lat":43.23193,"lon":5.35544,"is_reserved":false,"is_disabled":false,"rental_uris":{"android":"levelo://app?vid=4e2e926a-cc62-4529-8b24-3abbcf0f0be2","ios":"levelo://app?vid=4e2e926a-cc62-4529-8b24-3abbcf0f0be2"},"vehicle_type_id":"4","last_reported":1735841553,"current_range_meters":35600,"station_id":"ce4bhu92rcd13ifvqi70","pricing_plan_id":"cebpf4jnsgd1na2vs0mg"},{"bike_id":"4fb4f7d3-d096-4297-bfc4-15347bc71338","system_id":"levelo_inurba_marseille","lat":43.29445,"lon":5.43337,"is_reserved":false,"is_disabled":false,"rental_uris":{"android":"levelo://app?vid=4fb4f7d3-d096-4297-bfc4-15347bc71338","ios":"levelo://app?vid=4fb4f7d3-d096-4297-bfc4-15347bc71338"},"vehicle_type_id":"4","last_reported":1735841553,"current_range_meters":35200,"station_id":"","pricing_plan_id":"cebpf4jnsgd1na2vs0mg"},{"bike_id":"ee7da7e1-0487-4a7b-838f-676e9c820e80","system_id":"levelo_inurba_marseille","lat":43.30427,"lon":5.39729,"is_reserved":false,"is_disabled":true,"rental_uris":{"android":"levelo://app?vid=ee7da7e1-0487-4a7b-838f-676e9c820e80","ios":"levelo://app?vid=ee7da7e1-0487-4a7b-838f-676e9c820e80"},"vehicle_type_id":"4","last_reported":1735841553,"current_range_meters":36800,"station_id":"ce4bh092rcd13ifvqd20","pricing_plan_id":"cebpf4jnsgd1na2vs0mg"},{"bike_id":"1cb7c4ce-a676-4a0b-b386-7639ab6d33ff","system_id":"levelo_inurba_marseille","lat":43.25497,"lon":5.37651,"is_reserved":false,"is_disabled":false,"rental_uris":{"android":"levelo://app?vid=1cb7c4ce-a676-4a0b-b386-7639ab6d33ff","ios":"levelo://app?vid=1cb7c4ce-a676-4a0b-b386-7639ab6d33ff"},"vehicle_type_id":"4","last_reported":1735841553,"current_range_meters":21600,"station_id":"ce4bhh12rcd13ifvqff0","pricing_plan_id":"cebpf4jnsgd1na2vs0mg"},{"bike_id":"6143990e-f7e7-4500-846e-085b8e8441f3","system_id":"levelo_inurba_marseille","lat":43.25581,"lon":5.38233,"is_reserved":false,"is_disabled":false,"rental_uris":{"android":"levelo://app?vid=6143990e-f7e7-4500-846e-085b8e8441f3","ios":"levelo://app?vid=6143990e-f7e7-4500-846e-085b8e8441f3"},"vehicle_type_id":"4","last_reported":1735841553,"current_range_meters":36800,"station_id":"ce4bhih2rcd13ifvqfs0","pricing_plan_id":"cebpf4jnsgd1na2vs0mg"},{"bike_id":"e0b22adb-5abc-4e17-8c1a-6584292d6cca","system_id":"levelo_inurba_marseille","lat":43.26947,"lon":5.40229,"is_reserved":false,"is_disabled":false,"rental_uris":{"android":"levelo://app?vid=e0b22adb-5abc-4e17-8c1a-6584292d6cca","ios":"levelo://app?vid=e0b22adb-5abc-4e17-8c1a-6584292d6cca"},"vehicle_type_id":"4","last_reported":1735841553,"current_range_meters":38000,"station_id":"cjm6bp8fraef2m0cb0m0","pricing_plan_id":"cebpf4jnsgd1na2vs0mg"},{"bike_id":"a7c7c05f-d67b-4b61-bea5-04c88b75b2f9","system_id":"levelo_inurba_marseille","lat":43.295249,"lon":5.394021,"is_reserved":false,"is_disabled":false,"rental_uris":{"android":"levelo://app?vid=a7c7c05f-d67b-4b61-bea5-04c88b75b2f9","ios":"levelo://app?vid=a7c7c05f-d67b-4b61-bea5-04c88b75b2f9"},"vehicle_type_id":"4","last_reported":1735841553,"current_range_meters":38800,"station_id":"ce4bh292rcd13ifvqdf0","pricing_plan_id":"cebpf4jnsgd1na2vs0mg"},{"bike_id":"3815e6bf-fae6-4941-ab15-7c70eefa9203","system_id":"levelo_inurba_marseille","lat":43.29961,"lon":5.38493,"is_reserved":false,"is_disabled":false,"rental_uris":{"android":"levelo://app?vid=3815e6bf-fae6-4941-ab15-7c70eefa9203","ios":"levelo://app?vid=3815e6bf-fae6-4941-ab15-7c70eefa9203"},"vehicle_type_id":"4","last_reported":1735841553,"current_range_meters":16400,"station_id":"ce4bgj92rcd13ifvqbd0","pricing_plan_id":"cebpf4jnsgd1na2vs0mg"},{"bike_id":"a10cb38b-c0a9-46c5-81e3-8b36eafcdd96","system_id":"levelo_inurba_marseille","lat":43.28991,"lon":5.37841,"is_reserved":false,"is_disabled":true,"rental_uris":{"android":"levelo://app?vid=a10cb38b-c0a9-46c5-81e3-8b36eafcdd96","ios":"levelo://app?vid=a10cb38b-c0a9-46c5-81e3-8b36eafcdd96"},"vehicle_type_id":"4","last_reported":1735841553,"current_range_meters":36000,"station_id":"ce4bh9p2rcd13ifvqed0","pricing_plan_id":"cebpf4jnsgd1na2vs0mg"},{"bike_id":"a51ef497-d798-4f54-8e47-3f63c51137a0","system_id":"levelo_inurba_marseille","lat":43.30138,"lon":5.39883,"is_reserved":false,"is_disabled":true,"rental_uris":{"android":"levelo://app?vid=a51ef497-d798-4f54-8e47-3f63c51137a0","ios":"levelo://app?vid=a51ef497-d798-4f54-8e47-3f63c51137a0"},"vehicle_type_id":"4","last_reported":1735841553,"current_range_meters":0,"station_id":"ce4bh0h2rcd13ifvqd40","pricing_plan_id":"cebpf4jnsgd1na2vs0mg"},{"bike_id":"e86e8a6b-2981-4147-9bb2-a5ab92db9450","system_id":"levelo_inurba_marseille","lat":43.28149,"lon":5.42651,"is_reserved":false,"is_disabled":true,"rental_uris":{"android":"levelo://app?vid=e86e8a6b-2981-4147-9bb2-a5ab92db9450","ios":"levelo://app?vid=e86e8a6b-2981-4147-9bb2-a5ab92db9450"},"vehicle_type_id":"4","last_reported":1735841553,"current_range_meters":1600,"station_id":"ce4bhnh2rcd13ifvqgug","pricing_plan_id":"cebpf4jnsgd1na2vs0mg"},{"bike_id":"8d82c103-416d-43f3-b603-6e920a8a6725","system_id":"levelo_inurba_marseille","lat":43.29032,"lon":5.38649,"is_reserved":false,"is_disabled":false,"rental_uris":{"android":"levelo://app?vid=8d82c103-416d-43f3-b603-6e920a8a6725","ios":"levelo://app?vid=8d82c103-416d-43f3-b603-6e920a8a6725"},"vehicle_type_id":"4","last_reported":1735841553,"current_range_meters":24000,"station_id":"ce4bh4p2rcd13ifvqe0g","pricing_plan_id":"cebpf4jnsgd1na2vs0mg"},{"bike_id":"ec42df47-457f-458b-9cf2-f978b9870034","system_id":"levelo_inurba_marseille","lat":43.30146,"lon":5.39871,"is_reserved":false,"is_disabled":false,"rental_uris":{"android":"levelo://app?vid=ec42df47-457f-458b-9cf2-f978b9870034","ios":"levelo://app?vid=ec42df47-457f-458b-9cf2-f978b9870034"},"vehicle_type_id":"4","last_reported":1735841553,"current_range_meters":30800,"station_id":"ce4bh0h2rcd13ifvqd40","pricing_plan_id":"cebpf4jnsgd1na2vs0mg"},{"bike_id":"2cd38d47-946c-4499-b46a-b62a28b064e1","system_id":"levelo_inurba_marseille","lat":43.28431,"lon":5.39191,"is_reserved":false,"is_disabled":false,"rental_uris":{"android":"levelo://app?vid=2cd38d47-946c-4499-b46a-b62a28b064e1","ios":"levelo://app?vid=2cd38d47-946c-4499-b46a-b62a28b064e1"},"vehicle_type_id":"4","last_reported":1735841553,"current_range_meters":11600,"station_id":"ce4bhoh2rcd13ifvqh5g","pricing_plan_id":"cebpf4jnsgd1na2vs0mg"},{"bike_id":"5367a292-5564-4681-91cd-97babb89fc00","system_id":"levelo_inurba_marseille","lat":43.22931,"lon":5.35376,"is_reserved":false,"is_disabled":false,"rental_uris":{"android":"levelo://app?vid=5367a292-5564-4681-91cd-97babb89fc00","ios":"levelo://app?vid=5367a292-5564-4681-91cd-97babb89fc00"},"vehicle_type_id":"4","last_reported":1735841553,"current_range_meters":17200,"station_id":"cpo3532slgdg3j2ikp40","pricing_plan_id":"cebpf4jnsgd1na2vs0mg"},{"bike_id":"e40b8873-a7cf-4e56-b106-d515344f64c4","system_id":"levelo_inurba_marseille","lat":43.23197,"lon":5.35551,"is_reserved":false,"is_disabled":false,"rental_uris":{"android":"levelo://app?vid=e40b8873-a7cf-4e56-b106-d515344f64c4","ios":"levelo://app?vid=e40b8873-a7cf-4e56-b106-d515344f64c4"},"vehicle_type_id":"4","last_reported":1735841553,"current_range_meters":39200,"station_id":"ce4bhu92rcd13ifvqi70","pricing_plan_id":"cebpf4jnsgd1na2vs0mg"},{"bike_id":"6947a078-8c97-4b04-b443-1128ef976a39","system_id":"levelo_inurba_marseille","lat":43.28415,"lon":5.34993,"is_reserved":false,"is_disabled":false,"rental_uris":{"android":"levelo://app?vid=6947a078-8c97-4b04-b443-1128ef976a39","ios":"levelo://app?vid=6947a078-8c97-4b04-b443-1128ef976a39"},"vehicle_type_id":"4","last_reported":1735841553,"current_range_meters":3200,"station_id":"ce4bhbh2rcd13ifvqepg","pricing_plan_id":"cebpf4jnsgd1na2vs0mg"},{"bike_id":"658e0746-3add-4324-8209-a97a499cd81d","system_id":"levelo_inurba_marseille","lat":43.3055,"lon":5.3844,"is_reserved":false,"is_disabled":false,"rental_uris":{"android":"levelo://app?vid=658e0746-3add-4324-8209-a97a499cd81d","ios":"levelo://app?vid=658e0746-3add-4324-8209-a97a499cd81d"},"vehicle_type_id":"4","last_reported":1735841553,"current_range_meters":28800,"station_id":"ce4bgg92rcd13ifvqb30","pricing_plan_id":"cebpf4jnsgd1na2vs0mg"},{"bike_id":"a48e9fc7-2915-49ef-ad99-c30e383f2338","system_id":"levelo_inurba_marseille","lat":43.25868,"lon":5.3991,"is_reserved":false,"is_disabled":false,"rental_uris":{"android":"levelo://app?vid=a48e9fc7-2915-49ef-ad99-c30e383f2338","ios":"levelo://app?vid=a48e9fc7-2915-49ef-ad99-c30e383f2338"},"vehicle_type_id":"4","last_reported":1735841553,"current_range_meters":34800,"station_id":"ce4bhl92rcd13ifvqghg","pricing_plan_id":"cebpf4jnsgd1na2vs0mg"},{"bike_id":"536b70a3-fc64-47f8-88ea-2d090653c6fc","system_id":"levelo_inurba_marseille","lat":43.28348,"lon":5.3811,"is_reserved":false,"is_disabled":false,"rental_uris":{"android":"levelo://app?vid=536b70a3-fc64-47f8-88ea-2d090653c6fc","ios":"levelo://app?vid=536b70a3-fc64-47f8-88ea-2d090653c6fc"},"vehicle_type_id":"4","last_reported":1735841553,"current_range_meters":39200,"station_id":"ce4bh412rcd13ifvqdr0","pricing_plan_id":"cebpf4jnsgd1na2vs0mg"},{"bike_id":"d3bbc23a-977b-4b81-88be-f7e0b1a7ab38","system_id":"levelo_inurba_marseille","lat":43.29436,"lon":5.39751,"is_reserved":false,"is_disabled":true,"rental_uris":{"android":"levelo://app?vid=d3bbc23a-977b-4b81-88be-f7e0b1a7ab38","ios":"levelo://app?vid=d3bbc23a-977b-4b81-88be-f7e0b1a7ab38"},"vehicle_type_id":"4","last_reported":1735841553,"current_range_meters":38400,"station_id":"ce4bh3h2rcd13ifvqdo0","pricing_plan_id":"cebpf4jnsgd1na2vs0mg"},{"bike_id":"312ff9af-4f70-4b60-9812-0b0b87c7cbb3","system_id":"levelo_inurba_marseille","lat":43.2732,"lon":5.39072,"is_reserved":false,"is_disabled":false,"rental_uris":{"android":"levelo://app?vid=312ff9af-4f70-4b60-9812-0b0b87c7cbb3","ios":"levelo://app?vid=312ff9af-4f70-4b60-9812-0b0b87c7cbb3"},"vehicle_type_id":"4","last_reported":1735841553,"current_range_meters":24000,"station_id":"ce4bhgp2rcd13ifvqfe0","pricing_plan_id":"cebpf4jnsgd1na2vs0mg"},{"bike_id":"43f4378f-102b-48eb-b120-fee2c4ee70dd","system_id":"levelo_inurba_marseille","lat":43.29946,"lon":5.37457,"is_reserved":false,"is_disabled":false,"rental_uris":{"android":"levelo://app?vid=43f4378f-102b-48eb-b120-fee2c4ee70dd","ios":"levelo://app?vid=43f4378f-102b-48eb-b120-fee2c4ee70dd"},"vehicle_type_id":"4","last_reported":1735841553,"current_range_meters":20400,"station_id":"ce4bgjh2rcd13ifvqbg0","pricing_plan_id":"cebpf4jnsgd1na2vs0mg"},{"bike_id":"4b18fc74-124a-4026-8735-302c08bbdf7e","system_id":"levelo_inurba_marseille","lat":43.28675,"lon":5.38641,"is_reserved":false,"is_disabled":false,"rental_uris":{"android":"levelo://app?vid=4b18fc74-124a-4026-8735-302c08bbdf7e","ios":"levelo://app?vid=4b18fc74-124a-4026-8735-302c08bbdf7e"},"vehicle_type_id":"4","last_reported":1735841553,"current_range_meters":35600,"station_id":"ce4bh492rcd13ifvqdug","pricing_plan_id":"cebpf4jnsgd1na2vs0mg"},{"bike_id":"47bacd12-de07-48af-87bd-cc1ddc5d9c6a","system_id":"levelo_inurba_marseille","lat":43.29865,"lon":5.39735,"is_reserved":false,"is_disabled":false,"rental_uris":{"android":"levelo://app?vid=47bacd12-de07-48af-87bd-cc1ddc5d9c6a","ios":"levelo://app?vid=47bacd12-de07-48af-87bd-cc1ddc5d9c6a"},"vehicle_type_id":"4","last_reported":1735841553,"current_range_meters":6400,"station_id":"ce4bh0h2rcd13ifvqd50","pricing_plan_id":"cebpf4jnsgd1na2vs0mg"},{"bike_id":"1c02ae40-e43c-4632-b75b-2df9308dc3fe","system_id":"levelo_inurba_marseille","lat":43.337613,"lon":5.374348,"is_reserved":false,"is_disabled":false,"rental_uris":{"android":"levelo://app?vid=1c02ae40-e43c-4632-b75b-2df9308dc3fe","ios":"levelo://app?vid=1c02ae40-e43c-4632-b75b-2df9308dc3fe"},"vehicle_type_id":"4","last_reported":1735841553,"current_range_meters":38400,"station_id":"","pricing_plan_id":"cebpf4jnsgd1na2vs0mg"},{"bike_id":"03bbb05d-01cf-4c35-95dd-462346eb5fbc","system_id":"levelo_inurba_marseille","lat":43.29804,"lon":5.40409,"is_reserved":false,"is_disabled":false,"rental_uris":{"android":"levelo://app?vid=03bbb05d-01cf-4c35-95dd-462346eb5fbc","ios":"levelo://app?vid=03bbb05d-01cf-4c35-95dd-462346eb5fbc"},"vehicle_type_id":"4","last_reported":1735841553,"current_range_meters":20000,"station_id":"ce4bh112rcd13ifvqd90","pricing_plan_id":"cebpf4jnsgd1na2vs0mg"},{"bike_id":"3e4d3b8a-bbd2-4328-9354-8b758a619382","system_id":"levelo_inurba_marseille","lat":43.28953,"lon":5.36398,"is_reserved":false,"is_disabled":false,"rental_uris":{"android":"levelo://app?vid=3e4d3b8a-bbd2-4328-9354-8b758a619382","ios":"levelo://app?vid=3e4d3b8a-bbd2-4328-9354-8b758a619382"},"vehicle_type_id":"4","last_reported":1735841553,"current_range_meters":31200,"station_id":"ce4bhc92rcd13ifvqetg","pricing_plan_id":"cebpf4jnsgd1na2vs0mg"},{"bike_id":"8c737257-551a-4388-b542-afefb3c2b631","system_id":"levelo_inurba_marseille","lat":43.25579,"lon":5.38232,"is_reserved":false,"is_disabled":false,"rental_uris":{"android":"levelo://app?vid=8c737257-551a-4388-b542-afefb3c2b631","ios":"levelo://app?vid=8c737257-551a-4388-b542-afefb3c2b631"},"vehicle_type_id":"4","last_reported":1735841553,"current_range_meters":26000,"station_id":"ce4bhih2rcd13ifvqfs0","pricing_plan_id":"cebpf4jnsgd1na2vs0mg"},{"bike_id":"8da4c67d-2ed0-418e-b038-2836a9c86265","system_id":"levelo_inurba_marseille","lat":43.31706,"lon":5.43707,"is_reserved":false,"is_disabled":false,"rental_uris":{"android":"levelo://app?vid=8da4c67d-2ed0-418e-b038-2836a9c86265","ios":"levelo://app?vid=8da4c67d-2ed0-418e-b038-2836a9c86265"},"vehicle_type_id":"4","last_reported":1735841553,"current_range_meters":39200,"station_id":"ce4bhp92rcd13ifvqhcg","pricing_plan_id":"cebpf4jnsgd1na2vs0mg"},{"bike_id":"60c28df0-ba15-4f95-8193-0649ce880333","system_id":"levelo_inurba_marseille","lat":43.28929,"lon":5.38398,"is_reserved":false,"is_disabled":false,"rental_uris":{"android":"levelo://app?vid=60c28df0-ba15-4f95-8193-0649ce880333","ios":"levelo://app?vid=60c28df0-ba15-4f95-8193-0649ce880333"},"vehicle_type_id":"4","last_reported":1735841553,"current_range_meters":35200,"station_id":"ce4bh612rcd13ifvqe6g","pricing_plan_id":"cebpf4jnsgd1na2vs0mg"},{"bike_id":"5da924b7-1d86-48f2-a906-f2fea708abbd","system_id":"levelo_inurba_marseille","lat":43.27668,"lon":5.38923,"is_reserved":false,"is_disabled":true,"rental_uris":{"android":"levelo://app?vid=5da924b7-1d86-48f2-a906-f2fea708abbd","ios":"levelo://app?vid=5da924b7-1d86-48f2-a906-f2fea708abbd"},"vehicle_type_id":"4","last_reported":1735841553,"current_range_meters":38400,"station_id":"ce4bhi12rcd13ifvqfo0","pricing_plan_id":"cebpf4jnsgd1na2vs0mg"},{"bike_id":"bf11542d-57ab-488b-8688-d04e54ddc38b","system_id":"levelo_inurba_marseille","lat":43.29866,"lon":5.39734,"is_reserved":false,"is_disabled":false,"rental_uris":{"android":"levelo://app?vid=bf11542d-57ab-488b-8688-d04e54ddc38b","ios":"levelo://app?vid=bf11542d-57ab-488b-8688-d04e54ddc38b"},"vehicle_type_id":"4","last_reported":1735841553,"current_range_meters":22000,"station_id":"ce4bh0h2rcd13ifvqd50","pricing_plan_id":"cebpf4jnsgd1na2vs0mg"},{"bike_id":"9d2c81ea-506b-45e9-87c6-ca4bd38b0584","system_id":"levelo_inurba_marseille","lat":43.25583,"lon":5.38211,"is_reserved":false,"is_disabled":false,"rental_uris":{"android":"levelo://app?vid=9d2c81ea-506b-45e9-87c6-ca4bd38b0584","ios":"levelo://app?vid=9d2c81ea-506b-45e9-87c6-ca4bd38b0584"},"vehicle_type_id":"4","last_reported":1735841553,"current_range_meters":36400,"station_id":"ce4bhih2rcd13ifvqfs0","pricing_plan_id":"cebpf4jnsgd1na2vs0mg"},{"bike_id":"2a410cec-b4f5-43ac-a178-e30477d99286","system_id":"levelo_inurba_marseille","lat":43.29977,"lon":5.38498,"is_reserved":false,"is_disabled":false,"rental_uris":{"android":"levelo://app?vid=2a410cec-b4f5-43ac-a178-e30477d99286","ios":"levelo://app?vid=2a410cec-b4f5-43ac-a178-e30477d99286"},"vehicle_type_id":"4","last_reported":1735841553,"current_range_meters":17600,"station_id":"ce4bgj92rcd13ifvqbd0","pricing_plan_id":"cebpf4jnsgd1na2vs0mg"},{"bike_id":"389a9b91-2a62-49d1-8eac-87915d4cb970","system_id":"levelo_inurba_marseille","lat":43.26946,"lon":5.38918,"is_reserved":false,"is_disabled":false,"rental_uris":{"android":"levelo://app?vid=389a9b91-2a62-49d1-8eac-87915d4cb970","ios":"levelo://app?vid=389a9b91-2a62-49d1-8eac-87915d4cb970"},"vehicle_type_id":"4","last_reported":1735841553,"current_range_meters":38400,"station_id":"ce4bhhh2rcd13ifvqfl0","pricing_plan_id":"cebpf4jnsgd1na2vs0mg"},{"bike_id":"283dd65f-1e69-479b-aa6a-9faa4044ac77","system_id":"levelo_inurba_marseille","lat":43.25577,"lon":5.38231,"is_reserved":false,"is_disabled":false,"rental_uris":{"android":"levelo://app?vid=283dd65f-1e69-479b-aa6a-9faa4044ac77","ios":"levelo://app?vid=283dd65f-1e69-479b-aa6a-9faa4044ac77"},"vehicle_type_id":"4","last_reported":1735841553,"current_range_meters":25200,"station_id":"ce4bhih2rcd13ifvqfs0","pricing_plan_id":"cebpf4jnsgd1na2vs0mg"},{"bike_id":"236eb851-54f4-4550-b34a-7e2e24746a1f","system_id":"levelo_inurba_marseille","lat":43.29537,"lon":5.3854,"is_reserved":false,"is_disabled":false,"rental_uris":{"android":"levelo://app?vid=236eb851-54f4-4550-b34a-7e2e24746a1f","ios":"levelo://app?vid=236eb851-54f4-4550-b34a-7e2e24746a1f"},"vehicle_type_id":"4","last_reported":1735841553,"current_range_meters":38800,"station_id":"ce4bgih2rcd13ifvqba0","pricing_plan_id":"cebpf4jnsgd1na2vs0mg"},{"bike_id":"8a0259b2-4ac3-411a-87ae-2802134ed81d","system_id":"levelo_inurba_marseille","lat":43.28928,"lon":5.38387,"is_reserved":false,"is_disabled":false,"rental_uris":{"android":"levelo://app?vid=8a0259b2-4ac3-411a-87ae-2802134ed81d","ios":"levelo://app?vid=8a0259b2-4ac3-411a-87ae-2802134ed81d"},"vehicle_type_id":"4","last_reported":1735841553,"current_range_meters":39200,"station_id":"ce4bh612rcd13ifvqe6g","pricing_plan_id":"cebpf4jnsgd1na2vs0mg"},{"bike_id":"a676ef63-e767-4d39-8a20-d3ec5d025d88","system_id":"levelo_inurba_marseille","lat":43.25825,"lon":5.39416,"is_reserved":false,"is_disabled":false,"rental_uris":{"android":"levelo://app?vid=a676ef63-e767-4d39-8a20-d3ec5d025d88","ios":"levelo://app?vid=a676ef63-e767-4d39-8a20-d3ec5d025d88"},"vehicle_type_id":"4","last_reported":1735841553,"current_range_meters":13600,"station_id":"ce4bhip2rcd13ifvqft0","pricing_plan_id":"cebpf4jnsgd1na2vs0mg"},{"bike_id":"9bf2c934-e80a-4b69-9369-b6399c81de01","system_id":"levelo_inurba_marseille","lat":43.25115,"lon":5.40312,"is_reserved":false,"is_disabled":false,"rental_uris":{"android":"levelo://app?vid=9bf2c934-e80a-4b69-9369-b6399c81de01","ios":"levelo://app?vid=9bf2c934-e80a-4b69-9369-b6399c81de01"},"vehicle_type_id":"4","last_reported":1735841553,"current_range_meters":36800,"station_id":"ce4bhlh2rcd13ifvqgig","pricing_plan_id":"cebpf4jnsgd1na2vs0mg"},{"bike_id":"ff3724d3-70be-4346-8180-67541c2e6bb4","system_id":"levelo_inurba_marseille","lat":43.28936,"lon":5.3839,"is_reserved":false,"is_disabled":false,"rental_uris":{"android":"levelo://app?vid=ff3724d3-70be-4346-8180-67541c2e6bb4","ios":"levelo://app?vid=ff3724d3-70be-4346-8180-67541c2e6bb4"},"vehicle_type_id":"4","last_reported":1735841553,"current_range_meters":39200,"station_id":"ce4bh612rcd13ifvqe6g","pricing_plan_id":"cebpf4jnsgd1na2vs0mg"},{"bike_id":"79bbd5cc-61cf-4557-93bf-7791da8c7c18","system_id":"levelo_inurba_marseille","lat":43.293,"lon":5.37451,"is_reserved":false,"is_disabled":false,"rental_uris":{"android":"levelo://app?vid=79bbd5cc-61cf-4557-93bf-7791da8c7c18","ios":"levelo://app?vid=79bbd5cc-61cf-4557-93bf-7791da8c7c18"},"vehicle_type_id":"4","last_reported":1735841553,"current_range_meters":11600,"station_id":"ce4bgi12rcd13ifvqb70","pricing_plan_id":"cebpf4jnsgd1na2vs0mg"},{"bike_id":"a9e62202-e3d5-494c-9cca-7476998a7982","system_id":"levelo_inurba_marseille","lat":43.28718,"lon":5.37932,"is_reserved":false,"is_disabled":false,"rental_uris":{"android":"levelo://app?vid=a9e62202-e3d5-494c-9cca-7476998a7982","ios":"levelo://app?vid=a9e62202-e3d5-494c-9cca-7476998a7982"},"vehicle_type_id":"4","last_reported":1735841553,"current_range_meters":38400,"station_id":"ce4bh9p2rcd13ifvqec0","pricing_plan_id":"cebpf4jnsgd1na2vs0mg"},{"bike_id":"898ebcfa-1a27-4789-af7e-27b090bbcc03","system_id":"levelo_inurba_marseille","lat":43.28851,"lon":5.39334,"is_reserved":false,"is_disabled":false,"rental_uris":{"android":"levelo://app?vid=898ebcfa-1a27-4789-af7e-27b090bbcc03","ios":"levelo://app?vid=898ebcfa-1a27-4789-af7e-27b090bbcc03"},"vehicle_type_id":"4","last_reported":1735841553,"current_range_meters":18000,"station_id":"ce4bh2p2rcd13ifvqdi0","pricing_plan_id":"cebpf4jnsgd1na2vs0mg"},{"bike_id":"c14d1989-a72f-4241-a582-39661d0bcfcf","system_id":"levelo_inurba_marseille","lat":43.2321,"lon":5.35559,"is_reserved":false,"is_disabled":false,"rental_uris":{"android":"levelo://app?vid=c14d1989-a72f-4241-a582-39661d0bcfcf","ios":"levelo://app?vid=c14d1989-a72f-4241-a582-39661d0bcfcf"},"vehicle_type_id":"4","last_reported":1735841553,"current_range_meters":38800,"station_id":"ce4bhu92rcd13ifvqi70","pricing_plan_id":"cebpf4jnsgd1na2vs0mg"},{"bike_id":"ef72cdb4-465d-4178-b952-49906f159c48","system_id":"levelo_inurba_marseille","lat":43.28158,"lon":5.42619,"is_reserved":false,"is_disabled":false,"rental_uris":{"android":"levelo://app?vid=ef72cdb4-465d-4178-b952-49906f159c48","ios":"levelo://app?vid=ef72cdb4-465d-4178-b952-49906f159c48"},"vehicle_type_id":"4","last_reported":1735841553,"current_range_meters":26000,"station_id":"ce4bhnh2rcd13ifvqgug","pricing_plan_id":"cebpf4jnsgd1na2vs0mg"},{"bike_id":"cd799ed6-4897-449a-b65c-1cec7ac6afaf","system_id":"levelo_inurba_marseille","lat":43.30807,"lon":5.38156,"is_reserved":false,"is_disabled":true,"rental_uris":{"android":"levelo://app?vid=cd799ed6-4897-449a-b65c-1cec7ac6afaf","ios":"levelo://app?vid=cd799ed6-4897-449a-b65c-1cec7ac6afaf"},"vehicle_type_id":"4","last_reported":1735841553,"current_range_meters":29600,"station_id":"ce4bgt12rcd13ifvqce0","pricing_plan_id":"cebpf4jnsgd1na2vs0mg"},{"bike_id":"0b1c27a8-912f-47de-83f1-1d9fe5bc3168","system_id":"levelo_inurba_marseille","lat":43.24817,"lon":5.37455,"is_reserved":false,"is_disabled":true,"rental_uris":{"android":"levelo://app?vid=0b1c27a8-912f-47de-83f1-1d9fe5bc3168","ios":"levelo://app?vid=0b1c27a8-912f-47de-83f1-1d9fe5bc3168"},"vehicle_type_id":"4","last_reported":1735841553,"current_range_meters":4000,"station_id":"ce4bhgh2rcd13ifvqfb0","pricing_plan_id":"cebpf4jnsgd1na2vs0mg"},{"bike_id":"e2db395a-8d24-440e-9e8a-fceb63f61ec2","system_id":"levelo_inurba_marseille","lat":43.32295,"lon":5.3826,"is_reserved":false,"is_disabled":false,"rental_uris":{"android":"levelo://app?vid=e2db395a-8d24-440e-9e8a-fceb63f61ec2","ios":"levelo://app?vid=e2db395a-8d24-440e-9e8a-fceb63f61ec2"},"vehicle_type_id":"4","last_reported":1735841553,"current_range_meters":28000,"station_id":"ce4bhr12rcd13ifvqhqg","pricing_plan_id":"cebpf4jnsgd1na2vs0mg"},{"bike_id":"20b2e632-0341-4a15-81f5-2e933b1eae18","system_id":"levelo_inurba_marseille","lat":43.29886,"lon":5.38893,"is_reserved":false,"is_disabled":false,"rental_uris":{"android":"levelo://app?vid=20b2e632-0341-4a15-81f5-2e933b1eae18","ios":"levelo://app?vid=20b2e632-0341-4a15-81f5-2e933b1eae18"},"vehicle_type_id":"4","last_reported":1735841553,"current_range_meters":35200,"station_id":"ce4bh392rcd13ifvqdl0","pricing_plan_id":"cebpf4jnsgd1na2vs0mg"},{"bike_id":"44377e14-c431-47f9-879d-d27236127509","system_id":"levelo_inurba_marseille","lat":43.258271,"lon":5.394205,"is_reserved":false,"is_disabled":false,"rental_uris":{"android":"levelo://app?vid=44377e14-c431-47f9-879d-d27236127509","ios":"levelo://app?vid=44377e14-c431-47f9-879d-d27236127509"},"vehicle_type_id":"4","last_reported":1735841553,"current_range_meters":17200,"station_id":"ce4bhip2rcd13ifvqft0","pricing_plan_id":"cebpf4jnsgd1na2vs0mg"},{"bike_id":"34535594-ceb9-4842-97f7-a9b9fbaa6b25","system_id":"levelo_inurba_marseille","lat":43.29578,"lon":5.37517,"is_reserved":false,"is_disabled":true,"rental_uris":{"android":"levelo://app?vid=34535594-ceb9-4842-97f7-a9b9fbaa6b25","ios":"levelo://app?vid=34535594-ceb9-4842-97f7-a9b9fbaa6b25"},"vehicle_type_id":"4","last_reported":1735841553,"current_range_meters":0,"station_id":"ce4bgh92rcd13ifvqb50","pricing_plan_id":"cebpf4jnsgd1na2vs0mg"},{"bike_id":"5c0e6aff-a052-4a02-848f-c8e083c5996f","system_id":"levelo_inurba_marseille","lat":43.25502,"lon":5.37642,"is_reserved":false,"is_disabled":false,"rental_uris":{"android":"levelo://app?vid=5c0e6aff-a052-4a02-848f-c8e083c5996f","ios":"levelo://app?vid=5c0e6aff-a052-4a02-848f-c8e083c5996f"},"vehicle_type_id":"4","last_reported":1735841553,"current_range_meters":20800,"station_id":"ce4bhh12rcd13ifvqff0","pricing_plan_id":"cebpf4jnsgd1na2vs0mg"},{"bike_id":"abbb45c7-7505-462b-b7f0-07120d2bbc1e","system_id":"levelo_inurba_marseille","lat":43.29297,"lon":5.37451,"is_reserved":false,"is_disabled":false,"rental_uris":{"android":"levelo://app?vid=abbb45c7-7505-462b-b7f0-07120d2bbc1e","ios":"levelo://app?vid=abbb45c7-7505-462b-b7f0-07120d2bbc1e"},"vehicle_type_id":"4","last_reported":1735841553,"current_range_meters":8400,"station_id":"ce4bgi12rcd13ifvqb70","pricing_plan_id":"cebpf4jnsgd1na2vs0mg"},{"bike_id":"fcd19053-5eba-408e-bd8d-507e80ac4040","system_id":"levelo_inurba_marseille","lat":43.28716,"lon":5.37941,"is_reserved":false,"is_disabled":false,"rental_uris":{"android":"levelo://app?vid=fcd19053-5eba-408e-bd8d-507e80ac4040","ios":"levelo://app?vid=fcd19053-5eba-408e-bd8d-507e80ac4040"},"vehicle_type_id":"4","last_reported":1735841553,"current_range_meters":8800,"station_id":"ce4bh9p2rcd13ifvqec0","pricing_plan_id":"cebpf4jnsgd1na2vs0mg"},{"bike_id":"ffafa3ee-52dc-40b9-ad12-7f89cbac4b6a","system_id":"levelo_inurba_marseille","lat":43.25139,"lon":5.40319,"is_reserved":false,"is_disabled":false,"rental_uris":{"android":"levelo://app?vid=ffafa3ee-52dc-40b9-ad12-7f89cbac4b6a","ios":"levelo://app?vid=ffafa3ee-52dc-40b9-ad12-7f89cbac4b6a"},"vehicle_type_id":"4","last_reported":1735841553,"current_range_meters":28800,"station_id":"ce4bhlh2rcd13ifvqgig","pricing_plan_id":"cebpf4jnsgd1na2vs0mg"},{"bike_id":"13a9cb8a-0f28-4655-9171-9a226e701240","system_id":"levelo_inurba_marseille","lat":43.3254,"lon":5.4145,"is_reserved":false,"is_disabled":false,"rental_uris":{"android":"levelo://app?vid=13a9cb8a-0f28-4655-9171-9a226e701240","ios":"levelo://app?vid=13a9cb8a-0f28-4655-9171-9a226e701240"},"vehicle_type_id":"4","last_reported":1735841553,"current_range_meters":38800,"station_id":"ce4bhq12rcd13ifvqhhg","pricing_plan_id":"cebpf4jnsgd1na2vs0mg"},{"bike_id":"ae3c4832-4209-4866-9c01-a8aca1432f5d","system_id":"levelo_inurba_marseille","lat":43.264862,"lon":5.395367,"is_reserved":false,"is_disabled":false,"rental_uris":{"android":"levelo://app?vid=ae3c4832-4209-4866-9c01-a8aca1432f5d","ios":"levelo://app?vid=ae3c4832-4209-4866-9c01-a8aca1432f5d"},"vehicle_type_id":"4","last_reported":1735841553,"current_range_meters":19200,"station_id":"ce4bhi12rcd13ifvqfq0","pricing_plan_id":"cebpf4jnsgd1na2vs0mg"},{"bike_id":"6b943c45-c294-4525-b4e8-06c5de56ee89","system_id":"levelo_inurba_marseille","lat":43.29031,"lon":5.38639,"is_reserved":false,"is_disabled":false,"rental_uris":{"android":"levelo://app?vid=6b943c45-c294-4525-b4e8-06c5de56ee89","ios":"levelo://app?vid=6b943c45-c294-4525-b4e8-06c5de56ee89"},"vehicle_type_id":"4","last_reported":1735841553,"current_range_meters":38800,"station_id":"ce4bh4p2rcd13ifvqe0g","pricing_plan_id":"cebpf4jnsgd1na2vs0mg"},{"bike_id":"264735d6-4cb8-459d-b029-fe9440eef554","system_id":"levelo_inurba_marseille","lat":43.299077,"lon":5.381575,"is_reserved":false,"is_disabled":false,"rental_uris":{"android":"levelo://app?vid=264735d6-4cb8-459d-b029-fe9440eef554","ios":"levelo://app?vid=264735d6-4cb8-459d-b029-fe9440eef554"},"vehicle_type_id":"4","last_reported":1735841553,"current_range_meters":38800,"station_id":"ce4bgj12rcd13ifvqbc0","pricing_plan_id":"cebpf4jnsgd1na2vs0mg"},{"bike_id":"4b8ba28b-f315-429e-87d4-6eba71298996","system_id":"levelo_inurba_marseille","lat":43.274211,"lon":5.394015,"is_reserved":false,"is_disabled":false,"rental_uris":{"android":"levelo://app?vid=4b8ba28b-f315-429e-87d4-6eba71298996","ios":"levelo://app?vid=4b8ba28b-f315-429e-87d4-6eba71298996"},"vehicle_type_id":"4","last_reported":1735841553,"current_range_meters":38800,"station_id":"ce4bhdp2rcd13ifvqf20","pricing_plan_id":"cebpf4jnsgd1na2vs0mg"},{"bike_id":"551104ec-d92e-4a64-897f-e19ce80ea8cd","system_id":"levelo_inurba_marseille","lat":43.2794,"lon":5.41044,"is_reserved":false,"is_disabled":false,"rental_uris":{"android":"levelo://app?vid=551104ec-d92e-4a64-897f-e19ce80ea8cd","ios":"levelo://app?vid=551104ec-d92e-4a64-897f-e19ce80ea8cd"},"vehicle_type_id":"4","last_reported":1735841553,"current_range_meters":31200,"station_id":"ce4bhnp2rcd13ifvqh0g","pricing_plan_id":"cebpf4jnsgd1na2vs0mg"},{"bike_id":"4f177a40-7847-4f1d-82f7-30a29e31c2c9","system_id":"levelo_inurba_marseille","lat":43.3171,"lon":5.43711,"is_reserved":false,"is_disabled":false,"rental_uris":{"android":"levelo://app?vid=4f177a40-7847-4f1d-82f7-30a29e31c2c9","ios":"levelo://app?vid=4f177a40-7847-4f1d-82f7-30a29e31c2c9"},"vehicle_type_id":"4","last_reported":1735841553,"current_range_meters":21600,"station_id":"ce4bhp92rcd13ifvqhcg","pricing_plan_id":"cebpf4jnsgd1na2vs0mg"},{"bike_id":"5d18ea76-125e-4d6b-b841-4035a68bb93b","system_id":"levelo_inurba_marseille","lat":43.27955,"lon":5.41028,"is_reserved":false,"is_disabled":false,"rental_uris":{"android":"levelo://app?vid=5d18ea76-125e-4d6b-b841-4035a68bb93b","ios":"levelo://app?vid=5d18ea76-125e-4d6b-b841-4035a68bb93b"},"vehicle_type_id":"4","last_reported":1735841553,"current_range_meters":12400,"station_id":"ce4bhnp2rcd13ifvqh0g","pricing_plan_id":"cebpf4jnsgd1na2vs0mg"},{"bike_id":"5118eecb-d4f6-43f9-97ab-12053e2e7f67","system_id":"levelo_inurba_marseille","lat":43.29374,"lon":5.37865,"is_reserved":false,"is_disabled":true,"rental_uris":{"android":"levelo://app?vid=5118eecb-d4f6-43f9-97ab-12053e2e7f67","ios":"levelo://app?vid=5118eecb-d4f6-43f9-97ab-12053e2e7f67"},"vehicle_type_id":"4","last_reported":1735841553,"current_range_meters":1600,"station_id":"ce4bgjh2rcd13ifvqbf0","pricing_plan_id":"cebpf4jnsgd1na2vs0mg"},{"bike_id":"4b11bddf-6b18-4a00-bdd8-51ad8c2d6487","system_id":"levelo_inurba_marseille","lat":43.30207,"lon":5.39449,"is_reserved":false,"is_disabled":false,"rental_uris":{"android":"levelo://app?vid=4b11bddf-6b18-4a00-bdd8-51ad8c2d6487","ios":"levelo://app?vid=4b11bddf-6b18-4a00-bdd8-51ad8c2d6487"},"vehicle_type_id":"4","last_reported":1735841553,"current_range_meters":28800,"station_id":"ce4bh0p2rcd13ifvqd70","pricing_plan_id":"cebpf4jnsgd1na2vs0mg"},{"bike_id":"a3568aab-1d34-4bdf-8c0c-ec81886f6177","system_id":"levelo_inurba_marseille","lat":43.33752,"lon":5.37413,"is_reserved":false,"is_disabled":true,"rental_uris":{"android":"levelo://app?vid=a3568aab-1d34-4bdf-8c0c-ec81886f6177","ios":"levelo://app?vid=a3568aab-1d34-4bdf-8c0c-ec81886f6177"},"vehicle_type_id":"4","last_reported":1735841553,"current_range_meters":22800,"station_id":"","pricing_plan_id":"cebpf4jnsgd1na2vs0mg"},{"bike_id":"5bb698f4-2b2b-47ef-890c-f4d5636c564e","system_id":"levelo_inurba_marseille","lat":43.31722,"lon":5.42391,"is_reserved":false,"is_disabled":false,"rental_uris":{"android":"levelo://app?vid=5bb698f4-2b2b-47ef-890c-f4d5636c564e","ios":"levelo://app?vid=5bb698f4-2b2b-47ef-890c-f4d5636c564e"},"vehicle_type_id":"4","last_reported":1735841553,"current_range_meters":22000,"station_id":"ce4bhp92rcd13ifvqhbg","pricing_plan_id":"cebpf4jnsgd1na2vs0mg"},