{"last_updated":1734655556,"ttl":60,"version":"2.2","data":{"bikes":[{"bike_id":"f0d964f6-e2a5-4c62-b9cc-ff7b8115bcf8","system_id":"levelo_inurba_marseille","lat":43.30589,"lon":5.39362,"is_reserved":false,"is_disabled":false,"rental_uris":{"android":"levelo://app?vid=f0d964f6-e2a5-4c62-b9cc-ff7b8115bcf8","ios":"levelo://app?vid=f0d964f6-e2a5-4c62-b9cc-ff7b8115bcf8"},"vehicle_type_id":"4","last_reported":1734655556,"current_range_meters":28800,"station_id":"ce4bh0p2rcd13ifvqd80","pricing_plan_id":"cebpf4jnsgd1na2vs0mg"},{"bike_id":"74dc27b5-e2a4-4b1e-9dc3-5894ac4bda0a","system_id":"levelo_inurba_marseille","lat":43.29796,"lon":5.37259,"is_reserved":false,"is_disabled":true,"rental_uris":{"android":"levelo://app?vid=74dc27b5-e2a4-4b1e-9dc3-5894ac4bda0a","ios":"levelo://app?vid=74dc27b5-e2a4-4b1e-9dc3-5894ac4bda0a"},"vehicle_type_id":"4","last_reported":1734655556,"current_range_meters":0,"station_id":"","pricing_plan_id":"cebpf4jnsgd1na2vs0mg"},{"bike_id":"eb156c91-5c91-4664-a66b-8fb17c1b7811","system_id":"levelo_inurba_marseille","lat":43.28441,"lon":5.39178,"is_reserved":false,"is_disabled":false,"rental_uris":{"android":"levelo://app?vid=eb156c91-5c91-4664-a66b-8fb17c1b7811","ios":"levelo://app?vid=eb156c91-5c91-4664-a66b-8fb17c1b7811"},"vehicle_type_id":"4","last_reported":1734655556,"current_range_meters":38800,"station_id":"ce4bhoh2rcd13ifvqh5g","pricing_plan_id":"cebpf4jnsgd1na2vs0mg"},{"bike_id":"d8e2b32b-975c-4ebb-8a62-f249de1e3a1d","system_id":"levelo_inurba_marseille","lat":43.28465,"lon":5.35876,"is_reserved":false,"is_disabled":false,"rental_uris":{"android":"levelo://app?vid=d8e2b32b-975c-4ebb-8a62-f249de1e3a1d","ios":"levelo://app?vid=d8e2b32b-975c-4ebb-8a62-f249de1e3a1d"},"vehicle_type_id":"4","last_reported":1734655556,"current_range_meters":24400,"station_id":"ce4bhah2rcd13ifvqei0","pricing_plan_id":"cebpf4jnsgd1na2vs0mg"},{"bike_id":"26820210-ecc1-45e6-ba91-b125210aa70f","system_id":"levelo_inurba_marseille","lat":43.32371,"lon":5.38892,"is_reserved":false,"is_disabled":false,"rental_uris":{"android":"levelo://app?vid=26820210-ecc1-45e6-ba91-b125210aa70f","ios":"levelo://app?vid=26820210-ecc1-45e6-ba91-b125210aa70f"},"vehicle_type_id":"4","last_reported":1734655556,"current_range_meters":37600,"station_id":"ce4bhqp2rcd13ifvqhog","pricing_plan_id":"cebpf4jnsgd1na2vs0mg"},{"bike_id":"638a4988-3c32-4dac-b610-97b72c7d7064","system_id":"levelo_inurba_marseille","lat":43.29892,"lon":5.39738,"is_reserved":false,"is_disabled":false,"rental_uris":{"android":"levelo://app?vid=638a4988-3c32-4dac-b610-97b72c7d7064","ios":"levelo://app?vid=638a4988-3c32-4dac-b610-97b72c7d7064"},"vehicle_type_id":"4","last_reported":1734655556,"current_range_meters":39200,"station_id":"ce4bh0h2rcd13ifvqd50","pricing_plan_id":"cebpf4jnsgd1na2vs0mg"},{"bike_id":"0b3c962c-40d1-4375-b60d-644d72aaacf1","system_id":"levelo_inurba_marseille","lat":43.28012,"lon":5.40403,"is_reserved":false,"is_disabled":true,"rental_uris":{"android":"levelo://app?vid=0b3c962c-40d1-4375-b60d-644d72aaacf1","ios":"levelo://app?vid=0b3c962c-40d1-4375-b60d-644d72aaacf1"},"vehicle_type_id":"4","last_reported":1734655556,"current_range_meters":0,"station_id":"","pricing_plan_id":"cebpf4jnsgd1na2vs0mg"},{"bike_id":"67ab154a-5ebb-400b-8fe1-02ec2579bea3","system_id":"levelo_inurba_marseille","lat":43.31275,"lon":5.40173,"is_reserved":false,"is_disabled":false,"rental_uris":{"android":"levelo://app?vid=67ab154a-5ebb-400b-8fe1-02ec2579bea3","ios":"levelo://app?vid=67ab154a-5ebb-400b-8fe1-02ec2579bea3"},"vehicle_type_id":"4","last_reported":1734655556,"current_range_meters":38800,"station_id":"ce4bh092rcd13ifvqd30","pricing_plan_id":"cebpf4jnsgd1na2vs0mg"},{"bike_id":"b3ca4fe4-550c-42a3-b98d-0ca615b243f9","system_id":"levelo_inurba_marseille","lat":43.28728,"lon":5.36094,"is_reserved":false,"is_disabled":false,"rental_uris":{"android":"levelo://app?vid=b3ca4fe4-550c-42a3-b98d-0ca615b243f9","ios":"levelo://app?vid=b3ca4fe4-550c-42a3-b98d-0ca615b243f9"},"vehicle_type_id":"4","last_reported":1734655556,"current_range_meters":20000,"station_id":"cki0cbj6b192h4jlfktg","pricing_plan_id":"cebpf4jnsgd1na2vs0mg"},{"bike_id":"82a8fe9d-762b-4980-9463-1e0a52f11d61","system_id":"levelo_inurba_marseille","lat":43.30414,"lon":5.41291,"is_reserved":false,"is_disabled":false,"rental_uris":{"android":"levelo://app?vid=82a8fe9d-762b-4980-9463-1e0a52f11d61","ios":"levelo://app?vid=82a8fe9d-762b-4980-9463-1e0a52f11d61"},"vehicle_type_id":"4","last_reported":1734655556,"current_range_meters":8000,"station_id":"ce4bhop2rcd13ifvqh8g","pricing_plan_id":"cebpf4jnsgd1na2vs0mg"},{"bike_id":"6dbd45f5-882d-4325-9c7e-f0f72386c6da","system_id":"levelo_inurba_marseille","lat":43.23866,"lon":5.37403,"is_reserved":false,"is_disabled":false,"rental_uris":{"android":"levelo://app?vid=6dbd45f5-882d-4325-9c7e-f0f72386c6da","ios":"levelo://app?vid=6dbd45f5-882d-4325-9c7e-f0f72386c6da"},"vehicle_type_id":"4","last_reported":1734655556,"current_range_meters":6800,"station_id":"","pricing_plan_id":"cebpf4jnsgd1na2vs0mg"},{"bike_id":"1cdfd12b-6391-4ec2-a79d-92933987f841","system_id":"levelo_inurba_marseille","lat":43.29587,"lon":5.36766,"is_reserved":false,"is_disabled":false,"rental_uris":{"android":"levelo://app?vid=1cdfd12b-6391-4ec2-a79d-92933987f841","ios":"levelo://app?vid=1cdfd12b-6391-4ec2-a79d-92933987f841"},"vehicle_type_id":"4","last_reported":1734655556,"current_range_meters":38800,"station_id":"ce4bgph2rcd13ifvqc2g","pricing_plan_id":"cebpf4jnsgd1na2vs0mg"},{"bike_id":"7f9162df-4aa2-4343-90f5-549390574e85","system_id":"levelo_inurba_marseille","lat":43.28935,"lon":5.36394,"is_reserved":false,"is_disabled":false,"rental_uris":{"android":"levelo://app?vid=7f9162df-4aa2-4343-90f5-549390574e85","ios":"levelo://app?vid=7f9162df-4aa2-4343-90f5-549390574e85"},"vehicle_type_id":"4","last_reported":1734655556,"current_range_meters":38000,"station_id":"ce4bhc92rcd13ifvqetg","pricing_plan_id":"cebpf4jnsgd1na2vs0mg"},{"bike_id":"93cd12d2-ee52-454b-a1c6-a2a94b1185da","system_id":"levelo_inurba_marseille","lat":43.24806,"lon":5.37454,"is_reserved":false,"is_disabled":false,"rental_uris":{"android":"levelo://app?vid=93cd12d2-ee52-454b-a1c6-a2a94b1185da","ios":"levelo://app?vid=93cd12d2-ee52-454b-a1c6-a2a94b1185da"},"vehicle_type_id":"4","last_reported":1734655556,"current_range_meters":39200,"station_id":"ce4bhgh2rcd13ifvqfb0","pricing_plan_id":"cebpf4jnsgd1na2vs0mg"},{"bike_id":"02bf8158-426b-4335-9b97-c473816a1fd2","system_id":"levelo_inurba_marseille","lat":43.25823,"lon":5.39437,"is_reserved":false,"is_disabled":false,"rental_uris":{"android":"levelo://app?vid=02bf8158-426b-4335-9b97-c473816a1fd2","ios":"levelo://app?vid=02bf8158-426b-4335-9b97-c473816a1fd2"},"vehicle_type_id":"4","last_reported":1734655556,"current_range_meters":38800,"station_id":"ce4bhip2rcd13ifvqft0","pricing_plan_id":"cebpf4jnsgd1na2vs0mg"},{"bike_id":"5b3c1ffc-f106-4d19-bf23-7476188deeb8","system_id":"levelo_inurba_marseille","lat":43.308863,"lon":5.378124,"is_reserved":false,"is_disabled":false,"rental_uris":{"android":"levelo://app?vid=5b3c1ffc-f106-4d19-bf23-7476188deeb8","ios":"levelo://app?vid=5b3c1ffc-f106-4d19-bf23-7476188deeb8"},"vehicle_type_id":"4","last_reported":1734655556,"current_range_meters":20400,"station_id":"","pricing_plan_id":"cebpf4jnsgd1na2vs0mg"},{"bike_id":"c7f24469-1136-4e21-b84a-0a12ce3b4eea","system_id":"levelo_inurba_marseille","lat":43.31689,"lon":5.4047,"is_reserved":false,"is_disabled":false,"rental_uris":{"android":"levelo://app?vid=c7f24469-1136-4e21-b84a-0a12ce3b4eea","ios":"levelo://app?vid=c7f24469-1136-4e21-b84a-0a12ce3b4eea"},"vehicle_type_id":"4","last_reported":1734655556,"current_range_meters":9200,"station_id":"ce4bh012rcd13ifvqd00","pricing_plan_id":"cebpf4jnsgd1na2vs0mg"},{"bike_id":"cc50149b-a9a4-4cf7-b279-15886a00ebba","system_id":"levelo_inurba_marseille","lat":43.26488,"lon":5.39554,"is_reserved":false,"is_disabled":false,"rental_uris":{"android":"levelo://app?vid=cc50149b-a9a4-4cf7-b279-15886a00ebba","ios":"levelo://app?vid=cc50149b-a9a4-4cf7-b279-15886a00ebba"},"vehicle_type_id":"4","last_reported":1734655556,"current_range_meters":17200,"station_id":"ce4bhi12rcd13ifvqfq0","pricing_plan_id":"cebpf4jnsgd1na2vs0mg"},{"bike_id":"cc3fa2e6-b492-4bfb-aaa2-b9a694b168ca","system_id":"levelo_inurba_marseille","lat":43.28358,"lon":5.38099,"is_reserved":false,"is_disabled":false,"rental_uris":{"android":"levelo://app?vid=cc3fa2e6-b492-4bfb-aaa2-b9a694b168ca","ios":"levelo://app?vid=cc3fa2e6-b492-4bfb-aaa2-b9a694b168ca"},"vehicle_type_id":"4","last_reported":1734655556,"current_range_meters":31200,"station_id":"ce4bh412rcd13ifvqdr0","pricing_plan_id":"cebpf4jnsgd1na2vs0mg"},{"bike_id":"7d308065-8b3a-44be-bed9-ce0f4f6ad9d2","system_id":"levelo_inurba_marseille","lat":43.27052,"lon":5.40261,"is_reserved":false,"is_disabled":false,"rental_uris":{"android":"levelo://app?vid=7d308065-8b3a-44be-bed9-ce0f4f6ad9d2","ios":"levelo://app?vid=7d308065-8b3a-44be-bed9-ce0f4f6ad9d2"},"vehicle_type_id":"4","last_reported":1734655556,"current_range_meters":24000,"station_id":"ce4bhk92rcd13ifvqgc0","pricing_plan_id":"cebpf4jnsgd1na2vs0mg"},{"bike_id":"b3631b15-1bf5-47b8-ba47-85c40ffe4d8d","system_id":"levelo_inurba_marseille","lat":43.29632,"lon":5.40596,"is_reserved":false,"is_disabled":false,"rental_uris":{"android":"levelo://app?vid=b3631b15-1bf5-47b8-ba47-85c40ffe4d8d","ios":"levelo://app?vid=b3631b15-1bf5-47b8-ba47-85c40ffe4d8d"},"vehicle_type_id":"4","last_reported":1734655556,"current_range_meters":24400,"station_id":"ce4bh0h2rcd13ifvqd60","pricing_plan_id":"cebpf4jnsgd1na2vs0mg"},{"bike_id":"f6cc3e67-b6ce-417b-9a39-9488e4fff010","system_id":"levelo_inurba_marseille","lat":43.28439,"lon":5.39176,"is_reserved":false,"is_disabled":false,"rental_uris":{"android":"levelo://app?vid=f6cc3e67-b6ce-417b-9a39-9488e4fff010","ios":"levelo://app?vid=f6cc3e67-b6ce-417b-9a39-9488e4fff010"},"vehicle_type_id":"4","last_reported":1734655556,"current_range_meters":29600,"station_id":"ce4bhoh2rcd13ifvqh5g","pricing_plan_id":"cebpf4jnsgd1na2vs0mg"},{"bike_id":"85f27a5d-9af7-4b09-a20c-f802a8f11d6d","system_id":"levelo_inurba_marseille","lat":43.32662,"lon":5.40986,"is_reserved":false,"is_disabled":false,"rental_uris":{"android":"levelo://app?vid=85f27a5d-9af7-4b09-a20c-f802a8f11d6d","ios":"levelo://app?vid=85f27a5d-9af7-4b09-a20c-f802a8f11d6d"},"vehicle_type_id":"4","last_reported":1734655556,"current_range_meters":14400,"station_id":"ce4bhpp2rcd13ifvqhgg","pricing_plan_id":"cebpf4jnsgd1na2vs0mg"},{"bike_id":"d34bdf4f-71bc-4ae4-b273-f3852ddc692a","system_id":"levelo_inurba_marseille","lat":43.33756,"lon":5.37472,"is_reserved":false,"is_disabled":false,"rental_uris":{"android":"levelo://app?vid=d34bdf4f-71bc-4ae4-b273-f3852ddc692a","ios":"levelo://app?vid=d34bdf4f-71bc-4ae4-b273-f3852ddc692a"},"vehicle_type_id":"4","last_reported":1734655556,"current_range_meters":35600,"station_id":"","pricing_plan_id":"cebpf4jnsgd1na2vs0mg"},{"bike_id":"f64d73d0-f96c-4455-a454-0974d8a22425","system_id":"levelo_inurba_marseille","lat":43.30606,"lon":5.37222,"is_reserved":false,"is_disabled":false,"rental_uris":{"android":"levelo://app?vid=f64d73d0-f96c-4455-a454-0974d8a22425","ios":"levelo://app?vid=f64d73d0-f96c-4455-a454-0974d8a22425"},"vehicle_type_id":"4","last_reported":1734655556,"current_range_meters":37600,"station_id":"ce4bgqh2rcd13ifvqc4g","pricing_plan_id":"cebpf4jnsgd1na2vs0mg"},{"bike_id":"64ede71d-097c-4cc5-9d7f-15e785be5875","system_id":"levelo_inurba_marseille","lat":43.29572,"lon":5.39969,"is_reserved":false,"is_disabled":false,"rental_uris":{"android":"levelo://app?vid=64ede71d-097c-4cc5-9d7f-15e785be5875","ios":"levelo://app?vid=64ede71d-097c-4cc5-9d7f-15e785be5875"},"vehicle_type_id":"4","last_reported":1734655556,"current_range_meters":19200,"station_id":"ce4bh312rcd13ifvqdj0","pricing_plan_id":"cebpf4jnsgd1na2vs0mg"},{"bike_id":"6183d038-4dbc-4850-8b8c-35e77c60c9af","system_id":"levelo_inurba_marseille","lat":43.27914,"lon":5.39585,"is_reserved":false,"is_disabled":false,"rental_uris":{"android":"levelo://app?vid=6183d038-4dbc-4850-8b8c-35e77c60c9af","ios":"levelo://app?vid=6183d038-4dbc-4850-8b8c-35e77c60c9af"},"vehicle_type_id":"4","last_reported":1734655556,"current_range_meters":16800,"station_id":"ce4bhf92rcd13ifvqf40","pricing_plan_id":"cebpf4jnsgd1na2vs0mg"},{"bike_id":"c7a472ed-6dc3-4cde-83b8-4deb8af0b49b","system_id":"levelo_inurba_marseille","lat":43.24383,"lon":5.37054,"is_reserved":false,"is_disabled":false,"rental_uris":{"android":"levelo://app?vid=c7a472ed-6dc3-4cde-83b8-4deb8af0b49b","ios":"levelo://app?vid=c7a472ed-6dc3-4cde-83b8-4deb8af0b49b"},"vehicle_type_id":"4","last_reported":1734655556,"current_range_meters":24400,"station_id":"ce4bhhh2rcd13ifvqfk0","pricing_plan_id":"cebpf4jnsgd1na2vs0mg"},{"bike_id":"af375b95-98ed-4d0c-a1db-a5220a0cbfa9","system_id":"levelo_inurba_marseille","lat":43.3172,"lon":5.40438,"is_reserved":false,"is_disabled":false,"rental_uris":{"android":"levelo://app?vid=af375b95-98ed-4d0c-a1db-a5220a0cbfa9","ios":"levelo://app?vid=af375b95-98ed-4d0c-a1db-a5220a0cbfa9"},"vehicle_type_id":"4","last_reported":1734655556,"current_range_meters":38800,"station_id":"ce4bh012rcd13ifvqd00","pricing_plan_id":"cebpf4jnsgd1na2vs0mg"},{"bike_id":"d4c569b2-7d9f-4359-9e19-4375123c6764","system_id":"levelo_inurba_marseille","lat":43.24812,"lon":5.37465,"is_reserved":false,"is_disabled":false,"rental_uris":{"android":"levelo://app?vid=d4c569b2-7d9f-4359-9e19-4375123c6764","ios":"levelo://app?vid=d4c569b2-7d9f-4359-9e19-4375123c6764"},"vehicle_type_id":"4","last_reported":1734655556,"current_range_meters":25600,"station_id":"ce4bhgh2rcd13ifvqfb0","pricing_plan_id":"cebpf4jnsgd1na2vs0mg"},{"bike_id":"b042baac-48e3-41d4-beca-2c2cc4a183f1","system_id":"levelo_inurba_marseille","lat":43.232,"lon":5.35554,"is_reserved":false,"is_disabled":false,"rental_uris":{"android":"levelo://app?vid=b042baac-48e3-41d4-beca-2c2cc4a183f1","ios":"levelo://app?vid=b042baac-48e3-41d4-beca-2c2cc4a183f1"},"vehicle_type_id":"4","last_reported":1734655556,"current_range_meters":38800,"station_id":"ce4bhu92rcd13ifvqi70","pricing_plan_id":"cebpf4jnsgd1na2vs0mg"},{"bike_id":"2b16d6df-47e4-4298-b057-3deace416976","system_id":"levelo_inurba_marseille","lat":43.29955,"lon":5.41317,"is_reserved":false,"is_disabled":false,"rental_uris":{"android":"levelo://app?vid=2b16d6df-47e4-4298-b057-3deace416976","ios":"levelo://app?vid=2b16d6df-47e4-4298-b057-3deace416976"},"vehicle_type_id":"4","last_reported":1734655556,"current_range_meters":39200,"station_id":"ce4bhp12rcd13ifvqh9g","pricing_plan_id":"cebpf4jnsgd1na2vs0mg"},{"bike_id":"b0a13592-7cce-4d9c-b407-7810a71613ab","system_id":"levelo_inurba_marseille","lat":43.28728,"lon":5.36092,"is_reserved":false,"is_disabled":false,"rental_uris":{"android":"levelo://app?vid=b0a13592-7cce-4d9c-b407-7810a71613ab","ios":"levelo://app?vid=b0a13592-7cce-4d9c-b407-7810a71613ab"},"vehicle_type_id":"4","last_reported":1734655556,"current_range_meters":38000,"station_id":"cki0cbj6b192h4jlfktg","pricing_plan_id":"cebpf4jnsgd1na2vs0mg"},{"bike_id":"48402390-8bf8-4527-8226-790169c2cea8","system_id":"levelo_inurba_marseille","lat":43.24078,"lon":5.37759,"is_reserved":false,"is_disabled":false,"rental_uris":{"android":"levelo://app?vid=48402390-8bf8-4527-8226-790169c2cea8","ios":"levelo://app?vid=48402390-8bf8-4527-8226-790169c2cea8"},"vehicle_type_id":"4","last_reported":1734655556,"current_range_meters":39200,"station_id":"ce4bhnp2rcd13ifvqgvg","pricing_plan_id":"cebpf4jnsgd1na2vs0mg"},{"bike_id":"8c4ecedf-c52e-488a-b2f9-f8570f79cdde","system_id":"levelo_inurba_marseille","lat":43.2808,"lon":5.39662,"is_reserved":false,"is_disabled":false,"rental_uris":{"android":"levelo://app?vid=8c4ecedf-c52e-488a-b2f9-f8570f79cdde","ios":"levelo://app?vid=8c4ecedf-c52e-488a-b2f9-f8570f79cdde"},"vehicle_type_id":"4","last_reported":1734655556,"current_range_meters":39200,"station_id":"ce4bho12rcd13ifvqh2g","pricing_plan_id":"cebpf4jnsgd1na2vs0mg"},{"bike_id":"3f35c514-84c7-403c-be41-f914dbb94369","system_id":"levelo_inurba_marseille","lat":43.24657,"lon":5.3889,"is_reserved":false,"is_disabled":false,"rental_uris":{"android":"levelo://app?vid=3f35c514-84c7-403c-be41-f914dbb94369","ios":"levelo://app?vid=3f35c514-84c7-403c-be41-f914dbb94369"},"vehicle_type_id":"4","last_reported":1734655556,"current_range_meters":38800,"station_id":"ce4bhg12rcd13ifvqf60","pricing_plan_id":"cebpf4jnsgd1na2vs0mg"},{"bike_id":"27572b69-5a13-49f8-ad75-4b6f705686e5","system_id":"levelo_inurba_marseille","lat":43.28097,"lon":5.37855,"is_reserved":false,"is_disabled":false,"rental_uris":{"android":"levelo://app?vid=27572b69-5a13-49f8-ad75-4b6f705686e5","ios":"levelo://app?vid=27572b69-5a13-49f8-ad75-4b6f705686e5"},"vehicle_type_id":"4","last_reported":1734655556,"current_range_meters":37600,"station_id":"ce4bha12rcd13ifvqee0","pricing_plan_id":"cebpf4jnsgd1na2vs0mg"},{"bike_id":"f20cd36c-a895-444d-b8aa-a67ddb893a61","system_id":"levelo_inurba_marseille","lat":43.30684,"lon":5.40094,"is_reserved":false,"is_disabled":true,"rental_uris":{"android":"levelo://app?vid=f20cd36c-a895-444d-b8aa-a67ddb893a61","ios":"levelo://app?vid=f20cd36c-a895-444d-b8aa-a67ddb893a61"},"vehicle_type_id":"4","last_reported":1734655556,"current_range_meters":6800,"station_id":"ce4bh112rcd13ifvqda0","pricing_plan_id":"cebpf4jnsgd1na2vs0mg"},{"bike_id":"6d32b82e-979e-4c43-81da-d68e20cc1423","system_id":"levelo_inurba_marseille","lat":43.31719,"lon":5.42399,"is_reserved":false,"is_disabled":false,"rental_uris":{"android":"levelo://app?vid=6d32b82e-979e-4c43-81da-d68e20cc1423","ios":"levelo://app?vid=6d32b82e-979e-4c43-81da-d68e20cc1423"},"vehicle_type_id":"4","last_reported":1734655556,"current_range_meters":30000,"station_id":"ce4bhp92rcd13ifvqhbg","pricing_plan_id":"cebpf4jnsgd1na2vs0mg"},{"bike_id":"45eef7a2-7813-485d-b132-f34196de9793","system_id":"levelo_inurba_marseille","lat":43.28723,"lon":5.36112,"is_reserved":false,"is_disabled":false,"rental_uris":{"android":"levelo://app?vid=45eef7a2-7813-485d-b132-f34196de9793","ios":"levelo://app?vid=45eef7a2-7813-485d-b132-f34196de9793"},"vehicle_type_id":"4","last_reported":1734655556,"current_range_meters":23200,"station_id":"cki0cbj6b192h4jlfktg","pricing_plan_id":"cebpf4jnsgd1na2vs0mg"},{"bike_id":"7d8b4789-db38-4881-a12e-8303c1c118b0","system_id":"levelo_inurba_marseille","lat":43.30314,"lon":5.36661,"is_reserved":false,"is_disabled":false,"rental_uris":{"android":"levelo://app?vid=7d8b4789-db38-4881-a12e-8303c1c118b0","ios":"levelo://app?vid=7d8b4789-db38-4881-a12e-8303c1c118b0"},"vehicle_type_id":"4","last_reported":1734655556,"current_range_meters":29600,"station_id":"","pricing_plan_id":"cebpf4jnsgd1na2vs0mg"},{"bike_id":"9afc83b9-38a8-4ff9-84e2-df7804219fd8","system_id":"levelo_inurba_marseille","lat":43.29278,"lon":5.40119,"is_reserved":false,"is_disabled":false,"rental_uris":{"android":"levelo://app?vid=9afc83b9-38a8-4ff9-84e2-df7804219fd8","ios":"levelo://app?vid=9afc83b9-38a8-4ff9-84e2-df7804219fd8"},"vehicle_type_id":"4","last_reported":1734655556,"current_range_meters":24400,"station_id":"ce4bh312rcd13ifvqdk0","pricing_plan_id":"cebpf4jnsgd1na2vs0mg"},{"bike_id":"06690fa9-3aa8-4c94-b9e7-7e6a3aa7dc5c","system_id":"levelo_inurba_marseille","lat":43.28664,"lon":5.36347,"is_reserved":false,"is_disabled":false,"rental_uris":{"android":"levelo://app?vid=06690fa9-3aa8-4c94-b9e7-7e6a3aa7dc5c","ios":"levelo://app?vid=06690fa9-3aa8-4c94-b9e7-7e6a3aa7dc5c"},"vehicle_type_id":"4","last_reported":1734655556,"current_range_meters":38800,"station_id":"ce4bhah2rcd13ifvqej0","pricing_plan_id":"cebpf4jnsgd1na2vs0mg"},{"bike_id":"c2f562b7-e571-418d-8c7d-e6c36c6f1b41","system_id":"levelo_inurba_marseille","lat":43.28664,"lon":5.36362,"is_reserved":false,"is_disabled":false,"rental_uris":{"android":"levelo://app?vid=c2f562b7-e571-418d-8c7d-e6c36c6f1b41","ios":"levelo://app?vid=c2f562b7-e571-418d-8c7d-e6c36c6f1b41"},"vehicle_type_id":"4","last_reported":1734655556,"current_range_meters":38400,"station_id":"ce4bhah2rcd13ifvqej0","pricing_plan_id":"cebpf4jnsgd1na2vs0mg"},{"bike_id":"fd516522-efeb-4c3a-b168-4e7991d4eb25","system_id":"levelo_inurba_marseille","lat":43.24072,"lon":5.37744,"is_reserved":false,"is_disabled":false,"rental_uris":{"android":"levelo://app?vid=fd516522-efeb-4c3a-b168-4e7991d4eb25","ios":"levelo://app?vid=fd516522-efeb-4c3a-b168-4e7991d4eb25"},"vehicle_type_id":"4","last_reported":1734655556,"current_range_meters":22400,"station_id":"ce4bhnp2rcd13ifvqgvg","pricing_plan_id":"cebpf4jnsgd1na2vs0mg"},{"bike_id":"633da7db-f271-4f69-8e13-d3d2c0cecadf","system_id":"levelo_inurba_marseille","lat":43.30205,"lon":5.39466,"is_reserved":false,"is_disabled":false,"rental_uris":{"android":"levelo://app?vid=633da7db-f271-4f69-8e13-d3d2c0cecadf","ios":"levelo://app?vid=633da7db-f271-4f69-8e13-d3d2c0cecadf"},"vehicle_type_id":"4","last_reported":1734655556,"current_range_meters":21600,"station_id":"ce4bh0p2rcd13ifvqd70","pricing_plan_id":"cebpf4jnsgd1na2vs0mg"},{"bike_id":"744a824f-4b40-4cbc-a6d2-44c6b8019656","system_id":"levelo_inurba_marseille","lat":43.30783,"lon":5.37654,"is_reserved":false,"is_disabled":false,"rental_uris":{"android":"levelo://app?vid=744a824f-4b40-4cbc-a6d2-44c6b8019656","ios":"levelo://app?vid=744a824f-4b40-4cbc-a6d2-44c6b8019656"},"vehicle_type_id":"4","last_reported":1734655556,"current_range_meters":10000,"station_id":"ce4bgv92rcd13ifvqcq0","pricing_plan_id":"cebpf4jnsgd1na2vs0mg"},{"bike_id":"e3abb7e0-9fa8-46b1-a69d-69b2f3b7f2a3","system_id":"levelo_inurba_marseille","lat":43.28101,"lon":5.37841,"is_reserved":false,"is_disabled":false,"rental_uris":{"android":"levelo://app?vid=e3abb7e0-9fa8-46b1-a69d-69b2f3b7f2a3","ios":"levelo://app?vid=e3abb7e0-9fa8-46b1-a69d-69b2f3b7f2a3"},"vehicle_type_id":"4","last_reported":1734655556,"current_range_meters":39200,"station_id":"ce4bha12rcd13ifvqee0","pricing_plan_id":"cebpf4jnsgd1na2vs0mg"},{"bike_id":"43ba8124-a8f0-438a-a4f1-fd9db2a2589e","system_id":"levelo_inurba_marseille","lat":43.33009,"lon":5.39027,"is_reserved":false,"is_disabled":false,"rental_uris":{"android":"levelo://app?vid=43ba8124-a8f0-438a-a4f1-fd9db2a2589e","ios":"levelo://app?vid=43ba8124-a8f0-438a-a4f1-fd9db2a2589e"},"vehicle_type_id":"4","last_reported":1734655556,"current_range_meters":22800,"station_id":"ce4bhr92rcd13ifvqhrg","pricing_plan_id":"cebpf4jnsgd1na2vs0mg"},{"bike_id":"059c4b4c-5951-4c74-b8de-98b868edecea","system_id":"levelo_inurba_marseille","lat":43.32482,"lon":5.36571,"is_reserved":false,"is_disabled":false,"rental_uris":{"android":"levelo://app?vid=059c4b4c-5951-4c74-b8de-98b868edecea","ios":"levelo://app?vid=059c4b4c-5951-4c74-b8de-98b868edecea"},"vehicle_type_id":"4","last_reported":1734655556,"current_range_meters":38000,"station_id":"ce4bhs12rcd13ifvqhvg","pricing_plan_id":"cebpf4jnsgd1na2vs0mg"},{"bike_id":"fddf43c1-3b88-4b0f-b975-9f4711ac5006","system_id":"levelo_inurba_marseille","lat":43.32659,"lon":5.40988,"is_reserved":false,"is_disabled":false,"rental_uris":{"android":"levelo://app?vid=fddf43c1-3b88-4b0f-b975-9f4711ac5006","ios":"levelo://app?vid=fddf43c1-3b88-4b0f-b975-9f4711ac5006"},"vehicle_type_id":"4","last_reported":1734655556,"current_range_meters":38400,"station_id":"ce4bhpp2rcd13ifvqhgg","pricing_plan_id":"cebpf4jnsgd1na2vs0mg"},{"bike_id":"d7f58b1c-a98b-49f3-be2f-9a4de0560eaf","system_id":"levelo_inurba_marseille","lat":43.28845,"lon":5.39301,"is_reserved":false,"is_disabled":false,"rental_uris":{"android":"levelo://app?vid=d7f58b1c-a98b-49f3-be2f-9a4de0560eaf","ios":"levelo://app?vid=d7f58b1c-a98b-49f3-be2f-9a4de0560eaf"},"vehicle_type_id":"4","last_reported":1734655556,"current_range_meters":38000,"station_id":"ce4bh2p2rcd13ifvqdi0","pricing_plan_id":"cebpf4jnsgd1na2vs0mg"},{"bike_id":"c5d3dda4-9397-4823-9c8b-ea8eda2ab949","system_id":"levelo_inurba_marseille","lat":43.23962,"lon":5.36634,"is_reserved":false,"is_disabled":false,"rental_uris":{"android":"levelo://app?vid=c5d3dda4-9397-4823-9c8b-ea8eda2ab949","ios":"levelo://app?vid=c5d3dda4-9397-4823-9c8b-ea8eda2ab949"},"vehicle_type_id":"4","last_reported":1734655556,"current_range_meters":36800,"station_id":"ce4bhi12rcd13ifvqfp0","pricing_plan_id":"cebpf4jnsgd1na2vs0mg"},{"bike_id":"bf06a9eb-8c15-4b16-83ce-1a9bc0374842","system_id":"levelo_inurba_marseille","lat":43.28708,"lon":5.39996,"is_reserved":false,"is_disabled":false,"rental_uris":{"android":"levelo://app?vid=bf06a9eb-8c15-4b16-83ce-1a9bc0374842","ios":"levelo://app?vid=bf06a9eb-8c15-4b16-83ce-1a9bc0374842"},"vehicle_type_id":"4","last_reported":1734655556,"current_range_meters":32400,"station_id":"ce4bho92rcd13ifvqh3g","pricing_plan_id":"cebpf4jnsgd1na2vs0mg"},{"bike_id":"46198677-8181-458c-98d7-2b979410eb9a","system_id":"levelo_inurba_marseille","lat":43.28363,"lon":5.38628,"is_reserved":false,"is_disabled":false,"rental_uris":{"android":"levelo://app?vid=46198677-8181-458c-98d7-2b979410eb9a","ios":"levelo://app?vid=46198677-8181-458c-98d7-2b979410eb9a"},"vehicle_type_id":"4","last_reported":1734655556,"current_range_meters":38800,"station_id":"ce4bh492rcd13ifvqdvg","pricing_plan_id":"cebpf4jnsgd1na2vs0mg"},{"bike_id":"873fe369-0c50-48a9-b4aa-a5854dc957cf","system_id":"levelo_inurba_marseille","lat":43.31507,"lon":5.37299,"is_reserved":false,"is_disabled":false,"rental_uris":{"android":"levelo://app?vid=873fe369-0c50-48a9-b4aa-a5854dc957cf","ios":"levelo://app?vid=873fe369-0c50-48a9-b4aa-a5854dc957cf"},"vehicle_type_id":"4","last_reported":1734655556,"current_range_meters":6800,"station_id":"ce4bgt12rcd13ifvqcd0","pricing_plan_id":"cebpf4jnsgd1na2vs0mg"},{"bike_id":"b11dec3c-37ae-4e5f-a182-7db8571c22d2","system_id":"levelo_inurba_marseille","lat":43.29911,"lon":5.43647,"is_reserved":false,"is_disabled":false,"rental_uris":{"android":"levelo://app?vid=b11dec3c-37ae-4e5f-a182-7db8571c22d2","ios":"levelo://app?vid=b11dec3c-37ae-4e5f-a182-7db8571c22d2"},"vehicle_type_id":"4","last_reported":1734655556,"current_range_meters":34800,"station_id":"ce4bhpp2rcd13ifvqhfg","pricing_plan_id":"cebpf4jnsgd1na2vs0mg"},{"bike_id":"38cd9618-79a9-4f99-a82d-b058223cf2c2","system_id":"levelo_inurba_marseille","lat":43.31264,"lon":5.40176,"is_reserved":false,"is_disabled":false,"rental_uris":{"android":"levelo://app?vid=38cd9618-79a9-4f99-a82d-b058223cf2c2","ios":"levelo://app?vid=38cd9618-79a9-4f99-a82d-b058223cf2c2"},"vehicle_type_id":"4","last_reported":1734655556,"current_range_meters":38800,"station_id":"ce4bh092rcd13ifvqd30","pricing_plan_id":"cebpf4jnsgd1na2vs0mg"},{"bike_id":"72492ff3-d3e5-4b81-822b-1d3357339451","system_id":"levelo_inurba_marseille","lat":43.29118,"lon":5.39934,"is_reserved":false,"is_disabled":true,"rental_uris":{"android":"levelo://app?vid=72492ff3-d3e5-4b81-822b-1d3357339451","ios":"levelo://app?vid=72492ff3-d3e5-4b81-822b-1d3357339451"},"vehicle_type_id":"4","last_reported":1734655556,"current_range_meters":33600,"station_id":"","pricing_plan_id":"cebpf4jnsgd1na2vs0mg"},{"bike_id":"5ad6b2aa-0559-42ee-b90e-7d6b2e938e1d","system_id":"levelo_inurba_marseille","lat":43.29565,"lon":5.39962,"is_reserved":false,"is_disabled":false,"rental_uris":{"android":"levelo://app?vid=5ad6b2aa-0559-42ee-b90e-7d6b2e938e1d","ios":"levelo://app?vid=5ad6b2aa-0559-42ee-b90e-7d6b2e938e1d"},"vehicle_type_id":"4","last_reported":1734655556,"current_range_meters":19600,"station_id":"ce4bh312rcd13ifvqdj0","pricing_plan_id":"cebpf4jnsgd1na2vs0mg"},{"bike_id":"68cc3280-8c90-422e-b1e6-051d15979724","system_id":"levelo_inurba_marseille","lat":43.232,"lon":5.39997,"is_reserved":false,"is_disabled":false,"rental_uris":{"android":"levelo://app?vid=68cc3280-8c90-422e-b1e6-051d15979724","ios":"levelo://app?vid=68cc3280-8c90-422e-b1e6-051d15979724"},"vehicle_type_id":"4","last_reported":1734655556,"current_range_meters":20000,"station_id":"ce4bhn12rcd13ifvqgqg","pricing_plan_id":"cebpf4jnsgd1na2vs0mg"},{"bike_id":"2f3ffe14-db03-4fbe-b9e8-6285c689975c","system_id":"levelo_inurba_marseille","lat":43.31326,"lon":5.39699,"is_reserved":false,"is_disabled":false,"rental_uris":{"android":"levelo://app?vid=2f3ffe14-db03-4fbe-b9e8-6285c689975c","ios":"levelo://app?vid=2f3ffe14-db03-4fbe-b9e8-6285c689975c"},"vehicle_type_id":"4","last_reported":1734655556,"current_range_meters":17600,"station_id":"ce4bgvp2rcd13ifvqcu0","pricing_plan_id":"cebpf4jnsgd1na2vs0mg"},{"bike_id":"c6eac602-9754-4e9d-8972-87c49c925ed4","system_id":"levelo_inurba_marseille","lat":43.27821,"lon":5.40717,"is_reserved":false,"is_disabled":false,"rental_uris":{"android":"levelo://app?vid=c6eac602-9754-4e9d-8972-87c49c925ed4","ios":"levelo://app?vid=c6eac602-9754-4e9d-8972-87c49c925ed4"},"vehicle_type_id":"4","last_reported":1734655556,"current_range_meters":38800,"station_id":"ce4bhnh2rcd13ifvqgtg","pricing_plan_id":"cebpf4jnsgd1na2vs0mg"},{"bike_id":"829137e0-4e72-4164-b199-ceb19f2bf2f1","system_id":"levelo_inurba_marseille","lat":43.30788,"lon":5.376504,"is_reserved":false,"is_disabled":false,"rental_uris":{"android":"levelo://app?vid=829137e0-4e72-4164-b199-ceb19f2bf2f1","ios":"levelo://app?vid=829137e0-4e72-4164-b199-ceb19f2bf2f1"},"vehicle_type_id":"4","last_reported":1734655556,"current_range_meters":38800,"station_id":"ce4bgv92rcd13ifvqcq0","pricing_plan_id":"cebpf4jnsgd1na2vs0mg"},{"bike_id":"d2b6250e-1a99-4d78-85b8-f81a5abc2f21","system_id":"levelo_inurba_marseille","lat":43.31528,"lon":5.38035,"is_reserved":false,"is_disabled":false,"rental_uris":{"android":"levelo://app?vid=d2b6250e-1a99-4d78-85b8-f81a5abc2f21","ios":"levelo://app?vid=d2b6250e-1a99-4d78-85b8-f81a5abc2f21"},"vehicle_type_id":"4","last_reported":1734655556,"current_range_meters":38800,"station_id":"ce4bhsp2rcd13ifvqi50","pricing_plan_id":"cebpf4jnsgd1na2vs0mg"},{"bike_id":"7c71d15e-bec0-4fc8-b356-18e5586d7a07","system_id":"levelo_inurba_marseille","lat":43.28096,"lon":5.37834,"is_reserved":false,"is_disabled":false,"rental_uris":{"android":"levelo://app?vid=7c71d15e-bec0-4fc8-b356-18e5586d7a07","ios":"levelo://app?vid=7c71d15e-bec0-4fc8-b356-18e5586d7a07"},"vehicle_type_id":"4","last_reported":1734655556,"current_range_meters":20400,"station_id":"ce4bha12rcd13ifvqee0","pricing_plan_id":"cebpf4jnsgd1na2vs0mg"},{"bike_id":"709022cd-8dd1-43a6-9411-5272dd41a3c9","system_id":"levelo_inurba_marseille","lat":43.29794,"lon":5.39342,"is_reserved":false,"is_disabled":false,"rental_uris":{"android":"levelo://app?vid=709022cd-8dd1-43a6-9411-5272dd41a3c9","ios":"levelo://app?vid=709022cd-8dd1-43a6-9411-5272dd41a3c9"},"vehicle_type_id":"4","last_reported":1734655556,"current_range_meters":27200,"station_id":"chh1huq6cuj3fo74tm60","pricing_plan_id":"cebpf4jnsgd1na2vs0mg"},{"bike_id":"143f6897-d3e8-4464-b008-03e410ce1f1b","system_id":"levelo_inurba_marseille","lat":43.28099,"lon":5.37859,"is_reserved":false,"is_disabled":false,"rental_uris":{"android":"levelo://app?vid=143f6897-d3e8-4464-b008-03e410ce1f1b","ios":"levelo://app?vid=143f6897-d3e8-4464-b008-03e410ce1f1b"},"vehicle_type_id":"4","last_reported":1734655556,"current_range_meters":16800,"station_id":"ce4bha12rcd13ifvqee0","pricing_plan_id":"cebpf4jnsgd1na2vs0mg"},{"bike_id":"370b1eb6-4f45-4760-84c5-106172693f5d","system_id":"levelo_inurba_marseille","lat":43.23963,"lon":5.36637,"is_reserved":false,"is_disabled":false,"rental_uris":{"android":"levelo://app?vid=370b1eb6-4f45-4760-84c5-106172693f5d","ios":"levelo://app?vid=370b1eb6-4f45-4760-84c5-106172693f5d"},"vehicle_type_id":"4","last_reported":1734655556,"current_range_meters":26000,"station_id":"ce4bhi12rcd13ifvqfp0","pricing_plan_id":"cebpf4jnsgd1na2vs0mg"},{"bike_id":"82708ae4-5cdd-4128-a268-1d1384767351","system_id":"levelo_inurba_marseille","lat":43.27995,"lon":5.41667,"is_reserved":false,"is_disabled":false,"rental_uris":{"android":"levelo://app?vid=82708ae4-5cdd-4128-a268-1d1384767351","ios":"levelo://app?vid=82708ae4-5cdd-4128-a268-1d1384767351"},"vehicle_type_id":"4","last_reported":1734655556,"current_range_meters":38800,"station_id":"ce4bho12rcd13ifvqh1g","pricing_plan_id":"cebpf4jnsgd1na2vs0mg"},{"bike_id":"782bcbf2-b7de-4b04-bebc-aaa0329dd90c","system_id":"levelo_inurba_marseille","lat":43.231928,"lon":5.355539,"is_reserved":false,"is_disabled":false,"rental_uris":{"android":"levelo://app?vid=782bcbf2-b7de-4b04-bebc-aaa0329dd90c","ios":"levelo://app?vid=782bcbf2-b7de-4b04-bebc-aaa0329dd90c"},"vehicle_type_id":"4","last_reported":1734655556,"current_range_meters":38000,"station_id":"ce4bhu92rcd13ifvqi70","pricing_plan_id":"cebpf4jnsgd1na2vs0mg"},{"bike_id":"37a27d0f-052c-4fc2-bbb9-7ae126b9828e","system_id":"levelo_inurba_marseille","lat":43.30888,"lon":5.39634,"is_reserved":false,"is_disabled":false,"rental_uris":{"android":"levelo://app?vid=37a27d0f-052c-4fc2-bbb9-7ae126b9828e","ios":"levelo://app?vid=37a27d0f-052c-4fc2-bbb9-7ae126b9828e"},"vehicle_type_id":"4","last_reported":1734655556,"current_range_meters":9600,"station_id":"ce4bh012rcd13ifvqcv0","pricing_plan_id":"cebpf4jnsgd1na2vs0mg"},{"bike_id":"67e590f7-0feb-4571-9ae2-729bb19e5be9","system_id":"levelo_inurba_marseille","lat":43.28462,"lon":5.35882,"is_reserved":false,"is_disabled":false,"rental_uris":{"android":"levelo://app?vid=67e590f7-0feb-4571-9ae2-729bb19e5be9","ios":"levelo://app?vid=67e590f7-0feb-4571-9ae2-729bb19e5be9"},"vehicle_type_id":"4","last_reported":1734655556,"current_range_meters":17600,"station_id":"ce4bhah2rcd13ifvqei0","pricing_plan_id":"cebpf4jnsgd1na2vs0mg"},{"bike_id":"850d14d0-4045-44f9-a413-9fcb8d2ce022","system_id":"levelo_inurba_marseille","lat":43.28564,"lon":5.39498,"is_reserved":false,"is_disabled":false,"rental_uris":{"android":"levelo://app?vid=850d14d0-4045-44f9-a413-9fcb8d2ce022","ios":"levelo://app?vid=850d14d0-4045-44f9-a413-9fcb8d2ce022"},"vehicle_type_id":"4","last_reported":1734655556,"current_range_meters":28000,"station_id":"ce4bh292rcd13ifvqdg0","pricing_plan_id":"cebpf4jnsgd1na2vs0mg"},{"bike_id":"2fde1f92-3827-4c76-8ad9-2db1a9a74cf3","system_id":"levelo_inurba_marseille","lat":43.295507,"lon":5.374903,"is_reserved":false,"is_disabled":true,"rental_uris":{"android":"levelo://app?vid=2fde1f92-3827-4c76-8ad9-2db1a9a74cf3","ios":"levelo://app?vid=2fde1f92-3827-4c76-8ad9-2db1a9a74cf3"},"vehicle_type_id":"4","last_reported":1734655556,"current_range_meters":0,"station_id":"","pricing_plan_id":"cebpf4jnsgd1na2vs0mg"},{"bike_id":"334f42dd-a5e4-4137-bac8-2ce3b68842c1","system_id":"levelo_inurba_marseille","lat":43.31708,"lon":5.37756,"is_reserved":false,"is_disabled":false,"rental_uris":{"android":"levelo://app?vid=334f42dd-a5e4-4137-bac8-2ce3b68842c1","ios":"levelo://app?vid=334f42dd-a5e4-4137-bac8-2ce3b68842c1"},"vehicle_type_id":"4","last_reported":1734655556,"current_range_meters":17200,"station_id":"ce4bgth2rcd13ifvqch0","pricing_plan_id":"cebpf4jnsgd1na2vs0mg"},{"bike_id":"96ff88dc-8cf7-4b0f-a345-fa00220da932","system_id":"levelo_inurba_marseille","lat":43.27415,"lon":5.424,"is_reserved":false,"is_disabled":true,"rental_uris":{"android":"levelo://app?vid=96ff88dc-8cf7-4b0f-a345-fa00220da932","ios":"levelo://app?vid=96ff88dc-8cf7-4b0f-a345-fa00220da932"},"vehicle_type_id":"4","last_reported":1734655556,"current_range_meters":0,"station_id":"","pricing_plan_id":"cebpf4jnsgd1na2vs0mg"},{"bike_id":"1897ad2d-5c02-4d9f-ba4c-937899dfbdc3","system_id":"levelo_inurba_marseille","lat":43.24393,"lon":5.37048,"is_reserved":false,"is_disabled":false,"rental_uris":{"android":"levelo://app?vid=1897ad2d-5c02-4d9f-ba4c-937899dfbdc3","ios":"levelo://app?vid=1897ad2d-5c02-4d9f-ba4c-937899dfbdc3"},"vehicle_type_id":"4","last_reported":1734655556,"current_range_meters":39200,"station_id":"ce4bhhh2rcd13ifvqfk0","pricing_plan_id":"cebpf4jnsgd1na2vs0mg"},{"bike_id":"65beeeaa-6e76-40b2-ae80-6ac75a3b3354","system_id":"levelo_inurba_marseille","lat":43.29443,"lon":5.39748,"is_reserved":false,"is_disabled":false,"rental_uris":{"android":"levelo://app?vid=65beeeaa-6e76-40b2-ae80-6ac75a3b3354","ios":"levelo://app?vid=65beeeaa-6e76-40b2-ae80-6ac75a3b3354"},"vehicle_type_id":"4","last_reported":1734655556,"current_range_meters":39200,"station_id":"ce4bh3h2rcd13ifvqdo0","pricing_plan_id":"cebpf4jnsgd1na2vs0mg"},{"bike_id":"e2d5bb68-b78d-4d1a-9d46-f9895ac2b623","system_id":"levelo_inurba_marseille","lat":43.2846,"lon":5.3588,"is_reserved":false,"is_disabled":false,"rental_uris":{"android":"levelo://app?vid=e2d5bb68-b78d-4d1a-9d46-f9895ac2b623","ios":"levelo://app?vid=e2d5bb68-b78d-4d1a-9d46-f9895ac2b623"},"vehicle_type_id":"4","last_reported":1734655556,"current_range_meters":29600,"station_id":"ce4bhah2rcd13ifvqei0","pricing_plan_id":"cebpf4jnsgd1na2vs0mg"},{"bike_id":"d544ae98-0128-4d06-9321-3538d08c4bd5","system_id":"levelo_inurba_marseille","lat":43.27905,"lon":5.38005,"is_reserved":false,"is_disabled":false,"rental_uris":{"android":"levelo://app?vid=d544ae98-0128-4d06-9321-3538d08c4bd5","ios":"levelo://app?vid=d544ae98-0128-4d06-9321-3538d08c4bd5"},"vehicle_type_id":"4","last_reported":1734655556,"current_range_meters":38800,"station_id":"ce4bhf92rcd13ifvqf50","pricing_plan_id":"cebpf4jnsgd1na2vs0mg"},{"bike_id":"76149aba-788f-404a-9c6c-040f61c91c7a","system_id":"levelo_inurba_marseille","lat":43.23184,"lon":5.39992,"is_reserved":false,"is_disabled":false,"rental_uris":{"android":"levelo://app?vid=76149aba-788f-404a-9c6c-040f61c91c7a","ios":"levelo://app?vid=76149aba-788f-404a-9c6c-040f61c91c7a"},"vehicle_type_id":"4","last_reported":1734655556,"current_range_meters":32800,"station_id":"ce4bhn12rcd13ifvqgqg","pricing_plan_id":"cebpf4jnsgd1na2vs0mg"},{"bike_id":"b7b04fe7-6a08-4cf8-96cd-5b04b38aa73f","system_id":"levelo_inurba_marseille","lat":43.28715,"lon":5.37941,"is_reserved":false,"is_disabled":false,"rental_uris":{"android":"levelo://app?vid=b7b04fe7-6a08-4cf8-96cd-5b04b38aa73f","ios":"levelo://app?vid=b7b04fe7-6a08-4cf8-96cd-5b04b38aa73f"},"vehicle_type_id":"4","last_reported":1734655556,"current_range_meters":36800,"station_id":"ce4bh9p2rcd13ifvqec0","pricing_plan_id":"cebpf4jnsgd1na2vs0mg"},{"bike_id":"953976a9-1efe-4cab-b65b-47af6062dd40","system_id":"levelo_inurba_marseille","lat":43.29275,"lon":5.40113,"is_reserved":false,"is_disabled":false,"rental_uris":{"android":"levelo://app?vid=953976a9-1efe-4cab-b65b-47af6062dd40","ios":"levelo://app?vid=953976a9-1efe-4cab-b65b-47af6062dd40"},"vehicle_type_id":"4","last_reported":1734655556,"current_range_meters":39200,"station_id":"ce4bh312rcd13ifvqdk0","pricing_plan_id":"cebpf4jnsgd1na2vs0mg"},{"bike_id":"7d3284d5-3f82-4c96-9ecc-ae4492d2655a","system_id":"levelo_inurba_marseille","lat":43.33035,"lon":5.38976,"is_reserved":false,"is_disabled":false,"rental_uris":{"android":"levelo://app?vid=7d3284d5-3f82-4c96-9ecc-ae4492d2655a","ios":"levelo://app?vid=7d3284d5-3f82-4c96-9ecc-ae4492d2655a"},"vehicle_type_id":"4","last_reported":1734655556,"current_range_meters":38800,"station_id":"ce4bhr92rcd13ifvqhrg","pricing_plan_id":"cebpf4jnsgd1na2vs0mg"},{"bike_id":"330bf880-e1f5-4f4a-b329-f0f879268631","system_id":"levelo_inurba_marseille","lat":43.28863,"lon":5.39316,"is_reserved":false,"is_disabled":true,"rental_uris":{"android":"levelo://app?vid=330bf880-e1f5-4f4a-b329-f0f879268631","ios":"levelo://app?vid=330bf880-e1f5-4f4a-b329-f0f879268631"},"vehicle_type_id":"4","last_reported":1734655556,"current_range_meters":17600,"station_id":"ce4bh2p2rcd13ifvqdi0","pricing_plan_id":"cebpf4jnsgd1na2vs0mg"},{"bike_id":"44127e4e-8e84-4a38-89f7-8f4efb63f7a5","system_id":"levelo_inurba_marseille","lat":43.31202,"lon":5.36754,"is_reserved":false,"is_disabled":true,"rental_uris":{"android":"levelo://app?vid=44127e4e-8e84-4a38-89f7-8f4efb63f7a5","ios":"levelo://app?vid=44127e4e-8e84-4a38-89f7-8f4efb63f7a5"},"vehicle_type_id":"4","last_reported":1734655556,"current_range_meters":0,"station_id":"","pricing_plan_id":"cebpf4jnsgd1na2vs0mg"},{"bike_id":"4c5cdf28-9f8a-48e8-9806-9dada88c6695","system_id":"levelo_inurba_marseille","lat":43.28468,"lon":5.3588,"is_reserved":false,"is_disabled":false,"rental_uris":{"android":"levelo://app?vid=4c5cdf28-9f8a-48e8-9806-9dada88c6695","ios":"levelo://app?vid=4c5cdf28-9f8a-48e8-9806-9dada88c6695"},"vehicle_type_id":"4","last_reported":1734655556,"current_range_meters":30800,"station_id":"ce4bhah2rcd13ifvqei0","pricing_plan_id":"cebpf4jnsgd1na2vs0mg"},{"bike_id":"68bcf2dd-6c58-428c-9d28-9905190ef1aa","system_id":"levelo_inurba_marseille","lat":43.29785,"lon":5.37101,"is_reserved":false,"is_disabled":false,"rental_uris":{"android":"levelo://app?vid=68bcf2dd-6c58-428c-9d28-9905190ef1aa","ios":"levelo://app?vid=68bcf2dd-6c58-428c-9d28-9905190ef1aa"},"vehicle_type_id":"4","last_reported":1734655556,"current_range_meters":29600,"station_id":"ce4bgop2rcd13ifvqc1g","pricing_plan_id":"cebpf4jnsgd1na2vs0mg"},{"bike_id":"60c24abf-7634-4c1d-be8e-3905917c0f35","system_id":"levelo_inurba_marseille","lat":43.260568,"lon":5.394013,"is_reserved":false,"is_disabled":false,"rental_uris":{"android":"levelo://app?vid=60c24abf-7634-4c1d-be8e-3905917c0f35","ios":"levelo://app?vid=60c24abf-7634-4c1d-be8e-3905917c0f35"},"vehicle_type_id":"4","last_reported":1734655556,"current_range_meters":27600,"station_id":"ce4bhh92rcd13ifvqfj0","pricing_plan_id":"cebpf4jnsgd1na2vs0mg"},{"bike_id":"672fcf6f-8699-4143-9c5f-2e6d1ee3aa80","system_id":"levelo_inurba_marseille","lat":43.30551,"lon":5.36708,"is_reserved":false,"is_disabled":true,"rental_uris":{"android":"levelo://app?vid=672fcf6f-8699-4143-9c5f-2e6d1ee3aa80","ios":"levelo://app?vid=672fcf6f-8699-4143-9c5f-2e6d1ee3aa80"},"vehicle_type_id":"4","last_reported":1734655556,"current_range_meters":38400,"station_id":"ce4bgrp2rcd13ifvqc9g","pricing_plan_id":"cebpf4jnsgd1na2vs0mg"},{"bike_id":"ff1810ea-7920-431d-a554-3cf458736fb3","system_id":"levelo_inurba_marseille","lat":43.275714,"lon":5.384128,"is_reserved":false,"is_disabled":false,"rental_uris":{"android":"levelo://app?vid=ff1810ea-7920-431d-a554-3cf458736fb3","ios":"levelo://app?vid=ff1810ea-7920-431d-a554-3cf458736fb3"},"vehicle_type_id":"4","last_reported":1734655556,"current_range_meters":17600,"station_id":"ce4bhh92rcd13ifvqfi0","pricing_plan_id":"cebpf4jnsgd1na2vs0mg"},{"bike_id":"fa450f79-0071-470a-a8a0-47379ffcc822","system_id":"levelo_inurba_marseille","lat":43.25085,"lon":5.39539,"is_reserved":false,"is_disabled":false,"rental_uris":{"android":"levelo://app?vid=fa450f79-0071-470a-a8a0-47379ffcc822","ios":"levelo://app?vid=fa450f79-0071-470a-a8a0-47379ffcc822"},"vehicle_type_id":"4","last_reported":1734655556,"current_range_meters":12800,"station_id":"ce4bhm12rcd13ifvqgkg","pricing_plan_id":"cebpf4jnsgd1na2vs0mg"},{"bike_id":"8c0284b4-316a-4990-9f72-90614485964b","system_id":"levelo_inurba_marseille","lat":43.28967,"lon":5.3783,"is_reserved":false,"is_disabled":false,"rental_uris":{"android":"levelo://app?vid=8c0284b4-316a-4990-9f72-90614485964b","ios":"levelo://app?vid=8c0284b4-316a-4990-9f72-90614485964b"},"vehicle_type_id":"4","last_reported":1734655556,"current_range_meters":38800,"station_id":"ce4bh9p2rcd13ifvqed0","pricing_plan_id":"cebpf4jnsgd1na2vs0mg"},{"bike_id":"7c4f5997-16b5-4e1c-afab-c50725c8e70c","system_id":"levelo_inurba_marseille","lat":43.30456,"lon":5.38921,"is_reserved":false,"is_disabled":false,"rental_uris":{"android":"levelo://app?vid=7c4f5997-16b5-4e1c-afab-c50725c8e70c","ios":"levelo://app?vid=7c4f5997-16b5-4e1c-afab-c50725c8e70c"},"vehicle_type_id":"4","last_reported":1734655556,"current_range_meters":39200,"station_id":"ce4bgk12rcd13ifvqbi0","pricing_plan_id":"cebpf4jnsgd1na2vs0mg"},{"bike_id":"1ed431a0-c404-460c-8b06-9b7816088b4f","system_id":"levelo_inurba_marseille","lat":43.32326,"lon":5.40612,"is_reserved":false,"is_disabled":false,"rental_uris":{"android":"levelo://app?vid=1ed431a0-c404-460c-8b06-9b7816088b4f","ios":"levelo://app?vid=1ed431a0-c404-460c-8b06-9b7816088b4f"},"vehicle_type_id":"4","last_reported":1734655556,"current_range_meters":39200,"station_id":"ce4bhq92rcd13ifvqhjg","pricing_plan_id":"cebpf4jnsgd1na2vs0mg"},{"bike_id":"88d0fca1-50cd-440e-a583-785fe0c07914","system_id":"levelo_inurba_marseille","lat":43.28494,"lon":5.37907,"is_reserved":false,"is_disabled":false,"rental_uris":{"android":"levelo://app?vid=88d0fca1-50cd-440e-a583-785fe0c07914","ios":"levelo://app?vid=88d0fca1-50cd-440e-a583-785fe0c07914"},"vehicle_type_id":"4","last_reported":1734655556,"current_range_meters":6800,"station_id":"","pricing_plan_id":"cebpf4jnsgd1na2vs0mg"},{"bike_id":"62159b96-70de-4225-a341-fe8203f1c374","system_id":"levelo_inurba_marseille","lat":43.28937,"lon":5.39654,"is_reserved":false,"is_disabled":true,"rental_uris":{"android":"levelo://app?vid=62159b96-70de-4225-a341-fe8203f1c374","ios":"levelo://app?vid=62159b96-70de-4225-a341-fe8203f1c374"},"vehicle_type_id":"4","last_reported":1734655556,"current_range_meters":35600,"station_id":"ce4bh3h2rcd13ifvqdn0","pricing_plan_id":"cebpf4jnsgd1na2vs0mg"},{"bike_id":"2e6eb009-aaf2-4885-9607-b969c2a62d4d","system_id":"levelo_inurba_marseille","lat":43.304335,"lon":5.388851,"is_reserved":false,"is_disabled":false,"rental_uris":{"android":"levelo://app?vid=2e6eb009-aaf2-4885-9607-b969c2a62d4d","ios":"levelo://app?vid=2e6eb009-aaf2-4885-9607-b969c2a62d4d"},"vehicle_type_id":"4","last_reported":1734655556,"current_range_meters":39200,"station_id":"ce4bgk12rcd13ifvqbi0","pricing_plan_id":"cebpf4jnsgd1na2vs0mg"},{"bike_id":"e1a4f261-1dea-467f-a05c-0bc61f7f4482","system_id":"levelo_inurba_marseille","lat":43.29072,"lon":5.37149,"is_reserved":false,"is_disabled":false,"rental_uris":{"android":"levelo://app?vid=e1a4f261-1dea-467f-a05c-0bc61f7f4482","ios":"levelo://app?vid=e1a4f261-1dea-467f-a05c-0bc61f7f4482"},"vehicle_type_id":"4","last_reported":1734655556,"current_range_meters":38800,"station_id":"ce4bh5p2rcd13ifvqe4g","pricing_plan_id":"cebpf4jnsgd1na2vs0mg"},{"bike_id":"5e62f0c4-6be8-4231-8811-4a9c4e415587","system_id":"levelo_inurba_marseille","lat":43.27159,"lon":5.39158,"is_reserved":false,"is_disabled":false,"rental_uris":{"android":"levelo://app?vid=5e62f0c4-6be8-4231-8811-4a9c4e415587","ios":"levelo://app?vid=5e62f0c4-6be8-4231-8811-4a9c4e415587"},"vehicle_type_id":"4","last_reported":1734655556,"current_range_meters":29600,"station_id":"ce4bhi12rcd13ifvqfq0","pricing_plan_id":"cebpf4jnsgd1na2vs0mg"},{"bike_id":"f456b22d-0774-4c1d-b4ac-9db9b6b42dc9","system_id":"levelo_inurba_marseille","lat":43.29687,"lon":5.37293,"is_reserved":false,"is_disabled":false,"rental_uris":{"android":"levelo://app?vid=f456b22d-0774-4c1d-b4ac-9db9b6b42dc9","ios":"levelo://app?vid=f456b22d-0774-4c1d-b4ac-9db9b6b42dc9"},"vehicle_type_id":"4","last_reported":1734655556,"current_range_meters":14000,"station_id":"ce4bgk12rcd13ifvqbj0","pricing_plan_id":"cebpf4jnsgd1na2vs0mg"},{"bike_id":"ba6d6cc5-18f5-44d3-b547-a7f751edf6c1","system_id":"levelo_inurba_marseille","lat":43.30894,"lon":5.37107,"is_reserved":false,"is_disabled":false,"rental_uris":{"android":"levelo://app?vid=ba6d6cc5-18f5-44d3-b547-a7f751edf6c1","ios":"levelo://app?vid=ba6d6cc5-18f5-44d3-b547-a7f751edf6c1"},"vehicle_type_id":"4","last_reported":1734655556,"current_range_meters":23200,"station_id":"","pricing_plan_id":"cebpf4jnsgd1na2vs0mg"},{"bike_id":"c8a9df44-c9a1-43c7-addd-475d94f4c5ab","system_id":"levelo_inurba_marseille","lat":43.27325,"lon":5.39076,"is_reserved":false,"is_disabled":true,"rental_uris":{"android":"levelo://app?vid=c8a9df44-c9a1-43c7-addd-475d94f4c5ab","ios":"levelo://app?vid=c8a9df44-c9a1-43c7-addd-475d94f4c5ab"},"vehicle_type_id":"4","last_reported":1734655556,"current_range_meters":38400,"station_id":"ce4bhgp2rcd13ifvqfe0","pricing_plan_id":"cebpf4jnsgd1na2vs0mg"},{"bike_id":"eeb165cd-0850-4135-b307-a7a2de607d7b","system_id":"levelo_inurba_marseille","lat":43.28611,"lon":5.37063,"is_reserved":false,"is_disabled":false,"rental_uris":{"android":"levelo://app?vid=eeb165cd-0850-4135-b307-a7a2de607d7b","ios":"levelo://app?vid=eeb165cd-0850-4135-b307-a7a2de607d7b"},"vehicle_type_id":"4","last_reported":1734655556,"current_range_meters":38800,"station_id":"ce4bht12rcd13ifvqi60","pricing_plan_id":"cebpf4jnsgd1na2vs0mg"},{"bike_id":"2b532d77-94d9-4ea3-bbc7-758726074f05","system_id":"levelo_inurba_marseille","lat":43.29435,"lon":5.39746,"is_reserved":false,"is_disabled":false,"rental_uris":{"android":"levelo://app?vid=2b532d77-94d9-4ea3-bbc7-758726074f05","ios":"levelo://app?vid=2b532d77-94d9-4ea3-bbc7-758726074f05"},"vehicle_type_id":"4","last_reported":1734655556,"current_range_meters":28000,"station_id":"ce4bh3h2rcd13ifvqdo0","pricing_plan_id":"cebpf4jnsgd1na2vs0mg"},{"bike_id":"bde16004-2a0c-4fc8-acdd-f812d033bf70","system_id":"levelo_inurba_marseille","lat":43.2606,"lon":5.39382,"is_reserved":false,"is_disabled":false,"rental_uris":{"android":"levelo://app?vid=bde16004-2a0c-4fc8-acdd-f812d033bf70","ios":"levelo://app?vid=bde16004-2a0c-4fc8-acdd-f812d033bf70"},"vehicle_type_id":"4","last_reported":1734655556,"current_range_meters":26000,"station_id":"ce4bhh92rcd13ifvqfj0","pricing_plan_id":"cebpf4jnsgd1na2vs0mg"},{"bike_id":"a2ffdd54-5331-4e30-b1a2-d9d954b150f4","system_id":"levelo_inurba_marseille","lat":43.2573,"lon":5.411,"is_reserved":false,"is_disabled":false,"rental_uris":{"android":"levelo://app?vid=a2ffdd54-5331-4e30-b1a2-d9d954b150f4","ios":"levelo://app?vid=a2ffdd54-5331-4e30-b1a2-d9d954b150f4"},"vehicle_type_id":"4","last_reported":1734655556,"current_range_meters":31200,"station_id":"ce4bhkp2rcd13ifvqgd0","pricing_plan_id":"cebpf4jnsgd1na2vs0mg"},{"bike_id":"8f4264b7-e591-4639-b93d-9d277d055e89","system_id":"levelo_inurba_marseille","lat":43.28716,"lon":5.37943,"is_reserved":false,"is_disabled":false,"rental_uris":{"android":"levelo://app?vid=8f4264b7-e591-4639-b93d-9d277d055e89","ios":"levelo://app?vid=8f4264b7-e591-4639-b93d-9d277d055e89"},"vehicle_type_id":"4","last_reported":1734655556,"current_range_meters":11600,"station_id":"ce4bh9p2rcd13ifvqec0","pricing_plan_id":"cebpf4jnsgd1na2vs0mg"},{"bike_id":"8feb334f-b96d-4160-ba78-1811ff906a49","system_id":"levelo_inurba_marseille","lat":43.30316,"lon":5.36913,"is_reserved":false,"is_disabled":true,"rental_uris":{"android":"levelo://app?vid=8feb334f-b96d-4160-ba78-1811ff906a49","ios":"levelo://app?vid=8feb334f-b96d-4160-ba78-1811ff906a49"},"vehicle_type_id":"4","last_reported":1734655556,"current_range_meters":34800,"station_id":"ce4bgqh2rcd13ifvqc5g","pricing_plan_id":"cebpf4jnsgd1na2vs0mg"},{"bike_id":"df609213-4f03-423d-a027-9336b146a373","system_id":"levelo_inurba_marseille","lat":43.27556,"lon":5.38442,"is_reserved":false,"is_disabled":false,"rental_uris":{"android":"levelo://app?vid=df609213-4f03-423d-a027-9336b146a373","ios":"levelo://app?vid=df609213-4f03-423d-a027-9336b146a373"},"vehicle_type_id":"4","last_reported":1734655556,"current_range_meters":39200,"station_id":"ce4bhh92rcd13ifvqfi0","pricing_plan_id":"cebpf4jnsgd1na2vs0mg"},{"bike_id":"f2224056-9b53-462f-a2e5-1cb14142f69e","system_id":"levelo_inurba_marseille","lat":43.31497,"lon":5.37308,"is_reserved":false,"is_disabled":false,"rental_uris":{"android":"levelo://app?vid=f2224056-9b53-462f-a2e5-1cb14142f69e","ios":"levelo://app?vid=f2224056-9b53-462f-a2e5-1cb14142f69e"},"vehicle_type_id":"4","last_reported":1734655556,"current_range_meters":12400,"station_id":"ce4bgt12rcd13ifvqcd0","pricing_plan_id":"cebpf4jnsgd1na2vs0mg"},{"bike_id":"a2556b02-a46f-40fc-83fb-d4423cb32ea6","system_id":"levelo_inurba_marseille","lat":43.28115,"lon":5.37868,"is_reserved":false,"is_disabled":false,"rental_uris":{"android":"levelo://app?vid=a2556b02-a46f-40fc-83fb-d4423cb32ea6","ios":"levelo://app?vid=a2556b02-a46f-40fc-83fb-d4423cb32ea6"},"vehicle_type_id":"4","last_reported":1734655556,"current_range_meters":28800,"station_id":"ce4bha12rcd13ifvqee0","pricing_plan_id":"cebpf4jnsgd1na2vs0mg"},{"bike_id":"29b90228-c129-4968-8d98-d05c40e31c03","system_id":"levelo_inurba_marseille","lat":43.32052,"lon":5.41555,"is_reserved":false,"is_disabled":false,"rental_uris":{"android":"levelo://app?vid=29b90228-c129-4968-8d98-d05c40e31c03","ios":"levelo://app?vid=29b90228-c129-4968-8d98-d05c40e31c03"},"vehicle_type_id":"4","last_reported":1734655556,"current_range_meters":38000,"station_id":"ce4bhq92rcd13ifvqhkg","pricing_plan_id":"cebpf4jnsgd1na2vs0mg"},{"bike_id":"b6275950-f469-4e2f-b75e-19cc4edf958f","system_id":"levelo_inurba_marseille","lat":43.28102,"lon":5.37871,"is_reserved":false,"is_disabled":false,"rental_uris":{"android":"levelo://app?vid=b6275950-f469-4e2f-b75e-19cc4edf958f","ios":"levelo://app?vid=b6275950-f469-4e2f-b75e-19cc4edf958f"},"vehicle_type_id":"4","last_reported":1734655556,"current_range_meters":39200,"station_id":"ce4bha12rcd13ifvqee0","pricing_plan_id":"cebpf4jnsgd1na2vs0mg"},{"bike_id":"30cf218e-0565-4b4d-b831-6b6e7547fc40","system_id":"levelo_inurba_marseille","lat":43.268081,"lon":5.402739,"is_reserved":false,"is_disabled":false,"rental_uris":{"android":"levelo://app?vid=30cf218e-0565-4b4d-b831-6b6e7547fc40","ios":"levelo://app?vid=30cf218e-0565-4b4d-b831-6b6e7547fc40"},"vehicle_type_id":"4","last_reported":1734655556,"current_range_meters":38800,"station_id":"ce501612rcd8frsf0b60","pricing_plan_id":"cebpf4jnsgd1na2vs0mg"},{"bike_id":"1523dc94-0891-4575-beed-3fcdab759697","system_id":"levelo_inurba_marseille","lat":43.27665,"lon":5.38886,"is_reserved":false,"is_disabled":false,"rental_uris":{"android":"levelo://app?vid=1523dc94-0891-4575-beed-3fcdab759697","ios":"levelo://app?vid=1523dc94-0891-4575-beed-3fcdab759697"},"vehicle_type_id":"4","last_reported":1734655556,"current_range_meters":22800,"station_id":"ce4bhi12rcd13ifvqfo0","pricing_plan_id":"cebpf4jnsgd1na2vs0mg"},{"bike_id":"cf2e7baf-9e0e-4bd4-8444-ec58980d7b80","system_id":"levelo_inurba_marseille","lat":43.29281,"lon":5.40123,"is_reserved":false,"is_disabled":false,"rental_uris":{"android":"levelo://app?vid=cf2e7baf-9e0e-4bd4-8444-ec58980d7b80","ios":"levelo://app?vid=cf2e7baf-9e0e-4bd4-8444-ec58980d7b80"},"vehicle_type_id":"4","last_reported":1734655556,"current_range_meters":32800,"station_id":"ce4bh312rcd13ifvqdk0","pricing_plan_id":"cebpf4jnsgd1na2vs0mg"},{"bike_id":"73fdfca7-1d8b-4e17-85ad-77c27d8788aa","system_id":"levelo_inurba_marseille","lat":43.2872,"lon":5.3794,"is_reserved":false,"is_disabled":false,"rental_uris":{"android":"levelo://app?vid=73fdfca7-1d8b-4e17-85ad-77c27d8788aa","ios":"levelo://app?vid=73fdfca7-1d8b-4e17-85ad-77c27d8788aa"},"vehicle_type_id":"4","last_reported":1734655556,"current_range_meters":18000,"station_id":"ce4bh9p2rcd13ifvqec0","pricing_plan_id":"cebpf4jnsgd1na2vs0mg"},{"bike_id":"d0a27a7a-9419-422d-a3d3-16b8293896ad","system_id":"levelo_inurba_marseille","lat":43.28104,"lon":5.42658,"is_reserved":false,"is_disabled":false,"rental_uris":{"android":"levelo://app?vid=d0a27a7a-9419-422d-a3d3-16b8293896ad","ios":"levelo://app?vid=d0a27a7a-9419-422d-a3d3-16b8293896ad"},"vehicle_type_id":"4","last_reported":1734655556,"current_range_meters":34000,"station_id":"","pricing_plan_id":"cebpf4jnsgd1na2vs0mg"},{"bike_id":"8417b700-ae98-45dd-8f9e-a85d1d752cc3","system_id":"levelo_inurba_marseille","lat":43.26055,"lon":5.39388,"is_reserved":false,"is_disabled":false,"rental_uris":{"android":"levelo://app?vid=8417b700-ae98-45dd-8f9e-a85d1d752cc3","ios":"levelo://app?vid=8417b700-ae98-45dd-8f9e-a85d1d752cc3"},"vehicle_type_id":"4","last_reported":1734655556,"current_range_meters":38800,"station_id":"ce4bhh92rcd13ifvqfj0","pricing_plan_id":"cebpf4jnsgd1na2vs0mg"},{"bike_id":"469f7e4d-8896-44a1-a961-fa4c19a1c136","system_id":"levelo_inurba_marseille","lat":43.29036,"lon":5.39937,"is_reserved":false,"is_disabled":false,"rental_uris":{"android":"levelo://app?vid=469f7e4d-8896-44a1-a961-fa4c19a1c136","ios":"levelo://app?vid=469f7e4d-8896-44a1-a961-fa4c19a1c136"},"vehicle_type_id":"4","last_reported":1734655556,"current_range_meters":38400,"station_id":"ce4bh392rcd13ifvqdm0","pricing_plan_id":"cebpf4jnsgd1na2vs0mg"},{"bike_id":"9d5bb083-6232-4085-bf47-80f689b54900","system_id":"levelo_inurba_marseille","lat":43.27823,"lon":5.39194,"is_reserved":false,"is_disabled":false,"rental_uris":{"android":"levelo://app?vid=9d5bb083-6232-4085-bf47-80f689b54900","ios":"levelo://app?vid=9d5bb083-6232-4085-bf47-80f689b54900"},"vehicle_type_id":"4","last_reported":1734655556,"current_range_meters":33600,"station_id":"ce4bhjp2rcd13ifvqga0","pricing_plan_id":"cebpf4jnsgd1na2vs0mg"},{"bike_id":"17b2d2b0-9855-46b4-a478-0bd9c7277056","system_id":"levelo_inurba_marseille","lat":43.30776,"lon":5.37651,"is_reserved":false,"is_disabled":false,"rental_uris":{"android":"levelo://app?vid=17b2d2b0-9855-46b4-a478-0bd9c7277056","ios":"levelo://app?vid=17b2d2b0-9855-46b4-a478-0bd9c7277056"},"vehicle_type_id":"4","last_reported":1734655556,"current_range_meters":35600,"station_id":"ce4bgv92rcd13ifvqcq0","pricing_plan_id":"cebpf4jnsgd1na2vs0mg"},{"bike_id":"4828f3b9-c720-46e9-9ac1-272643fdf3d6","system_id":"levelo_inurba_marseille","lat":43.280324,"lon":5.369512,"is_reserved":false,"is_disabled":false,"rental_uris":{"android":"levelo://app?vid=4828f3b9-c720-46e9-9ac1-272643fdf3d6","ios":"levelo://app?vid=4828f3b9-c720-46e9-9ac1-272643fdf3d6"},"vehicle_type_id":"4","last_reported":1734655556,"current_range_meters":28800,"station_id":"ce4bha12rcd13ifvqef0","pricing_plan_id":"cebpf4jnsgd1na2vs0mg"},{"bike_id":"d8cb74fb-2e66-4676-9372-3a68dd91f521","system_id":"levelo_inurba_marseille","lat":43.269462,"lon":5.402474,"is_reserved":false,"is_disabled":false,"rental_uris":{"android":"levelo://app?vid=d8cb74fb-2e66-4676-9372-3a68dd91f521","ios":"levelo://app?vid=d8cb74fb-2e66-4676-9372-3a68dd91f521"},"vehicle_type_id":"4","last_reported":1734655556,"current_range_meters":36800,"station_id":"cjm6bp8fraef2m0cb0m0","pricing_plan_id":"cebpf4jnsgd1na2vs0mg"},{"bike_id":"b18d6799-f2bf-491c-93c0-c5122d7362f4","system_id":"levelo_inurba_marseille","lat":43.281,"lon":5.37837,"is_reserved":false,"is_disabled":false,"rental_uris":{"android":"levelo://app?vid=b18d6799-f2bf-491c-93c0-c5122d7362f4","ios":"levelo://app?vid=b18d6799-f2bf-491c-93c0-c5122d7362f4"},"vehicle_type_id":"4","last_reported":1734655556,"current_range_meters":31200,"station_id":"ce4bha12rcd13ifvqee0","pricing_plan_id":"cebpf4jnsgd1na2vs0mg"},{"bike_id":"451c525c-8168-4897-a540-557f1a653ac8","system_id":"levelo_inurba_marseille","lat":43.29712,"lon":5.3661,"is_reserved":false,"is_disabled":false,"rental_uris":{"android":"levelo://app?vid=451c525c-8168-4897-a540-557f1a653ac8","ios":"levelo://app?vid=451c525c-8168-4897-a540-557f1a653ac8"},"vehicle_type_id":"4","last_reported":1734655556,"current_range_meters":37600,"station_id":"ce4bgn12rcd13ifvqbt0","pricing_plan_id":"cebpf4jnsgd1na2vs0mg"},{"bike_id":"01ac8352-e33d-4bd4-bb93-d7381b658f36","system_id":"levelo_inurba_marseille","lat":43.32365,"lon":5.38882,"is_reserved":false,"is_disabled":false,"rental_uris":{"android":"levelo://app?vid=01ac8352-e33d-4bd4-bb93-d7381b658f36","ios":"levelo://app?vid=01ac8352-e33d-4bd4-bb93-d7381b658f36"},"vehicle_type_id":"4","last_reported":1734655556,"current_range_meters":11600,"station_id":"ce4bhqp2rcd13ifvqhog","pricing_plan_id":"cebpf4jnsgd1na2vs0mg"},{"bike_id":"52cc9b42-c056-462c-88da-0bea75b84b2e","system_id":"levelo_inurba_marseille","lat":43.29258,"lon":5.40899,"is_reserved":false,"is_disabled":false,"rental_uris":{"android":"levelo://app?vid=52cc9b42-c056-462c-88da-0bea75b84b2e","ios":"levelo://app?vid=52cc9b42-c056-462c-88da-0bea75b84b2e"},"vehicle_type_id":"4","last_reported":1734655556,"current_range_meters":16800,"station_id":"ce4bh192rcd13ifvqdc0","pricing_plan_id":"cebpf4jnsgd1na2vs0mg"},{"bike_id":"29218885-1c50-43e0-a925-2ca4c134e5a9","system_id":"levelo_inurba_marseille","lat":43.30932,"lon":5.40152,"is_reserved":false,"is_disabled":false,"rental_uris":{"android":"levelo://app?vid=29218885-1c50-43e0-a925-2ca4c134e5a9","ios":"levelo://app?vid=29218885-1c50-43e0-a925-2ca4c134e5a9"},"vehicle_type_id":"4","last_reported":1734655556,"current_range_meters":39200,"station_id":"ce4bgvp2rcd13ifvqct0","pricing_plan_id":"cebpf4jnsgd1na2vs0mg"},{"bike_id":"35861a55-57b4-4559-b653-1c0df57e52e5","system_id":"levelo_inurba_marseille","lat":43.286395,"lon":5.370905,"is_reserved":false,"is_disabled":false,"rental_uris":{"android":"levelo://app?vid=35861a55-57b4-4559-b653-1c0df57e52e5","ios":"levelo://app?vid=35861a55-57b4-4559-b653-1c0df57e52e5"},"vehicle_type_id":"4","last_reported":1734655556,"current_range_meters":25600,"station_id":"ce4bht12rcd13ifvqi60","pricing_plan_id":"cebpf4jnsgd1na2vs0mg"},{"bike_id":"cab86ff4-25c9-48f7-8191-c68aca23ca9e","system_id":"levelo_inurba_marseille","lat":43.31324,"lon":5.39696,"is_reserved":false,"is_disabled":false,"rental_uris":{"android":"levelo://app?vid=cab86ff4-25c9-48f7-8191-c68aca23ca9e","ios":"levelo://app?vid=cab86ff4-25c9-48f7-8191-c68aca23ca9e"},"vehicle_type_id":"4","last_reported":1734655556,"current_range_meters":28000,"station_id":"ce4bgvp2rcd13ifvqcu0","pricing_plan_id":"cebpf4jnsgd1na2vs0mg"},{"bike_id":"e11ff63e-0717-486d-a2a1-93b56a446cc0","system_id":"levelo_inurba_marseille","lat":43.2856,"lon":5.3949,"is_reserved":false,"is_disabled":false,"rental_uris":{"android":"levelo://app?vid=e11ff63e-0717-486d-a2a1-93b56a446cc0","ios":"levelo://app?vid=e11ff63e-0717-486d-a2a1-93b56a446cc0"},"vehicle_type_id":"4","last_reported":1734655556,"current_range_meters":38400,"station_id":"ce4bh292rcd13ifvqdg0","pricing_plan_id":"cebpf4jnsgd1na2vs0mg"},{"bike_id":"6dd7ced6-a614-45f4-afdd-d21affa34a4d","system_id":"levelo_inurba_marseille","lat":43.2846,"lon":5.358911,"is_reserved":false,"is_disabled":false,"rental_uris":{"android":"levelo://app?vid=6dd7ced6-a614-45f4-afdd-d21affa34a4d","ios":"levelo://app?vid=6dd7ced6-a614-45f4-afdd-d21affa34a4d"},"vehicle_type_id":"4","last_reported":1734655556,"current_range_meters":36000,"station_id":"ce4bhah2rcd13ifvqei0","pricing_plan_id":"cebpf4jnsgd1na2vs0mg"},{"bike_id":"1908cece-809f-4547-a252-1da450c21f63","system_id":"levelo_inurba_marseille","lat":43.27808,"lon":5.40718,"is_reserved":false,"is_disabled":false,"rental_uris":{"android":"levelo://app?vid=1908cece-809f-4547-a252-1da450c21f63","ios":"levelo://app?vid=1908cece-809f-4547-a252-1da450c21f63"},"vehicle_type_id":"4","last_reported":1734655556,"current_range_meters":10000,"station_id":"ce4bhnh2rcd13ifvqgtg","pricing_plan_id":"cebpf4jnsgd1na2vs0mg"},{"bike_id":"0a6a0a59-86f2-40e7-839a-c0e211c1393a","system_id":"levelo_inurba_marseille","lat":43.29916,"lon":5.37453,"is_reserved":false,"is_disabled":false,"rental_uris":{"android":"levelo://app?vid=0a6a0a59-86f2-40e7-839a-c0e211c1393a","ios":"levelo://app?vid=0a6a0a59-86f2-40e7-839a-c0e211c1393a"},"vehicle_type_id":"4","last_reported":1734655556,"current_range_meters":39200,"station_id":"ce4bgjh2rcd13ifvqbg0","pricing_plan_id":"cebpf4jnsgd1na2vs0mg"},{"bike_id":"483e2d7b-f381-4bb0-980b-5f84f21e758c","system_id":"levelo_inurba_marseille","lat":43.30885,"lon":5.37193,"is_reserved":false,"is_disabled":false,"rental_uris":{"android":"levelo://app?vid=483e2d7b-f381-4bb0-980b-5f84f21e758c","ios":"levelo://app?vid=483e2d7b-f381-4bb0-980b-5f84f21e758c"},"vehicle_type_id":"4","last_reported":1734655556,"current_range_meters":35600,"station_id":"ce4bguh2rcd13ifvqckg","pricing_plan_id":"cebpf4jnsgd1na2vs0mg"},{"bike_id":"ebd47528-01fd-4c50-a324-ec3f739871b7","system_id":"levelo_inurba_marseille","lat":43.25111,"lon":5.40321,"is_reserved":false,"is_disabled":false,"rental_uris":{"android":"levelo://app?vid=ebd47528-01fd-4c50-a324-ec3f739871b7","ios":"levelo://app?vid=ebd47528-01fd-4c50-a324-ec3f739871b7"},"vehicle_type_id":"4","last_reported":1734655556,"current_range_meters":14400,"station_id":"ce4bhlh2rcd13ifvqgig","pricing_plan_id":"cebpf4jnsgd1na2vs0mg"},{"bike_id":"54e70cf4-747d-46d5-b82a-0db168c3cd10","system_id":"levelo_inurba_marseille","lat":43.30932,"lon":5.40152,"is_reserved":false,"is_disabled":false,"rental_uris":{"android":"levelo://app?vid=54e70cf4-747d-46d5-b82a-0db168c3cd10","ios":"levelo://app?vid=54e70cf4-747d-46d5-b82a-0db168c3cd10"},"vehicle_type_id":"4","last_reported":1734655556,"current_range_meters":22400,"station_id":"ce4bgvp2rcd13ifvqct0","pricing_plan_id":"cebpf4jnsgd1na2vs0mg"},{"bike_id":"17d50306-fa7f-4fdf-96a5-e7cc0e6fd09b","system_id":"levelo_inurba_marseille","lat":43.31333,"lon":5.39724,"is_reserved":false,"is_disabled":false,"rental_uris":{"android":"levelo://app?vid=17d50306-fa7f-4fdf-96a5-e7cc0e6fd09b","ios":"levelo://app?vid=17d50306-fa7f-4fdf-96a5-e7cc0e6fd09b"},"vehicle_type_id":"4","last_reported":1734655556,"current_range_meters":20400,"station_id":"ce4bgvp2rcd13ifvqcu0","pricing_plan_id":"cebpf4jnsgd1na2vs0mg"},{"bike_id":"1e0316a7-c772-4e4f-ba09-e85d38a4f137","system_id":"levelo_inurba_marseille","lat":43.31706,"lon":5.3775,"is_reserved":false,"is_disabled":false,"rental_uris":{"android":"levelo://app?vid=1e0316a7-c772-4e4f-ba09-e85d38a4f137","ios":"levelo://app?vid=1e0316a7-c772-4e4f-ba09-e85d38a4f137"},"vehicle_type_id":"4","last_reported":1734655556,"current_range_meters":39200,"station_id":"ce4bgth2rcd13ifvqch0","pricing_plan_id":"cebpf4jnsgd1na2vs0mg"},{"bike_id":"d03d3e55-b313-4f91-a0c3-6838be182556","system_id":"levelo_inurba_marseille","lat":43.33024,"lon":5.39035,"is_reserved":false,"is_disabled":false,"rental_uris":{"android":"levelo://app?vid=d03d3e55-b313-4f91-a0c3-6838be182556","ios":"levelo://app?vid=d03d3e55-b313-4f91-a0c3-6838be182556"},"vehicle_type_id":"4","last_reported":1734655556,"current_range_meters":24800,"station_id":"ce4bhr92rcd13ifvqhrg","pricing_plan_id":"cebpf4jnsgd1na2vs0mg"},{"bike_id":"d4a92d73-458f-4633-b078-8b09bedbb320","system_id":"levelo_inurba_marseille","lat":43.31332,"lon":5.39696,"is_reserved":false,"is_disabled":false,"rental_uris":{"android":"levelo://app?vid=d4a92d73-458f-4633-b078-8b09bedbb320","ios":"levelo://app?vid=d4a92d73-458f-4633-b078-8b09bedbb320"},"vehicle_type_id":"4","last_reported":1734655556,"current_range_meters":37600,"station_id":"ce4bgvp2rcd13ifvqcu0","pricing_plan_id":"cebpf4jnsgd1na2vs0mg"},{"bike_id":"e91219f7-cc33-492e-9b45-4476bf3bccec","system_id":"levelo_inurba_marseille","lat":43.28099,"lon":5.37839,"is_reserved":false,"is_disabled":false,"rental_uris":{"android":"levelo://app?vid=e91219f7-cc33-492e-9b45-4476bf3bccec","ios":"levelo://app?vid=e91219f7-cc33-492e-9b45-4476bf3bccec"},"vehicle_type_id":"4","last_reported":1734655556,"current_range_meters":31200,"station_id":"ce4bha12rcd13ifvqee0","pricing_plan_id":"cebpf4jnsgd1na2vs0mg"},{"bike_id":"2a12bde8-ca1e-4ca8-8cbb-8dbf9a638106","system_id":"levelo_inurba_marseille","lat":43.23195,"lon":5.35556,"is_reserved":false,"is_disabled":false,"rental_uris":{"android":"levelo://app?vid=2a12bde8-ca1e-4ca8-8cbb-8dbf9a638106","ios":"levelo://app?vid=2a12bde8-ca1e-4ca8-8cbb-8dbf9a638106"},"vehicle_type_id":"4","last_reported":1734655556,"current_range_meters":27600,"station_id":"ce4bhu92rcd13ifvqi70","pricing_plan_id":"cebpf4jnsgd1na2vs0mg"},{"bike_id":"82b98b08-cf84-40f3-a0a4-1136038c5b5f","system_id":"levelo_inurba_marseille","lat":43.28843,"lon":5.35857,"is_reserved":false,"is_disabled":false,"rental_uris":{"android":"levelo://app?vid=82b98b08-cf84-40f3-a0a4-1136038c5b5f","ios":"levelo://app?vid=82b98b08-cf84-40f3-a0a4-1136038c5b5f"},"vehicle_type_id":"4","last_reported":1734655556,"current_range_meters":36800,"station_id":"ce4bhb12rcd13ifvqem0","pricing_plan_id":"cebpf4jnsgd1na2vs0mg"},{"bike_id":"4c5e1096-9ec7-4ead-b16d-7206359566b2","system_id":"levelo_inurba_marseille","lat":43.26948,"lon":5.38642,"is_reserved":false,"is_disabled":false,"rental_uris":{"android":"levelo://app?vid=4c5e1096-9ec7-4ead-b16d-7206359566b2","ios":"levelo://app?vid=4c5e1096-9ec7-4ead-b16d-7206359566b2"},"vehicle_type_id":"4","last_reported":1734655556,"current_range_meters":33200,"station_id":"ce4bhh92rcd13ifvqfh0","pricing_plan_id":"cebpf4jnsgd1na2vs0mg"},{"bike_id":"6fb965ff-afdd-4346-a208-14ec8ac80b7e","system_id":"levelo_inurba_marseille","lat":43.29782,"lon":5.37094,"is_reserved":false,"is_disabled":false,"rental_uris":{"android":"levelo://app?vid=6fb965ff-afdd-4346-a208-14ec8ac80b7e","ios":"levelo://app?vid=6fb965ff-afdd-4346-a208-14ec8ac80b7e"},"vehicle_type_id":"4","last_reported":1734655556,"current_range_meters":28400,"station_id":"ce4bgop2rcd13ifvqc1g","pricing_plan_id":"cebpf4jnsgd1na2vs0mg"},{"bike_id":"09e160dc-9004-4761-890b-e2fd94af8faa","system_id":"levelo_inurba_marseille","lat":43.3088,"lon":5.39655,"is_reserved":false,"is_disabled":false,"rental_uris":{"android":"levelo://app?vid=09e160dc-9004-4761-890b-e2fd94af8faa","ios":"levelo://app?vid=09e160dc-9004-4761-890b-e2fd94af8faa"},"vehicle_type_id":"4","last_reported":1734655556,"current_range_meters":32000,"station_id":"ce4bh012rcd13ifvqcv0","pricing_plan_id":"cebpf4jnsgd1na2vs0mg"},{"bike_id":"0f146cb9-691b-489e-b41e-01d8015c60f5","system_id":"levelo_inurba_marseille","lat":43.27549,"lon":5.38431,"is_reserved":false,"is_disabled":false,"rental_uris":{"android":"levelo://app?vid=0f146cb9-691b-489e-b41e-01d8015c60f5","ios":"levelo://app?vid=0f146cb9-691b-489e-b41e-01d8015c60f5"},"vehicle_type_id":"4","last_reported":1734655556,"current_range_meters":30000,"station_id":"ce4bhh92rcd13ifvqfi0","pricing_plan_id":"cebpf4jnsgd1na2vs0mg"},{"bike_id":"2e961b5f-b044-4322-b4ee-f45f04237f4f","system_id":"levelo_inurba_marseille","lat":43.29967,"lon":5.38497,"is_reserved":false,"is_disabled":false,"rental_uris":{"android":"levelo://app?vid=2e961b5f-b044-4322-b4ee-f45f04237f4f","ios":"levelo://app?vid=2e961b5f-b044-4322-b4ee-f45f04237f4f"},"vehicle_type_id":"4","last_reported":1734655556,"current_range_meters":36800,"station_id":"ce4bgj92rcd13ifvqbd0","pricing_plan_id":"cebpf4jnsgd1na2vs0mg"},{"bike_id":"b002d028-e42c-46e2-93ce-a18a7a90546e","system_id":"levelo_inurba_marseille","lat":43.32301,"lon":5.38243,"is_reserved":false,"is_disabled":false,"rental_uris":{"android":"levelo://app?vid=b002d028-e42c-46e2-93ce-a18a7a90546e","ios":"levelo://app?vid=b002d028-e42c-46e2-93ce-a18a7a90546e"},"vehicle_type_id":"4","last_reported":1734655556,"current_range_meters":20000,"station_id":"ce4bhr12rcd13ifvqhqg","pricing_plan_id":"cebpf4jnsgd1na2vs0mg"},{"bike_id":"8d2d1fc5-8995-4400-8cfc-148fb6ed4a6d","system_id":"levelo_inurba_marseille","lat":43.27498,"lon":5.42449,"is_reserved":false,"is_disabled":false,"rental_uris":{"android":"levelo://app?vid=8d2d1fc5-8995-4400-8cfc-148fb6ed4a6d","ios":"levelo://app?vid=8d2d1fc5-8995-4400-8cfc-148fb6ed4a6d"},"vehicle_type_id":"4","last_reported":1734655556,"current_range_meters":38000,"station_id":"ce4bhn92rcd13ifvqgrg","pricing_plan_id":"cebpf4jnsgd1na2vs0mg"},{"bike_id":"39d6556a-c954-43ed-b77e-24523ab497d1","system_id":"levelo_inurba_marseille","lat":43.26778,"lon":5.39517,"is_reserved":false,"is_disabled":false,"rental_uris":{"android":"levelo://app?vid=39d6556a-c954-43ed-b77e-24523ab497d1","ios":"levelo://app?vid=39d6556a-c954-43ed-b77e-24523ab497d1"},"vehicle_type_id":"4","last_reported":1734655556,"current_range_meters":38400,"station_id":"ce4bhh12rcd13ifvqfg0","pricing_plan_id":"cebpf4jnsgd1na2vs0mg"},{"bike_id":"8cf5dce1-141e-48cf-816b-74dc2a4ad579","system_id":"levelo_inurba_marseille","lat":43.29581,"lon":5.375,"is_reserved":false,"is_disabled":true,"rental_uris":{"android":"levelo://app?vid=8cf5dce1-141e-48cf-816b-74dc2a4ad579","ios":"levelo://app?vid=8cf5dce1-141e-48cf-816b-74dc2a4ad579"},"vehicle_type_id":"4","last_reported":1734655556,"current_range_meters":36400,"station_id":"ce4bgh92rcd13ifvqb50","pricing_plan_id":"cebpf4jnsgd1na2vs0mg"},{"bike_id":"f27d7682-cdb6-44d9-8892-167d5437c582","system_id":"levelo_inurba_marseille","lat":43.2804,"lon":5.36943,"is_reserved":false,"is_disabled":false,"rental_uris":{"android":"levelo://app?vid=f27d7682-cdb6-44d9-8892-167d5437c582","ios":"levelo://app?vid=f27d7682-cdb6-44d9-8892-167d5437c582"},"vehicle_type_id":"4","last_reported":1734655556,"current_range_meters":38800,"station_id":"ce4bha12rcd13ifvqef0","pricing_plan_id":"cebpf4jnsgd1na2vs0mg"},{"bike_id":"f23efe61-0104-4164-a2df-9fbf471f6daa","system_id":"levelo_inurba_marseille","lat":43.26488,"lon":5.39549,"is_reserved":false,"is_disabled":true,"rental_uris":{"android":"levelo://app?vid=f23efe61-0104-4164-a2df-9fbf471f6daa","ios":"levelo://app?vid=f23efe61-0104-4164-a2df-9fbf471f6daa"},"vehicle_type_id":"4","last_reported":1734655556,"current_range_meters":3200,"station_id":"ce4bhi12rcd13ifvqfq0","pricing_plan_id":"cebpf4jnsgd1na2vs0mg"},{"bike_id":"f2ff2dce-6089-40f8-878d-6d1e366cd3a9","system_id":"levelo_inurba_marseille","lat":43.30923,"lon":5.40159,"is_reserved":false,"is_disabled":false,"rental_uris":{"android":"levelo://app?vid=f2ff2dce-6089-40f8-878d-6d1e366cd3a9","ios":"levelo://app?vid=f2ff2dce-6089-40f8-878d-6d1e366cd3a9"},"vehicle_type_id":"4","last_reported":1734655556,"current_range_meters":39200,"station_id":"ce4bgvp2rcd13ifvqct0","pricing_plan_id":"cebpf4jnsgd1na2vs0mg"},{"bike_id":"94e6a837-692a-4c6e-860f-bd56f9eee603","system_id":"levelo_inurba_marseille","lat":43.30784,"lon":5.37665,"is_reserved":false,"is_disabled":false,"rental_uris":{"android":"levelo://app?vid=94e6a837-692a-4c6e-860f-bd56f9eee603","ios":"levelo://app?vid=94e6a837-692a-4c6e-860f-bd56f9eee603"},"vehicle_type_id":"4","last_reported":1734655556,"current_range_meters":33600,"station_id":"ce4bgv92rcd13ifvqcq0","pricing_plan_id":"cebpf4jnsgd1na2vs0mg"},{"bike_id":"b44f9236-c33f-43b3-ab7e-0f32e9951c9e","system_id":"levelo_inurba_marseille","lat":43.23194,"lon":5.355476,"is_reserved":false,"is_disabled":false,"rental_uris":{"android":"levelo://app?vid=b44f9236-c33f-43b3-ab7e-0f32e9951c9e","ios":"levelo://app?vid=b44f9236-c33f-43b3-ab7e-0f32e9951c9e"},"vehicle_type_id":"4","last_reported":1734655556,"current_range_meters":8800,"station_id":"ce4bhu92rcd13ifvqi70","pricing_plan_id":"cebpf4jnsgd1na2vs0mg"},{"bike_id":"4620dcd9-c3a6-4871-8162-c4a28f6d33ca","system_id":"levelo_inurba_marseille","lat":43.31893,"lon":5.40733,"is_reserved":false,"is_disabled":true,"rental_uris":{"android":"levelo://app?vid=4620dcd9-c3a6-4871-8162-c4a28f6d33ca","ios":"levelo://app?vid=4620dcd9-c3a6-4871-8162-c4a28f6d33ca"},"vehicle_type_id":"4","last_reported":1734655556,"current_range_meters":38800,"station_id":"ce4bhq12rcd13ifvqhig","pricing_plan_id":"cebpf4jnsgd1na2vs0mg"},{"bike_id":"7cdaab41-d6a9-411c-91af-08e1cd111a45","system_id":"levelo_inurba_marseille","lat":43.30769,"lon":5.40255,"is_reserved":false,"is_disabled":false,"rental_uris":{"android":"levelo://app?vid=7cdaab41-d6a9-411c-91af-08e1cd111a45","ios":"levelo://app?vid=7cdaab41-d6a9-411c-91af-08e1cd111a45"},"vehicle_type_id":"4","last_reported":1734655556,"current_range_meters":14800,"station_id":"","pricing_plan_id":"cebpf4jnsgd1na2vs0mg"},{"bike_id":"6e608818-1db2-4182-8679-2e4fec211f12","system_id":"levelo_inurba_marseille","lat":43.31164,"lon":5.38728,"is_reserved":false,"is_disabled":false,"rental_uris":{"android":"levelo://app?vid=6e608818-1db2-4182-8679-2e4fec211f12","ios":"levelo://app?vid=6e608818-1db2-4182-8679-2e4fec211f12"},"vehicle_type_id":"4","last_reported":1734655556,"current_range_meters":33200,"station_id":"ce4bgv12rcd13ifvqcp0","pricing_plan_id":"cebpf4jnsgd1na2vs0mg"},{"bike_id":"a4f8f860-7da9-41b3-ba5c-03c4bf52b373","system_id":"levelo_inurba_marseille","lat":43.31325,"lon":5.39691,"is_reserved":false,"is_disabled":true,"rental_uris":{"android":"levelo://app?vid=a4f8f860-7da9-41b3-ba5c-03c4bf52b373","ios":"levelo://app?vid=a4f8f860-7da9-41b3-ba5c-03c4bf52b373"},"vehicle_type_id":"4","last_reported":1734655556,"current_range_meters":400,"station_id":"ce4bgvp2rcd13ifvqcu0","pricing_plan_id":"cebpf4jnsgd1na2vs0mg"},{"bike_id":"bc03db78-13f5-4eb3-8825-1473e4d86c90","system_id":"levelo_inurba_marseille","lat":43.2979,"lon":5.39339,"is_reserved":false,"is_disabled":false,"rental_uris":{"android":"levelo://app?vid=bc03db78-13f5-4eb3-8825-1473e4d86c90","ios":"levelo://app?vid=bc03db78-13f5-4eb3-8825-1473e4d86c90"},"vehicle_type_id":"4","last_reported":1734655556,"current_range_meters":39200,"station_id":"chh1huq6cuj3fo74tm60","pricing_plan_id":"cebpf4jnsgd1na2vs0mg"},{"bike_id":"e547e21c-1484-4643-b569-ed0cf2a32d36","system_id":"levelo_inurba_marseille","lat":43.24676,"lon":5.38142,"is_reserved":false,"is_disabled":false,"rental_uris":{"android":"levelo://app?vid=e547e21c-1484-4643-b569-ed0cf2a32d36","ios":"levelo://app?vid=e547e21c-1484-4643-b569-ed0cf2a32d36"},"vehicle_type_id":"4","last_reported":1734655556,"current_range_meters":38800,"station_id":"ce4bhih2rcd13ifvqfr0","pricing_plan_id":"cebpf4jnsgd1na2vs0mg"},{"bike_id":"888f7a17-2d35-4adf-9d5c-f103376147dd","system_id":"levelo_inurba_marseille","lat":43.29516,"lon":5.39407,"is_reserved":false,"is_disabled":false,"rental_uris":{"android":"levelo://app?vid=888f7a17-2d35-4adf-9d5c-f103376147dd","ios":"levelo://app?vid=888f7a17-2d35-4adf-9d5c-f103376147dd"},"vehicle_type_id":"4","last_reported":1734655556,"current_range_meters":36000,"station_id":"ce4bh292rcd13ifvqdf0","pricing_plan_id":"cebpf4jnsgd1na2vs0mg"},{"bike_id":"b5b3837f-5e02-4def-9495-b31b79600261","system_id":"levelo_inurba_marseille","lat":43.32343,"lon":5.40621,"is_reserved":false,"is_disabled":false,"rental_uris":{"android":"levelo://app?vid=b5b3837f-5e02-4def-9495-b31b79600261","ios":"levelo://app?vid=b5b3837f-5e02-4def-9495-b31b79600261"},"vehicle_type_id":"4","last_reported":1734655556,"current_range_meters":25200,"station_id":"ce4bhq92rcd13ifvqhjg","pricing_plan_id":"cebpf4jnsgd1na2vs0mg"},{"bike_id":"4b6932e5-8250-4775-ae99-f3af739f32e3","system_id":"levelo_inurba_marseille","lat":43.3153,"lon":5.38026,"is_reserved":false,"is_disabled":false,"rental_uris":{"android":"levelo://app?vid=4b6932e5-8250-4775-ae99-f3af739f32e3","ios":"levelo://app?vid=4b6932e5-8250-4775-ae99-f3af739f32e3"},"vehicle_type_id":"4","last_reported":1734655556,"current_range_meters":39200,"station_id":"ce4bhsp2rcd13ifvqi50","pricing_plan_id":"cebpf4jnsgd1na2vs0mg"},{"bike_id":"48bd608f-85bc-4b07-9175-79b02463ae92","system_id":"levelo_inurba_marseille","lat":43.29557,"lon":5.42282,"is_reserved":false,"is_disabled":false,"rental_uris":{"android":"levelo://app?vid=48bd608f-85bc-4b07-9175-79b02463ae92","ios":"levelo://app?vid=48bd608f-85bc-4b07-9175-79b02463ae92"},"vehicle_type_id":"4","last_reported":1734655556,"current_range_meters":38400,"station_id":"ce4bhph2rcd13ifvqhdg","pricing_plan_id":"cebpf4jnsgd1na2vs0mg"},{"bike_id":"0ee567dd-8d1f-4513-95d0-49b3aea08c53","system_id":"levelo_inurba_marseille","lat":43.30882,"lon":5.37196,"is_reserved":false,"is_disabled":true,"rental_uris":{"android":"levelo://app?vid=0ee567dd-8d1f-4513-95d0-49b3aea08c53","ios":"levelo://app?vid=0ee567dd-8d1f-4513-95d0-49b3aea08c53"},"vehicle_type_id":"4","last_reported":1734655556,"current_range_meters":26800,"station_id":"ce4bguh2rcd13ifvqckg","pricing_plan_id":"cebpf4jnsgd1na2vs0mg"},{"bike_id":"b52c10f4-1f06-453c-bfdf-7d6729ecfe9c","system_id":"levelo_inurba_marseille","lat":43.2318,"lon":5.39985,"is_reserved":false,"is_disabled":false,"rental_uris":{"android":"levelo://app?vid=b52c10f4-1f06-453c-bfdf-7d6729ecfe9c","ios":"levelo://app?vid=b52c10f4-1f06-453c-bfdf-7d6729ecfe9c"},"vehicle_type_id":"4","last_reported":1734655556,"current_range_meters":36400,"station_id":"ce4bhn12rcd13ifvqgqg","pricing_plan_id":"cebpf4jnsgd1na2vs0mg"},{"bike_id":"5c909c62-734e-4a3b-87af-fa5b1774cce4","system_id":"levelo_inurba_marseille","lat":43.23196,"lon":5.39973,"is_reserved":false,"is_disabled":false,"rental_uris":{"android":"levelo://app?vid=5c909c62-734e-4a3b-87af-fa5b1774cce4","ios":"levelo://app?vid=5c909c62-734e-4a3b-87af-fa5b1774cce4"},"vehicle_type_id":"4","last_reported":1734655556,"current_range_meters":35600,"station_id":"ce4bhn12rcd13ifvqgqg","pricing_plan_id":"cebpf4jnsgd1na2vs0mg"},{"bike_id":"87ea2282-7236-454a-a021-e08bfe13ea3d","system_id":"levelo_inurba_marseille","lat":43.28031,"lon":5.36944,"is_reserved":false,"is_disabled":false,"rental_uris":{"android":"levelo://app?vid=87ea2282-7236-454a-a021-e08bfe13ea3d","ios":"levelo://app?vid=87ea2282-7236-454a-a021-e08bfe13ea3d"},"vehicle_type_id":"4","last_reported":1734655556,"current_range_meters":38800,"station_id":"ce4bha12rcd13ifvqef0","pricing_plan_id":"cebpf4jnsgd1na2vs0mg"},{"bike_id":"dcbe64cd-9357-420f-b290-dbaf86f13455","system_id":"levelo_inurba_marseille","lat":43.33021,"lon":5.39036,"is_reserved":false,"is_disabled":false,"rental_uris":{"android":"levelo://app?vid=dcbe64cd-9357-420f-b290-dbaf86f13455","ios":"levelo://app?vid=dcbe64cd-9357-420f-b290-dbaf86f13455"},"vehicle_type_id":"4","last_reported":1734655556,"current_range_meters":38800,"station_id":"ce4bhr92rcd13ifvqhrg","pricing_plan_id":"cebpf4jnsgd1na2vs0mg"},{"bike_id":"45491a2e-7208-4c18-b140-f3635362de02","system_id":"levelo_inurba_marseille","lat":43.28846,"lon":5.35846,"is_reserved":false,"is_disabled":false,"rental_uris":{"android":"levelo://app?vid=45491a2e-7208-4c18-b140-f3635362de02","ios":"levelo://app?vid=45491a2e-7208-4c18-b140-f3635362de02"},"vehicle_type_id":"4","last_reported":1734655556,"current_range_meters":38800,"station_id":"ce4bhb12rcd13ifvqem0","pricing_plan_id":"cebpf4jnsgd1na2vs0mg"},{"bike_id":"0301651a-a066-4c60-9e2b-edb84fdeeb4c","system_id":"levelo_inurba_marseille","lat":43.29572,"lon":5.39969,"is_reserved":false,"is_disabled":false,"rental_uris":{"android":"levelo://app?vid=0301651a-a066-4c60-9e2b-edb84fdeeb4c","ios":"levelo://app?vid=0301651a-a066-4c60-9e2b-edb84fdeeb4c"},"vehicle_type_id":"4","last_reported":1734655556,"current_range_meters":33600,"station_id":"ce4bh312rcd13ifvqdj0","pricing_plan_id":"cebpf4jnsgd1na2vs0mg"},{"bike_id":"44464573-5630-404b-a999-698ba48ab6b8","system_id":"levelo_inurba_marseille","lat":43.27205,"lon":5.40975,"is_reserved":false,"is_disabled":false,"rental_uris":{"android":"levelo://app?vid=44464573-5630-404b-a999-698ba48ab6b8","ios":"levelo://app?vid=44464573-5630-404b-a999-698ba48ab6b8"},"vehicle_type_id":"4","last_reported":1734655556,"current_range_meters":38800,"station_id":"ce4bhl12rcd13ifvqgf0","pricing_plan_id":"cebpf4jnsgd1na2vs0mg"},{"bike_id":"6092e4d7-956b-4a00-a15b-04d401a7abe3","system_id":"levelo_inurba_marseille","lat":43.28487,"lon":5.38426,"is_reserved":false,"is_disabled":true,"rental_uris":{"android":"levelo://app?vid=6092e4d7-956b-4a00-a15b-04d401a7abe3","ios":"levelo://app?vid=6092e4d7-956b-4a00-a15b-04d401a7abe3"},"vehicle_type_id":"4","last_reported":1734655556,"current_range_meters":28800,"station_id":"ce4bh512rcd13ifvqe3g","pricing_plan_id":"cebpf4jnsgd1na2vs0mg"},{"bike_id":"2e0a4273-9b64-4eb1-8d1b-b8e55991eb0a","system_id":"levelo_inurba_marseille","lat":43.27261,"lon":5.40067,"is_reserved":false,"is_disabled":true,"rental_uris":{"android":"levelo://app?vid=2e0a4273-9b64-4eb1-8d1b-b8e55991eb0a","ios":"levelo://app?vid=2e0a4273-9b64-4eb1-8d1b-b8e55991eb0a"},"vehicle_type_id":"4","last_reported":1734655556,"current_range_meters":1600,"station_id":"","pricing_plan_id":"cebpf4jnsgd1na2vs0mg"},{"bike_id":"d7dc678d-eb38-44c8-8258-0fa0627b8d3a","system_id":"levelo_inurba_marseille","lat":43.30534,"lon":5.3671,"is_reserved":false,"is_disabled":true,"rental_uris":{"android":"levelo://app?vid=d7dc678d-eb38-44c8-8258-0fa0627b8d3a","ios":"levelo://app?vid=d7dc678d-eb38-44c8-8258-0fa0627b8d3a"},"vehicle_type_id":"4","last_reported":1734655556,"current_range_meters":0,"station_id":"ce4bgrp2rcd13ifvqc9g","pricing_plan_id":"cebpf4jnsgd1na2vs0mg"},{"bike_id":"3c8fa5c9-de8f-4837-ad65-0da846e013c3","system_id":"levelo_inurba_marseille","lat":43.31762,"lon":5.39007,"is_reserved":false,"is_disabled":false,"rental_uris":{"android":"levelo://app?vid=3c8fa5c9-de8f-4837-ad65-0da846e013c3","ios":"levelo://app?vid=3c8fa5c9-de8f-4837-ad65-0da846e013c3"},"vehicle_type_id":"4","last_reported":1734655556,"current_range_meters":38800,"station_id":"ce4bhqp2rcd13ifvqhng","pricing_plan_id":"cebpf4jnsgd1na2vs0mg"},{"bike_id":"f957ffa3-7b76-4b18-bb62-81627d313cf8","system_id":"levelo_inurba_marseille","lat":43.23192,"lon":5.35563,"is_reserved":false,"is_disabled":false,"rental_uris":{"android":"levelo://app?vid=f957ffa3-7b76-4b18-bb62-81627d313cf8","ios":"levelo://app?vid=f957ffa3-7b76-4b18-bb62-81627d313cf8"},"vehicle_type_id":"4","last_reported":1734655556,"current_range_meters":32000,"station_id":"ce4bhu92rcd13ifvqi70","pricing_plan_id":"cebpf4jnsgd1na2vs0mg"},{"bike_id":"5dd95ec7-a282-40a6-a0fe-4e2e61de4064","system_id":"levelo_inurba_marseille","lat":43.26347,"lon":5.40141,"is_reserved":false,"is_disabled":false,"rental_uris":{"android":"levelo://app?vid=5dd95ec7-a282-40a6-a0fe-4e2e61de4064","ios":"levelo://app?vid=5dd95ec7-a282-40a6-a0fe-4e2e61de4064"},"vehicle_type_id":"4","last_reported":1734655556,"current_range_meters":9600,"station_id":"","pricing_plan_id":"cebpf4jnsgd1na2vs0mg"},{"bike_id":"ea250787-a964-475c-a6e4-f63368322e5b","system_id":"levelo_inurba_marseille","lat":43.29572,"lon":5.3677,"is_reserved":false,"is_disabled":false,"rental_uris":{"android":"levelo://app?vid=ea250787-a964-475c-a6e4-f63368322e5b","ios":"levelo://app?vid=ea250787-a964-475c-a6e4-f63368322e5b"},"vehicle_type_id":"4","last_reported":1734655556,"current_range_meters":38400,"station_id":"ce4bgph2rcd13ifvqc2g","pricing_plan_id":"cebpf4jnsgd1na2vs0mg"},{"bike_id":"5f8b63bc-47ce-40d7-941a-313e43f15fd0","system_id":"levelo_inurba_marseille","lat":43.29531,"lon":5.38542,"is_reserved":false,"is_disabled":false,"rental_uris":{"android":"levelo://app?vid=5f8b63bc-47ce-40d7-941a-313e43f15fd0","ios":"levelo://app?vid=5f8b63bc-47ce-40d7-941a-313e43f15fd0"},"vehicle_type_id":"4","last_reported":1734655556,"current_range_meters":26800,"station_id":"ce4bgih2rcd13ifvqba0","pricing_plan_id":"cebpf4jnsgd1na2vs0mg"},{"bike_id":"4f82c1ba-14ff-4966-ac06-28da01e82cf4","system_id":"levelo_inurba_marseille","lat":43.27916,"lon":5.39591,"is_reserved":false,"is_disabled":false,"rental_uris":{"android":"levelo://app?vid=4f82c1ba-14ff-4966-ac06-28da01e82cf4","ios":"levelo://app?vid=4f82c1ba-14ff-4966-ac06-28da01e82cf4"},"vehicle_type_id":"4","last_reported":1734655556,"current_range_meters":28800,"station_id":"ce4bhf92rcd13ifvqf40","pricing_plan_id":"cebpf4jnsgd1na2vs0mg"},{"bike_id":"5f95dcdc-b7ed-4b2d-bb9c-c1b46e433a17","system_id":"levelo_inurba_marseille","lat":43.31349,"lon":5.39702,"is_reserved":false,"is_disabled":false,"rental_uris":{"android":"levelo://app?vid=5f95dcdc-b7ed-4b2d-bb9c-c1b46e433a17","ios":"levelo://app?vid=5f95dcdc-b7ed-4b2d-bb9c-c1b46e433a17"},"vehicle_type_id":"4","last_reported":1734655556,"current_range_meters":36400,"station_id":"ce4bgvp2rcd13ifvqcu0","pricing_plan_id":"cebpf4jnsgd1na2vs0mg"},{"bike_id":"2256e953-e04c-4a1a-96b7-b03d74e4d2b6","system_id":"levelo_inurba_marseille","lat":43.24811,"lon":5.37451,"is_reserved":false,"is_disabled":false,"rental_uris":{"android":"levelo://app?vid=2256e953-e04c-4a1a-96b7-b03d74e4d2b6","ios":"levelo://app?vid=2256e953-e04c-4a1a-96b7-b03d74e4d2b6"},"vehicle_type_id":"4","last_reported":1734655556,"current_range_meters":39200,"station_id":"ce4bhgh2rcd13ifvqfb0","pricing_plan_id":"cebpf4jnsgd1na2vs0mg"},{"bike_id":"9af43466-4df0-442d-9893-09cf91f9e7e1","system_id":"levelo_inurba_marseille","lat":43.28721,"lon":5.39972,"is_reserved":false,"is_disabled":false,"rental_uris":{"android":"levelo://app?vid=9af43466-4df0-442d-9893-09cf91f9e7e1","ios":"levelo://app?vid=9af43466-4df0-442d-9893-09cf91f9e7e1"},"vehicle_type_id":"4","last_reported":1734655556,"current_range_meters":27600,"station_id":"ce4bho92rcd13ifvqh3g","pricing_plan_id":"cebpf4jnsgd1na2vs0mg"},{"bike_id":"2708ebca-ead0-431b-8ee5-75b909288afb","system_id":"levelo_inurba_marseille","lat":43.281,"lon":5.37832,"is_reserved":false,"is_disabled":false,"rental_uris":{"android":"levelo://app?vid=2708ebca-ead0-431b-8ee5-75b909288afb","ios":"levelo://app?vid=2708ebca-ead0-431b-8ee5-75b909288afb"},"vehicle_type_id":"4","last_reported":1734655556,"current_range_meters":29600,"station_id":"ce4bha12rcd13ifvqee0","pricing_plan_id":"cebpf4jnsgd1na2vs0mg"},{"bike_id":"a9cd1d06-8a2c-4c4c-baee-9aade9fe9567","system_id":"levelo_inurba_marseille","lat":43.24655,"lon":5.38178,"is_reserved":false,"is_disabled":false,"rental_uris":{"android":"levelo://app?vid=a9cd1d06-8a2c-4c4c-baee-9aade9fe9567","ios":"levelo://app?vid=a9cd1d06-8a2c-4c4c-baee-9aade9fe9567"},"vehicle_type_id":"4","last_reported":1734655556,"current_range_meters":28800,"station_id":"ce4bhih2rcd13ifvqfr0","pricing_plan_id":"cebpf4jnsgd1na2vs0mg"},{"bike_id":"c6813a80-7333-4ad1-91e3-916b500cda5e","system_id":"levelo_inurba_marseille","lat":43.25862,"lon":5.39898,"is_reserved":false,"is_disabled":false,"rental_uris":{"android":"levelo://app?vid=c6813a80-7333-4ad1-91e3-916b500cda5e","ios":"levelo://app?vid=c6813a80-7333-4ad1-91e3-916b500cda5e"},"vehicle_type_id":"4","last_reported":1734655556,"current_range_meters":15200,"station_id":"ce4bhl92rcd13ifvqghg","pricing_plan_id":"cebpf4jnsgd1na2vs0mg"},{"bike_id":"19f34006-1dba-4c03-b59a-0511830589aa","system_id":"levelo_inurba_marseille","lat":43.24809,"lon":5.37457,"is_reserved":false,"is_disabled":false,"rental_uris":{"android":"levelo://app?vid=19f34006-1dba-4c03-b59a-0511830589aa","ios":"levelo://app?vid=19f34006-1dba-4c03-b59a-0511830589aa"},"vehicle_type_id":"4","last_reported":1734655556,"current_range_meters":28000,"station_id":"ce4bhgh2rcd13ifvqfb0","pricing_plan_id":"cebpf4jnsgd1na2vs0mg"},{"bike_id":"c74db8c8-c410-49c5-9f2f-32f849d1937b","system_id":"levelo_inurba_marseille","lat":43.271731,"lon":5.409953,"is_reserved":false,"is_disabled":false,"rental_uris":{"android":"levelo://app?vid=c74db8c8-c410-49c5-9f2f-32f849d1937b","ios":"levelo://app?vid=c74db8c8-c410-49c5-9f2f-32f849d1937b"},"vehicle_type_id":"4","last_reported":1734655556,"current_range_meters":38800,"station_id":"ce4bhl12rcd13ifvqgf0","pricing_plan_id":"cebpf4jnsgd1na2vs0mg"},{"bike_id":"d9820f35-2ea1-45b1-ab36-efca94736467","system_id":"levelo_inurba_marseille","lat":43.31703,"lon":5.37769,"is_reserved":false,"is_disabled":false,"rental_uris":{"android":"levelo://app?vid=d9820f35-2ea1-45b1-ab36-efca94736467","ios":"levelo://app?vid=d9820f35-2ea1-45b1-ab36-efca94736467"},"vehicle_type_id":"4","last_reported":1734655556,"current_range_meters":20000,"station_id":"ce4bgth2rcd13ifvqch0","pricing_plan_id":"cebpf4jnsgd1na2vs0mg"},{"bike_id":"450a8418-ab58-495f-b063-5a60eb1f26dc","system_id":"levelo_inurba_marseille","lat":43.30797,"lon":5.43529,"is_reserved":false,"is_disabled":false,"rental_uris":{"android":"levelo://app?vid=450a8418-ab58-495f-b063-5a60eb1f26dc","ios":"levelo://app?vid=450a8418-ab58-495f-b063-5a60eb1f26dc"},"vehicle_type_id":"4","last_reported":1734655556,"current_range_meters":33200,"station_id":"ce4bhph2rcd13ifvqheg","pricing_plan_id":"cebpf4jnsgd1na2vs0mg"},{"bike_id":"03d290ab-7091-4439-bc32-8d0f7cbb0b98","system_id":"levelo_inurba_marseille","lat":43.24543,"lon":5.39547,"is_reserved":false,"is_disabled":false,"rental_uris":{"android":"levelo://app?vid=03d290ab-7091-4439-bc32-8d0f7cbb0b98","ios":"levelo://app?vid=03d290ab-7091-4439-bc32-8d0f7cbb0b98"},"vehicle_type_id":"4","last_reported":1734655556,"current_range_meters":22400,"station_id":"ce4bhlp2rcd13ifvqgjg","pricing_plan_id":"cebpf4jnsgd1na2vs0mg"},{"bike_id":"1b1a2e05-7d27-49d9-b772-faf5b7588ac5","system_id":"levelo_inurba_marseille","lat":43.29882,"lon":5.38908,"is_reserved":false,"is_disabled":true,"rental_uris":{"android":"levelo://app?vid=1b1a2e05-7d27-49d9-b772-faf5b7588ac5","ios":"levelo://app?vid=1b1a2e05-7d27-49d9-b772-faf5b7588ac5"},"vehicle_type_id":"4","last_reported":1734655556,"current_range_meters":400,"station_id":"ce4bh392rcd13ifvqdl0","pricing_plan_id":"cebpf4jnsgd1na2vs0mg"},{"bike_id":"2ea5ebc2-554f-4583-b0a6-c2d852bdc972","system_id":"levelo_inurba_marseille","lat":43.281077,"lon":5.378461,"is_reserved":false,"is_disabled":false,"rental_uris":{"android":"levelo://app?vid=2ea5ebc2-554f-4583-b0a6-c2d852bdc972","ios":"levelo://app?vid=2ea5ebc2-554f-4583-b0a6-c2d852bdc972"},"vehicle_type_id":"4","last_reported":1734655556,"current_range_meters":39200,"station_id":"ce4bha12rcd13ifvqee0","pricing_plan_id":"cebpf4jnsgd1na2vs0mg"},{"bike_id":"962d5d18-5b61-4dc8-91fb-71154084d2dd","system_id":"levelo_inurba_marseille","lat":43.28576,"lon":5.39495,"is_reserved":false,"is_disabled":false,"rental_uris":{"android":"levelo://app?vid=962d5d18-5b61-4dc8-91fb-71154084d2dd","ios":"levelo://app?vid=962d5d18-5b61-4dc8-91fb-71154084d2dd"},"vehicle_type_id":"4","last_reported":1734655556,"current_range_meters":17600,"station_id":"ce4bh292rcd13ifvqdg0","pricing_plan_id":"cebpf4jnsgd1na2vs0mg"},{"bike_id":"998bb76c-9ad8-4edd-b4fe-7e09c8e7f623","system_id":"levelo_inurba_marseille","lat":43.313699,"lon":5.384986,"is_reserved":false,"is_disabled":false,"rental_uris":{"android":"levelo://app?vid=998bb76c-9ad8-4edd-b4fe-7e09c8e7f623","ios":"levelo://app?vid=998bb76c-9ad8-4edd-b4fe-7e09c8e7f623"},"vehicle_type_id":"4","last_reported":1734655556,"current_range_meters":39200,"station_id":"ce4bgt92rcd13ifvqcf0","pricing_plan_id":"cebpf4jnsgd1na2vs0mg"},{"bike_id":"9932f0ef-901c-478b-81c6-b5f135d19e67","system_id":"levelo_inurba_marseille","lat":43.27561,"lon":5.384,"is_reserved":false,"is_disabled":false,"rental_uris":{"android":"levelo://app?vid=9932f0ef-901c-478b-81c6-b5f135d19e67","ios":"levelo://app?vid=9932f0ef-901c-478b-81c6-b5f135d19e67"},"vehicle_type_id":"4","last_reported":1734655556,"current_range_meters":27600,"station_id":"ce4bhh92rcd13ifvqfi0","pricing_plan_id":"cebpf4jnsgd1na2vs0mg"},{"bike_id":"910fab2b-59b4-4bed-a67f-60b6ec9703f1","system_id":"levelo_inurba_marseille","lat":43.29895,"lon":5.3975,"is_reserved":false,"is_disabled":false,"rental_uris":{"android":"levelo://app?vid=910fab2b-59b4-4bed-a67f-60b6ec9703f1","ios":"levelo://app?vid=910fab2b-59b4-4bed-a67f-60b6ec9703f1"},"vehicle_type_id":"4","last_reported":1734655556,"current_range_meters":38000,"station_id":"ce4bh0h2rcd13ifvqd50","pricing_plan_id":"cebpf4jnsgd1na2vs0mg"},{"bike_id":"cc91e18c-31a1-4d61-8bec-2d478014f9b7","system_id":"levelo_inurba_marseille","lat":43.27373,"lon":5.36253,"is_reserved":false,"is_disabled":false,"rental_uris":{"android":"levelo://app?vid=cc91e18c-31a1-4d61-8bec-2d478014f9b7","ios":"levelo://app?vid=cc91e18c-31a1-4d61-8bec-2d478014f9b7"},"vehicle_type_id":"4","last_reported":1734655556,"current_range_meters":30800,"station_id":"ce4bhbh2rcd13ifvqeo0","pricing_plan_id":"cebpf4jnsgd1na2vs0mg"},{"bike_id":"fdfb3580-1002-4881-8a39-36cd06d2a7b8","system_id":"levelo_inurba_marseille","lat":43.28265,"lon":5.35073,"is_reserved":false,"is_disabled":false,"rental_uris":{"android":"levelo://app?vid=fdfb3580-1002-4881-8a39-36cd06d2a7b8","ios":"levelo://app?vid=fdfb3580-1002-4881-8a39-36cd06d2a7b8"},"vehicle_type_id":"4","last_reported":1734655556,"current_range_meters":36400,"station_id":"ce4bhbp2rcd13ifvqerg","pricing_plan_id":"cebpf4jnsgd1na2vs0mg"},{"bike_id":"494c8398-822e-42ee-a7f1-dfd664d1fba7","system_id":"levelo_inurba_marseille","lat":43.23194,"lon":5.35544,"is_reserved":false,"is_disabled":false,"rental_uris":{"android":"levelo://app?vid=494c8398-822e-42ee-a7f1-dfd664d1fba7","ios":"levelo://app?vid=494c8398-822e-42ee-a7f1-dfd664d1fba7"},"vehicle_type_id":"4","last_reported":1734655556,"current_range_meters":37600,"station_id":"ce4bhu92rcd13ifvqi70","pricing_plan_id":"cebpf4jnsgd1na2vs0mg"},{"bike_id":"16c58b96-bed5-4beb-9756-42ede896921f","system_id":"levelo_inurba_marseille","lat":43.28268,"lon":5.35073,"is_reserved":false,"is_disabled":false,"rental_uris":{"android":"levelo://app?vid=16c58b96-bed5-4beb-9756-42ede896921f","ios":"levelo://app?vid=16c58b96-bed5-4beb-9756-42ede896921f"},"vehicle_type_id":"4","last_reported":1734655556,"current_range_meters":38800,"station_id":"ce4bhbp2rcd13ifvqerg","pricing_plan_id":"cebpf4jnsgd1na2vs0mg"},{"bike_id":"d3928725-a2d6-4541-95c3-2ccaad44fbfd","system_id":"levelo_inurba_marseille","lat":43.30604,"lon":5.39354,"is_reserved":false,"is_disabled":false,"rental_uris":{"android":"levelo://app?vid=d3928725-a2d6-4541-95c3-2ccaad44fbfd","ios":"levelo://app?vid=d3928725-a2d6-4541-95c3-2ccaad44fbfd"},"vehicle_type_id":"4","last_reported":1734655556,"current_range_meters":35600,"station_id":"ce4bh0p2rcd13ifvqd80","pricing_plan_id":"cebpf4jnsgd1na2vs0mg"},{"bike_id":"3c413c58-d255-428b-86c8-72567e764cd9","system_id":"levelo_inurba_marseille","lat":43.284634,"lon":5.358855,"is_reserved":false,"is_disabled":false,"rental_uris":{"android":"levelo://app?vid=3c413c58-d255-428b-86c8-72567e764cd9","ios":"levelo://app?vid=3c413c58-d255-428b-86c8-72567e764cd9"},"vehicle_type_id":"4","last_reported":1734655556,"current_range_meters":39200,"station_id":"ce4bhah2rcd13ifvqei0","pricing_plan_id":"cebpf4jnsgd1na2vs0mg"},{"bike_id":"55fa967f-e3e3-42c4-9dd1-2bcbb5fc2d4d","system_id":"levelo_inurba_marseille","lat":43.27166,"lon":5.3918,"is_reserved":false,"is_disabled":false,"rental_uris":{"android":"levelo://app?vid=55fa967f-e3e3-42c4-9dd1-2bcbb5fc2d4d","ios":"levelo://app?vid=55fa967f-e3e3-42c4-9dd1-2bcbb5fc2d4d"},"vehicle_type_id":"4","last_reported":1734655556,"current_range_meters":27200,"station_id":"","pricing_plan_id":"cebpf4jnsgd1na2vs0mg"},{"bike_id":"2c5a3a90-f563-4a71-9650-8b465fa74eb7","system_id":"levelo_inurba_marseille","lat":43.2742,"lon":5.39401,"is_reserved":false,"is_disabled":false,"rental_uris":{"android":"levelo://app?vid=2c5a3a90-f563-4a71-9650-8b465fa74eb7","ios":"levelo://app?vid=2c5a3a90-f563-4a71-9650-8b465fa74eb7"},"vehicle_type_id":"4","last_reported":1734655556,"current_range_meters":38800,"station_id":"ce4bhdp2rcd13ifvqf20","pricing_plan_id":"cebpf4jnsgd1na2vs0mg"},{"bike_id":"8e8ddb40-dfef-4f41-8fd9-8dfe2942b813","system_id":"levelo_inurba_marseille","lat":43.31483,"lon":5.37285,"is_reserved":false,"is_disabled":false,"rental_uris":{"android":"levelo://app?vid=8e8ddb40-dfef-4f41-8fd9-8dfe2942b813","ios":"levelo://app?vid=8e8ddb40-dfef-4f41-8fd9-8dfe2942b813"},"vehicle_type_id":"4","last_reported":1734655556,"current_range_meters":14000,"station_id":"ce4bgt12rcd13ifvqcd0","pricing_plan_id":"cebpf4jnsgd1na2vs0mg"},{"bike_id":"a2eba22b-b0ee-4005-9bf3-576bb458d391","system_id":"levelo_inurba_marseille","lat":43.279651,"lon":5.387544,"is_reserved":false,"is_disabled":true,"rental_uris":{"android":"levelo://app?vid=a2eba22b-b0ee-4005-9bf3-576bb458d391","ios":"levelo://app?vid=a2eba22b-b0ee-4005-9bf3-576bb458d391"},"vehicle_type_id":"4","last_reported":1734655556,"current_range_meters":0,"station_id":"","pricing_plan_id":"cebpf4jnsgd1na2vs0mg"},{"bike_id":"c5fe3df7-38c6-4417-926a-4940de79602c","system_id":"levelo_inurba_marseille","lat":43.29876,"lon":5.39776,"is_reserved":false,"is_disabled":false,"rental_uris":{"android":"levelo://app?vid=c5fe3df7-38c6-4417-926a-4940de79602c","ios":"levelo://app?vid=c5fe3df7-38c6-4417-926a-4940de79602c"},"vehicle_type_id":"4","last_reported":1734655556,"current_range_meters":36400,"station_id":"ce4bh0h2rcd13ifvqd50","pricing_plan_id":"cebpf4jnsgd1na2vs0mg"},{"bike_id":"fcf6f42c-9492-49dd-a9e6-322a50636e12","system_id":"levelo_inurba_marseille","lat":43.31715,"lon":5.37754,"is_reserved":false,"is_disabled":false,"rental_uris":{"android":"levelo://app?vid=fcf6f42c-9492-49dd-a9e6-322a50636e12","ios":"levelo://app?vid=fcf6f42c-9492-49dd-a9e6-322a50636e12"},"vehicle_type_id":"4","last_reported":1734655556,"current_range_meters":13600,"station_id":"ce4bgth2rcd13ifvqch0","pricing_plan_id":"cebpf4jnsgd1na2vs0mg"},{"bike_id":"6e868a60-9f88-474e-adb5-72cc44996f9b","system_id":"levelo_inurba_marseille","lat":43.29522,"lon":5.375,"is_reserved":false,"is_disabled":true,"rental_uris":{"android":"levelo://app?vid=6e868a60-9f88-474e-adb5-72cc44996f9b","ios":"levelo://app?vid=6e868a60-9f88-474e-adb5-72cc44996f9b"},"vehicle_type_id":"4","last_reported":1734655556,"current_range_meters":0,"station_id":"ce4bgkp2rcd13ifvqbmg","pricing_plan_id":"cebpf4jnsgd1na2vs0mg"},{"bike_id":"7defd0b3-fac9-4d6e-9dc8-be201cdc19ab","system_id":"levelo_inurba_marseille","lat":43.30185,"lon":5.36616,"is_reserved":false,"is_disabled":false,"rental_uris":{"android":"levelo://app?vid=7defd0b3-fac9-4d6e-9dc8-be201cdc19ab","ios":"levelo://app?vid=7defd0b3-fac9-4d6e-9dc8-be201cdc19ab"},"vehicle_type_id":"4","last_reported":1734655556,"current_range_meters":6800,"station_id":"ce4bgrh2rcd13ifvqc8g","pricing_plan_id":"cebpf4jnsgd1na2vs0mg"},