{"last_updated":1726330191,"ttl":30,"version":"2.2","data":{"bikes":[{"bike_id":"78b7b752-89ab-4d79-95ae-11957cb4908d","system_id":"levelo_inurba_marseille","lat":43.32288,"lon":5.38272,"is_reserved":false,"is_disabled":false,"rental_uris":{"android":"levelo://app?vid=78b7b752-89ab-4d79-95ae-11957cb4908d","ios":"levelo://app?vid=78b7b752-89ab-4d79-95ae-11957cb4908d"},"vehicle_type_id":"4","last_reported":1726330191,"current_range_meters":16800,"station_id":"ce4bhr12rcd13ifvqhqg","pricing_plan_id":"cebpf4jnsgd1na2vs0mg"},{"bike_id":"113c3014-9829-4e8e-81a9-9ce538d87a81","system_id":"levelo_inurba_marseille","lat":43.27838,"lon":5.39203,"is_reserved":false,"is_disabled":false,"rental_uris":{"android":"levelo://app?vid=113c3014-9829-4e8e-81a9-9ce538d87a81","ios":"levelo://app?vid=113c3014-9829-4e8e-81a9-9ce538d87a81"},"vehicle_type_id":"4","last_reported":1726330191,"current_range_meters":14000,"station_id":"ce4bhjp2rcd13ifvqga0","pricing_plan_id":"cebpf4jnsgd1na2vs0mg"},{"bike_id":"5ac99355-4c7a-4bb2-a856-f7d0bd716ab4","system_id":"levelo_inurba_marseille","lat":43.29423,"lon":5.38613,"is_reserved":false,"is_disabled":false,"rental_uris":{"android":"levelo://app?vid=5ac99355-4c7a-4bb2-a856-f7d0bd716ab4","ios":"levelo://app?vid=5ac99355-4c7a-4bb2-a856-f7d0bd716ab4"},"vehicle_type_id":"4","last_reported":1726330191,"current_range_meters":8400,"station_id":"ce4bh2h2rcd13ifvqdh0","pricing_plan_id":"cebpf4jnsgd1na2vs0mg"},{"bike_id":"1433cc86-19c5-4d38-a0b5-c5c087739e0a","system_id":"levelo_inurba_marseille","lat":43.22927,"lon":5.35375,"is_reserved":false,"is_disabled":false,"rental_uris":{"android":"levelo://app?vid=1433cc86-19c5-4d38-a0b5-c5c087739e0a","ios":"levelo://app?vid=1433cc86-19c5-4d38-a0b5-c5c087739e0a"},"vehicle_type_id":"4","last_reported":1726330191,"current_range_meters":25200,"station_id":"cpo3532slgdg3j2ikp40","pricing_plan_id":"cebpf4jnsgd1na2vs0mg"},{"bike_id":"5526887d-7655-4833-b7de-15dfc2517615","system_id":"levelo_inurba_marseille","lat":43.30879,"lon":5.39618,"is_reserved":false,"is_disabled":false,"rental_uris":{"android":"levelo://app?vid=5526887d-7655-4833-b7de-15dfc2517615","ios":"levelo://app?vid=5526887d-7655-4833-b7de-15dfc2517615"},"vehicle_type_id":"4","last_reported":1726330191,"current_range_meters":2800,"station_id":"ce4bh012rcd13ifvqcv0","pricing_plan_id":"cebpf4jnsgd1na2vs0mg"},{"bike_id":"083984dd-1abd-4a7d-84c6-e8ceb7b63abe","system_id":"levelo_inurba_marseille","lat":43.31294,"lon":5.37812,"is_reserved":false,"is_disabled":false,"rental_uris":{"android":"levelo://app?vid=083984dd-1abd-4a7d-84c6-e8ceb7b63abe","ios":"levelo://app?vid=083984dd-1abd-4a7d-84c6-e8ceb7b63abe"},"vehicle_type_id":"4","last_reported":1726330191,"current_range_meters":38000,"station_id":"","pricing_plan_id":"cebpf4jnsgd1na2vs0mg"},{"bike_id":"bca252d7-6483-4555-9457-89659480199a","system_id":"levelo_inurba_marseille","lat":43.29878,"lon":5.3985,"is_reserved":false,"is_disabled":false,"rental_uris":{"android":"levelo://app?vid=bca252d7-6483-4555-9457-89659480199a","ios":"levelo://app?vid=bca252d7-6483-4555-9457-89659480199a"},"vehicle_type_id":"4","last_reported":1726330191,"current_range_meters":22000,"station_id":"ce4bh0h2rcd13ifvqd60","pricing_plan_id":"cebpf4jnsgd1na2vs0mg"},{"bike_id":"78e8b1af-39b3-4486-9f1e-8f9320f078e7","system_id":"levelo_inurba_marseille","lat":43.2694,"lon":5.40256,"is_reserved":false,"is_disabled":false,"rental_uris":{"android":"levelo://app?vid=78e8b1af-39b3-4486-9f1e-8f9320f078e7","ios":"levelo://app?vid=78e8b1af-39b3-4486-9f1e-8f9320f078e7"},"vehicle_type_id":"4","last_reported":1726330191,"current_range_meters":38000,"station_id":"cjm6bp8fraef2m0cb0m0","pricing_plan_id":"cebpf4jnsgd1na2vs0mg"},{"bike_id":"941cfc79-0c4c-4720-b0cb-b72d1bdf727b","system_id":"levelo_inurba_marseille","lat":43.26797,"lon":5.39419,"is_reserved":false,"is_disabled":false,"rental_uris":{"android":"levelo://app?vid=941cfc79-0c4c-4720-b0cb-b72d1bdf727b","ios":"levelo://app?vid=941cfc79-0c4c-4720-b0cb-b72d1bdf727b"},"vehicle_type_id":"4","last_reported":1726330191,"current_range_meters":8000,"station_id":"ce4bhh12rcd13ifvqfg0","pricing_plan_id":"cebpf4jnsgd1na2vs0mg"},{"bike_id":"13c4bde3-79a1-495d-a0c0-1dbceff892e5","system_id":"levelo_inurba_marseille","lat":43.259308,"lon":5.409159,"is_reserved":false,"is_disabled":false,"rental_uris":{"android":"levelo://app?vid=13c4bde3-79a1-495d-a0c0-1dbceff892e5","ios":"levelo://app?vid=13c4bde3-79a1-495d-a0c0-1dbceff892e5"},"vehicle_type_id":"4","last_reported":1726330191,"current_range_meters":12800,"station_id":"ce4bhm92rcd13ifvqglg","pricing_plan_id":"cebpf4jnsgd1na2vs0mg"},{"bike_id":"ccb3c9e6-9ade-4d9a-bcc5-3aaa23c63374","system_id":"levelo_inurba_marseille","lat":43.24662,"lon":5.38161,"is_reserved":false,"is_disabled":false,"rental_uris":{"android":"levelo://app?vid=ccb3c9e6-9ade-4d9a-bcc5-3aaa23c63374","ios":"levelo://app?vid=ccb3c9e6-9ade-4d9a-bcc5-3aaa23c63374"},"vehicle_type_id":"4","last_reported":1726330191,"current_range_meters":2800,"station_id":"ce4bhih2rcd13ifvqfr0","pricing_plan_id":"cebpf4jnsgd1na2vs0mg"},{"bike_id":"cbc2fb0a-fde2-484c-9fe4-ac232135c2de","system_id":"levelo_inurba_marseille","lat":43.231812,"lon":5.40001,"is_reserved":false,"is_disabled":false,"rental_uris":{"android":"levelo://app?vid=cbc2fb0a-fde2-484c-9fe4-ac232135c2de","ios":"levelo://app?vid=cbc2fb0a-fde2-484c-9fe4-ac232135c2de"},"vehicle_type_id":"4","last_reported":1726330191,"current_range_meters":8000,"station_id":"ce4bhn12rcd13ifvqgqg","pricing_plan_id":"cebpf4jnsgd1na2vs0mg"},{"bike_id":"13ec4916-f0ea-4897-8afc-596425b42c42","system_id":"levelo_inurba_marseille","lat":43.23195,"lon":5.35552,"is_reserved":false,"is_disabled":false,"rental_uris":{"android":"levelo://app?vid=13ec4916-f0ea-4897-8afc-596425b42c42","ios":"levelo://app?vid=13ec4916-f0ea-4897-8afc-596425b42c42"},"vehicle_type_id":"4","last_reported":1726330191,"current_range_meters":26000,"station_id":"ce4bhu92rcd13ifvqi70","pricing_plan_id":"cebpf4jnsgd1na2vs0mg"},{"bike_id":"8e31f1db-5305-418d-a7b9-66565d9164e1","system_id":"levelo_inurba_marseille","lat":43.2681,"lon":5.40258,"is_reserved":false,"is_disabled":false,"rental_uris":{"android":"levelo://app?vid=8e31f1db-5305-418d-a7b9-66565d9164e1","ios":"levelo://app?vid=8e31f1db-5305-418d-a7b9-66565d9164e1"},"vehicle_type_id":"4","last_reported":1726330191,"current_range_meters":21600,"station_id":"ce501612rcd8frsf0b60","pricing_plan_id":"cebpf4jnsgd1na2vs0mg"},{"bike_id":"cb0eaffb-2812-4bc5-9ace-6454d6cac3eb","system_id":"levelo_inurba_marseille","lat":43.28617,"lon":5.35103,"is_reserved":false,"is_disabled":false,"rental_uris":{"android":"levelo://app?vid=cb0eaffb-2812-4bc5-9ace-6454d6cac3eb","ios":"levelo://app?vid=cb0eaffb-2812-4bc5-9ace-6454d6cac3eb"},"vehicle_type_id":"4","last_reported":1726330191,"current_range_meters":29600,"station_id":"ce4bhch2rcd13ifvqeug","pricing_plan_id":"cebpf4jnsgd1na2vs0mg"},{"bike_id":"1b69e28d-b657-4802-b5dd-aa17fb5a768b","system_id":"levelo_inurba_marseille","lat":43.27128,"lon":5.42786,"is_reserved":false,"is_disabled":false,"rental_uris":{"android":"levelo://app?vid=1b69e28d-b657-4802-b5dd-aa17fb5a768b","ios":"levelo://app?vid=1b69e28d-b657-4802-b5dd-aa17fb5a768b"},"vehicle_type_id":"4","last_reported":1726330191,"current_range_meters":25600,"station_id":"","pricing_plan_id":"cebpf4jnsgd1na2vs0mg"},{"bike_id":"17e06d76-9226-40b8-a3da-1add47a80f7c","system_id":"levelo_inurba_marseille","lat":43.26789,"lon":5.39412,"is_reserved":false,"is_disabled":false,"rental_uris":{"android":"levelo://app?vid=17e06d76-9226-40b8-a3da-1add47a80f7c","ios":"levelo://app?vid=17e06d76-9226-40b8-a3da-1add47a80f7c"},"vehicle_type_id":"4","last_reported":1726330191,"current_range_meters":35200,"station_id":"ce4bhh12rcd13ifvqfg0","pricing_plan_id":"cebpf4jnsgd1na2vs0mg"},{"bike_id":"026a3fb4-5a7d-413d-850f-bdb6b382da7d","system_id":"levelo_inurba_marseille","lat":43.23188,"lon":5.3554,"is_reserved":false,"is_disabled":false,"rental_uris":{"android":"levelo://app?vid=026a3fb4-5a7d-413d-850f-bdb6b382da7d","ios":"levelo://app?vid=026a3fb4-5a7d-413d-850f-bdb6b382da7d"},"vehicle_type_id":"4","last_reported":1726330191,"current_range_meters":6400,"station_id":"ce4bhu92rcd13ifvqi70","pricing_plan_id":"cebpf4jnsgd1na2vs0mg"},{"bike_id":"87aa1887-99a8-46ec-bf76-271cf1869f4d","system_id":"levelo_inurba_marseille","lat":43.29029,"lon":5.38643,"is_reserved":false,"is_disabled":false,"rental_uris":{"android":"levelo://app?vid=87aa1887-99a8-46ec-bf76-271cf1869f4d","ios":"levelo://app?vid=87aa1887-99a8-46ec-bf76-271cf1869f4d"},"vehicle_type_id":"4","last_reported":1726330191,"current_range_meters":16400,"station_id":"ce4bh4p2rcd13ifvqe0g","pricing_plan_id":"cebpf4jnsgd1na2vs0mg"},{"bike_id":"995d3a7e-289e-4ebd-b785-9d2da426ad57","system_id":"levelo_inurba_marseille","lat":43.23193,"lon":5.35549,"is_reserved":false,"is_disabled":false,"rental_uris":{"android":"levelo://app?vid=995d3a7e-289e-4ebd-b785-9d2da426ad57","ios":"levelo://app?vid=995d3a7e-289e-4ebd-b785-9d2da426ad57"},"vehicle_type_id":"4","last_reported":1726330191,"current_range_meters":19200,"station_id":"ce4bhu92rcd13ifvqi70","pricing_plan_id":"cebpf4jnsgd1na2vs0mg"},{"bike_id":"74c67d55-8a5f-40c9-8066-d68354718f8c","system_id":"levelo_inurba_marseille","lat":43.23188,"lon":5.35552,"is_reserved":false,"is_disabled":false,"rental_uris":{"android":"levelo://app?vid=74c67d55-8a5f-40c9-8066-d68354718f8c","ios":"levelo://app?vid=74c67d55-8a5f-40c9-8066-d68354718f8c"},"vehicle_type_id":"4","last_reported":1726330191,"current_range_meters":24800,"station_id":"ce4bhu92rcd13ifvqi70","pricing_plan_id":"cebpf4jnsgd1na2vs0mg"},{"bike_id":"b59367b5-9cf2-454d-9c0c-9efa1a59998d","system_id":"levelo_inurba_marseille","lat":43.27205,"lon":5.39187,"is_reserved":false,"is_disabled":false,"rental_uris":{"android":"levelo://app?vid=b59367b5-9cf2-454d-9c0c-9efa1a59998d","ios":"levelo://app?vid=b59367b5-9cf2-454d-9c0c-9efa1a59998d"},"vehicle_type_id":"4","last_reported":1726330191,"current_range_meters":12000,"station_id":"ce4bhhp2rcd13ifvqfm0","pricing_plan_id":"cebpf4jnsgd1na2vs0mg"},{"bike_id":"6de44c3c-f83e-4e39-b383-708694c45730","system_id":"levelo_inurba_marseille","lat":43.290244,"lon":5.381252,"is_reserved":false,"is_disabled":false,"rental_uris":{"android":"levelo://app?vid=6de44c3c-f83e-4e39-b383-708694c45730","ios":"levelo://app?vid=6de44c3c-f83e-4e39-b383-708694c45730"},"vehicle_type_id":"4","last_reported":1726330191,"current_range_meters":3600,"station_id":"ce4bh4p2rcd13ifvqe1g","pricing_plan_id":"cebpf4jnsgd1na2vs0mg"},{"bike_id":"714729ed-3c2a-4120-b2d7-277eae2eb849","system_id":"levelo_inurba_marseille","lat":43.23958,"lon":5.36634,"is_reserved":false,"is_disabled":false,"rental_uris":{"android":"levelo://app?vid=714729ed-3c2a-4120-b2d7-277eae2eb849","ios":"levelo://app?vid=714729ed-3c2a-4120-b2d7-277eae2eb849"},"vehicle_type_id":"4","last_reported":1726330191,"current_range_meters":39200,"station_id":"ce4bhi12rcd13ifvqfp0","pricing_plan_id":"cebpf4jnsgd1na2vs0mg"},{"bike_id":"5695be2b-9a5b-4c85-9c3e-237c284c36d2","system_id":"levelo_inurba_marseille","lat":43.323575,"lon":5.381978,"is_reserved":false,"is_disabled":false,"rental_uris":{"android":"levelo://app?vid=5695be2b-9a5b-4c85-9c3e-237c284c36d2","ios":"levelo://app?vid=5695be2b-9a5b-4c85-9c3e-237c284c36d2"},"vehicle_type_id":"4","last_reported":1726330191,"current_range_meters":39200,"station_id":"ce4bhr12rcd13ifvqhqg","pricing_plan_id":"cebpf4jnsgd1na2vs0mg"},{"bike_id":"76102230-8c84-4888-b8b7-8f9724d15667","system_id":"levelo_inurba_marseille","lat":43.27207,"lon":5.39185,"is_reserved":false,"is_disabled":false,"rental_uris":{"android":"levelo://app?vid=76102230-8c84-4888-b8b7-8f9724d15667","ios":"levelo://app?vid=76102230-8c84-4888-b8b7-8f9724d15667"},"vehicle_type_id":"4","last_reported":1726330191,"current_range_meters":20400,"station_id":"ce4bhhp2rcd13ifvqfm0","pricing_plan_id":"cebpf4jnsgd1na2vs0mg"},{"bike_id":"aac07f6f-d068-41e5-80ed-ad695afca2fa","system_id":"levelo_inurba_marseille","lat":43.2572,"lon":5.41116,"is_reserved":false,"is_disabled":false,"rental_uris":{"android":"levelo://app?vid=aac07f6f-d068-41e5-80ed-ad695afca2fa","ios":"levelo://app?vid=aac07f6f-d068-41e5-80ed-ad695afca2fa"},"vehicle_type_id":"4","last_reported":1726330191,"current_range_meters":36800,"station_id":"ce4bhkp2rcd13ifvqgd0","pricing_plan_id":"cebpf4jnsgd1na2vs0mg"},{"bike_id":"4d128c84-dbb2-4c2e-be9a-ae0b0886e83d","system_id":"levelo_inurba_marseille","lat":43.30932,"lon":5.40141,"is_reserved":false,"is_disabled":false,"rental_uris":{"android":"levelo://app?vid=4d128c84-dbb2-4c2e-be9a-ae0b0886e83d","ios":"levelo://app?vid=4d128c84-dbb2-4c2e-be9a-ae0b0886e83d"},"vehicle_type_id":"4","last_reported":1726330191,"current_range_meters":12000,"station_id":"ce4bgvp2rcd13ifvqct0","pricing_plan_id":"cebpf4jnsgd1na2vs0mg"},{"bike_id":"30fc1f51-20b6-4e13-8f56-75175e166910","system_id":"levelo_inurba_marseille","lat":43.2306,"lon":5.35492,"is_reserved":false,"is_disabled":false,"rental_uris":{"android":"levelo://app?vid=30fc1f51-20b6-4e13-8f56-75175e166910","ios":"levelo://app?vid=30fc1f51-20b6-4e13-8f56-75175e166910"},"vehicle_type_id":"4","last_reported":1726330191,"current_range_meters":38800,"station_id":"cpo3342slgdg3j2ifvpg","pricing_plan_id":"cebpf4jnsgd1na2vs0mg"},{"bike_id":"d02eb330-f8d9-43cb-8bf7-c08c5fc74a06","system_id":"levelo_inurba_marseille","lat":43.26807,"lon":5.4027,"is_reserved":false,"is_disabled":false,"rental_uris":{"android":"levelo://app?vid=d02eb330-f8d9-43cb-8bf7-c08c5fc74a06","ios":"levelo://app?vid=d02eb330-f8d9-43cb-8bf7-c08c5fc74a06"},"vehicle_type_id":"4","last_reported":1726330191,"current_range_meters":19200,"station_id":"ce501612rcd8frsf0b60","pricing_plan_id":"cebpf4jnsgd1na2vs0mg"},{"bike_id":"429b0e4c-9d5f-4b59-a920-31b0295cb709","system_id":"levelo_inurba_marseille","lat":43.27176,"lon":5.40995,"is_reserved":false,"is_disabled":false,"rental_uris":{"android":"levelo://app?vid=429b0e4c-9d5f-4b59-a920-31b0295cb709","ios":"levelo://app?vid=429b0e4c-9d5f-4b59-a920-31b0295cb709"},"vehicle_type_id":"4","last_reported":1726330191,"current_range_meters":8800,"station_id":"ce4bhl12rcd13ifvqgf0","pricing_plan_id":"cebpf4jnsgd1na2vs0mg"},{"bike_id":"69efc60e-10d0-453b-8bb5-8135ab5b4edb","system_id":"levelo_inurba_marseille","lat":43.27211,"lon":5.39178,"is_reserved":false,"is_disabled":false,"rental_uris":{"android":"levelo://app?vid=69efc60e-10d0-453b-8bb5-8135ab5b4edb","ios":"levelo://app?vid=69efc60e-10d0-453b-8bb5-8135ab5b4edb"},"vehicle_type_id":"4","last_reported":1726330191,"current_range_meters":38400,"station_id":"ce4bhhp2rcd13ifvqfm0","pricing_plan_id":"cebpf4jnsgd1na2vs0mg"},{"bike_id":"f89ebaff-608b-48c6-99bf-a4efd018954e","system_id":"levelo_inurba_marseille","lat":43.25723,"lon":5.41118,"is_reserved":false,"is_disabled":false,"rental_uris":{"android":"levelo://app?vid=f89ebaff-608b-48c6-99bf-a4efd018954e","ios":"levelo://app?vid=f89ebaff-608b-48c6-99bf-a4efd018954e"},"vehicle_type_id":"4","last_reported":1726330191,"current_range_meters":21600,"station_id":"ce4bhkp2rcd13ifvqgd0","pricing_plan_id":"cebpf4jnsgd1na2vs0mg"},{"bike_id":"ba6f658b-d80a-4dea-8d6a-37b3fb1079ad","system_id":"levelo_inurba_marseille","lat":43.29848,"lon":5.36278,"is_reserved":false,"is_disabled":false,"rental_uris":{"android":"levelo://app?vid=ba6f658b-d80a-4dea-8d6a-37b3fb1079ad","ios":"levelo://app?vid=ba6f658b-d80a-4dea-8d6a-37b3fb1079ad"},"vehicle_type_id":"4","last_reported":1726330191,"current_range_meters":38000,"station_id":"ce4bgpp2rcd13ifvqc3g","pricing_plan_id":"cebpf4jnsgd1na2vs0mg"},{"bike_id":"fc8b27c4-f2ac-4aa3-a72e-f0799ca48e22","system_id":"levelo_inurba_marseille","lat":43.23156,"lon":5.43709,"is_reserved":false,"is_disabled":false,"rental_uris":{"android":"levelo://app?vid=fc8b27c4-f2ac-4aa3-a72e-f0799ca48e22","ios":"levelo://app?vid=fc8b27c4-f2ac-4aa3-a72e-f0799ca48e22"},"vehicle_type_id":"4","last_reported":1726330191,"current_range_meters":16800,"station_id":"ce4bhmp2rcd13ifvqgog","pricing_plan_id":"cebpf4jnsgd1na2vs0mg"},{"bike_id":"a86db97e-a03a-48fc-8d03-6c0b7df08c8e","system_id":"levelo_inurba_marseille","lat":43.25824,"lon":5.39433,"is_reserved":false,"is_disabled":false,"rental_uris":{"android":"levelo://app?vid=a86db97e-a03a-48fc-8d03-6c0b7df08c8e","ios":"levelo://app?vid=a86db97e-a03a-48fc-8d03-6c0b7df08c8e"},"vehicle_type_id":"4","last_reported":1726330191,"current_range_meters":2800,"station_id":"ce4bhip2rcd13ifvqft0","pricing_plan_id":"cebpf4jnsgd1na2vs0mg"},{"bike_id":"67cef4a3-0443-4547-b932-be08a4e29deb","system_id":"levelo_inurba_marseille","lat":43.27205,"lon":5.39192,"is_reserved":false,"is_disabled":false,"rental_uris":{"android":"levelo://app?vid=67cef4a3-0443-4547-b932-be08a4e29deb","ios":"levelo://app?vid=67cef4a3-0443-4547-b932-be08a4e29deb"},"vehicle_type_id":"4","last_reported":1726330191,"current_range_meters":18000,"station_id":"ce4bhhp2rcd13ifvqfm0","pricing_plan_id":"cebpf4jnsgd1na2vs0mg"},{"bike_id":"6c5599b1-0440-41da-ac45-dfda77054232","system_id":"levelo_inurba_marseille","lat":43.26945,"lon":5.40254,"is_reserved":false,"is_disabled":false,"rental_uris":{"android":"levelo://app?vid=6c5599b1-0440-41da-ac45-dfda77054232","ios":"levelo://app?vid=6c5599b1-0440-41da-ac45-dfda77054232"},"vehicle_type_id":"4","last_reported":1726330191,"current_range_meters":14800,"station_id":"cjm6bp8fraef2m0cb0m0","pricing_plan_id":"cebpf4jnsgd1na2vs0mg"},{"bike_id":"b582030b-f020-432f-a828-78cc9f971b98","system_id":"levelo_inurba_marseille","lat":43.28077,"lon":5.39657,"is_reserved":false,"is_disabled":false,"rental_uris":{"android":"levelo://app?vid=b582030b-f020-432f-a828-78cc9f971b98","ios":"levelo://app?vid=b582030b-f020-432f-a828-78cc9f971b98"},"vehicle_type_id":"4","last_reported":1726330191,"current_range_meters":27600,"station_id":"ce4bho12rcd13ifvqh2g","pricing_plan_id":"cebpf4jnsgd1na2vs0mg"},{"bike_id":"c1be9ff8-43ca-4ee9-82bf-9372be88539d","system_id":"levelo_inurba_marseille","lat":43.25492,"lon":5.37644,"is_reserved":false,"is_disabled":false,"rental_uris":{"android":"levelo://app?vid=c1be9ff8-43ca-4ee9-82bf-9372be88539d","ios":"levelo://app?vid=c1be9ff8-43ca-4ee9-82bf-9372be88539d"},"vehicle_type_id":"4","last_reported":1726330191,"current_range_meters":8400,"station_id":"ce4bhh12rcd13ifvqff0","pricing_plan_id":"cebpf4jnsgd1na2vs0mg"},{"bike_id":"362c8673-b010-4d39-91d0-1b5d207a1571","system_id":"levelo_inurba_marseille","lat":43.29009,"lon":5.3561,"is_reserved":false,"is_disabled":false,"rental_uris":{"android":"levelo://app?vid=362c8673-b010-4d39-91d0-1b5d207a1571","ios":"levelo://app?vid=362c8673-b010-4d39-91d0-1b5d207a1571"},"vehicle_type_id":"4","last_reported":1726330191,"current_range_meters":16000,"station_id":"ce4bhb92rcd13ifvqen0","pricing_plan_id":"cebpf4jnsgd1na2vs0mg"},{"bike_id":"083f80f9-af32-4b4b-98d9-51e7c9548087","system_id":"levelo_inurba_marseille","lat":43.32363,"lon":5.38883,"is_reserved":false,"is_disabled":false,"rental_uris":{"android":"levelo://app?vid=083f80f9-af32-4b4b-98d9-51e7c9548087","ios":"levelo://app?vid=083f80f9-af32-4b4b-98d9-51e7c9548087"},"vehicle_type_id":"4","last_reported":1726330191,"current_range_meters":10000,"station_id":"ce4bhqp2rcd13ifvqhog","pricing_plan_id":"cebpf4jnsgd1na2vs0mg"},{"bike_id":"16ca6d91-7513-415c-9a61-5d33eb8ad677","system_id":"levelo_inurba_marseille","lat":43.22934,"lon":5.35374,"is_reserved":false,"is_disabled":false,"rental_uris":{"android":"levelo://app?vid=16ca6d91-7513-415c-9a61-5d33eb8ad677","ios":"levelo://app?vid=16ca6d91-7513-415c-9a61-5d33eb8ad677"},"vehicle_type_id":"4","last_reported":1726330191,"current_range_meters":21600,"station_id":"cpo3532slgdg3j2ikp40","pricing_plan_id":"cebpf4jnsgd1na2vs0mg"},{"bike_id":"807b8687-a069-4125-a401-9d4e75d9de8c","system_id":"levelo_inurba_marseille","lat":43.29596,"lon":5.38095,"is_reserved":false,"is_disabled":false,"rental_uris":{"android":"levelo://app?vid=807b8687-a069-4125-a401-9d4e75d9de8c","ios":"levelo://app?vid=807b8687-a069-4125-a401-9d4e75d9de8c"},"vehicle_type_id":"4","last_reported":1726330191,"current_range_meters":22400,"station_id":"ce4bgl12rcd13ifvqbo0","pricing_plan_id":"cebpf4jnsgd1na2vs0mg"},{"bike_id":"d38a17d1-a3ef-44ea-8c84-8c3822e22edc","system_id":"levelo_inurba_marseille","lat":43.27204,"lon":5.39178,"is_reserved":false,"is_disabled":false,"rental_uris":{"android":"levelo://app?vid=d38a17d1-a3ef-44ea-8c84-8c3822e22edc","ios":"levelo://app?vid=d38a17d1-a3ef-44ea-8c84-8c3822e22edc"},"vehicle_type_id":"4","last_reported":1726330191,"current_range_meters":38800,"station_id":"ce4bhhp2rcd13ifvqfm0","pricing_plan_id":"cebpf4jnsgd1na2vs0mg"},{"bike_id":"09d5a116-e720-4bbc-a378-5f71453f646d","system_id":"levelo_inurba_marseille","lat":43.30902,"lon":5.36848,"is_reserved":false,"is_disabled":false,"rental_uris":{"android":"levelo://app?vid=09d5a116-e720-4bbc-a378-5f71453f646d","ios":"levelo://app?vid=09d5a116-e720-4bbc-a378-5f71453f646d"},"vehicle_type_id":"4","last_reported":1726330191,"current_range_meters":38000,"station_id":"ce4bgn92rcd13ifvqbvg","pricing_plan_id":"cebpf4jnsgd1na2vs0mg"},{"bike_id":"d19bb16c-c267-4bb6-a90b-b189dbb17733","system_id":"levelo_inurba_marseille","lat":43.27208,"lon":5.39171,"is_reserved":false,"is_disabled":false,"rental_uris":{"android":"levelo://app?vid=d19bb16c-c267-4bb6-a90b-b189dbb17733","ios":"levelo://app?vid=d19bb16c-c267-4bb6-a90b-b189dbb17733"},"vehicle_type_id":"4","last_reported":1726330191,"current_range_meters":23200,"station_id":"ce4bhhp2rcd13ifvqfm0","pricing_plan_id":"cebpf4jnsgd1na2vs0mg"},{"bike_id":"f0279676-2cd7-41ff-b97d-618e697c6969","system_id":"levelo_inurba_marseille","lat":43.2737,"lon":5.36257,"is_reserved":false,"is_disabled":false,"rental_uris":{"android":"levelo://app?vid=f0279676-2cd7-41ff-b97d-618e697c6969","ios":"levelo://app?vid=f0279676-2cd7-41ff-b97d-618e697c6969"},"vehicle_type_id":"4","last_reported":1726330191,"current_range_meters":38800,"station_id":"ce4bhbh2rcd13ifvqeo0","pricing_plan_id":"cebpf4jnsgd1na2vs0mg"},{"bike_id":"055cecc8-99d3-4e9a-b046-cac98e4beede","system_id":"levelo_inurba_marseille","lat":43.23963,"lon":5.36621,"is_reserved":false,"is_disabled":false,"rental_uris":{"android":"levelo://app?vid=055cecc8-99d3-4e9a-b046-cac98e4beede","ios":"levelo://app?vid=055cecc8-99d3-4e9a-b046-cac98e4beede"},"vehicle_type_id":"4","last_reported":1726330191,"current_range_meters":17600,"station_id":"ce4bhi12rcd13ifvqfp0","pricing_plan_id":"cebpf4jnsgd1na2vs0mg"},{"bike_id":"d48576fc-e065-4694-9efd-9e57c6536242","system_id":"levelo_inurba_marseille","lat":43.22927,"lon":5.35372,"is_reserved":false,"is_disabled":false,"rental_uris":{"android":"levelo://app?vid=d48576fc-e065-4694-9efd-9e57c6536242","ios":"levelo://app?vid=d48576fc-e065-4694-9efd-9e57c6536242"},"vehicle_type_id":"4","last_reported":1726330191,"current_range_meters":12000,"station_id":"cpo3532slgdg3j2ikp40","pricing_plan_id":"cebpf4jnsgd1na2vs0mg"},{"bike_id":"26db0265-0a91-4c66-8aa8-67a94f7eef0d","system_id":"levelo_inurba_marseille","lat":43.26943,"lon":5.40061,"is_reserved":false,"is_disabled":false,"rental_uris":{"android":"levelo://app?vid=26db0265-0a91-4c66-8aa8-67a94f7eef0d","ios":"levelo://app?vid=26db0265-0a91-4c66-8aa8-67a94f7eef0d"},"vehicle_type_id":"4","last_reported":1726330191,"current_range_meters":16400,"station_id":"","pricing_plan_id":"cebpf4jnsgd1na2vs0mg"},{"bike_id":"9b49fc06-69dc-4375-9bc8-2ab31283d424","system_id":"levelo_inurba_marseille","lat":43.29903,"lon":5.43662,"is_reserved":false,"is_disabled":false,"rental_uris":{"android":"levelo://app?vid=9b49fc06-69dc-4375-9bc8-2ab31283d424","ios":"levelo://app?vid=9b49fc06-69dc-4375-9bc8-2ab31283d424"},"vehicle_type_id":"4","last_reported":1726330191,"current_range_meters":31200,"station_id":"ce4bhpp2rcd13ifvqhfg","pricing_plan_id":"cebpf4jnsgd1na2vs0mg"},{"bike_id":"226198aa-f036-4a64-b063-1d305686b773","system_id":"levelo_inurba_marseille","lat":43.27209,"lon":5.39181,"is_reserved":false,"is_disabled":false,"rental_uris":{"android":"levelo://app?vid=226198aa-f036-4a64-b063-1d305686b773","ios":"levelo://app?vid=226198aa-f036-4a64-b063-1d305686b773"},"vehicle_type_id":"4","last_reported":1726330191,"current_range_meters":9200,"station_id":"ce4bhhp2rcd13ifvqfm0","pricing_plan_id":"cebpf4jnsgd1na2vs0mg"},{"bike_id":"f49108d5-c87d-4282-98cf-3629579e319a","system_id":"levelo_inurba_marseille","lat":43.294928,"lon":5.375144,"is_reserved":false,"is_disabled":false,"rental_uris":{"android":"levelo://app?vid=f49108d5-c87d-4282-98cf-3629579e319a","ios":"levelo://app?vid=f49108d5-c87d-4282-98cf-3629579e319a"},"vehicle_type_id":"4","last_reported":1726330191,"current_range_meters":26800,"station_id":"ce4bgkp2rcd13ifvqbmg","pricing_plan_id":"cebpf4jnsgd1na2vs0mg"},{"bike_id":"47f6de78-df01-4a2d-a6c4-d802e1896e74","system_id":"levelo_inurba_marseille","lat":43.27315,"lon":5.39082,"is_reserved":false,"is_disabled":false,"rental_uris":{"android":"levelo://app?vid=47f6de78-df01-4a2d-a6c4-d802e1896e74","ios":"levelo://app?vid=47f6de78-df01-4a2d-a6c4-d802e1896e74"},"vehicle_type_id":"4","last_reported":1726330191,"current_range_meters":18000,"station_id":"ce4bhgp2rcd13ifvqfe0","pricing_plan_id":"cebpf4jnsgd1na2vs0mg"},{"bike_id":"ce8d9e9f-3c26-47dd-ae73-d910760c9376","system_id":"levelo_inurba_marseille","lat":43.23055,"lon":5.35489,"is_reserved":false,"is_disabled":false,"rental_uris":{"android":"levelo://app?vid=ce8d9e9f-3c26-47dd-ae73-d910760c9376","ios":"levelo://app?vid=ce8d9e9f-3c26-47dd-ae73-d910760c9376"},"vehicle_type_id":"4","last_reported":1726330191,"current_range_meters":38000,"station_id":"cpo3342slgdg3j2ifvpg","pricing_plan_id":"cebpf4jnsgd1na2vs0mg"},{"bike_id":"bea2eb63-6dba-4a7f-ba8a-ed9270863fa0","system_id":"levelo_inurba_marseille","lat":43.25503,"lon":5.37652,"is_reserved":false,"is_disabled":false,"rental_uris":{"android":"levelo://app?vid=bea2eb63-6dba-4a7f-ba8a-ed9270863fa0","ios":"levelo://app?vid=bea2eb63-6dba-4a7f-ba8a-ed9270863fa0"},"vehicle_type_id":"4","last_reported":1726330191,"current_range_meters":33600,"station_id":"ce4bhh12rcd13ifvqff0","pricing_plan_id":"cebpf4jnsgd1na2vs0mg"},{"bike_id":"e00d038a-00c7-4258-ab4b-259bdb081cfd","system_id":"levelo_inurba_marseille","lat":43.23194,"lon":5.35547,"is_reserved":false,"is_disabled":false,"rental_uris":{"android":"levelo://app?vid=e00d038a-00c7-4258-ab4b-259bdb081cfd","ios":"levelo://app?vid=e00d038a-00c7-4258-ab4b-259bdb081cfd"},"vehicle_type_id":"4","last_reported":1726330191,"current_range_meters":34800,"station_id":"ce4bhu92rcd13ifvqi70","pricing_plan_id":"cebpf4jnsgd1na2vs0mg"},{"bike_id":"4f847161-8733-40c0-9d1a-924c211b3057","system_id":"levelo_inurba_marseille","lat":43.23191,"lon":5.35539,"is_reserved":false,"is_disabled":false,"rental_uris":{"android":"levelo://app?vid=4f847161-8733-40c0-9d1a-924c211b3057","ios":"levelo://app?vid=4f847161-8733-40c0-9d1a-924c211b3057"},"vehicle_type_id":"4","last_reported":1726330191,"current_range_meters":37600,"station_id":"ce4bhu92rcd13ifvqi70","pricing_plan_id":"cebpf4jnsgd1na2vs0mg"},{"bike_id":"6a0ba89f-d9cb-4b15-ad4d-931592dbcc7a","system_id":"levelo_inurba_marseille","lat":43.26945,"lon":5.40251,"is_reserved":false,"is_disabled":false,"rental_uris":{"android":"levelo://app?vid=6a0ba89f-d9cb-4b15-ad4d-931592dbcc7a","ios":"levelo://app?vid=6a0ba89f-d9cb-4b15-ad4d-931592dbcc7a"},"vehicle_type_id":"4","last_reported":1726330191,"current_range_meters":13600,"station_id":"cjm6bp8fraef2m0cb0m0","pricing_plan_id":"cebpf4jnsgd1na2vs0mg"},{"bike_id":"c8bcf91a-5827-41b8-81db-791cf371961e","system_id":"levelo_inurba_marseille","lat":43.26936,"lon":5.40248,"is_reserved":false,"is_disabled":false,"rental_uris":{"android":"levelo://app?vid=c8bcf91a-5827-41b8-81db-791cf371961e","ios":"levelo://app?vid=c8bcf91a-5827-41b8-81db-791cf371961e"},"vehicle_type_id":"4","last_reported":1726330191,"current_range_meters":38800,"station_id":"cjm6bp8fraef2m0cb0m0","pricing_plan_id":"cebpf4jnsgd1na2vs0mg"},{"bike_id":"aced5ab7-b508-4250-8809-353d2c8a330a","system_id":"levelo_inurba_marseille","lat":43.255829,"lon":5.38236,"is_reserved":false,"is_disabled":false,"rental_uris":{"android":"levelo://app?vid=aced5ab7-b508-4250-8809-353d2c8a330a","ios":"levelo://app?vid=aced5ab7-b508-4250-8809-353d2c8a330a"},"vehicle_type_id":"4","last_reported":1726330191,"current_range_meters":18800,"station_id":"ce4bhih2rcd13ifvqfs0","pricing_plan_id":"cebpf4jnsgd1na2vs0mg"},{"bike_id":"557fbab8-6db7-456b-91cd-8b32161ddb92","system_id":"levelo_inurba_marseille","lat":43.31722,"lon":5.42398,"is_reserved":false,"is_disabled":false,"rental_uris":{"android":"levelo://app?vid=557fbab8-6db7-456b-91cd-8b32161ddb92","ios":"levelo://app?vid=557fbab8-6db7-456b-91cd-8b32161ddb92"},"vehicle_type_id":"4","last_reported":1726330191,"current_range_meters":4000,"station_id":"ce4bhp92rcd13ifvqhbg","pricing_plan_id":"cebpf4jnsgd1na2vs0mg"},{"bike_id":"ae9e365f-d97f-4e3d-aa40-cf81c6eb2de5","system_id":"levelo_inurba_marseille","lat":43.30246,"lon":5.4006,"is_reserved":false,"is_disabled":false,"rental_uris":{"android":"levelo://app?vid=ae9e365f-d97f-4e3d-aa40-cf81c6eb2de5","ios":"levelo://app?vid=ae9e365f-d97f-4e3d-aa40-cf81c6eb2de5"},"vehicle_type_id":"4","last_reported":1726330191,"current_range_meters":8000,"station_id":"ce4bgvh2rcd13ifvqcs0","pricing_plan_id":"cebpf4jnsgd1na2vs0mg"},{"bike_id":"9e6b05d9-5b9e-4e8c-a7ed-a6aa23fe9a42","system_id":"levelo_inurba_marseille","lat":43.2861,"lon":5.351,"is_reserved":false,"is_disabled":false,"rental_uris":{"android":"levelo://app?vid=9e6b05d9-5b9e-4e8c-a7ed-a6aa23fe9a42","ios":"levelo://app?vid=9e6b05d9-5b9e-4e8c-a7ed-a6aa23fe9a42"},"vehicle_type_id":"4","last_reported":1726330191,"current_range_meters":27200,"station_id":"ce4bhch2rcd13ifvqeug","pricing_plan_id":"cebpf4jnsgd1na2vs0mg"},{"bike_id":"883d6aac-580d-461c-b94f-6721061913de","system_id":"levelo_inurba_marseille","lat":43.26805,"lon":5.40269,"is_reserved":false,"is_disabled":false,"rental_uris":{"android":"levelo://app?vid=883d6aac-580d-461c-b94f-6721061913de","ios":"levelo://app?vid=883d6aac-580d-461c-b94f-6721061913de"},"vehicle_type_id":"4","last_reported":1726330191,"current_range_meters":26000,"station_id":"ce501612rcd8frsf0b60","pricing_plan_id":"cebpf4jnsgd1na2vs0mg"},{"bike_id":"7b0ea9ff-3b34-49c3-a8e5-55ef79b7830a","system_id":"levelo_inurba_marseille","lat":43.27216,"lon":5.39187,"is_reserved":false,"is_disabled":false,"rental_uris":{"android":"levelo://app?vid=7b0ea9ff-3b34-49c3-a8e5-55ef79b7830a","ios":"levelo://app?vid=7b0ea9ff-3b34-49c3-a8e5-55ef79b7830a"},"vehicle_type_id":"4","last_reported":1726330191,"current_range_meters":30000,"station_id":"ce4bhhp2rcd13ifvqfm0","pricing_plan_id":"cebpf4jnsgd1na2vs0mg"},{"bike_id":"e2cc02bd-b88b-48a4-96bc-d20c7fc0cb26","system_id":"levelo_inurba_marseille","lat":43.2903,"lon":5.38646,"is_reserved":false,"is_disabled":false,"rental_uris":{"android":"levelo://app?vid=e2cc02bd-b88b-48a4-96bc-d20c7fc0cb26","ios":"levelo://app?vid=e2cc02bd-b88b-48a4-96bc-d20c7fc0cb26"},"vehicle_type_id":"4","last_reported":1726330191,"current_range_meters":27200,"station_id":"ce4bh4p2rcd13ifvqe0g","pricing_plan_id":"cebpf4jnsgd1na2vs0mg"},{"bike_id":"75ab97a9-5ac4-477f-acd8-77a2c5e313b0","system_id":"levelo_inurba_marseille","lat":43.292,"lon":5.35798,"is_reserved":false,"is_disabled":false,"rental_uris":{"android":"levelo://app?vid=75ab97a9-5ac4-477f-acd8-77a2c5e313b0","ios":"levelo://app?vid=75ab97a9-5ac4-477f-acd8-77a2c5e313b0"},"vehicle_type_id":"4","last_reported":1726330191,"current_range_meters":25200,"station_id":"ce4bhb12rcd13ifvqel0","pricing_plan_id":"cebpf4jnsgd1na2vs0mg"},{"bike_id":"e3545f80-9ea5-4366-b231-774bd095d2be","system_id":"levelo_inurba_marseille","lat":43.26949,"lon":5.38621,"is_reserved":false,"is_disabled":false,"rental_uris":{"android":"levelo://app?vid=e3545f80-9ea5-4366-b231-774bd095d2be","ios":"levelo://app?vid=e3545f80-9ea5-4366-b231-774bd095d2be"},"vehicle_type_id":"4","last_reported":1726330191,"current_range_meters":17600,"station_id":"ce4bhh92rcd13ifvqfh0","pricing_plan_id":"cebpf4jnsgd1na2vs0mg"},{"bike_id":"a0bb2989-1a2a-4232-86f1-581607122651","system_id":"levelo_inurba_marseille","lat":43.28152,"lon":5.42642,"is_reserved":false,"is_disabled":false,"rental_uris":{"android":"levelo://app?vid=a0bb2989-1a2a-4232-86f1-581607122651","ios":"levelo://app?vid=a0bb2989-1a2a-4232-86f1-581607122651"},"vehicle_type_id":"4","last_reported":1726330191,"current_range_meters":10000,"station_id":"ce4bhnh2rcd13ifvqgug","pricing_plan_id":"cebpf4jnsgd1na2vs0mg"},{"bike_id":"b1db6496-7d7b-4acc-a88c-e5406d38e100","system_id":"levelo_inurba_marseille","lat":43.23185,"lon":5.35538,"is_reserved":false,"is_disabled":false,"rental_uris":{"android":"levelo://app?vid=b1db6496-7d7b-4acc-a88c-e5406d38e100","ios":"levelo://app?vid=b1db6496-7d7b-4acc-a88c-e5406d38e100"},"vehicle_type_id":"4","last_reported":1726330191,"current_range_meters":38800,"station_id":"ce4bhu92rcd13ifvqi70","pricing_plan_id":"cebpf4jnsgd1na2vs0mg"},{"bike_id":"ee721f16-71d0-49c8-9da4-858f78b55bcb","system_id":"levelo_inurba_marseille","lat":43.25939,"lon":5.40901,"is_reserved":false,"is_disabled":false,"rental_uris":{"android":"levelo://app?vid=ee721f16-71d0-49c8-9da4-858f78b55bcb","ios":"levelo://app?vid=ee721f16-71d0-49c8-9da4-858f78b55bcb"},"vehicle_type_id":"4","last_reported":1726330191,"current_range_meters":29600,"station_id":"ce4bhm92rcd13ifvqglg","pricing_plan_id":"cebpf4jnsgd1na2vs0mg"},{"bike_id":"b539ebd9-7ecc-4f7e-b4c7-7d15509ac9e8","system_id":"levelo_inurba_marseille","lat":43.27207,"lon":5.39194,"is_reserved":false,"is_disabled":false,"rental_uris":{"android":"levelo://app?vid=b539ebd9-7ecc-4f7e-b4c7-7d15509ac9e8","ios":"levelo://app?vid=b539ebd9-7ecc-4f7e-b4c7-7d15509ac9e8"},"vehicle_type_id":"4","last_reported":1726330191,"current_range_meters":35200,"station_id":"ce4bhhp2rcd13ifvqfm0","pricing_plan_id":"cebpf4jnsgd1na2vs0mg"},{"bike_id":"3b04105b-3d4a-4d6b-a0c7-58da2ab327f7","system_id":"levelo_inurba_marseille","lat":43.30153,"lon":5.38084,"is_reserved":false,"is_disabled":false,"rental_uris":{"android":"levelo://app?vid=3b04105b-3d4a-4d6b-a0c7-58da2ab327f7","ios":"levelo://app?vid=3b04105b-3d4a-4d6b-a0c7-58da2ab327f7"},"vehicle_type_id":"4","last_reported":1726330191,"current_range_meters":39200,"station_id":"ce4bgjp2rcd13ifvqbh0","pricing_plan_id":"cebpf4jnsgd1na2vs0mg"},{"bike_id":"c4b23437-ef77-4237-ad73-f588f62793fe","system_id":"levelo_inurba_marseille","lat":43.27205,"lon":5.39187,"is_reserved":false,"is_disabled":false,"rental_uris":{"android":"levelo://app?vid=c4b23437-ef77-4237-ad73-f588f62793fe","ios":"levelo://app?vid=c4b23437-ef77-4237-ad73-f588f62793fe"},"vehicle_type_id":"4","last_reported":1726330191,"current_range_meters":24800,"station_id":"ce4bhhp2rcd13ifvqfm0","pricing_plan_id":"cebpf4jnsgd1na2vs0mg"},{"bike_id":"6dca4450-ad2b-4e54-b899-97b8b05b15c7","system_id":"levelo_inurba_marseille","lat":43.26944,"lon":5.40247,"is_reserved":false,"is_disabled":false,"rental_uris":{"android":"levelo://app?vid=6dca4450-ad2b-4e54-b899-97b8b05b15c7","ios":"levelo://app?vid=6dca4450-ad2b-4e54-b899-97b8b05b15c7"},"vehicle_type_id":"4","last_reported":1726330191,"current_range_meters":9200,"station_id":"cjm6bp8fraef2m0cb0m0","pricing_plan_id":"cebpf4jnsgd1na2vs0mg"},{"bike_id":"b0c446f9-0779-41f7-a709-2533bddd7a01","system_id":"levelo_inurba_marseille","lat":43.23192,"lon":5.35553,"is_reserved":false,"is_disabled":false,"rental_uris":{"android":"levelo://app?vid=b0c446f9-0779-41f7-a709-2533bddd7a01","ios":"levelo://app?vid=b0c446f9-0779-41f7-a709-2533bddd7a01"},"vehicle_type_id":"4","last_reported":1726330191,"current_range_meters":26000,"station_id":"ce4bhu92rcd13ifvqi70","pricing_plan_id":"cebpf4jnsgd1na2vs0mg"},{"bike_id":"75c35499-0de6-41a0-acf5-7c9b58381038","system_id":"levelo_inurba_marseille","lat":43.23184,"lon":5.39976,"is_reserved":false,"is_disabled":false,"rental_uris":{"android":"levelo://app?vid=75c35499-0de6-41a0-acf5-7c9b58381038","ios":"levelo://app?vid=75c35499-0de6-41a0-acf5-7c9b58381038"},"vehicle_type_id":"4","last_reported":1726330191,"current_range_meters":38800,"station_id":"ce4bhn12rcd13ifvqgqg","pricing_plan_id":"cebpf4jnsgd1na2vs0mg"},{"bike_id":"87180ecc-9589-4729-9de6-c90a91756940","system_id":"levelo_inurba_marseille","lat":43.31227,"lon":5.36856,"is_reserved":false,"is_disabled":false,"rental_uris":{"android":"levelo://app?vid=87180ecc-9589-4729-9de6-c90a91756940","ios":"levelo://app?vid=87180ecc-9589-4729-9de6-c90a91756940"},"vehicle_type_id":"4","last_reported":1726330191,"current_range_meters":24000,"station_id":"ce4bgl92rcd13ifvqbq0","pricing_plan_id":"cebpf4jnsgd1na2vs0mg"},{"bike_id":"dfc7e944-178a-43bd-85e8-0abf1cafc416","system_id":"levelo_inurba_marseille","lat":43.22931,"lon":5.35374,"is_reserved":false,"is_disabled":false,"rental_uris":{"android":"levelo://app?vid=dfc7e944-178a-43bd-85e8-0abf1cafc416","ios":"levelo://app?vid=dfc7e944-178a-43bd-85e8-0abf1cafc416"},"vehicle_type_id":"4","last_reported":1726330191,"current_range_meters":25200,"station_id":"cpo3532slgdg3j2ikp40","pricing_plan_id":"cebpf4jnsgd1na2vs0mg"},{"bike_id":"bd26f63e-d7bd-4ada-8a1f-3b93d54404f8","system_id":"levelo_inurba_marseille","lat":43.29919,"lon":5.38139,"is_reserved":false,"is_disabled":false,"rental_uris":{"android":"levelo://app?vid=bd26f63e-d7bd-4ada-8a1f-3b93d54404f8","ios":"levelo://app?vid=bd26f63e-d7bd-4ada-8a1f-3b93d54404f8"},"vehicle_type_id":"4","last_reported":1726330191,"current_range_meters":28400,"station_id":"","pricing_plan_id":"cebpf4jnsgd1na2vs0mg"},{"bike_id":"b645ac77-0d58-4fa9-8ad3-947af8bdb1d9","system_id":"levelo_inurba_marseille","lat":43.29895,"lon":5.43661,"is_reserved":false,"is_disabled":false,"rental_uris":{"android":"levelo://app?vid=b645ac77-0d58-4fa9-8ad3-947af8bdb1d9","ios":"levelo://app?vid=b645ac77-0d58-4fa9-8ad3-947af8bdb1d9"},"vehicle_type_id":"4","last_reported":1726330191,"current_range_meters":37600,"station_id":"ce4bhpp2rcd13ifvqhfg","pricing_plan_id":"cebpf4jnsgd1na2vs0mg"},{"bike_id":"91d155a1-0e95-42f4-9cf2-24e586735a13","system_id":"levelo_inurba_marseille","lat":43.33721,"lon":5.39174,"is_reserved":false,"is_disabled":false,"rental_uris":{"android":"levelo://app?vid=91d155a1-0e95-42f4-9cf2-24e586735a13","ios":"levelo://app?vid=91d155a1-0e95-42f4-9cf2-24e586735a13"},"vehicle_type_id":"4","last_reported":1726330191,"current_range_meters":38800,"station_id":"ce4bhr92rcd13ifvqhsg","pricing_plan_id":"cebpf4jnsgd1na2vs0mg"},{"bike_id":"157244ef-14c2-452c-a6a4-b6f543ebe213","system_id":"levelo_inurba_marseille","lat":43.27211,"lon":5.39175,"is_reserved":false,"is_disabled":false,"rental_uris":{"android":"levelo://app?vid=157244ef-14c2-452c-a6a4-b6f543ebe213","ios":"levelo://app?vid=157244ef-14c2-452c-a6a4-b6f543ebe213"},"vehicle_type_id":"4","last_reported":1726330191,"current_range_meters":8800,"station_id":"ce4bhhp2rcd13ifvqfm0","pricing_plan_id":"cebpf4jnsgd1na2vs0mg"},{"bike_id":"8fd10194-f060-48bd-b222-89b21519d6b4","system_id":"levelo_inurba_marseille","lat":43.27836,"lon":5.39213,"is_reserved":false,"is_disabled":false,"rental_uris":{"android":"levelo://app?vid=8fd10194-f060-48bd-b222-89b21519d6b4","ios":"levelo://app?vid=8fd10194-f060-48bd-b222-89b21519d6b4"},"vehicle_type_id":"4","last_reported":1726330191,"current_range_meters":27600,"station_id":"ce4bhjp2rcd13ifvqga0","pricing_plan_id":"cebpf4jnsgd1na2vs0mg"},{"bike_id":"2233777c-9f00-4a45-bf20-37456aeb9162","system_id":"levelo_inurba_marseille","lat":43.30793,"lon":5.43529,"is_reserved":false,"is_disabled":false,"rental_uris":{"android":"levelo://app?vid=2233777c-9f00-4a45-bf20-37456aeb9162","ios":"levelo://app?vid=2233777c-9f00-4a45-bf20-37456aeb9162"},"vehicle_type_id":"4","last_reported":1726330191,"current_range_meters":28000,"station_id":"ce4bhph2rcd13ifvqheg","pricing_plan_id":"cebpf4jnsgd1na2vs0mg"},{"bike_id":"0d9f035c-8e47-426d-8593-e2bc7f05f235","system_id":"levelo_inurba_marseille","lat":43.29645,"lon":5.36248,"is_reserved":false,"is_disabled":false,"rental_uris":{"android":"levelo://app?vid=0d9f035c-8e47-426d-8593-e2bc7f05f235","ios":"levelo://app?vid=0d9f035c-8e47-426d-8593-e2bc7f05f235"},"vehicle_type_id":"4","last_reported":1726330191,"current_range_meters":10000,"station_id":"","pricing_plan_id":"cebpf4jnsgd1na2vs0mg"},{"bike_id":"a700f7c0-23ab-4ba3-90d9-2f3ad37fa493","system_id":"levelo_inurba_marseille","lat":43.33025,"lon":5.39045,"is_reserved":false,"is_disabled":false,"rental_uris":{"android":"levelo://app?vid=a700f7c0-23ab-4ba3-90d9-2f3ad37fa493","ios":"levelo://app?vid=a700f7c0-23ab-4ba3-90d9-2f3ad37fa493"},"vehicle_type_id":"4","last_reported":1726330191,"current_range_meters":37600,"station_id":"ce4bhr92rcd13ifvqhrg","pricing_plan_id":"cebpf4jnsgd1na2vs0mg"},{"bike_id":"283ce841-6987-4c64-9e3b-5397fbadb76d","system_id":"levelo_inurba_marseille","lat":43.29455,"lon":5.3975,"is_reserved":false,"is_disabled":false,"rental_uris":{"android":"levelo://app?vid=283ce841-6987-4c64-9e3b-5397fbadb76d","ios":"levelo://app?vid=283ce841-6987-4c64-9e3b-5397fbadb76d"},"vehicle_type_id":"4","last_reported":1726330191,"current_range_meters":5600,"station_id":"ce4bh3h2rcd13ifvqdo0","pricing_plan_id":"cebpf4jnsgd1na2vs0mg"},{"bike_id":"7740e5ef-e555-42a9-b370-43d6e38180e8","system_id":"levelo_inurba_marseille","lat":43.26686,"lon":5.38276,"is_reserved":false,"is_disabled":false,"rental_uris":{"android":"levelo://app?vid=7740e5ef-e555-42a9-b370-43d6e38180e8","ios":"levelo://app?vid=7740e5ef-e555-42a9-b370-43d6e38180e8"},"vehicle_type_id":"4","last_reported":1726330191,"current_range_meters":33200,"station_id":"ce4bhg92rcd13ifvqf90","pricing_plan_id":"cebpf4jnsgd1na2vs0mg"},{"bike_id":"a94616b1-3e5a-4e85-91e9-5e1a39e5f037","system_id":"levelo_inurba_marseille","lat":43.269611,"lon":5.390103,"is_reserved":false,"is_disabled":false,"rental_uris":{"android":"levelo://app?vid=a94616b1-3e5a-4e85-91e9-5e1a39e5f037","ios":"levelo://app?vid=a94616b1-3e5a-4e85-91e9-5e1a39e5f037"},"vehicle_type_id":"4","last_reported":1726330191,"current_range_meters":14800,"station_id":"ce4bhhh2rcd13ifvqfl0","pricing_plan_id":"cebpf4jnsgd1na2vs0mg"},{"bike_id":"f81c9c0a-c2a9-4feb-9288-9725e8c2c56f","system_id":"levelo_inurba_marseille","lat":43.2315,"lon":5.43717,"is_reserved":false,"is_disabled":false,"rental_uris":{"android":"levelo://app?vid=f81c9c0a-c2a9-4feb-9288-9725e8c2c56f","ios":"levelo://app?vid=f81c9c0a-c2a9-4feb-9288-9725e8c2c56f"},"vehicle_type_id":"4","last_reported":1726330191,"current_range_meters":34800,"station_id":"ce4bhmp2rcd13ifvqgog","pricing_plan_id":"cebpf4jnsgd1na2vs0mg"},{"bike_id":"0d8ba700-2032-4674-80b6-cc3e5985c19f","system_id":"levelo_inurba_marseille","lat":43.29601,"lon":5.38092,"is_reserved":false,"is_disabled":false,"rental_uris":{"android":"levelo://app?vid=0d8ba700-2032-4674-80b6-cc3e5985c19f","ios":"levelo://app?vid=0d8ba700-2032-4674-80b6-cc3e5985c19f"},"vehicle_type_id":"4","last_reported":1726330191,"current_range_meters":4800,"station_id":"ce4bgl12rcd13ifvqbo0","pricing_plan_id":"cebpf4jnsgd1na2vs0mg"},{"bike_id":"552ccea4-a0ab-4fa2-9015-1ea8da64cd61","system_id":"levelo_inurba_marseille","lat":43.25577,"lon":5.38231,"is_reserved":false,"is_disabled":false,"rental_uris":{"android":"levelo://app?vid=552ccea4-a0ab-4fa2-9015-1ea8da64cd61","ios":"levelo://app?vid=552ccea4-a0ab-4fa2-9015-1ea8da64cd61"},"vehicle_type_id":"4","last_reported":1726330191,"current_range_meters":5600,"station_id":"ce4bhih2rcd13ifvqfs0","pricing_plan_id":"cebpf4jnsgd1na2vs0mg"},{"bike_id":"edf20ab5-b6fb-4ac2-84e1-bc016e5ba262","system_id":"levelo_inurba_marseille","lat":43.29556,"lon":5.42288,"is_reserved":false,"is_disabled":false,"rental_uris":{"android":"levelo://app?vid=edf20ab5-b6fb-4ac2-84e1-bc016e5ba262","ios":"levelo://app?vid=edf20ab5-b6fb-4ac2-84e1-bc016e5ba262"},"vehicle_type_id":"4","last_reported":1726330191,"current_range_meters":9200,"station_id":"ce4bhph2rcd13ifvqhdg","pricing_plan_id":"cebpf4jnsgd1na2vs0mg"},{"bike_id":"b1dacf1e-762f-499e-8182-639e47c0f38a","system_id":"levelo_inurba_marseille","lat":43.298984,"lon":5.363303,"is_reserved":false,"is_disabled":false,"rental_uris":{"android":"levelo://app?vid=b1dacf1e-762f-499e-8182-639e47c0f38a","ios":"levelo://app?vid=b1dacf1e-762f-499e-8182-639e47c0f38a"},"vehicle_type_id":"4","last_reported":1726330191,"current_range_meters":16800,"station_id":"ce4bgpp2rcd13ifvqc3g","pricing_plan_id":"cebpf4jnsgd1na2vs0mg"},{"bike_id":"05675f93-103a-4dd3-bc69-86f2b2f97577","system_id":"levelo_inurba_marseille","lat":43.31721,"lon":5.42392,"is_reserved":false,"is_disabled":false,"rental_uris":{"android":"levelo://app?vid=05675f93-103a-4dd3-bc69-86f2b2f97577","ios":"levelo://app?vid=05675f93-103a-4dd3-bc69-86f2b2f97577"},"vehicle_type_id":"4","last_reported":1726330191,"current_range_meters":27600,"station_id":"ce4bhp92rcd13ifvqhbg","pricing_plan_id":"cebpf4jnsgd1na2vs0mg"},{"bike_id":"de7cab8e-4462-45f1-bdc3-fec489000317","system_id":"levelo_inurba_marseille","lat":43.24658,"lon":5.3816,"is_reserved":false,"is_disabled":false,"rental_uris":{"android":"levelo://app?vid=de7cab8e-4462-45f1-bdc3-fec489000317","ios":"levelo://app?vid=de7cab8e-4462-45f1-bdc3-fec489000317"},"vehicle_type_id":"4","last_reported":1726330191,"current_range_meters":38400,"station_id":"ce4bhih2rcd13ifvqfr0","pricing_plan_id":"cebpf4jnsgd1na2vs0mg"},{"bike_id":"cbc1cd1c-d2e1-48b1-8ab5-2815a8ea503d","system_id":"levelo_inurba_marseille","lat":43.2781,"lon":5.40713,"is_reserved":false,"is_disabled":false,"rental_uris":{"android":"levelo://app?vid=cbc1cd1c-d2e1-48b1-8ab5-2815a8ea503d","ios":"levelo://app?vid=cbc1cd1c-d2e1-48b1-8ab5-2815a8ea503d"},"vehicle_type_id":"4","last_reported":1726330191,"current_range_meters":15200,"station_id":"ce4bhnh2rcd13ifvqgtg","pricing_plan_id":"cebpf4jnsgd1na2vs0mg"},{"bike_id":"b7d05743-0fef-40fa-9c05-0019bf092970","system_id":"levelo_inurba_marseille","lat":43.2439,"lon":5.37068,"is_reserved":false,"is_disabled":false,"rental_uris":{"android":"levelo://app?vid=b7d05743-0fef-40fa-9c05-0019bf092970","ios":"levelo://app?vid=b7d05743-0fef-40fa-9c05-0019bf092970"},"vehicle_type_id":"4","last_reported":1726330191,"current_range_meters":35200,"station_id":"ce4bhhh2rcd13ifvqfk0","pricing_plan_id":"cebpf4jnsgd1na2vs0mg"},{"bike_id":"53a2d874-293d-47cc-bdbd-a03b3468623b","system_id":"levelo_inurba_marseille","lat":43.29895,"lon":5.4367,"is_reserved":false,"is_disabled":false,"rental_uris":{"android":"levelo://app?vid=53a2d874-293d-47cc-bdbd-a03b3468623b","ios":"levelo://app?vid=53a2d874-293d-47cc-bdbd-a03b3468623b"},"vehicle_type_id":"4","last_reported":1726330191,"current_range_meters":8800,"station_id":"ce4bhpp2rcd13ifvqhfg","pricing_plan_id":"cebpf4jnsgd1na2vs0mg"},{"bike_id":"2fd1e66e-f15a-476b-b490-05d7fcf3878d","system_id":"levelo_inurba_marseille","lat":43.26793,"lon":5.39419,"is_reserved":false,"is_disabled":false,"rental_uris":{"android":"levelo://app?vid=2fd1e66e-f15a-476b-b490-05d7fcf3878d","ios":"levelo://app?vid=2fd1e66e-f15a-476b-b490-05d7fcf3878d"},"vehicle_type_id":"4","last_reported":1726330191,"current_range_meters":23200,"station_id":"ce4bhh12rcd13ifvqfg0","pricing_plan_id":"cebpf4jnsgd1na2vs0mg"},{"bike_id":"d835c8af-bb7d-4139-9595-2b625e9bc322","system_id":"levelo_inurba_marseille","lat":43.26488,"lon":5.39552,"is_reserved":false,"is_disabled":false,"rental_uris":{"android":"levelo://app?vid=d835c8af-bb7d-4139-9595-2b625e9bc322","ios":"levelo://app?vid=d835c8af-bb7d-4139-9595-2b625e9bc322"},"vehicle_type_id":"4","last_reported":1726330191,"current_range_meters":10800,"station_id":"ce4bhi12rcd13ifvqfq0","pricing_plan_id":"cebpf4jnsgd1na2vs0mg"},{"bike_id":"bb7acf50-b6bc-4b2d-adf4-833abc23b24c","system_id":"levelo_inurba_marseille","lat":43.23195,"lon":5.35546,"is_reserved":false,"is_disabled":false,"rental_uris":{"android":"levelo://app?vid=bb7acf50-b6bc-4b2d-adf4-833abc23b24c","ios":"levelo://app?vid=bb7acf50-b6bc-4b2d-adf4-833abc23b24c"},"vehicle_type_id":"4","last_reported":1726330191,"current_range_meters":38800,"station_id":"ce4bhu92rcd13ifvqi70","pricing_plan_id":"cebpf4jnsgd1na2vs0mg"},{"bike_id":"836defd1-fb66-4ac4-8fbb-20b46af1ebda","system_id":"levelo_inurba_marseille","lat":43.2721,"lon":5.39174,"is_reserved":false,"is_disabled":false,"rental_uris":{"android":"levelo://app?vid=836defd1-fb66-4ac4-8fbb-20b46af1ebda","ios":"levelo://app?vid=836defd1-fb66-4ac4-8fbb-20b46af1ebda"},"vehicle_type_id":"4","last_reported":1726330191,"current_range_meters":20800,"station_id":"ce4bhhp2rcd13ifvqfm0","pricing_plan_id":"cebpf4jnsgd1na2vs0mg"},{"bike_id":"f6de5503-3f64-4c45-a987-7e74ca5c7044","system_id":"levelo_inurba_marseille","lat":43.24177,"lon":5.36393,"is_reserved":false,"is_disabled":false,"rental_uris":{"android":"levelo://app?vid=f6de5503-3f64-4c45-a987-7e74ca5c7044","ios":"levelo://app?vid=f6de5503-3f64-4c45-a987-7e74ca5c7044"},"vehicle_type_id":"4","last_reported":1726330191,"current_range_meters":30000,"station_id":"cpo36qri1sfpv3e86is0","pricing_plan_id":"cebpf4jnsgd1na2vs0mg"},{"bike_id":"3e56a42c-4a02-4619-ab0c-310c47e605da","system_id":"levelo_inurba_marseille","lat":43.23063,"lon":5.35488,"is_reserved":false,"is_disabled":false,"rental_uris":{"android":"levelo://app?vid=3e56a42c-4a02-4619-ab0c-310c47e605da","ios":"levelo://app?vid=3e56a42c-4a02-4619-ab0c-310c47e605da"},"vehicle_type_id":"4","last_reported":1726330191,"current_range_meters":27600,"station_id":"cpo3342slgdg3j2ifvpg","pricing_plan_id":"cebpf4jnsgd1na2vs0mg"},{"bike_id":"bc8be1fd-7bee-49c5-817c-184bdd69b536","system_id":"levelo_inurba_marseille","lat":43.27374,"lon":5.41942,"is_reserved":false,"is_disabled":false,"rental_uris":{"android":"levelo://app?vid=bc8be1fd-7bee-49c5-817c-184bdd69b536","ios":"levelo://app?vid=bc8be1fd-7bee-49c5-817c-184bdd69b536"},"vehicle_type_id":"4","last_reported":1726330191,"current_range_meters":30000,"station_id":"","pricing_plan_id":"cebpf4jnsgd1na2vs0mg"},{"bike_id":"712c3403-d774-4001-8a40-47aa2ea3a3a4","system_id":"levelo_inurba_marseille","lat":43.27311,"lon":5.39088,"is_reserved":false,"is_disabled":false,"rental_uris":{"android":"levelo://app?vid=712c3403-d774-4001-8a40-47aa2ea3a3a4","ios":"levelo://app?vid=712c3403-d774-4001-8a40-47aa2ea3a3a4"},"vehicle_type_id":"4","last_reported":1726330191,"current_range_meters":28000,"station_id":"ce4bhgp2rcd13ifvqfe0","pricing_plan_id":"cebpf4jnsgd1na2vs0mg"},{"bike_id":"86f581a6-6e25-4fed-8220-14a243258ea9","system_id":"levelo_inurba_marseille","lat":43.29634,"lon":5.40591,"is_reserved":false,"is_disabled":false,"rental_uris":{"android":"levelo://app?vid=86f581a6-6e25-4fed-8220-14a243258ea9","ios":"levelo://app?vid=86f581a6-6e25-4fed-8220-14a243258ea9"},"vehicle_type_id":"4","last_reported":1726330191,"current_range_meters":36400,"station_id":"ce4bh0h2rcd13ifvqd60","pricing_plan_id":"cebpf4jnsgd1na2vs0mg"},{"bike_id":"0c1ca48e-e408-4285-a49a-9abf189a2f0b","system_id":"levelo_inurba_marseille","lat":43.28427,"lon":5.34999,"is_reserved":false,"is_disabled":false,"rental_uris":{"android":"levelo://app?vid=0c1ca48e-e408-4285-a49a-9abf189a2f0b","ios":"levelo://app?vid=0c1ca48e-e408-4285-a49a-9abf189a2f0b"},"vehicle_type_id":"4","last_reported":1726330191,"current_range_meters":38800,"station_id":"ce4bhbh2rcd13ifvqepg","pricing_plan_id":"cebpf4jnsgd1na2vs0mg"},{"bike_id":"e853151e-6988-4bb2-a8de-7590891e79fb","system_id":"levelo_inurba_marseille","lat":43.23061,"lon":5.35488,"is_reserved":false,"is_disabled":false,"rental_uris":{"android":"levelo://app?vid=e853151e-6988-4bb2-a8de-7590891e79fb","ios":"levelo://app?vid=e853151e-6988-4bb2-a8de-7590891e79fb"},"vehicle_type_id":"4","last_reported":1726330191,"current_range_meters":20400,"station_id":"cpo3342slgdg3j2ifvpg","pricing_plan_id":"cebpf4jnsgd1na2vs0mg"},{"bike_id":"47cb0d4a-5768-4801-a8cb-79e84c86cf2f","system_id":"levelo_inurba_marseille","lat":43.31721,"lon":5.42401,"is_reserved":false,"is_disabled":false,"rental_uris":{"android":"levelo://app?vid=47cb0d4a-5768-4801-a8cb-79e84c86cf2f","ios":"levelo://app?vid=47cb0d4a-5768-4801-a8cb-79e84c86cf2f"},"vehicle_type_id":"4","last_reported":1726330191,"current_range_meters":22400,"station_id":"ce4bhp92rcd13ifvqhbg","pricing_plan_id":"cebpf4jnsgd1na2vs0mg"},{"bike_id":"632de835-3430-40ed-ac94-819588647085","system_id":"levelo_inurba_marseille","lat":43.24816,"lon":5.37461,"is_reserved":false,"is_disabled":false,"rental_uris":{"android":"levelo://app?vid=632de835-3430-40ed-ac94-819588647085","ios":"levelo://app?vid=632de835-3430-40ed-ac94-819588647085"},"vehicle_type_id":"4","last_reported":1726330191,"current_range_meters":6400,"station_id":"ce4bhgh2rcd13ifvqfb0","pricing_plan_id":"cebpf4jnsgd1na2vs0mg"},{"bike_id":"5b8d0983-a39e-42ef-b930-2c3695850d77","system_id":"levelo_inurba_marseille","lat":43.30154,"lon":5.3809,"is_reserved":false,"is_disabled":false,"rental_uris":{"android":"levelo://app?vid=5b8d0983-a39e-42ef-b930-2c3695850d77","ios":"levelo://app?vid=5b8d0983-a39e-42ef-b930-2c3695850d77"},"vehicle_type_id":"4","last_reported":1726330191,"current_range_meters":27200,"station_id":"ce4bgjp2rcd13ifvqbh0","pricing_plan_id":"cebpf4jnsgd1na2vs0mg"},{"bike_id":"54c8e63d-b39c-4555-98a1-3580419a3e96","system_id":"levelo_inurba_marseille","lat":43.28434,"lon":5.34991,"is_reserved":false,"is_disabled":false,"rental_uris":{"android":"levelo://app?vid=54c8e63d-b39c-4555-98a1-3580419a3e96","ios":"levelo://app?vid=54c8e63d-b39c-4555-98a1-3580419a3e96"},"vehicle_type_id":"4","last_reported":1726330191,"current_range_meters":38800,"station_id":"ce4bhbh2rcd13ifvqepg","pricing_plan_id":"cebpf4jnsgd1na2vs0mg"},{"bike_id":"c124f6bf-227d-48e6-be7f-e29c20c25b9f","system_id":"levelo_inurba_marseille","lat":43.26196,"lon":5.37452,"is_reserved":false,"is_disabled":false,"rental_uris":{"android":"levelo://app?vid=c124f6bf-227d-48e6-be7f-e29c20c25b9f","ios":"levelo://app?vid=c124f6bf-227d-48e6-be7f-e29c20c25b9f"},"vehicle_type_id":"4","last_reported":1726330191,"current_range_meters":14000,"station_id":"ce4bhgp2rcd13ifvqfc0","pricing_plan_id":"cebpf4jnsgd1na2vs0mg"},{"bike_id":"24d661e1-fe3a-47c0-ba96-6eb59022a963","system_id":"levelo_inurba_marseille","lat":43.31169,"lon":5.38713,"is_reserved":false,"is_disabled":false,"rental_uris":{"android":"levelo://app?vid=24d661e1-fe3a-47c0-ba96-6eb59022a963","ios":"levelo://app?vid=24d661e1-fe3a-47c0-ba96-6eb59022a963"},"vehicle_type_id":"4","last_reported":1726330191,"current_range_meters":28400,"station_id":"ce4bgv12rcd13ifvqcp0","pricing_plan_id":"cebpf4jnsgd1na2vs0mg"},{"bike_id":"5d7e249b-cb73-4bf5-840c-206a92076103","system_id":"levelo_inurba_marseille","lat":43.24065,"lon":5.37752,"is_reserved":false,"is_disabled":false,"rental_uris":{"android":"levelo://app?vid=5d7e249b-cb73-4bf5-840c-206a92076103","ios":"levelo://app?vid=5d7e249b-cb73-4bf5-840c-206a92076103"},"vehicle_type_id":"4","last_reported":1726330191,"current_range_meters":15200,"station_id":"ce4bhgp2rcd13ifvqfd0","pricing_plan_id":"cebpf4jnsgd1na2vs0mg"},{"bike_id":"bd9993b0-31b7-42dc-ba35-a7829b4d9ee3","system_id":"levelo_inurba_marseille","lat":43.27315,"lon":5.39084,"is_reserved":false,"is_disabled":false,"rental_uris":{"android":"levelo://app?vid=bd9993b0-31b7-42dc-ba35-a7829b4d9ee3","ios":"levelo://app?vid=bd9993b0-31b7-42dc-ba35-a7829b4d9ee3"},"vehicle_type_id":"4","last_reported":1726330191,"current_range_meters":28400,"station_id":"ce4bhgp2rcd13ifvqfe0","pricing_plan_id":"cebpf4jnsgd1na2vs0mg"},{"bike_id":"05dce78e-2b1f-446e-8956-bcf56a752a91","system_id":"levelo_inurba_marseille","lat":43.26938,"lon":5.40256,"is_reserved":false,"is_disabled":false,"rental_uris":{"android":"levelo://app?vid=05dce78e-2b1f-446e-8956-bcf56a752a91","ios":"levelo://app?vid=05dce78e-2b1f-446e-8956-bcf56a752a91"},"vehicle_type_id":"4","last_reported":1726330191,"current_range_meters":38000,"station_id":"cjm6bp8fraef2m0cb0m0","pricing_plan_id":"cebpf4jnsgd1na2vs0mg"},{"bike_id":"5808912a-6fe9-4725-85ef-3f6ce7b1ea11","system_id":"levelo_inurba_marseille","lat":43.23964,"lon":5.36642,"is_reserved":false,"is_disabled":false,"rental_uris":{"android":"levelo://app?vid=5808912a-6fe9-4725-85ef-3f6ce7b1ea11","ios":"levelo://app?vid=5808912a-6fe9-4725-85ef-3f6ce7b1ea11"},"vehicle_type_id":"4","last_reported":1726330191,"current_range_meters":38800,"station_id":"ce4bhi12rcd13ifvqfp0","pricing_plan_id":"cebpf4jnsgd1na2vs0mg"},{"bike_id":"dbdd0cf1-9ac9-42ed-9e04-9369c829f327","system_id":"levelo_inurba_marseille","lat":43.26942,"lon":5.40255,"is_reserved":false,"is_disabled":false,"rental_uris":{"android":"levelo://app?vid=dbdd0cf1-9ac9-42ed-9e04-9369c829f327","ios":"levelo://app?vid=dbdd0cf1-9ac9-42ed-9e04-9369c829f327"},"vehicle_type_id":"4","last_reported":1726330191,"current_range_meters":24400,"station_id":"cjm6bp8fraef2m0cb0m0","pricing_plan_id":"cebpf4jnsgd1na2vs0mg"},{"bike_id":"026a8105-a313-4bd8-96fb-a8d6d1b140a9","system_id":"levelo_inurba_marseille","lat":43.23196,"lon":5.35549,"is_reserved":false,"is_disabled":false,"rental_uris":{"android":"levelo://app?vid=026a8105-a313-4bd8-96fb-a8d6d1b140a9","ios":"levelo://app?vid=026a8105-a313-4bd8-96fb-a8d6d1b140a9"},"vehicle_type_id":"4","last_reported":1726330191,"current_range_meters":38000,"station_id":"ce4bhu92rcd13ifvqi70","pricing_plan_id":"cebpf4jnsgd1na2vs0mg"},{"bike_id":"dcfacb25-a0ea-46a1-bea8-b751e908d036","system_id":"levelo_inurba_marseille","lat":43.30931,"lon":5.40141,"is_reserved":false,"is_disabled":false,"rental_uris":{"android":"levelo://app?vid=dcfacb25-a0ea-46a1-bea8-b751e908d036","ios":"levelo://app?vid=dcfacb25-a0ea-46a1-bea8-b751e908d036"},"vehicle_type_id":"4","last_reported":1726330191,"current_range_meters":20400,"station_id":"ce4bgvp2rcd13ifvqct0","pricing_plan_id":"cebpf4jnsgd1na2vs0mg"},{"bike_id":"c3f9a475-8646-412a-ac6d-d90ca3c2da09","system_id":"levelo_inurba_marseille","lat":43.26941,"lon":5.40246,"is_reserved":false,"is_disabled":false,"rental_uris":{"android":"levelo://app?vid=c3f9a475-8646-412a-ac6d-d90ca3c2da09","ios":"levelo://app?vid=c3f9a475-8646-412a-ac6d-d90ca3c2da09"},"vehicle_type_id":"4","last_reported":1726330191,"current_range_meters":30000,"station_id":"cjm6bp8fraef2m0cb0m0","pricing_plan_id":"cebpf4jnsgd1na2vs0mg"},{"bike_id":"9378e46c-90ff-48e5-9112-f5aafd156a5f","system_id":"levelo_inurba_marseille","lat":43.29555,"lon":5.42272,"is_reserved":false,"is_disabled":false,"rental_uris":{"android":"levelo://app?vid=9378e46c-90ff-48e5-9112-f5aafd156a5f","ios":"levelo://app?vid=9378e46c-90ff-48e5-9112-f5aafd156a5f"},"vehicle_type_id":"4","last_reported":1726330191,"current_range_meters":24800,"station_id":"ce4bhph2rcd13ifvqhdg","pricing_plan_id":"cebpf4jnsgd1na2vs0mg"},{"bike_id":"7b54d5c6-16c9-409f-a29b-96bf843ce82d","system_id":"levelo_inurba_marseille","lat":43.27056,"lon":5.40247,"is_reserved":false,"is_disabled":false,"rental_uris":{"android":"levelo://app?vid=7b54d5c6-16c9-409f-a29b-96bf843ce82d","ios":"levelo://app?vid=7b54d5c6-16c9-409f-a29b-96bf843ce82d"},"vehicle_type_id":"4","last_reported":1726330191,"current_range_meters":32000,"station_id":"ce4bhk92rcd13ifvqgc0","pricing_plan_id":"cebpf4jnsgd1na2vs0mg"},{"bike_id":"cc71f222-5c82-4893-be78-38639f62ecb1","system_id":"levelo_inurba_marseille","lat":43.26791,"lon":5.39416,"is_reserved":false,"is_disabled":false,"rental_uris":{"android":"levelo://app?vid=cc71f222-5c82-4893-be78-38639f62ecb1","ios":"levelo://app?vid=cc71f222-5c82-4893-be78-38639f62ecb1"},"vehicle_type_id":"4","last_reported":1726330191,"current_range_meters":4000,"station_id":"ce4bhh12rcd13ifvqfg0","pricing_plan_id":"cebpf4jnsgd1na2vs0mg"},{"bike_id":"c1804980-0b5f-4cc6-8227-fd4e9097f704","system_id":"levelo_inurba_marseille","lat":43.26792,"lon":5.39417,"is_reserved":false,"is_disabled":false,"rental_uris":{"android":"levelo://app?vid=c1804980-0b5f-4cc6-8227-fd4e9097f704","ios":"levelo://app?vid=c1804980-0b5f-4cc6-8227-fd4e9097f704"},"vehicle_type_id":"4","last_reported":1726330191,"current_range_meters":23200,"station_id":"ce4bhh12rcd13ifvqfg0","pricing_plan_id":"cebpf4jnsgd1na2vs0mg"},{"bike_id":"dab8582c-33a8-4bec-b4ec-234d1b39a3b2","system_id":"levelo_inurba_marseille","lat":43.29707,"lon":5.36615,"is_reserved":false,"is_disabled":false,"rental_uris":{"android":"levelo://app?vid=dab8582c-33a8-4bec-b4ec-234d1b39a3b2","ios":"levelo://app?vid=dab8582c-33a8-4bec-b4ec-234d1b39a3b2"},"vehicle_type_id":"4","last_reported":1726330191,"current_range_meters":19200,"station_id":"ce4bgn12rcd13ifvqbt0","pricing_plan_id":"cebpf4jnsgd1na2vs0mg"},{"bike_id":"0f74c556-4946-4d6e-a315-3c61470cdddb","system_id":"levelo_inurba_marseille","lat":43.2695,"lon":5.38625,"is_reserved":false,"is_disabled":false,"rental_uris":{"android":"levelo://app?vid=0f74c556-4946-4d6e-a315-3c61470cdddb","ios":"levelo://app?vid=0f74c556-4946-4d6e-a315-3c61470cdddb"},"vehicle_type_id":"4","last_reported":1726330191,"current_range_meters":28800,"station_id":"ce4bhh92rcd13ifvqfh0","pricing_plan_id":"cebpf4jnsgd1na2vs0mg"},{"bike_id":"99c8b0f8-71ad-4ce8-9df1-e43a121e851b","system_id":"levelo_inurba_marseille","lat":43.28621,"lon":5.35105,"is_reserved":false,"is_disabled":false,"rental_uris":{"android":"levelo://app?vid=99c8b0f8-71ad-4ce8-9df1-e43a121e851b","ios":"levelo://app?vid=99c8b0f8-71ad-4ce8-9df1-e43a121e851b"},"vehicle_type_id":"4","last_reported":1726330191,"current_range_meters":36400,"station_id":"ce4bhch2rcd13ifvqeug","pricing_plan_id":"cebpf4jnsgd1na2vs0mg"},{"bike_id":"91b97199-530f-4e87-a9b3-c356a1968610","system_id":"levelo_inurba_marseille","lat":43.3095,"lon":5.39029,"is_reserved":false,"is_disabled":false,"rental_uris":{"android":"levelo://app?vid=91b97199-530f-4e87-a9b3-c356a1968610","ios":"levelo://app?vid=91b97199-530f-4e87-a9b3-c356a1968610"},"vehicle_type_id":"4","last_reported":1726330191,"current_range_meters":20400,"station_id":"ce4bgup2rcd13ifvqco0","pricing_plan_id":"cebpf4jnsgd1na2vs0mg"},{"bike_id":"59b9963c-64aa-4813-ae73-928d306f1a8f","system_id":"levelo_inurba_marseille","lat":43.26802,"lon":5.40267,"is_reserved":false,"is_disabled":false,"rental_uris":{"android":"levelo://app?vid=59b9963c-64aa-4813-ae73-928d306f1a8f","ios":"levelo://app?vid=59b9963c-64aa-4813-ae73-928d306f1a8f"},"vehicle_type_id":"4","last_reported":1726330191,"current_range_meters":3600,"station_id":"ce501612rcd8frsf0b60","pricing_plan_id":"cebpf4jnsgd1na2vs0mg"},{"bike_id":"6d2f1fdf-ef85-4dbc-b421-2602e9d32ca8","system_id":"levelo_inurba_marseille","lat":43.25931,"lon":5.40911,"is_reserved":false,"is_disabled":false,"rental_uris":{"android":"levelo://app?vid=6d2f1fdf-ef85-4dbc-b421-2602e9d32ca8","ios":"levelo://app?vid=6d2f1fdf-ef85-4dbc-b421-2602e9d32ca8"},"vehicle_type_id":"4","last_reported":1726330191,"current_range_meters":25200,"station_id":"ce4bhm92rcd13ifvqglg","pricing_plan_id":"cebpf4jnsgd1na2vs0mg"},{"bike_id":"71cddaa6-0aee-44ab-b4ec-c21adab0e94b","system_id":"levelo_inurba_marseille","lat":43.2828,"lon":5.35065,"is_reserved":false,"is_disabled":false,"rental_uris":{"android":"levelo://app?vid=71cddaa6-0aee-44ab-b4ec-c21adab0e94b","ios":"levelo://app?vid=71cddaa6-0aee-44ab-b4ec-c21adab0e94b"},"vehicle_type_id":"4","last_reported":1726330191,"current_range_meters":30400,"station_id":"ce4bhbp2rcd13ifvqerg","pricing_plan_id":"cebpf4jnsgd1na2vs0mg"},{"bike_id":"d09aedb3-0212-456b-a0d7-0a019f75665d","system_id":"levelo_inurba_marseille","lat":43.23153,"lon":5.43707,"is_reserved":false,"is_disabled":false,"rental_uris":{"android":"levelo://app?vid=d09aedb3-0212-456b-a0d7-0a019f75665d","ios":"levelo://app?vid=d09aedb3-0212-456b-a0d7-0a019f75665d"},"vehicle_type_id":"4","last_reported":1726330191,"current_range_meters":38800,"station_id":"ce4bhmp2rcd13ifvqgog","pricing_plan_id":"cebpf4jnsgd1na2vs0mg"},{"bike_id":"9304ce73-c67a-472b-a8ed-29dae3f51f7e","system_id":"levelo_inurba_marseille","lat":43.28673,"lon":5.38655,"is_reserved":false,"is_disabled":false,"rental_uris":{"android":"levelo://app?vid=9304ce73-c67a-472b-a8ed-29dae3f51f7e","ios":"levelo://app?vid=9304ce73-c67a-472b-a8ed-29dae3f51f7e"},"vehicle_type_id":"4","last_reported":1726330191,"current_range_meters":18000,"station_id":"ce4bh492rcd13ifvqdug","pricing_plan_id":"cebpf4jnsgd1na2vs0mg"},{"bike_id":"f532e002-2d09-4871-90fa-0b5e95689eda","system_id":"levelo_inurba_marseille","lat":43.3054,"lon":5.36557,"is_reserved":false,"is_disabled":false,"rental_uris":{"android":"levelo://app?vid=f532e002-2d09-4871-90fa-0b5e95689eda","ios":"levelo://app?vid=f532e002-2d09-4871-90fa-0b5e95689eda"},"vehicle_type_id":"4","last_reported":1726330191,"current_range_meters":33600,"station_id":"ce4bgs12rcd13ifvqcag","pricing_plan_id":"cebpf4jnsgd1na2vs0mg"},{"bike_id":"02269f0e-1758-473f-8a5c-764f1ddf9ddc","system_id":"levelo_inurba_marseille","lat":43.23181,"lon":5.39985,"is_reserved":false,"is_disabled":false,"rental_uris":{"android":"levelo://app?vid=02269f0e-1758-473f-8a5c-764f1ddf9ddc","ios":"levelo://app?vid=02269f0e-1758-473f-8a5c-764f1ddf9ddc"},"vehicle_type_id":"4","last_reported":1726330191,"current_range_meters":38800,"station_id":"ce4bhn12rcd13ifvqgqg","pricing_plan_id":"cebpf4jnsgd1na2vs0mg"},{"bike_id":"43412657-8f93-44d7-90fb-da7639962547","system_id":"levelo_inurba_marseille","lat":43.33721,"lon":5.39185,"is_reserved":false,"is_disabled":false,"rental_uris":{"android":"levelo://app?vid=43412657-8f93-44d7-90fb-da7639962547","ios":"levelo://app?vid=43412657-8f93-44d7-90fb-da7639962547"},"vehicle_type_id":"4","last_reported":1726330191,"current_range_meters":25600,"station_id":"ce4bhr92rcd13ifvqhsg","pricing_plan_id":"cebpf4jnsgd1na2vs0mg"},{"bike_id":"2a29b388-d4ff-45e1-bf47-010ffa290630","system_id":"levelo_inurba_marseille","lat":43.27314,"lon":5.39098,"is_reserved":false,"is_disabled":false,"rental_uris":{"android":"levelo://app?vid=2a29b388-d4ff-45e1-bf47-010ffa290630","ios":"levelo://app?vid=2a29b388-d4ff-45e1-bf47-010ffa290630"},"vehicle_type_id":"4","last_reported":1726330191,"current_range_meters":26000,"station_id":"ce4bhgp2rcd13ifvqfe0","pricing_plan_id":"cebpf4jnsgd1na2vs0mg"},{"bike_id":"8b188681-7cbc-41fc-97da-d828373c8bd9","system_id":"levelo_inurba_marseille","lat":43.291981,"lon":5.35798,"is_reserved":false,"is_disabled":false,"rental_uris":{"android":"levelo://app?vid=8b188681-7cbc-41fc-97da-d828373c8bd9","ios":"levelo://app?vid=8b188681-7cbc-41fc-97da-d828373c8bd9"},"vehicle_type_id":"4","last_reported":1726330191,"current_range_meters":9600,"station_id":"ce4bhb12rcd13ifvqel0","pricing_plan_id":"cebpf4jnsgd1na2vs0mg"},{"bike_id":"a58c3518-646f-4b67-b355-aa9b0dc4451d","system_id":"levelo_inurba_marseille","lat":43.25504,"lon":5.37655,"is_reserved":false,"is_disabled":false,"rental_uris":{"android":"levelo://app?vid=a58c3518-646f-4b67-b355-aa9b0dc4451d","ios":"levelo://app?vid=a58c3518-646f-4b67-b355-aa9b0dc4451d"},"vehicle_type_id":"4","last_reported":1726330191,"current_range_meters":34800,"station_id":"ce4bhh12rcd13ifvqff0","pricing_plan_id":"cebpf4jnsgd1na2vs0mg"},{"bike_id":"afb90e5f-b0e4-4434-9cbf-9852849bbb37","system_id":"levelo_inurba_marseille","lat":43.27209,"lon":5.3918,"is_reserved":false,"is_disabled":false,"rental_uris":{"android":"levelo://app?vid=afb90e5f-b0e4-4434-9cbf-9852849bbb37","ios":"levelo://app?vid=afb90e5f-b0e4-4434-9cbf-9852849bbb37"},"vehicle_type_id":"4","last_reported":1726330191,"current_range_meters":28800,"station_id":"ce4bhhp2rcd13ifvqfm0","pricing_plan_id":"cebpf4jnsgd1na2vs0mg"},{"bike_id":"21f5b0c3-99e2-4b09-ae49-cb2141014a44","system_id":"levelo_inurba_marseille","lat":43.28848,"lon":5.35846,"is_reserved":false,"is_disabled":false,"rental_uris":{"android":"levelo://app?vid=21f5b0c3-99e2-4b09-ae49-cb2141014a44","ios":"levelo://app?vid=21f5b0c3-99e2-4b09-ae49-cb2141014a44"},"vehicle_type_id":"4","last_reported":1726330191,"current_range_meters":25600,"station_id":"ce4bhb12rcd13ifvqem0","pricing_plan_id":"cebpf4jnsgd1na2vs0mg"},{"bike_id":"61e00977-be43-400f-99ea-3c33330f7657","system_id":"levelo_inurba_marseille","lat":43.25009,"lon":5.38913,"is_reserved":false,"is_disabled":false,"rental_uris":{"android":"levelo://app?vid=61e00977-be43-400f-99ea-3c33330f7657","ios":"levelo://app?vid=61e00977-be43-400f-99ea-3c33330f7657"},"vehicle_type_id":"4","last_reported":1726330191,"current_range_meters":18800,"station_id":"ce4bhgp2rcd13ifvqfd0","pricing_plan_id":"cebpf4jnsgd1na2vs0mg"},{"bike_id":"791c814f-f599-4a28-b25d-4a2dacc2e22d","system_id":"levelo_inurba_marseille","lat":43.29099,"lon":5.38132,"is_reserved":false,"is_disabled":false,"rental_uris":{"android":"levelo://app?vid=791c814f-f599-4a28-b25d-4a2dacc2e22d","ios":"levelo://app?vid=791c814f-f599-4a28-b25d-4a2dacc2e22d"},"vehicle_type_id":"4","last_reported":1726330191,"current_range_meters":21600,"station_id":"ce4bh512rcd13ifvqe2g","pricing_plan_id":"cebpf4jnsgd1na2vs0mg"},{"bike_id":"d1f38fcd-be46-4877-a9ac-34b365272c30","system_id":"levelo_inurba_marseille","lat":43.27099,"lon":5.43316,"is_reserved":false,"is_disabled":false,"rental_uris":{"android":"levelo://app?vid=d1f38fcd-be46-4877-a9ac-34b365272c30","ios":"levelo://app?vid=d1f38fcd-be46-4877-a9ac-34b365272c30"},"vehicle_type_id":"4","last_reported":1726330191,"current_range_meters":32000,"station_id":"","pricing_plan_id":"cebpf4jnsgd1na2vs0mg"},{"bike_id":"fd4b1d9f-80f1-4aa9-a263-a5c5934e1fcf","system_id":"levelo_inurba_marseille","lat":43.26777,"lon":5.39417,"is_reserved":false,"is_disabled":false,"rental_uris":{"android":"levelo://app?vid=fd4b1d9f-80f1-4aa9-a263-a5c5934e1fcf","ios":"levelo://app?vid=fd4b1d9f-80f1-4aa9-a263-a5c5934e1fcf"},"vehicle_type_id":"4","last_reported":1726330191,"current_range_meters":3200,"station_id":"ce4bhh12rcd13ifvqfg0","pricing_plan_id":"cebpf4jnsgd1na2vs0mg"},{"bike_id":"95331f7e-2d7a-430d-9600-b3ed251adaeb","system_id":"levelo_inurba_marseille","lat":43.276134,"lon":5.360989,"is_reserved":false,"is_disabled":false,"rental_uris":{"android":"levelo://app?vid=95331f7e-2d7a-430d-9600-b3ed251adaeb","ios":"levelo://app?vid=95331f7e-2d7a-430d-9600-b3ed251adaeb"},"vehicle_type_id":"4","last_reported":1726330191,"current_range_meters":16400,"station_id":"ce4bgj92rcd13ifvqbe0","pricing_plan_id":"cebpf4jnsgd1na2vs0mg"},{"bike_id":"312b00c3-6c5b-440b-8745-549e9043a90d","system_id":"levelo_inurba_marseille","lat":43.27324,"lon":5.39081,"is_reserved":false,"is_disabled":false,"rental_uris":{"android":"levelo://app?vid=312b00c3-6c5b-440b-8745-549e9043a90d","ios":"levelo://app?vid=312b00c3-6c5b-440b-8745-549e9043a90d"},"vehicle_type_id":"4","last_reported":1726330191,"current_range_meters":24000,"station_id":"ce4bhgp2rcd13ifvqfe0","pricing_plan_id":"cebpf4jnsgd1na2vs0mg"},{"bike_id":"f9076aec-56e7-4b2e-a7b1-575337aca9d5","system_id":"levelo_inurba_marseille","lat":43.24175,"lon":5.36401,"is_reserved":false,"is_disabled":false,"rental_uris":{"android":"levelo://app?vid=f9076aec-56e7-4b2e-a7b1-575337aca9d5","ios":"levelo://app?vid=f9076aec-56e7-4b2e-a7b1-575337aca9d5"},"vehicle_type_id":"4","last_reported":1726330191,"current_range_meters":32000,"station_id":"cpo36qri1sfpv3e86is0","pricing_plan_id":"cebpf4jnsgd1na2vs0mg"},{"bike_id":"7c3dbf14-93b9-49c1-9724-6fd9543aa2db","system_id":"levelo_inurba_marseille","lat":43.28847,"lon":5.35833,"is_reserved":false,"is_disabled":false,"rental_uris":{"android":"levelo://app?vid=7c3dbf14-93b9-49c1-9724-6fd9543aa2db","ios":"levelo://app?vid=7c3dbf14-93b9-49c1-9724-6fd9543aa2db"},"vehicle_type_id":"4","last_reported":1726330191,"current_range_meters":19600,"station_id":"ce4bhb12rcd13ifvqem0","pricing_plan_id":"cebpf4jnsgd1na2vs0mg"},{"bike_id":"9da3cfc3-76e1-45aa-bd84-0cc476fb2e0c","system_id":"levelo_inurba_marseille","lat":43.22933,"lon":5.35377,"is_reserved":false,"is_disabled":false,"rental_uris":{"android":"levelo://app?vid=9da3cfc3-76e1-45aa-bd84-0cc476fb2e0c","ios":"levelo://app?vid=9da3cfc3-76e1-45aa-bd84-0cc476fb2e0c"},"vehicle_type_id":"4","last_reported":1726330191,"current_range_meters":32000,"station_id":"cpo3532slgdg3j2ikp40","pricing_plan_id":"cebpf4jnsgd1na2vs0mg"},{"bike_id":"a4f18687-e126-425b-b639-a942cceab9e8","system_id":"levelo_inurba_marseille","lat":43.24654,"lon":5.38895,"is_reserved":false,"is_disabled":false,"rental_uris":{"android":"levelo://app?vid=a4f18687-e126-425b-b639-a942cceab9e8","ios":"levelo://app?vid=a4f18687-e126-425b-b639-a942cceab9e8"},"vehicle_type_id":"4","last_reported":1726330191,"current_range_meters":14800,"station_id":"ce4bhg12rcd13ifvqf60","pricing_plan_id":"cebpf4jnsgd1na2vs0mg"},{"bike_id":"ebc68e75-92d3-46a3-b60f-c7f406ba5757","system_id":"levelo_inurba_marseille","lat":43.29068,"lon":5.37171,"is_reserved":false,"is_disabled":false,"rental_uris":{"android":"levelo://app?vid=ebc68e75-92d3-46a3-b60f-c7f406ba5757","ios":"levelo://app?vid=ebc68e75-92d3-46a3-b60f-c7f406ba5757"},"vehicle_type_id":"4","last_reported":1726330191,"current_range_meters":22000,"station_id":"ce4bh5p2rcd13ifvqe4g","pricing_plan_id":"cebpf4jnsgd1na2vs0mg"},{"bike_id":"103cf9f9-2f0a-447b-a31f-dbd4bc9e6e95","system_id":"levelo_inurba_marseille","lat":43.29552,"lon":5.42277,"is_reserved":false,"is_disabled":false,"rental_uris":{"android":"levelo://app?vid=103cf9f9-2f0a-447b-a31f-dbd4bc9e6e95","ios":"levelo://app?vid=103cf9f9-2f0a-447b-a31f-dbd4bc9e6e95"},"vehicle_type_id":"4","last_reported":1726330191,"current_range_meters":38800,"station_id":"ce4bhph2rcd13ifvqhdg","pricing_plan_id":"cebpf4jnsgd1na2vs0mg"},{"bike_id":"a5147fbe-3403-4d46-9810-bd13b82b6988","system_id":"levelo_inurba_marseille","lat":43.23181,"lon":5.39989,"is_reserved":false,"is_disabled":false,"rental_uris":{"android":"levelo://app?vid=a5147fbe-3403-4d46-9810-bd13b82b6988","ios":"levelo://app?vid=a5147fbe-3403-4d46-9810-bd13b82b6988"},"vehicle_type_id":"4","last_reported":1726330191,"current_range_meters":11200,"station_id":"ce4bhn12rcd13ifvqgqg","pricing_plan_id":"cebpf4jnsgd1na2vs0mg"},{"bike_id":"7560168d-c555-4b8e-a518-1c66771c1c72","system_id":"levelo_inurba_marseille","lat":43.24178,"lon":5.39725,"is_reserved":false,"is_disabled":false,"rental_uris":{"android":"levelo://app?vid=7560168d-c555-4b8e-a518-1c66771c1c72","ios":"levelo://app?vid=7560168d-c555-4b8e-a518-1c66771c1c72"},"vehicle_type_id":"4","last_reported":1726330191,"current_range_meters":16400,"station_id":"ce4bhn12rcd13ifvqgpg","pricing_plan_id":"cebpf4jnsgd1na2vs0mg"},{"bike_id":"82da7207-b4f7-488c-85d4-d5cc8fa7c382","system_id":"levelo_inurba_marseille","lat":43.27574,"lon":5.3966,"is_reserved":false,"is_disabled":false,"rental_uris":{"android":"levelo://app?vid=82da7207-b4f7-488c-85d4-d5cc8fa7c382","ios":"levelo://app?vid=82da7207-b4f7-488c-85d4-d5cc8fa7c382"},"vehicle_type_id":"4","last_reported":1726330191,"current_range_meters":35600,"station_id":"ce4bho92rcd13ifvqh4g","pricing_plan_id":"cebpf4jnsgd1na2vs0mg"},{"bike_id":"4e26d67f-3260-467d-88af-075a11ad36b7","system_id":"levelo_inurba_marseille","lat":43.29947,"lon":5.38477,"is_reserved":false,"is_disabled":false,"rental_uris":{"android":"levelo://app?vid=4e26d67f-3260-467d-88af-075a11ad36b7","ios":"levelo://app?vid=4e26d67f-3260-467d-88af-075a11ad36b7"},"vehicle_type_id":"4","last_reported":1726330191,"current_range_meters":11200,"station_id":"ce4bgj92rcd13ifvqbd0","pricing_plan_id":"cebpf4jnsgd1na2vs0mg"},{"bike_id":"90503c00-52c7-41b7-908d-d978b6a23c43","system_id":"levelo_inurba_marseille","lat":43.29518,"lon":5.37507,"is_reserved":false,"is_disabled":false,"rental_uris":{"android":"levelo://app?vid=90503c00-52c7-41b7-908d-d978b6a23c43","ios":"levelo://app?vid=90503c00-52c7-41b7-908d-d978b6a23c43"},"vehicle_type_id":"4","last_reported":1726330191,"current_range_meters":2000,"station_id":"ce4bgkp2rcd13ifvqbmg","pricing_plan_id":"cebpf4jnsgd1na2vs0mg"},{"bike_id":"e244868e-0758-40f0-845e-34b48e2fc823","system_id":"levelo_inurba_marseille","lat":43.29433,"lon":5.3975,"is_reserved":false,"is_disabled":false,"rental_uris":{"android":"levelo://app?vid=e244868e-0758-40f0-845e-34b48e2fc823","ios":"levelo://app?vid=e244868e-0758-40f0-845e-34b48e2fc823"},"vehicle_type_id":"4","last_reported":1726330191,"current_range_meters":32000,"station_id":"ce4bh3h2rcd13ifvqdo0","pricing_plan_id":"cebpf4jnsgd1na2vs0mg"},{"bike_id":"ebac907c-1980-4e2a-9c2f-3e733affc9fe","system_id":"levelo_inurba_marseille","lat":43.266755,"lon":5.38247,"is_reserved":false,"is_disabled":false,"rental_uris":{"android":"levelo://app?vid=ebac907c-1980-4e2a-9c2f-3e733affc9fe","ios":"levelo://app?vid=ebac907c-1980-4e2a-9c2f-3e733affc9fe"},"vehicle_type_id":"4","last_reported":1726330191,"current_range_meters":8400,"station_id":"ce4bhg92rcd13ifvqf90","pricing_plan_id":"cebpf4jnsgd1na2vs0mg"},{"bike_id":"af97313c-5eff-4f01-8281-7ae294759090","system_id":"levelo_inurba_marseille","lat":43.2733,"lon":5.39085,"is_reserved":false,"is_disabled":false,"rental_uris":{"android":"levelo://app?vid=af97313c-5eff-4f01-8281-7ae294759090","ios":"levelo://app?vid=af97313c-5eff-4f01-8281-7ae294759090"},"vehicle_type_id":"4","last_reported":1726330191,"current_range_meters":22800,"station_id":"ce4bhgp2rcd13ifvqfe0","pricing_plan_id":"cebpf4jnsgd1na2vs0mg"},{"bike_id":"47b913da-a851-4a2c-9b70-7296bc0501e1","system_id":"levelo_inurba_marseille","lat":43.30149,"lon":5.38088,"is_reserved":false,"is_disabled":false,"rental_uris":{"android":"levelo://app?vid=47b913da-a851-4a2c-9b70-7296bc0501e1","ios":"levelo://app?vid=47b913da-a851-4a2c-9b70-7296bc0501e1"},"vehicle_type_id":"4","last_reported":1726330191,"current_range_meters":36000,"station_id":"ce4bgjp2rcd13ifvqbh0","pricing_plan_id":"cebpf4jnsgd1na2vs0mg"},{"bike_id":"a2297e44-ed7c-404a-9891-8598306504eb","system_id":"levelo_inurba_marseille","lat":43.31724,"lon":5.42404,"is_reserved":false,"is_disabled":false,"rental_uris":{"android":"levelo://app?vid=a2297e44-ed7c-404a-9891-8598306504eb","ios":"levelo://app?vid=a2297e44-ed7c-404a-9891-8598306504eb"},"vehicle_type_id":"4","last_reported":1726330191,"current_range_meters":30000,"station_id":"ce4bhp92rcd13ifvqhbg","pricing_plan_id":"cebpf4jnsgd1na2vs0mg"},{"bike_id":"e45c06f9-ad71-4d8e-9ba1-661d1798f960","system_id":"levelo_inurba_marseille","lat":43.2572,"lon":5.41108,"is_reserved":false,"is_disabled":false,"rental_uris":{"android":"levelo://app?vid=e45c06f9-ad71-4d8e-9ba1-661d1798f960","ios":"levelo://app?vid=e45c06f9-ad71-4d8e-9ba1-661d1798f960"},"vehicle_type_id":"4","last_reported":1726330191,"current_range_meters":20800,"station_id":"ce4bhkp2rcd13ifvqgd0","pricing_plan_id":"cebpf4jnsgd1na2vs0mg"},{"bike_id":"bbbff21e-3eee-4674-aba2-c434c72de059","system_id":"levelo_inurba_marseille","lat":43.29586,"lon":5.38676,"is_reserved":false,"is_disabled":false,"rental_uris":{"android":"levelo://app?vid=bbbff21e-3eee-4674-aba2-c434c72de059","ios":"levelo://app?vid=bbbff21e-3eee-4674-aba2-c434c72de059"},"vehicle_type_id":"4","last_reported":1726330191,"current_range_meters":13600,"station_id":"","pricing_plan_id":"cebpf4jnsgd1na2vs0mg"},{"bike_id":"77f6ddec-ec21-4faf-8bc7-0e1de097d16f","system_id":"levelo_inurba_marseille","lat":43.29595,"lon":5.38093,"is_reserved":false,"is_disabled":false,"rental_uris":{"android":"levelo://app?vid=77f6ddec-ec21-4faf-8bc7-0e1de097d16f","ios":"levelo://app?vid=77f6ddec-ec21-4faf-8bc7-0e1de097d16f"},"vehicle_type_id":"4","last_reported":1726330191,"current_range_meters":3200,"station_id":"ce4bgl12rcd13ifvqbo0","pricing_plan_id":"cebpf4jnsgd1na2vs0mg"},{"bike_id":"4252997a-048e-467d-b47c-5290f1fef794","system_id":"levelo_inurba_marseille","lat":43.245904,"lon":5.394723,"is_reserved":false,"is_disabled":false,"rental_uris":{"android":"levelo://app?vid=4252997a-048e-467d-b47c-5290f1fef794","ios":"levelo://app?vid=4252997a-048e-467d-b47c-5290f1fef794"},"vehicle_type_id":"4","last_reported":1726330191,"current_range_meters":9600,"station_id":"ce4bhlp2rcd13ifvqgjg","pricing_plan_id":"cebpf4jnsgd1na2vs0mg"},{"bike_id":"13e4e1f1-ca7a-4e6f-b284-520dc9687025","system_id":"levelo_inurba_marseille","lat":43.26196,"lon":5.37448,"is_reserved":false,"is_disabled":false,"rental_uris":{"android":"levelo://app?vid=13e4e1f1-ca7a-4e6f-b284-520dc9687025","ios":"levelo://app?vid=13e4e1f1-ca7a-4e6f-b284-520dc9687025"},"vehicle_type_id":"4","last_reported":1726330191,"current_range_meters":17600,"station_id":"ce4bhgp2rcd13ifvqfc0","pricing_plan_id":"cebpf4jnsgd1na2vs0mg"},{"bike_id":"328d45f9-980e-4811-97c0-47d761861509","system_id":"levelo_inurba_marseille","lat":43.29847,"lon":5.37836,"is_reserved":false,"is_disabled":false,"rental_uris":{"android":"levelo://app?vid=328d45f9-980e-4811-97c0-47d761861509","ios":"levelo://app?vid=328d45f9-980e-4811-97c0-47d761861509"},"vehicle_type_id":"4","last_reported":1726330191,"current_range_meters":31200,"station_id":"ce4bgkh2rcd13ifvqbl0","pricing_plan_id":"cebpf4jnsgd1na2vs0mg"},{"bike_id":"7bef3134-bc3d-4d65-a01a-f2434a18c622","system_id":"levelo_inurba_marseille","lat":43.2572,"lon":5.41107,"is_reserved":false,"is_disabled":false,"rental_uris":{"android":"levelo://app?vid=7bef3134-bc3d-4d65-a01a-f2434a18c622","ios":"levelo://app?vid=7bef3134-bc3d-4d65-a01a-f2434a18c622"},"vehicle_type_id":"4","last_reported":1726330191,"current_range_meters":15200,"station_id":"ce4bhkp2rcd13ifvqgd0","pricing_plan_id":"cebpf4jnsgd1na2vs0mg"},{"bike_id":"66617835-2d51-4af9-be86-8128bf2ff8bf","system_id":"levelo_inurba_marseille","lat":43.27206,"lon":5.39168,"is_reserved":false,"is_disabled":false,"rental_uris":{"android":"levelo://app?vid=66617835-2d51-4af9-be86-8128bf2ff8bf","ios":"levelo://app?vid=66617835-2d51-4af9-be86-8128bf2ff8bf"},"vehicle_type_id":"4","last_reported":1726330191,"current_range_meters":19200,"station_id":"ce4bhhp2rcd13ifvqfm0","pricing_plan_id":"cebpf4jnsgd1na2vs0mg"},{"bike_id":"89372263-c653-449f-803b-6e3a5652f4a3","system_id":"levelo_inurba_marseille","lat":43.30421,"lon":5.39738,"is_reserved":false,"is_disabled":false,"rental_uris":{"android":"levelo://app?vid=89372263-c653-449f-803b-6e3a5652f4a3","ios":"levelo://app?vid=89372263-c653-449f-803b-6e3a5652f4a3"},"vehicle_type_id":"4","last_reported":1726330191,"current_range_meters":18000,"station_id":"ce4bh092rcd13ifvqd20","pricing_plan_id":"cebpf4jnsgd1na2vs0mg"},{"bike_id":"9ef74294-1e9f-40c9-b6de-b65562b51f9f","system_id":"levelo_inurba_marseille","lat":43.29551,"lon":5.42284,"is_reserved":false,"is_disabled":false,"rental_uris":{"android":"levelo://app?vid=9ef74294-1e9f-40c9-b6de-b65562b51f9f","ios":"levelo://app?vid=9ef74294-1e9f-40c9-b6de-b65562b51f9f"},"vehicle_type_id":"4","last_reported":1726330191,"current_range_meters":38800,"station_id":"ce4bhph2rcd13ifvqhdg","pricing_plan_id":"cebpf4jnsgd1na2vs0mg"},{"bike_id":"f13b6a55-c51e-4752-8381-ce395b961475","system_id":"levelo_inurba_marseille","lat":43.23149,"lon":5.43717,"is_reserved":false,"is_disabled":false,"rental_uris":{"android":"levelo://app?vid=f13b6a55-c51e-4752-8381-ce395b961475","ios":"levelo://app?vid=f13b6a55-c51e-4752-8381-ce395b961475"},"vehicle_type_id":"4","last_reported":1726330191,"current_range_meters":4000,"station_id":"ce4bhmp2rcd13ifvqgog","pricing_plan_id":"cebpf4jnsgd1na2vs0mg"},{"bike_id":"8b608b96-fedf-4511-8d4b-09bad2606e1a","system_id":"levelo_inurba_marseille","lat":43.27729,"lon":5.41133,"is_reserved":false,"is_disabled":false,"rental_uris":{"android":"levelo://app?vid=8b608b96-fedf-4511-8d4b-09bad2606e1a","ios":"levelo://app?vid=8b608b96-fedf-4511-8d4b-09bad2606e1a"},"vehicle_type_id":"4","last_reported":1726330191,"current_range_meters":26000,"station_id":"","pricing_plan_id":"cebpf4jnsgd1na2vs0mg"},{"bike_id":"0cd1c978-13e8-4405-af4b-07c5d83560a3","system_id":"levelo_inurba_marseille","lat":43.29896,"lon":5.43661,"is_reserved":false,"is_disabled":false,"rental_uris":{"android":"levelo://app?vid=0cd1c978-13e8-4405-af4b-07c5d83560a3","ios":"levelo://app?vid=0cd1c978-13e8-4405-af4b-07c5d83560a3"},"vehicle_type_id":"4","last_reported":1726330191,"current_range_meters":38000,"station_id":"ce4bhpp2rcd13ifvqhfg","pricing_plan_id":"cebpf4jnsgd1na2vs0mg"},{"bike_id":"099c2976-d1c9-4611-857c-b35fc245b09f","system_id":"levelo_inurba_marseille","lat":43.30146,"lon":5.37422,"is_reserved":false,"is_disabled":false,"rental_uris":{"android":"levelo://app?vid=099c2976-d1c9-4611-857c-b35fc245b09f","ios":"levelo://app?vid=099c2976-d1c9-4611-857c-b35fc245b09f"},"vehicle_type_id":"4","last_reported":1726330191,"current_range_meters":7200,"station_id":"ce4bgs92rcd13ifvqcc0","pricing_plan_id":"cebpf4jnsgd1na2vs0mg"},{"bike_id":"cf1d233c-b96b-41d7-bde9-5ebf18dbe555","system_id":"levelo_inurba_marseille","lat":43.28157,"lon":5.42645,"is_reserved":false,"is_disabled":false,"rental_uris":{"android":"levelo://app?vid=cf1d233c-b96b-41d7-bde9-5ebf18dbe555","ios":"levelo://app?vid=cf1d233c-b96b-41d7-bde9-5ebf18dbe555"},"vehicle_type_id":"4","last_reported":1726330191,"current_range_meters":3200,"station_id":"ce4bhnh2rcd13ifvqgug","pricing_plan_id":"cebpf4jnsgd1na2vs0mg"},{"bike_id":"d401cc99-3c74-421a-9a70-3c1e2d616b59","system_id":"levelo_inurba_marseille","lat":43.28037,"lon":5.36939,"is_reserved":false,"is_disabled":false,"rental_uris":{"android":"levelo://app?vid=d401cc99-3c74-421a-9a70-3c1e2d616b59","ios":"levelo://app?vid=d401cc99-3c74-421a-9a70-3c1e2d616b59"},"vehicle_type_id":"4","last_reported":1726330191,"current_range_meters":19200,"station_id":"ce4bha12rcd13ifvqef0","pricing_plan_id":"cebpf4jnsgd1na2vs0mg"},{"bike_id":"4f99597b-dc3a-40aa-bcdc-5095ad379ee1","system_id":"levelo_inurba_marseille","lat":43.29081,"lon":5.37165,"is_reserved":false,"is_disabled":false,"rental_uris":{"android":"levelo://app?vid=4f99597b-dc3a-40aa-bcdc-5095ad379ee1","ios":"levelo://app?vid=4f99597b-dc3a-40aa-bcdc-5095ad379ee1"},"vehicle_type_id":"4","last_reported":1726330191,"current_range_meters":23200,"station_id":"ce4bh5p2rcd13ifvqe4g","pricing_plan_id":"cebpf4jnsgd1na2vs0mg"},{"bike_id":"3c8258fd-c525-4498-880e-db77347fd4a6","system_id":"levelo_inurba_marseille","lat":43.28436,"lon":5.34993,"is_reserved":false,"is_disabled":false,"rental_uris":{"android":"levelo://app?vid=3c8258fd-c525-4498-880e-db77347fd4a6","ios":"levelo://app?vid=3c8258fd-c525-4498-880e-db77347fd4a6"},"vehicle_type_id":"4","last_reported":1726330191,"current_range_meters":38800,"station_id":"ce4bhbh2rcd13ifvqepg","pricing_plan_id":"cebpf4jnsgd1na2vs0mg"},{"bike_id":"5e6f2599-d87c-4c20-8c72-d7c1711aa50a","system_id":"levelo_inurba_marseille","lat":43.27211,"lon":5.39188,"is_reserved":false,"is_disabled":false,"rental_uris":{"android":"levelo://app?vid=5e6f2599-d87c-4c20-8c72-d7c1711aa50a","ios":"levelo://app?vid=5e6f2599-d87c-4c20-8c72-d7c1711aa50a"},"vehicle_type_id":"4","last_reported":1726330191,"current_range_meters":6400,"station_id":"ce4bhhp2rcd13ifvqfm0","pricing_plan_id":"cebpf4jnsgd1na2vs0mg"},{"bike_id":"2fa7a912-256f-4ebe-9793-d9b6c6940c4a","system_id":"levelo_inurba_marseille","lat":43.25003,"lon":5.38924,"is_reserved":false,"is_disabled":false,"rental_uris":{"android":"levelo://app?vid=2fa7a912-256f-4ebe-9793-d9b6c6940c4a","ios":"levelo://app?vid=2fa7a912-256f-4ebe-9793-d9b6c6940c4a"},"vehicle_type_id":"4","last_reported":1726330191,"current_range_meters":28000,"station_id":"ce4bhgp2rcd13ifvqfd0","pricing_plan_id":"cebpf4jnsgd1na2vs0mg"},{"bike_id":"f14a984d-0e31-43a4-8c1e-308731fa26f8","system_id":"levelo_inurba_marseille","lat":43.31718,"lon":5.42392,"is_reserved":false,"is_disabled":false,"rental_uris":{"android":"levelo://app?vid=f14a984d-0e31-43a4-8c1e-308731fa26f8","ios":"levelo://app?vid=f14a984d-0e31-43a4-8c1e-308731fa26f8"},"vehicle_type_id":"4","last_reported":1726330191,"current_range_meters":2800,"station_id":"ce4bhp92rcd13ifvqhbg","pricing_plan_id":"cebpf4jnsgd1na2vs0mg"},{"bike_id":"6345f7ba-0f65-4ed3-8d24-1cdee5892304","system_id":"levelo_inurba_marseille","lat":43.23964,"lon":5.36624,"is_reserved":false,"is_disabled":false,"rental_uris":{"android":"levelo://app?vid=6345f7ba-0f65-4ed3-8d24-1cdee5892304","ios":"levelo://app?vid=6345f7ba-0f65-4ed3-8d24-1cdee5892304"},"vehicle_type_id":"4","last_reported":1726330191,"current_range_meters":38800,"station_id":"ce4bhi12rcd13ifvqfp0","pricing_plan_id":"cebpf4jnsgd1na2vs0mg"},{"bike_id":"3325b42a-666b-4d14-b3ef-ac0991c249e1","system_id":"levelo_inurba_marseille","lat":43.24082,"lon":5.37746,"is_reserved":false,"is_disabled":false,"rental_uris":{"android":"levelo://app?vid=3325b42a-666b-4d14-b3ef-ac0991c249e1","ios":"levelo://app?vid=3325b42a-666b-4d14-b3ef-ac0991c249e1"},"vehicle_type_id":"4","last_reported":1726330191,"current_range_meters":24000,"station_id":"ce4bhnp2rcd13ifvqgvg","pricing_plan_id":"cebpf4jnsgd1na2vs0mg"},{"bike_id":"41b3dd49-1d82-48df-b768-00dc56c7501e","system_id":"levelo_inurba_marseille","lat":43.27205,"lon":5.39185,"is_reserved":false,"is_disabled":false,"rental_uris":{"android":"levelo://app?vid=41b3dd49-1d82-48df-b768-00dc56c7501e","ios":"levelo://app?vid=41b3dd49-1d82-48df-b768-00dc56c7501e"},"vehicle_type_id":"4","last_reported":1726330191,"current_range_meters":35600,"station_id":"ce4bhhp2rcd13ifvqfm0","pricing_plan_id":"cebpf4jnsgd1na2vs0mg"},{"bike_id":"ac26029d-b0f7-4144-a6a6-b8af8b65a1e2","system_id":"levelo_inurba_marseille","lat":43.23965,"lon":5.36624,"is_reserved":false,"is_disabled":false,"rental_uris":{"android":"levelo://app?vid=ac26029d-b0f7-4144-a6a6-b8af8b65a1e2","ios":"levelo://app?vid=ac26029d-b0f7-4144-a6a6-b8af8b65a1e2"},"vehicle_type_id":"4","last_reported":1726330191,"current_range_meters":38800,"station_id":"ce4bhi12rcd13ifvqfp0","pricing_plan_id":"cebpf4jnsgd1na2vs0mg"},{"bike_id":"50761e91-fb69-4c06-86f1-d86120d4f6f4","system_id":"levelo_inurba_marseille","lat":43.28357,"lon":5.38094,"is_reserved":false,"is_disabled":false,"rental_uris":{"android":"levelo://app?vid=50761e91-fb69-4c06-86f1-d86120d4f6f4","ios":"levelo://app?vid=50761e91-fb69-4c06-86f1-d86120d4f6f4"},"vehicle_type_id":"4","last_reported":1726330191,"current_range_meters":9200,"station_id":"ce4bh412rcd13ifvqdr0","pricing_plan_id":"cebpf4jnsgd1na2vs0mg"},{"bike_id":"5773e448-b981-4035-bda6-57f33ec8252f","system_id":"levelo_inurba_marseille","lat":43.27212,"lon":5.39178,"is_reserved":false,"is_disabled":false,"rental_uris":{"android":"levelo://app?vid=5773e448-b981-4035-bda6-57f33ec8252f","ios":"levelo://app?vid=5773e448-b981-4035-bda6-57f33ec8252f"},"vehicle_type_id":"4","last_reported":1726330191,"current_range_meters":11200,"station_id":"ce4bhhp2rcd13ifvqfm0","pricing_plan_id":"cebpf4jnsgd1na2vs0mg"},{"bike_id":"e30c1d6e-5228-40a4-9803-69ffe1d43c6f","system_id":"levelo_inurba_marseille","lat":43.28979,"lon":5.37832,"is_reserved":false,"is_disabled":false,"rental_uris":{"android":"levelo://app?vid=e30c1d6e-5228-40a4-9803-69ffe1d43c6f","ios":"levelo://app?vid=e30c1d6e-5228-40a4-9803-69ffe1d43c6f"},"vehicle_type_id":"4","last_reported":1726330191,"current_range_meters":2800,"station_id":"ce4bh9p2rcd13ifvqed0","pricing_plan_id":"cebpf4jnsgd1na2vs0mg"},{"bike_id":"c1b8b647-bc5b-46b0-abdf-b2b9fea372b4","system_id":"levelo_inurba_marseille","lat":43.30599,"lon":5.37226,"is_reserved":false,"is_disabled":false,"rental_uris":{"android":"levelo://app?vid=c1b8b647-bc5b-46b0-abdf-b2b9fea372b4","ios":"levelo://app?vid=c1b8b647-bc5b-46b0-abdf-b2b9fea372b4"},"vehicle_type_id":"4","last_reported":1726330191,"current_range_meters":12000,"station_id":"ce4bgqh2rcd13ifvqc4g","pricing_plan_id":"cebpf4jnsgd1na2vs0mg"},{"bike_id":"cb4d9bac-9005-42c7-8ca2-6311853ca4d2","system_id":"levelo_inurba_marseille","lat":43.27321,"lon":5.39076,"is_reserved":false,"is_disabled":false,"rental_uris":{"android":"levelo://app?vid=cb4d9bac-9005-42c7-8ca2-6311853ca4d2","ios":"levelo://app?vid=cb4d9bac-9005-42c7-8ca2-6311853ca4d2"},"vehicle_type_id":"4","last_reported":1726330191,"current_range_meters":17600,"station_id":"ce4bhgp2rcd13ifvqfe0","pricing_plan_id":"cebpf4jnsgd1na2vs0mg"},{"bike_id":"19905df6-e73e-46a1-ae96-6fdb91b17345","system_id":"levelo_inurba_marseille","lat":43.32194,"lon":5.41322,"is_reserved":false,"is_disabled":false,"rental_uris":{"android":"levelo://app?vid=19905df6-e73e-46a1-ae96-6fdb91b17345","ios":"levelo://app?vid=19905df6-e73e-46a1-ae96-6fdb91b17345"},"vehicle_type_id":"4","last_reported":1726330191,"current_range_meters":22800,"station_id":"","pricing_plan_id":"cebpf4jnsgd1na2vs0mg"},{"bike_id":"d95e98cb-f829-4d07-ba8b-14d626ffb218","system_id":"levelo_inurba_marseille","lat":43.28473,"lon":5.38418,"is_reserved":false,"is_disabled":false,"rental_uris":{"android":"levelo://app?vid=d95e98cb-f829-4d07-ba8b-14d626ffb218","ios":"levelo://app?vid=d95e98cb-f829-4d07-ba8b-14d626ffb218"},"vehicle_type_id":"4","last_reported":1726330191,"current_range_meters":8000,"station_id":"ce4bh512rcd13ifvqe3g","pricing_plan_id":"cebpf4jnsgd1na2vs0mg"},{"bike_id":"dd6e6a1e-5d86-4b90-abb1-f65a96ce8c4d","system_id":"levelo_inurba_marseille","lat":43.23192,"lon":5.35555,"is_reserved":false,"is_disabled":false,"rental_uris":{"android":"levelo://app?vid=dd6e6a1e-5d86-4b90-abb1-f65a96ce8c4d","ios":"levelo://app?vid=dd6e6a1e-5d86-4b90-abb1-f65a96ce8c4d"},"vehicle_type_id":"4","last_reported":1726330191,"current_range_meters":10800,"station_id":"ce4bhu92rcd13ifvqi70","pricing_plan_id":"cebpf4jnsgd1na2vs0mg"},{"bike_id":"4d757515-28a2-4279-a74e-cbdd46774cd9","system_id":"levelo_inurba_marseille","lat":43.26949,"lon":5.38648,"is_reserved":false,"is_disabled":false,"rental_uris":{"android":"levelo://app?vid=4d757515-28a2-4279-a74e-cbdd46774cd9","ios":"levelo://app?vid=4d757515-28a2-4279-a74e-cbdd46774cd9"},"vehicle_type_id":"4","last_reported":1726330191,"current_range_meters":17600,"station_id":"ce4bhh92rcd13ifvqfh0","pricing_plan_id":"cebpf4jnsgd1na2vs0mg"},{"bike_id":"7a86f285-e234-45ed-a194-b1bdfc1fdded","system_id":"levelo_inurba_marseille","lat":43.27203,"lon":5.39197,"is_reserved":false,"is_disabled":false,"rental_uris":{"android":"levelo://app?vid=7a86f285-e234-45ed-a194-b1bdfc1fdded","ios":"levelo://app?vid=7a86f285-e234-45ed-a194-b1bdfc1fdded"},"vehicle_type_id":"4","last_reported":1726330191,"current_range_meters":24400,"station_id":"ce4bhhp2rcd13ifvqfm0","pricing_plan_id":"cebpf4jnsgd1na2vs0mg"},{"bike_id":"528debb2-0321-4113-9bed-d2af385c5597","system_id":"levelo_inurba_marseille","lat":43.31715,"lon":5.43705,"is_reserved":false,"is_disabled":false,"rental_uris":{"android":"levelo://app?vid=528debb2-0321-4113-9bed-d2af385c5597","ios":"levelo://app?vid=528debb2-0321-4113-9bed-d2af385c5597"},"vehicle_type_id":"4","last_reported":1726330191,"current_range_meters":35600,"station_id":"ce4bhp92rcd13ifvqhcg","pricing_plan_id":"cebpf4jnsgd1na2vs0mg"},{"bike_id":"72b5c3e4-eca2-4c72-b76e-1ea2e0a835de","system_id":"levelo_inurba_marseille","lat":43.27205,"lon":5.39188,"is_reserved":false,"is_disabled":false,"rental_uris":{"android":"levelo://app?vid=72b5c3e4-eca2-4c72-b76e-1ea2e0a835de","ios":"levelo://app?vid=72b5c3e4-eca2-4c72-b76e-1ea2e0a835de"},"vehicle_type_id":"4","last_reported":1726330191,"current_range_meters":14800,"station_id":"ce4bhhp2rcd13ifvqfm0","pricing_plan_id":"cebpf4jnsgd1na2vs0mg"},{"bike_id":"620b3943-0c35-4cfe-966c-289be079775d","system_id":"levelo_inurba_marseille","lat":43.29967,"lon":5.38489,"is_reserved":false,"is_disabled":false,"rental_uris":{"android":"levelo://app?vid=620b3943-0c35-4cfe-966c-289be079775d","ios":"levelo://app?vid=620b3943-0c35-4cfe-966c-289be079775d"},"vehicle_type_id":"4","last_reported":1726330191,"current_range_meters":28000,"station_id":"ce4bgj92rcd13ifvqbd0","pricing_plan_id":"cebpf4jnsgd1na2vs0mg"},{"bike_id":"2a59670b-0cd5-4576-9a44-704e9179f478","system_id":"levelo_inurba_marseille","lat":43.319885,"lon":5.432834,"is_reserved":false,"is_disabled":false,"rental_uris":{"android":"levelo://app?vid=2a59670b-0cd5-4576-9a44-704e9179f478","ios":"levelo://app?vid=2a59670b-0cd5-4576-9a44-704e9179f478"},"vehicle_type_id":"4","last_reported":1726330191,"current_range_meters":25200,"station_id":"ce4bhop2rcd13ifvqh7g","pricing_plan_id":"cebpf4jnsgd1na2vs0mg"},{"bike_id":"6255f5ea-9f70-4f67-839f-e1fe0f9a7f74","system_id":"levelo_inurba_marseille","lat":43.29266,"lon":5.38438,"is_reserved":false,"is_disabled":false,"rental_uris":{"android":"levelo://app?vid=6255f5ea-9f70-4f67-839f-e1fe0f9a7f74","ios":"levelo://app?vid=6255f5ea-9f70-4f67-839f-e1fe0f9a7f74"},"vehicle_type_id":"4","last_reported":1726330191,"current_range_meters":24800,"station_id":"ce4bh692rcd13ifvqea0","pricing_plan_id":"cebpf4jnsgd1na2vs0mg"},{"bike_id":"ee41233d-7057-4ec4-b3c6-63f582836de8","system_id":"levelo_inurba_marseille","lat":43.22931,"lon":5.35383,"is_reserved":false,"is_disabled":false,"rental_uris":{"android":"levelo://app?vid=ee41233d-7057-4ec4-b3c6-63f582836de8","ios":"levelo://app?vid=ee41233d-7057-4ec4-b3c6-63f582836de8"},"vehicle_type_id":"4","last_reported":1726330191,"current_range_meters":23200,"station_id":"cpo3532slgdg3j2ikp40","pricing_plan_id":"cebpf4jnsgd1na2vs0mg"},{"bike_id":"075a5701-7319-4020-b5f0-0ca09e0799c5","system_id":"levelo_inurba_marseille","lat":43.26941,"lon":5.40251,"is_reserved":false,"is_disabled":false,"rental_uris":{"android":"levelo://app?vid=075a5701-7319-4020-b5f0-0ca09e0799c5","ios":"levelo://app?vid=075a5701-7319-4020-b5f0-0ca09e0799c5"},"vehicle_type_id":"4","last_reported":1726330191,"current_range_meters":19600,"station_id":"cjm6bp8fraef2m0cb0m0","pricing_plan_id":"cebpf4jnsgd1na2vs0mg"},{"bike_id":"ba1dec0c-a71d-4beb-a624-d9ccf374798c","system_id":"levelo_inurba_marseille","lat":43.283704,"lon":5.380941,"is_reserved":false,"is_disabled":false,"rental_uris":{"android":"levelo://app?vid=ba1dec0c-a71d-4beb-a624-d9ccf374798c","ios":"levelo://app?vid=ba1dec0c-a71d-4beb-a624-d9ccf374798c"},"vehicle_type_id":"4","last_reported":1726330191,"current_range_meters":28000,"station_id":"ce4bh412rcd13ifvqdr0","pricing_plan_id":"cebpf4jnsgd1na2vs0mg"},{"bike_id":"7ae78552-8701-456a-ad83-b1a097573a34","system_id":"levelo_inurba_marseille","lat":43.293549,"lon":5.371594,"is_reserved":false,"is_disabled":false,"rental_uris":{"android":"levelo://app?vid=7ae78552-8701-456a-ad83-b1a097573a34","ios":"levelo://app?vid=7ae78552-8701-456a-ad83-b1a097573a34"},"vehicle_type_id":"4","last_reported":1726330191,"current_range_meters":22800,"station_id":"","pricing_plan_id":"cebpf4jnsgd1na2vs0mg"},{"bike_id":"1e7d4d73-9489-41f8-bd7f-470d9a9324e6","system_id":"levelo_inurba_marseille","lat":43.23194,"lon":5.3556,"is_reserved":false,"is_disabled":false,"rental_uris":{"android":"levelo://app?vid=1e7d4d73-9489-41f8-bd7f-470d9a9324e6","ios":"levelo://app?vid=1e7d4d73-9489-41f8-bd7f-470d9a9324e6"},"vehicle_type_id":"4","last_reported":1726330191,"current_range_meters":14400,"station_id":"ce4bhu92rcd13ifvqi70","pricing_plan_id":"cebpf4jnsgd1na2vs0mg"},{"bike_id":"66c88e83-61b7-4275-acd0-0b704ab789ac","system_id":"levelo_inurba_marseille","lat":43.27215,"lon":5.39179,"is_reserved":false,"is_disabled":false,"rental_uris":{"android":"levelo://app?vid=66c88e83-61b7-4275-acd0-0b704ab789ac","ios":"levelo://app?vid=66c88e83-61b7-4275-acd0-0b704ab789ac"},"vehicle_type_id":"4","last_reported":1726330191,"current_range_meters":22800,"station_id":"ce4bhhp2rcd13ifvqfm0","pricing_plan_id":"cebpf4jnsgd1na2vs0mg"},{"bike_id":"9aa238d0-6b4d-4140-9afd-13c585b9d619","system_id":"levelo_inurba_marseille","lat":43.28278,"lon":5.35068,"is_reserved":false,"is_disabled":false,"rental_uris":{"android":"levelo://app?vid=9aa238d0-6b4d-4140-9afd-13c585b9d619","ios":"levelo://app?vid=9aa238d0-6b4d-4140-9afd-13c585b9d619"},"vehicle_type_id":"4","last_reported":1726330191,"current_range_meters":36000,"station_id":"ce4bhbp2rcd13ifvqerg","pricing_plan_id":"cebpf4jnsgd1na2vs0mg"},{"bike_id":"c4148733-d340-4184-9add-27aa76062a46","system_id":"levelo_inurba_marseille","lat":43.25008,"lon":5.38918,"is_reserved":false,"is_disabled":false,"rental_uris":{"android":"levelo://app?vid=c4148733-d340-4184-9add-27aa76062a46","ios":"levelo://app?vid=c4148733-d340-4184-9add-27aa76062a46"},"vehicle_type_id":"4","last_reported":1726330191,"current_range_meters":38800,"station_id":"ce4bhgp2rcd13ifvqfd0","pricing_plan_id":"cebpf4jnsgd1na2vs0mg"},{"bike_id":"5e8d7edd-686c-4493-b9b9-8a077c418a2e","system_id":"levelo_inurba_marseille","lat":43.27201,"lon":5.39173,"is_reserved":false,"is_disabled":false,"rental_uris":{"android":"levelo://app?vid=5e8d7edd-686c-4493-b9b9-8a077c418a2e","ios":"levelo://app?vid=5e8d7edd-686c-4493-b9b9-8a077c418a2e"},"vehicle_type_id":"4","last_reported":1726330191,"current_range_meters":38800,"station_id":"ce4bhhp2rcd13ifvqfm0","pricing_plan_id":"cebpf4jnsgd1na2vs0mg"},