{"last_updated":1686485530,"ttl":30,"version":"2.2","data":{"bikes":[{"bike_id":"ee293979-5850-4c25-88b6-4f907fc06ee8","system_id":"levelo_inurba_marseille","lat":43.312239,"lon":5.368562,"is_reserved":false,"is_disabled":false,"rental_uris":{"android":"levelo://app?vid=ee293979-5850-4c25-88b6-4f907fc06ee8","ios":"levelo://app?vid=ee293979-5850-4c25-88b6-4f907fc06ee8"},"vehicle_type_id":"4","last_reported":1686485531,"current_range_meters":18000,"station_id":"ce4bgl92rcd13ifvqbq0","pricing_plan_id":"free"},{"bike_id":"e215e44b-264e-4626-ae88-2d3a12aefe09","system_id":"levelo_inurba_marseille","lat":43.309076,"lon":5.368465,"is_reserved":false,"is_disabled":false,"rental_uris":{"android":"levelo://app?vid=e215e44b-264e-4626-ae88-2d3a12aefe09","ios":"levelo://app?vid=e215e44b-264e-4626-ae88-2d3a12aefe09"},"vehicle_type_id":"4","last_reported":1686485531,"current_range_meters":9600,"station_id":"ce4bgn92rcd13ifvqbvg","pricing_plan_id":"free"},{"bike_id":"f390cb49-026b-42ed-bc12-07f66169d208","system_id":"levelo_inurba_marseille","lat":43.30911,"lon":5.36842,"is_reserved":false,"is_disabled":false,"rental_uris":{"android":"levelo://app?vid=f390cb49-026b-42ed-bc12-07f66169d208","ios":"levelo://app?vid=f390cb49-026b-42ed-bc12-07f66169d208"},"vehicle_type_id":"4","last_reported":1686485531,"current_range_meters":28000,"station_id":"ce4bgn92rcd13ifvqbvg","pricing_plan_id":"free"},{"bike_id":"8c9ddf23-33e2-41f5-82c7-ddc191677abb","system_id":"levelo_inurba_marseille","lat":43.31497,"lon":5.37293,"is_reserved":false,"is_disabled":false,"rental_uris":{"android":"levelo://app?vid=8c9ddf23-33e2-41f5-82c7-ddc191677abb","ios":"levelo://app?vid=8c9ddf23-33e2-41f5-82c7-ddc191677abb"},"vehicle_type_id":"4","last_reported":1686485531,"current_range_meters":25600,"station_id":"ce4bgt12rcd13ifvqcd0","pricing_plan_id":"free"},{"bike_id":"053ef661-7e85-4b88-bde5-53d1afbe06bb","system_id":"levelo_inurba_marseille","lat":43.314811,"lon":5.373104,"is_reserved":false,"is_disabled":false,"rental_uris":{"android":"levelo://app?vid=053ef661-7e85-4b88-bde5-53d1afbe06bb","ios":"levelo://app?vid=053ef661-7e85-4b88-bde5-53d1afbe06bb"},"vehicle_type_id":"4","last_reported":1686485531,"current_range_meters":31200,"station_id":"ce4bgt12rcd13ifvqcd0","pricing_plan_id":"free"},{"bike_id":"d067d1c3-067f-4bdc-a408-96456bef36f5","system_id":"levelo_inurba_marseille","lat":43.309,"lon":5.37196,"is_reserved":false,"is_disabled":false,"rental_uris":{"android":"levelo://app?vid=d067d1c3-067f-4bdc-a408-96456bef36f5","ios":"levelo://app?vid=d067d1c3-067f-4bdc-a408-96456bef36f5"},"vehicle_type_id":"4","last_reported":1686485531,"current_range_meters":19600,"station_id":"","pricing_plan_id":"free"},{"bike_id":"1015c9d5-058e-406d-b15c-0ab9aaea2f34","system_id":"levelo_inurba_marseille","lat":43.30887,"lon":5.37199,"is_reserved":false,"is_disabled":false,"rental_uris":{"android":"levelo://app?vid=1015c9d5-058e-406d-b15c-0ab9aaea2f34","ios":"levelo://app?vid=1015c9d5-058e-406d-b15c-0ab9aaea2f34"},"vehicle_type_id":"4","last_reported":1686485531,"current_range_meters":31200,"station_id":"","pricing_plan_id":"free"},{"bike_id":"726e69fe-0789-44cc-8872-aafade0684ce","system_id":"levelo_inurba_marseille","lat":43.306,"lon":5.36574,"is_reserved":false,"is_disabled":false,"rental_uris":{"android":"levelo://app?vid=726e69fe-0789-44cc-8872-aafade0684ce","ios":"levelo://app?vid=726e69fe-0789-44cc-8872-aafade0684ce"},"vehicle_type_id":"4","last_reported":1686485531,"current_range_meters":4800,"station_id":"","pricing_plan_id":"free"},{"bike_id":"27586825-e145-45b9-a2d4-4e858edd4da7","system_id":"levelo_inurba_marseille","lat":43.305498,"lon":5.367421,"is_reserved":false,"is_disabled":false,"rental_uris":{"android":"levelo://app?vid=27586825-e145-45b9-a2d4-4e858edd4da7","ios":"levelo://app?vid=27586825-e145-45b9-a2d4-4e858edd4da7"},"vehicle_type_id":"4","last_reported":1686485531,"current_range_meters":22400,"station_id":"ce4bgrp2rcd13ifvqc9g","pricing_plan_id":"free"},{"bike_id":"95a648e0-1557-4a5e-a3d1-ead6c534ef8c","system_id":"levelo_inurba_marseille","lat":43.305714,"lon":5.365633,"is_reserved":false,"is_disabled":false,"rental_uris":{"android":"levelo://app?vid=95a648e0-1557-4a5e-a3d1-ead6c534ef8c","ios":"levelo://app?vid=95a648e0-1557-4a5e-a3d1-ead6c534ef8c"},"vehicle_type_id":"4","last_reported":1686485531,"current_range_meters":18400,"station_id":"ce4bgs12rcd13ifvqcag","pricing_plan_id":"free"},{"bike_id":"5888fd16-ffdf-46ed-9591-d165d3864a32","system_id":"levelo_inurba_marseille","lat":43.3054,"lon":5.36565,"is_reserved":false,"is_disabled":false,"rental_uris":{"android":"levelo://app?vid=5888fd16-ffdf-46ed-9591-d165d3864a32","ios":"levelo://app?vid=5888fd16-ffdf-46ed-9591-d165d3864a32"},"vehicle_type_id":"4","last_reported":1686485531,"current_range_meters":6000,"station_id":"","pricing_plan_id":"free"},{"bike_id":"900dffac-aa8c-40cd-8552-c0c5343032c5","system_id":"levelo_inurba_marseille","lat":43.305714,"lon":5.365633,"is_reserved":false,"is_disabled":false,"rental_uris":{"android":"levelo://app?vid=900dffac-aa8c-40cd-8552-c0c5343032c5","ios":"levelo://app?vid=900dffac-aa8c-40cd-8552-c0c5343032c5"},"vehicle_type_id":"4","last_reported":1686485531,"current_range_meters":6400,"station_id":"ce4bgs12rcd13ifvqcag","pricing_plan_id":"free"},{"bike_id":"db9de36b-6c43-4082-9498-ca4d68d42aa1","system_id":"levelo_inurba_marseille","lat":43.30521,"lon":5.36719,"is_reserved":false,"is_disabled":false,"rental_uris":{"android":"levelo://app?vid=db9de36b-6c43-4082-9498-ca4d68d42aa1","ios":"levelo://app?vid=db9de36b-6c43-4082-9498-ca4d68d42aa1"},"vehicle_type_id":"4","last_reported":1686485531,"current_range_meters":19200,"station_id":"ce4bgrp2rcd13ifvqc9g","pricing_plan_id":"free"},{"bike_id":"e69d499b-a6fb-4022-9f16-065a783c6a79","system_id":"levelo_inurba_marseille","lat":43.30524,"lon":5.36554,"is_reserved":false,"is_disabled":false,"rental_uris":{"android":"levelo://app?vid=e69d499b-a6fb-4022-9f16-065a783c6a79","ios":"levelo://app?vid=e69d499b-a6fb-4022-9f16-065a783c6a79"},"vehicle_type_id":"4","last_reported":1686485531,"current_range_meters":29200,"station_id":"","pricing_plan_id":"free"},{"bike_id":"efaa7891-f548-4a3a-a853-edc63bb9a7a5","system_id":"levelo_inurba_marseille","lat":43.30513,"lon":5.36542,"is_reserved":false,"is_disabled":false,"rental_uris":{"android":"levelo://app?vid=efaa7891-f548-4a3a-a853-edc63bb9a7a5","ios":"levelo://app?vid=efaa7891-f548-4a3a-a853-edc63bb9a7a5"},"vehicle_type_id":"4","last_reported":1686485531,"current_range_meters":14000,"station_id":"","pricing_plan_id":"free"},{"bike_id":"ae27bfa3-101b-4772-871a-388a18fabc9e","system_id":"levelo_inurba_marseille","lat":43.305989,"lon":5.37225,"is_reserved":false,"is_disabled":false,"rental_uris":{"android":"levelo://app?vid=ae27bfa3-101b-4772-871a-388a18fabc9e","ios":"levelo://app?vid=ae27bfa3-101b-4772-871a-388a18fabc9e"},"vehicle_type_id":"4","last_reported":1686485531,"current_range_meters":7200,"station_id":"ce4bgqh2rcd13ifvqc4g","pricing_plan_id":"free"},{"bike_id":"3d071450-2c39-46da-8526-49f83be4b313","system_id":"levelo_inurba_marseille","lat":43.31111,"lon":5.37773,"is_reserved":false,"is_disabled":false,"rental_uris":{"android":"levelo://app?vid=3d071450-2c39-46da-8526-49f83be4b313","ios":"levelo://app?vid=3d071450-2c39-46da-8526-49f83be4b313"},"vehicle_type_id":"4","last_reported":1686485531,"current_range_meters":26400,"station_id":"ce4bgt92rcd13ifvqcg0","pricing_plan_id":"free"},{"bike_id":"253b0973-b521-4a87-b593-5138356ce3df","system_id":"levelo_inurba_marseille","lat":43.317075,"lon":5.377367,"is_reserved":false,"is_disabled":false,"rental_uris":{"android":"levelo://app?vid=253b0973-b521-4a87-b593-5138356ce3df","ios":"levelo://app?vid=253b0973-b521-4a87-b593-5138356ce3df"},"vehicle_type_id":"4","last_reported":1686485531,"current_range_meters":27200,"station_id":"ce4bgth2rcd13ifvqch0","pricing_plan_id":"free"},{"bike_id":"cd18ccbf-25e0-4270-90e3-3ed6654d38d0","system_id":"levelo_inurba_marseille","lat":43.31562,"lon":5.38026,"is_reserved":false,"is_disabled":false,"rental_uris":{"android":"levelo://app?vid=cd18ccbf-25e0-4270-90e3-3ed6654d38d0","ios":"levelo://app?vid=cd18ccbf-25e0-4270-90e3-3ed6654d38d0"},"vehicle_type_id":"4","last_reported":1686485531,"current_range_meters":800,"station_id":"","pricing_plan_id":"free"},{"bike_id":"1705466c-3d22-4e0f-b265-cc36254aea3f","system_id":"levelo_inurba_marseille","lat":43.315293,"lon":5.380349,"is_reserved":false,"is_disabled":false,"rental_uris":{"android":"levelo://app?vid=1705466c-3d22-4e0f-b265-cc36254aea3f","ios":"levelo://app?vid=1705466c-3d22-4e0f-b265-cc36254aea3f"},"vehicle_type_id":"4","last_reported":1686485531,"current_range_meters":4800,"station_id":"ce4bhsp2rcd13ifvqi50","pricing_plan_id":"free"},{"bike_id":"ef91701d-02cf-40d0-b383-8f70f3f1119f","system_id":"levelo_inurba_marseille","lat":43.315293,"lon":5.380349,"is_reserved":false,"is_disabled":false,"rental_uris":{"android":"levelo://app?vid=ef91701d-02cf-40d0-b383-8f70f3f1119f","ios":"levelo://app?vid=ef91701d-02cf-40d0-b383-8f70f3f1119f"},"vehicle_type_id":"4","last_reported":1686485531,"current_range_meters":21600,"station_id":"ce4bhsp2rcd13ifvqi50","pricing_plan_id":"free"},{"bike_id":"65d026d0-d345-4cdd-b786-d26cdcb7c214","system_id":"levelo_inurba_marseille","lat":43.301939,"lon":5.366286,"is_reserved":false,"is_disabled":false,"rental_uris":{"android":"levelo://app?vid=65d026d0-d345-4cdd-b786-d26cdcb7c214","ios":"levelo://app?vid=65d026d0-d345-4cdd-b786-d26cdcb7c214"},"vehicle_type_id":"4","last_reported":1686485531,"current_range_meters":18800,"station_id":"ce4bgrh2rcd13ifvqc8g","pricing_plan_id":"free"},{"bike_id":"a0d66b3d-e43d-4f92-bf73-89aa725d825c","system_id":"levelo_inurba_marseille","lat":43.308012,"lon":5.381511,"is_reserved":false,"is_disabled":false,"rental_uris":{"android":"levelo://app?vid=a0d66b3d-e43d-4f92-bf73-89aa725d825c","ios":"levelo://app?vid=a0d66b3d-e43d-4f92-bf73-89aa725d825c"},"vehicle_type_id":"4","last_reported":1686485531,"current_range_meters":26000,"station_id":"ce4bgt12rcd13ifvqce0","pricing_plan_id":"free"},{"bike_id":"c9b830f5-63d9-4bb6-9876-3593a7bbb1f4","system_id":"levelo_inurba_marseille","lat":43.304606,"lon":5.379026,"is_reserved":false,"is_disabled":false,"rental_uris":{"android":"levelo://app?vid=c9b830f5-63d9-4bb6-9876-3593a7bbb1f4","ios":"levelo://app?vid=c9b830f5-63d9-4bb6-9876-3593a7bbb1f4"},"vehicle_type_id":"4","last_reported":1686485531,"current_range_meters":19600,"station_id":"ce4bgup2rcd13ifvqcn0","pricing_plan_id":"free"},{"bike_id":"c7a23466-f1bc-4103-b103-d8c493829236","system_id":"levelo_inurba_marseille","lat":43.30143,"lon":5.37413,"is_reserved":false,"is_disabled":false,"rental_uris":{"android":"levelo://app?vid=c7a23466-f1bc-4103-b103-d8c493829236","ios":"levelo://app?vid=c7a23466-f1bc-4103-b103-d8c493829236"},"vehicle_type_id":"4","last_reported":1686485531,"current_range_meters":27600,"station_id":"ce4bgs92rcd13ifvqcc0","pricing_plan_id":"free"},{"bike_id":"d96994b6-f517-4a4f-ba6d-71af7c05fd10","system_id":"levelo_inurba_marseille","lat":43.31961,"lon":5.38142,"is_reserved":false,"is_disabled":false,"rental_uris":{"android":"levelo://app?vid=d96994b6-f517-4a4f-ba6d-71af7c05fd10","ios":"levelo://app?vid=d96994b6-f517-4a4f-ba6d-71af7c05fd10"},"vehicle_type_id":"4","last_reported":1686485531,"current_range_meters":18800,"station_id":"ce4bhr12rcd13ifvqhpg","pricing_plan_id":"free"},{"bike_id":"11df4a94-deb8-4f6b-b538-b100724356dc","system_id":"levelo_inurba_marseille","lat":43.3199,"lon":5.38151,"is_reserved":false,"is_disabled":false,"rental_uris":{"android":"levelo://app?vid=11df4a94-deb8-4f6b-b538-b100724356dc","ios":"levelo://app?vid=11df4a94-deb8-4f6b-b538-b100724356dc"},"vehicle_type_id":"4","last_reported":1686485531,"current_range_meters":21600,"station_id":"ce4bhr12rcd13ifvqhpg","pricing_plan_id":"free"},{"bike_id":"6b2abb39-6736-4ec5-b63c-acfa22c3fa83","system_id":"levelo_inurba_marseille","lat":43.32,"lon":5.38155,"is_reserved":false,"is_disabled":false,"rental_uris":{"android":"levelo://app?vid=6b2abb39-6736-4ec5-b63c-acfa22c3fa83","ios":"levelo://app?vid=6b2abb39-6736-4ec5-b63c-acfa22c3fa83"},"vehicle_type_id":"4","last_reported":1686485531,"current_range_meters":0,"station_id":"ce4bhr12rcd13ifvqhpg","pricing_plan_id":"free"},{"bike_id":"eb4bb7ff-201a-4110-a910-e685cf7440d0","system_id":"levelo_inurba_marseille","lat":43.29847,"lon":5.36274,"is_reserved":false,"is_disabled":false,"rental_uris":{"android":"levelo://app?vid=eb4bb7ff-201a-4110-a910-e685cf7440d0","ios":"levelo://app?vid=eb4bb7ff-201a-4110-a910-e685cf7440d0"},"vehicle_type_id":"4","last_reported":1686485531,"current_range_meters":29200,"station_id":"ce4bgpp2rcd13ifvqc3g","pricing_plan_id":"free"},{"bike_id":"8dd0ae7d-4f13-49ee-a088-82fc2010a431","system_id":"levelo_inurba_marseille","lat":43.298405,"lon":5.362686,"is_reserved":false,"is_disabled":false,"rental_uris":{"android":"levelo://app?vid=8dd0ae7d-4f13-49ee-a088-82fc2010a431","ios":"levelo://app?vid=8dd0ae7d-4f13-49ee-a088-82fc2010a431"},"vehicle_type_id":"4","last_reported":1686485531,"current_range_meters":16400,"station_id":"ce4bgi92rcd13ifvqb90","pricing_plan_id":"free"},{"bike_id":"d719efc9-fa79-4bad-9edb-25b0c4dcbe83","system_id":"levelo_inurba_marseille","lat":43.297774,"lon":5.370875,"is_reserved":false,"is_disabled":false,"rental_uris":{"android":"levelo://app?vid=d719efc9-fa79-4bad-9edb-25b0c4dcbe83","ios":"levelo://app?vid=d719efc9-fa79-4bad-9edb-25b0c4dcbe83"},"vehicle_type_id":"4","last_reported":1686485531,"current_range_meters":19200,"station_id":"ce4bgop2rcd13ifvqc1g","pricing_plan_id":"free"},{"bike_id":"d2ee4f47-c99d-4207-bf1f-965db1bb1561","system_id":"levelo_inurba_marseille","lat":43.328371,"lon":5.366909,"is_reserved":false,"is_disabled":false,"rental_uris":{"android":"levelo://app?vid=d2ee4f47-c99d-4207-bf1f-965db1bb1561","ios":"levelo://app?vid=d2ee4f47-c99d-4207-bf1f-965db1bb1561"},"vehicle_type_id":"4","last_reported":1686485531,"current_range_meters":1600,"station_id":"ce4bhs92rcd13ifvqi0g","pricing_plan_id":"free"},{"bike_id":"e19f567c-0672-4765-92f5-675a90b790ab","system_id":"levelo_inurba_marseille","lat":43.328371,"lon":5.366909,"is_reserved":false,"is_disabled":false,"rental_uris":{"android":"levelo://app?vid=e19f567c-0672-4765-92f5-675a90b790ab","ios":"levelo://app?vid=e19f567c-0672-4765-92f5-675a90b790ab"},"vehicle_type_id":"4","last_reported":1686485531,"current_range_meters":26400,"station_id":"ce4bhs92rcd13ifvqi0g","pricing_plan_id":"free"},{"bike_id":"d96dcc96-ce3c-432f-8f37-1733de830b5a","system_id":"levelo_inurba_marseille","lat":43.328371,"lon":5.366909,"is_reserved":false,"is_disabled":false,"rental_uris":{"android":"levelo://app?vid=d96dcc96-ce3c-432f-8f37-1733de830b5a","ios":"levelo://app?vid=d96dcc96-ce3c-432f-8f37-1733de830b5a"},"vehicle_type_id":"4","last_reported":1686485531,"current_range_meters":27200,"station_id":"ce4bhs92rcd13ifvqi0g","pricing_plan_id":"free"},{"bike_id":"80522d63-c38b-48ba-b0a6-33b6f69e774e","system_id":"levelo_inurba_marseille","lat":43.328371,"lon":5.366909,"is_reserved":false,"is_disabled":false,"rental_uris":{"android":"levelo://app?vid=80522d63-c38b-48ba-b0a6-33b6f69e774e","ios":"levelo://app?vid=80522d63-c38b-48ba-b0a6-33b6f69e774e"},"vehicle_type_id":"4","last_reported":1686485531,"current_range_meters":21200,"station_id":"ce4bhs92rcd13ifvqi0g","pricing_plan_id":"free"},{"bike_id":"a4e710b9-5582-4414-ab20-57b598a360c9","system_id":"levelo_inurba_marseille","lat":43.328371,"lon":5.366909,"is_reserved":false,"is_disabled":false,"rental_uris":{"android":"levelo://app?vid=a4e710b9-5582-4414-ab20-57b598a360c9","ios":"levelo://app?vid=a4e710b9-5582-4414-ab20-57b598a360c9"},"vehicle_type_id":"4","last_reported":1686485531,"current_range_meters":31200,"station_id":"ce4bhs92rcd13ifvqi0g","pricing_plan_id":"free"},{"bike_id":"646e9ad8-7b91-4157-a6bc-9b5f2ad20d49","system_id":"levelo_inurba_marseille","lat":43.328371,"lon":5.366912,"is_reserved":false,"is_disabled":false,"rental_uris":{"android":"levelo://app?vid=646e9ad8-7b91-4157-a6bc-9b5f2ad20d49","ios":"levelo://app?vid=646e9ad8-7b91-4157-a6bc-9b5f2ad20d49"},"vehicle_type_id":"4","last_reported":1686485531,"current_range_meters":3200,"station_id":"ce4bhs92rcd13ifvqi0g","pricing_plan_id":"free"},{"bike_id":"a0565906-42fe-436f-8a68-dac07fb0f6a4","system_id":"levelo_inurba_marseille","lat":43.328371,"lon":5.366912,"is_reserved":false,"is_disabled":false,"rental_uris":{"android":"levelo://app?vid=a0565906-42fe-436f-8a68-dac07fb0f6a4","ios":"levelo://app?vid=a0565906-42fe-436f-8a68-dac07fb0f6a4"},"vehicle_type_id":"4","last_reported":1686485531,"current_range_meters":24800,"station_id":"ce4bhs92rcd13ifvqi0g","pricing_plan_id":"free"},{"bike_id":"de9f7076-b0eb-4889-a66f-ae231462a68e","system_id":"levelo_inurba_marseille","lat":43.29573,"lon":5.367355,"is_reserved":false,"is_disabled":false,"rental_uris":{"android":"levelo://app?vid=de9f7076-b0eb-4889-a66f-ae231462a68e","ios":"levelo://app?vid=de9f7076-b0eb-4889-a66f-ae231462a68e"},"vehicle_type_id":"4","last_reported":1686485531,"current_range_meters":15200,"station_id":"ce4bgph2rcd13ifvqc2g","pricing_plan_id":"free"},{"bike_id":"9bb5d425-142b-404d-afa4-b7dd5824d810","system_id":"levelo_inurba_marseille","lat":43.29573,"lon":5.367355,"is_reserved":false,"is_disabled":false,"rental_uris":{"android":"levelo://app?vid=9bb5d425-142b-404d-afa4-b7dd5824d810","ios":"levelo://app?vid=9bb5d425-142b-404d-afa4-b7dd5824d810"},"vehicle_type_id":"4","last_reported":1686485531,"current_range_meters":26800,"station_id":"ce4bgph2rcd13ifvqc2g","pricing_plan_id":"free"},{"bike_id":"6153ee34-6c4b-454a-8a91-3f51543e0e76","system_id":"levelo_inurba_marseille","lat":43.29573,"lon":5.367355,"is_reserved":false,"is_disabled":false,"rental_uris":{"android":"levelo://app?vid=6153ee34-6c4b-454a-8a91-3f51543e0e76","ios":"levelo://app?vid=6153ee34-6c4b-454a-8a91-3f51543e0e76"},"vehicle_type_id":"4","last_reported":1686485531,"current_range_meters":20800,"station_id":"ce4bgph2rcd13ifvqc2g","pricing_plan_id":"free"},{"bike_id":"74b7f9f1-7aac-4d84-81df-e5ce3a851b61","system_id":"levelo_inurba_marseille","lat":43.29573,"lon":5.367355,"is_reserved":false,"is_disabled":false,"rental_uris":{"android":"levelo://app?vid=74b7f9f1-7aac-4d84-81df-e5ce3a851b61","ios":"levelo://app?vid=74b7f9f1-7aac-4d84-81df-e5ce3a851b61"},"vehicle_type_id":"4","last_reported":1686485531,"current_range_meters":28000,"station_id":"ce4bgph2rcd13ifvqc2g","pricing_plan_id":"free"},{"bike_id":"ff9f71fd-b6aa-472d-bfbf-54a706c3f72e","system_id":"levelo_inurba_marseille","lat":43.299028,"lon":5.381509,"is_reserved":false,"is_disabled":false,"rental_uris":{"android":"levelo://app?vid=ff9f71fd-b6aa-472d-bfbf-54a706c3f72e","ios":"levelo://app?vid=ff9f71fd-b6aa-472d-bfbf-54a706c3f72e"},"vehicle_type_id":"4","last_reported":1686485531,"current_range_meters":5200,"station_id":"ce4bgj12rcd13ifvqbc0","pricing_plan_id":"free"},{"bike_id":"fd5fbbe8-18f3-433f-8737-ff311c4b1b63","system_id":"levelo_inurba_marseille","lat":43.317557,"lon":5.390173,"is_reserved":false,"is_disabled":false,"rental_uris":{"android":"levelo://app?vid=fd5fbbe8-18f3-433f-8737-ff311c4b1b63","ios":"levelo://app?vid=fd5fbbe8-18f3-433f-8737-ff311c4b1b63"},"vehicle_type_id":"4","last_reported":1686485531,"current_range_meters":20000,"station_id":"ce4bhqp2rcd13ifvqhng","pricing_plan_id":"free"},{"bike_id":"bb7cf303-f685-4035-b25a-641675fef0c8","system_id":"levelo_inurba_marseille","lat":43.317557,"lon":5.390173,"is_reserved":false,"is_disabled":false,"rental_uris":{"android":"levelo://app?vid=bb7cf303-f685-4035-b25a-641675fef0c8","ios":"levelo://app?vid=bb7cf303-f685-4035-b25a-641675fef0c8"},"vehicle_type_id":"4","last_reported":1686485531,"current_range_meters":21600,"station_id":"ce4bhqp2rcd13ifvqhng","pricing_plan_id":"free"},{"bike_id":"8179fcb8-8d6d-4468-96e6-a4049e79d02a","system_id":"levelo_inurba_marseille","lat":43.298037,"lon":5.381066,"is_reserved":false,"is_disabled":false,"rental_uris":{"android":"levelo://app?vid=8179fcb8-8d6d-4468-96e6-a4049e79d02a","ios":"levelo://app?vid=8179fcb8-8d6d-4468-96e6-a4049e79d02a"},"vehicle_type_id":"4","last_reported":1686485531,"current_range_meters":29600,"station_id":"ce4bgip2rcd13ifvqbb0","pricing_plan_id":"free"},{"bike_id":"ea29d2dc-feca-4570-a61b-3341b476d475","system_id":"levelo_inurba_marseille","lat":43.323667,"lon":5.388847,"is_reserved":false,"is_disabled":false,"rental_uris":{"android":"levelo://app?vid=ea29d2dc-feca-4570-a61b-3341b476d475","ios":"levelo://app?vid=ea29d2dc-feca-4570-a61b-3341b476d475"},"vehicle_type_id":"4","last_reported":1686485531,"current_range_meters":12800,"station_id":"ce4bhqp2rcd13ifvqhog","pricing_plan_id":"free"},{"bike_id":"c65e8f72-e0e0-41a2-960a-ecfcb3171644","system_id":"levelo_inurba_marseille","lat":43.29601,"lon":5.381084,"is_reserved":false,"is_disabled":false,"rental_uris":{"android":"levelo://app?vid=c65e8f72-e0e0-41a2-960a-ecfcb3171644","ios":"levelo://app?vid=c65e8f72-e0e0-41a2-960a-ecfcb3171644"},"vehicle_type_id":"4","last_reported":1686485531,"current_range_meters":29600,"station_id":"ce4bgl12rcd13ifvqbo0","pricing_plan_id":"free"},{"bike_id":"b3527424-657f-4bde-abdf-dfa37e91865d","system_id":"levelo_inurba_marseille","lat":43.292749,"lon":5.368398,"is_reserved":false,"is_disabled":false,"rental_uris":{"android":"levelo://app?vid=b3527424-657f-4bde-abdf-dfa37e91865d","ios":"levelo://app?vid=b3527424-657f-4bde-abdf-dfa37e91865d"},"vehicle_type_id":"4","last_reported":1686485531,"current_range_meters":18000,"station_id":"ce4bhbp2rcd13ifvqesg","pricing_plan_id":"free"},{"bike_id":"83563e55-103b-405a-ba1e-fdd3413ae2bb","system_id":"levelo_inurba_marseille","lat":43.305994,"lon":5.393687,"is_reserved":false,"is_disabled":false,"rental_uris":{"android":"levelo://app?vid=83563e55-103b-405a-ba1e-fdd3413ae2bb","ios":"levelo://app?vid=83563e55-103b-405a-ba1e-fdd3413ae2bb"},"vehicle_type_id":"4","last_reported":1686485531,"current_range_meters":22800,"station_id":"ce4bh0p2rcd13ifvqd80","pricing_plan_id":"free"},{"bike_id":"5f250edc-75e3-4d99-bd34-d37983e286c0","system_id":"levelo_inurba_marseille","lat":43.303002,"lon":5.392142,"is_reserved":false,"is_disabled":false,"rental_uris":{"android":"levelo://app?vid=5f250edc-75e3-4d99-bd34-d37983e286c0","ios":"levelo://app?vid=5f250edc-75e3-4d99-bd34-d37983e286c0"},"vehicle_type_id":"4","last_reported":1686485531,"current_range_meters":800,"station_id":"ce4bgkh2rcd13ifvqbk0","pricing_plan_id":"free"},{"bike_id":"61e4ccfd-dc98-4837-8123-2dfa5e087f42","system_id":"levelo_inurba_marseille","lat":43.293723,"lon":5.378443,"is_reserved":false,"is_disabled":false,"rental_uris":{"android":"levelo://app?vid=61e4ccfd-dc98-4837-8123-2dfa5e087f42","ios":"levelo://app?vid=61e4ccfd-dc98-4837-8123-2dfa5e087f42"},"vehicle_type_id":"4","last_reported":1686485531,"current_range_meters":0,"station_id":"","pricing_plan_id":"free"},{"bike_id":"8fa9acb8-5712-41d0-a3b6-19af5a0bdb03","system_id":"levelo_inurba_marseille","lat":43.29377,"lon":5.37863,"is_reserved":false,"is_disabled":false,"rental_uris":{"android":"levelo://app?vid=8fa9acb8-5712-41d0-a3b6-19af5a0bdb03","ios":"levelo://app?vid=8fa9acb8-5712-41d0-a3b6-19af5a0bdb03"},"vehicle_type_id":"4","last_reported":1686485531,"current_range_meters":13600,"station_id":"","pricing_plan_id":"free"},{"bike_id":"319421d1-0a77-46da-b134-bba23cabe2b6","system_id":"levelo_inurba_marseille","lat":43.31357,"lon":5.39684,"is_reserved":false,"is_disabled":false,"rental_uris":{"android":"levelo://app?vid=319421d1-0a77-46da-b134-bba23cabe2b6","ios":"levelo://app?vid=319421d1-0a77-46da-b134-bba23cabe2b6"},"vehicle_type_id":"4","last_reported":1686485531,"current_range_meters":0,"station_id":"","pricing_plan_id":"free"},{"bike_id":"6fb4443e-7ca7-4ae8-a0bf-9453d1b8d58e","system_id":"levelo_inurba_marseille","lat":43.313291,"lon":5.396838,"is_reserved":false,"is_disabled":false,"rental_uris":{"android":"levelo://app?vid=6fb4443e-7ca7-4ae8-a0bf-9453d1b8d58e","ios":"levelo://app?vid=6fb4443e-7ca7-4ae8-a0bf-9453d1b8d58e"},"vehicle_type_id":"4","last_reported":1686485531,"current_range_meters":5200,"station_id":"ce4bgvp2rcd13ifvqcu0","pricing_plan_id":"free"},{"bike_id":"15ae3832-5960-47e1-a419-8547c5fab046","system_id":"levelo_inurba_marseille","lat":43.29529,"lon":5.385581,"is_reserved":false,"is_disabled":false,"rental_uris":{"android":"levelo://app?vid=15ae3832-5960-47e1-a419-8547c5fab046","ios":"levelo://app?vid=15ae3832-5960-47e1-a419-8547c5fab046"},"vehicle_type_id":"4","last_reported":1686485531,"current_range_meters":22000,"station_id":"ce4bgih2rcd13ifvqba0","pricing_plan_id":"free"},{"bike_id":"51008364-605a-4dfe-9596-23db0713b1ac","system_id":"levelo_inurba_marseille","lat":43.290755,"lon":5.371621,"is_reserved":false,"is_disabled":false,"rental_uris":{"android":"levelo://app?vid=51008364-605a-4dfe-9596-23db0713b1ac","ios":"levelo://app?vid=51008364-605a-4dfe-9596-23db0713b1ac"},"vehicle_type_id":"4","last_reported":1686485531,"current_range_meters":21200,"station_id":"","pricing_plan_id":"free"},{"bike_id":"5db8a9c7-5b2b-4451-9c2a-c7606967fec8","system_id":"levelo_inurba_marseille","lat":43.294153,"lon":5.386305,"is_reserved":false,"is_disabled":false,"rental_uris":{"android":"levelo://app?vid=5db8a9c7-5b2b-4451-9c2a-c7606967fec8","ios":"levelo://app?vid=5db8a9c7-5b2b-4451-9c2a-c7606967fec8"},"vehicle_type_id":"4","last_reported":1686485531,"current_range_meters":0,"station_id":"ce4bh2h2rcd13ifvqdh0","pricing_plan_id":"free"},{"bike_id":"ee6f7426-13fe-4aaa-aecc-30052929731c","system_id":"levelo_inurba_marseille","lat":43.28947,"lon":5.36637,"is_reserved":false,"is_disabled":false,"rental_uris":{"android":"levelo://app?vid=ee6f7426-13fe-4aaa-aecc-30052929731c","ios":"levelo://app?vid=ee6f7426-13fe-4aaa-aecc-30052929731c"},"vehicle_type_id":"4","last_reported":1686485531,"current_range_meters":23600,"station_id":"","pricing_plan_id":"free"},{"bike_id":"86fdef05-d6ab-43d3-a400-1b8428bcb92b","system_id":"levelo_inurba_marseille","lat":43.289184,"lon":5.366408,"is_reserved":false,"is_disabled":false,"rental_uris":{"android":"levelo://app?vid=86fdef05-d6ab-43d3-a400-1b8428bcb92b","ios":"levelo://app?vid=86fdef05-d6ab-43d3-a400-1b8428bcb92b"},"vehicle_type_id":"4","last_reported":1686485531,"current_range_meters":16400,"station_id":"ce4bhap2rcd13ifvqek0","pricing_plan_id":"free"},{"bike_id":"acfe58cf-da15-48ff-8b04-800ac17d6448","system_id":"levelo_inurba_marseille","lat":43.289184,"lon":5.366408,"is_reserved":false,"is_disabled":false,"rental_uris":{"android":"levelo://app?vid=acfe58cf-da15-48ff-8b04-800ac17d6448","ios":"levelo://app?vid=acfe58cf-da15-48ff-8b04-800ac17d6448"},"vehicle_type_id":"4","last_reported":1686485531,"current_range_meters":6000,"station_id":"ce4bhap2rcd13ifvqek0","pricing_plan_id":"free"},{"bike_id":"c9ed2382-d98c-4db1-a85f-1e095076b8a6","system_id":"levelo_inurba_marseille","lat":43.294032,"lon":5.386342,"is_reserved":false,"is_disabled":false,"rental_uris":{"android":"levelo://app?vid=c9ed2382-d98c-4db1-a85f-1e095076b8a6","ios":"levelo://app?vid=c9ed2382-d98c-4db1-a85f-1e095076b8a6"},"vehicle_type_id":"4","last_reported":1686485531,"current_range_meters":20000,"station_id":"","pricing_plan_id":"free"},{"bike_id":"4c011a41-2bee-4758-8123-ccb5445c0d40","system_id":"levelo_inurba_marseille","lat":43.292642,"lon":5.384254,"is_reserved":false,"is_disabled":false,"rental_uris":{"android":"levelo://app?vid=4c011a41-2bee-4758-8123-ccb5445c0d40","ios":"levelo://app?vid=4c011a41-2bee-4758-8123-ccb5445c0d40"},"vehicle_type_id":"4","last_reported":1686485531,"current_range_meters":17200,"station_id":"ce4bh692rcd13ifvqea0","pricing_plan_id":"free"},{"bike_id":"d1624815-36f7-4578-832b-2045c7b4b3c5","system_id":"levelo_inurba_marseille","lat":43.292642,"lon":5.384254,"is_reserved":false,"is_disabled":false,"rental_uris":{"android":"levelo://app?vid=d1624815-36f7-4578-832b-2045c7b4b3c5","ios":"levelo://app?vid=d1624815-36f7-4578-832b-2045c7b4b3c5"},"vehicle_type_id":"4","last_reported":1686485531,"current_range_meters":20000,"station_id":"ce4bh692rcd13ifvqea0","pricing_plan_id":"free"},{"bike_id":"4377dcd6-98ee-4ec2-afb7-10b1e3a18b38","system_id":"levelo_inurba_marseille","lat":43.3304,"lon":5.38917,"is_reserved":false,"is_disabled":false,"rental_uris":{"android":"levelo://app?vid=4377dcd6-98ee-4ec2-afb7-10b1e3a18b38","ios":"levelo://app?vid=4377dcd6-98ee-4ec2-afb7-10b1e3a18b38"},"vehicle_type_id":"4","last_reported":1686485531,"current_range_meters":20400,"station_id":"ce4bhr92rcd13ifvqhrg","pricing_plan_id":"free"},{"bike_id":"791edcab-44f2-4826-bf51-ee66af80f2ec","system_id":"levelo_inurba_marseille","lat":43.33042,"lon":5.38916,"is_reserved":false,"is_disabled":false,"rental_uris":{"android":"levelo://app?vid=791edcab-44f2-4826-bf51-ee66af80f2ec","ios":"levelo://app?vid=791edcab-44f2-4826-bf51-ee66af80f2ec"},"vehicle_type_id":"4","last_reported":1686485531,"current_range_meters":24800,"station_id":"ce4bhr92rcd13ifvqhrg","pricing_plan_id":"free"},{"bike_id":"eda3c187-b5c7-45a1-8fa2-10ec7822cc95","system_id":"levelo_inurba_marseille","lat":43.33042,"lon":5.38918,"is_reserved":false,"is_disabled":false,"rental_uris":{"android":"levelo://app?vid=eda3c187-b5c7-45a1-8fa2-10ec7822cc95","ios":"levelo://app?vid=eda3c187-b5c7-45a1-8fa2-10ec7822cc95"},"vehicle_type_id":"4","last_reported":1686485531,"current_range_meters":25600,"station_id":"ce4bhr92rcd13ifvqhrg","pricing_plan_id":"free"},{"bike_id":"64f81127-7584-4d13-8c2b-ddb58f27fb4c","system_id":"levelo_inurba_marseille","lat":43.33043,"lon":5.38917,"is_reserved":false,"is_disabled":false,"rental_uris":{"android":"levelo://app?vid=64f81127-7584-4d13-8c2b-ddb58f27fb4c","ios":"levelo://app?vid=64f81127-7584-4d13-8c2b-ddb58f27fb4c"},"vehicle_type_id":"4","last_reported":1686485531,"current_range_meters":25200,"station_id":"ce4bhr92rcd13ifvqhrg","pricing_plan_id":"free"},{"bike_id":"aecd6acc-1421-4abc-b572-d3e592e8eeb1","system_id":"levelo_inurba_marseille","lat":43.290104,"lon":5.356111,"is_reserved":false,"is_disabled":false,"rental_uris":{"android":"levelo://app?vid=aecd6acc-1421-4abc-b572-d3e592e8eeb1","ios":"levelo://app?vid=aecd6acc-1421-4abc-b572-d3e592e8eeb1"},"vehicle_type_id":"4","last_reported":1686485531,"current_range_meters":2800,"station_id":"ce4bhb92rcd13ifvqen0","pricing_plan_id":"free"},{"bike_id":"e9170bf1-c1d4-4557-956e-3de979f19338","system_id":"levelo_inurba_marseille","lat":43.290057,"lon":5.356213,"is_reserved":false,"is_disabled":false,"rental_uris":{"android":"levelo://app?vid=e9170bf1-c1d4-4557-956e-3de979f19338","ios":"levelo://app?vid=e9170bf1-c1d4-4557-956e-3de979f19338"},"vehicle_type_id":"4","last_reported":1686485531,"current_range_meters":8800,"station_id":"","pricing_plan_id":"free"},{"bike_id":"c4a70924-50ca-48f6-be6f-388b7cf78ab7","system_id":"levelo_inurba_marseille","lat":43.33044,"lon":5.38919,"is_reserved":false,"is_disabled":false,"rental_uris":{"android":"levelo://app?vid=c4a70924-50ca-48f6-be6f-388b7cf78ab7","ios":"levelo://app?vid=c4a70924-50ca-48f6-be6f-388b7cf78ab7"},"vehicle_type_id":"4","last_reported":1686485531,"current_range_meters":25200,"station_id":"ce4bhr92rcd13ifvqhrg","pricing_plan_id":"free"},{"bike_id":"04bf548d-fbde-4fd0-8951-4981764fbf55","system_id":"levelo_inurba_marseille","lat":43.33044,"lon":5.38922,"is_reserved":false,"is_disabled":false,"rental_uris":{"android":"levelo://app?vid=04bf548d-fbde-4fd0-8951-4981764fbf55","ios":"levelo://app?vid=04bf548d-fbde-4fd0-8951-4981764fbf55"},"vehicle_type_id":"4","last_reported":1686485531,"current_range_meters":18800,"station_id":"ce4bhr92rcd13ifvqhrg","pricing_plan_id":"free"},{"bike_id":"fba67cf1-df8b-4aad-a0d4-6405ce89ef94","system_id":"levelo_inurba_marseille","lat":43.309371,"lon":5.401449,"is_reserved":false,"is_disabled":false,"rental_uris":{"android":"levelo://app?vid=fba67cf1-df8b-4aad-a0d4-6405ce89ef94","ios":"levelo://app?vid=fba67cf1-df8b-4aad-a0d4-6405ce89ef94"},"vehicle_type_id":"4","last_reported":1686485531,"current_range_meters":15600,"station_id":"ce4bgvp2rcd13ifvqct0","pricing_plan_id":"free"},{"bike_id":"c4b2f1ef-4110-4e04-ac37-5229d56748ba","system_id":"levelo_inurba_marseille","lat":43.309371,"lon":5.401449,"is_reserved":false,"is_disabled":false,"rental_uris":{"android":"levelo://app?vid=c4b2f1ef-4110-4e04-ac37-5229d56748ba","ios":"levelo://app?vid=c4b2f1ef-4110-4e04-ac37-5229d56748ba"},"vehicle_type_id":"4","last_reported":1686485531,"current_range_meters":2400,"station_id":"ce4bgvp2rcd13ifvqct0","pricing_plan_id":"free"},{"bike_id":"265c0905-166c-408b-8d33-95a8e86424e1","system_id":"levelo_inurba_marseille","lat":43.337582,"lon":5.374483,"is_reserved":false,"is_disabled":false,"rental_uris":{"android":"levelo://app?vid=265c0905-166c-408b-8d33-95a8e86424e1","ios":"levelo://app?vid=265c0905-166c-408b-8d33-95a8e86424e1"},"vehicle_type_id":"4","last_reported":1686485531,"current_range_meters":12800,"station_id":"","pricing_plan_id":"free"},{"bike_id":"dc03ba51-5d22-4ed9-b3ed-9499a80f6bd0","system_id":"levelo_inurba_marseille","lat":43.33761,"lon":5.37454,"is_reserved":false,"is_disabled":false,"rental_uris":{"android":"levelo://app?vid=dc03ba51-5d22-4ed9-b3ed-9499a80f6bd0","ios":"levelo://app?vid=dc03ba51-5d22-4ed9-b3ed-9499a80f6bd0"},"vehicle_type_id":"4","last_reported":1686485531,"current_range_meters":31200,"station_id":"","pricing_plan_id":"free"},{"bike_id":"fb041ec1-b611-46eb-9d8b-3229cfb3396a","system_id":"levelo_inurba_marseille","lat":43.33768,"lon":5.37459,"is_reserved":false,"is_disabled":false,"rental_uris":{"android":"levelo://app?vid=fb041ec1-b611-46eb-9d8b-3229cfb3396a","ios":"levelo://app?vid=fb041ec1-b611-46eb-9d8b-3229cfb3396a"},"vehicle_type_id":"4","last_reported":1686485531,"current_range_meters":20000,"station_id":"","pricing_plan_id":"free"},{"bike_id":"7b92bb4e-c37f-408a-b8c5-8d9651549545","system_id":"levelo_inurba_marseille","lat":43.33794,"lon":5.37429,"is_reserved":false,"is_disabled":false,"rental_uris":{"android":"levelo://app?vid=7b92bb4e-c37f-408a-b8c5-8d9651549545","ios":"levelo://app?vid=7b92bb4e-c37f-408a-b8c5-8d9651549545"},"vehicle_type_id":"4","last_reported":1686485531,"current_range_meters":20400,"station_id":"","pricing_plan_id":"free"},{"bike_id":"87969cb3-f203-477b-8f57-c5e54c4a2e1b","system_id":"levelo_inurba_marseille","lat":43.286039,"lon":5.370679,"is_reserved":false,"is_disabled":false,"rental_uris":{"android":"levelo://app?vid=87969cb3-f203-477b-8f57-c5e54c4a2e1b","ios":"levelo://app?vid=87969cb3-f203-477b-8f57-c5e54c4a2e1b"},"vehicle_type_id":"4","last_reported":1686485531,"current_range_meters":30400,"station_id":"ce4bht12rcd13ifvqi60","pricing_plan_id":"free"},{"bike_id":"573fe9f3-5956-4792-a450-2032a3bd7834","system_id":"levelo_inurba_marseille","lat":43.30061,"lon":5.39972,"is_reserved":false,"is_disabled":false,"rental_uris":{"android":"levelo://app?vid=573fe9f3-5956-4792-a450-2032a3bd7834","ios":"levelo://app?vid=573fe9f3-5956-4792-a450-2032a3bd7834"},"vehicle_type_id":"4","last_reported":1686485531,"current_range_meters":6400,"station_id":"","pricing_plan_id":"free"},{"bike_id":"db919b02-bc9e-4b33-a5b4-9732b427b713","system_id":"levelo_inurba_marseille","lat":43.286039,"lon":5.370679,"is_reserved":false,"is_disabled":false,"rental_uris":{"android":"levelo://app?vid=db919b02-bc9e-4b33-a5b4-9732b427b713","ios":"levelo://app?vid=db919b02-bc9e-4b33-a5b4-9732b427b713"},"vehicle_type_id":"4","last_reported":1686485531,"current_range_meters":31600,"station_id":"ce4bht12rcd13ifvqi60","pricing_plan_id":"free"},{"bike_id":"13dd4580-0c58-47a5-899b-b9a94ad5ef96","system_id":"levelo_inurba_marseille","lat":43.284534,"lon":5.358662,"is_reserved":false,"is_disabled":false,"rental_uris":{"android":"levelo://app?vid=13dd4580-0c58-47a5-899b-b9a94ad5ef96","ios":"levelo://app?vid=13dd4580-0c58-47a5-899b-b9a94ad5ef96"},"vehicle_type_id":"4","last_reported":1686485531,"current_range_meters":27600,"station_id":"ce4bhah2rcd13ifvqei0","pricing_plan_id":"free"},{"bike_id":"51523c6b-16ff-43b5-890b-2411c2ee3920","system_id":"levelo_inurba_marseille","lat":43.28621,"lon":5.35105,"is_reserved":false,"is_disabled":false,"rental_uris":{"android":"levelo://app?vid=51523c6b-16ff-43b5-890b-2411c2ee3920","ios":"levelo://app?vid=51523c6b-16ff-43b5-890b-2411c2ee3920"},"vehicle_type_id":"4","last_reported":1686485531,"current_range_meters":31200,"station_id":"","pricing_plan_id":"free"},{"bike_id":"a9c9e4c1-d724-4bd9-a696-0d3b92d7d4ab","system_id":"levelo_inurba_marseille","lat":43.28618,"lon":5.35112,"is_reserved":false,"is_disabled":false,"rental_uris":{"android":"levelo://app?vid=a9c9e4c1-d724-4bd9-a696-0d3b92d7d4ab","ios":"levelo://app?vid=a9c9e4c1-d724-4bd9-a696-0d3b92d7d4ab"},"vehicle_type_id":"4","last_reported":1686485531,"current_range_meters":19600,"station_id":"","pricing_plan_id":"free"},{"bike_id":"73619728-e6cb-41db-bd9c-0685bc274a6f","system_id":"levelo_inurba_marseille","lat":43.285856,"lon":5.350771,"is_reserved":false,"is_disabled":false,"rental_uris":{"android":"levelo://app?vid=73619728-e6cb-41db-bd9c-0685bc274a6f","ios":"levelo://app?vid=73619728-e6cb-41db-bd9c-0685bc274a6f"},"vehicle_type_id":"4","last_reported":1686485531,"current_range_meters":4800,"station_id":"ce4bhch2rcd13ifvqeug","pricing_plan_id":"free"},{"bike_id":"a01757e3-df67-4b12-9ed1-b716c2fa2a4c","system_id":"levelo_inurba_marseille","lat":43.296263,"lon":5.40601,"is_reserved":false,"is_disabled":false,"rental_uris":{"android":"levelo://app?vid=a01757e3-df67-4b12-9ed1-b716c2fa2a4c","ios":"levelo://app?vid=a01757e3-df67-4b12-9ed1-b716c2fa2a4c"},"vehicle_type_id":"4","last_reported":1686485531,"current_range_meters":21200,"station_id":"ce4bh0h2rcd13ifvqd60","pricing_plan_id":"free"},{"bike_id":"94783ff9-d63f-4314-a42f-617e764a1b17","system_id":"levelo_inurba_marseille","lat":43.28522,"lon":5.35028,"is_reserved":false,"is_disabled":false,"rental_uris":{"android":"levelo://app?vid=94783ff9-d63f-4314-a42f-617e764a1b17","ios":"levelo://app?vid=94783ff9-d63f-4314-a42f-617e764a1b17"},"vehicle_type_id":"4","last_reported":1686485531,"current_range_meters":10000,"station_id":"ce4bhbh2rcd13ifvqepg","pricing_plan_id":"free"},{"bike_id":"4f3e147b-3664-4e63-9785-404cf543262c","system_id":"levelo_inurba_marseille","lat":43.2832,"lon":5.37472,"is_reserved":false,"is_disabled":false,"rental_uris":{"android":"levelo://app?vid=4f3e147b-3664-4e63-9785-404cf543262c","ios":"levelo://app?vid=4f3e147b-3664-4e63-9785-404cf543262c"},"vehicle_type_id":"4","last_reported":1686485531,"current_range_meters":14800,"station_id":"","pricing_plan_id":"free"},{"bike_id":"7d89e3b5-958d-47f6-80fa-adc2175a1ff9","system_id":"levelo_inurba_marseille","lat":43.323464,"lon":5.406297,"is_reserved":false,"is_disabled":false,"rental_uris":{"android":"levelo://app?vid=7d89e3b5-958d-47f6-80fa-adc2175a1ff9","ios":"levelo://app?vid=7d89e3b5-958d-47f6-80fa-adc2175a1ff9"},"vehicle_type_id":"4","last_reported":1686485531,"current_range_meters":27600,"station_id":"ce4bhq92rcd13ifvqhjg","pricing_plan_id":"free"},{"bike_id":"ae232d39-b160-410f-a53c-e104a0631f2e","system_id":"levelo_inurba_marseille","lat":43.323464,"lon":5.406297,"is_reserved":false,"is_disabled":false,"rental_uris":{"android":"levelo://app?vid=ae232d39-b160-410f-a53c-e104a0631f2e","ios":"levelo://app?vid=ae232d39-b160-410f-a53c-e104a0631f2e"},"vehicle_type_id":"4","last_reported":1686485531,"current_range_meters":31200,"station_id":"ce4bhq92rcd13ifvqhjg","pricing_plan_id":"free"},{"bike_id":"f0a3ad06-f877-4848-a800-e3e1b3371c24","system_id":"levelo_inurba_marseille","lat":43.323464,"lon":5.406297,"is_reserved":false,"is_disabled":false,"rental_uris":{"android":"levelo://app?vid=f0a3ad06-f877-4848-a800-e3e1b3371c24","ios":"levelo://app?vid=f0a3ad06-f877-4848-a800-e3e1b3371c24"},"vehicle_type_id":"4","last_reported":1686485531,"current_range_meters":31600,"station_id":"ce4bhq92rcd13ifvqhjg","pricing_plan_id":"free"},{"bike_id":"30333e77-7cc7-4ad5-b030-c99c7af00601","system_id":"levelo_inurba_marseille","lat":43.323464,"lon":5.406297,"is_reserved":false,"is_disabled":false,"rental_uris":{"android":"levelo://app?vid=30333e77-7cc7-4ad5-b030-c99c7af00601","ios":"levelo://app?vid=30333e77-7cc7-4ad5-b030-c99c7af00601"},"vehicle_type_id":"4","last_reported":1686485531,"current_range_meters":28000,"station_id":"ce4bhq92rcd13ifvqhjg","pricing_plan_id":"free"},{"bike_id":"06cff570-236d-434b-b41a-bcb364e7356f","system_id":"levelo_inurba_marseille","lat":43.323464,"lon":5.406297,"is_reserved":false,"is_disabled":false,"rental_uris":{"android":"levelo://app?vid=06cff570-236d-434b-b41a-bcb364e7356f","ios":"levelo://app?vid=06cff570-236d-434b-b41a-bcb364e7356f"},"vehicle_type_id":"4","last_reported":1686485531,"current_range_meters":31600,"station_id":"ce4bhq92rcd13ifvqhjg","pricing_plan_id":"free"},{"bike_id":"157945e7-a5e7-46d6-81e0-3c4112c26dd6","system_id":"levelo_inurba_marseille","lat":43.323464,"lon":5.406297,"is_reserved":false,"is_disabled":false,"rental_uris":{"android":"levelo://app?vid=157945e7-a5e7-46d6-81e0-3c4112c26dd6","ios":"levelo://app?vid=157945e7-a5e7-46d6-81e0-3c4112c26dd6"},"vehicle_type_id":"4","last_reported":1686485531,"current_range_meters":30000,"station_id":"ce4bhq92rcd13ifvqhjg","pricing_plan_id":"free"},{"bike_id":"8e35b5e3-44e6-4423-8b1c-0697ca4f063c","system_id":"levelo_inurba_marseille","lat":43.323464,"lon":5.406297,"is_reserved":false,"is_disabled":false,"rental_uris":{"android":"levelo://app?vid=8e35b5e3-44e6-4423-8b1c-0697ca4f063c","ios":"levelo://app?vid=8e35b5e3-44e6-4423-8b1c-0697ca4f063c"},"vehicle_type_id":"4","last_reported":1686485531,"current_range_meters":22000,"station_id":"ce4bhq92rcd13ifvqhjg","pricing_plan_id":"free"},{"bike_id":"f6561311-63ae-4d47-996e-47d73e01bb93","system_id":"levelo_inurba_marseille","lat":43.28422,"lon":5.34989,"is_reserved":false,"is_disabled":false,"rental_uris":{"android":"levelo://app?vid=f6561311-63ae-4d47-996e-47d73e01bb93","ios":"levelo://app?vid=f6561311-63ae-4d47-996e-47d73e01bb93"},"vehicle_type_id":"4","last_reported":1686485531,"current_range_meters":31200,"station_id":"ce4bhbh2rcd13ifvqepg","pricing_plan_id":"free"},{"bike_id":"d77e9ca5-91f3-4844-a172-81153a4aa477","system_id":"levelo_inurba_marseille","lat":43.284219,"lon":5.3497,"is_reserved":false,"is_disabled":false,"rental_uris":{"android":"levelo://app?vid=d77e9ca5-91f3-4844-a172-81153a4aa477","ios":"levelo://app?vid=d77e9ca5-91f3-4844-a172-81153a4aa477"},"vehicle_type_id":"4","last_reported":1686485531,"current_range_meters":31200,"station_id":"ce4bhbh2rcd13ifvqepg","pricing_plan_id":"free"},{"bike_id":"40b711b7-7455-43a0-96aa-6cc9def13985","system_id":"levelo_inurba_marseille","lat":43.284216,"lon":5.349715,"is_reserved":false,"is_disabled":false,"rental_uris":{"android":"levelo://app?vid=40b711b7-7455-43a0-96aa-6cc9def13985","ios":"levelo://app?vid=40b711b7-7455-43a0-96aa-6cc9def13985"},"vehicle_type_id":"4","last_reported":1686485531,"current_range_meters":23200,"station_id":"ce4bhbh2rcd13ifvqepg","pricing_plan_id":"free"},{"bike_id":"75447b6f-d3b4-49fa-a968-11bd6fd0caae","system_id":"levelo_inurba_marseille","lat":43.284205,"lon":5.349737,"is_reserved":false,"is_disabled":false,"rental_uris":{"android":"levelo://app?vid=75447b6f-d3b4-49fa-a968-11bd6fd0caae","ios":"levelo://app?vid=75447b6f-d3b4-49fa-a968-11bd6fd0caae"},"vehicle_type_id":"4","last_reported":1686485531,"current_range_meters":31200,"station_id":"ce4bhbh2rcd13ifvqepg","pricing_plan_id":"free"},{"bike_id":"33118082-67cd-4163-aefd-d0736e7a5838","system_id":"levelo_inurba_marseille","lat":43.284205,"lon":5.349735,"is_reserved":false,"is_disabled":false,"rental_uris":{"android":"levelo://app?vid=33118082-67cd-4163-aefd-d0736e7a5838","ios":"levelo://app?vid=33118082-67cd-4163-aefd-d0736e7a5838"},"vehicle_type_id":"4","last_reported":1686485531,"current_range_meters":30800,"station_id":"ce4bhbh2rcd13ifvqepg","pricing_plan_id":"free"},{"bike_id":"d2f43775-6c77-4a5d-960b-c463b05e2816","system_id":"levelo_inurba_marseille","lat":43.284217,"lon":5.349697,"is_reserved":false,"is_disabled":false,"rental_uris":{"android":"levelo://app?vid=d2f43775-6c77-4a5d-960b-c463b05e2816","ios":"levelo://app?vid=d2f43775-6c77-4a5d-960b-c463b05e2816"},"vehicle_type_id":"4","last_reported":1686485531,"current_range_meters":17200,"station_id":"ce4bhbh2rcd13ifvqepg","pricing_plan_id":"free"},{"bike_id":"ad3f3be9-dc5d-4e40-953a-dce8f19b5b0f","system_id":"levelo_inurba_marseille","lat":43.284217,"lon":5.349697,"is_reserved":false,"is_disabled":false,"rental_uris":{"android":"levelo://app?vid=ad3f3be9-dc5d-4e40-953a-dce8f19b5b0f","ios":"levelo://app?vid=ad3f3be9-dc5d-4e40-953a-dce8f19b5b0f"},"vehicle_type_id":"4","last_reported":1686485531,"current_range_meters":31200,"station_id":"ce4bhbh2rcd13ifvqepg","pricing_plan_id":"free"},{"bike_id":"ec3bf089-ddf6-4e3a-a4f5-b0307965ec64","system_id":"levelo_inurba_marseille","lat":43.284217,"lon":5.349697,"is_reserved":false,"is_disabled":false,"rental_uris":{"android":"levelo://app?vid=ec3bf089-ddf6-4e3a-a4f5-b0307965ec64","ios":"levelo://app?vid=ec3bf089-ddf6-4e3a-a4f5-b0307965ec64"},"vehicle_type_id":"4","last_reported":1686485531,"current_range_meters":31200,"station_id":"ce4bhbh2rcd13ifvqepg","pricing_plan_id":"free"},{"bike_id":"812f743a-a69f-4658-b3cc-065ecb02a8c8","system_id":"levelo_inurba_marseille","lat":43.284217,"lon":5.349697,"is_reserved":false,"is_disabled":false,"rental_uris":{"android":"levelo://app?vid=812f743a-a69f-4658-b3cc-065ecb02a8c8","ios":"levelo://app?vid=812f743a-a69f-4658-b3cc-065ecb02a8c8"},"vehicle_type_id":"4","last_reported":1686485531,"current_range_meters":23200,"station_id":"ce4bhbh2rcd13ifvqepg","pricing_plan_id":"free"},{"bike_id":"5ad7d02d-d7ba-4ddb-8667-ce1b8d83dcef","system_id":"levelo_inurba_marseille","lat":43.284192,"lon":5.34973,"is_reserved":false,"is_disabled":false,"rental_uris":{"android":"levelo://app?vid=5ad7d02d-d7ba-4ddb-8667-ce1b8d83dcef","ios":"levelo://app?vid=5ad7d02d-d7ba-4ddb-8667-ce1b8d83dcef"},"vehicle_type_id":"4","last_reported":1686485531,"current_range_meters":16800,"station_id":"ce4bhbh2rcd13ifvqepg","pricing_plan_id":"free"},{"bike_id":"96156bfa-b580-4896-8e53-432b02a2fc27","system_id":"levelo_inurba_marseille","lat":43.284217,"lon":5.349697,"is_reserved":false,"is_disabled":false,"rental_uris":{"android":"levelo://app?vid=96156bfa-b580-4896-8e53-432b02a2fc27","ios":"levelo://app?vid=96156bfa-b580-4896-8e53-432b02a2fc27"},"vehicle_type_id":"4","last_reported":1686485531,"current_range_meters":31600,"station_id":"ce4bhbh2rcd13ifvqepg","pricing_plan_id":"free"},{"bike_id":"d0d94f85-211b-41f7-800a-38606db94269","system_id":"levelo_inurba_marseille","lat":43.284217,"lon":5.349697,"is_reserved":false,"is_disabled":false,"rental_uris":{"android":"levelo://app?vid=d0d94f85-211b-41f7-800a-38606db94269","ios":"levelo://app?vid=d0d94f85-211b-41f7-800a-38606db94269"},"vehicle_type_id":"4","last_reported":1686485531,"current_range_meters":12000,"station_id":"ce4bhbh2rcd13ifvqepg","pricing_plan_id":"free"},{"bike_id":"25e02f9b-fd5e-45c7-947a-f557ed0a92a2","system_id":"levelo_inurba_marseille","lat":43.284158,"lon":5.349785,"is_reserved":false,"is_disabled":false,"rental_uris":{"android":"levelo://app?vid=25e02f9b-fd5e-45c7-947a-f557ed0a92a2","ios":"levelo://app?vid=25e02f9b-fd5e-45c7-947a-f557ed0a92a2"},"vehicle_type_id":"4","last_reported":1686485531,"current_range_meters":10400,"station_id":"ce4bhbh2rcd13ifvqepg","pricing_plan_id":"free"},{"bike_id":"1b316864-cf9f-43df-bde1-318be9e988ed","system_id":"levelo_inurba_marseille","lat":43.28418,"lon":5.349712,"is_reserved":false,"is_disabled":false,"rental_uris":{"android":"levelo://app?vid=1b316864-cf9f-43df-bde1-318be9e988ed","ios":"levelo://app?vid=1b316864-cf9f-43df-bde1-318be9e988ed"},"vehicle_type_id":"4","last_reported":1686485531,"current_range_meters":24000,"station_id":"ce4bhbh2rcd13ifvqepg","pricing_plan_id":"free"},{"bike_id":"131c47bc-d69d-450c-a82d-5bfc7ba50e23","system_id":"levelo_inurba_marseille","lat":43.284136,"lon":5.349802,"is_reserved":false,"is_disabled":false,"rental_uris":{"android":"levelo://app?vid=131c47bc-d69d-450c-a82d-5bfc7ba50e23","ios":"levelo://app?vid=131c47bc-d69d-450c-a82d-5bfc7ba50e23"},"vehicle_type_id":"4","last_reported":1686485531,"current_range_meters":31200,"station_id":"ce4bhbh2rcd13ifvqepg","pricing_plan_id":"free"},{"bike_id":"df96d06c-22d0-4181-9a04-ea901039c95c","system_id":"levelo_inurba_marseille","lat":43.284147,"lon":5.349766,"is_reserved":false,"is_disabled":false,"rental_uris":{"android":"levelo://app?vid=df96d06c-22d0-4181-9a04-ea901039c95c","ios":"levelo://app?vid=df96d06c-22d0-4181-9a04-ea901039c95c"},"vehicle_type_id":"4","last_reported":1686485531,"current_range_meters":31200,"station_id":"ce4bhbh2rcd13ifvqepg","pricing_plan_id":"free"},{"bike_id":"c01511ac-0bad-4c09-8724-ea3bbf118ee1","system_id":"levelo_inurba_marseille","lat":43.28411,"lon":5.34987,"is_reserved":false,"is_disabled":false,"rental_uris":{"android":"levelo://app?vid=c01511ac-0bad-4c09-8724-ea3bbf118ee1","ios":"levelo://app?vid=c01511ac-0bad-4c09-8724-ea3bbf118ee1"},"vehicle_type_id":"4","last_reported":1686485531,"current_range_meters":10000,"station_id":"ce4bhbh2rcd13ifvqepg","pricing_plan_id":"free"},{"bike_id":"3f6f7e1f-841e-4bd8-8ad4-e3d4c44f72d7","system_id":"levelo_inurba_marseille","lat":43.28407,"lon":5.34967,"is_reserved":false,"is_disabled":false,"rental_uris":{"android":"levelo://app?vid=3f6f7e1f-841e-4bd8-8ad4-e3d4c44f72d7","ios":"levelo://app?vid=3f6f7e1f-841e-4bd8-8ad4-e3d4c44f72d7"},"vehicle_type_id":"4","last_reported":1686485531,"current_range_meters":21200,"station_id":"ce4bhbh2rcd13ifvqepg","pricing_plan_id":"free"},{"bike_id":"9ff4ac01-2c03-42eb-9cc8-28faa22d6ed1","system_id":"levelo_inurba_marseille","lat":43.2827,"lon":5.35071,"is_reserved":false,"is_disabled":false,"rental_uris":{"android":"levelo://app?vid=9ff4ac01-2c03-42eb-9cc8-28faa22d6ed1","ios":"levelo://app?vid=9ff4ac01-2c03-42eb-9cc8-28faa22d6ed1"},"vehicle_type_id":"4","last_reported":1686485531,"current_range_meters":13200,"station_id":"ce4bhbp2rcd13ifvqerg","pricing_plan_id":"free"},{"bike_id":"83433296-c96b-4a32-a3f9-be868178a5be","system_id":"levelo_inurba_marseille","lat":43.28269,"lon":5.35074,"is_reserved":false,"is_disabled":false,"rental_uris":{"android":"levelo://app?vid=83433296-c96b-4a32-a3f9-be868178a5be","ios":"levelo://app?vid=83433296-c96b-4a32-a3f9-be868178a5be"},"vehicle_type_id":"4","last_reported":1686485531,"current_range_meters":5600,"station_id":"ce4bhbp2rcd13ifvqerg","pricing_plan_id":"free"},{"bike_id":"f949a351-afd1-44cf-a3fc-75b6f7528826","system_id":"levelo_inurba_marseille","lat":43.282744,"lon":5.350533,"is_reserved":false,"is_disabled":false,"rental_uris":{"android":"levelo://app?vid=f949a351-afd1-44cf-a3fc-75b6f7528826","ios":"levelo://app?vid=f949a351-afd1-44cf-a3fc-75b6f7528826"},"vehicle_type_id":"4","last_reported":1686485531,"current_range_meters":6400,"station_id":"ce4bhbp2rcd13ifvqerg","pricing_plan_id":"free"},{"bike_id":"74c97cc1-d977-4ffa-ab1f-09d7941d89a0","system_id":"levelo_inurba_marseille","lat":43.282744,"lon":5.350533,"is_reserved":false,"is_disabled":false,"rental_uris":{"android":"levelo://app?vid=74c97cc1-d977-4ffa-ab1f-09d7941d89a0","ios":"levelo://app?vid=74c97cc1-d977-4ffa-ab1f-09d7941d89a0"},"vehicle_type_id":"4","last_reported":1686485531,"current_range_meters":20400,"station_id":"ce4bhbp2rcd13ifvqerg","pricing_plan_id":"free"},{"bike_id":"7d658a7e-496f-4f88-8dbd-c494f53f928b","system_id":"levelo_inurba_marseille","lat":43.282702,"lon":5.350516,"is_reserved":false,"is_disabled":false,"rental_uris":{"android":"levelo://app?vid=7d658a7e-496f-4f88-8dbd-c494f53f928b","ios":"levelo://app?vid=7d658a7e-496f-4f88-8dbd-c494f53f928b"},"vehicle_type_id":"4","last_reported":1686485531,"current_range_meters":5600,"station_id":"","pricing_plan_id":"free"},{"bike_id":"986b7c55-f006-484d-8ec6-243ffdc02348","system_id":"levelo_inurba_marseille","lat":43.28264,"lon":5.35067,"is_reserved":false,"is_disabled":false,"rental_uris":{"android":"levelo://app?vid=986b7c55-f006-484d-8ec6-243ffdc02348","ios":"levelo://app?vid=986b7c55-f006-484d-8ec6-243ffdc02348"},"vehicle_type_id":"4","last_reported":1686485531,"current_range_meters":20000,"station_id":"ce4bhbp2rcd13ifvqerg","pricing_plan_id":"free"},{"bike_id":"6f4c6d5e-7575-4436-bf45-ad3f004bb1d2","system_id":"levelo_inurba_marseille","lat":43.28266,"lon":5.35059,"is_reserved":false,"is_disabled":false,"rental_uris":{"android":"levelo://app?vid=6f4c6d5e-7575-4436-bf45-ad3f004bb1d2","ios":"levelo://app?vid=6f4c6d5e-7575-4436-bf45-ad3f004bb1d2"},"vehicle_type_id":"4","last_reported":1686485531,"current_range_meters":14400,"station_id":"ce4bhbp2rcd13ifvqerg","pricing_plan_id":"free"},{"bike_id":"5d77eab8-5ce3-4859-81cb-f99f2967abb2","system_id":"levelo_inurba_marseille","lat":43.282744,"lon":5.350533,"is_reserved":false,"is_disabled":false,"rental_uris":{"android":"levelo://app?vid=5d77eab8-5ce3-4859-81cb-f99f2967abb2","ios":"levelo://app?vid=5d77eab8-5ce3-4859-81cb-f99f2967abb2"},"vehicle_type_id":"4","last_reported":1686485531,"current_range_meters":30400,"station_id":"ce4bhbp2rcd13ifvqerg","pricing_plan_id":"free"},{"bike_id":"f2e9ce1d-89b1-46a5-9c91-2a819de868fd","system_id":"levelo_inurba_marseille","lat":43.28262,"lon":5.35063,"is_reserved":false,"is_disabled":false,"rental_uris":{"android":"levelo://app?vid=f2e9ce1d-89b1-46a5-9c91-2a819de868fd","ios":"levelo://app?vid=f2e9ce1d-89b1-46a5-9c91-2a819de868fd"},"vehicle_type_id":"4","last_reported":1686485531,"current_range_meters":26800,"station_id":"ce4bhbp2rcd13ifvqerg","pricing_plan_id":"free"},{"bike_id":"9f8f82da-3a77-45d3-9aad-1869b637d6a7","system_id":"levelo_inurba_marseille","lat":43.282754,"lon":5.350519,"is_reserved":false,"is_disabled":false,"rental_uris":{"android":"levelo://app?vid=9f8f82da-3a77-45d3-9aad-1869b637d6a7","ios":"levelo://app?vid=9f8f82da-3a77-45d3-9aad-1869b637d6a7"},"vehicle_type_id":"4","last_reported":1686485531,"current_range_meters":28000,"station_id":"ce4bhbp2rcd13ifvqerg","pricing_plan_id":"free"},{"bike_id":"89e0f89d-6b16-4388-9cd8-c3b74c6df257","system_id":"levelo_inurba_marseille","lat":43.27993,"lon":5.37913,"is_reserved":false,"is_disabled":false,"rental_uris":{"android":"levelo://app?vid=89e0f89d-6b16-4388-9cd8-c3b74c6df257","ios":"levelo://app?vid=89e0f89d-6b16-4388-9cd8-c3b74c6df257"},"vehicle_type_id":"4","last_reported":1686485531,"current_range_meters":14400,"station_id":"","pricing_plan_id":"free"},{"bike_id":"27f6937a-dfde-4508-80e3-81bc0feb9dfb","system_id":"levelo_inurba_marseille","lat":43.32657,"lon":5.40988,"is_reserved":false,"is_disabled":false,"rental_uris":{"android":"levelo://app?vid=27f6937a-dfde-4508-80e3-81bc0feb9dfb","ios":"levelo://app?vid=27f6937a-dfde-4508-80e3-81bc0feb9dfb"},"vehicle_type_id":"4","last_reported":1686485531,"current_range_meters":28000,"station_id":"ce4bhpp2rcd13ifvqhgg","pricing_plan_id":"free"},{"bike_id":"cb44157f-4104-49c2-80c1-99ac04ec7d65","system_id":"levelo_inurba_marseille","lat":43.326605,"lon":5.409903,"is_reserved":false,"is_disabled":false,"rental_uris":{"android":"levelo://app?vid=cb44157f-4104-49c2-80c1-99ac04ec7d65","ios":"levelo://app?vid=cb44157f-4104-49c2-80c1-99ac04ec7d65"},"vehicle_type_id":"4","last_reported":1686485531,"current_range_meters":12000,"station_id":"ce4bhpp2rcd13ifvqhgg","pricing_plan_id":"free"},{"bike_id":"347f0b50-3810-490d-9a41-8cbcbbbd1c14","system_id":"levelo_inurba_marseille","lat":43.304188,"lon":5.412904,"is_reserved":false,"is_disabled":false,"rental_uris":{"android":"levelo://app?vid=347f0b50-3810-490d-9a41-8cbcbbbd1c14","ios":"levelo://app?vid=347f0b50-3810-490d-9a41-8cbcbbbd1c14"},"vehicle_type_id":"4","last_reported":1686485531,"current_range_meters":6000,"station_id":"ce4bhop2rcd13ifvqh8g","pricing_plan_id":"free"},{"bike_id":"a0f99a13-ad13-4025-9b02-814503c605f9","system_id":"levelo_inurba_marseille","lat":43.320045,"lon":5.415046,"is_reserved":false,"is_disabled":false,"rental_uris":{"android":"levelo://app?vid=a0f99a13-ad13-4025-9b02-814503c605f9","ios":"levelo://app?vid=a0f99a13-ad13-4025-9b02-814503c605f9"},"vehicle_type_id":"4","last_reported":1686485531,"current_range_meters":30000,"station_id":"ce4bhq92rcd13ifvqhkg","pricing_plan_id":"free"},{"bike_id":"5e90c9a9-1258-42b4-a356-14dc786d3bae","system_id":"levelo_inurba_marseille","lat":43.320045,"lon":5.415046,"is_reserved":false,"is_disabled":false,"rental_uris":{"android":"levelo://app?vid=5e90c9a9-1258-42b4-a356-14dc786d3bae","ios":"levelo://app?vid=5e90c9a9-1258-42b4-a356-14dc786d3bae"},"vehicle_type_id":"4","last_reported":1686485531,"current_range_meters":31200,"station_id":"ce4bhq92rcd13ifvqhkg","pricing_plan_id":"free"},{"bike_id":"892204be-1596-43c0-b6df-b33300638a1e","system_id":"levelo_inurba_marseille","lat":43.320045,"lon":5.415046,"is_reserved":false,"is_disabled":false,"rental_uris":{"android":"levelo://app?vid=892204be-1596-43c0-b6df-b33300638a1e","ios":"levelo://app?vid=892204be-1596-43c0-b6df-b33300638a1e"},"vehicle_type_id":"4","last_reported":1686485531,"current_range_meters":31200,"station_id":"ce4bhq92rcd13ifvqhkg","pricing_plan_id":"free"},{"bike_id":"68a42c08-bb82-4706-9431-31a9c4d00abd","system_id":"levelo_inurba_marseille","lat":43.3205,"lon":5.41544,"is_reserved":false,"is_disabled":false,"rental_uris":{"android":"levelo://app?vid=68a42c08-bb82-4706-9431-31a9c4d00abd","ios":"levelo://app?vid=68a42c08-bb82-4706-9431-31a9c4d00abd"},"vehicle_type_id":"4","last_reported":1686485531,"current_range_meters":17200,"station_id":"","pricing_plan_id":"free"},{"bike_id":"e55e68af-c73a-4be1-8ce0-229b2b469113","system_id":"levelo_inurba_marseille","lat":43.299579,"lon":5.413255,"is_reserved":false,"is_disabled":false,"rental_uris":{"android":"levelo://app?vid=e55e68af-c73a-4be1-8ce0-229b2b469113","ios":"levelo://app?vid=e55e68af-c73a-4be1-8ce0-229b2b469113"},"vehicle_type_id":"4","last_reported":1686485531,"current_range_meters":21600,"station_id":"ce4bhp12rcd13ifvqh9g","pricing_plan_id":"free"},{"bike_id":"e1aed682-d192-431b-a1d8-495c1bc7e246","system_id":"levelo_inurba_marseille","lat":43.299577,"lon":5.413277,"is_reserved":false,"is_disabled":false,"rental_uris":{"android":"levelo://app?vid=e1aed682-d192-431b-a1d8-495c1bc7e246","ios":"levelo://app?vid=e1aed682-d192-431b-a1d8-495c1bc7e246"},"vehicle_type_id":"4","last_reported":1686485531,"current_range_meters":3600,"station_id":"ce4bhp12rcd13ifvqh9g","pricing_plan_id":"free"},{"bike_id":"8d25535e-f116-4f8c-83e9-e57607a567cf","system_id":"levelo_inurba_marseille","lat":43.320045,"lon":5.415048,"is_reserved":false,"is_disabled":false,"rental_uris":{"android":"levelo://app?vid=8d25535e-f116-4f8c-83e9-e57607a567cf","ios":"levelo://app?vid=8d25535e-f116-4f8c-83e9-e57607a567cf"},"vehicle_type_id":"4","last_reported":1686485531,"current_range_meters":30800,"station_id":"ce4bhq92rcd13ifvqhkg","pricing_plan_id":"free"},{"bike_id":"57407a92-2927-4339-b585-c98a1d12c047","system_id":"levelo_inurba_marseille","lat":43.32039,"lon":5.41556,"is_reserved":false,"is_disabled":false,"rental_uris":{"android":"levelo://app?vid=57407a92-2927-4339-b585-c98a1d12c047","ios":"levelo://app?vid=57407a92-2927-4339-b585-c98a1d12c047"},"vehicle_type_id":"4","last_reported":1686485531,"current_range_meters":27600,"station_id":"","pricing_plan_id":"free"},{"bike_id":"583543eb-b0bf-4785-8b1e-96cd4f7bb70e","system_id":"levelo_inurba_marseille","lat":43.3203,"lon":5.41562,"is_reserved":false,"is_disabled":false,"rental_uris":{"android":"levelo://app?vid=583543eb-b0bf-4785-8b1e-96cd4f7bb70e","ios":"levelo://app?vid=583543eb-b0bf-4785-8b1e-96cd4f7bb70e"},"vehicle_type_id":"4","last_reported":1686485531,"current_range_meters":30000,"station_id":"","pricing_plan_id":"free"},{"bike_id":"5324c499-543c-4927-87be-483ca946f3a0","system_id":"levelo_inurba_marseille","lat":43.320045,"lon":5.415048,"is_reserved":false,"is_disabled":false,"rental_uris":{"android":"levelo://app?vid=5324c499-543c-4927-87be-483ca946f3a0","ios":"levelo://app?vid=5324c499-543c-4927-87be-483ca946f3a0"},"vehicle_type_id":"4","last_reported":1686485531,"current_range_meters":30800,"station_id":"ce4bhq92rcd13ifvqhkg","pricing_plan_id":"free"},{"bike_id":"e177311a-0b00-473f-b511-46979edcd3b9","system_id":"levelo_inurba_marseille","lat":43.32035,"lon":5.41566,"is_reserved":false,"is_disabled":false,"rental_uris":{"android":"levelo://app?vid=e177311a-0b00-473f-b511-46979edcd3b9","ios":"levelo://app?vid=e177311a-0b00-473f-b511-46979edcd3b9"},"vehicle_type_id":"4","last_reported":1686485531,"current_range_meters":30000,"station_id":"","pricing_plan_id":"free"},{"bike_id":"57a5304f-4e3d-4fa0-8604-88ba8308e596","system_id":"levelo_inurba_marseille","lat":43.2762,"lon":5.36111,"is_reserved":false,"is_disabled":false,"rental_uris":{"android":"levelo://app?vid=57a5304f-4e3d-4fa0-8604-88ba8308e596","ios":"levelo://app?vid=57a5304f-4e3d-4fa0-8604-88ba8308e596"},"vehicle_type_id":"4","last_reported":1686485531,"current_range_meters":24800,"station_id":"","pricing_plan_id":"free"},{"bike_id":"817e4540-74d8-4da1-8a08-27a570f90753","system_id":"levelo_inurba_marseille","lat":43.27618,"lon":5.361009,"is_reserved":false,"is_disabled":false,"rental_uris":{"android":"levelo://app?vid=817e4540-74d8-4da1-8a08-27a570f90753","ios":"levelo://app?vid=817e4540-74d8-4da1-8a08-27a570f90753"},"vehicle_type_id":"4","last_reported":1686485531,"current_range_meters":19200,"station_id":"ce4bgj92rcd13ifvqbe0","pricing_plan_id":"free"},{"bike_id":"d4565069-eb26-4420-8580-9c4a6a08e934","system_id":"levelo_inurba_marseille","lat":43.275561,"lon":5.360259,"is_reserved":false,"is_disabled":false,"rental_uris":{"android":"levelo://app?vid=d4565069-eb26-4420-8580-9c4a6a08e934","ios":"levelo://app?vid=d4565069-eb26-4420-8580-9c4a6a08e934"},"vehicle_type_id":"4","last_reported":1686485531,"current_range_meters":26400,"station_id":"","pricing_plan_id":"free"},{"bike_id":"1bf07d23-f413-461f-8f62-48d533661e24","system_id":"levelo_inurba_marseille","lat":43.280784,"lon":5.396622,"is_reserved":false,"is_disabled":false,"rental_uris":{"android":"levelo://app?vid=1bf07d23-f413-461f-8f62-48d533661e24","ios":"levelo://app?vid=1bf07d23-f413-461f-8f62-48d533661e24"},"vehicle_type_id":"4","last_reported":1686485531,"current_range_meters":10400,"station_id":"ce4bho12rcd13ifvqh2g","pricing_plan_id":"free"},{"bike_id":"f529634b-d73e-4fc4-be85-373ffe670917","system_id":"levelo_inurba_marseille","lat":43.303837,"lon":5.418724,"is_reserved":false,"is_disabled":false,"rental_uris":{"android":"levelo://app?vid=f529634b-d73e-4fc4-be85-373ffe670917","ios":"levelo://app?vid=f529634b-d73e-4fc4-be85-373ffe670917"},"vehicle_type_id":"4","last_reported":1686485531,"current_range_meters":17200,"station_id":"ce4bhop2rcd13ifvqh7g","pricing_plan_id":"free"},{"bike_id":"525170d6-6764-4794-a32e-d7a1106f32c5","system_id":"levelo_inurba_marseille","lat":43.303837,"lon":5.418724,"is_reserved":false,"is_disabled":false,"rental_uris":{"android":"levelo://app?vid=525170d6-6764-4794-a32e-d7a1106f32c5","ios":"levelo://app?vid=525170d6-6764-4794-a32e-d7a1106f32c5"},"vehicle_type_id":"4","last_reported":1686485531,"current_range_meters":29200,"station_id":"ce4bhop2rcd13ifvqh7g","pricing_plan_id":"free"},{"bike_id":"62985d38-b772-492b-8c98-ec378f3acf35","system_id":"levelo_inurba_marseille","lat":43.273613,"lon":5.362705,"is_reserved":false,"is_disabled":false,"rental_uris":{"android":"levelo://app?vid=62985d38-b772-492b-8c98-ec378f3acf35","ios":"levelo://app?vid=62985d38-b772-492b-8c98-ec378f3acf35"},"vehicle_type_id":"4","last_reported":1686485531,"current_range_meters":22800,"station_id":"ce4bhbh2rcd13ifvqeo0","pricing_plan_id":"free"},{"bike_id":"10feec04-bd8a-46bd-93b9-82ef43079c4d","system_id":"levelo_inurba_marseille","lat":43.273613,"lon":5.362705,"is_reserved":false,"is_disabled":false,"rental_uris":{"android":"levelo://app?vid=10feec04-bd8a-46bd-93b9-82ef43079c4d","ios":"levelo://app?vid=10feec04-bd8a-46bd-93b9-82ef43079c4d"},"vehicle_type_id":"4","last_reported":1686485531,"current_range_meters":24400,"station_id":"ce4bhbh2rcd13ifvqeo0","pricing_plan_id":"free"},{"bike_id":"0aa8e90c-ed66-4e87-aea4-8e6a11c5836b","system_id":"levelo_inurba_marseille","lat":43.273613,"lon":5.362705,"is_reserved":false,"is_disabled":false,"rental_uris":{"android":"levelo://app?vid=0aa8e90c-ed66-4e87-aea4-8e6a11c5836b","ios":"levelo://app?vid=0aa8e90c-ed66-4e87-aea4-8e6a11c5836b"},"vehicle_type_id":"4","last_reported":1686485531,"current_range_meters":12800,"station_id":"ce4bhbh2rcd13ifvqeo0","pricing_plan_id":"free"},{"bike_id":"54cea2bf-d65e-404a-80b4-8dbf61742640","system_id":"levelo_inurba_marseille","lat":43.273613,"lon":5.362705,"is_reserved":false,"is_disabled":false,"rental_uris":{"android":"levelo://app?vid=54cea2bf-d65e-404a-80b4-8dbf61742640","ios":"levelo://app?vid=54cea2bf-d65e-404a-80b4-8dbf61742640"},"vehicle_type_id":"4","last_reported":1686485531,"current_range_meters":18400,"station_id":"ce4bhbh2rcd13ifvqeo0","pricing_plan_id":"free"},{"bike_id":"64a58394-39eb-4a71-927e-1bff74095373","system_id":"levelo_inurba_marseille","lat":43.273609,"lon":5.362708,"is_reserved":false,"is_disabled":false,"rental_uris":{"android":"levelo://app?vid=64a58394-39eb-4a71-927e-1bff74095373","ios":"levelo://app?vid=64a58394-39eb-4a71-927e-1bff74095373"},"vehicle_type_id":"4","last_reported":1686485531,"current_range_meters":10400,"station_id":"ce4bhbh2rcd13ifvqeo0","pricing_plan_id":"free"},{"bike_id":"84ef33b7-9d60-4823-8343-4a6bcc9d0e08","system_id":"levelo_inurba_marseille","lat":43.273609,"lon":5.362708,"is_reserved":false,"is_disabled":false,"rental_uris":{"android":"levelo://app?vid=84ef33b7-9d60-4823-8343-4a6bcc9d0e08","ios":"levelo://app?vid=84ef33b7-9d60-4823-8343-4a6bcc9d0e08"},"vehicle_type_id":"4","last_reported":1686485531,"current_range_meters":31200,"station_id":"ce4bhbh2rcd13ifvqeo0","pricing_plan_id":"free"},{"bike_id":"bfc2f2e7-6706-4d2a-882a-a942e91273bd","system_id":"levelo_inurba_marseille","lat":43.273613,"lon":5.362705,"is_reserved":false,"is_disabled":false,"rental_uris":{"android":"levelo://app?vid=bfc2f2e7-6706-4d2a-882a-a942e91273bd","ios":"levelo://app?vid=bfc2f2e7-6706-4d2a-882a-a942e91273bd"},"vehicle_type_id":"4","last_reported":1686485531,"current_range_meters":8400,"station_id":"ce4bhbh2rcd13ifvqeo0","pricing_plan_id":"free"},{"bike_id":"f4ee2d2a-af80-4446-969f-ecbb462b2fa3","system_id":"levelo_inurba_marseille","lat":43.273609,"lon":5.362708,"is_reserved":false,"is_disabled":false,"rental_uris":{"android":"levelo://app?vid=f4ee2d2a-af80-4446-969f-ecbb462b2fa3","ios":"levelo://app?vid=f4ee2d2a-af80-4446-969f-ecbb462b2fa3"},"vehicle_type_id":"4","last_reported":1686485531,"current_range_meters":27600,"station_id":"ce4bhbh2rcd13ifvqeo0","pricing_plan_id":"free"},{"bike_id":"25ade6b4-8991-42c8-aa69-36134b4aac8e","system_id":"levelo_inurba_marseille","lat":43.273609,"lon":5.362708,"is_reserved":false,"is_disabled":false,"rental_uris":{"android":"levelo://app?vid=25ade6b4-8991-42c8-aa69-36134b4aac8e","ios":"levelo://app?vid=25ade6b4-8991-42c8-aa69-36134b4aac8e"},"vehicle_type_id":"4","last_reported":1686485531,"current_range_meters":16400,"station_id":"ce4bhbh2rcd13ifvqeo0","pricing_plan_id":"free"},{"bike_id":"63fc6b55-7e65-4b6e-8696-dc4f18b27f32","system_id":"levelo_inurba_marseille","lat":43.273613,"lon":5.362705,"is_reserved":false,"is_disabled":false,"rental_uris":{"android":"levelo://app?vid=63fc6b55-7e65-4b6e-8696-dc4f18b27f32","ios":"levelo://app?vid=63fc6b55-7e65-4b6e-8696-dc4f18b27f32"},"vehicle_type_id":"4","last_reported":1686485531,"current_range_meters":32000,"station_id":"ce4bhbh2rcd13ifvqeo0","pricing_plan_id":"free"},{"bike_id":"c75ec162-0efe-467a-a98a-50133ea5de05","system_id":"levelo_inurba_marseille","lat":43.27614,"lon":5.39489,"is_reserved":false,"is_disabled":false,"rental_uris":{"android":"levelo://app?vid=c75ec162-0efe-467a-a98a-50133ea5de05","ios":"levelo://app?vid=c75ec162-0efe-467a-a98a-50133ea5de05"},"vehicle_type_id":"4","last_reported":1686485531,"current_range_meters":17200,"station_id":"","pricing_plan_id":"free"},{"bike_id":"79a6c825-f49f-4d82-aa80-2b1b63139081","system_id":"levelo_inurba_marseille","lat":43.304096,"lon":5.425385,"is_reserved":false,"is_disabled":false,"rental_uris":{"android":"levelo://app?vid=79a6c825-f49f-4d82-aa80-2b1b63139081","ios":"levelo://app?vid=79a6c825-f49f-4d82-aa80-2b1b63139081"},"vehicle_type_id":"4","last_reported":1686485531,"current_range_meters":8800,"station_id":"ce4bhoh2rcd13ifvqh6g","pricing_plan_id":"free"},{"bike_id":"9d3cd462-3ba9-404d-8ec2-38c76505cab8","system_id":"levelo_inurba_marseille","lat":43.304096,"lon":5.425385,"is_reserved":false,"is_disabled":false,"rental_uris":{"android":"levelo://app?vid=9d3cd462-3ba9-404d-8ec2-38c76505cab8","ios":"levelo://app?vid=9d3cd462-3ba9-404d-8ec2-38c76505cab8"},"vehicle_type_id":"4","last_reported":1686485531,"current_range_meters":16000,"station_id":"ce4bhoh2rcd13ifvqh6g","pricing_plan_id":"free"},{"bike_id":"4eadd5b5-1b6e-43ec-bb31-0e0764320a12","system_id":"levelo_inurba_marseille","lat":43.304096,"lon":5.425385,"is_reserved":false,"is_disabled":false,"rental_uris":{"android":"levelo://app?vid=4eadd5b5-1b6e-43ec-bb31-0e0764320a12","ios":"levelo://app?vid=4eadd5b5-1b6e-43ec-bb31-0e0764320a12"},"vehicle_type_id":"4","last_reported":1686485531,"current_range_meters":30400,"station_id":"ce4bhoh2rcd13ifvqh6g","pricing_plan_id":"free"},{"bike_id":"0a02bfa7-795e-4a3c-a9ba-797b552efced","system_id":"levelo_inurba_marseille","lat":43.304096,"lon":5.425385,"is_reserved":false,"is_disabled":false,"rental_uris":{"android":"levelo://app?vid=0a02bfa7-795e-4a3c-a9ba-797b552efced","ios":"levelo://app?vid=0a02bfa7-795e-4a3c-a9ba-797b552efced"},"vehicle_type_id":"4","last_reported":1686485531,"current_range_meters":24400,"station_id":"ce4bhoh2rcd13ifvqh6g","pricing_plan_id":"free"},{"bike_id":"d8276c4f-0b7c-4f9a-ba37-f7a7b34a65cb","system_id":"levelo_inurba_marseille","lat":43.304096,"lon":5.425385,"is_reserved":false,"is_disabled":false,"rental_uris":{"android":"levelo://app?vid=d8276c4f-0b7c-4f9a-ba37-f7a7b34a65cb","ios":"levelo://app?vid=d8276c4f-0b7c-4f9a-ba37-f7a7b34a65cb"},"vehicle_type_id":"4","last_reported":1686485531,"current_range_meters":18800,"station_id":"ce4bhoh2rcd13ifvqh6g","pricing_plan_id":"free"},{"bike_id":"76a1eb4d-86c8-44ab-a25e-f2c8cb8490b7","system_id":"levelo_inurba_marseille","lat":43.30412,"lon":5.42545,"is_reserved":false,"is_disabled":false,"rental_uris":{"android":"levelo://app?vid=76a1eb4d-86c8-44ab-a25e-f2c8cb8490b7","ios":"levelo://app?vid=76a1eb4d-86c8-44ab-a25e-f2c8cb8490b7"},"vehicle_type_id":"4","last_reported":1686485531,"current_range_meters":6400,"station_id":"ce4bhoh2rcd13ifvqh6g","pricing_plan_id":"free"},{"bike_id":"a915d89c-cc22-4ddc-b989-60352b2e99d8","system_id":"levelo_inurba_marseille","lat":43.269467,"lon":5.386439,"is_reserved":false,"is_disabled":false,"rental_uris":{"android":"levelo://app?vid=a915d89c-cc22-4ddc-b989-60352b2e99d8","ios":"levelo://app?vid=a915d89c-cc22-4ddc-b989-60352b2e99d8"},"vehicle_type_id":"4","last_reported":1686485531,"current_range_meters":24000,"station_id":"ce4bhh92rcd13ifvqfh0","pricing_plan_id":"free"},{"bike_id":"282c788a-c38a-49ca-aa39-46b8b102d3d8","system_id":"levelo_inurba_marseille","lat":43.26932,"lon":5.38605,"is_reserved":false,"is_disabled":false,"rental_uris":{"android":"levelo://app?vid=282c788a-c38a-49ca-aa39-46b8b102d3d8","ios":"levelo://app?vid=282c788a-c38a-49ca-aa39-46b8b102d3d8"},"vehicle_type_id":"4","last_reported":1686485531,"current_range_meters":23600,"station_id":"","pricing_plan_id":"free"},{"bike_id":"9894d5d3-ef9d-4d32-b26a-b6c7d3993d4f","system_id":"levelo_inurba_marseille","lat":43.26546,"lon":5.37335,"is_reserved":false,"is_disabled":false,"rental_uris":{"android":"levelo://app?vid=9894d5d3-ef9d-4d32-b26a-b6c7d3993d4f","ios":"levelo://app?vid=9894d5d3-ef9d-4d32-b26a-b6c7d3993d4f"},"vehicle_type_id":"4","last_reported":1686485531,"current_range_meters":0,"station_id":"","pricing_plan_id":"free"},{"bike_id":"203d41cc-4249-46e5-9f6a-833ee640f3d8","system_id":"levelo_inurba_marseille","lat":43.27994,"lon":5.41658,"is_reserved":false,"is_disabled":false,"rental_uris":{"android":"levelo://app?vid=203d41cc-4249-46e5-9f6a-833ee640f3d8","ios":"levelo://app?vid=203d41cc-4249-46e5-9f6a-833ee640f3d8"},"vehicle_type_id":"4","last_reported":1686485531,"current_range_meters":30000,"station_id":"ce4bho12rcd13ifvqh1g","pricing_plan_id":"free"},{"bike_id":"2ef8f041-edff-41fc-aa31-8f8c2bec8e61","system_id":"levelo_inurba_marseille","lat":43.27993,"lon":5.41657,"is_reserved":false,"is_disabled":false,"rental_uris":{"android":"levelo://app?vid=2ef8f041-edff-41fc-aa31-8f8c2bec8e61","ios":"levelo://app?vid=2ef8f041-edff-41fc-aa31-8f8c2bec8e61"},"vehicle_type_id":"4","last_reported":1686485531,"current_range_meters":26000,"station_id":"ce4bho12rcd13ifvqh1g","pricing_plan_id":"free"},{"bike_id":"40a8f801-3cf2-4679-b762-bf4885c24f51","system_id":"levelo_inurba_marseille","lat":43.27993,"lon":5.41661,"is_reserved":false,"is_disabled":false,"rental_uris":{"android":"levelo://app?vid=40a8f801-3cf2-4679-b762-bf4885c24f51","ios":"levelo://app?vid=40a8f801-3cf2-4679-b762-bf4885c24f51"},"vehicle_type_id":"4","last_reported":1686485531,"current_range_meters":24800,"station_id":"ce4bho12rcd13ifvqh1g","pricing_plan_id":"free"},{"bike_id":"7b402a78-622e-4d94-8b55-20fb3ba1b67e","system_id":"levelo_inurba_marseille","lat":43.27986,"lon":5.41653,"is_reserved":false,"is_disabled":false,"rental_uris":{"android":"levelo://app?vid=7b402a78-622e-4d94-8b55-20fb3ba1b67e","ios":"levelo://app?vid=7b402a78-622e-4d94-8b55-20fb3ba1b67e"},"vehicle_type_id":"4","last_reported":1686485531,"current_range_meters":24400,"station_id":"ce4bho12rcd13ifvqh1g","pricing_plan_id":"free"},{"bike_id":"c5b02321-0823-4f96-aae5-45bb5b115926","system_id":"levelo_inurba_marseille","lat":43.27991,"lon":5.4166,"is_reserved":false,"is_disabled":false,"rental_uris":{"android":"levelo://app?vid=c5b02321-0823-4f96-aae5-45bb5b115926","ios":"levelo://app?vid=c5b02321-0823-4f96-aae5-45bb5b115926"},"vehicle_type_id":"4","last_reported":1686485531,"current_range_meters":24000,"station_id":"ce4bho12rcd13ifvqh1g","pricing_plan_id":"free"},{"bike_id":"6161f878-a51b-4c41-8d2a-ae1f78820001","system_id":"levelo_inurba_marseille","lat":43.27996,"lon":5.416624,"is_reserved":false,"is_disabled":false,"rental_uris":{"android":"levelo://app?vid=6161f878-a51b-4c41-8d2a-ae1f78820001","ios":"levelo://app?vid=6161f878-a51b-4c41-8d2a-ae1f78820001"},"vehicle_type_id":"4","last_reported":1686485531,"current_range_meters":28400,"station_id":"ce4bho12rcd13ifvqh1g","pricing_plan_id":"free"},{"bike_id":"623d618b-bc4a-4556-8455-bf54f429966d","system_id":"levelo_inurba_marseille","lat":43.267966,"lon":5.393976,"is_reserved":false,"is_disabled":false,"rental_uris":{"android":"levelo://app?vid=623d618b-bc4a-4556-8455-bf54f429966d","ios":"levelo://app?vid=623d618b-bc4a-4556-8455-bf54f429966d"},"vehicle_type_id":"4","last_reported":1686485531,"current_range_meters":23200,"station_id":"ce4bhh12rcd13ifvqfg0","pricing_plan_id":"free"},{"bike_id":"ae4cc489-4efe-4275-a065-56d9d5341ee1","system_id":"levelo_inurba_marseille","lat":43.27086,"lon":5.40226,"is_reserved":false,"is_disabled":false,"rental_uris":{"android":"levelo://app?vid=ae4cc489-4efe-4275-a065-56d9d5341ee1","ios":"levelo://app?vid=ae4cc489-4efe-4275-a065-56d9d5341ee1"},"vehicle_type_id":"4","last_reported":1686485531,"current_range_meters":12800,"station_id":"","pricing_plan_id":"free"},{"bike_id":"025c652d-bbb7-4a53-9f16-ed1a6df4b4a6","system_id":"levelo_inurba_marseille","lat":43.33226,"lon":5.42958,"is_reserved":false,"is_disabled":false,"rental_uris":{"android":"levelo://app?vid=025c652d-bbb7-4a53-9f16-ed1a6df4b4a6","ios":"levelo://app?vid=025c652d-bbb7-4a53-9f16-ed1a6df4b4a6"},"vehicle_type_id":"4","last_reported":1686485531,"current_range_meters":17600,"station_id":"","pricing_plan_id":"free"},{"bike_id":"8bae052b-3edc-4345-85b1-d116189b7c89","system_id":"levelo_inurba_marseille","lat":43.33231,"lon":5.42971,"is_reserved":false,"is_disabled":false,"rental_uris":{"android":"levelo://app?vid=8bae052b-3edc-4345-85b1-d116189b7c89","ios":"levelo://app?vid=8bae052b-3edc-4345-85b1-d116189b7c89"},"vehicle_type_id":"4","last_reported":1686485531,"current_range_meters":9200,"station_id":"","pricing_plan_id":"free"},{"bike_id":"57288bea-32ab-4428-85ae-de2889eb1839","system_id":"levelo_inurba_marseille","lat":43.30801,"lon":5.43518,"is_reserved":false,"is_disabled":false,"rental_uris":{"android":"levelo://app?vid=57288bea-32ab-4428-85ae-de2889eb1839","ios":"levelo://app?vid=57288bea-32ab-4428-85ae-de2889eb1839"},"vehicle_type_id":"4","last_reported":1686485531,"current_range_meters":18000,"station_id":"","pricing_plan_id":"free"},{"bike_id":"60736c3c-854f-4a54-b429-dd3f10bc9162","system_id":"levelo_inurba_marseille","lat":43.27341,"lon":5.40913,"is_reserved":false,"is_disabled":false,"rental_uris":{"android":"levelo://app?vid=60736c3c-854f-4a54-b429-dd3f10bc9162","ios":"levelo://app?vid=60736c3c-854f-4a54-b429-dd3f10bc9162"},"vehicle_type_id":"4","last_reported":1686485531,"current_range_meters":22400,"station_id":"","pricing_plan_id":"free"},{"bike_id":"f9eeff49-f17a-4155-b7fa-411650003821","system_id":"levelo_inurba_marseille","lat":43.30802,"lon":5.43528,"is_reserved":false,"is_disabled":false,"rental_uris":{"android":"levelo://app?vid=f9eeff49-f17a-4155-b7fa-411650003821","ios":"levelo://app?vid=f9eeff49-f17a-4155-b7fa-411650003821"},"vehicle_type_id":"4","last_reported":1686485531,"current_range_meters":11600,"station_id":"","pricing_plan_id":"free"},{"bike_id":"91d94c71-8533-4efc-a134-db40f05119ac","system_id":"levelo_inurba_marseille","lat":43.26234,"lon":5.37046,"is_reserved":false,"is_disabled":false,"rental_uris":{"android":"levelo://app?vid=91d94c71-8533-4efc-a134-db40f05119ac","ios":"levelo://app?vid=91d94c71-8533-4efc-a134-db40f05119ac"},"vehicle_type_id":"4","last_reported":1686485531,"current_range_meters":12800,"station_id":"","pricing_plan_id":"free"},{"bike_id":"35b3a395-d769-4981-8592-5b50fcff3670","system_id":"levelo_inurba_marseille","lat":43.26901,"lon":5.40294,"is_reserved":false,"is_disabled":false,"rental_uris":{"android":"levelo://app?vid=35b3a395-d769-4981-8592-5b50fcff3670","ios":"levelo://app?vid=35b3a395-d769-4981-8592-5b50fcff3670"},"vehicle_type_id":"4","last_reported":1686485531,"current_range_meters":20400,"station_id":"","pricing_plan_id":"free"},{"bike_id":"44d0301c-8749-45d6-ba33-beb17fad5e84","system_id":"levelo_inurba_marseille","lat":43.261782,"lon":5.374515,"is_reserved":false,"is_disabled":false,"rental_uris":{"android":"levelo://app?vid=44d0301c-8749-45d6-ba33-beb17fad5e84","ios":"levelo://app?vid=44d0301c-8749-45d6-ba33-beb17fad5e84"},"vehicle_type_id":"4","last_reported":1686485531,"current_range_meters":23200,"station_id":"ce4bhgp2rcd13ifvqfc0","pricing_plan_id":"free"},{"bike_id":"fc6cd592-cc45-4941-a2ec-a636f0768451","system_id":"levelo_inurba_marseille","lat":43.261782,"lon":5.374515,"is_reserved":false,"is_disabled":false,"rental_uris":{"android":"levelo://app?vid=fc6cd592-cc45-4941-a2ec-a636f0768451","ios":"levelo://app?vid=fc6cd592-cc45-4941-a2ec-a636f0768451"},"vehicle_type_id":"4","last_reported":1686485531,"current_range_meters":30400,"station_id":"ce4bhgp2rcd13ifvqfc0","pricing_plan_id":"free"},{"bike_id":"c922191e-d84a-4b51-9a35-eb2428d08a8c","system_id":"levelo_inurba_marseille","lat":43.261782,"lon":5.374515,"is_reserved":false,"is_disabled":false,"rental_uris":{"android":"levelo://app?vid=c922191e-d84a-4b51-9a35-eb2428d08a8c","ios":"levelo://app?vid=c922191e-d84a-4b51-9a35-eb2428d08a8c"},"vehicle_type_id":"4","last_reported":1686485531,"current_range_meters":24000,"station_id":"ce4bhgp2rcd13ifvqfc0","pricing_plan_id":"free"},{"bike_id":"dc13a079-5dc8-4235-80bd-7b0d6ae14414","system_id":"levelo_inurba_marseille","lat":43.26191,"lon":5.37443,"is_reserved":false,"is_disabled":false,"rental_uris":{"android":"levelo://app?vid=dc13a079-5dc8-4235-80bd-7b0d6ae14414","ios":"levelo://app?vid=dc13a079-5dc8-4235-80bd-7b0d6ae14414"},"vehicle_type_id":"4","last_reported":1686485531,"current_range_meters":12000,"station_id":"ce4bhgp2rcd13ifvqfc0","pricing_plan_id":"free"},{"bike_id":"f3cf8315-cea6-4d86-b72f-afc6bdbac060","system_id":"levelo_inurba_marseille","lat":43.2619,"lon":5.3744,"is_reserved":false,"is_disabled":false,"rental_uris":{"android":"levelo://app?vid=f3cf8315-cea6-4d86-b72f-afc6bdbac060","ios":"levelo://app?vid=f3cf8315-cea6-4d86-b72f-afc6bdbac060"},"vehicle_type_id":"4","last_reported":1686485531,"current_range_meters":19200,"station_id":"ce4bhgp2rcd13ifvqfc0","pricing_plan_id":"free"},{"bike_id":"ae4c119d-1469-4fe9-9c7e-aafd93b81de6","system_id":"levelo_inurba_marseille","lat":43.26188,"lon":5.3744,"is_reserved":false,"is_disabled":false,"rental_uris":{"android":"levelo://app?vid=ae4c119d-1469-4fe9-9c7e-aafd93b81de6","ios":"levelo://app?vid=ae4c119d-1469-4fe9-9c7e-aafd93b81de6"},"vehicle_type_id":"4","last_reported":1686485531,"current_range_meters":16400,"station_id":"ce4bhgp2rcd13ifvqfc0","pricing_plan_id":"free"},{"bike_id":"af164f3c-12a5-495c-be17-6933ed9b749c","system_id":"levelo_inurba_marseille","lat":43.261782,"lon":5.374515,"is_reserved":false,"is_disabled":false,"rental_uris":{"android":"levelo://app?vid=af164f3c-12a5-495c-be17-6933ed9b749c","ios":"levelo://app?vid=af164f3c-12a5-495c-be17-6933ed9b749c"},"vehicle_type_id":"4","last_reported":1686485531,"current_range_meters":14400,"station_id":"ce4bhgp2rcd13ifvqfc0","pricing_plan_id":"free"},{"bike_id":"4e3352c4-676a-4832-b49a-9000a0c23fb7","system_id":"levelo_inurba_marseille","lat":43.26187,"lon":5.37444,"is_reserved":false,"is_disabled":false,"rental_uris":{"android":"levelo://app?vid=4e3352c4-676a-4832-b49a-9000a0c23fb7","ios":"levelo://app?vid=4e3352c4-676a-4832-b49a-9000a0c23fb7"},"vehicle_type_id":"4","last_reported":1686485531,"current_range_meters":8400,"station_id":"ce4bhgp2rcd13ifvqfc0","pricing_plan_id":"free"},{"bike_id":"ac773aa3-3279-4273-adaa-8d81e847ce7e","system_id":"levelo_inurba_marseille","lat":43.26186,"lon":5.37439,"is_reserved":false,"is_disabled":false,"rental_uris":{"android":"levelo://app?vid=ac773aa3-3279-4273-adaa-8d81e847ce7e","ios":"levelo://app?vid=ac773aa3-3279-4273-adaa-8d81e847ce7e"},"vehicle_type_id":"4","last_reported":1686485531,"current_range_meters":24000,"station_id":"ce4bhgp2rcd13ifvqfc0","pricing_plan_id":"free"},{"bike_id":"0a93c2df-2491-4e96-a8a0-d78aedc374bd","system_id":"levelo_inurba_marseille","lat":43.26186,"lon":5.37444,"is_reserved":false,"is_disabled":false,"rental_uris":{"android":"levelo://app?vid=0a93c2df-2491-4e96-a8a0-d78aedc374bd","ios":"levelo://app?vid=0a93c2df-2491-4e96-a8a0-d78aedc374bd"},"vehicle_type_id":"4","last_reported":1686485531,"current_range_meters":4400,"station_id":"ce4bhgp2rcd13ifvqfc0","pricing_plan_id":"free"},{"bike_id":"d408609d-7e97-4227-b86a-7e43ef958ff0","system_id":"levelo_inurba_marseille","lat":43.261782,"lon":5.374515,"is_reserved":false,"is_disabled":false,"rental_uris":{"android":"levelo://app?vid=d408609d-7e97-4227-b86a-7e43ef958ff0","ios":"levelo://app?vid=d408609d-7e97-4227-b86a-7e43ef958ff0"},"vehicle_type_id":"4","last_reported":1686485531,"current_range_meters":21600,"station_id":"ce4bhgp2rcd13ifvqfc0","pricing_plan_id":"free"},{"bike_id":"a2c357e9-c1a0-43b1-b2bf-2bc4fbbbc57b","system_id":"levelo_inurba_marseille","lat":43.261782,"lon":5.374515,"is_reserved":false,"is_disabled":false,"rental_uris":{"android":"levelo://app?vid=a2c357e9-c1a0-43b1-b2bf-2bc4fbbbc57b","ios":"levelo://app?vid=a2c357e9-c1a0-43b1-b2bf-2bc4fbbbc57b"},"vehicle_type_id":"4","last_reported":1686485531,"current_range_meters":26400,"station_id":"ce4bhgp2rcd13ifvqfc0","pricing_plan_id":"free"},{"bike_id":"fe715640-d105-4882-aff5-6f789f5f16b5","system_id":"levelo_inurba_marseille","lat":43.261782,"lon":5.374515,"is_reserved":false,"is_disabled":false,"rental_uris":{"android":"levelo://app?vid=fe715640-d105-4882-aff5-6f789f5f16b5","ios":"levelo://app?vid=fe715640-d105-4882-aff5-6f789f5f16b5"},"vehicle_type_id":"4","last_reported":1686485531,"current_range_meters":18400,"station_id":"ce4bhgp2rcd13ifvqfc0","pricing_plan_id":"free"},{"bike_id":"50b48ede-4cc5-4969-ab1c-1d7a66a273c2","system_id":"levelo_inurba_marseille","lat":43.31711,"lon":5.43702,"is_reserved":false,"is_disabled":false,"rental_uris":{"android":"levelo://app?vid=50b48ede-4cc5-4969-ab1c-1d7a66a273c2","ios":"levelo://app?vid=50b48ede-4cc5-4969-ab1c-1d7a66a273c2"},"vehicle_type_id":"4","last_reported":1686485531,"current_range_meters":28800,"station_id":"ce4bhp92rcd13ifvqhcg","pricing_plan_id":"free"},{"bike_id":"5fb6f114-c060-46d2-a1e5-1271e0f24aaa","system_id":"levelo_inurba_marseille","lat":43.26184,"lon":5.3744,"is_reserved":false,"is_disabled":false,"rental_uris":{"android":"levelo://app?vid=5fb6f114-c060-46d2-a1e5-1271e0f24aaa","ios":"levelo://app?vid=5fb6f114-c060-46d2-a1e5-1271e0f24aaa"},"vehicle_type_id":"4","last_reported":1686485531,"current_range_meters":31200,"station_id":"ce4bhgp2rcd13ifvqfc0","pricing_plan_id":"free"},{"bike_id":"1bfa56af-ab0e-44f7-afa0-acb5402086e1","system_id":"levelo_inurba_marseille","lat":43.26184,"lon":5.3744,"is_reserved":false,"is_disabled":false,"rental_uris":{"android":"levelo://app?vid=1bfa56af-ab0e-44f7-afa0-acb5402086e1","ios":"levelo://app?vid=1bfa56af-ab0e-44f7-afa0-acb5402086e1"},"vehicle_type_id":"4","last_reported":1686485531,"current_range_meters":24400,"station_id":"ce4bhgp2rcd13ifvqfc0","pricing_plan_id":"free"},{"bike_id":"6ce5678b-1364-4d73-80ab-3f6fa6d4db3a","system_id":"levelo_inurba_marseille","lat":43.26183,"lon":5.37442,"is_reserved":false,"is_disabled":false,"rental_uris":{"android":"levelo://app?vid=6ce5678b-1364-4d73-80ab-3f6fa6d4db3a","ios":"levelo://app?vid=6ce5678b-1364-4d73-80ab-3f6fa6d4db3a"},"vehicle_type_id":"4","last_reported":1686485531,"current_range_meters":24400,"station_id":"ce4bhgp2rcd13ifvqfc0","pricing_plan_id":"free"},{"bike_id":"58b72e88-8cdf-48da-8215-8732c8dae9fe","system_id":"levelo_inurba_marseille","lat":43.26183,"lon":5.37446,"is_reserved":false,"is_disabled":false,"rental_uris":{"android":"levelo://app?vid=58b72e88-8cdf-48da-8215-8732c8dae9fe","ios":"levelo://app?vid=58b72e88-8cdf-48da-8215-8732c8dae9fe"},"vehicle_type_id":"4","last_reported":1686485531,"current_range_meters":30000,"station_id":"ce4bhgp2rcd13ifvqfc0","pricing_plan_id":"free"},{"bike_id":"bb237767-5943-4e04-8753-687e073220bf","system_id":"levelo_inurba_marseille","lat":43.261782,"lon":5.374515,"is_reserved":false,"is_disabled":false,"rental_uris":{"android":"levelo://app?vid=bb237767-5943-4e04-8753-687e073220bf","ios":"levelo://app?vid=bb237767-5943-4e04-8753-687e073220bf"},"vehicle_type_id":"4","last_reported":1686485531,"current_range_meters":14000,"station_id":"ce4bhgp2rcd13ifvqfc0","pricing_plan_id":"free"},{"bike_id":"f2e138bd-d0cd-42d0-b390-16aa2baa9f83","system_id":"levelo_inurba_marseille","lat":43.261782,"lon":5.374515,"is_reserved":false,"is_disabled":false,"rental_uris":{"android":"levelo://app?vid=f2e138bd-d0cd-42d0-b390-16aa2baa9f83","ios":"levelo://app?vid=f2e138bd-d0cd-42d0-b390-16aa2baa9f83"},"vehicle_type_id":"4","last_reported":1686485531,"current_range_meters":16400,"station_id":"ce4bhgp2rcd13ifvqfc0","pricing_plan_id":"free"},{"bike_id":"6e8b31d8-ca8e-4173-8fb8-043db1b985ff","system_id":"levelo_inurba_marseille","lat":43.26181,"lon":5.37439,"is_reserved":false,"is_disabled":false,"rental_uris":{"android":"levelo://app?vid=6e8b31d8-ca8e-4173-8fb8-043db1b985ff","ios":"levelo://app?vid=6e8b31d8-ca8e-4173-8fb8-043db1b985ff"},"vehicle_type_id":"4","last_reported":1686485531,"current_range_meters":30000,"station_id":"ce4bhgp2rcd13ifvqfc0","pricing_plan_id":"free"},{"bike_id":"b9d45f9b-df5a-4916-9fc5-c7468f946b58","system_id":"levelo_inurba_marseille","lat":43.262012,"lon":5.379307,"is_reserved":false,"is_disabled":false,"rental_uris":{"android":"levelo://app?vid=b9d45f9b-df5a-4916-9fc5-c7468f946b58","ios":"levelo://app?vid=b9d45f9b-df5a-4916-9fc5-c7468f946b58"},"vehicle_type_id":"4","last_reported":1686485531,"current_range_meters":2000,"station_id":"ce4bhjp2rcd13ifvqg90","pricing_plan_id":"free"},{"bike_id":"a0e2fff4-e96a-4ecc-94e2-cc92c147720b","system_id":"levelo_inurba_marseille","lat":43.26203,"lon":5.3793,"is_reserved":false,"is_disabled":false,"rental_uris":{"android":"levelo://app?vid=a0e2fff4-e96a-4ecc-94e2-cc92c147720b","ios":"levelo://app?vid=a0e2fff4-e96a-4ecc-94e2-cc92c147720b"},"vehicle_type_id":"4","last_reported":1686485531,"current_range_meters":18000,"station_id":"ce4bhjp2rcd13ifvqg90","pricing_plan_id":"free"},{"bike_id":"871db49a-32e6-424c-8d83-c3f0625a8d48","system_id":"levelo_inurba_marseille","lat":43.262012,"lon":5.379307,"is_reserved":false,"is_disabled":false,"rental_uris":{"android":"levelo://app?vid=871db49a-32e6-424c-8d83-c3f0625a8d48","ios":"levelo://app?vid=871db49a-32e6-424c-8d83-c3f0625a8d48"},"vehicle_type_id":"4","last_reported":1686485531,"current_range_meters":15600,"station_id":"ce4bhjp2rcd13ifvqg90","pricing_plan_id":"free"},{"bike_id":"455b35b6-40b5-4fec-9200-fc16474a1566","system_id":"levelo_inurba_marseille","lat":43.26202,"lon":5.37934,"is_reserved":false,"is_disabled":false,"rental_uris":{"android":"levelo://app?vid=455b35b6-40b5-4fec-9200-fc16474a1566","ios":"levelo://app?vid=455b35b6-40b5-4fec-9200-fc16474a1566"},"vehicle_type_id":"4","last_reported":1686485531,"current_range_meters":3200,"station_id":"ce4bhjp2rcd13ifvqg90","pricing_plan_id":"free"},{"bike_id":"cc672c80-e3f0-40fe-9329-19c2f3e940b2","system_id":"levelo_inurba_marseille","lat":43.271388,"lon":5.409269,"is_reserved":false,"is_disabled":false,"rental_uris":{"android":"levelo://app?vid=cc672c80-e3f0-40fe-9329-19c2f3e940b2","ios":"levelo://app?vid=cc672c80-e3f0-40fe-9329-19c2f3e940b2"},"vehicle_type_id":"4","last_reported":1686485531,"current_range_meters":28000,"station_id":"ce4bhl12rcd13ifvqgf0","pricing_plan_id":"free"},{"bike_id":"b6c2819c-99d2-4f51-af09-8b95b6f61a91","system_id":"levelo_inurba_marseille","lat":43.267959,"lon":5.402685,"is_reserved":false,"is_disabled":false,"rental_uris":{"android":"levelo://app?vid=b6c2819c-99d2-4f51-af09-8b95b6f61a91","ios":"levelo://app?vid=b6c2819c-99d2-4f51-af09-8b95b6f61a91"},"vehicle_type_id":"4","last_reported":1686485531,"current_range_meters":0,"station_id":"ce501612rcd8frsf0b60","pricing_plan_id":"free"},{"bike_id":"4d6f7f3d-d43b-4325-b263-611d58652c16","system_id":"levelo_inurba_marseille","lat":43.267959,"lon":5.402687,"is_reserved":false,"is_disabled":false,"rental_uris":{"android":"levelo://app?vid=4d6f7f3d-d43b-4325-b263-611d58652c16","ios":"levelo://app?vid=4d6f7f3d-d43b-4325-b263-611d58652c16"},"vehicle_type_id":"4","last_reported":1686485531,"current_range_meters":26800,"station_id":"ce501612rcd8frsf0b60","pricing_plan_id":"free"},{"bike_id":"0abd466f-ae7a-4789-a218-e3b2c168a2b3","system_id":"levelo_inurba_marseille","lat":43.25961,"lon":5.3755,"is_reserved":false,"is_disabled":false,"rental_uris":{"android":"levelo://app?vid=0abd466f-ae7a-4789-a218-e3b2c168a2b3","ios":"levelo://app?vid=0abd466f-ae7a-4789-a218-e3b2c168a2b3"},"vehicle_type_id":"4","last_reported":1686485531,"current_range_meters":0,"station_id":"","pricing_plan_id":"free"},{"bike_id":"6853ea80-78f9-4825-8105-002e10c67b8f","system_id":"levelo_inurba_marseille","lat":43.33289,"lon":5.43586,"is_reserved":false,"is_disabled":false,"rental_uris":{"android":"levelo://app?vid=6853ea80-78f9-4825-8105-002e10c67b8f","ios":"levelo://app?vid=6853ea80-78f9-4825-8105-002e10c67b8f"},"vehicle_type_id":"4","last_reported":1686485531,"current_range_meters":15200,"station_id":"","pricing_plan_id":"free"},{"bike_id":"1e50d4c5-46cf-4d7c-9130-3b1369edbffb","system_id":"levelo_inurba_marseille","lat":43.27251,"lon":5.4169,"is_reserved":false,"is_disabled":false,"rental_uris":{"android":"levelo://app?vid=1e50d4c5-46cf-4d7c-9130-3b1369edbffb","ios":"levelo://app?vid=1e50d4c5-46cf-4d7c-9130-3b1369edbffb"},"vehicle_type_id":"4","last_reported":1686485531,"current_range_meters":16000,"station_id":"","pricing_plan_id":"free"},{"bike_id":"09706511-9637-4cfb-a8cf-69d9cc386777","system_id":"levelo_inurba_marseille","lat":43.27207,"lon":5.41842,"is_reserved":false,"is_disabled":false,"rental_uris":{"android":"levelo://app?vid=09706511-9637-4cfb-a8cf-69d9cc386777","ios":"levelo://app?vid=09706511-9637-4cfb-a8cf-69d9cc386777"},"vehicle_type_id":"4","last_reported":1686485531,"current_range_meters":25600,"station_id":"","pricing_plan_id":"free"},{"bike_id":"acecd038-56ee-410d-881c-ffa02850a176","system_id":"levelo_inurba_marseille","lat":43.27171,"lon":5.41857,"is_reserved":false,"is_disabled":false,"rental_uris":{"android":"levelo://app?vid=acecd038-56ee-410d-881c-ffa02850a176","ios":"levelo://app?vid=acecd038-56ee-410d-881c-ffa02850a176"},"vehicle_type_id":"4","last_reported":1686485531,"current_range_meters":1200,"station_id":"","pricing_plan_id":"free"},{"bike_id":"04c6617c-246c-4477-a542-601d6d9b4145","system_id":"levelo_inurba_marseille","lat":43.2607,"lon":5.393983,"is_reserved":false,"is_disabled":false,"rental_uris":{"android":"levelo://app?vid=04c6617c-246c-4477-a542-601d6d9b4145","ios":"levelo://app?vid=04c6617c-246c-4477-a542-601d6d9b4145"},"vehicle_type_id":"4","last_reported":1686485531,"current_range_meters":25200,"station_id":"ce4bhh92rcd13ifvqfj0","pricing_plan_id":"free"},{"bike_id":"a8758f9b-0351-49f1-ab55-280eb8f3f2b2","system_id":"levelo_inurba_marseille","lat":43.26259,"lon":5.40281,"is_reserved":false,"is_disabled":false,"rental_uris":{"android":"levelo://app?vid=a8758f9b-0351-49f1-ab55-280eb8f3f2b2","ios":"levelo://app?vid=a8758f9b-0351-49f1-ab55-280eb8f3f2b2"},"vehicle_type_id":"4","last_reported":1686485531,"current_range_meters":31200,"station_id":"","pricing_plan_id":"free"},{"bike_id":"1ed5dd8d-1f28-4678-b8a8-b332f870292f","system_id":"levelo_inurba_marseille","lat":43.28265,"lon":5.43471,"is_reserved":false,"is_disabled":false,"rental_uris":{"android":"levelo://app?vid=1ed5dd8d-1f28-4678-b8a8-b332f870292f","ios":"levelo://app?vid=1ed5dd8d-1f28-4678-b8a8-b332f870292f"},"vehicle_type_id":"4","last_reported":1686485531,"current_range_meters":23600,"station_id":"","pricing_plan_id":"free"},{"bike_id":"dd1dd081-b942-4742-9947-748d60e6f5ce","system_id":"levelo_inurba_marseille","lat":43.255756,"lon":5.382303,"is_reserved":false,"is_disabled":false,"rental_uris":{"android":"levelo://app?vid=dd1dd081-b942-4742-9947-748d60e6f5ce","ios":"levelo://app?vid=dd1dd081-b942-4742-9947-748d60e6f5ce"},"vehicle_type_id":"4","last_reported":1686485531,"current_range_meters":23200,"station_id":"ce4bhih2rcd13ifvqfs0","pricing_plan_id":"free"},{"bike_id":"518e2f53-e5b6-4804-82bd-c72df91b7b2d","system_id":"levelo_inurba_marseille","lat":43.255756,"lon":5.382303,"is_reserved":false,"is_disabled":false,"rental_uris":{"android":"levelo://app?vid=518e2f53-e5b6-4804-82bd-c72df91b7b2d","ios":"levelo://app?vid=518e2f53-e5b6-4804-82bd-c72df91b7b2d"},"vehicle_type_id":"4","last_reported":1686485531,"current_range_meters":28000,"station_id":"ce4bhih2rcd13ifvqfs0","pricing_plan_id":"free"},{"bike_id":"a781a343-b241-4f95-ab3c-8b2df648c6cb","system_id":"levelo_inurba_marseille","lat":43.33312,"lon":5.44167,"is_reserved":false,"is_disabled":false,"rental_uris":{"android":"levelo://app?vid=a781a343-b241-4f95-ab3c-8b2df648c6cb","ios":"levelo://app?vid=a781a343-b241-4f95-ab3c-8b2df648c6cb"},"vehicle_type_id":"4","last_reported":1686485531,"current_range_meters":2000,"station_id":"","pricing_plan_id":"free"},{"bike_id":"fdd6dece-00e6-452a-9791-9a83b511fa00","system_id":"levelo_inurba_marseille","lat":43.254947,"lon":5.376454,"is_reserved":false,"is_disabled":false,"rental_uris":{"android":"levelo://app?vid=fdd6dece-00e6-452a-9791-9a83b511fa00","ios":"levelo://app?vid=fdd6dece-00e6-452a-9791-9a83b511fa00"},"vehicle_type_id":"4","last_reported":1686485531,"current_range_meters":30800,"station_id":"ce4bhh12rcd13ifvqff0","pricing_plan_id":"free"},{"bike_id":"2d6cce46-ec3e-47db-9637-e864bd63d87b","system_id":"levelo_inurba_marseille","lat":43.254947,"lon":5.376454,"is_reserved":false,"is_disabled":false,"rental_uris":{"android":"levelo://app?vid=2d6cce46-ec3e-47db-9637-e864bd63d87b","ios":"levelo://app?vid=2d6cce46-ec3e-47db-9637-e864bd63d87b"},"vehicle_type_id":"4","last_reported":1686485531,"current_range_meters":30800,"station_id":"ce4bhh12rcd13ifvqff0","pricing_plan_id":"free"},{"bike_id":"1b2694e9-e4d4-4262-b9d0-bd844d9a609a","system_id":"levelo_inurba_marseille","lat":43.254947,"lon":5.376454,"is_reserved":false,"is_disabled":false,"rental_uris":{"android":"levelo://app?vid=1b2694e9-e4d4-4262-b9d0-bd844d9a609a","ios":"levelo://app?vid=1b2694e9-e4d4-4262-b9d0-bd844d9a609a"},"vehicle_type_id":"4","last_reported":1686485531,"current_range_meters":30400,"station_id":"ce4bhh12rcd13ifvqff0","pricing_plan_id":"free"},{"bike_id":"33f0f9c0-9ec9-4085-a5dd-c89314dc6df4","system_id":"levelo_inurba_marseille","lat":43.2549,"lon":5.37655,"is_reserved":false,"is_disabled":false,"rental_uris":{"android":"levelo://app?vid=33f0f9c0-9ec9-4085-a5dd-c89314dc6df4","ios":"levelo://app?vid=33f0f9c0-9ec9-4085-a5dd-c89314dc6df4"},"vehicle_type_id":"4","last_reported":1686485531,"current_range_meters":10400,"station_id":"ce4bhh12rcd13ifvqff0","pricing_plan_id":"free"},{"bike_id":"185a9d52-8696-46dd-8936-eb185ee782c8","system_id":"levelo_inurba_marseille","lat":43.27077,"lon":5.42279,"is_reserved":false,"is_disabled":false,"rental_uris":{"android":"levelo://app?vid=185a9d52-8696-46dd-8936-eb185ee782c8","ios":"levelo://app?vid=185a9d52-8696-46dd-8936-eb185ee782c8"},"vehicle_type_id":"4","last_reported":1686485531,"current_range_meters":23200,"station_id":"ce4bhk92rcd13ifvqgb0","pricing_plan_id":"free"},{"bike_id":"926456a4-683a-4130-825f-e349460ba24e","system_id":"levelo_inurba_marseille","lat":43.27066,"lon":5.42275,"is_reserved":false,"is_disabled":false,"rental_uris":{"android":"levelo://app?vid=926456a4-683a-4130-825f-e349460ba24e","ios":"levelo://app?vid=926456a4-683a-4130-825f-e349460ba24e"},"vehicle_type_id":"4","last_reported":1686485531,"current_range_meters":22800,"station_id":"ce4bhk92rcd13ifvqgb0","pricing_plan_id":"free"},{"bike_id":"16075b60-0e1b-4a77-ac9f-a94facb761d2","system_id":"levelo_inurba_marseille","lat":43.270721,"lon":5.422764,"is_reserved":false,"is_disabled":false,"rental_uris":{"android":"levelo://app?vid=16075b60-0e1b-4a77-ac9f-a94facb761d2","ios":"levelo://app?vid=16075b60-0e1b-4a77-ac9f-a94facb761d2"},"vehicle_type_id":"4","last_reported":1686485531,"current_range_meters":30000,"station_id":"ce4bhk92rcd13ifvqgb0","pricing_plan_id":"free"},{"bike_id":"e8071b4f-e8c7-48ed-bebf-be2e17e90d5f","system_id":"levelo_inurba_marseille","lat":43.270721,"lon":5.422764,"is_reserved":false,"is_disabled":false,"rental_uris":{"android":"levelo://app?vid=e8071b4f-e8c7-48ed-bebf-be2e17e90d5f","ios":"levelo://app?vid=e8071b4f-e8c7-48ed-bebf-be2e17e90d5f"},"vehicle_type_id":"4","last_reported":1686485531,"current_range_meters":26800,"station_id":"ce4bhk92rcd13ifvqgb0","pricing_plan_id":"free"},{"bike_id":"e7fb3dbe-d307-4c77-9632-b7dd275c7b6b","system_id":"levelo_inurba_marseille","lat":43.25933,"lon":5.40912,"is_reserved":false,"is_disabled":false,"rental_uris":{"android":"levelo://app?vid=e7fb3dbe-d307-4c77-9632-b7dd275c7b6b","ios":"levelo://app?vid=e7fb3dbe-d307-4c77-9632-b7dd275c7b6b"},"vehicle_type_id":"4","last_reported":1686485531,"current_range_meters":7200,"station_id":"","pricing_plan_id":"free"},{"bike_id":"9e21e0f3-faa4-4763-99f8-53f3bd6246d4","system_id":"levelo_inurba_marseille","lat":43.25003,"lon":5.38922,"is_reserved":false,"is_disabled":false,"rental_uris":{"android":"levelo://app?vid=9e21e0f3-faa4-4763-99f8-53f3bd6246d4","ios":"levelo://app?vid=9e21e0f3-faa4-4763-99f8-53f3bd6246d4"},"vehicle_type_id":"4","last_reported":1686485531,"current_range_meters":31200,"station_id":"ce4bhgp2rcd13ifvqfd0","pricing_plan_id":"free"},