{"last_updated":1713910100,"ttl":30,"version":"2.2","data":{"bikes":[{"bike_id":"df71d369-7ba9-42d4-9ef0-8b34641d2da9","system_id":"levelo_inurba_marseille","lat":43.313391,"lon":5.36706,"is_reserved":false,"is_disabled":false,"rental_uris":{"android":"levelo://app?vid=df71d369-7ba9-42d4-9ef0-8b34641d2da9","ios":"levelo://app?vid=df71d369-7ba9-42d4-9ef0-8b34641d2da9"},"vehicle_type_id":"4","last_reported":1713910100,"current_range_meters":22800,"station_id":"ce4bgr92rcd13ifvqc6g","pricing_plan_id":"cebpf4jnsgd1na2vs0mg"},{"bike_id":"5764eeab-a0a1-41f5-9e3b-a3e2816f93d7","system_id":"levelo_inurba_marseille","lat":43.312239,"lon":5.368562,"is_reserved":false,"is_disabled":false,"rental_uris":{"android":"levelo://app?vid=5764eeab-a0a1-41f5-9e3b-a3e2816f93d7","ios":"levelo://app?vid=5764eeab-a0a1-41f5-9e3b-a3e2816f93d7"},"vehicle_type_id":"4","last_reported":1713910100,"current_range_meters":14000,"station_id":"ce4bgl92rcd13ifvqbq0","pricing_plan_id":"cebpf4jnsgd1na2vs0mg"},{"bike_id":"d28c6ca1-26fd-4249-a797-faa6a89281d9","system_id":"levelo_inurba_marseille","lat":43.309076,"lon":5.368465,"is_reserved":false,"is_disabled":false,"rental_uris":{"android":"levelo://app?vid=d28c6ca1-26fd-4249-a797-faa6a89281d9","ios":"levelo://app?vid=d28c6ca1-26fd-4249-a797-faa6a89281d9"},"vehicle_type_id":"4","last_reported":1713910100,"current_range_meters":24400,"station_id":"ce4bgn92rcd13ifvqbvg","pricing_plan_id":"cebpf4jnsgd1na2vs0mg"},{"bike_id":"84a1f4d2-ee95-49b1-9824-44a4e0025970","system_id":"levelo_inurba_marseille","lat":43.314811,"lon":5.373103,"is_reserved":false,"is_disabled":false,"rental_uris":{"android":"levelo://app?vid=84a1f4d2-ee95-49b1-9824-44a4e0025970","ios":"levelo://app?vid=84a1f4d2-ee95-49b1-9824-44a4e0025970"},"vehicle_type_id":"4","last_reported":1713910100,"current_range_meters":13200,"station_id":"ce4bgt12rcd13ifvqcd0","pricing_plan_id":"cebpf4jnsgd1na2vs0mg"},{"bike_id":"f1ec166b-45f7-484b-8d77-bad29e48b59f","system_id":"levelo_inurba_marseille","lat":43.31484,"lon":5.37308,"is_reserved":false,"is_disabled":false,"rental_uris":{"android":"levelo://app?vid=f1ec166b-45f7-484b-8d77-bad29e48b59f","ios":"levelo://app?vid=f1ec166b-45f7-484b-8d77-bad29e48b59f"},"vehicle_type_id":"4","last_reported":1713910100,"current_range_meters":1600,"station_id":"ce4bgt92rcd13ifvqcf0","pricing_plan_id":"cebpf4jnsgd1na2vs0mg"},{"bike_id":"45effe77-1d67-4f76-938f-17d2d679b540","system_id":"levelo_inurba_marseille","lat":43.314811,"lon":5.373104,"is_reserved":false,"is_disabled":false,"rental_uris":{"android":"levelo://app?vid=45effe77-1d67-4f76-938f-17d2d679b540","ios":"levelo://app?vid=45effe77-1d67-4f76-938f-17d2d679b540"},"vehicle_type_id":"4","last_reported":1713910100,"current_range_meters":14800,"station_id":"ce4bgt12rcd13ifvqcd0","pricing_plan_id":"cebpf4jnsgd1na2vs0mg"},{"bike_id":"87267051-9fb6-47a5-9e72-abb8a9e46e29","system_id":"levelo_inurba_marseille","lat":43.309034,"lon":5.371783,"is_reserved":false,"is_disabled":false,"rental_uris":{"android":"levelo://app?vid=87267051-9fb6-47a5-9e72-abb8a9e46e29","ios":"levelo://app?vid=87267051-9fb6-47a5-9e72-abb8a9e46e29"},"vehicle_type_id":"4","last_reported":1713910100,"current_range_meters":13600,"station_id":"ce4bguh2rcd13ifvqckg","pricing_plan_id":"cebpf4jnsgd1na2vs0mg"},{"bike_id":"07a1e472-a0ae-4dec-b853-9140d8011b6b","system_id":"levelo_inurba_marseille","lat":43.309034,"lon":5.371783,"is_reserved":false,"is_disabled":false,"rental_uris":{"android":"levelo://app?vid=07a1e472-a0ae-4dec-b853-9140d8011b6b","ios":"levelo://app?vid=07a1e472-a0ae-4dec-b853-9140d8011b6b"},"vehicle_type_id":"4","last_reported":1713910100,"current_range_meters":10400,"station_id":"ce4bguh2rcd13ifvqckg","pricing_plan_id":"cebpf4jnsgd1na2vs0mg"},{"bike_id":"9c3e4da5-6173-4f52-9cb4-7ffb8dbbb74a","system_id":"levelo_inurba_marseille","lat":43.30892,"lon":5.37196,"is_reserved":false,"is_disabled":false,"rental_uris":{"android":"levelo://app?vid=9c3e4da5-6173-4f52-9cb4-7ffb8dbbb74a","ios":"levelo://app?vid=9c3e4da5-6173-4f52-9cb4-7ffb8dbbb74a"},"vehicle_type_id":"4","last_reported":1713910100,"current_range_meters":26000,"station_id":"ce4bguh2rcd13ifvqckg","pricing_plan_id":"cebpf4jnsgd1na2vs0mg"},{"bike_id":"e75db4e1-4edb-4d9a-95da-b8282847cea0","system_id":"levelo_inurba_marseille","lat":43.309034,"lon":5.371783,"is_reserved":false,"is_disabled":false,"rental_uris":{"android":"levelo://app?vid=e75db4e1-4edb-4d9a-95da-b8282847cea0","ios":"levelo://app?vid=e75db4e1-4edb-4d9a-95da-b8282847cea0"},"vehicle_type_id":"4","last_reported":1713910100,"current_range_meters":23600,"station_id":"ce4bguh2rcd13ifvqckg","pricing_plan_id":"cebpf4jnsgd1na2vs0mg"},{"bike_id":"f9f7b996-130e-4d34-a44b-f32fabae864a","system_id":"levelo_inurba_marseille","lat":43.30889,"lon":5.37202,"is_reserved":false,"is_disabled":false,"rental_uris":{"android":"levelo://app?vid=f9f7b996-130e-4d34-a44b-f32fabae864a","ios":"levelo://app?vid=f9f7b996-130e-4d34-a44b-f32fabae864a"},"vehicle_type_id":"4","last_reported":1713910100,"current_range_meters":22000,"station_id":"ce4bguh2rcd13ifvqckg","pricing_plan_id":"cebpf4jnsgd1na2vs0mg"},{"bike_id":"8c395149-c248-44f3-9ed5-11a7c51301c3","system_id":"levelo_inurba_marseille","lat":43.30694,"lon":5.365528,"is_reserved":false,"is_disabled":false,"rental_uris":{"android":"levelo://app?vid=8c395149-c248-44f3-9ed5-11a7c51301c3","ios":"levelo://app?vid=8c395149-c248-44f3-9ed5-11a7c51301c3"},"vehicle_type_id":"4","last_reported":1713910100,"current_range_meters":5200,"station_id":"","pricing_plan_id":"cebpf4jnsgd1na2vs0mg"},{"bike_id":"57093deb-9f08-4a6a-ad3f-5a503b980a67","system_id":"levelo_inurba_marseille","lat":43.305368,"lon":5.367343,"is_reserved":false,"is_disabled":false,"rental_uris":{"android":"levelo://app?vid=57093deb-9f08-4a6a-ad3f-5a503b980a67","ios":"levelo://app?vid=57093deb-9f08-4a6a-ad3f-5a503b980a67"},"vehicle_type_id":"4","last_reported":1713910100,"current_range_meters":12400,"station_id":"ce4bgrp2rcd13ifvqc9g","pricing_plan_id":"cebpf4jnsgd1na2vs0mg"},{"bike_id":"e6c3db1d-f3d1-41ce-a96e-850bee070e3b","system_id":"levelo_inurba_marseille","lat":43.30537,"lon":5.367345,"is_reserved":false,"is_disabled":false,"rental_uris":{"android":"levelo://app?vid=e6c3db1d-f3d1-41ce-a96e-850bee070e3b","ios":"levelo://app?vid=e6c3db1d-f3d1-41ce-a96e-850bee070e3b"},"vehicle_type_id":"4","last_reported":1713910100,"current_range_meters":14400,"station_id":"ce4bgrp2rcd13ifvqc9g","pricing_plan_id":"cebpf4jnsgd1na2vs0mg"},{"bike_id":"4925424c-892d-488f-9b41-65858ea3f143","system_id":"levelo_inurba_marseille","lat":43.305368,"lon":5.367343,"is_reserved":false,"is_disabled":false,"rental_uris":{"android":"levelo://app?vid=4925424c-892d-488f-9b41-65858ea3f143","ios":"levelo://app?vid=4925424c-892d-488f-9b41-65858ea3f143"},"vehicle_type_id":"4","last_reported":1713910100,"current_range_meters":8400,"station_id":"ce4bgrp2rcd13ifvqc9g","pricing_plan_id":"cebpf4jnsgd1na2vs0mg"},{"bike_id":"c4bbf80e-b998-4b5a-9791-adc3d551c303","system_id":"levelo_inurba_marseille","lat":43.30602,"lon":5.37216,"is_reserved":false,"is_disabled":false,"rental_uris":{"android":"levelo://app?vid=c4bbf80e-b998-4b5a-9791-adc3d551c303","ios":"levelo://app?vid=c4bbf80e-b998-4b5a-9791-adc3d551c303"},"vehicle_type_id":"4","last_reported":1713910100,"current_range_meters":2400,"station_id":"ce4bgqh2rcd13ifvqc4g","pricing_plan_id":"cebpf4jnsgd1na2vs0mg"},{"bike_id":"f5b25fbc-37ec-4b07-95ea-80a1cca2a677","system_id":"levelo_inurba_marseille","lat":43.305989,"lon":5.37225,"is_reserved":false,"is_disabled":false,"rental_uris":{"android":"levelo://app?vid=f5b25fbc-37ec-4b07-95ea-80a1cca2a677","ios":"levelo://app?vid=f5b25fbc-37ec-4b07-95ea-80a1cca2a677"},"vehicle_type_id":"4","last_reported":1713910100,"current_range_meters":14000,"station_id":"ce4bgqh2rcd13ifvqc4g","pricing_plan_id":"cebpf4jnsgd1na2vs0mg"},{"bike_id":"69194278-55b3-4703-b7a9-71c9f01ab6b9","system_id":"levelo_inurba_marseille","lat":43.305989,"lon":5.37225,"is_reserved":false,"is_disabled":false,"rental_uris":{"android":"levelo://app?vid=69194278-55b3-4703-b7a9-71c9f01ab6b9","ios":"levelo://app?vid=69194278-55b3-4703-b7a9-71c9f01ab6b9"},"vehicle_type_id":"4","last_reported":1713910100,"current_range_meters":18400,"station_id":"ce4bgqh2rcd13ifvqc4g","pricing_plan_id":"cebpf4jnsgd1na2vs0mg"},{"bike_id":"99e030f1-2a19-49ce-9976-5757b6f52f79","system_id":"levelo_inurba_marseille","lat":43.305989,"lon":5.37225,"is_reserved":false,"is_disabled":false,"rental_uris":{"android":"levelo://app?vid=99e030f1-2a19-49ce-9976-5757b6f52f79","ios":"levelo://app?vid=99e030f1-2a19-49ce-9976-5757b6f52f79"},"vehicle_type_id":"4","last_reported":1713910100,"current_range_meters":26400,"station_id":"ce4bgqh2rcd13ifvqc4g","pricing_plan_id":"cebpf4jnsgd1na2vs0mg"},{"bike_id":"fcd11b24-4b3f-4a50-a216-9b3799c0db75","system_id":"levelo_inurba_marseille","lat":43.305989,"lon":5.37225,"is_reserved":false,"is_disabled":false,"rental_uris":{"android":"levelo://app?vid=fcd11b24-4b3f-4a50-a216-9b3799c0db75","ios":"levelo://app?vid=fcd11b24-4b3f-4a50-a216-9b3799c0db75"},"vehicle_type_id":"4","last_reported":1713910100,"current_range_meters":10800,"station_id":"ce4bgqh2rcd13ifvqc4g","pricing_plan_id":"cebpf4jnsgd1na2vs0mg"},{"bike_id":"ed4bb502-d5a2-4ee6-94d1-22499903bd28","system_id":"levelo_inurba_marseille","lat":43.311261,"lon":5.377533,"is_reserved":false,"is_disabled":false,"rental_uris":{"android":"levelo://app?vid=ed4bb502-d5a2-4ee6-94d1-22499903bd28","ios":"levelo://app?vid=ed4bb502-d5a2-4ee6-94d1-22499903bd28"},"vehicle_type_id":"4","last_reported":1713910100,"current_range_meters":2400,"station_id":"ce4bgt92rcd13ifvqcg0","pricing_plan_id":"cebpf4jnsgd1na2vs0mg"},{"bike_id":"2707546f-613d-4bad-9cb9-670f9b183da1","system_id":"levelo_inurba_marseille","lat":43.31123,"lon":5.37759,"is_reserved":false,"is_disabled":false,"rental_uris":{"android":"levelo://app?vid=2707546f-613d-4bad-9cb9-670f9b183da1","ios":"levelo://app?vid=2707546f-613d-4bad-9cb9-670f9b183da1"},"vehicle_type_id":"4","last_reported":1713910100,"current_range_meters":12000,"station_id":"ce4bgt92rcd13ifvqcg0","pricing_plan_id":"cebpf4jnsgd1na2vs0mg"},{"bike_id":"b8b896a9-60be-4c18-88c3-8cc50a1e339c","system_id":"levelo_inurba_marseille","lat":43.311151,"lon":5.377657,"is_reserved":false,"is_disabled":false,"rental_uris":{"android":"levelo://app?vid=b8b896a9-60be-4c18-88c3-8cc50a1e339c","ios":"levelo://app?vid=b8b896a9-60be-4c18-88c3-8cc50a1e339c"},"vehicle_type_id":"4","last_reported":1713910100,"current_range_meters":1200,"station_id":"","pricing_plan_id":"cebpf4jnsgd1na2vs0mg"},{"bike_id":"357e0c4a-99b7-4017-973b-1fe7181be160","system_id":"levelo_inurba_marseille","lat":43.31113,"lon":5.37767,"is_reserved":false,"is_disabled":false,"rental_uris":{"android":"levelo://app?vid=357e0c4a-99b7-4017-973b-1fe7181be160","ios":"levelo://app?vid=357e0c4a-99b7-4017-973b-1fe7181be160"},"vehicle_type_id":"4","last_reported":1713910100,"current_range_meters":0,"station_id":"ce4bgt92rcd13ifvqcg0","pricing_plan_id":"cebpf4jnsgd1na2vs0mg"},{"bike_id":"b08e4d05-1245-4fe7-8616-c623edd6248d","system_id":"levelo_inurba_marseille","lat":43.311162,"lon":5.377723,"is_reserved":false,"is_disabled":false,"rental_uris":{"android":"levelo://app?vid=b08e4d05-1245-4fe7-8616-c623edd6248d","ios":"levelo://app?vid=b08e4d05-1245-4fe7-8616-c623edd6248d"},"vehicle_type_id":"4","last_reported":1713910100,"current_range_meters":0,"station_id":"ce4bgt92rcd13ifvqcg0","pricing_plan_id":"cebpf4jnsgd1na2vs0mg"},{"bike_id":"e831e0cc-c37c-4e9f-beff-250da997722e","system_id":"levelo_inurba_marseille","lat":43.307945,"lon":5.376487,"is_reserved":false,"is_disabled":false,"rental_uris":{"android":"levelo://app?vid=e831e0cc-c37c-4e9f-beff-250da997722e","ios":"levelo://app?vid=e831e0cc-c37c-4e9f-beff-250da997722e"},"vehicle_type_id":"4","last_reported":1713910100,"current_range_meters":3600,"station_id":"ce4bgv92rcd13ifvqcq0","pricing_plan_id":"cebpf4jnsgd1na2vs0mg"},{"bike_id":"790fd27c-a820-4e5a-bbd0-5a135cf845f8","system_id":"levelo_inurba_marseille","lat":43.307945,"lon":5.376487,"is_reserved":false,"is_disabled":false,"rental_uris":{"android":"levelo://app?vid=790fd27c-a820-4e5a-bbd0-5a135cf845f8","ios":"levelo://app?vid=790fd27c-a820-4e5a-bbd0-5a135cf845f8"},"vehicle_type_id":"4","last_reported":1713910100,"current_range_meters":9600,"station_id":"ce4bgv92rcd13ifvqcq0","pricing_plan_id":"cebpf4jnsgd1na2vs0mg"},{"bike_id":"73d8b4b6-3f91-4f14-a84b-93df2118ac6b","system_id":"levelo_inurba_marseille","lat":43.307945,"lon":5.376487,"is_reserved":false,"is_disabled":false,"rental_uris":{"android":"levelo://app?vid=73d8b4b6-3f91-4f14-a84b-93df2118ac6b","ios":"levelo://app?vid=73d8b4b6-3f91-4f14-a84b-93df2118ac6b"},"vehicle_type_id":"4","last_reported":1713910100,"current_range_meters":13200,"station_id":"ce4bgv92rcd13ifvqcq0","pricing_plan_id":"cebpf4jnsgd1na2vs0mg"},{"bike_id":"bcd00e71-3c5e-408c-9f39-c7caf7f9f1d6","system_id":"levelo_inurba_marseille","lat":43.307945,"lon":5.376487,"is_reserved":false,"is_disabled":false,"rental_uris":{"android":"levelo://app?vid=bcd00e71-3c5e-408c-9f39-c7caf7f9f1d6","ios":"levelo://app?vid=bcd00e71-3c5e-408c-9f39-c7caf7f9f1d6"},"vehicle_type_id":"4","last_reported":1713910100,"current_range_meters":31200,"station_id":"ce4bgv92rcd13ifvqcq0","pricing_plan_id":"cebpf4jnsgd1na2vs0mg"},{"bike_id":"08e3e0ee-05fe-4ee2-a7e5-e2082aaad53f","system_id":"levelo_inurba_marseille","lat":43.307945,"lon":5.376487,"is_reserved":false,"is_disabled":false,"rental_uris":{"android":"levelo://app?vid=08e3e0ee-05fe-4ee2-a7e5-e2082aaad53f","ios":"levelo://app?vid=08e3e0ee-05fe-4ee2-a7e5-e2082aaad53f"},"vehicle_type_id":"4","last_reported":1713910100,"current_range_meters":29200,"station_id":"ce4bgv92rcd13ifvqcq0","pricing_plan_id":"cebpf4jnsgd1na2vs0mg"},{"bike_id":"e65ae59b-5b71-4f71-a427-1a748fe8bada","system_id":"levelo_inurba_marseille","lat":43.307945,"lon":5.376487,"is_reserved":false,"is_disabled":false,"rental_uris":{"android":"levelo://app?vid=e65ae59b-5b71-4f71-a427-1a748fe8bada","ios":"levelo://app?vid=e65ae59b-5b71-4f71-a427-1a748fe8bada"},"vehicle_type_id":"4","last_reported":1713910100,"current_range_meters":23200,"station_id":"ce4bgv92rcd13ifvqcq0","pricing_plan_id":"cebpf4jnsgd1na2vs0mg"},{"bike_id":"7629a1d1-6520-4201-a7bc-897f35f9a055","system_id":"levelo_inurba_marseille","lat":43.307945,"lon":5.376487,"is_reserved":false,"is_disabled":false,"rental_uris":{"android":"levelo://app?vid=7629a1d1-6520-4201-a7bc-897f35f9a055","ios":"levelo://app?vid=7629a1d1-6520-4201-a7bc-897f35f9a055"},"vehicle_type_id":"4","last_reported":1713910100,"current_range_meters":31600,"station_id":"ce4bgv92rcd13ifvqcq0","pricing_plan_id":"cebpf4jnsgd1na2vs0mg"},{"bike_id":"11d29c44-25c3-4cfd-a8fd-cbb3659711d3","system_id":"levelo_inurba_marseille","lat":43.307945,"lon":5.376487,"is_reserved":false,"is_disabled":false,"rental_uris":{"android":"levelo://app?vid=11d29c44-25c3-4cfd-a8fd-cbb3659711d3","ios":"levelo://app?vid=11d29c44-25c3-4cfd-a8fd-cbb3659711d3"},"vehicle_type_id":"4","last_reported":1713910100,"current_range_meters":30000,"station_id":"ce4bgv92rcd13ifvqcq0","pricing_plan_id":"cebpf4jnsgd1na2vs0mg"},{"bike_id":"bdfe8dfe-77b3-4b9b-a7d8-4645f54e19a4","system_id":"levelo_inurba_marseille","lat":43.305989,"lon":5.37225,"is_reserved":false,"is_disabled":false,"rental_uris":{"android":"levelo://app?vid=bdfe8dfe-77b3-4b9b-a7d8-4645f54e19a4","ios":"levelo://app?vid=bdfe8dfe-77b3-4b9b-a7d8-4645f54e19a4"},"vehicle_type_id":"4","last_reported":1713910100,"current_range_meters":21200,"station_id":"ce4bgqh2rcd13ifvqc4g","pricing_plan_id":"cebpf4jnsgd1na2vs0mg"},{"bike_id":"05d05ad0-4bb8-499d-82f0-aa0297336982","system_id":"levelo_inurba_marseille","lat":43.317075,"lon":5.377367,"is_reserved":false,"is_disabled":false,"rental_uris":{"android":"levelo://app?vid=05d05ad0-4bb8-499d-82f0-aa0297336982","ios":"levelo://app?vid=05d05ad0-4bb8-499d-82f0-aa0297336982"},"vehicle_type_id":"4","last_reported":1713910100,"current_range_meters":14000,"station_id":"ce4bgth2rcd13ifvqch0","pricing_plan_id":"cebpf4jnsgd1na2vs0mg"},{"bike_id":"aa5ec48f-9f21-4e10-94f1-5cf77fa622c0","system_id":"levelo_inurba_marseille","lat":43.317169,"lon":5.377279,"is_reserved":false,"is_disabled":false,"rental_uris":{"android":"levelo://app?vid=aa5ec48f-9f21-4e10-94f1-5cf77fa622c0","ios":"levelo://app?vid=aa5ec48f-9f21-4e10-94f1-5cf77fa622c0"},"vehicle_type_id":"4","last_reported":1713910100,"current_range_meters":18000,"station_id":"ce4bgth2rcd13ifvqch0","pricing_plan_id":"cebpf4jnsgd1na2vs0mg"},{"bike_id":"fbcbf667-d3c4-44bf-85de-e0b584ae4169","system_id":"levelo_inurba_marseille","lat":43.317075,"lon":5.377367,"is_reserved":false,"is_disabled":false,"rental_uris":{"android":"levelo://app?vid=fbcbf667-d3c4-44bf-85de-e0b584ae4169","ios":"levelo://app?vid=fbcbf667-d3c4-44bf-85de-e0b584ae4169"},"vehicle_type_id":"4","last_reported":1713910100,"current_range_meters":26000,"station_id":"ce4bgth2rcd13ifvqch0","pricing_plan_id":"cebpf4jnsgd1na2vs0mg"},{"bike_id":"b4854735-77a2-4b8e-975d-f5ec26df9228","system_id":"levelo_inurba_marseille","lat":43.317075,"lon":5.377367,"is_reserved":false,"is_disabled":false,"rental_uris":{"android":"levelo://app?vid=b4854735-77a2-4b8e-975d-f5ec26df9228","ios":"levelo://app?vid=b4854735-77a2-4b8e-975d-f5ec26df9228"},"vehicle_type_id":"4","last_reported":1713910100,"current_range_meters":21600,"station_id":"ce4bgth2rcd13ifvqch0","pricing_plan_id":"cebpf4jnsgd1na2vs0mg"},{"bike_id":"e379bf47-ad04-4efa-9ec0-0353364b93cd","system_id":"levelo_inurba_marseille","lat":43.31704,"lon":5.377622,"is_reserved":false,"is_disabled":false,"rental_uris":{"android":"levelo://app?vid=e379bf47-ad04-4efa-9ec0-0353364b93cd","ios":"levelo://app?vid=e379bf47-ad04-4efa-9ec0-0353364b93cd"},"vehicle_type_id":"4","last_reported":1713910100,"current_range_meters":1600,"station_id":"ce4bgth2rcd13ifvqch0","pricing_plan_id":"cebpf4jnsgd1na2vs0mg"},{"bike_id":"26a83e33-4035-4a6d-9aef-71ac3cf3553f","system_id":"levelo_inurba_marseille","lat":43.317075,"lon":5.377367,"is_reserved":false,"is_disabled":false,"rental_uris":{"android":"levelo://app?vid=26a83e33-4035-4a6d-9aef-71ac3cf3553f","ios":"levelo://app?vid=26a83e33-4035-4a6d-9aef-71ac3cf3553f"},"vehicle_type_id":"4","last_reported":1713910100,"current_range_meters":22000,"station_id":"ce4bgth2rcd13ifvqch0","pricing_plan_id":"cebpf4jnsgd1na2vs0mg"},{"bike_id":"745d5b11-78ce-44a5-a3bc-832f99d704f3","system_id":"levelo_inurba_marseille","lat":43.317154,"lon":5.377726,"is_reserved":false,"is_disabled":false,"rental_uris":{"android":"levelo://app?vid=745d5b11-78ce-44a5-a3bc-832f99d704f3","ios":"levelo://app?vid=745d5b11-78ce-44a5-a3bc-832f99d704f3"},"vehicle_type_id":"4","last_reported":1713910100,"current_range_meters":20800,"station_id":"ce4bgth2rcd13ifvqch0","pricing_plan_id":"cebpf4jnsgd1na2vs0mg"},{"bike_id":"0e0bc62f-f506-4ded-abc0-952636d5bedc","system_id":"levelo_inurba_marseille","lat":43.30308,"lon":5.36895,"is_reserved":false,"is_disabled":false,"rental_uris":{"android":"levelo://app?vid=0e0bc62f-f506-4ded-abc0-952636d5bedc","ios":"levelo://app?vid=0e0bc62f-f506-4ded-abc0-952636d5bedc"},"vehicle_type_id":"4","last_reported":1713910100,"current_range_meters":3600,"station_id":"ce4bgqh2rcd13ifvqc5g","pricing_plan_id":"cebpf4jnsgd1na2vs0mg"},{"bike_id":"4416f9eb-29a0-47b7-9110-55b6f01fec00","system_id":"levelo_inurba_marseille","lat":43.315289,"lon":5.380349,"is_reserved":false,"is_disabled":false,"rental_uris":{"android":"levelo://app?vid=4416f9eb-29a0-47b7-9110-55b6f01fec00","ios":"levelo://app?vid=4416f9eb-29a0-47b7-9110-55b6f01fec00"},"vehicle_type_id":"4","last_reported":1713910100,"current_range_meters":8000,"station_id":"ce4bhsp2rcd13ifvqi50","pricing_plan_id":"cebpf4jnsgd1na2vs0mg"},{"bike_id":"8e4a42b1-f897-4dc4-9419-5ab9ca4da5ae","system_id":"levelo_inurba_marseille","lat":43.315289,"lon":5.380349,"is_reserved":false,"is_disabled":false,"rental_uris":{"android":"levelo://app?vid=8e4a42b1-f897-4dc4-9419-5ab9ca4da5ae","ios":"levelo://app?vid=8e4a42b1-f897-4dc4-9419-5ab9ca4da5ae"},"vehicle_type_id":"4","last_reported":1713910100,"current_range_meters":12800,"station_id":"ce4bhsp2rcd13ifvqi50","pricing_plan_id":"cebpf4jnsgd1na2vs0mg"},{"bike_id":"cc07bd6d-9a62-4304-9872-709067a18b62","system_id":"levelo_inurba_marseille","lat":43.315289,"lon":5.380349,"is_reserved":false,"is_disabled":false,"rental_uris":{"android":"levelo://app?vid=cc07bd6d-9a62-4304-9872-709067a18b62","ios":"levelo://app?vid=cc07bd6d-9a62-4304-9872-709067a18b62"},"vehicle_type_id":"4","last_reported":1713910100,"current_range_meters":31200,"station_id":"ce4bhsp2rcd13ifvqi50","pricing_plan_id":"cebpf4jnsgd1na2vs0mg"},{"bike_id":"77d694b5-63f6-42c3-b39d-7bc4412afa1b","system_id":"levelo_inurba_marseille","lat":43.315289,"lon":5.380349,"is_reserved":false,"is_disabled":false,"rental_uris":{"android":"levelo://app?vid=77d694b5-63f6-42c3-b39d-7bc4412afa1b","ios":"levelo://app?vid=77d694b5-63f6-42c3-b39d-7bc4412afa1b"},"vehicle_type_id":"4","last_reported":1713910100,"current_range_meters":7200,"station_id":"ce4bhsp2rcd13ifvqi50","pricing_plan_id":"cebpf4jnsgd1na2vs0mg"},{"bike_id":"7101a349-7118-40ef-a725-f184781cbb70","system_id":"levelo_inurba_marseille","lat":43.315289,"lon":5.380349,"is_reserved":false,"is_disabled":false,"rental_uris":{"android":"levelo://app?vid=7101a349-7118-40ef-a725-f184781cbb70","ios":"levelo://app?vid=7101a349-7118-40ef-a725-f184781cbb70"},"vehicle_type_id":"4","last_reported":1713910100,"current_range_meters":31600,"station_id":"ce4bhsp2rcd13ifvqi50","pricing_plan_id":"cebpf4jnsgd1na2vs0mg"},{"bike_id":"20617b6f-01e4-4823-8a20-199bfedddf1d","system_id":"levelo_inurba_marseille","lat":43.315289,"lon":5.380349,"is_reserved":false,"is_disabled":false,"rental_uris":{"android":"levelo://app?vid=20617b6f-01e4-4823-8a20-199bfedddf1d","ios":"levelo://app?vid=20617b6f-01e4-4823-8a20-199bfedddf1d"},"vehicle_type_id":"4","last_reported":1713910100,"current_range_meters":31600,"station_id":"ce4bhsp2rcd13ifvqi50","pricing_plan_id":"cebpf4jnsgd1na2vs0mg"},{"bike_id":"4ed2002b-a9bf-4c02-b309-58e908567305","system_id":"levelo_inurba_marseille","lat":43.315289,"lon":5.380349,"is_reserved":false,"is_disabled":false,"rental_uris":{"android":"levelo://app?vid=4ed2002b-a9bf-4c02-b309-58e908567305","ios":"levelo://app?vid=4ed2002b-a9bf-4c02-b309-58e908567305"},"vehicle_type_id":"4","last_reported":1713910100,"current_range_meters":3600,"station_id":"ce4bhsp2rcd13ifvqi50","pricing_plan_id":"cebpf4jnsgd1na2vs0mg"},{"bike_id":"f356d1d8-0505-46f2-bd58-eca6e251500c","system_id":"levelo_inurba_marseille","lat":43.315293,"lon":5.380349,"is_reserved":false,"is_disabled":false,"rental_uris":{"android":"levelo://app?vid=f356d1d8-0505-46f2-bd58-eca6e251500c","ios":"levelo://app?vid=f356d1d8-0505-46f2-bd58-eca6e251500c"},"vehicle_type_id":"4","last_reported":1713910100,"current_range_meters":29200,"station_id":"ce4bhsp2rcd13ifvqi50","pricing_plan_id":"cebpf4jnsgd1na2vs0mg"},{"bike_id":"1295ab85-4adc-4e00-952a-9e61e7444684","system_id":"levelo_inurba_marseille","lat":43.301939,"lon":5.366286,"is_reserved":false,"is_disabled":false,"rental_uris":{"android":"levelo://app?vid=1295ab85-4adc-4e00-952a-9e61e7444684","ios":"levelo://app?vid=1295ab85-4adc-4e00-952a-9e61e7444684"},"vehicle_type_id":"4","last_reported":1713910100,"current_range_meters":14000,"station_id":"ce4bgrh2rcd13ifvqc8g","pricing_plan_id":"cebpf4jnsgd1na2vs0mg"},{"bike_id":"1a4f5fcc-690a-4459-bc2a-240930bcb3f2","system_id":"levelo_inurba_marseille","lat":43.301939,"lon":5.366286,"is_reserved":false,"is_disabled":false,"rental_uris":{"android":"levelo://app?vid=1a4f5fcc-690a-4459-bc2a-240930bcb3f2","ios":"levelo://app?vid=1a4f5fcc-690a-4459-bc2a-240930bcb3f2"},"vehicle_type_id":"4","last_reported":1713910100,"current_range_meters":11200,"station_id":"ce4bgrh2rcd13ifvqc8g","pricing_plan_id":"cebpf4jnsgd1na2vs0mg"},{"bike_id":"8789a3b1-0867-4a55-8c27-9f1ad980389b","system_id":"levelo_inurba_marseille","lat":43.301939,"lon":5.366286,"is_reserved":false,"is_disabled":false,"rental_uris":{"android":"levelo://app?vid=8789a3b1-0867-4a55-8c27-9f1ad980389b","ios":"levelo://app?vid=8789a3b1-0867-4a55-8c27-9f1ad980389b"},"vehicle_type_id":"4","last_reported":1713910100,"current_range_meters":28800,"station_id":"ce4bgrh2rcd13ifvqc8g","pricing_plan_id":"cebpf4jnsgd1na2vs0mg"},{"bike_id":"367124ff-3c93-4451-a729-046d6375b55e","system_id":"levelo_inurba_marseille","lat":43.301939,"lon":5.366286,"is_reserved":false,"is_disabled":false,"rental_uris":{"android":"levelo://app?vid=367124ff-3c93-4451-a729-046d6375b55e","ios":"levelo://app?vid=367124ff-3c93-4451-a729-046d6375b55e"},"vehicle_type_id":"4","last_reported":1713910100,"current_range_meters":31200,"station_id":"ce4bgrh2rcd13ifvqc8g","pricing_plan_id":"cebpf4jnsgd1na2vs0mg"},{"bike_id":"377d9d31-d11c-499e-a528-bf428aa9a5b3","system_id":"levelo_inurba_marseille","lat":43.301939,"lon":5.366286,"is_reserved":false,"is_disabled":false,"rental_uris":{"android":"levelo://app?vid=377d9d31-d11c-499e-a528-bf428aa9a5b3","ios":"levelo://app?vid=377d9d31-d11c-499e-a528-bf428aa9a5b3"},"vehicle_type_id":"4","last_reported":1713910100,"current_range_meters":19200,"station_id":"ce4bgrh2rcd13ifvqc8g","pricing_plan_id":"cebpf4jnsgd1na2vs0mg"},{"bike_id":"9715e4f2-2d7f-4cb8-99db-a851c3445942","system_id":"levelo_inurba_marseille","lat":43.301939,"lon":5.366286,"is_reserved":false,"is_disabled":false,"rental_uris":{"android":"levelo://app?vid=9715e4f2-2d7f-4cb8-99db-a851c3445942","ios":"levelo://app?vid=9715e4f2-2d7f-4cb8-99db-a851c3445942"},"vehicle_type_id":"4","last_reported":1713910100,"current_range_meters":15600,"station_id":"ce4bgrh2rcd13ifvqc8g","pricing_plan_id":"cebpf4jnsgd1na2vs0mg"},{"bike_id":"966e7976-6c09-4b70-9abd-c9e8cc1ba271","system_id":"levelo_inurba_marseille","lat":43.308012,"lon":5.381511,"is_reserved":false,"is_disabled":false,"rental_uris":{"android":"levelo://app?vid=966e7976-6c09-4b70-9abd-c9e8cc1ba271","ios":"levelo://app?vid=966e7976-6c09-4b70-9abd-c9e8cc1ba271"},"vehicle_type_id":"4","last_reported":1713910100,"current_range_meters":6400,"station_id":"ce4bgt12rcd13ifvqce0","pricing_plan_id":"cebpf4jnsgd1na2vs0mg"},{"bike_id":"3bd4a468-2f80-4a7d-8554-379e03286128","system_id":"levelo_inurba_marseille","lat":43.308012,"lon":5.381511,"is_reserved":false,"is_disabled":false,"rental_uris":{"android":"levelo://app?vid=3bd4a468-2f80-4a7d-8554-379e03286128","ios":"levelo://app?vid=3bd4a468-2f80-4a7d-8554-379e03286128"},"vehicle_type_id":"4","last_reported":1713910100,"current_range_meters":7600,"station_id":"ce4bgt12rcd13ifvqce0","pricing_plan_id":"cebpf4jnsgd1na2vs0mg"},{"bike_id":"30f4a96a-6abe-45ab-a8ee-c6704f2b7844","system_id":"levelo_inurba_marseille","lat":43.308012,"lon":5.381511,"is_reserved":false,"is_disabled":false,"rental_uris":{"android":"levelo://app?vid=30f4a96a-6abe-45ab-a8ee-c6704f2b7844","ios":"levelo://app?vid=30f4a96a-6abe-45ab-a8ee-c6704f2b7844"},"vehicle_type_id":"4","last_reported":1713910100,"current_range_meters":19600,"station_id":"ce4bgt12rcd13ifvqce0","pricing_plan_id":"cebpf4jnsgd1na2vs0mg"},{"bike_id":"c8f3ba62-43b0-40fd-ac14-240e42d8607e","system_id":"levelo_inurba_marseille","lat":43.308012,"lon":5.381511,"is_reserved":false,"is_disabled":false,"rental_uris":{"android":"levelo://app?vid=c8f3ba62-43b0-40fd-ac14-240e42d8607e","ios":"levelo://app?vid=c8f3ba62-43b0-40fd-ac14-240e42d8607e"},"vehicle_type_id":"4","last_reported":1713910100,"current_range_meters":0,"station_id":"ce4bgt12rcd13ifvqce0","pricing_plan_id":"cebpf4jnsgd1na2vs0mg"},{"bike_id":"c357199a-1cf0-489c-a2a4-a3029650533b","system_id":"levelo_inurba_marseille","lat":43.324771,"lon":5.36557,"is_reserved":false,"is_disabled":false,"rental_uris":{"android":"levelo://app?vid=c357199a-1cf0-489c-a2a4-a3029650533b","ios":"levelo://app?vid=c357199a-1cf0-489c-a2a4-a3029650533b"},"vehicle_type_id":"4","last_reported":1713910100,"current_range_meters":2800,"station_id":"ce4bhs12rcd13ifvqhvg","pricing_plan_id":"cebpf4jnsgd1na2vs0mg"},{"bike_id":"87328225-374d-482b-b29a-234f51af0729","system_id":"levelo_inurba_marseille","lat":43.31071,"lon":5.38349,"is_reserved":false,"is_disabled":false,"rental_uris":{"android":"levelo://app?vid=87328225-374d-482b-b29a-234f51af0729","ios":"levelo://app?vid=87328225-374d-482b-b29a-234f51af0729"},"vehicle_type_id":"4","last_reported":1713910100,"current_range_meters":14800,"station_id":"ce4bgv92rcd13ifvqcr0","pricing_plan_id":"cebpf4jnsgd1na2vs0mg"},{"bike_id":"818584c9-52d0-42b5-931c-c8df2ed2848e","system_id":"levelo_inurba_marseille","lat":43.310804,"lon":5.38359,"is_reserved":false,"is_disabled":false,"rental_uris":{"android":"levelo://app?vid=818584c9-52d0-42b5-931c-c8df2ed2848e","ios":"levelo://app?vid=818584c9-52d0-42b5-931c-c8df2ed2848e"},"vehicle_type_id":"4","last_reported":1713910100,"current_range_meters":16400,"station_id":"ce4bgv92rcd13ifvqcr0","pricing_plan_id":"cebpf4jnsgd1na2vs0mg"},{"bike_id":"7da216c5-eaac-49b7-a7b6-5c10d8f5292e","system_id":"levelo_inurba_marseille","lat":43.310804,"lon":5.38359,"is_reserved":false,"is_disabled":false,"rental_uris":{"android":"levelo://app?vid=7da216c5-eaac-49b7-a7b6-5c10d8f5292e","ios":"levelo://app?vid=7da216c5-eaac-49b7-a7b6-5c10d8f5292e"},"vehicle_type_id":"4","last_reported":1713910100,"current_range_meters":9600,"station_id":"ce4bgv92rcd13ifvqcr0","pricing_plan_id":"cebpf4jnsgd1na2vs0mg"},{"bike_id":"18b013df-9bc9-4830-8de1-d4702977f572","system_id":"levelo_inurba_marseille","lat":43.310804,"lon":5.38359,"is_reserved":false,"is_disabled":false,"rental_uris":{"android":"levelo://app?vid=18b013df-9bc9-4830-8de1-d4702977f572","ios":"levelo://app?vid=18b013df-9bc9-4830-8de1-d4702977f572"},"vehicle_type_id":"4","last_reported":1713910100,"current_range_meters":13200,"station_id":"ce4bgv92rcd13ifvqcr0","pricing_plan_id":"cebpf4jnsgd1na2vs0mg"},{"bike_id":"c51a081b-60df-4890-bc40-c5189d12b1e0","system_id":"levelo_inurba_marseille","lat":43.310804,"lon":5.38359,"is_reserved":false,"is_disabled":false,"rental_uris":{"android":"levelo://app?vid=c51a081b-60df-4890-bc40-c5189d12b1e0","ios":"levelo://app?vid=c51a081b-60df-4890-bc40-c5189d12b1e0"},"vehicle_type_id":"4","last_reported":1713910100,"current_range_meters":2400,"station_id":"ce4bgv92rcd13ifvqcr0","pricing_plan_id":"cebpf4jnsgd1na2vs0mg"},{"bike_id":"33f06f6f-02ef-4f71-9401-90b1fc48f968","system_id":"levelo_inurba_marseille","lat":43.302784,"lon":5.377158,"is_reserved":false,"is_disabled":false,"rental_uris":{"android":"levelo://app?vid=33f06f6f-02ef-4f71-9401-90b1fc48f968","ios":"levelo://app?vid=33f06f6f-02ef-4f71-9401-90b1fc48f968"},"vehicle_type_id":"4","last_reported":1713910100,"current_range_meters":26800,"station_id":"ce4bguh2rcd13ifvqcj0","pricing_plan_id":"cebpf4jnsgd1na2vs0mg"},{"bike_id":"fd0a37e9-f67e-454a-96b4-2b4e2b256e71","system_id":"levelo_inurba_marseille","lat":43.31996,"lon":5.38159,"is_reserved":false,"is_disabled":false,"rental_uris":{"android":"levelo://app?vid=fd0a37e9-f67e-454a-96b4-2b4e2b256e71","ios":"levelo://app?vid=fd0a37e9-f67e-454a-96b4-2b4e2b256e71"},"vehicle_type_id":"4","last_reported":1713910100,"current_range_meters":1200,"station_id":"ce4bhr12rcd13ifvqhpg","pricing_plan_id":"cebpf4jnsgd1na2vs0mg"},{"bike_id":"8e5a68c3-ddf9-41cb-97c2-273d49df1dcb","system_id":"levelo_inurba_marseille","lat":43.313571,"lon":5.384829,"is_reserved":false,"is_disabled":false,"rental_uris":{"android":"levelo://app?vid=8e5a68c3-ddf9-41cb-97c2-273d49df1dcb","ios":"levelo://app?vid=8e5a68c3-ddf9-41cb-97c2-273d49df1dcb"},"vehicle_type_id":"4","last_reported":1713910100,"current_range_meters":12800,"station_id":"ce4bgt92rcd13ifvqcf0","pricing_plan_id":"cebpf4jnsgd1na2vs0mg"},{"bike_id":"ef63a35a-81b3-4729-9508-c995a37b00d4","system_id":"levelo_inurba_marseille","lat":43.313571,"lon":5.384829,"is_reserved":false,"is_disabled":false,"rental_uris":{"android":"levelo://app?vid=ef63a35a-81b3-4729-9508-c995a37b00d4","ios":"levelo://app?vid=ef63a35a-81b3-4729-9508-c995a37b00d4"},"vehicle_type_id":"4","last_reported":1713910100,"current_range_meters":18000,"station_id":"ce4bgt92rcd13ifvqcf0","pricing_plan_id":"cebpf4jnsgd1na2vs0mg"},{"bike_id":"451955ab-eb74-41db-809e-cf8f75079062","system_id":"levelo_inurba_marseille","lat":43.31354,"lon":5.38495,"is_reserved":false,"is_disabled":false,"rental_uris":{"android":"levelo://app?vid=451955ab-eb74-41db-809e-cf8f75079062","ios":"levelo://app?vid=451955ab-eb74-41db-809e-cf8f75079062"},"vehicle_type_id":"4","last_reported":1713910100,"current_range_meters":25600,"station_id":"ce4bgt92rcd13ifvqcf0","pricing_plan_id":"cebpf4jnsgd1na2vs0mg"},{"bike_id":"f409f865-4aac-4833-a87c-844769bfb2f4","system_id":"levelo_inurba_marseille","lat":43.31363,"lon":5.385,"is_reserved":false,"is_disabled":false,"rental_uris":{"android":"levelo://app?vid=f409f865-4aac-4833-a87c-844769bfb2f4","ios":"levelo://app?vid=f409f865-4aac-4833-a87c-844769bfb2f4"},"vehicle_type_id":"4","last_reported":1713910100,"current_range_meters":3200,"station_id":"ce4bgt92rcd13ifvqcf0","pricing_plan_id":"cebpf4jnsgd1na2vs0mg"},{"bike_id":"cc4c9fd1-5ab9-437a-baef-cc45b453f9db","system_id":"levelo_inurba_marseille","lat":43.313608,"lon":5.385018,"is_reserved":false,"is_disabled":false,"rental_uris":{"android":"levelo://app?vid=cc4c9fd1-5ab9-437a-baef-cc45b453f9db","ios":"levelo://app?vid=cc4c9fd1-5ab9-437a-baef-cc45b453f9db"},"vehicle_type_id":"4","last_reported":1713910100,"current_range_meters":23200,"station_id":"ce4bgt92rcd13ifvqcf0","pricing_plan_id":"cebpf4jnsgd1na2vs0mg"},{"bike_id":"28571ece-6095-4ef7-a014-b2d50ca28a28","system_id":"levelo_inurba_marseille","lat":43.313638,"lon":5.385031,"is_reserved":false,"is_disabled":false,"rental_uris":{"android":"levelo://app?vid=28571ece-6095-4ef7-a014-b2d50ca28a28","ios":"levelo://app?vid=28571ece-6095-4ef7-a014-b2d50ca28a28"},"vehicle_type_id":"4","last_reported":1713910100,"current_range_meters":17200,"station_id":"ce4bgt92rcd13ifvqcf0","pricing_plan_id":"cebpf4jnsgd1na2vs0mg"},{"bike_id":"45885ea6-f0f5-4bca-ba3d-51a6701a202f","system_id":"levelo_inurba_marseille","lat":43.3136,"lon":5.38504,"is_reserved":false,"is_disabled":false,"rental_uris":{"android":"levelo://app?vid=45885ea6-f0f5-4bca-ba3d-51a6701a202f","ios":"levelo://app?vid=45885ea6-f0f5-4bca-ba3d-51a6701a202f"},"vehicle_type_id":"4","last_reported":1713910100,"current_range_meters":400,"station_id":"ce4bgt92rcd13ifvqcf0","pricing_plan_id":"cebpf4jnsgd1na2vs0mg"},{"bike_id":"1580ea5e-9255-4da5-b4f9-27d550dae5ae","system_id":"levelo_inurba_marseille","lat":43.313632,"lon":5.385048,"is_reserved":false,"is_disabled":false,"rental_uris":{"android":"levelo://app?vid=1580ea5e-9255-4da5-b4f9-27d550dae5ae","ios":"levelo://app?vid=1580ea5e-9255-4da5-b4f9-27d550dae5ae"},"vehicle_type_id":"4","last_reported":1713910100,"current_range_meters":13200,"station_id":"ce4bgt92rcd13ifvqcf0","pricing_plan_id":"cebpf4jnsgd1na2vs0mg"},{"bike_id":"0877b330-3d98-4e8a-9b14-2ef4983eaccb","system_id":"levelo_inurba_marseille","lat":43.299222,"lon":5.365554,"is_reserved":false,"is_disabled":false,"rental_uris":{"android":"levelo://app?vid=0877b330-3d98-4e8a-9b14-2ef4983eaccb","ios":"levelo://app?vid=0877b330-3d98-4e8a-9b14-2ef4983eaccb"},"vehicle_type_id":"4","last_reported":1713910100,"current_range_meters":20800,"station_id":"ce4bgm92rcd13ifvqbr0","pricing_plan_id":"cebpf4jnsgd1na2vs0mg"},{"bike_id":"57ab597c-df0b-468b-a9ee-d67f13ade94f","system_id":"levelo_inurba_marseille","lat":43.299222,"lon":5.365554,"is_reserved":false,"is_disabled":false,"rental_uris":{"android":"levelo://app?vid=57ab597c-df0b-468b-a9ee-d67f13ade94f","ios":"levelo://app?vid=57ab597c-df0b-468b-a9ee-d67f13ade94f"},"vehicle_type_id":"4","last_reported":1713910100,"current_range_meters":31200,"station_id":"ce4bgm92rcd13ifvqbr0","pricing_plan_id":"cebpf4jnsgd1na2vs0mg"},{"bike_id":"df6da61d-b117-449a-8fc7-9523d6090c7c","system_id":"levelo_inurba_marseille","lat":43.299222,"lon":5.365554,"is_reserved":false,"is_disabled":false,"rental_uris":{"android":"levelo://app?vid=df6da61d-b117-449a-8fc7-9523d6090c7c","ios":"levelo://app?vid=df6da61d-b117-449a-8fc7-9523d6090c7c"},"vehicle_type_id":"4","last_reported":1713910100,"current_range_meters":27200,"station_id":"ce4bgm92rcd13ifvqbr0","pricing_plan_id":"cebpf4jnsgd1na2vs0mg"},{"bike_id":"2cfbc820-fa3e-4b97-9f80-bb8a7d31789b","system_id":"levelo_inurba_marseille","lat":43.29941,"lon":5.36547,"is_reserved":false,"is_disabled":false,"rental_uris":{"android":"levelo://app?vid=2cfbc820-fa3e-4b97-9f80-bb8a7d31789b","ios":"levelo://app?vid=2cfbc820-fa3e-4b97-9f80-bb8a7d31789b"},"vehicle_type_id":"4","last_reported":1713910100,"current_range_meters":31200,"station_id":"ce4bgm92rcd13ifvqbr0","pricing_plan_id":"cebpf4jnsgd1na2vs0mg"},{"bike_id":"4f080db7-3ce1-40de-ad41-b2d1fdb3f975","system_id":"levelo_inurba_marseille","lat":43.299222,"lon":5.365554,"is_reserved":false,"is_disabled":false,"rental_uris":{"android":"levelo://app?vid=4f080db7-3ce1-40de-ad41-b2d1fdb3f975","ios":"levelo://app?vid=4f080db7-3ce1-40de-ad41-b2d1fdb3f975"},"vehicle_type_id":"4","last_reported":1713910100,"current_range_meters":29600,"station_id":"ce4bgm92rcd13ifvqbr0","pricing_plan_id":"cebpf4jnsgd1na2vs0mg"},{"bike_id":"5194a89f-f42e-4069-85fb-8245decce2ee","system_id":"levelo_inurba_marseille","lat":43.299222,"lon":5.365554,"is_reserved":false,"is_disabled":false,"rental_uris":{"android":"levelo://app?vid=5194a89f-f42e-4069-85fb-8245decce2ee","ios":"levelo://app?vid=5194a89f-f42e-4069-85fb-8245decce2ee"},"vehicle_type_id":"4","last_reported":1713910100,"current_range_meters":5200,"station_id":"ce4bgm92rcd13ifvqbr0","pricing_plan_id":"cebpf4jnsgd1na2vs0mg"},{"bike_id":"beee5a80-09ee-47d9-b2e4-57b3fc42bb99","system_id":"levelo_inurba_marseille","lat":43.299724,"lon":5.371829,"is_reserved":false,"is_disabled":false,"rental_uris":{"android":"levelo://app?vid=beee5a80-09ee-47d9-b2e4-57b3fc42bb99","ios":"levelo://app?vid=beee5a80-09ee-47d9-b2e4-57b3fc42bb99"},"vehicle_type_id":"4","last_reported":1713910100,"current_range_meters":0,"station_id":"ce4bgr92rcd13ifvqc7g","pricing_plan_id":"cebpf4jnsgd1na2vs0mg"},{"bike_id":"32ef547c-7fb8-464d-adfe-9a0defba5b04","system_id":"levelo_inurba_marseille","lat":43.299222,"lon":5.365554,"is_reserved":false,"is_disabled":false,"rental_uris":{"android":"levelo://app?vid=32ef547c-7fb8-464d-adfe-9a0defba5b04","ios":"levelo://app?vid=32ef547c-7fb8-464d-adfe-9a0defba5b04"},"vehicle_type_id":"4","last_reported":1713910100,"current_range_meters":24400,"station_id":"ce4bgm92rcd13ifvqbr0","pricing_plan_id":"cebpf4jnsgd1na2vs0mg"},{"bike_id":"8aaf5688-c0b8-4758-89aa-3a41bd9a05f9","system_id":"levelo_inurba_marseille","lat":43.299222,"lon":5.365554,"is_reserved":false,"is_disabled":false,"rental_uris":{"android":"levelo://app?vid=8aaf5688-c0b8-4758-89aa-3a41bd9a05f9","ios":"levelo://app?vid=8aaf5688-c0b8-4758-89aa-3a41bd9a05f9"},"vehicle_type_id":"4","last_reported":1713910100,"current_range_meters":30800,"station_id":"ce4bgm92rcd13ifvqbr0","pricing_plan_id":"cebpf4jnsgd1na2vs0mg"},{"bike_id":"84a75c87-46f3-4c4c-b41d-56bc35b55c94","system_id":"levelo_inurba_marseille","lat":43.313571,"lon":5.384829,"is_reserved":false,"is_disabled":false,"rental_uris":{"android":"levelo://app?vid=84a75c87-46f3-4c4c-b41d-56bc35b55c94","ios":"levelo://app?vid=84a75c87-46f3-4c4c-b41d-56bc35b55c94"},"vehicle_type_id":"4","last_reported":1713910100,"current_range_meters":13600,"station_id":"ce4bgt92rcd13ifvqcf0","pricing_plan_id":"cebpf4jnsgd1na2vs0mg"},{"bike_id":"74a26ebb-ea05-4494-b228-79107fda0673","system_id":"levelo_inurba_marseille","lat":43.305364,"lon":5.384119,"is_reserved":false,"is_disabled":false,"rental_uris":{"android":"levelo://app?vid=74a26ebb-ea05-4494-b228-79107fda0673","ios":"levelo://app?vid=74a26ebb-ea05-4494-b228-79107fda0673"},"vehicle_type_id":"4","last_reported":1713910100,"current_range_meters":20400,"station_id":"ce4bgg92rcd13ifvqb30","pricing_plan_id":"cebpf4jnsgd1na2vs0mg"},{"bike_id":"76d422ab-5269-4fb0-b8b7-3eed6567f4dd","system_id":"levelo_inurba_marseille","lat":43.299243,"lon":5.374807,"is_reserved":false,"is_disabled":false,"rental_uris":{"android":"levelo://app?vid=76d422ab-5269-4fb0-b8b7-3eed6567f4dd","ios":"levelo://app?vid=76d422ab-5269-4fb0-b8b7-3eed6567f4dd"},"vehicle_type_id":"4","last_reported":1713910100,"current_range_meters":14800,"station_id":"ce4bgjh2rcd13ifvqbg0","pricing_plan_id":"cebpf4jnsgd1na2vs0mg"},{"bike_id":"c18dd6f9-e53f-4656-a9f0-700c9b17cfc9","system_id":"levelo_inurba_marseille","lat":43.29843,"lon":5.36266,"is_reserved":false,"is_disabled":false,"rental_uris":{"android":"levelo://app?vid=c18dd6f9-e53f-4656-a9f0-700c9b17cfc9","ios":"levelo://app?vid=c18dd6f9-e53f-4656-a9f0-700c9b17cfc9"},"vehicle_type_id":"4","last_reported":1713910100,"current_range_meters":25600,"station_id":"","pricing_plan_id":"cebpf4jnsgd1na2vs0mg"},{"bike_id":"32abb633-0292-4600-b83b-5d59a24e41aa","system_id":"levelo_inurba_marseille","lat":43.299243,"lon":5.374807,"is_reserved":false,"is_disabled":false,"rental_uris":{"android":"levelo://app?vid=32abb633-0292-4600-b83b-5d59a24e41aa","ios":"levelo://app?vid=32abb633-0292-4600-b83b-5d59a24e41aa"},"vehicle_type_id":"4","last_reported":1713910100,"current_range_meters":6400,"station_id":"ce4bgjh2rcd13ifvqbg0","pricing_plan_id":"cebpf4jnsgd1na2vs0mg"},{"bike_id":"c17b9e43-2773-4e00-a072-353c37019c56","system_id":"levelo_inurba_marseille","lat":43.299243,"lon":5.374807,"is_reserved":false,"is_disabled":false,"rental_uris":{"android":"levelo://app?vid=c17b9e43-2773-4e00-a072-353c37019c56","ios":"levelo://app?vid=c17b9e43-2773-4e00-a072-353c37019c56"},"vehicle_type_id":"4","last_reported":1713910100,"current_range_meters":1600,"station_id":"ce4bgjh2rcd13ifvqbg0","pricing_plan_id":"cebpf4jnsgd1na2vs0mg"},{"bike_id":"d348cfb6-0693-4f81-b373-e4330e3e559b","system_id":"levelo_inurba_marseille","lat":43.31173,"lon":5.38721,"is_reserved":false,"is_disabled":false,"rental_uris":{"android":"levelo://app?vid=d348cfb6-0693-4f81-b373-e4330e3e559b","ios":"levelo://app?vid=d348cfb6-0693-4f81-b373-e4330e3e559b"},"vehicle_type_id":"4","last_reported":1713910100,"current_range_meters":0,"station_id":"ce4bgv12rcd13ifvqcp0","pricing_plan_id":"cebpf4jnsgd1na2vs0mg"},{"bike_id":"623effa6-a2eb-483a-96c6-f9c6177b8c44","system_id":"levelo_inurba_marseille","lat":43.31174,"lon":5.38725,"is_reserved":false,"is_disabled":false,"rental_uris":{"android":"levelo://app?vid=623effa6-a2eb-483a-96c6-f9c6177b8c44","ios":"levelo://app?vid=623effa6-a2eb-483a-96c6-f9c6177b8c44"},"vehicle_type_id":"4","last_reported":1713910100,"current_range_meters":0,"station_id":"ce4bgv12rcd13ifvqcp0","pricing_plan_id":"cebpf4jnsgd1na2vs0mg"},{"bike_id":"7422ae7e-e096-4284-9b9e-61f79a7a1cd4","system_id":"levelo_inurba_marseille","lat":43.311722,"lon":5.387247,"is_reserved":false,"is_disabled":false,"rental_uris":{"android":"levelo://app?vid=7422ae7e-e096-4284-9b9e-61f79a7a1cd4","ios":"levelo://app?vid=7422ae7e-e096-4284-9b9e-61f79a7a1cd4"},"vehicle_type_id":"4","last_reported":1713910100,"current_range_meters":25600,"station_id":"ce4bgv12rcd13ifvqcp0","pricing_plan_id":"cebpf4jnsgd1na2vs0mg"},{"bike_id":"a51e187b-1aad-4e6d-87a9-92aa75ca4e4d","system_id":"levelo_inurba_marseille","lat":43.286595,"lon":5.386795,"is_reserved":false,"is_disabled":false,"rental_uris":{"android":"levelo://app?vid=a51e187b-1aad-4e6d-87a9-92aa75ca4e4d","ios":"levelo://app?vid=a51e187b-1aad-4e6d-87a9-92aa75ca4e4d"},"vehicle_type_id":"4","last_reported":1713910100,"current_range_meters":23200,"station_id":"ce4bh492rcd13ifvqdug","pricing_plan_id":"cebpf4jnsgd1na2vs0mg"},{"bike_id":"e35cdd38-b833-400b-ba08-fb446b6ab8c5","system_id":"levelo_inurba_marseille","lat":43.29906,"lon":5.37481,"is_reserved":false,"is_disabled":false,"rental_uris":{"android":"levelo://app?vid=e35cdd38-b833-400b-ba08-fb446b6ab8c5","ios":"levelo://app?vid=e35cdd38-b833-400b-ba08-fb446b6ab8c5"},"vehicle_type_id":"4","last_reported":1713910100,"current_range_meters":16800,"station_id":"ce4bgjh2rcd13ifvqbg0","pricing_plan_id":"cebpf4jnsgd1na2vs0mg"},{"bike_id":"567d382e-8f7a-4055-a6fc-023eb5e89526","system_id":"levelo_inurba_marseille","lat":43.311722,"lon":5.387247,"is_reserved":false,"is_disabled":false,"rental_uris":{"android":"levelo://app?vid=567d382e-8f7a-4055-a6fc-023eb5e89526","ios":"levelo://app?vid=567d382e-8f7a-4055-a6fc-023eb5e89526"},"vehicle_type_id":"4","last_reported":1713910100,"current_range_meters":11200,"station_id":"ce4bgv12rcd13ifvqcp0","pricing_plan_id":"cebpf4jnsgd1na2vs0mg"},{"bike_id":"b6362fb8-c7fb-46d0-ad8e-cb590c2ac806","system_id":"levelo_inurba_marseille","lat":43.297794,"lon":5.370888,"is_reserved":false,"is_disabled":false,"rental_uris":{"android":"levelo://app?vid=b6362fb8-c7fb-46d0-ad8e-cb590c2ac806","ios":"levelo://app?vid=b6362fb8-c7fb-46d0-ad8e-cb590c2ac806"},"vehicle_type_id":"4","last_reported":1713910100,"current_range_meters":14000,"station_id":"ce4bgop2rcd13ifvqc1g","pricing_plan_id":"cebpf4jnsgd1na2vs0mg"},{"bike_id":"f0ddc257-3c84-412c-bd9f-7df43a21b470","system_id":"levelo_inurba_marseille","lat":43.297774,"lon":5.370875,"is_reserved":false,"is_disabled":false,"rental_uris":{"android":"levelo://app?vid=f0ddc257-3c84-412c-bd9f-7df43a21b470","ios":"levelo://app?vid=f0ddc257-3c84-412c-bd9f-7df43a21b470"},"vehicle_type_id":"4","last_reported":1713910100,"current_range_meters":27200,"station_id":"ce4bgop2rcd13ifvqc1g","pricing_plan_id":"cebpf4jnsgd1na2vs0mg"},{"bike_id":"14240b50-454a-4212-8bc4-05ff68b1254c","system_id":"levelo_inurba_marseille","lat":43.311722,"lon":5.387247,"is_reserved":false,"is_disabled":false,"rental_uris":{"android":"levelo://app?vid=14240b50-454a-4212-8bc4-05ff68b1254c","ios":"levelo://app?vid=14240b50-454a-4212-8bc4-05ff68b1254c"},"vehicle_type_id":"4","last_reported":1713910100,"current_range_meters":9200,"station_id":"ce4bgv12rcd13ifvqcp0","pricing_plan_id":"cebpf4jnsgd1na2vs0mg"},{"bike_id":"27ed7e3b-1e10-4778-b7ec-a12b5d711d4d","system_id":"levelo_inurba_marseille","lat":43.322872,"lon":5.382756,"is_reserved":false,"is_disabled":false,"rental_uris":{"android":"levelo://app?vid=27ed7e3b-1e10-4778-b7ec-a12b5d711d4d","ios":"levelo://app?vid=27ed7e3b-1e10-4778-b7ec-a12b5d711d4d"},"vehicle_type_id":"4","last_reported":1713910100,"current_range_meters":27200,"station_id":"ce4bhr12rcd13ifvqhqg","pricing_plan_id":"cebpf4jnsgd1na2vs0mg"},{"bike_id":"ae305476-d332-41e9-a660-161b3f2e50d5","system_id":"levelo_inurba_marseille","lat":43.322872,"lon":5.382756,"is_reserved":false,"is_disabled":false,"rental_uris":{"android":"levelo://app?vid=ae305476-d332-41e9-a660-161b3f2e50d5","ios":"levelo://app?vid=ae305476-d332-41e9-a660-161b3f2e50d5"},"vehicle_type_id":"4","last_reported":1713910100,"current_range_meters":4000,"station_id":"ce4bhr12rcd13ifvqhqg","pricing_plan_id":"cebpf4jnsgd1na2vs0mg"},{"bike_id":"b9ec29b6-b6bb-400d-ab8c-da1fe7ce1b0e","system_id":"levelo_inurba_marseille","lat":43.322872,"lon":5.382756,"is_reserved":false,"is_disabled":false,"rental_uris":{"android":"levelo://app?vid=b9ec29b6-b6bb-400d-ab8c-da1fe7ce1b0e","ios":"levelo://app?vid=b9ec29b6-b6bb-400d-ab8c-da1fe7ce1b0e"},"vehicle_type_id":"4","last_reported":1713910100,"current_range_meters":28000,"station_id":"ce4bhr12rcd13ifvqhqg","pricing_plan_id":"cebpf4jnsgd1na2vs0mg"},{"bike_id":"0748efb8-2dec-4add-a4a0-bf67f45f2495","system_id":"levelo_inurba_marseille","lat":43.322894,"lon":5.382839,"is_reserved":false,"is_disabled":false,"rental_uris":{"android":"levelo://app?vid=0748efb8-2dec-4add-a4a0-bf67f45f2495","ios":"levelo://app?vid=0748efb8-2dec-4add-a4a0-bf67f45f2495"},"vehicle_type_id":"4","last_reported":1713910100,"current_range_meters":1200,"station_id":"ce4bhr12rcd13ifvqhqg","pricing_plan_id":"cebpf4jnsgd1na2vs0mg"},{"bike_id":"42a26032-9c70-4a47-ac47-9f79c155b25e","system_id":"levelo_inurba_marseille","lat":43.2968,"lon":5.37291,"is_reserved":false,"is_disabled":false,"rental_uris":{"android":"levelo://app?vid=42a26032-9c70-4a47-ac47-9f79c155b25e","ios":"levelo://app?vid=42a26032-9c70-4a47-ac47-9f79c155b25e"},"vehicle_type_id":"4","last_reported":1713910100,"current_range_meters":30000,"station_id":"ce4bgk12rcd13ifvqbj0","pricing_plan_id":"cebpf4jnsgd1na2vs0mg"},{"bike_id":"8879cc88-7553-421a-b581-94d9d3fc993b","system_id":"levelo_inurba_marseille","lat":43.2968,"lon":5.37291,"is_reserved":false,"is_disabled":false,"rental_uris":{"android":"levelo://app?vid=8879cc88-7553-421a-b581-94d9d3fc993b","ios":"levelo://app?vid=8879cc88-7553-421a-b581-94d9d3fc993b"},"vehicle_type_id":"4","last_reported":1713910100,"current_range_meters":12800,"station_id":"ce4bgk12rcd13ifvqbj0","pricing_plan_id":"cebpf4jnsgd1na2vs0mg"},{"bike_id":"b58a36e2-4d00-4a74-a1a4-ab86c3071cad","system_id":"levelo_inurba_marseille","lat":43.29627,"lon":5.37149,"is_reserved":false,"is_disabled":false,"rental_uris":{"android":"levelo://app?vid=b58a36e2-4d00-4a74-a1a4-ab86c3071cad","ios":"levelo://app?vid=b58a36e2-4d00-4a74-a1a4-ab86c3071cad"},"vehicle_type_id":"4","last_reported":1713910100,"current_range_meters":30800,"station_id":"ce4bgnh2rcd13ifvqc0g","pricing_plan_id":"cebpf4jnsgd1na2vs0mg"},{"bike_id":"22ee16ca-a245-4dc1-ad8a-db06da73955c","system_id":"levelo_inurba_marseille","lat":43.29597,"lon":5.36877,"is_reserved":false,"is_disabled":false,"rental_uris":{"android":"levelo://app?vid=22ee16ca-a245-4dc1-ad8a-db06da73955c","ios":"levelo://app?vid=22ee16ca-a245-4dc1-ad8a-db06da73955c"},"vehicle_type_id":"4","last_reported":1713910100,"current_range_meters":11600,"station_id":"","pricing_plan_id":"cebpf4jnsgd1na2vs0mg"},{"bike_id":"832d8d7c-7b03-46b5-8eb8-b7917defafdd","system_id":"levelo_inurba_marseille","lat":43.29715,"lon":5.37642,"is_reserved":false,"is_disabled":false,"rental_uris":{"android":"levelo://app?vid=832d8d7c-7b03-46b5-8eb8-b7917defafdd","ios":"levelo://app?vid=832d8d7c-7b03-46b5-8eb8-b7917defafdd"},"vehicle_type_id":"4","last_reported":1713910100,"current_range_meters":12000,"station_id":"ce4bgkh2rcd13ifvqbl0","pricing_plan_id":"cebpf4jnsgd1na2vs0mg"},{"bike_id":"6c486753-a364-435b-9631-891cb8e34b67","system_id":"levelo_inurba_marseille","lat":43.296935,"lon":5.376544,"is_reserved":false,"is_disabled":false,"rental_uris":{"android":"levelo://app?vid=6c486753-a364-435b-9631-891cb8e34b67","ios":"levelo://app?vid=6c486753-a364-435b-9631-891cb8e34b67"},"vehicle_type_id":"4","last_reported":1713910100,"current_range_meters":14800,"station_id":"ce4bgkh2rcd13ifvqbl0","pricing_plan_id":"cebpf4jnsgd1na2vs0mg"},{"bike_id":"6fe99882-cf30-4c82-abe6-fd05ac25dd88","system_id":"levelo_inurba_marseille","lat":43.299028,"lon":5.381509,"is_reserved":false,"is_disabled":false,"rental_uris":{"android":"levelo://app?vid=6fe99882-cf30-4c82-abe6-fd05ac25dd88","ios":"levelo://app?vid=6fe99882-cf30-4c82-abe6-fd05ac25dd88"},"vehicle_type_id":"4","last_reported":1713910100,"current_range_meters":21600,"station_id":"ce4bgj12rcd13ifvqbc0","pricing_plan_id":"cebpf4jnsgd1na2vs0mg"},{"bike_id":"65999852-6003-462f-bd18-f63a00f9be1e","system_id":"levelo_inurba_marseille","lat":43.309589,"lon":5.390258,"is_reserved":false,"is_disabled":false,"rental_uris":{"android":"levelo://app?vid=65999852-6003-462f-bd18-f63a00f9be1e","ios":"levelo://app?vid=65999852-6003-462f-bd18-f63a00f9be1e"},"vehicle_type_id":"4","last_reported":1713910100,"current_range_meters":21600,"station_id":"ce4bgup2rcd13ifvqco0","pricing_plan_id":"cebpf4jnsgd1na2vs0mg"},{"bike_id":"f14a55af-8dba-4ffc-b8dc-dfe0e3c90a7f","system_id":"levelo_inurba_marseille","lat":43.317557,"lon":5.390173,"is_reserved":false,"is_disabled":false,"rental_uris":{"android":"levelo://app?vid=f14a55af-8dba-4ffc-b8dc-dfe0e3c90a7f","ios":"levelo://app?vid=f14a55af-8dba-4ffc-b8dc-dfe0e3c90a7f"},"vehicle_type_id":"4","last_reported":1713910100,"current_range_meters":26000,"station_id":"ce4bhqp2rcd13ifvqhng","pricing_plan_id":"cebpf4jnsgd1na2vs0mg"},{"bike_id":"8ca3ec5b-cca1-46c0-81d0-be883cff6b3e","system_id":"levelo_inurba_marseille","lat":43.317557,"lon":5.390173,"is_reserved":false,"is_disabled":false,"rental_uris":{"android":"levelo://app?vid=8ca3ec5b-cca1-46c0-81d0-be883cff6b3e","ios":"levelo://app?vid=8ca3ec5b-cca1-46c0-81d0-be883cff6b3e"},"vehicle_type_id":"4","last_reported":1713910100,"current_range_meters":31600,"station_id":"ce4bhqp2rcd13ifvqhng","pricing_plan_id":"cebpf4jnsgd1na2vs0mg"},{"bike_id":"9e664781-9a2f-4055-8dc1-713f39d3394a","system_id":"levelo_inurba_marseille","lat":43.317557,"lon":5.390173,"is_reserved":false,"is_disabled":false,"rental_uris":{"android":"levelo://app?vid=9e664781-9a2f-4055-8dc1-713f39d3394a","ios":"levelo://app?vid=9e664781-9a2f-4055-8dc1-713f39d3394a"},"vehicle_type_id":"4","last_reported":1713910100,"current_range_meters":6000,"station_id":"ce4bhqp2rcd13ifvqhng","pricing_plan_id":"cebpf4jnsgd1na2vs0mg"},{"bike_id":"b3162447-a02b-4826-b223-727a02d3ae9f","system_id":"levelo_inurba_marseille","lat":43.31757,"lon":5.3902,"is_reserved":false,"is_disabled":false,"rental_uris":{"android":"levelo://app?vid=b3162447-a02b-4826-b223-727a02d3ae9f","ios":"levelo://app?vid=b3162447-a02b-4826-b223-727a02d3ae9f"},"vehicle_type_id":"4","last_reported":1713910100,"current_range_meters":11600,"station_id":"ce4bhqp2rcd13ifvqhng","pricing_plan_id":"cebpf4jnsgd1na2vs0mg"},{"bike_id":"e9c6a310-d581-485b-96a5-a51d288a12eb","system_id":"levelo_inurba_marseille","lat":43.317557,"lon":5.390173,"is_reserved":false,"is_disabled":false,"rental_uris":{"android":"levelo://app?vid=e9c6a310-d581-485b-96a5-a51d288a12eb","ios":"levelo://app?vid=e9c6a310-d581-485b-96a5-a51d288a12eb"},"vehicle_type_id":"4","last_reported":1713910100,"current_range_meters":26000,"station_id":"ce4bhqp2rcd13ifvqhng","pricing_plan_id":"cebpf4jnsgd1na2vs0mg"},{"bike_id":"23dc7b60-2004-4f58-856a-129617d82d35","system_id":"levelo_inurba_marseille","lat":43.304348,"lon":5.388863,"is_reserved":false,"is_disabled":false,"rental_uris":{"android":"levelo://app?vid=23dc7b60-2004-4f58-856a-129617d82d35","ios":"levelo://app?vid=23dc7b60-2004-4f58-856a-129617d82d35"},"vehicle_type_id":"4","last_reported":1713910100,"current_range_meters":6800,"station_id":"ce4bgk12rcd13ifvqbi0","pricing_plan_id":"cebpf4jnsgd1na2vs0mg"},{"bike_id":"e84a950c-fff5-479b-a747-42e67ebf37eb","system_id":"levelo_inurba_marseille","lat":43.30437,"lon":5.38889,"is_reserved":false,"is_disabled":false,"rental_uris":{"android":"levelo://app?vid=e84a950c-fff5-479b-a747-42e67ebf37eb","ios":"levelo://app?vid=e84a950c-fff5-479b-a747-42e67ebf37eb"},"vehicle_type_id":"4","last_reported":1713910100,"current_range_meters":26800,"station_id":"ce4bgk12rcd13ifvqbi0","pricing_plan_id":"cebpf4jnsgd1na2vs0mg"},{"bike_id":"958f8321-5eb0-461c-b31b-c6efbfa33b2d","system_id":"levelo_inurba_marseille","lat":43.304274,"lon":5.388873,"is_reserved":false,"is_disabled":false,"rental_uris":{"android":"levelo://app?vid=958f8321-5eb0-461c-b31b-c6efbfa33b2d","ios":"levelo://app?vid=958f8321-5eb0-461c-b31b-c6efbfa33b2d"},"vehicle_type_id":"4","last_reported":1713910100,"current_range_meters":31200,"station_id":"ce4bgk12rcd13ifvqbi0","pricing_plan_id":"cebpf4jnsgd1na2vs0mg"},{"bike_id":"373cba61-4aa4-47e6-8dd7-2742fbcc2887","system_id":"levelo_inurba_marseille","lat":43.304321,"lon":5.38889,"is_reserved":false,"is_disabled":false,"rental_uris":{"android":"levelo://app?vid=373cba61-4aa4-47e6-8dd7-2742fbcc2887","ios":"levelo://app?vid=373cba61-4aa4-47e6-8dd7-2742fbcc2887"},"vehicle_type_id":"4","last_reported":1713910100,"current_range_meters":16800,"station_id":"ce4bgk12rcd13ifvqbi0","pricing_plan_id":"cebpf4jnsgd1na2vs0mg"},{"bike_id":"75534077-5cef-4f58-a8a7-7958b47e2240","system_id":"levelo_inurba_marseille","lat":43.304274,"lon":5.388873,"is_reserved":false,"is_disabled":false,"rental_uris":{"android":"levelo://app?vid=75534077-5cef-4f58-a8a7-7958b47e2240","ios":"levelo://app?vid=75534077-5cef-4f58-a8a7-7958b47e2240"},"vehicle_type_id":"4","last_reported":1713910100,"current_range_meters":4800,"station_id":"ce4bgk12rcd13ifvqbi0","pricing_plan_id":"cebpf4jnsgd1na2vs0mg"},{"bike_id":"a6299700-2635-4572-ae1e-ec33def926f3","system_id":"levelo_inurba_marseille","lat":43.304278,"lon":5.388868,"is_reserved":false,"is_disabled":false,"rental_uris":{"android":"levelo://app?vid=a6299700-2635-4572-ae1e-ec33def926f3","ios":"levelo://app?vid=a6299700-2635-4572-ae1e-ec33def926f3"},"vehicle_type_id":"4","last_reported":1713910100,"current_range_meters":21600,"station_id":"ce4bgk12rcd13ifvqbi0","pricing_plan_id":"cebpf4jnsgd1na2vs0mg"},{"bike_id":"1593f166-ac0a-48cc-943f-cd9d2fea8de3","system_id":"levelo_inurba_marseille","lat":43.304352,"lon":5.388921,"is_reserved":false,"is_disabled":false,"rental_uris":{"android":"levelo://app?vid=1593f166-ac0a-48cc-943f-cd9d2fea8de3","ios":"levelo://app?vid=1593f166-ac0a-48cc-943f-cd9d2fea8de3"},"vehicle_type_id":"4","last_reported":1713910100,"current_range_meters":800,"station_id":"ce4bgk12rcd13ifvqbi0","pricing_plan_id":"cebpf4jnsgd1na2vs0mg"},{"bike_id":"58240108-b83f-492f-9c44-b0c16daa3250","system_id":"levelo_inurba_marseille","lat":43.304307,"lon":5.38889,"is_reserved":false,"is_disabled":false,"rental_uris":{"android":"levelo://app?vid=58240108-b83f-492f-9c44-b0c16daa3250","ios":"levelo://app?vid=58240108-b83f-492f-9c44-b0c16daa3250"},"vehicle_type_id":"4","last_reported":1713910100,"current_range_meters":26400,"station_id":"ce4bgk12rcd13ifvqbi0","pricing_plan_id":"cebpf4jnsgd1na2vs0mg"},{"bike_id":"d53764c1-5a05-4117-90db-b4f4290835cd","system_id":"levelo_inurba_marseille","lat":43.304362,"lon":5.388941,"is_reserved":false,"is_disabled":false,"rental_uris":{"android":"levelo://app?vid=d53764c1-5a05-4117-90db-b4f4290835cd","ios":"levelo://app?vid=d53764c1-5a05-4117-90db-b4f4290835cd"},"vehicle_type_id":"4","last_reported":1713910100,"current_range_meters":12000,"station_id":"ce4bgk12rcd13ifvqbi0","pricing_plan_id":"cebpf4jnsgd1na2vs0mg"},{"bike_id":"b292cbdb-5892-4a6e-8e75-8c698df30c1f","system_id":"levelo_inurba_marseille","lat":43.3044,"lon":5.38899,"is_reserved":false,"is_disabled":false,"rental_uris":{"android":"levelo://app?vid=b292cbdb-5892-4a6e-8e75-8c698df30c1f","ios":"levelo://app?vid=b292cbdb-5892-4a6e-8e75-8c698df30c1f"},"vehicle_type_id":"4","last_reported":1713910100,"current_range_meters":0,"station_id":"ce4bgk12rcd13ifvqbi0","pricing_plan_id":"cebpf4jnsgd1na2vs0mg"},{"bike_id":"c76b3ddc-9ee4-4b07-bfd7-02ba386c42c0","system_id":"levelo_inurba_marseille","lat":43.30433,"lon":5.38894,"is_reserved":false,"is_disabled":false,"rental_uris":{"android":"levelo://app?vid=c76b3ddc-9ee4-4b07-bfd7-02ba386c42c0","ios":"levelo://app?vid=c76b3ddc-9ee4-4b07-bfd7-02ba386c42c0"},"vehicle_type_id":"4","last_reported":1713910100,"current_range_meters":14000,"station_id":"ce4bgk12rcd13ifvqbi0","pricing_plan_id":"cebpf4jnsgd1na2vs0mg"},{"bike_id":"0e09c011-2325-4840-9b70-b4918b7608c5","system_id":"levelo_inurba_marseille","lat":43.304278,"lon":5.388868,"is_reserved":false,"is_disabled":false,"rental_uris":{"android":"levelo://app?vid=0e09c011-2325-4840-9b70-b4918b7608c5","ios":"levelo://app?vid=0e09c011-2325-4840-9b70-b4918b7608c5"},"vehicle_type_id":"4","last_reported":1713910100,"current_range_meters":1200,"station_id":"ce4bgk12rcd13ifvqbi0","pricing_plan_id":"cebpf4jnsgd1na2vs0mg"},{"bike_id":"3f9ad79f-39a3-4062-97ce-203091f78020","system_id":"levelo_inurba_marseille","lat":43.304274,"lon":5.388873,"is_reserved":false,"is_disabled":false,"rental_uris":{"android":"levelo://app?vid=3f9ad79f-39a3-4062-97ce-203091f78020","ios":"levelo://app?vid=3f9ad79f-39a3-4062-97ce-203091f78020"},"vehicle_type_id":"4","last_reported":1713910100,"current_range_meters":14000,"station_id":"ce4bgk12rcd13ifvqbi0","pricing_plan_id":"cebpf4jnsgd1na2vs0mg"},{"bike_id":"5a17ab96-1138-48e7-83c5-d6e4c7e31bd9","system_id":"levelo_inurba_marseille","lat":43.304297,"lon":5.388926,"is_reserved":false,"is_disabled":false,"rental_uris":{"android":"levelo://app?vid=5a17ab96-1138-48e7-83c5-d6e4c7e31bd9","ios":"levelo://app?vid=5a17ab96-1138-48e7-83c5-d6e4c7e31bd9"},"vehicle_type_id":"4","last_reported":1713910100,"current_range_meters":17200,"station_id":"ce4bgk12rcd13ifvqbi0","pricing_plan_id":"cebpf4jnsgd1na2vs0mg"},{"bike_id":"a00b3990-a373-4fdc-88cb-7bc4f571c907","system_id":"levelo_inurba_marseille","lat":43.304278,"lon":5.388868,"is_reserved":false,"is_disabled":false,"rental_uris":{"android":"levelo://app?vid=a00b3990-a373-4fdc-88cb-7bc4f571c907","ios":"levelo://app?vid=a00b3990-a373-4fdc-88cb-7bc4f571c907"},"vehicle_type_id":"4","last_reported":1713910100,"current_range_meters":9600,"station_id":"ce4bgk12rcd13ifvqbi0","pricing_plan_id":"cebpf4jnsgd1na2vs0mg"},{"bike_id":"bbae126f-0126-4df8-8b3e-322752d7dfe2","system_id":"levelo_inurba_marseille","lat":43.304274,"lon":5.388873,"is_reserved":false,"is_disabled":false,"rental_uris":{"android":"levelo://app?vid=bbae126f-0126-4df8-8b3e-322752d7dfe2","ios":"levelo://app?vid=bbae126f-0126-4df8-8b3e-322752d7dfe2"},"vehicle_type_id":"4","last_reported":1713910100,"current_range_meters":26000,"station_id":"ce4bgk12rcd13ifvqbi0","pricing_plan_id":"cebpf4jnsgd1na2vs0mg"},{"bike_id":"ef7f4b2a-76d5-41a1-a3d1-275b4b64197b","system_id":"levelo_inurba_marseille","lat":43.304239,"lon":5.389281,"is_reserved":false,"is_disabled":false,"rental_uris":{"android":"levelo://app?vid=ef7f4b2a-76d5-41a1-a3d1-275b4b64197b","ios":"levelo://app?vid=ef7f4b2a-76d5-41a1-a3d1-275b4b64197b"},"vehicle_type_id":"4","last_reported":1713910100,"current_range_meters":12400,"station_id":"","pricing_plan_id":"cebpf4jnsgd1na2vs0mg"},{"bike_id":"00c6a026-c6f9-4ffe-92c6-64a64d3ec34b","system_id":"levelo_inurba_marseille","lat":43.291671,"lon":5.371575,"is_reserved":false,"is_disabled":false,"rental_uris":{"android":"levelo://app?vid=00c6a026-c6f9-4ffe-92c6-64a64d3ec34b","ios":"levelo://app?vid=00c6a026-c6f9-4ffe-92c6-64a64d3ec34b"},"vehicle_type_id":"4","last_reported":1713910100,"current_range_meters":3200,"station_id":"ce4bha92rcd13ifvqeh0","pricing_plan_id":"cebpf4jnsgd1na2vs0mg"},{"bike_id":"2e1bac3c-b570-437f-a1d8-c28a9f6198ec","system_id":"levelo_inurba_marseille","lat":43.295279,"lon":5.375048,"is_reserved":false,"is_disabled":false,"rental_uris":{"android":"levelo://app?vid=2e1bac3c-b570-437f-a1d8-c28a9f6198ec","ios":"levelo://app?vid=2e1bac3c-b570-437f-a1d8-c28a9f6198ec"},"vehicle_type_id":"4","last_reported":1713910100,"current_range_meters":20400,"station_id":"ce4bgkp2rcd13ifvqbmg","pricing_plan_id":"cebpf4jnsgd1na2vs0mg"},{"bike_id":"4dbc8b81-0b61-4471-aaeb-d9f418bf7f91","system_id":"levelo_inurba_marseille","lat":43.32365,"lon":5.38885,"is_reserved":false,"is_disabled":false,"rental_uris":{"android":"levelo://app?vid=4dbc8b81-0b61-4471-aaeb-d9f418bf7f91","ios":"levelo://app?vid=4dbc8b81-0b61-4471-aaeb-d9f418bf7f91"},"vehicle_type_id":"4","last_reported":1713910100,"current_range_meters":4800,"station_id":"ce4bhqp2rcd13ifvqhog","pricing_plan_id":"cebpf4jnsgd1na2vs0mg"},{"bike_id":"a000529a-a102-4360-acf8-d9196b59a845","system_id":"levelo_inurba_marseille","lat":43.32367,"lon":5.388836,"is_reserved":false,"is_disabled":false,"rental_uris":{"android":"levelo://app?vid=a000529a-a102-4360-acf8-d9196b59a845","ios":"levelo://app?vid=a000529a-a102-4360-acf8-d9196b59a845"},"vehicle_type_id":"4","last_reported":1713910100,"current_range_meters":12400,"station_id":"ce4bhqp2rcd13ifvqhog","pricing_plan_id":"cebpf4jnsgd1na2vs0mg"},{"bike_id":"437b6ff4-564c-44ca-8cae-3258f357c106","system_id":"levelo_inurba_marseille","lat":43.32367,"lon":5.388836,"is_reserved":false,"is_disabled":false,"rental_uris":{"android":"levelo://app?vid=437b6ff4-564c-44ca-8cae-3258f357c106","ios":"levelo://app?vid=437b6ff4-564c-44ca-8cae-3258f357c106"},"vehicle_type_id":"4","last_reported":1713910100,"current_range_meters":11600,"station_id":"ce4bhqp2rcd13ifvqhog","pricing_plan_id":"cebpf4jnsgd1na2vs0mg"},{"bike_id":"dd46e51e-134f-4778-99d2-f9d7843b6aaf","system_id":"levelo_inurba_marseille","lat":43.32367,"lon":5.388836,"is_reserved":false,"is_disabled":false,"rental_uris":{"android":"levelo://app?vid=dd46e51e-134f-4778-99d2-f9d7843b6aaf","ios":"levelo://app?vid=dd46e51e-134f-4778-99d2-f9d7843b6aaf"},"vehicle_type_id":"4","last_reported":1713910100,"current_range_meters":22000,"station_id":"ce4bhqp2rcd13ifvqhog","pricing_plan_id":"cebpf4jnsgd1na2vs0mg"},{"bike_id":"c97160e3-e5e7-429d-aab3-58e3ff7e27f7","system_id":"levelo_inurba_marseille","lat":43.295169,"lon":5.390426,"is_reserved":false,"is_disabled":false,"rental_uris":{"android":"levelo://app?vid=c97160e3-e5e7-429d-aab3-58e3ff7e27f7","ios":"levelo://app?vid=c97160e3-e5e7-429d-aab3-58e3ff7e27f7"},"vehicle_type_id":"4","last_reported":1713910100,"current_range_meters":23200,"station_id":"ce4bh3p2rcd13ifvqdp0","pricing_plan_id":"cebpf4jnsgd1na2vs0mg"},{"bike_id":"8457d0ee-8c14-4521-9251-84fa006ea74b","system_id":"levelo_inurba_marseille","lat":43.29304,"lon":5.37166,"is_reserved":false,"is_disabled":false,"rental_uris":{"android":"levelo://app?vid=8457d0ee-8c14-4521-9251-84fa006ea74b","ios":"levelo://app?vid=8457d0ee-8c14-4521-9251-84fa006ea74b"},"vehicle_type_id":"4","last_reported":1713910100,"current_range_meters":29200,"station_id":"ce4bgh92rcd13ifvqb40","pricing_plan_id":"cebpf4jnsgd1na2vs0mg"},{"bike_id":"428f7405-8455-47e7-a846-97938929b430","system_id":"levelo_inurba_marseille","lat":43.26949,"lon":5.40262,"is_reserved":false,"is_disabled":false,"rental_uris":{"android":"levelo://app?vid=428f7405-8455-47e7-a846-97938929b430","ios":"levelo://app?vid=428f7405-8455-47e7-a846-97938929b430"},"vehicle_type_id":"4","last_reported":1713910100,"current_range_meters":12800,"station_id":"cjm6bp8fraef2m0cb0m0","pricing_plan_id":"cebpf4jnsgd1na2vs0mg"},{"bike_id":"ba4c5c89-4f53-4763-a692-650cd3fb3c2d","system_id":"levelo_inurba_marseille","lat":43.292749,"lon":5.368402,"is_reserved":false,"is_disabled":false,"rental_uris":{"android":"levelo://app?vid=ba4c5c89-4f53-4763-a692-650cd3fb3c2d","ios":"levelo://app?vid=ba4c5c89-4f53-4763-a692-650cd3fb3c2d"},"vehicle_type_id":"4","last_reported":1713910100,"current_range_meters":27200,"station_id":"ce4bhbp2rcd13ifvqesg","pricing_plan_id":"cebpf4jnsgd1na2vs0mg"},{"bike_id":"820305d9-a447-4af3-810b-a6a5f71dcea1","system_id":"levelo_inurba_marseille","lat":43.305994,"lon":5.393687,"is_reserved":false,"is_disabled":false,"rental_uris":{"android":"levelo://app?vid=820305d9-a447-4af3-810b-a6a5f71dcea1","ios":"levelo://app?vid=820305d9-a447-4af3-810b-a6a5f71dcea1"},"vehicle_type_id":"4","last_reported":1713910100,"current_range_meters":17200,"station_id":"ce4bh0p2rcd13ifvqd80","pricing_plan_id":"cebpf4jnsgd1na2vs0mg"},{"bike_id":"2c62173c-9008-4d50-8fb8-b6753eba37ac","system_id":"levelo_inurba_marseille","lat":43.305994,"lon":5.393687,"is_reserved":false,"is_disabled":false,"rental_uris":{"android":"levelo://app?vid=2c62173c-9008-4d50-8fb8-b6753eba37ac","ios":"levelo://app?vid=2c62173c-9008-4d50-8fb8-b6753eba37ac"},"vehicle_type_id":"4","last_reported":1713910100,"current_range_meters":6000,"station_id":"ce4bh0p2rcd13ifvqd80","pricing_plan_id":"cebpf4jnsgd1na2vs0mg"},{"bike_id":"9fb340d3-4dd3-4bdc-8019-6bfce1928b6f","system_id":"levelo_inurba_marseille","lat":43.293009,"lon":5.374584,"is_reserved":false,"is_disabled":false,"rental_uris":{"android":"levelo://app?vid=9fb340d3-4dd3-4bdc-8019-6bfce1928b6f","ios":"levelo://app?vid=9fb340d3-4dd3-4bdc-8019-6bfce1928b6f"},"vehicle_type_id":"4","last_reported":1713910100,"current_range_meters":400,"station_id":"ce4bgi12rcd13ifvqb70","pricing_plan_id":"cebpf4jnsgd1na2vs0mg"},{"bike_id":"4149fb99-0957-48e5-ae68-b0b6216ff241","system_id":"levelo_inurba_marseille","lat":43.305994,"lon":5.393687,"is_reserved":false,"is_disabled":false,"rental_uris":{"android":"levelo://app?vid=4149fb99-0957-48e5-ae68-b0b6216ff241","ios":"levelo://app?vid=4149fb99-0957-48e5-ae68-b0b6216ff241"},"vehicle_type_id":"4","last_reported":1713910100,"current_range_meters":16400,"station_id":"ce4bh0p2rcd13ifvqd80","pricing_plan_id":"cebpf4jnsgd1na2vs0mg"},{"bike_id":"51edcf0e-09bb-43fb-857b-1d9e6755db59","system_id":"levelo_inurba_marseille","lat":43.305994,"lon":5.393687,"is_reserved":false,"is_disabled":false,"rental_uris":{"android":"levelo://app?vid=51edcf0e-09bb-43fb-857b-1d9e6755db59","ios":"levelo://app?vid=51edcf0e-09bb-43fb-857b-1d9e6755db59"},"vehicle_type_id":"4","last_reported":1713910100,"current_range_meters":0,"station_id":"ce4bh0p2rcd13ifvqd80","pricing_plan_id":"cebpf4jnsgd1na2vs0mg"},{"bike_id":"62dcc406-826d-47b2-832c-39f60b9616ae","system_id":"levelo_inurba_marseille","lat":43.305994,"lon":5.393687,"is_reserved":false,"is_disabled":false,"rental_uris":{"android":"levelo://app?vid=62dcc406-826d-47b2-832c-39f60b9616ae","ios":"levelo://app?vid=62dcc406-826d-47b2-832c-39f60b9616ae"},"vehicle_type_id":"4","last_reported":1713910100,"current_range_meters":0,"station_id":"ce4bh0p2rcd13ifvqd80","pricing_plan_id":"cebpf4jnsgd1na2vs0mg"},{"bike_id":"9c1d6998-bfbc-4ac6-8db7-7ecaddd52b7d","system_id":"levelo_inurba_marseille","lat":43.305994,"lon":5.393687,"is_reserved":false,"is_disabled":false,"rental_uris":{"android":"levelo://app?vid=9c1d6998-bfbc-4ac6-8db7-7ecaddd52b7d","ios":"levelo://app?vid=9c1d6998-bfbc-4ac6-8db7-7ecaddd52b7d"},"vehicle_type_id":"4","last_reported":1713910100,"current_range_meters":26000,"station_id":"ce4bh0p2rcd13ifvqd80","pricing_plan_id":"cebpf4jnsgd1na2vs0mg"},{"bike_id":"ad3be717-6c86-4567-b949-56a6440d5b67","system_id":"levelo_inurba_marseille","lat":43.302992,"lon":5.392136,"is_reserved":false,"is_disabled":false,"rental_uris":{"android":"levelo://app?vid=ad3be717-6c86-4567-b949-56a6440d5b67","ios":"levelo://app?vid=ad3be717-6c86-4567-b949-56a6440d5b67"},"vehicle_type_id":"4","last_reported":1713910100,"current_range_meters":28000,"station_id":"ce4bgkh2rcd13ifvqbk0","pricing_plan_id":"cebpf4jnsgd1na2vs0mg"},{"bike_id":"2c507261-9558-4840-a319-26f5ca091b7d","system_id":"levelo_inurba_marseille","lat":43.300852,"lon":5.390859,"is_reserved":false,"is_disabled":false,"rental_uris":{"android":"levelo://app?vid=2c507261-9558-4840-a319-26f5ca091b7d","ios":"levelo://app?vid=2c507261-9558-4840-a319-26f5ca091b7d"},"vehicle_type_id":"4","last_reported":1713910100,"current_range_meters":20400,"station_id":"ce4bh192rcd13ifvqdb0","pricing_plan_id":"cebpf4jnsgd1na2vs0mg"},{"bike_id":"ec73e063-1251-4c09-bde2-7b8f5ad12e31","system_id":"levelo_inurba_marseille","lat":43.298764,"lon":5.388973,"is_reserved":false,"is_disabled":false,"rental_uris":{"android":"levelo://app?vid=ec73e063-1251-4c09-bde2-7b8f5ad12e31","ios":"levelo://app?vid=ec73e063-1251-4c09-bde2-7b8f5ad12e31"},"vehicle_type_id":"4","last_reported":1713910100,"current_range_meters":18400,"station_id":"ce4bh392rcd13ifvqdl0","pricing_plan_id":"cebpf4jnsgd1na2vs0mg"},{"bike_id":"03ac75eb-cf2b-48fc-8b7f-ad4663fd55ac","system_id":"levelo_inurba_marseille","lat":43.30696,"lon":5.39511,"is_reserved":false,"is_disabled":false,"rental_uris":{"android":"levelo://app?vid=03ac75eb-cf2b-48fc-8b7f-ad4663fd55ac","ios":"levelo://app?vid=03ac75eb-cf2b-48fc-8b7f-ad4663fd55ac"},"vehicle_type_id":"4","last_reported":1713910100,"current_range_meters":12400,"station_id":"ce4bh012rcd13ifvqcv0","pricing_plan_id":"cebpf4jnsgd1na2vs0mg"},{"bike_id":"9ed5ac56-0d24-44fd-ac02-25db92c775fe","system_id":"levelo_inurba_marseille","lat":43.291671,"lon":5.371575,"is_reserved":false,"is_disabled":false,"rental_uris":{"android":"levelo://app?vid=9ed5ac56-0d24-44fd-ac02-25db92c775fe","ios":"levelo://app?vid=9ed5ac56-0d24-44fd-ac02-25db92c775fe"},"vehicle_type_id":"4","last_reported":1713910100,"current_range_meters":20800,"station_id":"ce4bha92rcd13ifvqeh0","pricing_plan_id":"cebpf4jnsgd1na2vs0mg"},{"bike_id":"460479cb-d019-4356-bafa-a6b09181a9c4","system_id":"levelo_inurba_marseille","lat":43.298764,"lon":5.388973,"is_reserved":false,"is_disabled":false,"rental_uris":{"android":"levelo://app?vid=460479cb-d019-4356-bafa-a6b09181a9c4","ios":"levelo://app?vid=460479cb-d019-4356-bafa-a6b09181a9c4"},"vehicle_type_id":"4","last_reported":1713910100,"current_range_meters":17600,"station_id":"ce4bh392rcd13ifvqdl0","pricing_plan_id":"cebpf4jnsgd1na2vs0mg"},{"bike_id":"687c367d-57b5-4992-8e37-46d3278886bd","system_id":"levelo_inurba_marseille","lat":43.29168,"lon":5.37165,"is_reserved":false,"is_disabled":false,"rental_uris":{"android":"levelo://app?vid=687c367d-57b5-4992-8e37-46d3278886bd","ios":"levelo://app?vid=687c367d-57b5-4992-8e37-46d3278886bd"},"vehicle_type_id":"4","last_reported":1713910100,"current_range_meters":25200,"station_id":"ce4bha92rcd13ifvqeh0","pricing_plan_id":"cebpf4jnsgd1na2vs0mg"},{"bike_id":"2281b933-6499-49dd-bbf2-656218c7c3ec","system_id":"levelo_inurba_marseille","lat":43.298764,"lon":5.388973,"is_reserved":false,"is_disabled":false,"rental_uris":{"android":"levelo://app?vid=2281b933-6499-49dd-bbf2-656218c7c3ec","ios":"levelo://app?vid=2281b933-6499-49dd-bbf2-656218c7c3ec"},"vehicle_type_id":"4","last_reported":1713910100,"current_range_meters":5200,"station_id":"ce4bh392rcd13ifvqdl0","pricing_plan_id":"cebpf4jnsgd1na2vs0mg"},{"bike_id":"b681da8d-c565-41f8-bc2c-281f6ec4737a","system_id":"levelo_inurba_marseille","lat":43.29166,"lon":5.37166,"is_reserved":false,"is_disabled":false,"rental_uris":{"android":"levelo://app?vid=b681da8d-c565-41f8-bc2c-281f6ec4737a","ios":"levelo://app?vid=b681da8d-c565-41f8-bc2c-281f6ec4737a"},"vehicle_type_id":"4","last_reported":1713910100,"current_range_meters":31600,"station_id":"ce4bha92rcd13ifvqeh0","pricing_plan_id":"cebpf4jnsgd1na2vs0mg"},{"bike_id":"e5b02e32-93a9-4e81-9841-d2bc469f7e1f","system_id":"levelo_inurba_marseille","lat":43.298764,"lon":5.388973,"is_reserved":false,"is_disabled":false,"rental_uris":{"android":"levelo://app?vid=e5b02e32-93a9-4e81-9841-d2bc469f7e1f","ios":"levelo://app?vid=e5b02e32-93a9-4e81-9841-d2bc469f7e1f"},"vehicle_type_id":"4","last_reported":1713910100,"current_range_meters":25200,"station_id":"ce4bh392rcd13ifvqdl0","pricing_plan_id":"cebpf4jnsgd1na2vs0mg"},{"bike_id":"456ca878-ab82-4a57-94e3-d61d98c6d94d","system_id":"levelo_inurba_marseille","lat":43.291671,"lon":5.371575,"is_reserved":false,"is_disabled":false,"rental_uris":{"android":"levelo://app?vid=456ca878-ab82-4a57-94e3-d61d98c6d94d","ios":"levelo://app?vid=456ca878-ab82-4a57-94e3-d61d98c6d94d"},"vehicle_type_id":"4","last_reported":1713910100,"current_range_meters":25200,"station_id":"ce4bha92rcd13ifvqeh0","pricing_plan_id":"cebpf4jnsgd1na2vs0mg"},{"bike_id":"1010e9bb-333a-43b6-824f-bb4b2754d017","system_id":"levelo_inurba_marseille","lat":43.298764,"lon":5.388973,"is_reserved":false,"is_disabled":false,"rental_uris":{"android":"levelo://app?vid=1010e9bb-333a-43b6-824f-bb4b2754d017","ios":"levelo://app?vid=1010e9bb-333a-43b6-824f-bb4b2754d017"},"vehicle_type_id":"4","last_reported":1713910100,"current_range_meters":26800,"station_id":"ce4bh392rcd13ifvqdl0","pricing_plan_id":"cebpf4jnsgd1na2vs0mg"},{"bike_id":"c64ec0f4-d1e1-4f8d-9839-1ef147ed1653","system_id":"levelo_inurba_marseille","lat":43.298764,"lon":5.388973,"is_reserved":false,"is_disabled":false,"rental_uris":{"android":"levelo://app?vid=c64ec0f4-d1e1-4f8d-9839-1ef147ed1653","ios":"levelo://app?vid=c64ec0f4-d1e1-4f8d-9839-1ef147ed1653"},"vehicle_type_id":"4","last_reported":1713910100,"current_range_meters":25200,"station_id":"ce4bh392rcd13ifvqdl0","pricing_plan_id":"cebpf4jnsgd1na2vs0mg"},{"bike_id":"7e13b19b-bb63-47e4-ab00-1ff1b8635b54","system_id":"levelo_inurba_marseille","lat":43.291671,"lon":5.371575,"is_reserved":false,"is_disabled":false,"rental_uris":{"android":"levelo://app?vid=7e13b19b-bb63-47e4-ab00-1ff1b8635b54","ios":"levelo://app?vid=7e13b19b-bb63-47e4-ab00-1ff1b8635b54"},"vehicle_type_id":"4","last_reported":1713910100,"current_range_meters":14400,"station_id":"ce4bha92rcd13ifvqeh0","pricing_plan_id":"cebpf4jnsgd1na2vs0mg"},{"bike_id":"779b74e6-1af6-4c85-b1a1-cd07fc68f0c5","system_id":"levelo_inurba_marseille","lat":43.30888,"lon":5.39633,"is_reserved":false,"is_disabled":false,"rental_uris":{"android":"levelo://app?vid=779b74e6-1af6-4c85-b1a1-cd07fc68f0c5","ios":"levelo://app?vid=779b74e6-1af6-4c85-b1a1-cd07fc68f0c5"},"vehicle_type_id":"4","last_reported":1713910100,"current_range_meters":5200,"station_id":"ce4bh012rcd13ifvqcv0","pricing_plan_id":"cebpf4jnsgd1na2vs0mg"},{"bike_id":"2a2a69fe-b5fc-4e48-9480-6e0d10cac973","system_id":"levelo_inurba_marseille","lat":43.292005,"lon":5.357875,"is_reserved":false,"is_disabled":false,"rental_uris":{"android":"levelo://app?vid=2a2a69fe-b5fc-4e48-9480-6e0d10cac973","ios":"levelo://app?vid=2a2a69fe-b5fc-4e48-9480-6e0d10cac973"},"vehicle_type_id":"4","last_reported":1713910100,"current_range_meters":19600,"station_id":"ce4bhb12rcd13ifvqel0","pricing_plan_id":"cebpf4jnsgd1na2vs0mg"},{"bike_id":"e527fddc-1954-41ec-a161-db0a3dcdae53","system_id":"levelo_inurba_marseille","lat":43.309038,"lon":5.396546,"is_reserved":false,"is_disabled":false,"rental_uris":{"android":"levelo://app?vid=e527fddc-1954-41ec-a161-db0a3dcdae53","ios":"levelo://app?vid=e527fddc-1954-41ec-a161-db0a3dcdae53"},"vehicle_type_id":"4","last_reported":1713910100,"current_range_meters":16800,"station_id":"ce4bh012rcd13ifvqcv0","pricing_plan_id":"cebpf4jnsgd1na2vs0mg"},{"bike_id":"70025965-aac5-43ab-84d4-98a3dc9c505f","system_id":"levelo_inurba_marseille","lat":43.291994,"lon":5.357886,"is_reserved":false,"is_disabled":false,"rental_uris":{"android":"levelo://app?vid=70025965-aac5-43ab-84d4-98a3dc9c505f","ios":"levelo://app?vid=70025965-aac5-43ab-84d4-98a3dc9c505f"},"vehicle_type_id":"4","last_reported":1713910100,"current_range_meters":31200,"station_id":"ce4bhb12rcd13ifvqel0","pricing_plan_id":"cebpf4jnsgd1na2vs0mg"},{"bike_id":"988e45bb-4a60-439a-842a-a194c5547e71","system_id":"levelo_inurba_marseille","lat":43.309047,"lon":5.396551,"is_reserved":false,"is_disabled":false,"rental_uris":{"android":"levelo://app?vid=988e45bb-4a60-439a-842a-a194c5547e71","ios":"levelo://app?vid=988e45bb-4a60-439a-842a-a194c5547e71"},"vehicle_type_id":"4","last_reported":1713910100,"current_range_meters":20000,"station_id":"ce4bh012rcd13ifvqcv0","pricing_plan_id":"cebpf4jnsgd1na2vs0mg"},{"bike_id":"5a30c998-dade-47ab-b7fe-4d190451f04d","system_id":"levelo_inurba_marseille","lat":43.292005,"lon":5.357875,"is_reserved":false,"is_disabled":false,"rental_uris":{"android":"levelo://app?vid=5a30c998-dade-47ab-b7fe-4d190451f04d","ios":"levelo://app?vid=5a30c998-dade-47ab-b7fe-4d190451f04d"},"vehicle_type_id":"4","last_reported":1713910100,"current_range_meters":14400,"station_id":"ce4bhb12rcd13ifvqel0","pricing_plan_id":"cebpf4jnsgd1na2vs0mg"},{"bike_id":"979e9711-3aed-4d8c-b424-ea164e47cc55","system_id":"levelo_inurba_marseille","lat":43.291994,"lon":5.357886,"is_reserved":false,"is_disabled":false,"rental_uris":{"android":"levelo://app?vid=979e9711-3aed-4d8c-b424-ea164e47cc55","ios":"levelo://app?vid=979e9711-3aed-4d8c-b424-ea164e47cc55"},"vehicle_type_id":"4","last_reported":1713910100,"current_range_meters":27600,"station_id":"ce4bhb12rcd13ifvqel0","pricing_plan_id":"cebpf4jnsgd1na2vs0mg"},{"bike_id":"d66d9a5e-c172-4943-89d3-d2f5631d06a5","system_id":"levelo_inurba_marseille","lat":43.308865,"lon":5.396411,"is_reserved":false,"is_disabled":false,"rental_uris":{"android":"levelo://app?vid=d66d9a5e-c172-4943-89d3-d2f5631d06a5","ios":"levelo://app?vid=d66d9a5e-c172-4943-89d3-d2f5631d06a5"},"vehicle_type_id":"4","last_reported":1713910100,"current_range_meters":3600,"station_id":"ce4bh012rcd13ifvqcv0","pricing_plan_id":"cebpf4jnsgd1na2vs0mg"},{"bike_id":"d862329d-80d5-4286-a5e1-150e5a08af4b","system_id":"levelo_inurba_marseille","lat":43.313291,"lon":5.396838,"is_reserved":false,"is_disabled":false,"rental_uris":{"android":"levelo://app?vid=d862329d-80d5-4286-a5e1-150e5a08af4b","ios":"levelo://app?vid=d862329d-80d5-4286-a5e1-150e5a08af4b"},"vehicle_type_id":"4","last_reported":1713910100,"current_range_meters":11200,"station_id":"ce4bgvp2rcd13ifvqcu0","pricing_plan_id":"cebpf4jnsgd1na2vs0mg"},{"bike_id":"e3929873-82e8-499b-ab44-11cc6d9b7efe","system_id":"levelo_inurba_marseille","lat":43.30883,"lon":5.39642,"is_reserved":false,"is_disabled":false,"rental_uris":{"android":"levelo://app?vid=e3929873-82e8-499b-ab44-11cc6d9b7efe","ios":"levelo://app?vid=e3929873-82e8-499b-ab44-11cc6d9b7efe"},"vehicle_type_id":"4","last_reported":1713910100,"current_range_meters":5600,"station_id":"ce4bh012rcd13ifvqcv0","pricing_plan_id":"cebpf4jnsgd1na2vs0mg"},{"bike_id":"b30e7edd-4d60-409e-9a56-ed46e4c3cda1","system_id":"levelo_inurba_marseille","lat":43.309038,"lon":5.396546,"is_reserved":false,"is_disabled":false,"rental_uris":{"android":"levelo://app?vid=b30e7edd-4d60-409e-9a56-ed46e4c3cda1","ios":"levelo://app?vid=b30e7edd-4d60-409e-9a56-ed46e4c3cda1"},"vehicle_type_id":"4","last_reported":1713910100,"current_range_meters":15600,"station_id":"ce4bh012rcd13ifvqcv0","pricing_plan_id":"cebpf4jnsgd1na2vs0mg"},{"bike_id":"abcc733a-6b50-4997-899d-6817c31810da","system_id":"levelo_inurba_marseille","lat":43.309047,"lon":5.396551,"is_reserved":false,"is_disabled":false,"rental_uris":{"android":"levelo://app?vid=abcc733a-6b50-4997-899d-6817c31810da","ios":"levelo://app?vid=abcc733a-6b50-4997-899d-6817c31810da"},"vehicle_type_id":"4","last_reported":1713910100,"current_range_meters":31200,"station_id":"ce4bh012rcd13ifvqcv0","pricing_plan_id":"cebpf4jnsgd1na2vs0mg"},{"bike_id":"56b816ab-7b87-4af3-8ddd-d31db3582aac","system_id":"levelo_inurba_marseille","lat":43.308846,"lon":5.396448,"is_reserved":false,"is_disabled":false,"rental_uris":{"android":"levelo://app?vid=56b816ab-7b87-4af3-8ddd-d31db3582aac","ios":"levelo://app?vid=56b816ab-7b87-4af3-8ddd-d31db3582aac"},"vehicle_type_id":"4","last_reported":1713910100,"current_range_meters":0,"station_id":"ce4bh012rcd13ifvqcv0","pricing_plan_id":"cebpf4jnsgd1na2vs0mg"},{"bike_id":"f5785a2e-b517-4871-9602-0cb15eddc062","system_id":"levelo_inurba_marseille","lat":43.30879,"lon":5.396435,"is_reserved":false,"is_disabled":false,"rental_uris":{"android":"levelo://app?vid=f5785a2e-b517-4871-9602-0cb15eddc062","ios":"levelo://app?vid=f5785a2e-b517-4871-9602-0cb15eddc062"},"vehicle_type_id":"4","last_reported":1713910100,"current_range_meters":17600,"station_id":"ce4bh012rcd13ifvqcv0","pricing_plan_id":"cebpf4jnsgd1na2vs0mg"},{"bike_id":"80da3796-d2b3-4cca-8abf-435ad8e24d4e","system_id":"levelo_inurba_marseille","lat":43.30883,"lon":5.39645,"is_reserved":false,"is_disabled":false,"rental_uris":{"android":"levelo://app?vid=80da3796-d2b3-4cca-8abf-435ad8e24d4e","ios":"levelo://app?vid=80da3796-d2b3-4cca-8abf-435ad8e24d4e"},"vehicle_type_id":"4","last_reported":1713910100,"current_range_meters":14400,"station_id":"ce4bh012rcd13ifvqcv0","pricing_plan_id":"cebpf4jnsgd1na2vs0mg"},{"bike_id":"0546aa91-605d-43b5-a337-7d5b81c37a54","system_id":"levelo_inurba_marseille","lat":43.313291,"lon":5.396838,"is_reserved":false,"is_disabled":false,"rental_uris":{"android":"levelo://app?vid=0546aa91-605d-43b5-a337-7d5b81c37a54","ios":"levelo://app?vid=0546aa91-605d-43b5-a337-7d5b81c37a54"},"vehicle_type_id":"4","last_reported":1713910100,"current_range_meters":6800,"station_id":"ce4bgvp2rcd13ifvqcu0","pricing_plan_id":"cebpf4jnsgd1na2vs0mg"},{"bike_id":"09ac5ef4-0872-43a5-a251-263d8ee24ba8","system_id":"levelo_inurba_marseille","lat":43.313291,"lon":5.396838,"is_reserved":false,"is_disabled":false,"rental_uris":{"android":"levelo://app?vid=09ac5ef4-0872-43a5-a251-263d8ee24ba8","ios":"levelo://app?vid=09ac5ef4-0872-43a5-a251-263d8ee24ba8"},"vehicle_type_id":"4","last_reported":1713910100,"current_range_meters":0,"station_id":"ce4bgvp2rcd13ifvqcu0","pricing_plan_id":"cebpf4jnsgd1na2vs0mg"},{"bike_id":"e9c9b1db-d2af-4536-bcf2-d744a358203d","system_id":"levelo_inurba_marseille","lat":43.313291,"lon":5.396838,"is_reserved":false,"is_disabled":false,"rental_uris":{"android":"levelo://app?vid=e9c9b1db-d2af-4536-bcf2-d744a358203d","ios":"levelo://app?vid=e9c9b1db-d2af-4536-bcf2-d744a358203d"},"vehicle_type_id":"4","last_reported":1713910100,"current_range_meters":11600,"station_id":"ce4bgvp2rcd13ifvqcu0","pricing_plan_id":"cebpf4jnsgd1na2vs0mg"},{"bike_id":"000b1709-3316-4747-a950-00540ffbb5e8","system_id":"levelo_inurba_marseille","lat":43.308855,"lon":5.396471,"is_reserved":false,"is_disabled":false,"rental_uris":{"android":"levelo://app?vid=000b1709-3316-4747-a950-00540ffbb5e8","ios":"levelo://app?vid=000b1709-3316-4747-a950-00540ffbb5e8"},"vehicle_type_id":"4","last_reported":1713910100,"current_range_meters":10400,"station_id":"ce4bh012rcd13ifvqcv0","pricing_plan_id":"cebpf4jnsgd1na2vs0mg"},{"bike_id":"b88f83f4-0b17-4bea-a1e4-f3aab1e4e5ba","system_id":"levelo_inurba_marseille","lat":43.313291,"lon":5.396838,"is_reserved":false,"is_disabled":false,"rental_uris":{"android":"levelo://app?vid=b88f83f4-0b17-4bea-a1e4-f3aab1e4e5ba","ios":"levelo://app?vid=b88f83f4-0b17-4bea-a1e4-f3aab1e4e5ba"},"vehicle_type_id":"4","last_reported":1713910100,"current_range_meters":16000,"station_id":"ce4bgvp2rcd13ifvqcu0","pricing_plan_id":"cebpf4jnsgd1na2vs0mg"},{"bike_id":"e321408b-0e43-41da-993e-0db2c5de41c4","system_id":"levelo_inurba_marseille","lat":43.308793,"lon":5.39646,"is_reserved":false,"is_disabled":false,"rental_uris":{"android":"levelo://app?vid=e321408b-0e43-41da-993e-0db2c5de41c4","ios":"levelo://app?vid=e321408b-0e43-41da-993e-0db2c5de41c4"},"vehicle_type_id":"4","last_reported":1713910100,"current_range_meters":2000,"station_id":"ce4bh012rcd13ifvqcv0","pricing_plan_id":"cebpf4jnsgd1na2vs0mg"},{"bike_id":"0877e327-e0dc-4d90-9a35-fb9bc0dab67f","system_id":"levelo_inurba_marseille","lat":43.308857,"lon":5.396481,"is_reserved":false,"is_disabled":false,"rental_uris":{"android":"levelo://app?vid=0877e327-e0dc-4d90-9a35-fb9bc0dab67f","ios":"levelo://app?vid=0877e327-e0dc-4d90-9a35-fb9bc0dab67f"},"vehicle_type_id":"4","last_reported":1713910100,"current_range_meters":14400,"station_id":"ce4bh012rcd13ifvqcv0","pricing_plan_id":"cebpf4jnsgd1na2vs0mg"},{"bike_id":"492f64a9-3812-4ebb-a564-705b63508815","system_id":"levelo_inurba_marseille","lat":43.308856,"lon":5.396481,"is_reserved":false,"is_disabled":false,"rental_uris":{"android":"levelo://app?vid=492f64a9-3812-4ebb-a564-705b63508815","ios":"levelo://app?vid=492f64a9-3812-4ebb-a564-705b63508815"},"vehicle_type_id":"4","last_reported":1713910100,"current_range_meters":4000,"station_id":"ce4bh012rcd13ifvqcv0","pricing_plan_id":"cebpf4jnsgd1na2vs0mg"},{"bike_id":"429ff299-a5b6-492d-948a-a5a6be2f2801","system_id":"levelo_inurba_marseille","lat":43.313291,"lon":5.396838,"is_reserved":false,"is_disabled":false,"rental_uris":{"android":"levelo://app?vid=429ff299-a5b6-492d-948a-a5a6be2f2801","ios":"levelo://app?vid=429ff299-a5b6-492d-948a-a5a6be2f2801"},"vehicle_type_id":"4","last_reported":1713910100,"current_range_meters":31200,"station_id":"ce4bgvp2rcd13ifvqcu0","pricing_plan_id":"cebpf4jnsgd1na2vs0mg"},{"bike_id":"37e89cf0-edc2-4217-a64f-0f1bff7b6560","system_id":"levelo_inurba_marseille","lat":43.30889,"lon":5.39649,"is_reserved":false,"is_disabled":false,"rental_uris":{"android":"levelo://app?vid=37e89cf0-edc2-4217-a64f-0f1bff7b6560","ios":"levelo://app?vid=37e89cf0-edc2-4217-a64f-0f1bff7b6560"},"vehicle_type_id":"4","last_reported":1713910100,"current_range_meters":2800,"station_id":"ce4bh012rcd13ifvqcv0","pricing_plan_id":"cebpf4jnsgd1na2vs0mg"},{"bike_id":"7afd9c76-ce99-4b27-8959-89836e2f30eb","system_id":"levelo_inurba_marseille","lat":43.313291,"lon":5.396838,"is_reserved":false,"is_disabled":false,"rental_uris":{"android":"levelo://app?vid=7afd9c76-ce99-4b27-8959-89836e2f30eb","ios":"levelo://app?vid=7afd9c76-ce99-4b27-8959-89836e2f30eb"},"vehicle_type_id":"4","last_reported":1713910100,"current_range_meters":14400,"station_id":"ce4bgvp2rcd13ifvqcu0","pricing_plan_id":"cebpf4jnsgd1na2vs0mg"},{"bike_id":"68bc23be-f9f5-4a58-b645-e00734f037f3","system_id":"levelo_inurba_marseille","lat":43.309038,"lon":5.396546,"is_reserved":false,"is_disabled":false,"rental_uris":{"android":"levelo://app?vid=68bc23be-f9f5-4a58-b645-e00734f037f3","ios":"levelo://app?vid=68bc23be-f9f5-4a58-b645-e00734f037f3"},"vehicle_type_id":"4","last_reported":1713910100,"current_range_meters":26800,"station_id":"ce4bh012rcd13ifvqcv0","pricing_plan_id":"cebpf4jnsgd1na2vs0mg"},{"bike_id":"b8d3d99f-1a52-4caa-a75d-eb88999b9fd9","system_id":"levelo_inurba_marseille","lat":43.308887,"lon":5.396527,"is_reserved":false,"is_disabled":false,"rental_uris":{"android":"levelo://app?vid=b8d3d99f-1a52-4caa-a75d-eb88999b9fd9","ios":"levelo://app?vid=b8d3d99f-1a52-4caa-a75d-eb88999b9fd9"},"vehicle_type_id":"4","last_reported":1713910100,"current_range_meters":11200,"station_id":"ce4bh012rcd13ifvqcv0","pricing_plan_id":"cebpf4jnsgd1na2vs0mg"},{"bike_id":"78de36d7-6df8-4fc5-8535-1faf25075482","system_id":"levelo_inurba_marseille","lat":43.309047,"lon":5.396551,"is_reserved":false,"is_disabled":false,"rental_uris":{"android":"levelo://app?vid=78de36d7-6df8-4fc5-8535-1faf25075482","ios":"levelo://app?vid=78de36d7-6df8-4fc5-8535-1faf25075482"},"vehicle_type_id":"4","last_reported":1713910100,"current_range_meters":27200,"station_id":"ce4bh012rcd13ifvqcv0","pricing_plan_id":"cebpf4jnsgd1na2vs0mg"},{"bike_id":"585944e5-b174-4f1c-a9ed-aedd20aef470","system_id":"levelo_inurba_marseille","lat":43.309047,"lon":5.396551,"is_reserved":false,"is_disabled":false,"rental_uris":{"android":"levelo://app?vid=585944e5-b174-4f1c-a9ed-aedd20aef470","ios":"levelo://app?vid=585944e5-b174-4f1c-a9ed-aedd20aef470"},"vehicle_type_id":"4","last_reported":1713910100,"current_range_meters":28400,"station_id":"ce4bh012rcd13ifvqcv0","pricing_plan_id":"cebpf4jnsgd1na2vs0mg"},{"bike_id":"883f4751-182c-4ac0-a190-32f553ab2f7f","system_id":"levelo_inurba_marseille","lat":43.30881,"lon":5.39664,"is_reserved":false,"is_disabled":false,"rental_uris":{"android":"levelo://app?vid=883f4751-182c-4ac0-a190-32f553ab2f7f","ios":"levelo://app?vid=883f4751-182c-4ac0-a190-32f553ab2f7f"},"vehicle_type_id":"4","last_reported":1713910100,"current_range_meters":3600,"station_id":"ce4bh012rcd13ifvqcv0","pricing_plan_id":"cebpf4jnsgd1na2vs0mg"},{"bike_id":"5de31f31-c87a-4745-b5da-78baeaab1b4c","system_id":"levelo_inurba_marseille","lat":43.29536,"lon":5.38554,"is_reserved":false,"is_disabled":false,"rental_uris":{"android":"levelo://app?vid=5de31f31-c87a-4745-b5da-78baeaab1b4c","ios":"levelo://app?vid=5de31f31-c87a-4745-b5da-78baeaab1b4c"},"vehicle_type_id":"4","last_reported":1713910100,"current_range_meters":26800,"station_id":"ce4bgih2rcd13ifvqba0","pricing_plan_id":"cebpf4jnsgd1na2vs0mg"},{"bike_id":"1b2b62cf-96d9-402c-9a77-6dea2eb80823","system_id":"levelo_inurba_marseille","lat":43.29529,"lon":5.385581,"is_reserved":false,"is_disabled":false,"rental_uris":{"android":"levelo://app?vid=1b2b62cf-96d9-402c-9a77-6dea2eb80823","ios":"levelo://app?vid=1b2b62cf-96d9-402c-9a77-6dea2eb80823"},"vehicle_type_id":"4","last_reported":1713910100,"current_range_meters":19200,"station_id":"ce4bgih2rcd13ifvqba0","pricing_plan_id":"cebpf4jnsgd1na2vs0mg"},{"bike_id":"4e4c75b7-4a12-468e-90ea-d78d89f1348d","system_id":"levelo_inurba_marseille","lat":43.29529,"lon":5.385581,"is_reserved":false,"is_disabled":false,"rental_uris":{"android":"levelo://app?vid=4e4c75b7-4a12-468e-90ea-d78d89f1348d","ios":"levelo://app?vid=4e4c75b7-4a12-468e-90ea-d78d89f1348d"},"vehicle_type_id":"4","last_reported":1713910100,"current_range_meters":26800,"station_id":"ce4bgih2rcd13ifvqba0","pricing_plan_id":"cebpf4jnsgd1na2vs0mg"},{"bike_id":"3ea77f8d-907f-4c9f-9e55-8a2334f3d060","system_id":"levelo_inurba_marseille","lat":43.29532,"lon":5.38555,"is_reserved":false,"is_disabled":false,"rental_uris":{"android":"levelo://app?vid=3ea77f8d-907f-4c9f-9e55-8a2334f3d060","ios":"levelo://app?vid=3ea77f8d-907f-4c9f-9e55-8a2334f3d060"},"vehicle_type_id":"4","last_reported":1713910100,"current_range_meters":0,"station_id":"ce4bgih2rcd13ifvqba0","pricing_plan_id":"cebpf4jnsgd1na2vs0mg"},{"bike_id":"b736af03-92ba-4cd5-9447-ad1e95d65aba","system_id":"levelo_inurba_marseille","lat":43.3328,"lon":5.37969,"is_reserved":false,"is_disabled":false,"rental_uris":{"android":"levelo://app?vid=b736af03-92ba-4cd5-9447-ad1e95d65aba","ios":"levelo://app?vid=b736af03-92ba-4cd5-9447-ad1e95d65aba"},"vehicle_type_id":"4","last_reported":1713910100,"current_range_meters":0,"station_id":"","pricing_plan_id":"cebpf4jnsgd1na2vs0mg"},{"bike_id":"ad6f094d-3e45-4b69-ae4f-2866c1dc71f7","system_id":"levelo_inurba_marseille","lat":43.302008,"lon":5.394694,"is_reserved":false,"is_disabled":false,"rental_uris":{"android":"levelo://app?vid=ad6f094d-3e45-4b69-ae4f-2866c1dc71f7","ios":"levelo://app?vid=ad6f094d-3e45-4b69-ae4f-2866c1dc71f7"},"vehicle_type_id":"4","last_reported":1713910100,"current_range_meters":4800,"station_id":"ce4bh0p2rcd13ifvqd70","pricing_plan_id":"cebpf4jnsgd1na2vs0mg"},{"bike_id":"e169c40a-40b0-431a-a47e-f4f7914c336f","system_id":"levelo_inurba_marseille","lat":43.290631,"lon":5.359244,"is_reserved":false,"is_disabled":false,"rental_uris":{"android":"levelo://app?vid=e169c40a-40b0-431a-a47e-f4f7914c336f","ios":"levelo://app?vid=e169c40a-40b0-431a-a47e-f4f7914c336f"},"vehicle_type_id":"4","last_reported":1713910100,"current_range_meters":11600,"station_id":"ce4bha92rcd13ifvqeg0","pricing_plan_id":"cebpf4jnsgd1na2vs0mg"},{"bike_id":"f42dc2ad-91f1-45ae-9284-ce9ef71c0d21","system_id":"levelo_inurba_marseille","lat":43.290624,"lon":5.359245,"is_reserved":false,"is_disabled":false,"rental_uris":{"android":"levelo://app?vid=f42dc2ad-91f1-45ae-9284-ce9ef71c0d21","ios":"levelo://app?vid=f42dc2ad-91f1-45ae-9284-ce9ef71c0d21"},"vehicle_type_id":"4","last_reported":1713910100,"current_range_meters":12000,"station_id":"ce4bha92rcd13ifvqeg0","pricing_plan_id":"cebpf4jnsgd1na2vs0mg"},{"bike_id":"278aaba7-defd-4946-9c18-e13da2a0cefc","system_id":"levelo_inurba_marseille","lat":43.290631,"lon":5.359244,"is_reserved":false,"is_disabled":false,"rental_uris":{"android":"levelo://app?vid=278aaba7-defd-4946-9c18-e13da2a0cefc","ios":"levelo://app?vid=278aaba7-defd-4946-9c18-e13da2a0cefc"},"vehicle_type_id":"4","last_reported":1713910100,"current_range_meters":4400,"station_id":"ce4bha92rcd13ifvqeg0","pricing_plan_id":"cebpf4jnsgd1na2vs0mg"},{"bike_id":"5afd8c97-d067-4a02-9a9a-c1f3d27a55ee","system_id":"levelo_inurba_marseille","lat":43.290631,"lon":5.359244,"is_reserved":false,"is_disabled":false,"rental_uris":{"android":"levelo://app?vid=5afd8c97-d067-4a02-9a9a-c1f3d27a55ee","ios":"levelo://app?vid=5afd8c97-d067-4a02-9a9a-c1f3d27a55ee"},"vehicle_type_id":"4","last_reported":1713910100,"current_range_meters":20800,"station_id":"ce4bha92rcd13ifvqeg0","pricing_plan_id":"cebpf4jnsgd1na2vs0mg"},{"bike_id":"b132d2a3-80fa-4aea-a881-6b208afd52db","system_id":"levelo_inurba_marseille","lat":43.290319,"lon":5.375732,"is_reserved":false,"is_disabled":false,"rental_uris":{"android":"levelo://app?vid=b132d2a3-80fa-4aea-a881-6b208afd52db","ios":"levelo://app?vid=b132d2a3-80fa-4aea-a881-6b208afd52db"},"vehicle_type_id":"4","last_reported":1713910100,"current_range_meters":6000,"station_id":"ce4bh692rcd13ifvqe90","pricing_plan_id":"cebpf4jnsgd1na2vs0mg"},{"bike_id":"1091843d-43f9-4105-9b00-689a042e2e28","system_id":"levelo_inurba_marseille","lat":43.310804,"lon":5.38359,"is_reserved":false,"is_disabled":false,"rental_uris":{"android":"levelo://app?vid=1091843d-43f9-4105-9b00-689a042e2e28","ios":"levelo://app?vid=1091843d-43f9-4105-9b00-689a042e2e28"},"vehicle_type_id":"4","last_reported":1713910100,"current_range_meters":18000,"station_id":"ce4bgv92rcd13ifvqcr0","pricing_plan_id":"cebpf4jnsgd1na2vs0mg"},{"bike_id":"228cf0de-60e9-451d-9d9a-660b90700ed8","system_id":"levelo_inurba_marseille","lat":43.290327,"lon":5.375711,"is_reserved":false,"is_disabled":false,"rental_uris":{"android":"levelo://app?vid=228cf0de-60e9-451d-9d9a-660b90700ed8","ios":"levelo://app?vid=228cf0de-60e9-451d-9d9a-660b90700ed8"},"vehicle_type_id":"4","last_reported":1713910100,"current_range_meters":14000,"station_id":"ce4bh692rcd13ifvqe90","pricing_plan_id":"cebpf4jnsgd1na2vs0mg"},{"bike_id":"f54abd96-4262-4f36-9b6f-96ad4bcbffd1","system_id":"levelo_inurba_marseille","lat":43.286039,"lon":5.370679,"is_reserved":false,"is_disabled":false,"rental_uris":{"android":"levelo://app?vid=f54abd96-4262-4f36-9b6f-96ad4bcbffd1","ios":"levelo://app?vid=f54abd96-4262-4f36-9b6f-96ad4bcbffd1"},"vehicle_type_id":"4","last_reported":1713910100,"current_range_meters":14000,"station_id":"ce4bht12rcd13ifvqi60","pricing_plan_id":"cebpf4jnsgd1na2vs0mg"},{"bike_id":"5d5734ab-cf44-41c1-bcd8-d3ed5bb42da8","system_id":"levelo_inurba_marseille","lat":43.290327,"lon":5.375711,"is_reserved":false,"is_disabled":false,"rental_uris":{"android":"levelo://app?vid=5d5734ab-cf44-41c1-bcd8-d3ed5bb42da8","ios":"levelo://app?vid=5d5734ab-cf44-41c1-bcd8-d3ed5bb42da8"},"vehicle_type_id":"4","last_reported":1713910100,"current_range_meters":10000,"station_id":"ce4bh692rcd13ifvqe90","pricing_plan_id":"cebpf4jnsgd1na2vs0mg"},{"bike_id":"3ae73c22-b6c6-47ad-9bae-04e84fca2349","system_id":"levelo_inurba_marseille","lat":43.290319,"lon":5.375732,"is_reserved":false,"is_disabled":false,"rental_uris":{"android":"levelo://app?vid=3ae73c22-b6c6-47ad-9bae-04e84fca2349","ios":"levelo://app?vid=3ae73c22-b6c6-47ad-9bae-04e84fca2349"},"vehicle_type_id":"4","last_reported":1713910100,"current_range_meters":31600,"station_id":"ce4bh692rcd13ifvqe90","pricing_plan_id":"cebpf4jnsgd1na2vs0mg"},{"bike_id":"0c191d29-81a8-4e86-a099-ce2f1b338d4b","system_id":"levelo_inurba_marseille","lat":43.29413,"lon":5.3863,"is_reserved":false,"is_disabled":false,"rental_uris":{"android":"levelo://app?vid=0c191d29-81a8-4e86-a099-ce2f1b338d4b","ios":"levelo://app?vid=0c191d29-81a8-4e86-a099-ce2f1b338d4b"},"vehicle_type_id":"4","last_reported":1713910100,"current_range_meters":5200,"station_id":"ce4bh2h2rcd13ifvqdh0","pricing_plan_id":"cebpf4jnsgd1na2vs0mg"},{"bike_id":"76e14742-c6ae-4772-84e3-7ae9b21fe7a9","system_id":"levelo_inurba_marseille","lat":43.289184,"lon":5.366408,"is_reserved":false,"is_disabled":false,"rental_uris":{"android":"levelo://app?vid=76e14742-c6ae-4772-84e3-7ae9b21fe7a9","ios":"levelo://app?vid=76e14742-c6ae-4772-84e3-7ae9b21fe7a9"},"vehicle_type_id":"4","last_reported":1713910100,"current_range_meters":17200,"station_id":"ce4bhap2rcd13ifvqek0","pricing_plan_id":"cebpf4jnsgd1na2vs0mg"},{"bike_id":"40e3c1e1-0eda-47a6-9025-3ee34ac890fd","system_id":"levelo_inurba_marseille","lat":43.28932,"lon":5.36635,"is_reserved":false,"is_disabled":false,"rental_uris":{"android":"levelo://app?vid=40e3c1e1-0eda-47a6-9025-3ee34ac890fd","ios":"levelo://app?vid=40e3c1e1-0eda-47a6-9025-3ee34ac890fd"},"vehicle_type_id":"4","last_reported":1713910100,"current_range_meters":28400,"station_id":"ce4bhch2rcd13ifvqeug","pricing_plan_id":"cebpf4jnsgd1na2vs0mg"},{"bike_id":"442dcdc0-6d3f-4f8d-884d-ab2ac6f38be9","system_id":"levelo_inurba_marseille","lat":43.28939,"lon":5.36391,"is_reserved":false,"is_disabled":false,"rental_uris":{"android":"levelo://app?vid=442dcdc0-6d3f-4f8d-884d-ab2ac6f38be9","ios":"levelo://app?vid=442dcdc0-6d3f-4f8d-884d-ab2ac6f38be9"},"vehicle_type_id":"4","last_reported":1713910100,"current_range_meters":21600,"station_id":"ce4bhc92rcd13ifvqetg","pricing_plan_id":"cebpf4jnsgd1na2vs0mg"},{"bike_id":"b52285b6-22eb-4484-b685-9ab89eebafe9","system_id":"levelo_inurba_marseille","lat":43.28929,"lon":5.36637,"is_reserved":false,"is_disabled":false,"rental_uris":{"android":"levelo://app?vid=b52285b6-22eb-4484-b685-9ab89eebafe9","ios":"levelo://app?vid=b52285b6-22eb-4484-b685-9ab89eebafe9"},"vehicle_type_id":"4","last_reported":1713910100,"current_range_meters":3200,"station_id":"ce4bhap2rcd13ifvqek0","pricing_plan_id":"cebpf4jnsgd1na2vs0mg"},{"bike_id":"8a4ee9b8-fbc4-4e16-8bba-d57466733305","system_id":"levelo_inurba_marseille","lat":43.289468,"lon":5.363719,"is_reserved":false,"is_disabled":false,"rental_uris":{"android":"levelo://app?vid=8a4ee9b8-fbc4-4e16-8bba-d57466733305","ios":"levelo://app?vid=8a4ee9b8-fbc4-4e16-8bba-d57466733305"},"vehicle_type_id":"4","last_reported":1713910100,"current_range_meters":31200,"station_id":"ce4bhc92rcd13ifvqetg","pricing_plan_id":"cebpf4jnsgd1na2vs0mg"},