{"last_updated":1745705322,"ttl":60,"version":"2.2","data":{"bikes":[{"bike_id":"a87cac5e-7e4d-4a77-a84b-1e42c89d5cc2","system_id":"levelo_inurba_marseille","lat":43.27953,"lon":5.41037,"is_reserved":false,"is_disabled":false,"rental_uris":{"android":"levelo://app?vid=a87cac5e-7e4d-4a77-a84b-1e42c89d5cc2","ios":"levelo://app?vid=a87cac5e-7e4d-4a77-a84b-1e42c89d5cc2"},"vehicle_type_id":"4","last_reported":1745705322,"current_range_meters":3200,"station_id":"ce4bhnp2rcd13ifvqh0g","pricing_plan_id":"cebpf4jnsgd1na2vs0mg"},{"bike_id":"144232dc-fbfe-4f72-aba3-3450a87576a4","system_id":"levelo_inurba_marseille","lat":43.29833,"lon":5.38543,"is_reserved":false,"is_disabled":false,"rental_uris":{"android":"levelo://app?vid=144232dc-fbfe-4f72-aba3-3450a87576a4","ios":"levelo://app?vid=144232dc-fbfe-4f72-aba3-3450a87576a4"},"vehicle_type_id":"4","last_reported":1745705322,"current_range_meters":3200,"station_id":"","pricing_plan_id":"cebpf4jnsgd1na2vs0mg"},{"bike_id":"72d9d412-57d4-43b5-8abb-177a4c9a71ac","system_id":"levelo_inurba_marseille","lat":43.29798,"lon":5.404,"is_reserved":false,"is_disabled":false,"rental_uris":{"android":"levelo://app?vid=72d9d412-57d4-43b5-8abb-177a4c9a71ac","ios":"levelo://app?vid=72d9d412-57d4-43b5-8abb-177a4c9a71ac"},"vehicle_type_id":"4","last_reported":1745705322,"current_range_meters":3200,"station_id":"ce4bh112rcd13ifvqd90","pricing_plan_id":"cebpf4jnsgd1na2vs0mg"},{"bike_id":"9b630223-07ec-426d-b44c-558ce3de6541","system_id":"levelo_inurba_marseille","lat":43.27926,"lon":5.39575,"is_reserved":false,"is_disabled":false,"rental_uris":{"android":"levelo://app?vid=9b630223-07ec-426d-b44c-558ce3de6541","ios":"levelo://app?vid=9b630223-07ec-426d-b44c-558ce3de6541"},"vehicle_type_id":"4","last_reported":1745705322,"current_range_meters":3200,"station_id":"ce4bhf92rcd13ifvqf40","pricing_plan_id":"cebpf4jnsgd1na2vs0mg"},{"bike_id":"327fa908-fafe-40ae-b97e-12862a152f1f","system_id":"levelo_inurba_marseille","lat":43.27619,"lon":5.39302,"is_reserved":false,"is_disabled":false,"rental_uris":{"android":"levelo://app?vid=327fa908-fafe-40ae-b97e-12862a152f1f","ios":"levelo://app?vid=327fa908-fafe-40ae-b97e-12862a152f1f"},"vehicle_type_id":"4","last_reported":1745705322,"current_range_meters":3600,"station_id":"","pricing_plan_id":"cebpf4jnsgd1na2vs0mg"},{"bike_id":"1746265e-27ad-4913-8a06-b6dc5372d844","system_id":"levelo_inurba_marseille","lat":43.26005,"lon":5.37479,"is_reserved":false,"is_disabled":false,"rental_uris":{"android":"levelo://app?vid=1746265e-27ad-4913-8a06-b6dc5372d844","ios":"levelo://app?vid=1746265e-27ad-4913-8a06-b6dc5372d844"},"vehicle_type_id":"4","last_reported":1745705322,"current_range_meters":3600,"station_id":"","pricing_plan_id":"cebpf4jnsgd1na2vs0mg"},{"bike_id":"f4edd00e-488c-4259-bbb9-c01f12a02681","system_id":"levelo_inurba_marseille","lat":43.30479,"lon":5.39351,"is_reserved":false,"is_disabled":false,"rental_uris":{"android":"levelo://app?vid=f4edd00e-488c-4259-bbb9-c01f12a02681","ios":"levelo://app?vid=f4edd00e-488c-4259-bbb9-c01f12a02681"},"vehicle_type_id":"4","last_reported":1745705322,"current_range_meters":3600,"station_id":"","pricing_plan_id":"cebpf4jnsgd1na2vs0mg"},{"bike_id":"2ed3acad-be2b-47bc-bb16-dd14b09ebd94","system_id":"levelo_inurba_marseille","lat":43.24549,"lon":5.39522,"is_reserved":false,"is_disabled":false,"rental_uris":{"android":"levelo://app?vid=2ed3acad-be2b-47bc-bb16-dd14b09ebd94","ios":"levelo://app?vid=2ed3acad-be2b-47bc-bb16-dd14b09ebd94"},"vehicle_type_id":"4","last_reported":1745705322,"current_range_meters":3600,"station_id":"ce4bhlp2rcd13ifvqgjg","pricing_plan_id":"cebpf4jnsgd1na2vs0mg"},{"bike_id":"a84dda67-2771-448f-9f2c-69a47019d774","system_id":"levelo_inurba_marseille","lat":43.336143,"lon":5.410137,"is_reserved":false,"is_disabled":true,"rental_uris":{"android":"levelo://app?vid=a84dda67-2771-448f-9f2c-69a47019d774","ios":"levelo://app?vid=a84dda67-2771-448f-9f2c-69a47019d774"},"vehicle_type_id":"4","last_reported":1745705322,"current_range_meters":3600,"station_id":"ce4bhqh2rcd13ifvqhmg","pricing_plan_id":"cebpf4jnsgd1na2vs0mg"},{"bike_id":"5947afc2-cf4b-40ae-acd4-a167354a8192","system_id":"levelo_inurba_marseille","lat":43.23155,"lon":5.43709,"is_reserved":false,"is_disabled":false,"rental_uris":{"android":"levelo://app?vid=5947afc2-cf4b-40ae-acd4-a167354a8192","ios":"levelo://app?vid=5947afc2-cf4b-40ae-acd4-a167354a8192"},"vehicle_type_id":"4","last_reported":1745705322,"current_range_meters":4000,"station_id":"ce4bhmp2rcd13ifvqgog","pricing_plan_id":"cebpf4jnsgd1na2vs0mg"},{"bike_id":"8e1b7f9c-15cd-4196-9a56-b8c9c867228b","system_id":"levelo_inurba_marseille","lat":43.26209,"lon":5.37444,"is_reserved":false,"is_disabled":false,"rental_uris":{"android":"levelo://app?vid=8e1b7f9c-15cd-4196-9a56-b8c9c867228b","ios":"levelo://app?vid=8e1b7f9c-15cd-4196-9a56-b8c9c867228b"},"vehicle_type_id":"4","last_reported":1745705322,"current_range_meters":4000,"station_id":"ce4bhgp2rcd13ifvqfc0","pricing_plan_id":"cebpf4jnsgd1na2vs0mg"},{"bike_id":"3edbdf7f-b850-4048-a52c-3b1633cf4ffa","system_id":"levelo_inurba_marseille","lat":43.23957,"lon":5.366344,"is_reserved":false,"is_disabled":false,"rental_uris":{"android":"levelo://app?vid=3edbdf7f-b850-4048-a52c-3b1633cf4ffa","ios":"levelo://app?vid=3edbdf7f-b850-4048-a52c-3b1633cf4ffa"},"vehicle_type_id":"4","last_reported":1745705322,"current_range_meters":4000,"station_id":"ce4bhi12rcd13ifvqfp0","pricing_plan_id":"cebpf4jnsgd1na2vs0mg"},{"bike_id":"29e436ca-6f7d-42ee-94c7-987fdae41c2b","system_id":"levelo_inurba_marseille","lat":43.26181,"lon":5.37456,"is_reserved":false,"is_disabled":false,"rental_uris":{"android":"levelo://app?vid=29e436ca-6f7d-42ee-94c7-987fdae41c2b","ios":"levelo://app?vid=29e436ca-6f7d-42ee-94c7-987fdae41c2b"},"vehicle_type_id":"4","last_reported":1745705322,"current_range_meters":4000,"station_id":"ce4bhgp2rcd13ifvqfc0","pricing_plan_id":"cebpf4jnsgd1na2vs0mg"},{"bike_id":"71d6e181-f0eb-48c7-8671-51cc43571718","system_id":"levelo_inurba_marseille","lat":43.255,"lon":5.37639,"is_reserved":false,"is_disabled":false,"rental_uris":{"android":"levelo://app?vid=71d6e181-f0eb-48c7-8671-51cc43571718","ios":"levelo://app?vid=71d6e181-f0eb-48c7-8671-51cc43571718"},"vehicle_type_id":"4","last_reported":1745705322,"current_range_meters":4400,"station_id":"ce4bhh12rcd13ifvqff0","pricing_plan_id":"cebpf4jnsgd1na2vs0mg"},{"bike_id":"74bf1832-a389-491d-9cf1-c0544e13bc20","system_id":"levelo_inurba_marseille","lat":43.27495,"lon":5.42471,"is_reserved":false,"is_disabled":false,"rental_uris":{"android":"levelo://app?vid=74bf1832-a389-491d-9cf1-c0544e13bc20","ios":"levelo://app?vid=74bf1832-a389-491d-9cf1-c0544e13bc20"},"vehicle_type_id":"4","last_reported":1745705322,"current_range_meters":4400,"station_id":"ce4bhn92rcd13ifvqgrg","pricing_plan_id":"cebpf4jnsgd1na2vs0mg"},{"bike_id":"fcddd32a-71f9-41b4-a1cc-f32582f63a00","system_id":"levelo_inurba_marseille","lat":43.3078,"lon":5.37654,"is_reserved":false,"is_disabled":false,"rental_uris":{"android":"levelo://app?vid=fcddd32a-71f9-41b4-a1cc-f32582f63a00","ios":"levelo://app?vid=fcddd32a-71f9-41b4-a1cc-f32582f63a00"},"vehicle_type_id":"4","last_reported":1745705322,"current_range_meters":4400,"station_id":"","pricing_plan_id":"cebpf4jnsgd1na2vs0mg"},{"bike_id":"6d91a8dc-ba91-4e59-90e6-05e9199e8291","system_id":"levelo_inurba_marseille","lat":43.26237,"lon":5.40453,"is_reserved":false,"is_disabled":false,"rental_uris":{"android":"levelo://app?vid=6d91a8dc-ba91-4e59-90e6-05e9199e8291","ios":"levelo://app?vid=6d91a8dc-ba91-4e59-90e6-05e9199e8291"},"vehicle_type_id":"4","last_reported":1745705322,"current_range_meters":4400,"station_id":"ce4bhmh2rcd13ifvqgmg","pricing_plan_id":"cebpf4jnsgd1na2vs0mg"},{"bike_id":"d1ff7e34-d25d-4063-9648-2bd4db47424f","system_id":"levelo_inurba_marseille","lat":43.32455,"lon":5.39145,"is_reserved":false,"is_disabled":true,"rental_uris":{"android":"levelo://app?vid=d1ff7e34-d25d-4063-9648-2bd4db47424f","ios":"levelo://app?vid=d1ff7e34-d25d-4063-9648-2bd4db47424f"},"vehicle_type_id":"4","last_reported":1745705322,"current_range_meters":5600,"station_id":"","pricing_plan_id":"cebpf4jnsgd1na2vs0mg"},{"bike_id":"436914c3-43b7-49dc-8a5f-990cea531c07","system_id":"levelo_inurba_marseille","lat":43.25499,"lon":5.37645,"is_reserved":false,"is_disabled":false,"rental_uris":{"android":"levelo://app?vid=436914c3-43b7-49dc-8a5f-990cea531c07","ios":"levelo://app?vid=436914c3-43b7-49dc-8a5f-990cea531c07"},"vehicle_type_id":"4","last_reported":1745705322,"current_range_meters":5600,"station_id":"ce4bhh12rcd13ifvqff0","pricing_plan_id":"cebpf4jnsgd1na2vs0mg"},{"bike_id":"a3112367-1424-4a05-80fd-6feab4b9bf5e","system_id":"levelo_inurba_marseille","lat":43.29532,"lon":5.38546,"is_reserved":false,"is_disabled":false,"rental_uris":{"android":"levelo://app?vid=a3112367-1424-4a05-80fd-6feab4b9bf5e","ios":"levelo://app?vid=a3112367-1424-4a05-80fd-6feab4b9bf5e"},"vehicle_type_id":"4","last_reported":1745705322,"current_range_meters":6000,"station_id":"ce4bgih2rcd13ifvqba0","pricing_plan_id":"cebpf4jnsgd1na2vs0mg"},{"bike_id":"902d580a-da64-4923-acf3-da72226fe79b","system_id":"levelo_inurba_marseille","lat":43.294209,"lon":5.386199,"is_reserved":false,"is_disabled":false,"rental_uris":{"android":"levelo://app?vid=902d580a-da64-4923-acf3-da72226fe79b","ios":"levelo://app?vid=902d580a-da64-4923-acf3-da72226fe79b"},"vehicle_type_id":"4","last_reported":1745705322,"current_range_meters":6000,"station_id":"ce4bh112rcd13ifvqda0","pricing_plan_id":"cebpf4jnsgd1na2vs0mg"},{"bike_id":"a627f404-f30c-48d5-a18e-794b9216822e","system_id":"levelo_inurba_marseille","lat":43.30251,"lon":5.40071,"is_reserved":false,"is_disabled":false,"rental_uris":{"android":"levelo://app?vid=a627f404-f30c-48d5-a18e-794b9216822e","ios":"levelo://app?vid=a627f404-f30c-48d5-a18e-794b9216822e"},"vehicle_type_id":"4","last_reported":1745705322,"current_range_meters":6000,"station_id":"ce4bgvh2rcd13ifvqcs0","pricing_plan_id":"cebpf4jnsgd1na2vs0mg"},{"bike_id":"422b5989-c8b6-43aa-b2b9-3bfeb2e1ddc0","system_id":"levelo_inurba_marseille","lat":43.24737,"lon":5.41172,"is_reserved":false,"is_disabled":false,"rental_uris":{"android":"levelo://app?vid=422b5989-c8b6-43aa-b2b9-3bfeb2e1ddc0","ios":"levelo://app?vid=422b5989-c8b6-43aa-b2b9-3bfeb2e1ddc0"},"vehicle_type_id":"4","last_reported":1745705322,"current_range_meters":6400,"station_id":"","pricing_plan_id":"cebpf4jnsgd1na2vs0mg"},{"bike_id":"f62a4552-ec40-438e-82bf-49608a81162e","system_id":"levelo_inurba_marseille","lat":43.23966,"lon":5.36634,"is_reserved":false,"is_disabled":false,"rental_uris":{"android":"levelo://app?vid=f62a4552-ec40-438e-82bf-49608a81162e","ios":"levelo://app?vid=f62a4552-ec40-438e-82bf-49608a81162e"},"vehicle_type_id":"4","last_reported":1745705322,"current_range_meters":6400,"station_id":"ce4bhi12rcd13ifvqfp0","pricing_plan_id":"cebpf4jnsgd1na2vs0mg"},{"bike_id":"038ab9d9-bdf2-4623-8df7-6a83d8bbe4d5","system_id":"levelo_inurba_marseille","lat":43.24546,"lon":5.39529,"is_reserved":false,"is_disabled":false,"rental_uris":{"android":"levelo://app?vid=038ab9d9-bdf2-4623-8df7-6a83d8bbe4d5","ios":"levelo://app?vid=038ab9d9-bdf2-4623-8df7-6a83d8bbe4d5"},"vehicle_type_id":"4","last_reported":1745705322,"current_range_meters":6400,"station_id":"ce4bhlp2rcd13ifvqgjg","pricing_plan_id":"cebpf4jnsgd1na2vs0mg"},{"bike_id":"e99e6315-2751-4329-ad7b-f9d19f8ec3ef","system_id":"levelo_inurba_marseille","lat":43.28156,"lon":5.42637,"is_reserved":false,"is_disabled":false,"rental_uris":{"android":"levelo://app?vid=e99e6315-2751-4329-ad7b-f9d19f8ec3ef","ios":"levelo://app?vid=e99e6315-2751-4329-ad7b-f9d19f8ec3ef"},"vehicle_type_id":"4","last_reported":1745705322,"current_range_meters":6400,"station_id":"ce4bhnh2rcd13ifvqgug","pricing_plan_id":"cebpf4jnsgd1na2vs0mg"},{"bike_id":"ca43c6b9-3fe0-4348-8b76-daca57887eb8","system_id":"levelo_inurba_marseille","lat":43.25492,"lon":5.37644,"is_reserved":false,"is_disabled":false,"rental_uris":{"android":"levelo://app?vid=ca43c6b9-3fe0-4348-8b76-daca57887eb8","ios":"levelo://app?vid=ca43c6b9-3fe0-4348-8b76-daca57887eb8"},"vehicle_type_id":"4","last_reported":1745705322,"current_range_meters":6400,"station_id":"ce4bhh12rcd13ifvqff0","pricing_plan_id":"cebpf4jnsgd1na2vs0mg"},{"bike_id":"11401a89-1aad-4932-8dc9-873ec02586b9","system_id":"levelo_inurba_marseille","lat":43.225006,"lon":5.34782,"is_reserved":false,"is_disabled":false,"rental_uris":{"android":"levelo://app?vid=11401a89-1aad-4932-8dc9-873ec02586b9","ios":"levelo://app?vid=11401a89-1aad-4932-8dc9-873ec02586b9"},"vehicle_type_id":"4","last_reported":1745705322,"current_range_meters":6400,"station_id":"ce4bgjp2rcd13ifvqbh0","pricing_plan_id":"cebpf4jnsgd1na2vs0mg"},{"bike_id":"05094179-e208-4767-94df-7d6832edefd1","system_id":"levelo_inurba_marseille","lat":43.28156,"lon":5.42642,"is_reserved":false,"is_disabled":false,"rental_uris":{"android":"levelo://app?vid=05094179-e208-4767-94df-7d6832edefd1","ios":"levelo://app?vid=05094179-e208-4767-94df-7d6832edefd1"},"vehicle_type_id":"4","last_reported":1745705322,"current_range_meters":6400,"station_id":"ce4bhnh2rcd13ifvqgug","pricing_plan_id":"cebpf4jnsgd1na2vs0mg"},{"bike_id":"5cf8e8e2-ee60-42b2-82aa-6b72e2a66531","system_id":"levelo_inurba_marseille","lat":43.28491,"lon":5.38421,"is_reserved":false,"is_disabled":false,"rental_uris":{"android":"levelo://app?vid=5cf8e8e2-ee60-42b2-82aa-6b72e2a66531","ios":"levelo://app?vid=5cf8e8e2-ee60-42b2-82aa-6b72e2a66531"},"vehicle_type_id":"4","last_reported":1745705322,"current_range_meters":6800,"station_id":"ce4bh512rcd13ifvqe3g","pricing_plan_id":"cebpf4jnsgd1na2vs0mg"},{"bike_id":"554fe001-fd7c-4ce9-8b9f-fe24a3da343a","system_id":"levelo_inurba_marseille","lat":43.2319,"lon":5.35556,"is_reserved":false,"is_disabled":false,"rental_uris":{"android":"levelo://app?vid=554fe001-fd7c-4ce9-8b9f-fe24a3da343a","ios":"levelo://app?vid=554fe001-fd7c-4ce9-8b9f-fe24a3da343a"},"vehicle_type_id":"4","last_reported":1745705322,"current_range_meters":6800,"station_id":"ce4bhu92rcd13ifvqi70","pricing_plan_id":"cebpf4jnsgd1na2vs0mg"},{"bike_id":"3b6e3216-f666-4298-a310-acc5d51086df","system_id":"levelo_inurba_marseille","lat":43.24182,"lon":5.39728,"is_reserved":false,"is_disabled":false,"rental_uris":{"android":"levelo://app?vid=3b6e3216-f666-4298-a310-acc5d51086df","ios":"levelo://app?vid=3b6e3216-f666-4298-a310-acc5d51086df"},"vehicle_type_id":"4","last_reported":1745705322,"current_range_meters":6800,"station_id":"ce4bhn12rcd13ifvqgpg","pricing_plan_id":"cebpf4jnsgd1na2vs0mg"},{"bike_id":"f04eedf7-4b60-4c7d-8552-095292c8d967","system_id":"levelo_inurba_marseille","lat":43.26518,"lon":5.3722,"is_reserved":false,"is_disabled":false,"rental_uris":{"android":"levelo://app?vid=f04eedf7-4b60-4c7d-8552-095292c8d967","ios":"levelo://app?vid=f04eedf7-4b60-4c7d-8552-095292c8d967"},"vehicle_type_id":"4","last_reported":1745705322,"current_range_meters":6800,"station_id":"","pricing_plan_id":"cebpf4jnsgd1na2vs0mg"},{"bike_id":"0cbbb9b4-fe1c-47cd-85ea-f467e57e18f3","system_id":"levelo_inurba_marseille","lat":43.24809,"lon":5.37443,"is_reserved":false,"is_disabled":false,"rental_uris":{"android":"levelo://app?vid=0cbbb9b4-fe1c-47cd-85ea-f467e57e18f3","ios":"levelo://app?vid=0cbbb9b4-fe1c-47cd-85ea-f467e57e18f3"},"vehicle_type_id":"4","last_reported":1745705322,"current_range_meters":6800,"station_id":"ce4bhgh2rcd13ifvqfb0","pricing_plan_id":"cebpf4jnsgd1na2vs0mg"},{"bike_id":"18ae1d78-8d9e-4697-bc48-a39d36035c1d","system_id":"levelo_inurba_marseille","lat":43.23971,"lon":5.36619,"is_reserved":false,"is_disabled":false,"rental_uris":{"android":"levelo://app?vid=18ae1d78-8d9e-4697-bc48-a39d36035c1d","ios":"levelo://app?vid=18ae1d78-8d9e-4697-bc48-a39d36035c1d"},"vehicle_type_id":"4","last_reported":1745705322,"current_range_meters":6800,"station_id":"ce4bhi12rcd13ifvqfp0","pricing_plan_id":"cebpf4jnsgd1na2vs0mg"},{"bike_id":"3fb10e7d-00e1-476c-a14f-2837b73331eb","system_id":"levelo_inurba_marseille","lat":43.26182,"lon":5.3746,"is_reserved":false,"is_disabled":false,"rental_uris":{"android":"levelo://app?vid=3fb10e7d-00e1-476c-a14f-2837b73331eb","ios":"levelo://app?vid=3fb10e7d-00e1-476c-a14f-2837b73331eb"},"vehicle_type_id":"4","last_reported":1745705322,"current_range_meters":7200,"station_id":"ce4bhgp2rcd13ifvqfc0","pricing_plan_id":"cebpf4jnsgd1na2vs0mg"},{"bike_id":"51376682-930e-45ed-90e0-b53d931ddc33","system_id":"levelo_inurba_marseille","lat":43.27495,"lon":5.42466,"is_reserved":false,"is_disabled":false,"rental_uris":{"android":"levelo://app?vid=51376682-930e-45ed-90e0-b53d931ddc33","ios":"levelo://app?vid=51376682-930e-45ed-90e0-b53d931ddc33"},"vehicle_type_id":"4","last_reported":1745705322,"current_range_meters":7200,"station_id":"ce4bhn92rcd13ifvqgrg","pricing_plan_id":"cebpf4jnsgd1na2vs0mg"},{"bike_id":"1633ed64-e423-42e4-93c5-471c5c6b4f37","system_id":"levelo_inurba_marseille","lat":43.26061,"lon":5.3939,"is_reserved":false,"is_disabled":false,"rental_uris":{"android":"levelo://app?vid=1633ed64-e423-42e4-93c5-471c5c6b4f37","ios":"levelo://app?vid=1633ed64-e423-42e4-93c5-471c5c6b4f37"},"vehicle_type_id":"4","last_reported":1745705322,"current_range_meters":7200,"station_id":"ce4bhh92rcd13ifvqfj0","pricing_plan_id":"cebpf4jnsgd1na2vs0mg"},{"bike_id":"62b8d5c9-eb15-493f-a357-4eb15de007d7","system_id":"levelo_inurba_marseille","lat":43.28156,"lon":5.42638,"is_reserved":false,"is_disabled":false,"rental_uris":{"android":"levelo://app?vid=62b8d5c9-eb15-493f-a357-4eb15de007d7","ios":"levelo://app?vid=62b8d5c9-eb15-493f-a357-4eb15de007d7"},"vehicle_type_id":"4","last_reported":1745705322,"current_range_meters":8000,"station_id":"ce4bhnh2rcd13ifvqgug","pricing_plan_id":"cebpf4jnsgd1na2vs0mg"},{"bike_id":"b25d821f-85f0-4e36-bfe6-db46d00f9763","system_id":"levelo_inurba_marseille","lat":43.29547,"lon":5.42307,"is_reserved":false,"is_disabled":false,"rental_uris":{"android":"levelo://app?vid=b25d821f-85f0-4e36-bfe6-db46d00f9763","ios":"levelo://app?vid=b25d821f-85f0-4e36-bfe6-db46d00f9763"},"vehicle_type_id":"4","last_reported":1745705322,"current_range_meters":8000,"station_id":"ce4bhph2rcd13ifvqhdg","pricing_plan_id":"cebpf4jnsgd1na2vs0mg"},{"bike_id":"6104de1b-83a6-4912-bfa1-49d35364e6af","system_id":"levelo_inurba_marseille","lat":43.23959,"lon":5.36636,"is_reserved":false,"is_disabled":false,"rental_uris":{"android":"levelo://app?vid=6104de1b-83a6-4912-bfa1-49d35364e6af","ios":"levelo://app?vid=6104de1b-83a6-4912-bfa1-49d35364e6af"},"vehicle_type_id":"4","last_reported":1745705322,"current_range_meters":8000,"station_id":"ce4bhi12rcd13ifvqfp0","pricing_plan_id":"cebpf4jnsgd1na2vs0mg"},{"bike_id":"53094921-ea74-4215-bdf0-9e1c0cdded85","system_id":"levelo_inurba_marseille","lat":43.31046,"lon":5.38323,"is_reserved":false,"is_disabled":false,"rental_uris":{"android":"levelo://app?vid=53094921-ea74-4215-bdf0-9e1c0cdded85","ios":"levelo://app?vid=53094921-ea74-4215-bdf0-9e1c0cdded85"},"vehicle_type_id":"4","last_reported":1745705322,"current_range_meters":8000,"station_id":"ce4bgv92rcd13ifvqcr0","pricing_plan_id":"cebpf4jnsgd1na2vs0mg"},{"bike_id":"60a9676a-1678-4958-99b0-f30963c8d3be","system_id":"levelo_inurba_marseille","lat":43.26572,"lon":5.39006,"is_reserved":false,"is_disabled":false,"rental_uris":{"android":"levelo://app?vid=60a9676a-1678-4958-99b0-f30963c8d3be","ios":"levelo://app?vid=60a9676a-1678-4958-99b0-f30963c8d3be"},"vehicle_type_id":"4","last_reported":1745705322,"current_range_meters":8000,"station_id":"ce4bhe12rcd13ifvqf30","pricing_plan_id":"cebpf4jnsgd1na2vs0mg"},{"bike_id":"896498d7-e337-427a-a99b-246e03df27dc","system_id":"levelo_inurba_marseille","lat":43.28455,"lon":5.3589,"is_reserved":false,"is_disabled":false,"rental_uris":{"android":"levelo://app?vid=896498d7-e337-427a-a99b-246e03df27dc","ios":"levelo://app?vid=896498d7-e337-427a-a99b-246e03df27dc"},"vehicle_type_id":"4","last_reported":1745705322,"current_range_meters":8000,"station_id":"ce4bhah2rcd13ifvqei0","pricing_plan_id":"cebpf4jnsgd1na2vs0mg"},{"bike_id":"7a79624f-ddb2-47e7-9ff7-66ab6798a9dc","system_id":"levelo_inurba_marseille","lat":43.27971,"lon":5.38741,"is_reserved":false,"is_disabled":false,"rental_uris":{"android":"levelo://app?vid=7a79624f-ddb2-47e7-9ff7-66ab6798a9dc","ios":"levelo://app?vid=7a79624f-ddb2-47e7-9ff7-66ab6798a9dc"},"vehicle_type_id":"4","last_reported":1745705322,"current_range_meters":8400,"station_id":"ce4bhg12rcd13ifvqf80","pricing_plan_id":"cebpf4jnsgd1na2vs0mg"},{"bike_id":"c53bc830-0a68-438e-a5d2-e046cc273bef","system_id":"levelo_inurba_marseille","lat":43.310673,"lon":5.383545,"is_reserved":false,"is_disabled":false,"rental_uris":{"android":"levelo://app?vid=c53bc830-0a68-438e-a5d2-e046cc273bef","ios":"levelo://app?vid=c53bc830-0a68-438e-a5d2-e046cc273bef"},"vehicle_type_id":"4","last_reported":1745705322,"current_range_meters":8400,"station_id":"ce4bgv92rcd13ifvqcr0","pricing_plan_id":"cebpf4jnsgd1na2vs0mg"},{"bike_id":"130ef6ff-1e25-4ab8-9f1d-b42cd471291a","system_id":"levelo_inurba_marseille","lat":43.28681,"lon":5.38671,"is_reserved":false,"is_disabled":false,"rental_uris":{"android":"levelo://app?vid=130ef6ff-1e25-4ab8-9f1d-b42cd471291a","ios":"levelo://app?vid=130ef6ff-1e25-4ab8-9f1d-b42cd471291a"},"vehicle_type_id":"4","last_reported":1745705322,"current_range_meters":8400,"station_id":"ce4bh492rcd13ifvqdug","pricing_plan_id":"cebpf4jnsgd1na2vs0mg"},{"bike_id":"268cb347-ad94-4ab7-9a23-ad4d7a2bcb5c","system_id":"levelo_inurba_marseille","lat":43.24071,"lon":5.37754,"is_reserved":false,"is_disabled":false,"rental_uris":{"android":"levelo://app?vid=268cb347-ad94-4ab7-9a23-ad4d7a2bcb5c","ios":"levelo://app?vid=268cb347-ad94-4ab7-9a23-ad4d7a2bcb5c"},"vehicle_type_id":"4","last_reported":1745705322,"current_range_meters":8400,"station_id":"ce4bhnp2rcd13ifvqgvg","pricing_plan_id":"cebpf4jnsgd1na2vs0mg"},{"bike_id":"aa802d04-93cc-4325-bf66-50895eaf23d2","system_id":"levelo_inurba_marseille","lat":43.31369,"lon":5.38493,"is_reserved":false,"is_disabled":false,"rental_uris":{"android":"levelo://app?vid=aa802d04-93cc-4325-bf66-50895eaf23d2","ios":"levelo://app?vid=aa802d04-93cc-4325-bf66-50895eaf23d2"},"vehicle_type_id":"4","last_reported":1745705322,"current_range_meters":8400,"station_id":"ce4bgt92rcd13ifvqcf0","pricing_plan_id":"cebpf4jnsgd1na2vs0mg"},{"bike_id":"206d6220-b715-46fc-be54-9a6732301080","system_id":"levelo_inurba_marseille","lat":43.27808,"lon":5.40716,"is_reserved":false,"is_disabled":false,"rental_uris":{"android":"levelo://app?vid=206d6220-b715-46fc-be54-9a6732301080","ios":"levelo://app?vid=206d6220-b715-46fc-be54-9a6732301080"},"vehicle_type_id":"4","last_reported":1745705322,"current_range_meters":8400,"station_id":"ce4bhnh2rcd13ifvqgtg","pricing_plan_id":"cebpf4jnsgd1na2vs0mg"},{"bike_id":"5c1119e5-aec5-4f9a-afd8-452a34aab606","system_id":"levelo_inurba_marseille","lat":43.24083,"lon":5.37748,"is_reserved":false,"is_disabled":false,"rental_uris":{"android":"levelo://app?vid=5c1119e5-aec5-4f9a-afd8-452a34aab606","ios":"levelo://app?vid=5c1119e5-aec5-4f9a-afd8-452a34aab606"},"vehicle_type_id":"4","last_reported":1745705322,"current_range_meters":8400,"station_id":"ce4bhnp2rcd13ifvqgvg","pricing_plan_id":"cebpf4jnsgd1na2vs0mg"},{"bike_id":"ee3adf0c-6621-408d-baf5-8ee95178d1c6","system_id":"levelo_inurba_marseille","lat":43.27377,"lon":5.36256,"is_reserved":false,"is_disabled":false,"rental_uris":{"android":"levelo://app?vid=ee3adf0c-6621-408d-baf5-8ee95178d1c6","ios":"levelo://app?vid=ee3adf0c-6621-408d-baf5-8ee95178d1c6"},"vehicle_type_id":"4","last_reported":1745705322,"current_range_meters":8400,"station_id":"ce4bhbh2rcd13ifvqeo0","pricing_plan_id":"cebpf4jnsgd1na2vs0mg"},{"bike_id":"b4b0266c-631d-4bc0-b722-43b22c86c85f","system_id":"levelo_inurba_marseille","lat":43.30986,"lon":5.41736,"is_reserved":false,"is_disabled":false,"rental_uris":{"android":"levelo://app?vid=b4b0266c-631d-4bc0-b722-43b22c86c85f","ios":"levelo://app?vid=b4b0266c-631d-4bc0-b722-43b22c86c85f"},"vehicle_type_id":"4","last_reported":1745705322,"current_range_meters":8800,"station_id":"","pricing_plan_id":"cebpf4jnsgd1na2vs0mg"},{"bike_id":"c886bc95-a9f4-4b08-af93-286cc6dbd1ea","system_id":"levelo_inurba_marseille","lat":43.2416,"lon":5.36413,"is_reserved":false,"is_disabled":false,"rental_uris":{"android":"levelo://app?vid=c886bc95-a9f4-4b08-af93-286cc6dbd1ea","ios":"levelo://app?vid=c886bc95-a9f4-4b08-af93-286cc6dbd1ea"},"vehicle_type_id":"4","last_reported":1745705322,"current_range_meters":8800,"station_id":"cpo36qri1sfpv3e86is0","pricing_plan_id":"cebpf4jnsgd1na2vs0mg"},{"bike_id":"b9812e90-2535-4bd3-ba9b-7f88dc336581","system_id":"levelo_inurba_marseille","lat":43.31371,"lon":5.38493,"is_reserved":false,"is_disabled":false,"rental_uris":{"android":"levelo://app?vid=b9812e90-2535-4bd3-ba9b-7f88dc336581","ios":"levelo://app?vid=b9812e90-2535-4bd3-ba9b-7f88dc336581"},"vehicle_type_id":"4","last_reported":1745705322,"current_range_meters":9200,"station_id":"ce4bgt92rcd13ifvqcf0","pricing_plan_id":"cebpf4jnsgd1na2vs0mg"},{"bike_id":"88ab37ec-13d9-4d9d-9234-318f6a14ec6a","system_id":"levelo_inurba_marseille","lat":43.26553,"lon":5.37286,"is_reserved":false,"is_disabled":false,"rental_uris":{"android":"levelo://app?vid=88ab37ec-13d9-4d9d-9234-318f6a14ec6a","ios":"levelo://app?vid=88ab37ec-13d9-4d9d-9234-318f6a14ec6a"},"vehicle_type_id":"4","last_reported":1745705322,"current_range_meters":9200,"station_id":"ce4bhg12rcd13ifvqf70","pricing_plan_id":"cebpf4jnsgd1na2vs0mg"},{"bike_id":"e8191c46-b735-4877-9cbf-92c54091a8a3","system_id":"levelo_inurba_marseille","lat":43.30183,"lon":5.366,"is_reserved":false,"is_disabled":false,"rental_uris":{"android":"levelo://app?vid=e8191c46-b735-4877-9cbf-92c54091a8a3","ios":"levelo://app?vid=e8191c46-b735-4877-9cbf-92c54091a8a3"},"vehicle_type_id":"4","last_reported":1745705322,"current_range_meters":9200,"station_id":"ce4bgrh2rcd13ifvqc8g","pricing_plan_id":"cebpf4jnsgd1na2vs0mg"},{"bike_id":"3f485f12-ccbf-4cc6-bfee-26b7c2709069","system_id":"levelo_inurba_marseille","lat":43.28174,"lon":5.49071,"is_reserved":false,"is_disabled":false,"rental_uris":{"android":"levelo://app?vid=3f485f12-ccbf-4cc6-bfee-26b7c2709069","ios":"levelo://app?vid=3f485f12-ccbf-4cc6-bfee-26b7c2709069"},"vehicle_type_id":"4","last_reported":1745705322,"current_range_meters":9200,"station_id":"","pricing_plan_id":"cebpf4jnsgd1na2vs0mg"},{"bike_id":"2581f1ab-d69c-4b0c-a90d-93e6294e832c","system_id":"levelo_inurba_marseille","lat":43.28577,"lon":5.39491,"is_reserved":false,"is_disabled":false,"rental_uris":{"android":"levelo://app?vid=2581f1ab-d69c-4b0c-a90d-93e6294e832c","ios":"levelo://app?vid=2581f1ab-d69c-4b0c-a90d-93e6294e832c"},"vehicle_type_id":"4","last_reported":1745705322,"current_range_meters":9600,"station_id":"ce4bh292rcd13ifvqdg0","pricing_plan_id":"cebpf4jnsgd1na2vs0mg"},{"bike_id":"e768aa58-f78c-4d48-862b-93a92cf87bd8","system_id":"levelo_inurba_marseille","lat":43.32117,"lon":5.36765,"is_reserved":false,"is_disabled":false,"rental_uris":{"android":"levelo://app?vid=e768aa58-f78c-4d48-862b-93a92cf87bd8","ios":"levelo://app?vid=e768aa58-f78c-4d48-862b-93a92cf87bd8"},"vehicle_type_id":"4","last_reported":1745705322,"current_range_meters":9600,"station_id":"ce4bhrh2rcd13ifvqhug","pricing_plan_id":"cebpf4jnsgd1na2vs0mg"},{"bike_id":"042a36cf-a68c-4f02-8fbe-a3d4f36fa492","system_id":"levelo_inurba_marseille","lat":43.21211,"lon":5.35052,"is_reserved":false,"is_disabled":false,"rental_uris":{"android":"levelo://app?vid=042a36cf-a68c-4f02-8fbe-a3d4f36fa492","ios":"levelo://app?vid=042a36cf-a68c-4f02-8fbe-a3d4f36fa492"},"vehicle_type_id":"4","last_reported":1745705322,"current_range_meters":9600,"station_id":"st_cvj6sg6p6f1abm77japg","pricing_plan_id":"cebpf4jnsgd1na2vs0mg"},{"bike_id":"aa7dd23a-c50c-4359-a4fa-3d29c4576751","system_id":"levelo_inurba_marseille","lat":43.24163,"lon":5.36404,"is_reserved":false,"is_disabled":false,"rental_uris":{"android":"levelo://app?vid=aa7dd23a-c50c-4359-a4fa-3d29c4576751","ios":"levelo://app?vid=aa7dd23a-c50c-4359-a4fa-3d29c4576751"},"vehicle_type_id":"4","last_reported":1745705322,"current_range_meters":9600,"station_id":"cpo36qri1sfpv3e86is0","pricing_plan_id":"cebpf4jnsgd1na2vs0mg"},{"bike_id":"5a42e7d2-7dc3-47bf-9bd4-a4f42443d89e","system_id":"levelo_inurba_marseille","lat":43.25482,"lon":5.37647,"is_reserved":false,"is_disabled":false,"rental_uris":{"android":"levelo://app?vid=5a42e7d2-7dc3-47bf-9bd4-a4f42443d89e","ios":"levelo://app?vid=5a42e7d2-7dc3-47bf-9bd4-a4f42443d89e"},"vehicle_type_id":"4","last_reported":1745705322,"current_range_meters":9600,"station_id":"ce4bhh12rcd13ifvqff0","pricing_plan_id":"cebpf4jnsgd1na2vs0mg"},{"bike_id":"8fc3c47f-2ec3-4e4c-84a9-ade0e2ee7fd3","system_id":"levelo_inurba_marseille","lat":43.28488,"lon":5.38411,"is_reserved":false,"is_disabled":false,"rental_uris":{"android":"levelo://app?vid=8fc3c47f-2ec3-4e4c-84a9-ade0e2ee7fd3","ios":"levelo://app?vid=8fc3c47f-2ec3-4e4c-84a9-ade0e2ee7fd3"},"vehicle_type_id":"4","last_reported":1745705322,"current_range_meters":9600,"station_id":"ce4bh512rcd13ifvqe3g","pricing_plan_id":"cebpf4jnsgd1na2vs0mg"},{"bike_id":"9f9519bb-1c19-4102-9915-058e901106c0","system_id":"levelo_inurba_marseille","lat":43.31069,"lon":5.3835,"is_reserved":false,"is_disabled":false,"rental_uris":{"android":"levelo://app?vid=9f9519bb-1c19-4102-9915-058e901106c0","ios":"levelo://app?vid=9f9519bb-1c19-4102-9915-058e901106c0"},"vehicle_type_id":"4","last_reported":1745705322,"current_range_meters":9600,"station_id":"ce4bgv92rcd13ifvqcr0","pricing_plan_id":"cebpf4jnsgd1na2vs0mg"},{"bike_id":"84f9693e-5ab9-4497-970b-c392fec5e36d","system_id":"levelo_inurba_marseille","lat":43.25871,"lon":5.39894,"is_reserved":false,"is_disabled":false,"rental_uris":{"android":"levelo://app?vid=84f9693e-5ab9-4497-970b-c392fec5e36d","ios":"levelo://app?vid=84f9693e-5ab9-4497-970b-c392fec5e36d"},"vehicle_type_id":"4","last_reported":1745705322,"current_range_meters":9600,"station_id":"ce4bhl92rcd13ifvqghg","pricing_plan_id":"cebpf4jnsgd1na2vs0mg"},{"bike_id":"ae2f8384-ab79-4241-aa7f-a13b45da22ce","system_id":"levelo_inurba_marseille","lat":43.2621,"lon":5.37433,"is_reserved":false,"is_disabled":false,"rental_uris":{"android":"levelo://app?vid=ae2f8384-ab79-4241-aa7f-a13b45da22ce","ios":"levelo://app?vid=ae2f8384-ab79-4241-aa7f-a13b45da22ce"},"vehicle_type_id":"4","last_reported":1745705322,"current_range_meters":9600,"station_id":"ce4bhgp2rcd13ifvqfc0","pricing_plan_id":"cebpf4jnsgd1na2vs0mg"},{"bike_id":"d69efcc1-0b98-4604-bf59-3517dfeba846","system_id":"levelo_inurba_marseille","lat":43.3234,"lon":5.40624,"is_reserved":false,"is_disabled":false,"rental_uris":{"android":"levelo://app?vid=d69efcc1-0b98-4604-bf59-3517dfeba846","ios":"levelo://app?vid=d69efcc1-0b98-4604-bf59-3517dfeba846"},"vehicle_type_id":"4","last_reported":1745705322,"current_range_meters":9600,"station_id":"ce4bhq92rcd13ifvqhjg","pricing_plan_id":"cebpf4jnsgd1na2vs0mg"},{"bike_id":"6d7cc870-ccfd-4f48-96fb-e8c1f82a64cc","system_id":"levelo_inurba_marseille","lat":43.29807,"lon":5.37052,"is_reserved":false,"is_disabled":true,"rental_uris":{"android":"levelo://app?vid=6d7cc870-ccfd-4f48-96fb-e8c1f82a64cc","ios":"levelo://app?vid=6d7cc870-ccfd-4f48-96fb-e8c1f82a64cc"},"vehicle_type_id":"4","last_reported":1745705322,"current_range_meters":10000,"station_id":"ce4bgop2rcd13ifvqc1g","pricing_plan_id":"cebpf4jnsgd1na2vs0mg"},{"bike_id":"46ff4bff-4f24-468c-b5f8-bbf958e109d4","system_id":"levelo_inurba_marseille","lat":43.27615,"lon":5.3612,"is_reserved":false,"is_disabled":false,"rental_uris":{"android":"levelo://app?vid=46ff4bff-4f24-468c-b5f8-bbf958e109d4","ios":"levelo://app?vid=46ff4bff-4f24-468c-b5f8-bbf958e109d4"},"vehicle_type_id":"4","last_reported":1745705322,"current_range_meters":10000,"station_id":"ce4bgj92rcd13ifvqbe0","pricing_plan_id":"cebpf4jnsgd1na2vs0mg"},{"bike_id":"757a31c2-77e1-4627-a72e-6a5115a94e27","system_id":"levelo_inurba_marseille","lat":43.21762,"lon":5.34596,"is_reserved":false,"is_disabled":false,"rental_uris":{"android":"levelo://app?vid=757a31c2-77e1-4627-a72e-6a5115a94e27","ios":"levelo://app?vid=757a31c2-77e1-4627-a72e-6a5115a94e27"},"vehicle_type_id":"4","last_reported":1745705322,"current_range_meters":10000,"station_id":"","pricing_plan_id":"cebpf4jnsgd1na2vs0mg"},{"bike_id":"71fd571e-dcf8-40d8-9a92-fb1b688fe8c6","system_id":"levelo_inurba_marseille","lat":43.274904,"lon":5.360114,"is_reserved":false,"is_disabled":false,"rental_uris":{"android":"levelo://app?vid=71fd571e-dcf8-40d8-9a92-fb1b688fe8c6","ios":"levelo://app?vid=71fd571e-dcf8-40d8-9a92-fb1b688fe8c6"},"vehicle_type_id":"4","last_reported":1745705322,"current_range_meters":9600,"station_id":"ce4bhbh2rcd13ifvqeo0","pricing_plan_id":"cebpf4jnsgd1na2vs0mg"},{"bike_id":"9d24975d-5989-4c6e-bc54-bdc168e02c5f","system_id":"levelo_inurba_marseille","lat":43.24483,"lon":5.41151,"is_reserved":false,"is_disabled":false,"rental_uris":{"android":"levelo://app?vid=9d24975d-5989-4c6e-bc54-bdc168e02c5f","ios":"levelo://app?vid=9d24975d-5989-4c6e-bc54-bdc168e02c5f"},"vehicle_type_id":"4","last_reported":1745705322,"current_range_meters":10000,"station_id":"","pricing_plan_id":"cebpf4jnsgd1na2vs0mg"},{"bike_id":"190e2a44-d16f-4e6b-8e6a-22a9c30ba1bb","system_id":"levelo_inurba_marseille","lat":43.22522,"lon":5.34766,"is_reserved":false,"is_disabled":false,"rental_uris":{"android":"levelo://app?vid=190e2a44-d16f-4e6b-8e6a-22a9c30ba1bb","ios":"levelo://app?vid=190e2a44-d16f-4e6b-8e6a-22a9c30ba1bb"},"vehicle_type_id":"4","last_reported":1745705322,"current_range_meters":10000,"station_id":"st_cvj5dfep6f1abm77gieg","pricing_plan_id":"cebpf4jnsgd1na2vs0mg"},{"bike_id":"3e8f967c-f41e-4797-a659-737e6711283c","system_id":"levelo_inurba_marseille","lat":43.24393,"lon":5.37053,"is_reserved":false,"is_disabled":false,"rental_uris":{"android":"levelo://app?vid=3e8f967c-f41e-4797-a659-737e6711283c","ios":"levelo://app?vid=3e8f967c-f41e-4797-a659-737e6711283c"},"vehicle_type_id":"4","last_reported":1745705322,"current_range_meters":10000,"station_id":"ce4bhhh2rcd13ifvqfk0","pricing_plan_id":"cebpf4jnsgd1na2vs0mg"},{"bike_id":"0cce7ea2-3151-4739-8e52-340c11e5c4e0","system_id":"levelo_inurba_marseille","lat":43.24677,"lon":5.38148,"is_reserved":false,"is_disabled":false,"rental_uris":{"android":"levelo://app?vid=0cce7ea2-3151-4739-8e52-340c11e5c4e0","ios":"levelo://app?vid=0cce7ea2-3151-4739-8e52-340c11e5c4e0"},"vehicle_type_id":"4","last_reported":1745705322,"current_range_meters":10800,"station_id":"ce4bhih2rcd13ifvqfr0","pricing_plan_id":"cebpf4jnsgd1na2vs0mg"},{"bike_id":"3f8e74df-4b8a-4fe8-9f20-4fbe47605119","system_id":"levelo_inurba_marseille","lat":43.29036,"lon":5.37576,"is_reserved":false,"is_disabled":true,"rental_uris":{"android":"levelo://app?vid=3f8e74df-4b8a-4fe8-9f20-4fbe47605119","ios":"levelo://app?vid=3f8e74df-4b8a-4fe8-9f20-4fbe47605119"},"vehicle_type_id":"4","last_reported":1745705322,"current_range_meters":10800,"station_id":"ce4bh692rcd13ifvqe90","pricing_plan_id":"cebpf4jnsgd1na2vs0mg"},{"bike_id":"ccb58822-4bf1-4cf8-9190-ef7aee64397d","system_id":"levelo_inurba_marseille","lat":43.31125,"lon":5.37758,"is_reserved":false,"is_disabled":false,"rental_uris":{"android":"levelo://app?vid=ccb58822-4bf1-4cf8-9190-ef7aee64397d","ios":"levelo://app?vid=ccb58822-4bf1-4cf8-9190-ef7aee64397d"},"vehicle_type_id":"4","last_reported":1745705322,"current_range_meters":10800,"station_id":"ce4bgt92rcd13ifvqcg0","pricing_plan_id":"cebpf4jnsgd1na2vs0mg"},{"bike_id":"50567301-7660-45e4-9314-78fdd7ddbf96","system_id":"levelo_inurba_marseille","lat":43.30769,"lon":5.40933,"is_reserved":false,"is_disabled":false,"rental_uris":{"android":"levelo://app?vid=50567301-7660-45e4-9314-78fdd7ddbf96","ios":"levelo://app?vid=50567301-7660-45e4-9314-78fdd7ddbf96"},"vehicle_type_id":"4","last_reported":1745705322,"current_range_meters":10800,"station_id":"","pricing_plan_id":"cebpf4jnsgd1na2vs0mg"},{"bike_id":"4e09e2f3-6329-4563-9a1f-79c5001029cb","system_id":"levelo_inurba_marseille","lat":43.3237,"lon":5.38868,"is_reserved":false,"is_disabled":false,"rental_uris":{"android":"levelo://app?vid=4e09e2f3-6329-4563-9a1f-79c5001029cb","ios":"levelo://app?vid=4e09e2f3-6329-4563-9a1f-79c5001029cb"},"vehicle_type_id":"4","last_reported":1745705322,"current_range_meters":10800,"station_id":"ce4bhqp2rcd13ifvqhog","pricing_plan_id":"cebpf4jnsgd1na2vs0mg"},{"bike_id":"b2e8f7b3-3e06-4113-a76e-68163481df4d","system_id":"levelo_inurba_marseille","lat":43.29959,"lon":5.41316,"is_reserved":false,"is_disabled":false,"rental_uris":{"android":"levelo://app?vid=b2e8f7b3-3e06-4113-a76e-68163481df4d","ios":"levelo://app?vid=b2e8f7b3-3e06-4113-a76e-68163481df4d"},"vehicle_type_id":"4","last_reported":1745705322,"current_range_meters":10800,"station_id":"ce4bhp12rcd13ifvqh9g","pricing_plan_id":"cebpf4jnsgd1na2vs0mg"},{"bike_id":"ed537f9b-b1db-4f7f-87a1-1dbb18dd4577","system_id":"levelo_inurba_marseille","lat":43.33585,"lon":5.42817,"is_reserved":false,"is_disabled":false,"rental_uris":{"android":"levelo://app?vid=ed537f9b-b1db-4f7f-87a1-1dbb18dd4577","ios":"levelo://app?vid=ed537f9b-b1db-4f7f-87a1-1dbb18dd4577"},"vehicle_type_id":"4","last_reported":1745705322,"current_range_meters":10800,"station_id":"","pricing_plan_id":"cebpf4jnsgd1na2vs0mg"},{"bike_id":"c10da8d8-0032-4ba6-9a9f-92c9fbd444be","system_id":"levelo_inurba_marseille","lat":43.30182,"lon":5.36609,"is_reserved":false,"is_disabled":false,"rental_uris":{"android":"levelo://app?vid=c10da8d8-0032-4ba6-9a9f-92c9fbd444be","ios":"levelo://app?vid=c10da8d8-0032-4ba6-9a9f-92c9fbd444be"},"vehicle_type_id":"4","last_reported":1745705322,"current_range_meters":11200,"station_id":"ce4bgrh2rcd13ifvqc8g","pricing_plan_id":"cebpf4jnsgd1na2vs0mg"},{"bike_id":"115e2ce5-1d0f-46aa-8593-b5e1d1c5da64","system_id":"levelo_inurba_marseille","lat":43.29537,"lon":5.38534,"is_reserved":false,"is_disabled":false,"rental_uris":{"android":"levelo://app?vid=115e2ce5-1d0f-46aa-8593-b5e1d1c5da64","ios":"levelo://app?vid=115e2ce5-1d0f-46aa-8593-b5e1d1c5da64"},"vehicle_type_id":"4","last_reported":1745705322,"current_range_meters":11200,"station_id":"ce4bgih2rcd13ifvqba0","pricing_plan_id":"cebpf4jnsgd1na2vs0mg"},{"bike_id":"2fac31c9-ecd4-4c07-9ea5-ab959ac9f813","system_id":"levelo_inurba_marseille","lat":43.24665,"lon":5.38173,"is_reserved":false,"is_disabled":true,"rental_uris":{"android":"levelo://app?vid=2fac31c9-ecd4-4c07-9ea5-ab959ac9f813","ios":"levelo://app?vid=2fac31c9-ecd4-4c07-9ea5-ab959ac9f813"},"vehicle_type_id":"4","last_reported":1745705322,"current_range_meters":11200,"station_id":"ce4bhih2rcd13ifvqfr0","pricing_plan_id":"cebpf4jnsgd1na2vs0mg"},{"bike_id":"b21e7975-c027-4434-8d96-3fe128c9684b","system_id":"levelo_inurba_marseille","lat":43.24989,"lon":5.38939,"is_reserved":false,"is_disabled":false,"rental_uris":{"android":"levelo://app?vid=b21e7975-c027-4434-8d96-3fe128c9684b","ios":"levelo://app?vid=b21e7975-c027-4434-8d96-3fe128c9684b"},"vehicle_type_id":"4","last_reported":1745705322,"current_range_meters":11600,"station_id":"ce4bhgp2rcd13ifvqfd0","pricing_plan_id":"cebpf4jnsgd1na2vs0mg"},{"bike_id":"37459c1c-ef28-4df1-9465-89af7ae8c0cd","system_id":"levelo_inurba_marseille","lat":43.28417,"lon":5.37515,"is_reserved":false,"is_disabled":false,"rental_uris":{"android":"levelo://app?vid=37459c1c-ef28-4df1-9465-89af7ae8c0cd","ios":"levelo://app?vid=37459c1c-ef28-4df1-9465-89af7ae8c0cd"},"vehicle_type_id":"4","last_reported":1745705322,"current_range_meters":11600,"station_id":"ce4bh412rcd13ifvqds0","pricing_plan_id":"cebpf4jnsgd1na2vs0mg"},{"bike_id":"c596ab54-4f89-4649-a442-12778ac8adc4","system_id":"levelo_inurba_marseille","lat":43.31705,"lon":5.43689,"is_reserved":false,"is_disabled":true,"rental_uris":{"android":"levelo://app?vid=c596ab54-4f89-4649-a442-12778ac8adc4","ios":"levelo://app?vid=c596ab54-4f89-4649-a442-12778ac8adc4"},"vehicle_type_id":"4","last_reported":1745705322,"current_range_meters":11600,"station_id":"ce4bhp92rcd13ifvqhcg","pricing_plan_id":"cebpf4jnsgd1na2vs0mg"},{"bike_id":"736ee7d5-708e-48bd-8281-35bb85d0bc7d","system_id":"levelo_inurba_marseille","lat":43.29,"lon":5.35617,"is_reserved":false,"is_disabled":true,"rental_uris":{"android":"levelo://app?vid=736ee7d5-708e-48bd-8281-35bb85d0bc7d","ios":"levelo://app?vid=736ee7d5-708e-48bd-8281-35bb85d0bc7d"},"vehicle_type_id":"4","last_reported":1745705322,"current_range_meters":11600,"station_id":"ce4bhb92rcd13ifvqen0","pricing_plan_id":"cebpf4jnsgd1na2vs0mg"},{"bike_id":"c9fcd7fb-452e-452d-9e3f-a0150a4353c3","system_id":"levelo_inurba_marseille","lat":43.27615,"lon":5.36098,"is_reserved":false,"is_disabled":false,"rental_uris":{"android":"levelo://app?vid=c9fcd7fb-452e-452d-9e3f-a0150a4353c3","ios":"levelo://app?vid=c9fcd7fb-452e-452d-9e3f-a0150a4353c3"},"vehicle_type_id":"4","last_reported":1745705322,"current_range_meters":11600,"station_id":"ce4bgj92rcd13ifvqbe0","pricing_plan_id":"cebpf4jnsgd1na2vs0mg"},{"bike_id":"a65c04c4-dde7-4cf7-acfb-5fe2c1f889fd","system_id":"levelo_inurba_marseille","lat":43.26225,"lon":5.40461,"is_reserved":false,"is_disabled":false,"rental_uris":{"android":"levelo://app?vid=a65c04c4-dde7-4cf7-acfb-5fe2c1f889fd","ios":"levelo://app?vid=a65c04c4-dde7-4cf7-acfb-5fe2c1f889fd"},"vehicle_type_id":"4","last_reported":1745705322,"current_range_meters":12000,"station_id":"ce4bhmh2rcd13ifvqgmg","pricing_plan_id":"cebpf4jnsgd1na2vs0mg"},{"bike_id":"0a20c176-84ce-406c-b816-a20786a5492e","system_id":"levelo_inurba_marseille","lat":43.31683,"lon":5.37741,"is_reserved":false,"is_disabled":false,"rental_uris":{"android":"levelo://app?vid=0a20c176-84ce-406c-b816-a20786a5492e","ios":"levelo://app?vid=0a20c176-84ce-406c-b816-a20786a5492e"},"vehicle_type_id":"4","last_reported":1745705322,"current_range_meters":12000,"station_id":"ce4bgth2rcd13ifvqch0","pricing_plan_id":"cebpf4jnsgd1na2vs0mg"},{"bike_id":"a9dc2da5-b5b8-43fb-98f8-f4983da519cc","system_id":"levelo_inurba_marseille","lat":43.30464,"lon":5.37907,"is_reserved":false,"is_disabled":false,"rental_uris":{"android":"levelo://app?vid=a9dc2da5-b5b8-43fb-98f8-f4983da519cc","ios":"levelo://app?vid=a9dc2da5-b5b8-43fb-98f8-f4983da519cc"},"vehicle_type_id":"4","last_reported":1745705322,"current_range_meters":12000,"station_id":"ce4bgup2rcd13ifvqcn0","pricing_plan_id":"cebpf4jnsgd1na2vs0mg"},{"bike_id":"6e4fd1c1-94b0-421e-a8a3-a7c1f06a94e6","system_id":"levelo_inurba_marseille","lat":43.29917,"lon":5.38149,"is_reserved":false,"is_disabled":false,"rental_uris":{"android":"levelo://app?vid=6e4fd1c1-94b0-421e-a8a3-a7c1f06a94e6","ios":"levelo://app?vid=6e4fd1c1-94b0-421e-a8a3-a7c1f06a94e6"},"vehicle_type_id":"4","last_reported":1745705322,"current_range_meters":12400,"station_id":"ce4bgj12rcd13ifvqbc0","pricing_plan_id":"cebpf4jnsgd1na2vs0mg"},{"bike_id":"3ee52dd6-ee76-4da1-bbf0-da3ef76cb155","system_id":"levelo_inurba_marseille","lat":43.34671,"lon":5.3474,"is_reserved":false,"is_disabled":false,"rental_uris":{"android":"levelo://app?vid=3ee52dd6-ee76-4da1-bbf0-da3ef76cb155","ios":"levelo://app?vid=3ee52dd6-ee76-4da1-bbf0-da3ef76cb155"},"vehicle_type_id":"4","last_reported":1745705322,"current_range_meters":12400,"station_id":"","pricing_plan_id":"cebpf4jnsgd1na2vs0mg"},{"bike_id":"ac61834c-a10a-425e-9cdb-694af07bb25f","system_id":"levelo_inurba_marseille","lat":43.27966,"lon":5.38745,"is_reserved":false,"is_disabled":false,"rental_uris":{"android":"levelo://app?vid=ac61834c-a10a-425e-9cdb-694af07bb25f","ios":"levelo://app?vid=ac61834c-a10a-425e-9cdb-694af07bb25f"},"vehicle_type_id":"4","last_reported":1745705322,"current_range_meters":12400,"station_id":"ce4bhg12rcd13ifvqf80","pricing_plan_id":"cebpf4jnsgd1na2vs0mg"},{"bike_id":"30f627ae-4da3-4f5b-ae7f-6d47c4a5e29e","system_id":"levelo_inurba_marseille","lat":43.27814,"lon":5.40714,"is_reserved":false,"is_disabled":false,"rental_uris":{"android":"levelo://app?vid=30f627ae-4da3-4f5b-ae7f-6d47c4a5e29e","ios":"levelo://app?vid=30f627ae-4da3-4f5b-ae7f-6d47c4a5e29e"},"vehicle_type_id":"4","last_reported":1745705322,"current_range_meters":12400,"station_id":"ce4bhnh2rcd13ifvqgtg","pricing_plan_id":"cebpf4jnsgd1na2vs0mg"},{"bike_id":"4f707baa-208e-4931-8825-76ef1a4a082c","system_id":"levelo_inurba_marseille","lat":43.29935,"lon":5.37463,"is_reserved":false,"is_disabled":false,"rental_uris":{"android":"levelo://app?vid=4f707baa-208e-4931-8825-76ef1a4a082c","ios":"levelo://app?vid=4f707baa-208e-4931-8825-76ef1a4a082c"},"vehicle_type_id":"4","last_reported":1745705322,"current_range_meters":12400,"station_id":"ce4bgjh2rcd13ifvqbg0","pricing_plan_id":"cebpf4jnsgd1na2vs0mg"},{"bike_id":"a772c5cf-d2e4-402d-acd7-6c6f380d2710","system_id":"levelo_inurba_marseille","lat":43.31362,"lon":5.38483,"is_reserved":false,"is_disabled":false,"rental_uris":{"android":"levelo://app?vid=a772c5cf-d2e4-402d-acd7-6c6f380d2710","ios":"levelo://app?vid=a772c5cf-d2e4-402d-acd7-6c6f380d2710"},"vehicle_type_id":"4","last_reported":1745705322,"current_range_meters":12800,"station_id":"ce4bgt92rcd13ifvqcf0","pricing_plan_id":"cebpf4jnsgd1na2vs0mg"},{"bike_id":"f54f0931-2261-46b6-bc2f-7d8e5b8a112e","system_id":"levelo_inurba_marseille","lat":43.28362,"lon":5.38631,"is_reserved":false,"is_disabled":false,"rental_uris":{"android":"levelo://app?vid=f54f0931-2261-46b6-bc2f-7d8e5b8a112e","ios":"levelo://app?vid=f54f0931-2261-46b6-bc2f-7d8e5b8a112e"},"vehicle_type_id":"4","last_reported":1745705322,"current_range_meters":12800,"station_id":"ce4bh492rcd13ifvqdvg","pricing_plan_id":"cebpf4jnsgd1na2vs0mg"},{"bike_id":"a5752412-2b3a-495a-b554-2a3e08204a69","system_id":"levelo_inurba_marseille","lat":43.32288,"lon":5.38263,"is_reserved":false,"is_disabled":false,"rental_uris":{"android":"levelo://app?vid=a5752412-2b3a-495a-b554-2a3e08204a69","ios":"levelo://app?vid=a5752412-2b3a-495a-b554-2a3e08204a69"},"vehicle_type_id":"4","last_reported":1745705322,"current_range_meters":12800,"station_id":"ce4bhr12rcd13ifvqhqg","pricing_plan_id":"cebpf4jnsgd1na2vs0mg"},{"bike_id":"6f9efa22-6701-48b6-9dac-71701c013e89","system_id":"levelo_inurba_marseille","lat":43.28002,"lon":5.40012,"is_reserved":false,"is_disabled":false,"rental_uris":{"android":"levelo://app?vid=6f9efa22-6701-48b6-9dac-71701c013e89","ios":"levelo://app?vid=6f9efa22-6701-48b6-9dac-71701c013e89"},"vehicle_type_id":"4","last_reported":1745705322,"current_range_meters":12800,"station_id":"ce4bho92rcd13ifvqh4g","pricing_plan_id":"cebpf4jnsgd1na2vs0mg"},{"bike_id":"fdcaf338-d3e1-44ab-b996-4fd6eba29359","system_id":"levelo_inurba_marseille","lat":43.30985,"lon":5.39026,"is_reserved":false,"is_disabled":false,"rental_uris":{"android":"levelo://app?vid=fdcaf338-d3e1-44ab-b996-4fd6eba29359","ios":"levelo://app?vid=fdcaf338-d3e1-44ab-b996-4fd6eba29359"},"vehicle_type_id":"4","last_reported":1745705322,"current_range_meters":12800,"station_id":"ce4bgup2rcd13ifvqco0","pricing_plan_id":"cebpf4jnsgd1na2vs0mg"},{"bike_id":"dea15188-c098-4794-90f6-0fc4b187f745","system_id":"levelo_inurba_marseille","lat":43.30825,"lon":5.4348,"is_reserved":false,"is_disabled":false,"rental_uris":{"android":"levelo://app?vid=dea15188-c098-4794-90f6-0fc4b187f745","ios":"levelo://app?vid=dea15188-c098-4794-90f6-0fc4b187f745"},"vehicle_type_id":"4","last_reported":1745705322,"current_range_meters":12800,"station_id":"ce4bhph2rcd13ifvqheg","pricing_plan_id":"cebpf4jnsgd1na2vs0mg"},{"bike_id":"a07c8234-ee61-4ef8-a011-258b70c0cdf3","system_id":"levelo_inurba_marseille","lat":43.33603,"lon":5.41031,"is_reserved":false,"is_disabled":false,"rental_uris":{"android":"levelo://app?vid=a07c8234-ee61-4ef8-a011-258b70c0cdf3","ios":"levelo://app?vid=a07c8234-ee61-4ef8-a011-258b70c0cdf3"},"vehicle_type_id":"4","last_reported":1745705322,"current_range_meters":12800,"station_id":"ce4bhqh2rcd13ifvqhmg","pricing_plan_id":"cebpf4jnsgd1na2vs0mg"},{"bike_id":"dd3031e0-5272-497e-a41c-be7750e07327","system_id":"levelo_inurba_marseille","lat":43.30053,"lon":5.40223,"is_reserved":false,"is_disabled":false,"rental_uris":{"android":"levelo://app?vid=dd3031e0-5272-497e-a41c-be7750e07327","ios":"levelo://app?vid=dd3031e0-5272-497e-a41c-be7750e07327"},"vehicle_type_id":"4","last_reported":1745705322,"current_range_meters":13600,"station_id":"","pricing_plan_id":"cebpf4jnsgd1na2vs0mg"},{"bike_id":"8267a175-b5cb-45e0-8d32-cc806f617854","system_id":"levelo_inurba_marseille","lat":43.30531,"lon":5.38863,"is_reserved":false,"is_disabled":false,"rental_uris":{"android":"levelo://app?vid=8267a175-b5cb-45e0-8d32-cc806f617854","ios":"levelo://app?vid=8267a175-b5cb-45e0-8d32-cc806f617854"},"vehicle_type_id":"4","last_reported":1745705322,"current_range_meters":13600,"station_id":"","pricing_plan_id":"cebpf4jnsgd1na2vs0mg"},{"bike_id":"cc451a9b-2103-4f70-9e38-222a3f72b606","system_id":"levelo_inurba_marseille","lat":43.30959,"lon":5.39037,"is_reserved":false,"is_disabled":false,"rental_uris":{"android":"levelo://app?vid=cc451a9b-2103-4f70-9e38-222a3f72b606","ios":"levelo://app?vid=cc451a9b-2103-4f70-9e38-222a3f72b606"},"vehicle_type_id":"4","last_reported":1745705322,"current_range_meters":14000,"station_id":"ce4bgup2rcd13ifvqco0","pricing_plan_id":"cebpf4jnsgd1na2vs0mg"},{"bike_id":"a84e86a1-79d0-4431-9d4d-85a0ef8dcef7","system_id":"levelo_inurba_marseille","lat":43.29254,"lon":5.40905,"is_reserved":false,"is_disabled":false,"rental_uris":{"android":"levelo://app?vid=a84e86a1-79d0-4431-9d4d-85a0ef8dcef7","ios":"levelo://app?vid=a84e86a1-79d0-4431-9d4d-85a0ef8dcef7"},"vehicle_type_id":"4","last_reported":1745705322,"current_range_meters":14400,"station_id":"ce4bh192rcd13ifvqdc0","pricing_plan_id":"cebpf4jnsgd1na2vs0mg"},{"bike_id":"8ceb83a1-dfe6-49f1-89c8-ea92a6799553","system_id":"levelo_inurba_marseille","lat":43.30941,"lon":5.3904,"is_reserved":false,"is_disabled":false,"rental_uris":{"android":"levelo://app?vid=8ceb83a1-dfe6-49f1-89c8-ea92a6799553","ios":"levelo://app?vid=8ceb83a1-dfe6-49f1-89c8-ea92a6799553"},"vehicle_type_id":"4","last_reported":1745705322,"current_range_meters":14400,"station_id":"ce4bgup2rcd13ifvqco0","pricing_plan_id":"cebpf4jnsgd1na2vs0mg"},{"bike_id":"9abb17dc-2e3c-4a5a-a7fd-6a6a572d1b3d","system_id":"levelo_inurba_marseille","lat":43.28701,"lon":5.39992,"is_reserved":false,"is_disabled":false,"rental_uris":{"android":"levelo://app?vid=9abb17dc-2e3c-4a5a-a7fd-6a6a572d1b3d","ios":"levelo://app?vid=9abb17dc-2e3c-4a5a-a7fd-6a6a572d1b3d"},"vehicle_type_id":"4","last_reported":1745705322,"current_range_meters":14400,"station_id":"ce4bho92rcd13ifvqh3g","pricing_plan_id":"cebpf4jnsgd1na2vs0mg"},{"bike_id":"1266cdcf-279d-4865-9d26-94431667e9fc","system_id":"levelo_inurba_marseille","lat":43.28001,"lon":5.40008,"is_reserved":false,"is_disabled":false,"rental_uris":{"android":"levelo://app?vid=1266cdcf-279d-4865-9d26-94431667e9fc","ios":"levelo://app?vid=1266cdcf-279d-4865-9d26-94431667e9fc"},"vehicle_type_id":"4","last_reported":1745705322,"current_range_meters":14400,"station_id":"ce4bho92rcd13ifvqh4g","pricing_plan_id":"cebpf4jnsgd1na2vs0mg"},{"bike_id":"0053b840-de47-4900-98aa-cc8575176b05","system_id":"levelo_inurba_marseille","lat":43.24178,"lon":5.36394,"is_reserved":false,"is_disabled":true,"rental_uris":{"android":"levelo://app?vid=0053b840-de47-4900-98aa-cc8575176b05","ios":"levelo://app?vid=0053b840-de47-4900-98aa-cc8575176b05"},"vehicle_type_id":"4","last_reported":1745705322,"current_range_meters":14400,"station_id":"cpo36qri1sfpv3e86is0","pricing_plan_id":"cebpf4jnsgd1na2vs0mg"},{"bike_id":"fc15ee98-2807-4b28-a12b-b622e71d1a0b","system_id":"levelo_inurba_marseille","lat":43.273728,"lon":5.362515,"is_reserved":false,"is_disabled":false,"rental_uris":{"android":"levelo://app?vid=fc15ee98-2807-4b28-a12b-b622e71d1a0b","ios":"levelo://app?vid=fc15ee98-2807-4b28-a12b-b622e71d1a0b"},"vehicle_type_id":"4","last_reported":1745705322,"current_range_meters":14400,"station_id":"ce4bhbh2rcd13ifvqeo0","pricing_plan_id":"cebpf4jnsgd1na2vs0mg"},{"bike_id":"8840b7d1-badd-45b4-91db-50feaeb6b7ed","system_id":"levelo_inurba_marseille","lat":43.31042,"lon":5.36699,"is_reserved":false,"is_disabled":false,"rental_uris":{"android":"levelo://app?vid=8840b7d1-badd-45b4-91db-50feaeb6b7ed","ios":"levelo://app?vid=8840b7d1-badd-45b4-91db-50feaeb6b7ed"},"vehicle_type_id":"4","last_reported":1745705322,"current_range_meters":14400,"station_id":"","pricing_plan_id":"cebpf4jnsgd1na2vs0mg"},{"bike_id":"55291079-c6ad-4250-bfef-98078d021a28","system_id":"levelo_inurba_marseille","lat":43.30121,"lon":5.3983,"is_reserved":false,"is_disabled":false,"rental_uris":{"android":"levelo://app?vid=55291079-c6ad-4250-bfef-98078d021a28","ios":"levelo://app?vid=55291079-c6ad-4250-bfef-98078d021a28"},"vehicle_type_id":"4","last_reported":1745705322,"current_range_meters":14400,"station_id":"ce4bh0h2rcd13ifvqd40","pricing_plan_id":"cebpf4jnsgd1na2vs0mg"},{"bike_id":"c1ae6c42-bf4d-4dfc-bd5c-05e337768221","system_id":"levelo_inurba_marseille","lat":43.30596,"lon":5.39358,"is_reserved":false,"is_disabled":false,"rental_uris":{"android":"levelo://app?vid=c1ae6c42-bf4d-4dfc-bd5c-05e337768221","ios":"levelo://app?vid=c1ae6c42-bf4d-4dfc-bd5c-05e337768221"},"vehicle_type_id":"4","last_reported":1745705322,"current_range_meters":14800,"station_id":"ce4bh0p2rcd13ifvqd80","pricing_plan_id":"cebpf4jnsgd1na2vs0mg"},{"bike_id":"356b76a1-af1a-4bef-951e-98e5b057a721","system_id":"levelo_inurba_marseille","lat":43.29252,"lon":5.38451,"is_reserved":false,"is_disabled":true,"rental_uris":{"android":"levelo://app?vid=356b76a1-af1a-4bef-951e-98e5b057a721","ios":"levelo://app?vid=356b76a1-af1a-4bef-951e-98e5b057a721"},"vehicle_type_id":"4","last_reported":1745705322,"current_range_meters":14800,"station_id":"ce4bh692rcd13ifvqea0","pricing_plan_id":"cebpf4jnsgd1na2vs0mg"},{"bike_id":"41f345a9-75d9-4676-b56c-6e8ef96547ca","system_id":"levelo_inurba_marseille","lat":43.24072,"lon":5.37762,"is_reserved":false,"is_disabled":false,"rental_uris":{"android":"levelo://app?vid=41f345a9-75d9-4676-b56c-6e8ef96547ca","ios":"levelo://app?vid=41f345a9-75d9-4676-b56c-6e8ef96547ca"},"vehicle_type_id":"4","last_reported":1745705322,"current_range_meters":14800,"station_id":"ce4bhnp2rcd13ifvqgvg","pricing_plan_id":"cebpf4jnsgd1na2vs0mg"},{"bike_id":"af4a97e0-dded-4da0-9eba-7bcd01c44383","system_id":"levelo_inurba_marseille","lat":43.30301,"lon":5.39196,"is_reserved":false,"is_disabled":true,"rental_uris":{"android":"levelo://app?vid=af4a97e0-dded-4da0-9eba-7bcd01c44383","ios":"levelo://app?vid=af4a97e0-dded-4da0-9eba-7bcd01c44383"},"vehicle_type_id":"4","last_reported":1745705322,"current_range_meters":14800,"station_id":"ce4bgkh2rcd13ifvqbk0","pricing_plan_id":"cebpf4jnsgd1na2vs0mg"},{"bike_id":"9eba1ded-fb46-439c-a253-2b2c842053d2","system_id":"levelo_inurba_marseille","lat":43.31069,"lon":5.38357,"is_reserved":false,"is_disabled":false,"rental_uris":{"android":"levelo://app?vid=9eba1ded-fb46-439c-a253-2b2c842053d2","ios":"levelo://app?vid=9eba1ded-fb46-439c-a253-2b2c842053d2"},"vehicle_type_id":"4","last_reported":1745705322,"current_range_meters":14800,"station_id":"ce4bgv92rcd13ifvqcr0","pricing_plan_id":"cebpf4jnsgd1na2vs0mg"},{"bike_id":"91474842-32bf-45c2-856a-80fd91d22aa5","system_id":"levelo_inurba_marseille","lat":43.212,"lon":5.35061,"is_reserved":false,"is_disabled":false,"rental_uris":{"android":"levelo://app?vid=91474842-32bf-45c2-856a-80fd91d22aa5","ios":"levelo://app?vid=91474842-32bf-45c2-856a-80fd91d22aa5"},"vehicle_type_id":"4","last_reported":1745705322,"current_range_meters":14800,"station_id":"st_cvj6sg6p6f1abm77japg","pricing_plan_id":"cebpf4jnsgd1na2vs0mg"},{"bike_id":"30288cb7-e849-4b02-8ab1-96deccfd974f","system_id":"levelo_inurba_marseille","lat":43.23959,"lon":5.36654,"is_reserved":false,"is_disabled":false,"rental_uris":{"android":"levelo://app?vid=30288cb7-e849-4b02-8ab1-96deccfd974f","ios":"levelo://app?vid=30288cb7-e849-4b02-8ab1-96deccfd974f"},"vehicle_type_id":"4","last_reported":1745705322,"current_range_meters":15200,"station_id":"ce4bhi12rcd13ifvqfp0","pricing_plan_id":"cebpf4jnsgd1na2vs0mg"},{"bike_id":"ae1d96a0-b0a2-41e1-be14-e78907f9338a","system_id":"levelo_inurba_marseille","lat":43.29527,"lon":5.39414,"is_reserved":false,"is_disabled":true,"rental_uris":{"android":"levelo://app?vid=ae1d96a0-b0a2-41e1-be14-e78907f9338a","ios":"levelo://app?vid=ae1d96a0-b0a2-41e1-be14-e78907f9338a"},"vehicle_type_id":"4","last_reported":1745705322,"current_range_meters":15200,"station_id":"ce4bh292rcd13ifvqdf0","pricing_plan_id":"cebpf4jnsgd1na2vs0mg"},{"bike_id":"b8ed0292-f160-4517-bda0-e357ce109c56","system_id":"levelo_inurba_marseille","lat":43.26203,"lon":5.37445,"is_reserved":false,"is_disabled":false,"rental_uris":{"android":"levelo://app?vid=b8ed0292-f160-4517-bda0-e357ce109c56","ios":"levelo://app?vid=b8ed0292-f160-4517-bda0-e357ce109c56"},"vehicle_type_id":"4","last_reported":1745705322,"current_range_meters":15200,"station_id":"ce4bhgp2rcd13ifvqfc0","pricing_plan_id":"cebpf4jnsgd1na2vs0mg"},{"bike_id":"3cb16e15-687d-4193-ada7-b8109702591e","system_id":"levelo_inurba_marseille","lat":43.30434,"lon":5.38861,"is_reserved":false,"is_disabled":false,"rental_uris":{"android":"levelo://app?vid=3cb16e15-687d-4193-ada7-b8109702591e","ios":"levelo://app?vid=3cb16e15-687d-4193-ada7-b8109702591e"},"vehicle_type_id":"4","last_reported":1745705322,"current_range_meters":16000,"station_id":"ce4bgk12rcd13ifvqbi0","pricing_plan_id":"cebpf4jnsgd1na2vs0mg"},{"bike_id":"51b2631e-3b9d-47ee-8b7c-bdda413e6b9b","system_id":"levelo_inurba_marseille","lat":43.30807,"lon":5.38157,"is_reserved":false,"is_disabled":false,"rental_uris":{"android":"levelo://app?vid=51b2631e-3b9d-47ee-8b7c-bdda413e6b9b","ios":"levelo://app?vid=51b2631e-3b9d-47ee-8b7c-bdda413e6b9b"},"vehicle_type_id":"4","last_reported":1745705322,"current_range_meters":16000,"station_id":"ce4bgt12rcd13ifvqce0","pricing_plan_id":"cebpf4jnsgd1na2vs0mg"},{"bike_id":"a08e6535-7d97-4f82-b424-5e6daf2d2362","system_id":"levelo_inurba_marseille","lat":43.29492,"lon":5.3943,"is_reserved":false,"is_disabled":true,"rental_uris":{"android":"levelo://app?vid=a08e6535-7d97-4f82-b424-5e6daf2d2362","ios":"levelo://app?vid=a08e6535-7d97-4f82-b424-5e6daf2d2362"},"vehicle_type_id":"4","last_reported":1745705322,"current_range_meters":16000,"station_id":"ce4bh292rcd13ifvqdf0","pricing_plan_id":"cebpf4jnsgd1na2vs0mg"},{"bike_id":"47859ae8-4157-419a-a068-4625ada059ba","system_id":"levelo_inurba_marseille","lat":43.26238,"lon":5.40405,"is_reserved":false,"is_disabled":false,"rental_uris":{"android":"levelo://app?vid=47859ae8-4157-419a-a068-4625ada059ba","ios":"levelo://app?vid=47859ae8-4157-419a-a068-4625ada059ba"},"vehicle_type_id":"4","last_reported":1745705322,"current_range_meters":16000,"station_id":"ce4bhmh2rcd13ifvqgmg","pricing_plan_id":"cebpf4jnsgd1na2vs0mg"},{"bike_id":"ed705789-0f0d-49d6-b81c-9868871746ab","system_id":"levelo_inurba_marseille","lat":43.21745,"lon":5.34604,"is_reserved":false,"is_disabled":true,"rental_uris":{"android":"levelo://app?vid=ed705789-0f0d-49d6-b81c-9868871746ab","ios":"levelo://app?vid=ed705789-0f0d-49d6-b81c-9868871746ab"},"vehicle_type_id":"4","last_reported":1745705322,"current_range_meters":16000,"station_id":"ce4bhbp2rcd13ifvqesg","pricing_plan_id":"cebpf4jnsgd1na2vs0mg"},{"bike_id":"49e0d52b-4e80-46ce-bdc2-e9d6da2fa326","system_id":"levelo_inurba_marseille","lat":43.225005,"lon":5.347805,"is_reserved":false,"is_disabled":false,"rental_uris":{"android":"levelo://app?vid=49e0d52b-4e80-46ce-bdc2-e9d6da2fa326","ios":"levelo://app?vid=49e0d52b-4e80-46ce-bdc2-e9d6da2fa326"},"vehicle_type_id":"4","last_reported":1745705322,"current_range_meters":16400,"station_id":"st_cvj5dfep6f1abm77gieg","pricing_plan_id":"cebpf4jnsgd1na2vs0mg"},{"bike_id":"4e3e5e04-b104-4651-94db-59952999f729","system_id":"levelo_inurba_marseille","lat":43.30789,"lon":5.38154,"is_reserved":false,"is_disabled":false,"rental_uris":{"android":"levelo://app?vid=4e3e5e04-b104-4651-94db-59952999f729","ios":"levelo://app?vid=4e3e5e04-b104-4651-94db-59952999f729"},"vehicle_type_id":"4","last_reported":1745705322,"current_range_meters":16400,"station_id":"ce4bgt12rcd13ifvqce0","pricing_plan_id":"cebpf4jnsgd1na2vs0mg"},{"bike_id":"fd811089-0eb7-4b28-a840-7b8cf4ff1a1e","system_id":"levelo_inurba_marseille","lat":43.2767,"lon":5.38868,"is_reserved":false,"is_disabled":false,"rental_uris":{"android":"levelo://app?vid=fd811089-0eb7-4b28-a840-7b8cf4ff1a1e","ios":"levelo://app?vid=fd811089-0eb7-4b28-a840-7b8cf4ff1a1e"},"vehicle_type_id":"4","last_reported":1745705322,"current_range_meters":16400,"station_id":"ce4bhi12rcd13ifvqfo0","pricing_plan_id":"cebpf4jnsgd1na2vs0mg"},{"bike_id":"884263e9-f290-4b92-ae21-0fd1133fdd06","system_id":"levelo_inurba_marseille","lat":43.31318,"lon":5.3967,"is_reserved":false,"is_disabled":false,"rental_uris":{"android":"levelo://app?vid=884263e9-f290-4b92-ae21-0fd1133fdd06","ios":"levelo://app?vid=884263e9-f290-4b92-ae21-0fd1133fdd06"},"vehicle_type_id":"4","last_reported":1745705322,"current_range_meters":16400,"station_id":"ce4bgvp2rcd13ifvqcu0","pricing_plan_id":"cebpf4jnsgd1na2vs0mg"},{"bike_id":"560f12bb-1614-4d7c-b78e-ccf5bdec9ea6","system_id":"levelo_inurba_marseille","lat":43.28461,"lon":5.35896,"is_reserved":false,"is_disabled":true,"rental_uris":{"android":"levelo://app?vid=560f12bb-1614-4d7c-b78e-ccf5bdec9ea6","ios":"levelo://app?vid=560f12bb-1614-4d7c-b78e-ccf5bdec9ea6"},"vehicle_type_id":"4","last_reported":1745705322,"current_range_meters":16400,"station_id":"ce4bhah2rcd13ifvqei0","pricing_plan_id":"cebpf4jnsgd1na2vs0mg"},{"bike_id":"9111363c-e358-4cc0-9632-937d6be3578a","system_id":"levelo_inurba_marseille","lat":43.28007,"lon":5.40012,"is_reserved":false,"is_disabled":false,"rental_uris":{"android":"levelo://app?vid=9111363c-e358-4cc0-9632-937d6be3578a","ios":"levelo://app?vid=9111363c-e358-4cc0-9632-937d6be3578a"},"vehicle_type_id":"4","last_reported":1745705322,"current_range_meters":16800,"station_id":"ce4bho92rcd13ifvqh4g","pricing_plan_id":"cebpf4jnsgd1na2vs0mg"},{"bike_id":"7d64638f-c1da-4c84-92b7-7533ccba9600","system_id":"levelo_inurba_marseille","lat":43.25525,"lon":5.37618,"is_reserved":false,"is_disabled":false,"rental_uris":{"android":"levelo://app?vid=7d64638f-c1da-4c84-92b7-7533ccba9600","ios":"levelo://app?vid=7d64638f-c1da-4c84-92b7-7533ccba9600"},"vehicle_type_id":"4","last_reported":1745705322,"current_range_meters":16800,"station_id":"ce4bhh12rcd13ifvqff0","pricing_plan_id":"cebpf4jnsgd1na2vs0mg"},{"bike_id":"e49fc587-584d-49b0-88f1-442c693fdbce","system_id":"levelo_inurba_marseille","lat":43.31329,"lon":5.39692,"is_reserved":false,"is_disabled":false,"rental_uris":{"android":"levelo://app?vid=e49fc587-584d-49b0-88f1-442c693fdbce","ios":"levelo://app?vid=e49fc587-584d-49b0-88f1-442c693fdbce"},"vehicle_type_id":"4","last_reported":1745705322,"current_range_meters":16800,"station_id":"ce4bgvp2rcd13ifvqcu0","pricing_plan_id":"cebpf4jnsgd1na2vs0mg"},{"bike_id":"fb42aa97-936c-4dfd-9233-f7d7a2047b97","system_id":"levelo_inurba_marseille","lat":43.30248,"lon":5.40061,"is_reserved":false,"is_disabled":false,"rental_uris":{"android":"levelo://app?vid=fb42aa97-936c-4dfd-9233-f7d7a2047b97","ios":"levelo://app?vid=fb42aa97-936c-4dfd-9233-f7d7a2047b97"},"vehicle_type_id":"4","last_reported":1745705322,"current_range_meters":17200,"station_id":"ce4bgvh2rcd13ifvqcs0","pricing_plan_id":"cebpf4jnsgd1na2vs0mg"},{"bike_id":"2c368ccb-3bac-439c-8518-62bd21f059de","system_id":"levelo_inurba_marseille","lat":43.23978,"lon":5.3662,"is_reserved":false,"is_disabled":false,"rental_uris":{"android":"levelo://app?vid=2c368ccb-3bac-439c-8518-62bd21f059de","ios":"levelo://app?vid=2c368ccb-3bac-439c-8518-62bd21f059de"},"vehicle_type_id":"4","last_reported":1745705322,"current_range_meters":17200,"station_id":"ce4bhi12rcd13ifvqfp0","pricing_plan_id":"cebpf4jnsgd1na2vs0mg"},{"bike_id":"97f6af12-3188-40e3-bd80-d3bd49bbcff7","system_id":"levelo_inurba_marseille","lat":43.28447,"lon":5.39202,"is_reserved":false,"is_disabled":false,"rental_uris":{"android":"levelo://app?vid=97f6af12-3188-40e3-bd80-d3bd49bbcff7","ios":"levelo://app?vid=97f6af12-3188-40e3-bd80-d3bd49bbcff7"},"vehicle_type_id":"4","last_reported":1745705322,"current_range_meters":17200,"station_id":"ce4bhoh2rcd13ifvqh5g","pricing_plan_id":"cebpf4jnsgd1na2vs0mg"},{"bike_id":"6ff7df2e-53d3-4a40-9c33-d31a29aef7b2","system_id":"levelo_inurba_marseille","lat":43.30948,"lon":5.39047,"is_reserved":false,"is_disabled":false,"rental_uris":{"android":"levelo://app?vid=6ff7df2e-53d3-4a40-9c33-d31a29aef7b2","ios":"levelo://app?vid=6ff7df2e-53d3-4a40-9c33-d31a29aef7b2"},"vehicle_type_id":"4","last_reported":1745705322,"current_range_meters":17200,"station_id":"ce4bgup2rcd13ifvqco0","pricing_plan_id":"cebpf4jnsgd1na2vs0mg"},{"bike_id":"57ebd52c-bbc8-4a4d-8d80-2da8f6250dbd","system_id":"levelo_inurba_marseille","lat":43.278215,"lon":5.4071,"is_reserved":false,"is_disabled":true,"rental_uris":{"android":"levelo://app?vid=57ebd52c-bbc8-4a4d-8d80-2da8f6250dbd","ios":"levelo://app?vid=57ebd52c-bbc8-4a4d-8d80-2da8f6250dbd"},"vehicle_type_id":"4","last_reported":1745705322,"current_range_meters":17200,"station_id":"ce4bhnh2rcd13ifvqgtg","pricing_plan_id":"cebpf4jnsgd1na2vs0mg"},{"bike_id":"9532217f-22cb-4282-9ea7-c45c63789c17","system_id":"levelo_inurba_marseille","lat":43.31221,"lon":5.36841,"is_reserved":false,"is_disabled":false,"rental_uris":{"android":"levelo://app?vid=9532217f-22cb-4282-9ea7-c45c63789c17","ios":"levelo://app?vid=9532217f-22cb-4282-9ea7-c45c63789c17"},"vehicle_type_id":"4","last_reported":1745705322,"current_range_meters":17200,"station_id":"ce4bgl92rcd13ifvqbq0","pricing_plan_id":"cebpf4jnsgd1na2vs0mg"},{"bike_id":"7994dd97-4450-48aa-b05c-e8aee6486e5a","system_id":"levelo_inurba_marseille","lat":43.30803,"lon":5.38153,"is_reserved":false,"is_disabled":false,"rental_uris":{"android":"levelo://app?vid=7994dd97-4450-48aa-b05c-e8aee6486e5a","ios":"levelo://app?vid=7994dd97-4450-48aa-b05c-e8aee6486e5a"},"vehicle_type_id":"4","last_reported":1745705322,"current_range_meters":17200,"station_id":"ce4bgt12rcd13ifvqce0","pricing_plan_id":"cebpf4jnsgd1na2vs0mg"},{"bike_id":"edb7787a-c68b-4c3c-a204-0dcc8d513b0d","system_id":"levelo_inurba_marseille","lat":43.24668,"lon":5.3816,"is_reserved":false,"is_disabled":false,"rental_uris":{"android":"levelo://app?vid=edb7787a-c68b-4c3c-a204-0dcc8d513b0d","ios":"levelo://app?vid=edb7787a-c68b-4c3c-a204-0dcc8d513b0d"},"vehicle_type_id":"4","last_reported":1745705322,"current_range_meters":17600,"station_id":"ce4bhih2rcd13ifvqfr0","pricing_plan_id":"cebpf4jnsgd1na2vs0mg"},{"bike_id":"a3cb0bcc-45ee-4fcb-b255-43e5e09b7dd7","system_id":"levelo_inurba_marseille","lat":43.27824,"lon":5.40695,"is_reserved":false,"is_disabled":false,"rental_uris":{"android":"levelo://app?vid=a3cb0bcc-45ee-4fcb-b255-43e5e09b7dd7","ios":"levelo://app?vid=a3cb0bcc-45ee-4fcb-b255-43e5e09b7dd7"},"vehicle_type_id":"4","last_reported":1745705322,"current_range_meters":17600,"station_id":"ce4bhnh2rcd13ifvqgtg","pricing_plan_id":"cebpf4jnsgd1na2vs0mg"},{"bike_id":"cf0d47bd-81d3-4c57-82db-02956e138e59","system_id":"levelo_inurba_marseille","lat":43.32375,"lon":5.3886,"is_reserved":false,"is_disabled":false,"rental_uris":{"android":"levelo://app?vid=cf0d47bd-81d3-4c57-82db-02956e138e59","ios":"levelo://app?vid=cf0d47bd-81d3-4c57-82db-02956e138e59"},"vehicle_type_id":"4","last_reported":1745705322,"current_range_meters":17600,"station_id":"ce4bhqp2rcd13ifvqhog","pricing_plan_id":"cebpf4jnsgd1na2vs0mg"},{"bike_id":"a64b2b49-efca-4a83-aa27-2d10a783df3a","system_id":"levelo_inurba_marseille","lat":43.31357,"lon":5.38505,"is_reserved":false,"is_disabled":false,"rental_uris":{"android":"levelo://app?vid=a64b2b49-efca-4a83-aa27-2d10a783df3a","ios":"levelo://app?vid=a64b2b49-efca-4a83-aa27-2d10a783df3a"},"vehicle_type_id":"4","last_reported":1745705322,"current_range_meters":17600,"station_id":"ce4bgt92rcd13ifvqcf0","pricing_plan_id":"cebpf4jnsgd1na2vs0mg"},{"bike_id":"7a980e2e-fcd8-4bed-8bf5-c7beac8bfb38","system_id":"levelo_inurba_marseille","lat":43.27828,"lon":5.39205,"is_reserved":false,"is_disabled":false,"rental_uris":{"android":"levelo://app?vid=7a980e2e-fcd8-4bed-8bf5-c7beac8bfb38","ios":"levelo://app?vid=7a980e2e-fcd8-4bed-8bf5-c7beac8bfb38"},"vehicle_type_id":"4","last_reported":1745705322,"current_range_meters":17600,"station_id":"ce4bhjp2rcd13ifvqga0","pricing_plan_id":"cebpf4jnsgd1na2vs0mg"},{"bike_id":"4046a82f-66e8-4b55-bd0a-356edea772d8","system_id":"levelo_inurba_marseille","lat":43.30573,"lon":5.38153,"is_reserved":false,"is_disabled":false,"rental_uris":{"android":"levelo://app?vid=4046a82f-66e8-4b55-bd0a-356edea772d8","ios":"levelo://app?vid=4046a82f-66e8-4b55-bd0a-356edea772d8"},"vehicle_type_id":"4","last_reported":1745705322,"current_range_meters":18000,"station_id":"","pricing_plan_id":"cebpf4jnsgd1na2vs0mg"},{"bike_id":"b673c4dd-5bdb-48a9-9acf-4d4837707a29","system_id":"levelo_inurba_marseille","lat":43.31492,"lon":5.37304,"is_reserved":false,"is_disabled":false,"rental_uris":{"android":"levelo://app?vid=b673c4dd-5bdb-48a9-9acf-4d4837707a29","ios":"levelo://app?vid=b673c4dd-5bdb-48a9-9acf-4d4837707a29"},"vehicle_type_id":"4","last_reported":1745705322,"current_range_meters":18000,"station_id":"ce4bgt12rcd13ifvqcd0","pricing_plan_id":"cebpf4jnsgd1na2vs0mg"},{"bike_id":"900afbe3-a32c-4b35-b52f-a1f3c40dd5ea","system_id":"levelo_inurba_marseille","lat":43.29542,"lon":5.38541,"is_reserved":false,"is_disabled":false,"rental_uris":{"android":"levelo://app?vid=900afbe3-a32c-4b35-b52f-a1f3c40dd5ea","ios":"levelo://app?vid=900afbe3-a32c-4b35-b52f-a1f3c40dd5ea"},"vehicle_type_id":"4","last_reported":1745705322,"current_range_meters":18000,"station_id":"ce4bgih2rcd13ifvqba0","pricing_plan_id":"cebpf4jnsgd1na2vs0mg"},{"bike_id":"0d777af5-4166-475a-a6b9-6a0197032592","system_id":"levelo_inurba_marseille","lat":43.2326,"lon":5.35221,"is_reserved":false,"is_disabled":false,"rental_uris":{"android":"levelo://app?vid=0d777af5-4166-475a-a6b9-6a0197032592","ios":"levelo://app?vid=0d777af5-4166-475a-a6b9-6a0197032592"},"vehicle_type_id":"4","last_reported":1745705322,"current_range_meters":18000,"station_id":"","pricing_plan_id":"cebpf4jnsgd1na2vs0mg"},{"bike_id":"82a930ee-058d-42ca-b16e-38ec38cdecd7","system_id":"levelo_inurba_marseille","lat":43.29798,"lon":5.3933,"is_reserved":false,"is_disabled":false,"rental_uris":{"android":"levelo://app?vid=82a930ee-058d-42ca-b16e-38ec38cdecd7","ios":"levelo://app?vid=82a930ee-058d-42ca-b16e-38ec38cdecd7"},"vehicle_type_id":"4","last_reported":1745705322,"current_range_meters":18000,"station_id":"chh1huq6cuj3fo74tm60","pricing_plan_id":"cebpf4jnsgd1na2vs0mg"},{"bike_id":"de7d3747-86b2-43ba-8c94-3d7ae363967e","system_id":"levelo_inurba_marseille","lat":43.30435,"lon":5.38882,"is_reserved":false,"is_disabled":false,"rental_uris":{"android":"levelo://app?vid=de7d3747-86b2-43ba-8c94-3d7ae363967e","ios":"levelo://app?vid=de7d3747-86b2-43ba-8c94-3d7ae363967e"},"vehicle_type_id":"4","last_reported":1745705322,"current_range_meters":18000,"station_id":"ce4bgk12rcd13ifvqbi0","pricing_plan_id":"cebpf4jnsgd1na2vs0mg"},{"bike_id":"3d934169-6946-46cc-87a4-ce5d03b77075","system_id":"levelo_inurba_marseille","lat":43.21764,"lon":5.34589,"is_reserved":false,"is_disabled":false,"rental_uris":{"android":"levelo://app?vid=3d934169-6946-46cc-87a4-ce5d03b77075","ios":"levelo://app?vid=3d934169-6946-46cc-87a4-ce5d03b77075"},"vehicle_type_id":"4","last_reported":1745705322,"current_range_meters":18000,"station_id":"","pricing_plan_id":"cebpf4jnsgd1na2vs0mg"},{"bike_id":"389fa13e-9fb8-4551-94cc-3437e858ed36","system_id":"levelo_inurba_marseille","lat":43.24173,"lon":5.36417,"is_reserved":false,"is_disabled":false,"rental_uris":{"android":"levelo://app?vid=389fa13e-9fb8-4551-94cc-3437e858ed36","ios":"levelo://app?vid=389fa13e-9fb8-4551-94cc-3437e858ed36"},"vehicle_type_id":"4","last_reported":1745705322,"current_range_meters":18000,"station_id":"cpo36qri1sfpv3e86is0","pricing_plan_id":"cebpf4jnsgd1na2vs0mg"},{"bike_id":"a6ef5e73-9c2a-4c3a-b853-48e28d6dc161","system_id":"levelo_inurba_marseille","lat":43.31704,"lon":5.43685,"is_reserved":false,"is_disabled":true,"rental_uris":{"android":"levelo://app?vid=a6ef5e73-9c2a-4c3a-b853-48e28d6dc161","ios":"levelo://app?vid=a6ef5e73-9c2a-4c3a-b853-48e28d6dc161"},"vehicle_type_id":"4","last_reported":1745705322,"current_range_meters":18000,"station_id":"ce4bhp92rcd13ifvqhcg","pricing_plan_id":"cebpf4jnsgd1na2vs0mg"},{"bike_id":"a18d1f68-4371-46fb-b2d1-d2625bccdd02","system_id":"levelo_inurba_marseille","lat":43.24072,"lon":5.37755,"is_reserved":false,"is_disabled":false,"rental_uris":{"android":"levelo://app?vid=a18d1f68-4371-46fb-b2d1-d2625bccdd02","ios":"levelo://app?vid=a18d1f68-4371-46fb-b2d1-d2625bccdd02"},"vehicle_type_id":"4","last_reported":1745705322,"current_range_meters":17600,"station_id":"ce4bhnp2rcd13ifvqgvg","pricing_plan_id":"cebpf4jnsgd1na2vs0mg"},{"bike_id":"1fe84233-d6e6-400c-ba7e-765c53207954","system_id":"levelo_inurba_marseille","lat":43.26061,"lon":5.39383,"is_reserved":false,"is_disabled":false,"rental_uris":{"android":"levelo://app?vid=1fe84233-d6e6-400c-ba7e-765c53207954","ios":"levelo://app?vid=1fe84233-d6e6-400c-ba7e-765c53207954"},"vehicle_type_id":"4","last_reported":1745705322,"current_range_meters":18000,"station_id":"ce4bhh92rcd13ifvqfj0","pricing_plan_id":"cebpf4jnsgd1na2vs0mg"},{"bike_id":"b330c3b4-8203-49c9-a4bf-5485d09a1d2d","system_id":"levelo_inurba_marseille","lat":43.30204,"lon":5.39459,"is_reserved":false,"is_disabled":true,"rental_uris":{"android":"levelo://app?vid=b330c3b4-8203-49c9-a4bf-5485d09a1d2d","ios":"levelo://app?vid=b330c3b4-8203-49c9-a4bf-5485d09a1d2d"},"vehicle_type_id":"4","last_reported":1745705322,"current_range_meters":18000,"station_id":"ce4bh0p2rcd13ifvqd70","pricing_plan_id":"cebpf4jnsgd1na2vs0mg"},{"bike_id":"25717bcb-9ca8-4b05-903a-5adf45a28468","system_id":"levelo_inurba_marseille","lat":43.28368,"lon":5.38092,"is_reserved":false,"is_disabled":false,"rental_uris":{"android":"levelo://app?vid=25717bcb-9ca8-4b05-903a-5adf45a28468","ios":"levelo://app?vid=25717bcb-9ca8-4b05-903a-5adf45a28468"},"vehicle_type_id":"4","last_reported":1745705322,"current_range_meters":18000,"station_id":"ce4bh412rcd13ifvqdr0","pricing_plan_id":"cebpf4jnsgd1na2vs0mg"},{"bike_id":"99be1414-58ff-4752-826b-d0dcc4401711","system_id":"levelo_inurba_marseille","lat":43.24808,"lon":5.37457,"is_reserved":false,"is_disabled":true,"rental_uris":{"android":"levelo://app?vid=99be1414-58ff-4752-826b-d0dcc4401711","ios":"levelo://app?vid=99be1414-58ff-4752-826b-d0dcc4401711"},"vehicle_type_id":"4","last_reported":1745705322,"current_range_meters":18000,"station_id":"ce4bhgh2rcd13ifvqfb0","pricing_plan_id":"cebpf4jnsgd1na2vs0mg"},{"bike_id":"37f473bf-00b4-4406-bade-8f1d68004ce7","system_id":"levelo_inurba_marseille","lat":43.30882,"lon":5.39648,"is_reserved":false,"is_disabled":false,"rental_uris":{"android":"levelo://app?vid=37f473bf-00b4-4406-bade-8f1d68004ce7","ios":"levelo://app?vid=37f473bf-00b4-4406-bade-8f1d68004ce7"},"vehicle_type_id":"4","last_reported":1745705322,"current_range_meters":18800,"station_id":"ce4bh012rcd13ifvqcv0","pricing_plan_id":"cebpf4jnsgd1na2vs0mg"},{"bike_id":"f0aa239a-c897-40b3-aa23-b24f3e889635","system_id":"levelo_inurba_marseille","lat":43.31373,"lon":5.38495,"is_reserved":false,"is_disabled":false,"rental_uris":{"android":"levelo://app?vid=f0aa239a-c897-40b3-aa23-b24f3e889635","ios":"levelo://app?vid=f0aa239a-c897-40b3-aa23-b24f3e889635"},"vehicle_type_id":"4","last_reported":1745705322,"current_range_meters":18800,"station_id":"ce4bgt92rcd13ifvqcf0","pricing_plan_id":"cebpf4jnsgd1na2vs0mg"},{"bike_id":"36894e47-6a3e-44a3-a461-a4c4abe0aa7d","system_id":"levelo_inurba_marseille","lat":43.33754,"lon":5.39154,"is_reserved":false,"is_disabled":false,"rental_uris":{"android":"levelo://app?vid=36894e47-6a3e-44a3-a461-a4c4abe0aa7d","ios":"levelo://app?vid=36894e47-6a3e-44a3-a461-a4c4abe0aa7d"},"vehicle_type_id":"4","last_reported":1745705322,"current_range_meters":18800,"station_id":"ce4bhr92rcd13ifvqhsg","pricing_plan_id":"cebpf4jnsgd1na2vs0mg"},{"bike_id":"f5181ff8-3bea-459d-9bd7-848090e8ed24","system_id":"levelo_inurba_marseille","lat":43.26566,"lon":5.37278,"is_reserved":false,"is_disabled":false,"rental_uris":{"android":"levelo://app?vid=f5181ff8-3bea-459d-9bd7-848090e8ed24","ios":"levelo://app?vid=f5181ff8-3bea-459d-9bd7-848090e8ed24"},"vehicle_type_id":"4","last_reported":1745705322,"current_range_meters":18800,"station_id":"ce4bhg12rcd13ifvqf70","pricing_plan_id":"cebpf4jnsgd1na2vs0mg"},{"bike_id":"f36ae1cb-5823-4223-b278-872cdf2c9c14","system_id":"levelo_inurba_marseille","lat":43.30956,"lon":5.39039,"is_reserved":false,"is_disabled":false,"rental_uris":{"android":"levelo://app?vid=f36ae1cb-5823-4223-b278-872cdf2c9c14","ios":"levelo://app?vid=f36ae1cb-5823-4223-b278-872cdf2c9c14"},"vehicle_type_id":"4","last_reported":1745705322,"current_range_meters":18800,"station_id":"ce4bgup2rcd13ifvqco0","pricing_plan_id":"cebpf4jnsgd1na2vs0mg"},{"bike_id":"e77e809c-f27c-4b12-8579-3a9abc9ac316","system_id":"levelo_inurba_marseille","lat":43.3015,"lon":5.38073,"is_reserved":false,"is_disabled":false,"rental_uris":{"android":"levelo://app?vid=e77e809c-f27c-4b12-8579-3a9abc9ac316","ios":"levelo://app?vid=e77e809c-f27c-4b12-8579-3a9abc9ac316"},"vehicle_type_id":"4","last_reported":1745705322,"current_range_meters":18800,"station_id":"ce4bgjp2rcd13ifvqbh0","pricing_plan_id":"cebpf4jnsgd1na2vs0mg"},{"bike_id":"52aacdd4-5dab-403a-82ba-a1f9f36d8f0a","system_id":"levelo_inurba_marseille","lat":43.29577,"lon":5.38513,"is_reserved":false,"is_disabled":false,"rental_uris":{"android":"levelo://app?vid=52aacdd4-5dab-403a-82ba-a1f9f36d8f0a","ios":"levelo://app?vid=52aacdd4-5dab-403a-82ba-a1f9f36d8f0a"},"vehicle_type_id":"4","last_reported":1745705322,"current_range_meters":18800,"station_id":"ce4bgih2rcd13ifvqba0","pricing_plan_id":"cebpf4jnsgd1na2vs0mg"},{"bike_id":"29506016-c2a9-4b1e-a127-f59910409f4b","system_id":"levelo_inurba_marseille","lat":43.320431,"lon":5.415608,"is_reserved":false,"is_disabled":false,"rental_uris":{"android":"levelo://app?vid=29506016-c2a9-4b1e-a127-f59910409f4b","ios":"levelo://app?vid=29506016-c2a9-4b1e-a127-f59910409f4b"},"vehicle_type_id":"4","last_reported":1745705322,"current_range_meters":18800,"station_id":"ce4bhqh2rcd13ifvqhmg","pricing_plan_id":"cebpf4jnsgd1na2vs0mg"},{"bike_id":"b8b283a3-f0bb-4b6a-8588-f7b70d0c87cc","system_id":"levelo_inurba_marseille","lat":43.31462,"lon":5.3733,"is_reserved":false,"is_disabled":false,"rental_uris":{"android":"levelo://app?vid=b8b283a3-f0bb-4b6a-8588-f7b70d0c87cc","ios":"levelo://app?vid=b8b283a3-f0bb-4b6a-8588-f7b70d0c87cc"},"vehicle_type_id":"4","last_reported":1745705322,"current_range_meters":19200,"station_id":"ce4bgt12rcd13ifvqcd0","pricing_plan_id":"cebpf4jnsgd1na2vs0mg"},{"bike_id":"453ce3d4-d623-45e4-abde-68c49a57963b","system_id":"levelo_inurba_marseille","lat":43.30806,"lon":5.38168,"is_reserved":false,"is_disabled":false,"rental_uris":{"android":"levelo://app?vid=453ce3d4-d623-45e4-abde-68c49a57963b","ios":"levelo://app?vid=453ce3d4-d623-45e4-abde-68c49a57963b"},"vehicle_type_id":"4","last_reported":1745705322,"current_range_meters":19200,"station_id":"ce4bgt12rcd13ifvqce0","pricing_plan_id":"cebpf4jnsgd1na2vs0mg"},{"bike_id":"c90de9fe-3ace-4bac-8b23-d4861eb8ac7e","system_id":"levelo_inurba_marseille","lat":43.27048,"lon":5.4027,"is_reserved":false,"is_disabled":false,"rental_uris":{"android":"levelo://app?vid=c90de9fe-3ace-4bac-8b23-d4861eb8ac7e","ios":"levelo://app?vid=c90de9fe-3ace-4bac-8b23-d4861eb8ac7e"},"vehicle_type_id":"4","last_reported":1745705322,"current_range_meters":19200,"station_id":"ce4bhk92rcd13ifvqgc0","pricing_plan_id":"cebpf4jnsgd1na2vs0mg"},{"bike_id":"54658195-e624-4018-aa07-ef0577a1bf80","system_id":"levelo_inurba_marseille","lat":43.31363,"lon":5.38502,"is_reserved":false,"is_disabled":false,"rental_uris":{"android":"levelo://app?vid=54658195-e624-4018-aa07-ef0577a1bf80","ios":"levelo://app?vid=54658195-e624-4018-aa07-ef0577a1bf80"},"vehicle_type_id":"4","last_reported":1745705322,"current_range_meters":19200,"station_id":"ce4bgt92rcd13ifvqcf0","pricing_plan_id":"cebpf4jnsgd1na2vs0mg"},{"bike_id":"dfd9f662-ed5a-41f9-83f4-c8f9ac971af2","system_id":"levelo_inurba_marseille","lat":43.251587,"lon":5.402861,"is_reserved":false,"is_disabled":false,"rental_uris":{"android":"levelo://app?vid=dfd9f662-ed5a-41f9-83f4-c8f9ac971af2","ios":"levelo://app?vid=dfd9f662-ed5a-41f9-83f4-c8f9ac971af2"},"vehicle_type_id":"4","last_reported":1745705322,"current_range_meters":19200,"station_id":"ce4bhlh2rcd13ifvqgig","pricing_plan_id":"cebpf4jnsgd1na2vs0mg"},{"bike_id":"3c1e557a-956e-4c8b-97ea-95a7caf625c9","system_id":"levelo_inurba_marseille","lat":43.31378,"lon":5.38493,"is_reserved":false,"is_disabled":false,"rental_uris":{"android":"levelo://app?vid=3c1e557a-956e-4c8b-97ea-95a7caf625c9","ios":"levelo://app?vid=3c1e557a-956e-4c8b-97ea-95a7caf625c9"},"vehicle_type_id":"4","last_reported":1745705322,"current_range_meters":19200,"station_id":"ce4bgt92rcd13ifvqcf0","pricing_plan_id":"cebpf4jnsgd1na2vs0mg"},{"bike_id":"23574aed-08d0-4585-bdbb-576b4b25554f","system_id":"levelo_inurba_marseille","lat":43.30138,"lon":5.39863,"is_reserved":false,"is_disabled":false,"rental_uris":{"android":"levelo://app?vid=23574aed-08d0-4585-bdbb-576b4b25554f","ios":"levelo://app?vid=23574aed-08d0-4585-bdbb-576b4b25554f"},"vehicle_type_id":"4","last_reported":1745705322,"current_range_meters":19200,"station_id":"ce4bh0h2rcd13ifvqd40","pricing_plan_id":"cebpf4jnsgd1na2vs0mg"},{"bike_id":"6f894e55-3e4d-4021-b783-c0bc2c3d0157","system_id":"levelo_inurba_marseille","lat":43.317289,"lon":5.389998,"is_reserved":false,"is_disabled":false,"rental_uris":{"android":"levelo://app?vid=6f894e55-3e4d-4021-b783-c0bc2c3d0157","ios":"levelo://app?vid=6f894e55-3e4d-4021-b783-c0bc2c3d0157"},"vehicle_type_id":"4","last_reported":1745705322,"current_range_meters":19200,"station_id":"ce4bhqp2rcd13ifvqhng","pricing_plan_id":"cebpf4jnsgd1na2vs0mg"},{"bike_id":"e22302d4-296f-4aeb-9107-eb3ee99f311f","system_id":"levelo_inurba_marseille","lat":43.2407,"lon":5.37759,"is_reserved":false,"is_disabled":false,"rental_uris":{"android":"levelo://app?vid=e22302d4-296f-4aeb-9107-eb3ee99f311f","ios":"levelo://app?vid=e22302d4-296f-4aeb-9107-eb3ee99f311f"},"vehicle_type_id":"4","last_reported":1745705322,"current_range_meters":19600,"station_id":"ce4bhnp2rcd13ifvqgvg","pricing_plan_id":"cebpf4jnsgd1na2vs0mg"},{"bike_id":"f0e5efe3-49c1-4e45-87cb-a450448da76d","system_id":"levelo_inurba_marseille","lat":43.31178,"lon":5.38717,"is_reserved":false,"is_disabled":false,"rental_uris":{"android":"levelo://app?vid=f0e5efe3-49c1-4e45-87cb-a450448da76d","ios":"levelo://app?vid=f0e5efe3-49c1-4e45-87cb-a450448da76d"},"vehicle_type_id":"4","last_reported":1745705322,"current_range_meters":19600,"station_id":"ce4bgv12rcd13ifvqcp0","pricing_plan_id":"cebpf4jnsgd1na2vs0mg"},{"bike_id":"56951352-4e34-4791-b322-23b42884fcd5","system_id":"levelo_inurba_marseille","lat":43.24073,"lon":5.37764,"is_reserved":false,"is_disabled":false,"rental_uris":{"android":"levelo://app?vid=56951352-4e34-4791-b322-23b42884fcd5","ios":"levelo://app?vid=56951352-4e34-4791-b322-23b42884fcd5"},"vehicle_type_id":"4","last_reported":1745705322,"current_range_meters":19600,"station_id":"ce4bhnp2rcd13ifvqgvg","pricing_plan_id":"cebpf4jnsgd1na2vs0mg"},{"bike_id":"97f36b89-3f79-4d54-80b9-0001fe6da6bb","system_id":"levelo_inurba_marseille","lat":43.32445,"lon":5.39134,"is_reserved":false,"is_disabled":true,"rental_uris":{"android":"levelo://app?vid=97f36b89-3f79-4d54-80b9-0001fe6da6bb","ios":"levelo://app?vid=97f36b89-3f79-4d54-80b9-0001fe6da6bb"},"vehicle_type_id":"4","last_reported":1745705322,"current_range_meters":19600,"station_id":"","pricing_plan_id":"cebpf4jnsgd1na2vs0mg"},{"bike_id":"3eba342f-5137-4ac9-b974-80e3a36ee594","system_id":"levelo_inurba_marseille","lat":43.2512,"lon":5.40318,"is_reserved":false,"is_disabled":false,"rental_uris":{"android":"levelo://app?vid=3eba342f-5137-4ac9-b974-80e3a36ee594","ios":"levelo://app?vid=3eba342f-5137-4ac9-b974-80e3a36ee594"},"vehicle_type_id":"4","last_reported":1745705322,"current_range_meters":20000,"station_id":"ce4bhlh2rcd13ifvqgig","pricing_plan_id":"cebpf4jnsgd1na2vs0mg"},{"bike_id":"c9447906-6801-409a-b05a-b7b0c3d30324","system_id":"levelo_inurba_marseille","lat":43.31172,"lon":5.38705,"is_reserved":false,"is_disabled":false,"rental_uris":{"android":"levelo://app?vid=c9447906-6801-409a-b05a-b7b0c3d30324","ios":"levelo://app?vid=c9447906-6801-409a-b05a-b7b0c3d30324"},"vehicle_type_id":"4","last_reported":1745705322,"current_range_meters":20000,"station_id":"ce4bgv12rcd13ifvqcp0","pricing_plan_id":"cebpf4jnsgd1na2vs0mg"},{"bike_id":"6a9bada9-4840-4710-90ca-dc23b45eeb13","system_id":"levelo_inurba_marseille","lat":43.29782,"lon":5.39331,"is_reserved":false,"is_disabled":false,"rental_uris":{"android":"levelo://app?vid=6a9bada9-4840-4710-90ca-dc23b45eeb13","ios":"levelo://app?vid=6a9bada9-4840-4710-90ca-dc23b45eeb13"},"vehicle_type_id":"4","last_reported":1745705322,"current_range_meters":20000,"station_id":"chh1huq6cuj3fo74tm60","pricing_plan_id":"cebpf4jnsgd1na2vs0mg"},{"bike_id":"1e59ea39-3476-4074-8491-9200a8d62689","system_id":"levelo_inurba_marseille","lat":43.30236,"lon":5.40096,"is_reserved":false,"is_disabled":false,"rental_uris":{"android":"levelo://app?vid=1e59ea39-3476-4074-8491-9200a8d62689","ios":"levelo://app?vid=1e59ea39-3476-4074-8491-9200a8d62689"},"vehicle_type_id":"4","last_reported":1745705322,"current_range_meters":20000,"station_id":"ce4bgvh2rcd13ifvqcs0","pricing_plan_id":"cebpf4jnsgd1na2vs0mg"},{"bike_id":"6d593226-0a2e-46d4-8de3-9c8bd9d3e674","system_id":"levelo_inurba_marseille","lat":43.29756,"lon":5.38116,"is_reserved":false,"is_disabled":true,"rental_uris":{"android":"levelo://app?vid=6d593226-0a2e-46d4-8de3-9c8bd9d3e674","ios":"levelo://app?vid=6d593226-0a2e-46d4-8de3-9c8bd9d3e674"},"vehicle_type_id":"4","last_reported":1745705322,"current_range_meters":20000,"station_id":"ce4bgip2rcd13ifvqbb0","pricing_plan_id":"cebpf4jnsgd1na2vs0mg"},{"bike_id":"49c695a3-442a-4057-89a1-9b828256f3f4","system_id":"levelo_inurba_marseille","lat":43.29539,"lon":5.38534,"is_reserved":false,"is_disabled":false,"rental_uris":{"android":"levelo://app?vid=49c695a3-442a-4057-89a1-9b828256f3f4","ios":"levelo://app?vid=49c695a3-442a-4057-89a1-9b828256f3f4"},"vehicle_type_id":"4","last_reported":1745705322,"current_range_meters":20400,"station_id":"ce4bgih2rcd13ifvqba0","pricing_plan_id":"cebpf4jnsgd1na2vs0mg"},{"bike_id":"78cb7f0e-bdd1-4934-9dc6-fe66b1ce023c","system_id":"levelo_inurba_marseille","lat":43.26224,"lon":5.40442,"is_reserved":false,"is_disabled":false,"rental_uris":{"android":"levelo://app?vid=78cb7f0e-bdd1-4934-9dc6-fe66b1ce023c","ios":"levelo://app?vid=78cb7f0e-bdd1-4934-9dc6-fe66b1ce023c"},"vehicle_type_id":"4","last_reported":1745705322,"current_range_meters":20400,"station_id":"ce4bhmh2rcd13ifvqgmg","pricing_plan_id":"cebpf4jnsgd1na2vs0mg"},{"bike_id":"6b919e24-0442-427c-bb5a-e18a1ab86439","system_id":"levelo_inurba_marseille","lat":43.30252,"lon":5.40063,"is_reserved":false,"is_disabled":false,"rental_uris":{"android":"levelo://app?vid=6b919e24-0442-427c-bb5a-e18a1ab86439","ios":"levelo://app?vid=6b919e24-0442-427c-bb5a-e18a1ab86439"},"vehicle_type_id":"4","last_reported":1745705322,"current_range_meters":20400,"station_id":"ce4bgvh2rcd13ifvqcs0","pricing_plan_id":"cebpf4jnsgd1na2vs0mg"},{"bike_id":"97fd7a4c-36e8-401d-b12d-1b4015a01ebe","system_id":"levelo_inurba_marseille","lat":43.26548,"lon":5.42095,"is_reserved":false,"is_disabled":false,"rental_uris":{"android":"levelo://app?vid=97fd7a4c-36e8-401d-b12d-1b4015a01ebe","ios":"levelo://app?vid=97fd7a4c-36e8-401d-b12d-1b4015a01ebe"},"vehicle_type_id":"4","last_reported":1745705322,"current_range_meters":20400,"station_id":"","pricing_plan_id":"cebpf4jnsgd1na2vs0mg"},{"bike_id":"b532cbc6-d603-4b6c-8eb1-6da63ec873ab","system_id":"levelo_inurba_marseille","lat":43.27061,"lon":5.40249,"is_reserved":false,"is_disabled":false,"rental_uris":{"android":"levelo://app?vid=b532cbc6-d603-4b6c-8eb1-6da63ec873ab","ios":"levelo://app?vid=b532cbc6-d603-4b6c-8eb1-6da63ec873ab"},"vehicle_type_id":"4","last_reported":1745705322,"current_range_meters":20400,"station_id":"ce4bhk92rcd13ifvqgc0","pricing_plan_id":"cebpf4jnsgd1na2vs0mg"},{"bike_id":"e492037e-60a9-4864-84d6-2fe9ea031f90","system_id":"levelo_inurba_marseille","lat":43.27974,"lon":5.38751,"is_reserved":false,"is_disabled":false,"rental_uris":{"android":"levelo://app?vid=e492037e-60a9-4864-84d6-2fe9ea031f90","ios":"levelo://app?vid=e492037e-60a9-4864-84d6-2fe9ea031f90"},"vehicle_type_id":"4","last_reported":1745705322,"current_range_meters":20800,"station_id":"ce4bhg12rcd13ifvqf80","pricing_plan_id":"cebpf4jnsgd1na2vs0mg"},{"bike_id":"2150d908-de18-435c-b409-34ee44a9880a","system_id":"levelo_inurba_marseille","lat":43.29891,"lon":5.38136,"is_reserved":false,"is_disabled":false,"rental_uris":{"android":"levelo://app?vid=2150d908-de18-435c-b409-34ee44a9880a","ios":"levelo://app?vid=2150d908-de18-435c-b409-34ee44a9880a"},"vehicle_type_id":"4","last_reported":1745705322,"current_range_meters":20800,"station_id":"ce4bgj12rcd13ifvqbc0","pricing_plan_id":"cebpf4jnsgd1na2vs0mg"},{"bike_id":"b379672b-b16b-4646-873c-129f891ad604","system_id":"levelo_inurba_marseille","lat":43.29045,"lon":5.35918,"is_reserved":false,"is_disabled":false,"rental_uris":{"android":"levelo://app?vid=b379672b-b16b-4646-873c-129f891ad604","ios":"levelo://app?vid=b379672b-b16b-4646-873c-129f891ad604"},"vehicle_type_id":"4","last_reported":1745705322,"current_range_meters":20800,"station_id":"ce4bha92rcd13ifvqeg0","pricing_plan_id":"cebpf4jnsgd1na2vs0mg"},{"bike_id":"181ed326-b471-49b5-9f00-acd48cb5b299","system_id":"levelo_inurba_marseille","lat":43.28274,"lon":5.35065,"is_reserved":false,"is_disabled":true,"rental_uris":{"android":"levelo://app?vid=181ed326-b471-49b5-9f00-acd48cb5b299","ios":"levelo://app?vid=181ed326-b471-49b5-9f00-acd48cb5b299"},"vehicle_type_id":"4","last_reported":1745705322,"current_range_meters":20800,"station_id":"ce4bhbp2rcd13ifvqerg","pricing_plan_id":"cebpf4jnsgd1na2vs0mg"},{"bike_id":"a1300fa1-43f7-47bc-be68-1621591c429e","system_id":"levelo_inurba_marseille","lat":43.250114,"lon":5.389125,"is_reserved":false,"is_disabled":true,"rental_uris":{"android":"levelo://app?vid=a1300fa1-43f7-47bc-be68-1621591c429e","ios":"levelo://app?vid=a1300fa1-43f7-47bc-be68-1621591c429e"},"vehicle_type_id":"4","last_reported":1745705322,"current_range_meters":20800,"station_id":"ce4bhgp2rcd13ifvqfd0","pricing_plan_id":"cebpf4jnsgd1na2vs0mg"},{"bike_id":"f140fe76-eff1-44d7-a99e-456f0289c63b","system_id":"levelo_inurba_marseille","lat":43.30801,"lon":5.38146,"is_reserved":false,"is_disabled":false,"rental_uris":{"android":"levelo://app?vid=f140fe76-eff1-44d7-a99e-456f0289c63b","ios":"levelo://app?vid=f140fe76-eff1-44d7-a99e-456f0289c63b"},"vehicle_type_id":"4","last_reported":1745705322,"current_range_meters":21600,"station_id":"ce4bgt12rcd13ifvqce0","pricing_plan_id":"cebpf4jnsgd1na2vs0mg"},{"bike_id":"0de53e73-7a73-45a7-94ca-8d891fddc337","system_id":"levelo_inurba_marseille","lat":43.29028,"lon":5.38626,"is_reserved":false,"is_disabled":false,"rental_uris":{"android":"levelo://app?vid=0de53e73-7a73-45a7-94ca-8d891fddc337","ios":"levelo://app?vid=0de53e73-7a73-45a7-94ca-8d891fddc337"},"vehicle_type_id":"4","last_reported":1745705322,"current_range_meters":21600,"station_id":"ce4bh4p2rcd13ifvqe0g","pricing_plan_id":"cebpf4jnsgd1na2vs0mg"},{"bike_id":"28b5911d-5ed5-44e1-9c63-ea5e7091b557","system_id":"levelo_inurba_marseille","lat":43.28156,"lon":5.42642,"is_reserved":false,"is_disabled":false,"rental_uris":{"android":"levelo://app?vid=28b5911d-5ed5-44e1-9c63-ea5e7091b557","ios":"levelo://app?vid=28b5911d-5ed5-44e1-9c63-ea5e7091b557"},"vehicle_type_id":"4","last_reported":1745705322,"current_range_meters":21600,"station_id":"ce4bhnh2rcd13ifvqgug","pricing_plan_id":"cebpf4jnsgd1na2vs0mg"},{"bike_id":"c8867699-0c4a-410b-b199-22a5a8666b2f","system_id":"levelo_inurba_marseille","lat":43.2847,"lon":5.35873,"is_reserved":false,"is_disabled":false,"rental_uris":{"android":"levelo://app?vid=c8867699-0c4a-410b-b199-22a5a8666b2f","ios":"levelo://app?vid=c8867699-0c4a-410b-b199-22a5a8666b2f"},"vehicle_type_id":"4","last_reported":1745705322,"current_range_meters":20800,"station_id":"ce4bhah2rcd13ifvqei0","pricing_plan_id":"cebpf4jnsgd1na2vs0mg"},{"bike_id":"89fa9ebf-c855-4df0-9b21-5c145a393657","system_id":"levelo_inurba_marseille","lat":43.31127,"lon":5.37763,"is_reserved":false,"is_disabled":false,"rental_uris":{"android":"levelo://app?vid=89fa9ebf-c855-4df0-9b21-5c145a393657","ios":"levelo://app?vid=89fa9ebf-c855-4df0-9b21-5c145a393657"},"vehicle_type_id":"4","last_reported":1745705322,"current_range_meters":21600,"station_id":"ce4bgt92rcd13ifvqcg0","pricing_plan_id":"cebpf4jnsgd1na2vs0mg"},{"bike_id":"0badc983-0b56-4ce0-9a46-a5b573b0bfee","system_id":"levelo_inurba_marseille","lat":43.28156,"lon":5.42638,"is_reserved":false,"is_disabled":false,"rental_uris":{"android":"levelo://app?vid=0badc983-0b56-4ce0-9a46-a5b573b0bfee","ios":"levelo://app?vid=0badc983-0b56-4ce0-9a46-a5b573b0bfee"},"vehicle_type_id":"4","last_reported":1745705322,"current_range_meters":21600,"station_id":"ce4bhnh2rcd13ifvqgug","pricing_plan_id":"cebpf4jnsgd1na2vs0mg"},{"bike_id":"bfd1be1c-1489-48fe-a99c-a9cefc997ae0","system_id":"levelo_inurba_marseille","lat":43.2621,"lon":5.37439,"is_reserved":false,"is_disabled":false,"rental_uris":{"android":"levelo://app?vid=bfd1be1c-1489-48fe-a99c-a9cefc997ae0","ios":"levelo://app?vid=bfd1be1c-1489-48fe-a99c-a9cefc997ae0"},"vehicle_type_id":"4","last_reported":1745705322,"current_range_meters":21600,"station_id":"ce4bhgp2rcd13ifvqfc0","pricing_plan_id":"cebpf4jnsgd1na2vs0mg"},{"bike_id":"c5251972-d279-4ec2-bcf1-956c2d9d91f3","system_id":"levelo_inurba_marseille","lat":43.22503,"lon":5.34781,"is_reserved":false,"is_disabled":false,"rental_uris":{"android":"levelo://app?vid=c5251972-d279-4ec2-bcf1-956c2d9d91f3","ios":"levelo://app?vid=c5251972-d279-4ec2-bcf1-956c2d9d91f3"},"vehicle_type_id":"4","last_reported":1745705322,"current_range_meters":21600,"station_id":"st_cvj5dfep6f1abm77gieg","pricing_plan_id":"cebpf4jnsgd1na2vs0mg"},{"bike_id":"d5ed1dea-4d76-489e-9713-8574afb7fe95","system_id":"levelo_inurba_marseille","lat":43.27072,"lon":5.42278,"is_reserved":false,"is_disabled":false,"rental_uris":{"android":"levelo://app?vid=d5ed1dea-4d76-489e-9713-8574afb7fe95","ios":"levelo://app?vid=d5ed1dea-4d76-489e-9713-8574afb7fe95"},"vehicle_type_id":"4","last_reported":1745705322,"current_range_meters":21600,"station_id":"ce4bhk92rcd13ifvqgb0","pricing_plan_id":"cebpf4jnsgd1na2vs0mg"},{"bike_id":"e740c7e7-1bd3-4b6c-9df0-d29d7146de35","system_id":"levelo_inurba_marseille","lat":43.30153,"lon":5.38093,"is_reserved":false,"is_disabled":false,"rental_uris":{"android":"levelo://app?vid=e740c7e7-1bd3-4b6c-9df0-d29d7146de35","ios":"levelo://app?vid=e740c7e7-1bd3-4b6c-9df0-d29d7146de35"},"vehicle_type_id":"4","last_reported":1745705322,"current_range_meters":22000,"station_id":"ce4bgjp2rcd13ifvqbh0","pricing_plan_id":"cebpf4jnsgd1na2vs0mg"},{"bike_id":"5e6f617f-9775-48cd-a2eb-2b1af96f70ab","system_id":"levelo_inurba_marseille","lat":43.25509,"lon":5.37644,"is_reserved":false,"is_disabled":false,"rental_uris":{"android":"levelo://app?vid=5e6f617f-9775-48cd-a2eb-2b1af96f70ab","ios":"levelo://app?vid=5e6f617f-9775-48cd-a2eb-2b1af96f70ab"},"vehicle_type_id":"4","last_reported":1745705322,"current_range_meters":22000,"station_id":"ce4bhh12rcd13ifvqff0","pricing_plan_id":"cebpf4jnsgd1na2vs0mg"},{"bike_id":"6d9e6bcd-d12c-4436-9898-cbe3ca658211","system_id":"levelo_inurba_marseille","lat":43.22504,"lon":5.34769,"is_reserved":false,"is_disabled":false,"rental_uris":{"android":"levelo://app?vid=6d9e6bcd-d12c-4436-9898-cbe3ca658211","ios":"levelo://app?vid=6d9e6bcd-d12c-4436-9898-cbe3ca658211"},"vehicle_type_id":"4","last_reported":1745705322,"current_range_meters":22000,"station_id":"st_cvj5dfep6f1abm77gieg","pricing_plan_id":"cebpf4jnsgd1na2vs0mg"},{"bike_id":"7003f8a3-f68d-44fd-9898-bb77f9b682d5","system_id":"levelo_inurba_marseille","lat":43.301561,"lon":5.379827,"is_reserved":false,"is_disabled":false,"rental_uris":{"android":"levelo://app?vid=7003f8a3-f68d-44fd-9898-bb77f9b682d5","ios":"levelo://app?vid=7003f8a3-f68d-44fd-9898-bb77f9b682d5"},"vehicle_type_id":"4","last_reported":1745705322,"current_range_meters":21600,"station_id":"ce4bhs12rcd13ifvqhvg","pricing_plan_id":"cebpf4jnsgd1na2vs0mg"},{"bike_id":"bec1e472-63aa-481e-bbc8-305365b19ca4","system_id":"levelo_inurba_marseille","lat":43.27967,"lon":5.38744,"is_reserved":false,"is_disabled":false,"rental_uris":{"android":"levelo://app?vid=bec1e472-63aa-481e-bbc8-305365b19ca4","ios":"levelo://app?vid=bec1e472-63aa-481e-bbc8-305365b19ca4"},"vehicle_type_id":"4","last_reported":1745705322,"current_range_meters":22400,"station_id":"ce4bhg12rcd13ifvqf80","pricing_plan_id":"cebpf4jnsgd1na2vs0mg"},{"bike_id":"8193f4b9-a5ca-4a1b-9e53-ad630178f561","system_id":"levelo_inurba_marseille","lat":43.2593,"lon":5.40874,"is_reserved":false,"is_disabled":false,"rental_uris":{"android":"levelo://app?vid=8193f4b9-a5ca-4a1b-9e53-ad630178f561","ios":"levelo://app?vid=8193f4b9-a5ca-4a1b-9e53-ad630178f561"},"vehicle_type_id":"4","last_reported":1745705322,"current_range_meters":22400,"station_id":"ce4bhm92rcd13ifvqglg","pricing_plan_id":"cebpf4jnsgd1na2vs0mg"},{"bike_id":"9275afeb-620b-4a3c-83d1-31bc14709d93","system_id":"levelo_inurba_marseille","lat":43.28854,"lon":5.35866,"is_reserved":false,"is_disabled":true,"rental_uris":{"android":"levelo://app?vid=9275afeb-620b-4a3c-83d1-31bc14709d93","ios":"levelo://app?vid=9275afeb-620b-4a3c-83d1-31bc14709d93"},"vehicle_type_id":"4","last_reported":1745705322,"current_range_meters":22400,"station_id":"ce4bhb12rcd13ifvqem0","pricing_plan_id":"cebpf4jnsgd1na2vs0mg"},{"bike_id":"8f010fa3-d8f8-4081-87bc-865aa07340b1","system_id":"levelo_inurba_marseille","lat":43.28566,"lon":5.39498,"is_reserved":false,"is_disabled":false,"rental_uris":{"android":"levelo://app?vid=8f010fa3-d8f8-4081-87bc-865aa07340b1","ios":"levelo://app?vid=8f010fa3-d8f8-4081-87bc-865aa07340b1"},"vehicle_type_id":"4","last_reported":1745705322,"current_range_meters":22400,"station_id":"ce4bh292rcd13ifvqdg0","pricing_plan_id":"cebpf4jnsgd1na2vs0mg"},{"bike_id":"4508fac8-20ad-40ae-8ce9-c4bc893ea97b","system_id":"levelo_inurba_marseille","lat":43.27048,"lon":5.42259,"is_reserved":false,"is_disabled":false,"rental_uris":{"android":"levelo://app?vid=4508fac8-20ad-40ae-8ce9-c4bc893ea97b","ios":"levelo://app?vid=4508fac8-20ad-40ae-8ce9-c4bc893ea97b"},"vehicle_type_id":"4","last_reported":1745705322,"current_range_meters":22400,"station_id":"ce4bhk92rcd13ifvqgb0","pricing_plan_id":"cebpf4jnsgd1na2vs0mg"},{"bike_id":"8861b954-134b-4e74-a7d6-db0aea4b5e9e","system_id":"levelo_inurba_marseille","lat":43.27377,"lon":5.36252,"is_reserved":false,"is_disabled":false,"rental_uris":{"android":"levelo://app?vid=8861b954-134b-4e74-a7d6-db0aea4b5e9e","ios":"levelo://app?vid=8861b954-134b-4e74-a7d6-db0aea4b5e9e"},"vehicle_type_id":"4","last_reported":1745705322,"current_range_meters":22400,"station_id":"ce4bhbh2rcd13ifvqeo0","pricing_plan_id":"cebpf4jnsgd1na2vs0mg"},{"bike_id":"d9ac5355-3ae2-42b6-8a65-635478189bf7","system_id":"levelo_inurba_marseille","lat":43.29556,"lon":5.42278,"is_reserved":false,"is_disabled":false,"rental_uris":{"android":"levelo://app?vid=d9ac5355-3ae2-42b6-8a65-635478189bf7","ios":"levelo://app?vid=d9ac5355-3ae2-42b6-8a65-635478189bf7"},"vehicle_type_id":"4","last_reported":1745705322,"current_range_meters":22400,"station_id":"ce4bhph2rcd13ifvqhdg","pricing_plan_id":"cebpf4jnsgd1na2vs0mg"},{"bike_id":"69acb12e-d0b8-4810-acdb-5bf337f6e2e1","system_id":"levelo_inurba_marseille","lat":43.30749,"lon":5.37189,"is_reserved":false,"is_disabled":false,"rental_uris":{"android":"levelo://app?vid=69acb12e-d0b8-4810-acdb-5bf337f6e2e1","ios":"levelo://app?vid=69acb12e-d0b8-4810-acdb-5bf337f6e2e1"},