{"last_updated":1718118461,"ttl":30,"version":"2.2","data":{"bikes":[{"bike_id":"6453e501-d46c-49f4-9c11-34c2eb0a8ae8","system_id":"levelo_inurba_marseille","lat":43.313587,"lon":5.36709,"is_reserved":false,"is_disabled":false,"rental_uris":{"android":"levelo://app?vid=6453e501-d46c-49f4-9c11-34c2eb0a8ae8","ios":"levelo://app?vid=6453e501-d46c-49f4-9c11-34c2eb0a8ae8"},"vehicle_type_id":"4","last_reported":1718118461,"current_range_meters":0,"station_id":"ce4bgr92rcd13ifvqc6g","pricing_plan_id":"cebpf4jnsgd1na2vs0mg"},{"bike_id":"b1c129e0-7720-4db5-8e17-129a24f6dab6","system_id":"levelo_inurba_marseille","lat":43.312239,"lon":5.368562,"is_reserved":false,"is_disabled":false,"rental_uris":{"android":"levelo://app?vid=b1c129e0-7720-4db5-8e17-129a24f6dab6","ios":"levelo://app?vid=b1c129e0-7720-4db5-8e17-129a24f6dab6"},"vehicle_type_id":"4","last_reported":1718118461,"current_range_meters":31600,"station_id":"ce4bgl92rcd13ifvqbq0","pricing_plan_id":"cebpf4jnsgd1na2vs0mg"},{"bike_id":"465b5f50-bfcd-45af-b4c0-24b61bc8bfdf","system_id":"levelo_inurba_marseille","lat":43.312239,"lon":5.368562,"is_reserved":false,"is_disabled":false,"rental_uris":{"android":"levelo://app?vid=465b5f50-bfcd-45af-b4c0-24b61bc8bfdf","ios":"levelo://app?vid=465b5f50-bfcd-45af-b4c0-24b61bc8bfdf"},"vehicle_type_id":"4","last_reported":1718118461,"current_range_meters":27200,"station_id":"ce4bgl92rcd13ifvqbq0","pricing_plan_id":"cebpf4jnsgd1na2vs0mg"},{"bike_id":"fc369eca-d83c-4960-85d5-16a911fc458b","system_id":"levelo_inurba_marseille","lat":43.312239,"lon":5.368562,"is_reserved":false,"is_disabled":false,"rental_uris":{"android":"levelo://app?vid=fc369eca-d83c-4960-85d5-16a911fc458b","ios":"levelo://app?vid=fc369eca-d83c-4960-85d5-16a911fc458b"},"vehicle_type_id":"4","last_reported":1718118461,"current_range_meters":31200,"station_id":"ce4bgl92rcd13ifvqbq0","pricing_plan_id":"cebpf4jnsgd1na2vs0mg"},{"bike_id":"4eb4d9ac-2bac-4c3d-bf24-79ddb5c1190b","system_id":"levelo_inurba_marseille","lat":43.312239,"lon":5.368562,"is_reserved":false,"is_disabled":false,"rental_uris":{"android":"levelo://app?vid=4eb4d9ac-2bac-4c3d-bf24-79ddb5c1190b","ios":"levelo://app?vid=4eb4d9ac-2bac-4c3d-bf24-79ddb5c1190b"},"vehicle_type_id":"4","last_reported":1718118461,"current_range_meters":14000,"station_id":"ce4bgl92rcd13ifvqbq0","pricing_plan_id":"cebpf4jnsgd1na2vs0mg"},{"bike_id":"183ab1d4-c55f-4fe2-a33a-a6d515941bec","system_id":"levelo_inurba_marseille","lat":43.312239,"lon":5.368562,"is_reserved":false,"is_disabled":false,"rental_uris":{"android":"levelo://app?vid=183ab1d4-c55f-4fe2-a33a-a6d515941bec","ios":"levelo://app?vid=183ab1d4-c55f-4fe2-a33a-a6d515941bec"},"vehicle_type_id":"4","last_reported":1718118461,"current_range_meters":19200,"station_id":"ce4bgl92rcd13ifvqbq0","pricing_plan_id":"cebpf4jnsgd1na2vs0mg"},{"bike_id":"80eacd2f-11e6-4be8-968f-8e24c55638a7","system_id":"levelo_inurba_marseille","lat":43.312239,"lon":5.368562,"is_reserved":false,"is_disabled":false,"rental_uris":{"android":"levelo://app?vid=80eacd2f-11e6-4be8-968f-8e24c55638a7","ios":"levelo://app?vid=80eacd2f-11e6-4be8-968f-8e24c55638a7"},"vehicle_type_id":"4","last_reported":1718118461,"current_range_meters":6400,"station_id":"ce4bgl92rcd13ifvqbq0","pricing_plan_id":"cebpf4jnsgd1na2vs0mg"},{"bike_id":"42bbfd25-cb63-4441-8e9a-7eb013d82145","system_id":"levelo_inurba_marseille","lat":43.312239,"lon":5.368562,"is_reserved":false,"is_disabled":false,"rental_uris":{"android":"levelo://app?vid=42bbfd25-cb63-4441-8e9a-7eb013d82145","ios":"levelo://app?vid=42bbfd25-cb63-4441-8e9a-7eb013d82145"},"vehicle_type_id":"4","last_reported":1718118461,"current_range_meters":20800,"station_id":"ce4bgl92rcd13ifvqbq0","pricing_plan_id":"cebpf4jnsgd1na2vs0mg"},{"bike_id":"a4b936db-9619-4730-ac45-7bf4c37b5789","system_id":"levelo_inurba_marseille","lat":43.312239,"lon":5.368562,"is_reserved":false,"is_disabled":false,"rental_uris":{"android":"levelo://app?vid=a4b936db-9619-4730-ac45-7bf4c37b5789","ios":"levelo://app?vid=a4b936db-9619-4730-ac45-7bf4c37b5789"},"vehicle_type_id":"4","last_reported":1718118461,"current_range_meters":29200,"station_id":"ce4bgl92rcd13ifvqbq0","pricing_plan_id":"cebpf4jnsgd1na2vs0mg"},{"bike_id":"147488f2-9dd3-461d-bbb9-110bba03a61e","system_id":"levelo_inurba_marseille","lat":43.30915,"lon":5.36847,"is_reserved":false,"is_disabled":false,"rental_uris":{"android":"levelo://app?vid=147488f2-9dd3-461d-bbb9-110bba03a61e","ios":"levelo://app?vid=147488f2-9dd3-461d-bbb9-110bba03a61e"},"vehicle_type_id":"4","last_reported":1718118461,"current_range_meters":25600,"station_id":"ce4bgn92rcd13ifvqbvg","pricing_plan_id":"cebpf4jnsgd1na2vs0mg"},{"bike_id":"0ba2b247-0321-487a-a920-545e52e6047c","system_id":"levelo_inurba_marseille","lat":43.309076,"lon":5.368465,"is_reserved":false,"is_disabled":false,"rental_uris":{"android":"levelo://app?vid=0ba2b247-0321-487a-a920-545e52e6047c","ios":"levelo://app?vid=0ba2b247-0321-487a-a920-545e52e6047c"},"vehicle_type_id":"4","last_reported":1718118461,"current_range_meters":31200,"station_id":"ce4bgn92rcd13ifvqbvg","pricing_plan_id":"cebpf4jnsgd1na2vs0mg"},{"bike_id":"dfe53463-39a9-4992-98a0-9e1991a7c2e6","system_id":"levelo_inurba_marseille","lat":43.3091,"lon":5.368504,"is_reserved":false,"is_disabled":false,"rental_uris":{"android":"levelo://app?vid=dfe53463-39a9-4992-98a0-9e1991a7c2e6","ios":"levelo://app?vid=dfe53463-39a9-4992-98a0-9e1991a7c2e6"},"vehicle_type_id":"4","last_reported":1718118461,"current_range_meters":14000,"station_id":"ce4bgn92rcd13ifvqbvg","pricing_plan_id":"cebpf4jnsgd1na2vs0mg"},{"bike_id":"af4a4170-deb5-4088-b58d-548843353d77","system_id":"levelo_inurba_marseille","lat":43.309076,"lon":5.368465,"is_reserved":false,"is_disabled":false,"rental_uris":{"android":"levelo://app?vid=af4a4170-deb5-4088-b58d-548843353d77","ios":"levelo://app?vid=af4a4170-deb5-4088-b58d-548843353d77"},"vehicle_type_id":"4","last_reported":1718118461,"current_range_meters":27600,"station_id":"ce4bgn92rcd13ifvqbvg","pricing_plan_id":"cebpf4jnsgd1na2vs0mg"},{"bike_id":"a055615f-0fdc-40f0-8e31-c8085af9e2f4","system_id":"levelo_inurba_marseille","lat":43.309076,"lon":5.368465,"is_reserved":false,"is_disabled":false,"rental_uris":{"android":"levelo://app?vid=a055615f-0fdc-40f0-8e31-c8085af9e2f4","ios":"levelo://app?vid=a055615f-0fdc-40f0-8e31-c8085af9e2f4"},"vehicle_type_id":"4","last_reported":1718118461,"current_range_meters":21600,"station_id":"ce4bgn92rcd13ifvqbvg","pricing_plan_id":"cebpf4jnsgd1na2vs0mg"},{"bike_id":"ecb031c3-3417-46e6-b50b-f193e279dfe2","system_id":"levelo_inurba_marseille","lat":43.308756,"lon":5.368262,"is_reserved":false,"is_disabled":false,"rental_uris":{"android":"levelo://app?vid=ecb031c3-3417-46e6-b50b-f193e279dfe2","ios":"levelo://app?vid=ecb031c3-3417-46e6-b50b-f193e279dfe2"},"vehicle_type_id":"4","last_reported":1718118461,"current_range_meters":12400,"station_id":"ce4bgn92rcd13ifvqbvg","pricing_plan_id":"cebpf4jnsgd1na2vs0mg"},{"bike_id":"31187e99-6f9c-4721-935d-cb2fa422f830","system_id":"levelo_inurba_marseille","lat":43.31492,"lon":5.37301,"is_reserved":false,"is_disabled":false,"rental_uris":{"android":"levelo://app?vid=31187e99-6f9c-4721-935d-cb2fa422f830","ios":"levelo://app?vid=31187e99-6f9c-4721-935d-cb2fa422f830"},"vehicle_type_id":"4","last_reported":1718118461,"current_range_meters":28000,"station_id":"ce4bgt12rcd13ifvqcd0","pricing_plan_id":"cebpf4jnsgd1na2vs0mg"},{"bike_id":"76ede5c0-9ba0-4b23-80b6-b6c4ff3046eb","system_id":"levelo_inurba_marseille","lat":43.314811,"lon":5.373103,"is_reserved":false,"is_disabled":false,"rental_uris":{"android":"levelo://app?vid=76ede5c0-9ba0-4b23-80b6-b6c4ff3046eb","ios":"levelo://app?vid=76ede5c0-9ba0-4b23-80b6-b6c4ff3046eb"},"vehicle_type_id":"4","last_reported":1718118461,"current_range_meters":17200,"station_id":"ce4bgt12rcd13ifvqcd0","pricing_plan_id":"cebpf4jnsgd1na2vs0mg"},{"bike_id":"1045e7dd-bd0d-4c7b-a74b-649818b33566","system_id":"levelo_inurba_marseille","lat":43.314811,"lon":5.373103,"is_reserved":false,"is_disabled":false,"rental_uris":{"android":"levelo://app?vid=1045e7dd-bd0d-4c7b-a74b-649818b33566","ios":"levelo://app?vid=1045e7dd-bd0d-4c7b-a74b-649818b33566"},"vehicle_type_id":"4","last_reported":1718118461,"current_range_meters":30400,"station_id":"ce4bgt12rcd13ifvqcd0","pricing_plan_id":"cebpf4jnsgd1na2vs0mg"},{"bike_id":"c27b25e6-efc2-41d6-9116-ed551a9e7073","system_id":"levelo_inurba_marseille","lat":43.309039,"lon":5.371797,"is_reserved":false,"is_disabled":false,"rental_uris":{"android":"levelo://app?vid=c27b25e6-efc2-41d6-9116-ed551a9e7073","ios":"levelo://app?vid=c27b25e6-efc2-41d6-9116-ed551a9e7073"},"vehicle_type_id":"4","last_reported":1718118461,"current_range_meters":18000,"station_id":"ce4bguh2rcd13ifvqckg","pricing_plan_id":"cebpf4jnsgd1na2vs0mg"},{"bike_id":"2e8647de-71fc-4762-9b51-a5b4d0233ff9","system_id":"levelo_inurba_marseille","lat":43.30537,"lon":5.367345,"is_reserved":false,"is_disabled":false,"rental_uris":{"android":"levelo://app?vid=2e8647de-71fc-4762-9b51-a5b4d0233ff9","ios":"levelo://app?vid=2e8647de-71fc-4762-9b51-a5b4d0233ff9"},"vehicle_type_id":"4","last_reported":1718118461,"current_range_meters":16400,"station_id":"ce4bgrp2rcd13ifvqc9g","pricing_plan_id":"cebpf4jnsgd1na2vs0mg"},{"bike_id":"326d11b8-6ee6-4543-bac5-e25c7fae1838","system_id":"levelo_inurba_marseille","lat":43.305368,"lon":5.367343,"is_reserved":false,"is_disabled":false,"rental_uris":{"android":"levelo://app?vid=326d11b8-6ee6-4543-bac5-e25c7fae1838","ios":"levelo://app?vid=326d11b8-6ee6-4543-bac5-e25c7fae1838"},"vehicle_type_id":"4","last_reported":1718118461,"current_range_meters":12800,"station_id":"ce4bgrp2rcd13ifvqc9g","pricing_plan_id":"cebpf4jnsgd1na2vs0mg"},{"bike_id":"bc6503ae-3400-4dcc-9071-b59758af6b49","system_id":"levelo_inurba_marseille","lat":43.30537,"lon":5.367345,"is_reserved":false,"is_disabled":false,"rental_uris":{"android":"levelo://app?vid=bc6503ae-3400-4dcc-9071-b59758af6b49","ios":"levelo://app?vid=bc6503ae-3400-4dcc-9071-b59758af6b49"},"vehicle_type_id":"4","last_reported":1718118461,"current_range_meters":5200,"station_id":"ce4bgrp2rcd13ifvqc9g","pricing_plan_id":"cebpf4jnsgd1na2vs0mg"},{"bike_id":"a94d4f5c-bc27-4233-9dd8-a43f7ca995c9","system_id":"levelo_inurba_marseille","lat":43.305368,"lon":5.367343,"is_reserved":false,"is_disabled":false,"rental_uris":{"android":"levelo://app?vid=a94d4f5c-bc27-4233-9dd8-a43f7ca995c9","ios":"levelo://app?vid=a94d4f5c-bc27-4233-9dd8-a43f7ca995c9"},"vehicle_type_id":"4","last_reported":1718118461,"current_range_meters":0,"station_id":"ce4bgrp2rcd13ifvqc9g","pricing_plan_id":"cebpf4jnsgd1na2vs0mg"},{"bike_id":"a435bd00-5087-4001-a16a-0209846cdb4f","system_id":"levelo_inurba_marseille","lat":43.305714,"lon":5.365633,"is_reserved":false,"is_disabled":false,"rental_uris":{"android":"levelo://app?vid=a435bd00-5087-4001-a16a-0209846cdb4f","ios":"levelo://app?vid=a435bd00-5087-4001-a16a-0209846cdb4f"},"vehicle_type_id":"4","last_reported":1718118461,"current_range_meters":17600,"station_id":"ce4bgs12rcd13ifvqcag","pricing_plan_id":"cebpf4jnsgd1na2vs0mg"},{"bike_id":"8708a7c4-061c-40fe-a871-cd49c3d6f715","system_id":"levelo_inurba_marseille","lat":43.307945,"lon":5.376487,"is_reserved":false,"is_disabled":false,"rental_uris":{"android":"levelo://app?vid=8708a7c4-061c-40fe-a871-cd49c3d6f715","ios":"levelo://app?vid=8708a7c4-061c-40fe-a871-cd49c3d6f715"},"vehicle_type_id":"4","last_reported":1718118461,"current_range_meters":29600,"station_id":"ce4bgv92rcd13ifvqcq0","pricing_plan_id":"cebpf4jnsgd1na2vs0mg"},{"bike_id":"fbe3fe5a-e637-4bc2-bfcf-e8e21c182bb8","system_id":"levelo_inurba_marseille","lat":43.317075,"lon":5.377367,"is_reserved":false,"is_disabled":false,"rental_uris":{"android":"levelo://app?vid=fbe3fe5a-e637-4bc2-bfcf-e8e21c182bb8","ios":"levelo://app?vid=fbe3fe5a-e637-4bc2-bfcf-e8e21c182bb8"},"vehicle_type_id":"4","last_reported":1718118461,"current_range_meters":26800,"station_id":"ce4bgth2rcd13ifvqch0","pricing_plan_id":"cebpf4jnsgd1na2vs0mg"},{"bike_id":"a38b86c9-2ed2-4e91-b393-959c059a81ff","system_id":"levelo_inurba_marseille","lat":43.317075,"lon":5.377367,"is_reserved":false,"is_disabled":false,"rental_uris":{"android":"levelo://app?vid=a38b86c9-2ed2-4e91-b393-959c059a81ff","ios":"levelo://app?vid=a38b86c9-2ed2-4e91-b393-959c059a81ff"},"vehicle_type_id":"4","last_reported":1718118461,"current_range_meters":20400,"station_id":"ce4bgth2rcd13ifvqch0","pricing_plan_id":"cebpf4jnsgd1na2vs0mg"},{"bike_id":"5f8642ed-c628-4dba-9655-397a01a9bdf1","system_id":"levelo_inurba_marseille","lat":43.317075,"lon":5.377367,"is_reserved":false,"is_disabled":false,"rental_uris":{"android":"levelo://app?vid=5f8642ed-c628-4dba-9655-397a01a9bdf1","ios":"levelo://app?vid=5f8642ed-c628-4dba-9655-397a01a9bdf1"},"vehicle_type_id":"4","last_reported":1718118461,"current_range_meters":30000,"station_id":"ce4bgth2rcd13ifvqch0","pricing_plan_id":"cebpf4jnsgd1na2vs0mg"},{"bike_id":"d2ec8f15-6e7d-4b38-86a3-e4024a637d1f","system_id":"levelo_inurba_marseille","lat":43.317112,"lon":5.377562,"is_reserved":false,"is_disabled":false,"rental_uris":{"android":"levelo://app?vid=d2ec8f15-6e7d-4b38-86a3-e4024a637d1f","ios":"levelo://app?vid=d2ec8f15-6e7d-4b38-86a3-e4024a637d1f"},"vehicle_type_id":"4","last_reported":1718118461,"current_range_meters":0,"station_id":"ce4bgth2rcd13ifvqch0","pricing_plan_id":"cebpf4jnsgd1na2vs0mg"},{"bike_id":"ed2c5571-99a7-4e57-a4c1-af1a1b8022d0","system_id":"levelo_inurba_marseille","lat":43.30963,"lon":5.37929,"is_reserved":false,"is_disabled":false,"rental_uris":{"android":"levelo://app?vid=ed2c5571-99a7-4e57-a4c1-af1a1b8022d0","ios":"levelo://app?vid=ed2c5571-99a7-4e57-a4c1-af1a1b8022d0"},"vehicle_type_id":"4","last_reported":1718118461,"current_range_meters":14000,"station_id":"","pricing_plan_id":"cebpf4jnsgd1na2vs0mg"},{"bike_id":"a11d4d76-b6ed-4fea-b8bf-588e3ba3d936","system_id":"levelo_inurba_marseille","lat":43.30318,"lon":5.36914,"is_reserved":false,"is_disabled":false,"rental_uris":{"android":"levelo://app?vid=a11d4d76-b6ed-4fea-b8bf-588e3ba3d936","ios":"levelo://app?vid=a11d4d76-b6ed-4fea-b8bf-588e3ba3d936"},"vehicle_type_id":"4","last_reported":1718118461,"current_range_meters":21600,"station_id":"ce4bgqh2rcd13ifvqc5g","pricing_plan_id":"cebpf4jnsgd1na2vs0mg"},{"bike_id":"252a1b23-c125-4c01-be24-2c4c3296d36c","system_id":"levelo_inurba_marseille","lat":43.3031,"lon":5.3689,"is_reserved":false,"is_disabled":false,"rental_uris":{"android":"levelo://app?vid=252a1b23-c125-4c01-be24-2c4c3296d36c","ios":"levelo://app?vid=252a1b23-c125-4c01-be24-2c4c3296d36c"},"vehicle_type_id":"4","last_reported":1718118461,"current_range_meters":16400,"station_id":"ce4bgqh2rcd13ifvqc5g","pricing_plan_id":"cebpf4jnsgd1na2vs0mg"},{"bike_id":"db001bb9-1e5e-4180-b813-a942b64d68e3","system_id":"levelo_inurba_marseille","lat":43.315289,"lon":5.380349,"is_reserved":false,"is_disabled":false,"rental_uris":{"android":"levelo://app?vid=db001bb9-1e5e-4180-b813-a942b64d68e3","ios":"levelo://app?vid=db001bb9-1e5e-4180-b813-a942b64d68e3"},"vehicle_type_id":"4","last_reported":1718118461,"current_range_meters":15600,"station_id":"ce4bhsp2rcd13ifvqi50","pricing_plan_id":"cebpf4jnsgd1na2vs0mg"},{"bike_id":"20bef703-6b78-4cb9-a849-fb317af89919","system_id":"levelo_inurba_marseille","lat":43.31535,"lon":5.38034,"is_reserved":false,"is_disabled":false,"rental_uris":{"android":"levelo://app?vid=20bef703-6b78-4cb9-a849-fb317af89919","ios":"levelo://app?vid=20bef703-6b78-4cb9-a849-fb317af89919"},"vehicle_type_id":"4","last_reported":1718118461,"current_range_meters":10400,"station_id":"ce4bhsp2rcd13ifvqi50","pricing_plan_id":"cebpf4jnsgd1na2vs0mg"},{"bike_id":"1042a1e3-e9cf-48be-9fa8-b984b6b654d7","system_id":"levelo_inurba_marseille","lat":43.315289,"lon":5.380349,"is_reserved":false,"is_disabled":false,"rental_uris":{"android":"levelo://app?vid=1042a1e3-e9cf-48be-9fa8-b984b6b654d7","ios":"levelo://app?vid=1042a1e3-e9cf-48be-9fa8-b984b6b654d7"},"vehicle_type_id":"4","last_reported":1718118461,"current_range_meters":21200,"station_id":"ce4bhsp2rcd13ifvqi50","pricing_plan_id":"cebpf4jnsgd1na2vs0mg"},{"bike_id":"1dd16264-83fd-4aba-8857-ddc1ea0607b8","system_id":"levelo_inurba_marseille","lat":43.315289,"lon":5.380349,"is_reserved":false,"is_disabled":false,"rental_uris":{"android":"levelo://app?vid=1dd16264-83fd-4aba-8857-ddc1ea0607b8","ios":"levelo://app?vid=1dd16264-83fd-4aba-8857-ddc1ea0607b8"},"vehicle_type_id":"4","last_reported":1718118461,"current_range_meters":5600,"station_id":"ce4bhsp2rcd13ifvqi50","pricing_plan_id":"cebpf4jnsgd1na2vs0mg"},{"bike_id":"1c8a31e8-a2a2-4b6c-a7ff-6ac767e4a869","system_id":"levelo_inurba_marseille","lat":43.301939,"lon":5.366286,"is_reserved":false,"is_disabled":false,"rental_uris":{"android":"levelo://app?vid=1c8a31e8-a2a2-4b6c-a7ff-6ac767e4a869","ios":"levelo://app?vid=1c8a31e8-a2a2-4b6c-a7ff-6ac767e4a869"},"vehicle_type_id":"4","last_reported":1718118461,"current_range_meters":24000,"station_id":"ce4bgrh2rcd13ifvqc8g","pricing_plan_id":"cebpf4jnsgd1na2vs0mg"},{"bike_id":"728c7e52-0b68-42d7-a595-53af02812a61","system_id":"levelo_inurba_marseille","lat":43.30195,"lon":5.36623,"is_reserved":false,"is_disabled":false,"rental_uris":{"android":"levelo://app?vid=728c7e52-0b68-42d7-a595-53af02812a61","ios":"levelo://app?vid=728c7e52-0b68-42d7-a595-53af02812a61"},"vehicle_type_id":"4","last_reported":1718118461,"current_range_meters":6800,"station_id":"ce4bgrh2rcd13ifvqc8g","pricing_plan_id":"cebpf4jnsgd1na2vs0mg"},{"bike_id":"b80bcb78-c840-47e9-b8e1-27ab1e00c679","system_id":"levelo_inurba_marseille","lat":43.301939,"lon":5.366286,"is_reserved":false,"is_disabled":false,"rental_uris":{"android":"levelo://app?vid=b80bcb78-c840-47e9-b8e1-27ab1e00c679","ios":"levelo://app?vid=b80bcb78-c840-47e9-b8e1-27ab1e00c679"},"vehicle_type_id":"4","last_reported":1718118461,"current_range_meters":24400,"station_id":"ce4bgrh2rcd13ifvqc8g","pricing_plan_id":"cebpf4jnsgd1na2vs0mg"},{"bike_id":"460d1a8e-bdfc-408d-9062-ac90328f4bac","system_id":"levelo_inurba_marseille","lat":43.301939,"lon":5.366286,"is_reserved":false,"is_disabled":false,"rental_uris":{"android":"levelo://app?vid=460d1a8e-bdfc-408d-9062-ac90328f4bac","ios":"levelo://app?vid=460d1a8e-bdfc-408d-9062-ac90328f4bac"},"vehicle_type_id":"4","last_reported":1718118461,"current_range_meters":5600,"station_id":"ce4bgrh2rcd13ifvqc8g","pricing_plan_id":"cebpf4jnsgd1na2vs0mg"},{"bike_id":"c32c3520-65b6-4518-b092-55d01608b463","system_id":"levelo_inurba_marseille","lat":43.301939,"lon":5.366286,"is_reserved":false,"is_disabled":false,"rental_uris":{"android":"levelo://app?vid=c32c3520-65b6-4518-b092-55d01608b463","ios":"levelo://app?vid=c32c3520-65b6-4518-b092-55d01608b463"},"vehicle_type_id":"4","last_reported":1718118461,"current_range_meters":30400,"station_id":"ce4bgrh2rcd13ifvqc8g","pricing_plan_id":"cebpf4jnsgd1na2vs0mg"},{"bike_id":"f138aaf3-75c2-4864-bcd4-47aa0dfbd2b9","system_id":"levelo_inurba_marseille","lat":43.310804,"lon":5.38359,"is_reserved":false,"is_disabled":false,"rental_uris":{"android":"levelo://app?vid=f138aaf3-75c2-4864-bcd4-47aa0dfbd2b9","ios":"levelo://app?vid=f138aaf3-75c2-4864-bcd4-47aa0dfbd2b9"},"vehicle_type_id":"4","last_reported":1718118461,"current_range_meters":15600,"station_id":"ce4bgv92rcd13ifvqcr0","pricing_plan_id":"cebpf4jnsgd1na2vs0mg"},{"bike_id":"35996c25-55e5-478a-8303-85f8f8b99587","system_id":"levelo_inurba_marseille","lat":43.308058,"lon":5.38154,"is_reserved":false,"is_disabled":false,"rental_uris":{"android":"levelo://app?vid=35996c25-55e5-478a-8303-85f8f8b99587","ios":"levelo://app?vid=35996c25-55e5-478a-8303-85f8f8b99587"},"vehicle_type_id":"4","last_reported":1718118461,"current_range_meters":0,"station_id":"ce4bgt12rcd13ifvqce0","pricing_plan_id":"cebpf4jnsgd1na2vs0mg"},{"bike_id":"1d706de0-c667-436c-9188-77b2c853fa1d","system_id":"levelo_inurba_marseille","lat":43.308012,"lon":5.381511,"is_reserved":false,"is_disabled":false,"rental_uris":{"android":"levelo://app?vid=1d706de0-c667-436c-9188-77b2c853fa1d","ios":"levelo://app?vid=1d706de0-c667-436c-9188-77b2c853fa1d"},"vehicle_type_id":"4","last_reported":1718118461,"current_range_meters":17600,"station_id":"ce4bgt12rcd13ifvqce0","pricing_plan_id":"cebpf4jnsgd1na2vs0mg"},{"bike_id":"8fb2aeb4-dff2-4e07-87bf-d49c38ac85fb","system_id":"levelo_inurba_marseille","lat":43.308012,"lon":5.381511,"is_reserved":false,"is_disabled":false,"rental_uris":{"android":"levelo://app?vid=8fb2aeb4-dff2-4e07-87bf-d49c38ac85fb","ios":"levelo://app?vid=8fb2aeb4-dff2-4e07-87bf-d49c38ac85fb"},"vehicle_type_id":"4","last_reported":1718118461,"current_range_meters":20000,"station_id":"ce4bgt12rcd13ifvqce0","pricing_plan_id":"cebpf4jnsgd1na2vs0mg"},{"bike_id":"9667ca2a-b91b-426e-88a4-8c603cac19e2","system_id":"levelo_inurba_marseille","lat":43.302784,"lon":5.377158,"is_reserved":false,"is_disabled":false,"rental_uris":{"android":"levelo://app?vid=9667ca2a-b91b-426e-88a4-8c603cac19e2","ios":"levelo://app?vid=9667ca2a-b91b-426e-88a4-8c603cac19e2"},"vehicle_type_id":"4","last_reported":1718118461,"current_range_meters":19200,"station_id":"ce4bguh2rcd13ifvqcj0","pricing_plan_id":"cebpf4jnsgd1na2vs0mg"},{"bike_id":"3532d6d3-026b-4ec2-8f89-d1ed6e173ce2","system_id":"levelo_inurba_marseille","lat":43.304606,"lon":5.379026,"is_reserved":false,"is_disabled":false,"rental_uris":{"android":"levelo://app?vid=3532d6d3-026b-4ec2-8f89-d1ed6e173ce2","ios":"levelo://app?vid=3532d6d3-026b-4ec2-8f89-d1ed6e173ce2"},"vehicle_type_id":"4","last_reported":1718118461,"current_range_meters":31200,"station_id":"ce4bgup2rcd13ifvqcn0","pricing_plan_id":"cebpf4jnsgd1na2vs0mg"},{"bike_id":"adf656e5-8485-49d7-9ee9-0c424ac65306","system_id":"levelo_inurba_marseille","lat":43.304606,"lon":5.379026,"is_reserved":false,"is_disabled":false,"rental_uris":{"android":"levelo://app?vid=adf656e5-8485-49d7-9ee9-0c424ac65306","ios":"levelo://app?vid=adf656e5-8485-49d7-9ee9-0c424ac65306"},"vehicle_type_id":"4","last_reported":1718118461,"current_range_meters":29600,"station_id":"ce4bgup2rcd13ifvqcn0","pricing_plan_id":"cebpf4jnsgd1na2vs0mg"},{"bike_id":"35d84037-9666-4e72-980a-25ef622f4332","system_id":"levelo_inurba_marseille","lat":43.304606,"lon":5.379026,"is_reserved":false,"is_disabled":false,"rental_uris":{"android":"levelo://app?vid=35d84037-9666-4e72-980a-25ef622f4332","ios":"levelo://app?vid=35d84037-9666-4e72-980a-25ef622f4332"},"vehicle_type_id":"4","last_reported":1718118461,"current_range_meters":25200,"station_id":"ce4bgup2rcd13ifvqcn0","pricing_plan_id":"cebpf4jnsgd1na2vs0mg"},{"bike_id":"21288301-c061-4647-9ce0-c4472e426d13","system_id":"levelo_inurba_marseille","lat":43.304606,"lon":5.379026,"is_reserved":false,"is_disabled":false,"rental_uris":{"android":"levelo://app?vid=21288301-c061-4647-9ce0-c4472e426d13","ios":"levelo://app?vid=21288301-c061-4647-9ce0-c4472e426d13"},"vehicle_type_id":"4","last_reported":1718118461,"current_range_meters":7600,"station_id":"ce4bgup2rcd13ifvqcn0","pricing_plan_id":"cebpf4jnsgd1na2vs0mg"},{"bike_id":"7d462eb6-8e4b-4b16-8b96-667bd9012a6a","system_id":"levelo_inurba_marseille","lat":43.304606,"lon":5.379026,"is_reserved":false,"is_disabled":false,"rental_uris":{"android":"levelo://app?vid=7d462eb6-8e4b-4b16-8b96-667bd9012a6a","ios":"levelo://app?vid=7d462eb6-8e4b-4b16-8b96-667bd9012a6a"},"vehicle_type_id":"4","last_reported":1718118461,"current_range_meters":5600,"station_id":"ce4bgup2rcd13ifvqcn0","pricing_plan_id":"cebpf4jnsgd1na2vs0mg"},{"bike_id":"4145785d-deca-485b-88e0-d470f1339a8c","system_id":"levelo_inurba_marseille","lat":43.304606,"lon":5.379026,"is_reserved":false,"is_disabled":false,"rental_uris":{"android":"levelo://app?vid=4145785d-deca-485b-88e0-d470f1339a8c","ios":"levelo://app?vid=4145785d-deca-485b-88e0-d470f1339a8c"},"vehicle_type_id":"4","last_reported":1718118461,"current_range_meters":10400,"station_id":"ce4bgup2rcd13ifvqcn0","pricing_plan_id":"cebpf4jnsgd1na2vs0mg"},{"bike_id":"b2d87596-3a38-414c-92e0-6a22d1c9157f","system_id":"levelo_inurba_marseille","lat":43.324771,"lon":5.36557,"is_reserved":false,"is_disabled":false,"rental_uris":{"android":"levelo://app?vid=b2d87596-3a38-414c-92e0-6a22d1c9157f","ios":"levelo://app?vid=b2d87596-3a38-414c-92e0-6a22d1c9157f"},"vehicle_type_id":"4","last_reported":1718118461,"current_range_meters":6000,"station_id":"ce4bhs12rcd13ifvqhvg","pricing_plan_id":"cebpf4jnsgd1na2vs0mg"},{"bike_id":"e35c4a22-086a-48c3-8a1d-50f0fea2aef6","system_id":"levelo_inurba_marseille","lat":43.324771,"lon":5.36557,"is_reserved":false,"is_disabled":false,"rental_uris":{"android":"levelo://app?vid=e35c4a22-086a-48c3-8a1d-50f0fea2aef6","ios":"levelo://app?vid=e35c4a22-086a-48c3-8a1d-50f0fea2aef6"},"vehicle_type_id":"4","last_reported":1718118461,"current_range_meters":17200,"station_id":"ce4bhs12rcd13ifvqhvg","pricing_plan_id":"cebpf4jnsgd1na2vs0mg"},{"bike_id":"c1853828-064f-4edc-aeec-313477ee32c9","system_id":"levelo_inurba_marseille","lat":43.324771,"lon":5.36557,"is_reserved":false,"is_disabled":false,"rental_uris":{"android":"levelo://app?vid=c1853828-064f-4edc-aeec-313477ee32c9","ios":"levelo://app?vid=c1853828-064f-4edc-aeec-313477ee32c9"},"vehicle_type_id":"4","last_reported":1718118461,"current_range_meters":24800,"station_id":"ce4bhs12rcd13ifvqhvg","pricing_plan_id":"cebpf4jnsgd1na2vs0mg"},{"bike_id":"431ee59d-b44e-41c7-822e-3de92bcee481","system_id":"levelo_inurba_marseille","lat":43.324771,"lon":5.36557,"is_reserved":false,"is_disabled":false,"rental_uris":{"android":"levelo://app?vid=431ee59d-b44e-41c7-822e-3de92bcee481","ios":"levelo://app?vid=431ee59d-b44e-41c7-822e-3de92bcee481"},"vehicle_type_id":"4","last_reported":1718118461,"current_range_meters":9600,"station_id":"ce4bhs12rcd13ifvqhvg","pricing_plan_id":"cebpf4jnsgd1na2vs0mg"},{"bike_id":"284fa070-92b9-4aa5-8a8d-0d6012540003","system_id":"levelo_inurba_marseille","lat":43.324771,"lon":5.36557,"is_reserved":false,"is_disabled":false,"rental_uris":{"android":"levelo://app?vid=284fa070-92b9-4aa5-8a8d-0d6012540003","ios":"levelo://app?vid=284fa070-92b9-4aa5-8a8d-0d6012540003"},"vehicle_type_id":"4","last_reported":1718118461,"current_range_meters":11200,"station_id":"ce4bhs12rcd13ifvqhvg","pricing_plan_id":"cebpf4jnsgd1na2vs0mg"},{"bike_id":"5e948987-e62f-4415-833f-3039c8bf58ec","system_id":"levelo_inurba_marseille","lat":43.31428,"lon":5.383485,"is_reserved":false,"is_disabled":false,"rental_uris":{"android":"levelo://app?vid=5e948987-e62f-4415-833f-3039c8bf58ec","ios":"levelo://app?vid=5e948987-e62f-4415-833f-3039c8bf58ec"},"vehicle_type_id":"4","last_reported":1718118461,"current_range_meters":14400,"station_id":"","pricing_plan_id":"cebpf4jnsgd1na2vs0mg"},{"bike_id":"357c9d41-705d-440e-b6e8-851d7e9261a0","system_id":"levelo_inurba_marseille","lat":43.30752,"lon":5.38203,"is_reserved":false,"is_disabled":false,"rental_uris":{"android":"levelo://app?vid=357c9d41-705d-440e-b6e8-851d7e9261a0","ios":"levelo://app?vid=357c9d41-705d-440e-b6e8-851d7e9261a0"},"vehicle_type_id":"4","last_reported":1718118461,"current_range_meters":21600,"station_id":"","pricing_plan_id":"cebpf4jnsgd1na2vs0mg"},{"bike_id":"da7fcf88-8f5e-4d3f-8a60-c63e63c585a9","system_id":"levelo_inurba_marseille","lat":43.310804,"lon":5.38359,"is_reserved":false,"is_disabled":false,"rental_uris":{"android":"levelo://app?vid=da7fcf88-8f5e-4d3f-8a60-c63e63c585a9","ios":"levelo://app?vid=da7fcf88-8f5e-4d3f-8a60-c63e63c585a9"},"vehicle_type_id":"4","last_reported":1718118461,"current_range_meters":22800,"station_id":"ce4bgv92rcd13ifvqcr0","pricing_plan_id":"cebpf4jnsgd1na2vs0mg"},{"bike_id":"f444f805-a1e9-45f8-ade1-e3d918b8a80b","system_id":"levelo_inurba_marseille","lat":43.3107,"lon":5.38356,"is_reserved":false,"is_disabled":false,"rental_uris":{"android":"levelo://app?vid=f444f805-a1e9-45f8-ade1-e3d918b8a80b","ios":"levelo://app?vid=f444f805-a1e9-45f8-ade1-e3d918b8a80b"},"vehicle_type_id":"4","last_reported":1718118461,"current_range_meters":0,"station_id":"ce4bgv92rcd13ifvqcr0","pricing_plan_id":"cebpf4jnsgd1na2vs0mg"},{"bike_id":"9dd2ad87-d370-429d-8450-7e64ef968446","system_id":"levelo_inurba_marseille","lat":43.302772,"lon":5.376914,"is_reserved":false,"is_disabled":false,"rental_uris":{"android":"levelo://app?vid=9dd2ad87-d370-429d-8450-7e64ef968446","ios":"levelo://app?vid=9dd2ad87-d370-429d-8450-7e64ef968446"},"vehicle_type_id":"4","last_reported":1718118461,"current_range_meters":13200,"station_id":"ce4bguh2rcd13ifvqcj0","pricing_plan_id":"cebpf4jnsgd1na2vs0mg"},{"bike_id":"849185de-2435-45aa-92d3-18bb1b7d8520","system_id":"levelo_inurba_marseille","lat":43.302784,"lon":5.377158,"is_reserved":false,"is_disabled":false,"rental_uris":{"android":"levelo://app?vid=849185de-2435-45aa-92d3-18bb1b7d8520","ios":"levelo://app?vid=849185de-2435-45aa-92d3-18bb1b7d8520"},"vehicle_type_id":"4","last_reported":1718118461,"current_range_meters":16400,"station_id":"ce4bguh2rcd13ifvqcj0","pricing_plan_id":"cebpf4jnsgd1na2vs0mg"},{"bike_id":"0abe2dc9-beff-48f5-ab5f-1efb0022b0f2","system_id":"levelo_inurba_marseille","lat":43.302784,"lon":5.377158,"is_reserved":false,"is_disabled":false,"rental_uris":{"android":"levelo://app?vid=0abe2dc9-beff-48f5-ab5f-1efb0022b0f2","ios":"levelo://app?vid=0abe2dc9-beff-48f5-ab5f-1efb0022b0f2"},"vehicle_type_id":"4","last_reported":1718118461,"current_range_meters":15200,"station_id":"ce4bguh2rcd13ifvqcj0","pricing_plan_id":"cebpf4jnsgd1na2vs0mg"},{"bike_id":"da9e5002-c603-4916-a692-4cfa6d3ebc56","system_id":"levelo_inurba_marseille","lat":43.302784,"lon":5.377158,"is_reserved":false,"is_disabled":false,"rental_uris":{"android":"levelo://app?vid=da9e5002-c603-4916-a692-4cfa6d3ebc56","ios":"levelo://app?vid=da9e5002-c603-4916-a692-4cfa6d3ebc56"},"vehicle_type_id":"4","last_reported":1718118461,"current_range_meters":23200,"station_id":"ce4bguh2rcd13ifvqcj0","pricing_plan_id":"cebpf4jnsgd1na2vs0mg"},{"bike_id":"e5c6ee84-9528-4456-9e90-fd77e4171e43","system_id":"levelo_inurba_marseille","lat":43.302784,"lon":5.377158,"is_reserved":false,"is_disabled":false,"rental_uris":{"android":"levelo://app?vid=e5c6ee84-9528-4456-9e90-fd77e4171e43","ios":"levelo://app?vid=e5c6ee84-9528-4456-9e90-fd77e4171e43"},"vehicle_type_id":"4","last_reported":1718118461,"current_range_meters":29200,"station_id":"ce4bguh2rcd13ifvqcj0","pricing_plan_id":"cebpf4jnsgd1na2vs0mg"},{"bike_id":"9fdd46ff-04d4-4113-9d07-0a9967420de0","system_id":"levelo_inurba_marseille","lat":43.302784,"lon":5.377158,"is_reserved":false,"is_disabled":false,"rental_uris":{"android":"levelo://app?vid=9fdd46ff-04d4-4113-9d07-0a9967420de0","ios":"levelo://app?vid=9fdd46ff-04d4-4113-9d07-0a9967420de0"},"vehicle_type_id":"4","last_reported":1718118461,"current_range_meters":31600,"station_id":"ce4bguh2rcd13ifvqcj0","pricing_plan_id":"cebpf4jnsgd1na2vs0mg"},{"bike_id":"413cb01b-844c-429f-9ae1-41bd67e3c053","system_id":"levelo_inurba_marseille","lat":43.302784,"lon":5.377158,"is_reserved":false,"is_disabled":false,"rental_uris":{"android":"levelo://app?vid=413cb01b-844c-429f-9ae1-41bd67e3c053","ios":"levelo://app?vid=413cb01b-844c-429f-9ae1-41bd67e3c053"},"vehicle_type_id":"4","last_reported":1718118461,"current_range_meters":31600,"station_id":"ce4bguh2rcd13ifvqcj0","pricing_plan_id":"cebpf4jnsgd1na2vs0mg"},{"bike_id":"3de01901-2272-4e75-8e05-688344519e1c","system_id":"levelo_inurba_marseille","lat":43.301429,"lon":5.37413,"is_reserved":false,"is_disabled":false,"rental_uris":{"android":"levelo://app?vid=3de01901-2272-4e75-8e05-688344519e1c","ios":"levelo://app?vid=3de01901-2272-4e75-8e05-688344519e1c"},"vehicle_type_id":"4","last_reported":1718118461,"current_range_meters":15200,"station_id":"ce4bgs92rcd13ifvqcc0","pricing_plan_id":"cebpf4jnsgd1na2vs0mg"},{"bike_id":"432890eb-832f-4c32-9310-265c11728d4e","system_id":"levelo_inurba_marseille","lat":43.301429,"lon":5.37413,"is_reserved":false,"is_disabled":false,"rental_uris":{"android":"levelo://app?vid=432890eb-832f-4c32-9310-265c11728d4e","ios":"levelo://app?vid=432890eb-832f-4c32-9310-265c11728d4e"},"vehicle_type_id":"4","last_reported":1718118461,"current_range_meters":7200,"station_id":"ce4bgs92rcd13ifvqcc0","pricing_plan_id":"cebpf4jnsgd1na2vs0mg"},{"bike_id":"a1bb94c9-be55-43fe-97c0-a9ec61d5b850","system_id":"levelo_inurba_marseille","lat":43.301429,"lon":5.37413,"is_reserved":false,"is_disabled":false,"rental_uris":{"android":"levelo://app?vid=a1bb94c9-be55-43fe-97c0-a9ec61d5b850","ios":"levelo://app?vid=a1bb94c9-be55-43fe-97c0-a9ec61d5b850"},"vehicle_type_id":"4","last_reported":1718118461,"current_range_meters":31200,"station_id":"ce4bgs92rcd13ifvqcc0","pricing_plan_id":"cebpf4jnsgd1na2vs0mg"},{"bike_id":"40b14643-0439-4543-96eb-d1d1c728bcec","system_id":"levelo_inurba_marseille","lat":43.302784,"lon":5.377158,"is_reserved":false,"is_disabled":false,"rental_uris":{"android":"levelo://app?vid=40b14643-0439-4543-96eb-d1d1c728bcec","ios":"levelo://app?vid=40b14643-0439-4543-96eb-d1d1c728bcec"},"vehicle_type_id":"4","last_reported":1718118461,"current_range_meters":26800,"station_id":"ce4bguh2rcd13ifvqcj0","pricing_plan_id":"cebpf4jnsgd1na2vs0mg"},{"bike_id":"b7cbd2f3-a864-454b-a15b-44e57122e161","system_id":"levelo_inurba_marseille","lat":43.30143,"lon":5.37413,"is_reserved":false,"is_disabled":false,"rental_uris":{"android":"levelo://app?vid=b7cbd2f3-a864-454b-a15b-44e57122e161","ios":"levelo://app?vid=b7cbd2f3-a864-454b-a15b-44e57122e161"},"vehicle_type_id":"4","last_reported":1718118461,"current_range_meters":30800,"station_id":"ce4bgs92rcd13ifvqcc0","pricing_plan_id":"cebpf4jnsgd1na2vs0mg"},{"bike_id":"6f1780a2-0ecb-4203-8721-84e2c3074fa5","system_id":"levelo_inurba_marseille","lat":43.30143,"lon":5.37413,"is_reserved":false,"is_disabled":false,"rental_uris":{"android":"levelo://app?vid=6f1780a2-0ecb-4203-8721-84e2c3074fa5","ios":"levelo://app?vid=6f1780a2-0ecb-4203-8721-84e2c3074fa5"},"vehicle_type_id":"4","last_reported":1718118461,"current_range_meters":31200,"station_id":"ce4bgs92rcd13ifvqcc0","pricing_plan_id":"cebpf4jnsgd1na2vs0mg"},{"bike_id":"49f03e42-2ebb-4436-a44a-92255e97ec28","system_id":"levelo_inurba_marseille","lat":43.301429,"lon":5.37413,"is_reserved":false,"is_disabled":false,"rental_uris":{"android":"levelo://app?vid=49f03e42-2ebb-4436-a44a-92255e97ec28","ios":"levelo://app?vid=49f03e42-2ebb-4436-a44a-92255e97ec28"},"vehicle_type_id":"4","last_reported":1718118461,"current_range_meters":30800,"station_id":"ce4bgs92rcd13ifvqcc0","pricing_plan_id":"cebpf4jnsgd1na2vs0mg"},{"bike_id":"e80d74aa-9625-4730-8f58-2b62fd2d3e48","system_id":"levelo_inurba_marseille","lat":43.319935,"lon":5.381699,"is_reserved":false,"is_disabled":false,"rental_uris":{"android":"levelo://app?vid=e80d74aa-9625-4730-8f58-2b62fd2d3e48","ios":"levelo://app?vid=e80d74aa-9625-4730-8f58-2b62fd2d3e48"},"vehicle_type_id":"4","last_reported":1718118461,"current_range_meters":4400,"station_id":"ce4bhr12rcd13ifvqhpg","pricing_plan_id":"cebpf4jnsgd1na2vs0mg"},{"bike_id":"2adb52f1-00a8-4c8c-b2b8-135b2c2080df","system_id":"levelo_inurba_marseille","lat":43.319935,"lon":5.381699,"is_reserved":false,"is_disabled":false,"rental_uris":{"android":"levelo://app?vid=2adb52f1-00a8-4c8c-b2b8-135b2c2080df","ios":"levelo://app?vid=2adb52f1-00a8-4c8c-b2b8-135b2c2080df"},"vehicle_type_id":"4","last_reported":1718118461,"current_range_meters":21200,"station_id":"ce4bhr12rcd13ifvqhpg","pricing_plan_id":"cebpf4jnsgd1na2vs0mg"},{"bike_id":"9c3aa8cd-6f84-4bb5-9873-89346dc5b064","system_id":"levelo_inurba_marseille","lat":43.319935,"lon":5.381699,"is_reserved":false,"is_disabled":false,"rental_uris":{"android":"levelo://app?vid=9c3aa8cd-6f84-4bb5-9873-89346dc5b064","ios":"levelo://app?vid=9c3aa8cd-6f84-4bb5-9873-89346dc5b064"},"vehicle_type_id":"4","last_reported":1718118461,"current_range_meters":5600,"station_id":"ce4bhr12rcd13ifvqhpg","pricing_plan_id":"cebpf4jnsgd1na2vs0mg"},{"bike_id":"c8085b45-732d-4290-bf70-fc80e2e20ec6","system_id":"levelo_inurba_marseille","lat":43.32002,"lon":5.381597,"is_reserved":false,"is_disabled":false,"rental_uris":{"android":"levelo://app?vid=c8085b45-732d-4290-bf70-fc80e2e20ec6","ios":"levelo://app?vid=c8085b45-732d-4290-bf70-fc80e2e20ec6"},"vehicle_type_id":"4","last_reported":1718118461,"current_range_meters":400,"station_id":"ce4bhr12rcd13ifvqhpg","pricing_plan_id":"cebpf4jnsgd1na2vs0mg"},{"bike_id":"b90aabba-54a4-4893-968e-923dce1ad80a","system_id":"levelo_inurba_marseille","lat":43.319935,"lon":5.381699,"is_reserved":false,"is_disabled":false,"rental_uris":{"android":"levelo://app?vid=b90aabba-54a4-4893-968e-923dce1ad80a","ios":"levelo://app?vid=b90aabba-54a4-4893-968e-923dce1ad80a"},"vehicle_type_id":"4","last_reported":1718118461,"current_range_meters":14400,"station_id":"ce4bhr12rcd13ifvqhpg","pricing_plan_id":"cebpf4jnsgd1na2vs0mg"},{"bike_id":"6e8456ee-cb06-44ec-adc4-c164465c4e85","system_id":"levelo_inurba_marseille","lat":43.313571,"lon":5.384829,"is_reserved":false,"is_disabled":false,"rental_uris":{"android":"levelo://app?vid=6e8456ee-cb06-44ec-adc4-c164465c4e85","ios":"levelo://app?vid=6e8456ee-cb06-44ec-adc4-c164465c4e85"},"vehicle_type_id":"4","last_reported":1718118461,"current_range_meters":29600,"station_id":"ce4bgt92rcd13ifvqcf0","pricing_plan_id":"cebpf4jnsgd1na2vs0mg"},{"bike_id":"241f5247-e463-430e-8b7d-68e35352d9b0","system_id":"levelo_inurba_marseille","lat":43.299222,"lon":5.365554,"is_reserved":false,"is_disabled":false,"rental_uris":{"android":"levelo://app?vid=241f5247-e463-430e-8b7d-68e35352d9b0","ios":"levelo://app?vid=241f5247-e463-430e-8b7d-68e35352d9b0"},"vehicle_type_id":"4","last_reported":1718118461,"current_range_meters":18400,"station_id":"ce4bgm92rcd13ifvqbr0","pricing_plan_id":"cebpf4jnsgd1na2vs0mg"},{"bike_id":"603725f1-328b-47ae-8378-73f74e8f5aea","system_id":"levelo_inurba_marseille","lat":43.299222,"lon":5.365554,"is_reserved":false,"is_disabled":false,"rental_uris":{"android":"levelo://app?vid=603725f1-328b-47ae-8378-73f74e8f5aea","ios":"levelo://app?vid=603725f1-328b-47ae-8378-73f74e8f5aea"},"vehicle_type_id":"4","last_reported":1718118461,"current_range_meters":28000,"station_id":"ce4bgm92rcd13ifvqbr0","pricing_plan_id":"cebpf4jnsgd1na2vs0mg"},{"bike_id":"f178dbf6-f837-4385-bca5-802b9954fe9b","system_id":"levelo_inurba_marseille","lat":43.299222,"lon":5.365554,"is_reserved":false,"is_disabled":false,"rental_uris":{"android":"levelo://app?vid=f178dbf6-f837-4385-bca5-802b9954fe9b","ios":"levelo://app?vid=f178dbf6-f837-4385-bca5-802b9954fe9b"},"vehicle_type_id":"4","last_reported":1718118461,"current_range_meters":14400,"station_id":"ce4bgm92rcd13ifvqbr0","pricing_plan_id":"cebpf4jnsgd1na2vs0mg"},{"bike_id":"3b43a67c-ba49-47d0-bf76-faacba158718","system_id":"levelo_inurba_marseille","lat":43.299222,"lon":5.365554,"is_reserved":false,"is_disabled":false,"rental_uris":{"android":"levelo://app?vid=3b43a67c-ba49-47d0-bf76-faacba158718","ios":"levelo://app?vid=3b43a67c-ba49-47d0-bf76-faacba158718"},"vehicle_type_id":"4","last_reported":1718118461,"current_range_meters":24800,"station_id":"ce4bgm92rcd13ifvqbr0","pricing_plan_id":"cebpf4jnsgd1na2vs0mg"},{"bike_id":"ca91e260-bf3c-44a0-af2a-e66d14952df4","system_id":"levelo_inurba_marseille","lat":43.299222,"lon":5.365554,"is_reserved":false,"is_disabled":false,"rental_uris":{"android":"levelo://app?vid=ca91e260-bf3c-44a0-af2a-e66d14952df4","ios":"levelo://app?vid=ca91e260-bf3c-44a0-af2a-e66d14952df4"},"vehicle_type_id":"4","last_reported":1718118461,"current_range_meters":0,"station_id":"ce4bgm92rcd13ifvqbr0","pricing_plan_id":"cebpf4jnsgd1na2vs0mg"},{"bike_id":"8c0535bb-42e6-4a08-a7ad-bec4bbe997fc","system_id":"levelo_inurba_marseille","lat":43.299222,"lon":5.365554,"is_reserved":false,"is_disabled":false,"rental_uris":{"android":"levelo://app?vid=8c0535bb-42e6-4a08-a7ad-bec4bbe997fc","ios":"levelo://app?vid=8c0535bb-42e6-4a08-a7ad-bec4bbe997fc"},"vehicle_type_id":"4","last_reported":1718118461,"current_range_meters":31200,"station_id":"ce4bgm92rcd13ifvqbr0","pricing_plan_id":"cebpf4jnsgd1na2vs0mg"},{"bike_id":"6c806d6d-1433-4024-b5f6-872d317b5cb8","system_id":"levelo_inurba_marseille","lat":43.29941,"lon":5.36552,"is_reserved":false,"is_disabled":false,"rental_uris":{"android":"levelo://app?vid=6c806d6d-1433-4024-b5f6-872d317b5cb8","ios":"levelo://app?vid=6c806d6d-1433-4024-b5f6-872d317b5cb8"},"vehicle_type_id":"4","last_reported":1718118461,"current_range_meters":11200,"station_id":"ce4bgm92rcd13ifvqbr0","pricing_plan_id":"cebpf4jnsgd1na2vs0mg"},{"bike_id":"a5a068cd-6b93-4795-9ff4-8005ad54a691","system_id":"levelo_inurba_marseille","lat":43.299724,"lon":5.371829,"is_reserved":false,"is_disabled":false,"rental_uris":{"android":"levelo://app?vid=a5a068cd-6b93-4795-9ff4-8005ad54a691","ios":"levelo://app?vid=a5a068cd-6b93-4795-9ff4-8005ad54a691"},"vehicle_type_id":"4","last_reported":1718118461,"current_range_meters":22000,"station_id":"ce4bgr92rcd13ifvqc7g","pricing_plan_id":"cebpf4jnsgd1na2vs0mg"},{"bike_id":"e0437f7c-5b22-4e87-b6b6-aaf919ef7393","system_id":"levelo_inurba_marseille","lat":43.299222,"lon":5.365554,"is_reserved":false,"is_disabled":false,"rental_uris":{"android":"levelo://app?vid=e0437f7c-5b22-4e87-b6b6-aaf919ef7393","ios":"levelo://app?vid=e0437f7c-5b22-4e87-b6b6-aaf919ef7393"},"vehicle_type_id":"4","last_reported":1718118461,"current_range_meters":18800,"station_id":"ce4bgm92rcd13ifvqbr0","pricing_plan_id":"cebpf4jnsgd1na2vs0mg"},{"bike_id":"b35fb3bd-ecb5-4089-8157-5e39c451e3f9","system_id":"levelo_inurba_marseille","lat":43.299222,"lon":5.365554,"is_reserved":false,"is_disabled":false,"rental_uris":{"android":"levelo://app?vid=b35fb3bd-ecb5-4089-8157-5e39c451e3f9","ios":"levelo://app?vid=b35fb3bd-ecb5-4089-8157-5e39c451e3f9"},"vehicle_type_id":"4","last_reported":1718118461,"current_range_meters":22400,"station_id":"ce4bgm92rcd13ifvqbr0","pricing_plan_id":"cebpf4jnsgd1na2vs0mg"},{"bike_id":"26a0a6de-13e1-4c4e-ad90-09590ead3885","system_id":"levelo_inurba_marseille","lat":43.299222,"lon":5.365554,"is_reserved":false,"is_disabled":false,"rental_uris":{"android":"levelo://app?vid=26a0a6de-13e1-4c4e-ad90-09590ead3885","ios":"levelo://app?vid=26a0a6de-13e1-4c4e-ad90-09590ead3885"},"vehicle_type_id":"4","last_reported":1718118461,"current_range_meters":4400,"station_id":"ce4bgm92rcd13ifvqbr0","pricing_plan_id":"cebpf4jnsgd1na2vs0mg"},{"bike_id":"581c6c2d-2de7-4140-b16f-1fa6c77a7f05","system_id":"levelo_inurba_marseille","lat":43.299222,"lon":5.365554,"is_reserved":false,"is_disabled":false,"rental_uris":{"android":"levelo://app?vid=581c6c2d-2de7-4140-b16f-1fa6c77a7f05","ios":"levelo://app?vid=581c6c2d-2de7-4140-b16f-1fa6c77a7f05"},"vehicle_type_id":"4","last_reported":1718118461,"current_range_meters":12800,"station_id":"ce4bgm92rcd13ifvqbr0","pricing_plan_id":"cebpf4jnsgd1na2vs0mg"},{"bike_id":"b4aee3c1-889a-45f5-a601-17c566ac8679","system_id":"levelo_inurba_marseille","lat":43.301429,"lon":5.37413,"is_reserved":false,"is_disabled":false,"rental_uris":{"android":"levelo://app?vid=b4aee3c1-889a-45f5-a601-17c566ac8679","ios":"levelo://app?vid=b4aee3c1-889a-45f5-a601-17c566ac8679"},"vehicle_type_id":"4","last_reported":1718118461,"current_range_meters":6800,"station_id":"ce4bgs92rcd13ifvqcc0","pricing_plan_id":"cebpf4jnsgd1na2vs0mg"},{"bike_id":"d5d81e64-82ca-47b2-97da-0f81d907dbab","system_id":"levelo_inurba_marseille","lat":43.299222,"lon":5.365554,"is_reserved":false,"is_disabled":false,"rental_uris":{"android":"levelo://app?vid=d5d81e64-82ca-47b2-97da-0f81d907dbab","ios":"levelo://app?vid=d5d81e64-82ca-47b2-97da-0f81d907dbab"},"vehicle_type_id":"4","last_reported":1718118461,"current_range_meters":27600,"station_id":"ce4bgm92rcd13ifvqbr0","pricing_plan_id":"cebpf4jnsgd1na2vs0mg"},{"bike_id":"64b13bc4-c010-46a6-9dbe-fd1453421108","system_id":"levelo_inurba_marseille","lat":43.299222,"lon":5.365554,"is_reserved":false,"is_disabled":false,"rental_uris":{"android":"levelo://app?vid=64b13bc4-c010-46a6-9dbe-fd1453421108","ios":"levelo://app?vid=64b13bc4-c010-46a6-9dbe-fd1453421108"},"vehicle_type_id":"4","last_reported":1718118461,"current_range_meters":16400,"station_id":"ce4bgm92rcd13ifvqbr0","pricing_plan_id":"cebpf4jnsgd1na2vs0mg"},{"bike_id":"0f0306f3-4874-46cc-849d-5607fe1dbeab","system_id":"levelo_inurba_marseille","lat":43.293009,"lon":5.374584,"is_reserved":false,"is_disabled":false,"rental_uris":{"android":"levelo://app?vid=0f0306f3-4874-46cc-849d-5607fe1dbeab","ios":"levelo://app?vid=0f0306f3-4874-46cc-849d-5607fe1dbeab"},"vehicle_type_id":"4","last_reported":1718118461,"current_range_meters":24000,"station_id":"ce4bgi12rcd13ifvqb70","pricing_plan_id":"cebpf4jnsgd1na2vs0mg"},{"bike_id":"590e22d1-3739-4540-a22e-9af5027c71f9","system_id":"levelo_inurba_marseille","lat":43.299222,"lon":5.365554,"is_reserved":false,"is_disabled":false,"rental_uris":{"android":"levelo://app?vid=590e22d1-3739-4540-a22e-9af5027c71f9","ios":"levelo://app?vid=590e22d1-3739-4540-a22e-9af5027c71f9"},"vehicle_type_id":"4","last_reported":1718118461,"current_range_meters":4000,"station_id":"ce4bgm92rcd13ifvqbr0","pricing_plan_id":"cebpf4jnsgd1na2vs0mg"},{"bike_id":"198462f2-ba3f-4a97-ae53-df979abf8460","system_id":"levelo_inurba_marseille","lat":43.299222,"lon":5.365554,"is_reserved":false,"is_disabled":false,"rental_uris":{"android":"levelo://app?vid=198462f2-ba3f-4a97-ae53-df979abf8460","ios":"levelo://app?vid=198462f2-ba3f-4a97-ae53-df979abf8460"},"vehicle_type_id":"4","last_reported":1718118461,"current_range_meters":27200,"station_id":"ce4bgm92rcd13ifvqbr0","pricing_plan_id":"cebpf4jnsgd1na2vs0mg"},{"bike_id":"63a6bf20-6c85-46c9-9b6f-8a1a2261c2b5","system_id":"levelo_inurba_marseille","lat":43.29939,"lon":5.37137,"is_reserved":false,"is_disabled":false,"rental_uris":{"android":"levelo://app?vid=63a6bf20-6c85-46c9-9b6f-8a1a2261c2b5","ios":"levelo://app?vid=63a6bf20-6c85-46c9-9b6f-8a1a2261c2b5"},"vehicle_type_id":"4","last_reported":1718118461,"current_range_meters":400,"station_id":"","pricing_plan_id":"cebpf4jnsgd1na2vs0mg"},{"bike_id":"ea9f5b0c-76f0-494f-b62e-a907f687801b","system_id":"levelo_inurba_marseille","lat":43.322872,"lon":5.382756,"is_reserved":false,"is_disabled":false,"rental_uris":{"android":"levelo://app?vid=ea9f5b0c-76f0-494f-b62e-a907f687801b","ios":"levelo://app?vid=ea9f5b0c-76f0-494f-b62e-a907f687801b"},"vehicle_type_id":"4","last_reported":1718118461,"current_range_meters":24400,"station_id":"ce4bhr12rcd13ifvqhqg","pricing_plan_id":"cebpf4jnsgd1na2vs0mg"},{"bike_id":"0b1248ce-436a-4848-b9f6-efc064fccedb","system_id":"levelo_inurba_marseille","lat":43.29852,"lon":5.36287,"is_reserved":false,"is_disabled":false,"rental_uris":{"android":"levelo://app?vid=0b1248ce-436a-4848-b9f6-efc064fccedb","ios":"levelo://app?vid=0b1248ce-436a-4848-b9f6-efc064fccedb"},"vehicle_type_id":"4","last_reported":1718118461,"current_range_meters":19600,"station_id":"ce4bgpp2rcd13ifvqc3g","pricing_plan_id":"cebpf4jnsgd1na2vs0mg"},{"bike_id":"2fe1ffe3-24c6-48d0-9240-d1f6d1ad6dca","system_id":"levelo_inurba_marseille","lat":43.298433,"lon":5.362774,"is_reserved":false,"is_disabled":false,"rental_uris":{"android":"levelo://app?vid=2fe1ffe3-24c6-48d0-9240-d1f6d1ad6dca","ios":"levelo://app?vid=2fe1ffe3-24c6-48d0-9240-d1f6d1ad6dca"},"vehicle_type_id":"4","last_reported":1718118461,"current_range_meters":12000,"station_id":"ce4bgpp2rcd13ifvqc3g","pricing_plan_id":"cebpf4jnsgd1na2vs0mg"},{"bike_id":"1ac7bc3a-13d9-4783-8a1c-833d3f26bd2b","system_id":"levelo_inurba_marseille","lat":43.298433,"lon":5.362774,"is_reserved":false,"is_disabled":false,"rental_uris":{"android":"levelo://app?vid=1ac7bc3a-13d9-4783-8a1c-833d3f26bd2b","ios":"levelo://app?vid=1ac7bc3a-13d9-4783-8a1c-833d3f26bd2b"},"vehicle_type_id":"4","last_reported":1718118461,"current_range_meters":26800,"station_id":"ce4bgpp2rcd13ifvqc3g","pricing_plan_id":"cebpf4jnsgd1na2vs0mg"},{"bike_id":"0159dce7-e3c7-44a8-bca9-f88b4a1a92b6","system_id":"levelo_inurba_marseille","lat":43.298433,"lon":5.362774,"is_reserved":false,"is_disabled":false,"rental_uris":{"android":"levelo://app?vid=0159dce7-e3c7-44a8-bca9-f88b4a1a92b6","ios":"levelo://app?vid=0159dce7-e3c7-44a8-bca9-f88b4a1a92b6"},"vehicle_type_id":"4","last_reported":1718118461,"current_range_meters":30400,"station_id":"ce4bgpp2rcd13ifvqc3g","pricing_plan_id":"cebpf4jnsgd1na2vs0mg"},{"bike_id":"01ca70b6-4e2c-42cb-9aed-a8b80d5ea29c","system_id":"levelo_inurba_marseille","lat":43.30518,"lon":5.38434,"is_reserved":false,"is_disabled":false,"rental_uris":{"android":"levelo://app?vid=01ca70b6-4e2c-42cb-9aed-a8b80d5ea29c","ios":"levelo://app?vid=01ca70b6-4e2c-42cb-9aed-a8b80d5ea29c"},"vehicle_type_id":"4","last_reported":1718118461,"current_range_meters":7200,"station_id":"ce4bgg92rcd13ifvqb30","pricing_plan_id":"cebpf4jnsgd1na2vs0mg"},{"bike_id":"44633568-3934-497b-8674-62af8ef7d3fb","system_id":"levelo_inurba_marseille","lat":43.30733,"lon":5.38594,"is_reserved":false,"is_disabled":false,"rental_uris":{"android":"levelo://app?vid=44633568-3934-497b-8674-62af8ef7d3fb","ios":"levelo://app?vid=44633568-3934-497b-8674-62af8ef7d3fb"},"vehicle_type_id":"4","last_reported":1718118461,"current_range_meters":18800,"station_id":"","pricing_plan_id":"cebpf4jnsgd1na2vs0mg"},{"bike_id":"eaa2c7f2-f09f-4a3d-9dcc-575eff0b5795","system_id":"levelo_inurba_marseille","lat":43.305364,"lon":5.384119,"is_reserved":false,"is_disabled":false,"rental_uris":{"android":"levelo://app?vid=eaa2c7f2-f09f-4a3d-9dcc-575eff0b5795","ios":"levelo://app?vid=eaa2c7f2-f09f-4a3d-9dcc-575eff0b5795"},"vehicle_type_id":"4","last_reported":1718118461,"current_range_meters":7600,"station_id":"ce4bgg92rcd13ifvqb30","pricing_plan_id":"cebpf4jnsgd1na2vs0mg"},{"bike_id":"63020ca3-8dd4-4e47-adc3-6f1b86a02e0f","system_id":"levelo_inurba_marseille","lat":43.29784,"lon":5.37121,"is_reserved":false,"is_disabled":false,"rental_uris":{"android":"levelo://app?vid=63020ca3-8dd4-4e47-adc3-6f1b86a02e0f","ios":"levelo://app?vid=63020ca3-8dd4-4e47-adc3-6f1b86a02e0f"},"vehicle_type_id":"4","last_reported":1718118461,"current_range_meters":11600,"station_id":"ce4bgop2rcd13ifvqc1g","pricing_plan_id":"cebpf4jnsgd1na2vs0mg"},{"bike_id":"c6755eda-a5ae-4cba-a0fa-ab2c7fb9d475","system_id":"levelo_inurba_marseille","lat":43.297774,"lon":5.370875,"is_reserved":false,"is_disabled":false,"rental_uris":{"android":"levelo://app?vid=c6755eda-a5ae-4cba-a0fa-ab2c7fb9d475","ios":"levelo://app?vid=c6755eda-a5ae-4cba-a0fa-ab2c7fb9d475"},"vehicle_type_id":"4","last_reported":1718118461,"current_range_meters":19600,"station_id":"ce4bgop2rcd13ifvqc1g","pricing_plan_id":"cebpf4jnsgd1na2vs0mg"},{"bike_id":"b192a8f4-3414-44a4-87a2-3f5c8a31a626","system_id":"levelo_inurba_marseille","lat":43.322872,"lon":5.382756,"is_reserved":false,"is_disabled":false,"rental_uris":{"android":"levelo://app?vid=b192a8f4-3414-44a4-87a2-3f5c8a31a626","ios":"levelo://app?vid=b192a8f4-3414-44a4-87a2-3f5c8a31a626"},"vehicle_type_id":"4","last_reported":1718118461,"current_range_meters":7200,"station_id":"ce4bhr12rcd13ifvqhqg","pricing_plan_id":"cebpf4jnsgd1na2vs0mg"},{"bike_id":"cfdab9f5-7095-4393-9c71-ace7c6a4be72","system_id":"levelo_inurba_marseille","lat":43.297794,"lon":5.370888,"is_reserved":false,"is_disabled":false,"rental_uris":{"android":"levelo://app?vid=cfdab9f5-7095-4393-9c71-ace7c6a4be72","ios":"levelo://app?vid=cfdab9f5-7095-4393-9c71-ace7c6a4be72"},"vehicle_type_id":"4","last_reported":1718118461,"current_range_meters":13200,"station_id":"ce4bgop2rcd13ifvqc1g","pricing_plan_id":"cebpf4jnsgd1na2vs0mg"},{"bike_id":"3e3c0b86-03c3-48a4-b7af-1c4cb5e19fec","system_id":"levelo_inurba_marseille","lat":43.298667,"lon":5.376595,"is_reserved":false,"is_disabled":false,"rental_uris":{"android":"levelo://app?vid=3e3c0b86-03c3-48a4-b7af-1c4cb5e19fec","ios":"levelo://app?vid=3e3c0b86-03c3-48a4-b7af-1c4cb5e19fec"},"vehicle_type_id":"4","last_reported":1718118461,"current_range_meters":30400,"station_id":"","pricing_plan_id":"cebpf4jnsgd1na2vs0mg"},{"bike_id":"cade87ae-3a10-4080-a7cd-1361a61142d9","system_id":"levelo_inurba_marseille","lat":43.2968,"lon":5.37291,"is_reserved":false,"is_disabled":false,"rental_uris":{"android":"levelo://app?vid=cade87ae-3a10-4080-a7cd-1361a61142d9","ios":"levelo://app?vid=cade87ae-3a10-4080-a7cd-1361a61142d9"},"vehicle_type_id":"4","last_reported":1718118461,"current_range_meters":18000,"station_id":"ce4bgk12rcd13ifvqbj0","pricing_plan_id":"cebpf4jnsgd1na2vs0mg"},{"bike_id":"740fdb58-13b1-4f6f-af25-614003ddfc2f","system_id":"levelo_inurba_marseille","lat":43.2968,"lon":5.37291,"is_reserved":false,"is_disabled":false,"rental_uris":{"android":"levelo://app?vid=740fdb58-13b1-4f6f-af25-614003ddfc2f","ios":"levelo://app?vid=740fdb58-13b1-4f6f-af25-614003ddfc2f"},"vehicle_type_id":"4","last_reported":1718118461,"current_range_meters":31600,"station_id":"ce4bgk12rcd13ifvqbj0","pricing_plan_id":"cebpf4jnsgd1na2vs0mg"},{"bike_id":"8e03349e-e84c-4472-8821-8497eda38d0f","system_id":"levelo_inurba_marseille","lat":43.296129,"lon":5.370777,"is_reserved":false,"is_disabled":false,"rental_uris":{"android":"levelo://app?vid=8e03349e-e84c-4472-8821-8497eda38d0f","ios":"levelo://app?vid=8e03349e-e84c-4472-8821-8497eda38d0f"},"vehicle_type_id":"4","last_reported":1718118461,"current_range_meters":28800,"station_id":"ce4bgnh2rcd13ifvqc0g","pricing_plan_id":"cebpf4jnsgd1na2vs0mg"},{"bike_id":"1ee6de66-f95e-48b8-a1a7-96fc54f827a3","system_id":"levelo_inurba_marseille","lat":43.296131,"lon":5.370791,"is_reserved":false,"is_disabled":false,"rental_uris":{"android":"levelo://app?vid=1ee6de66-f95e-48b8-a1a7-96fc54f827a3","ios":"levelo://app?vid=1ee6de66-f95e-48b8-a1a7-96fc54f827a3"},"vehicle_type_id":"4","last_reported":1718118461,"current_range_meters":11200,"station_id":"ce4bgnh2rcd13ifvqc0g","pricing_plan_id":"cebpf4jnsgd1na2vs0mg"},{"bike_id":"824c9c22-920f-47f3-8daf-474f20e389d9","system_id":"levelo_inurba_marseille","lat":43.29573,"lon":5.367355,"is_reserved":false,"is_disabled":false,"rental_uris":{"android":"levelo://app?vid=824c9c22-920f-47f3-8daf-474f20e389d9","ios":"levelo://app?vid=824c9c22-920f-47f3-8daf-474f20e389d9"},"vehicle_type_id":"4","last_reported":1718118461,"current_range_meters":31200,"station_id":"ce4bgph2rcd13ifvqc2g","pricing_plan_id":"cebpf4jnsgd1na2vs0mg"},{"bike_id":"f2450483-661f-48c6-af9e-73674f274c4d","system_id":"levelo_inurba_marseille","lat":43.296131,"lon":5.370773,"is_reserved":false,"is_disabled":false,"rental_uris":{"android":"levelo://app?vid=f2450483-661f-48c6-af9e-73674f274c4d","ios":"levelo://app?vid=f2450483-661f-48c6-af9e-73674f274c4d"},"vehicle_type_id":"4","last_reported":1718118461,"current_range_meters":1200,"station_id":"ce4bgnh2rcd13ifvqc0g","pricing_plan_id":"cebpf4jnsgd1na2vs0mg"},{"bike_id":"d45ef34e-9315-462f-a993-ed77041b657e","system_id":"levelo_inurba_marseille","lat":43.29573,"lon":5.367355,"is_reserved":false,"is_disabled":false,"rental_uris":{"android":"levelo://app?vid=d45ef34e-9315-462f-a993-ed77041b657e","ios":"levelo://app?vid=d45ef34e-9315-462f-a993-ed77041b657e"},"vehicle_type_id":"4","last_reported":1718118461,"current_range_meters":12000,"station_id":"ce4bgph2rcd13ifvqc2g","pricing_plan_id":"cebpf4jnsgd1na2vs0mg"},{"bike_id":"ba4d7f65-08fe-4d3b-bbfa-994726aa433f","system_id":"levelo_inurba_marseille","lat":43.29573,"lon":5.367355,"is_reserved":false,"is_disabled":false,"rental_uris":{"android":"levelo://app?vid=ba4d7f65-08fe-4d3b-bbfa-994726aa433f","ios":"levelo://app?vid=ba4d7f65-08fe-4d3b-bbfa-994726aa433f"},"vehicle_type_id":"4","last_reported":1718118461,"current_range_meters":31200,"station_id":"ce4bgph2rcd13ifvqc2g","pricing_plan_id":"cebpf4jnsgd1na2vs0mg"},{"bike_id":"64286fd6-68d8-4114-9df2-99fabcf018cf","system_id":"levelo_inurba_marseille","lat":43.296258,"lon":5.371912,"is_reserved":false,"is_disabled":false,"rental_uris":{"android":"levelo://app?vid=64286fd6-68d8-4114-9df2-99fabcf018cf","ios":"levelo://app?vid=64286fd6-68d8-4114-9df2-99fabcf018cf"},"vehicle_type_id":"4","last_reported":1718118461,"current_range_meters":21200,"station_id":"ce4bgnh2rcd13ifvqc0g","pricing_plan_id":"cebpf4jnsgd1na2vs0mg"},{"bike_id":"880b62d9-b78b-4825-afb2-edd21f8ded5b","system_id":"levelo_inurba_marseille","lat":43.296131,"lon":5.370791,"is_reserved":false,"is_disabled":false,"rental_uris":{"android":"levelo://app?vid=880b62d9-b78b-4825-afb2-edd21f8ded5b","ios":"levelo://app?vid=880b62d9-b78b-4825-afb2-edd21f8ded5b"},"vehicle_type_id":"4","last_reported":1718118461,"current_range_meters":0,"station_id":"ce4bgnh2rcd13ifvqc0g","pricing_plan_id":"cebpf4jnsgd1na2vs0mg"},{"bike_id":"c531284c-f282-4403-be4f-3d46cad0f738","system_id":"levelo_inurba_marseille","lat":43.29573,"lon":5.367355,"is_reserved":false,"is_disabled":false,"rental_uris":{"android":"levelo://app?vid=c531284c-f282-4403-be4f-3d46cad0f738","ios":"levelo://app?vid=c531284c-f282-4403-be4f-3d46cad0f738"},"vehicle_type_id":"4","last_reported":1718118461,"current_range_meters":22000,"station_id":"ce4bgph2rcd13ifvqc2g","pricing_plan_id":"cebpf4jnsgd1na2vs0mg"},{"bike_id":"1dae26e5-921c-4886-93a3-e12e9b986bea","system_id":"levelo_inurba_marseille","lat":43.305364,"lon":5.384119,"is_reserved":false,"is_disabled":false,"rental_uris":{"android":"levelo://app?vid=1dae26e5-921c-4886-93a3-e12e9b986bea","ios":"levelo://app?vid=1dae26e5-921c-4886-93a3-e12e9b986bea"},"vehicle_type_id":"4","last_reported":1718118461,"current_range_meters":18800,"station_id":"ce4bgg92rcd13ifvqb30","pricing_plan_id":"cebpf4jnsgd1na2vs0mg"},{"bike_id":"6d36f1f8-5990-40ab-8e5e-5dc17bac449b","system_id":"levelo_inurba_marseille","lat":43.296129,"lon":5.370777,"is_reserved":false,"is_disabled":false,"rental_uris":{"android":"levelo://app?vid=6d36f1f8-5990-40ab-8e5e-5dc17bac449b","ios":"levelo://app?vid=6d36f1f8-5990-40ab-8e5e-5dc17bac449b"},"vehicle_type_id":"4","last_reported":1718118461,"current_range_meters":13200,"station_id":"ce4bgnh2rcd13ifvqc0g","pricing_plan_id":"cebpf4jnsgd1na2vs0mg"},{"bike_id":"d3d7beda-cc5f-437c-9e16-19c122f1730c","system_id":"levelo_inurba_marseille","lat":43.296131,"lon":5.370791,"is_reserved":false,"is_disabled":false,"rental_uris":{"android":"levelo://app?vid=d3d7beda-cc5f-437c-9e16-19c122f1730c","ios":"levelo://app?vid=d3d7beda-cc5f-437c-9e16-19c122f1730c"},"vehicle_type_id":"4","last_reported":1718118461,"current_range_meters":26800,"station_id":"ce4bgnh2rcd13ifvqc0g","pricing_plan_id":"cebpf4jnsgd1na2vs0mg"},{"bike_id":"a2e237b4-f37d-40fc-a1aa-f18161d781b3","system_id":"levelo_inurba_marseille","lat":43.296131,"lon":5.370773,"is_reserved":false,"is_disabled":false,"rental_uris":{"android":"levelo://app?vid=a2e237b4-f37d-40fc-a1aa-f18161d781b3","ios":"levelo://app?vid=a2e237b4-f37d-40fc-a1aa-f18161d781b3"},"vehicle_type_id":"4","last_reported":1718118461,"current_range_meters":2800,"station_id":"ce4bgnh2rcd13ifvqc0g","pricing_plan_id":"cebpf4jnsgd1na2vs0mg"},{"bike_id":"b8c38600-0a46-49f9-a876-e4bee60735ad","system_id":"levelo_inurba_marseille","lat":43.296131,"lon":5.370773,"is_reserved":false,"is_disabled":false,"rental_uris":{"android":"levelo://app?vid=b8c38600-0a46-49f9-a876-e4bee60735ad","ios":"levelo://app?vid=b8c38600-0a46-49f9-a876-e4bee60735ad"},"vehicle_type_id":"4","last_reported":1718118461,"current_range_meters":27200,"station_id":"ce4bgnh2rcd13ifvqc0g","pricing_plan_id":"cebpf4jnsgd1na2vs0mg"},{"bike_id":"24d8947c-66ba-4554-8dfc-38985b87026a","system_id":"levelo_inurba_marseille","lat":43.29573,"lon":5.367355,"is_reserved":false,"is_disabled":false,"rental_uris":{"android":"levelo://app?vid=24d8947c-66ba-4554-8dfc-38985b87026a","ios":"levelo://app?vid=24d8947c-66ba-4554-8dfc-38985b87026a"},"vehicle_type_id":"4","last_reported":1718118461,"current_range_meters":30400,"station_id":"ce4bgph2rcd13ifvqc2g","pricing_plan_id":"cebpf4jnsgd1na2vs0mg"},{"bike_id":"9815900a-69da-42dd-bc05-09bd64abee49","system_id":"levelo_inurba_marseille","lat":43.29573,"lon":5.367355,"is_reserved":false,"is_disabled":false,"rental_uris":{"android":"levelo://app?vid=9815900a-69da-42dd-bc05-09bd64abee49","ios":"levelo://app?vid=9815900a-69da-42dd-bc05-09bd64abee49"},"vehicle_type_id":"4","last_reported":1718118461,"current_range_meters":12800,"station_id":"ce4bgph2rcd13ifvqc2g","pricing_plan_id":"cebpf4jnsgd1na2vs0mg"},{"bike_id":"7a34603b-f8bc-471d-9008-f3401f5428a8","system_id":"levelo_inurba_marseille","lat":43.29573,"lon":5.367355,"is_reserved":false,"is_disabled":false,"rental_uris":{"android":"levelo://app?vid=7a34603b-f8bc-471d-9008-f3401f5428a8","ios":"levelo://app?vid=7a34603b-f8bc-471d-9008-f3401f5428a8"},"vehicle_type_id":"4","last_reported":1718118461,"current_range_meters":30400,"station_id":"ce4bgph2rcd13ifvqc2g","pricing_plan_id":"cebpf4jnsgd1na2vs0mg"},{"bike_id":"ce9cc5f5-9da4-45dc-824a-633a3e1ded0e","system_id":"levelo_inurba_marseille","lat":43.297252,"lon":5.376926,"is_reserved":false,"is_disabled":false,"rental_uris":{"android":"levelo://app?vid=ce9cc5f5-9da4-45dc-824a-633a3e1ded0e","ios":"levelo://app?vid=ce9cc5f5-9da4-45dc-824a-633a3e1ded0e"},"vehicle_type_id":"4","last_reported":1718118461,"current_range_meters":23600,"station_id":"ce4bgkh2rcd13ifvqbl0","pricing_plan_id":"cebpf4jnsgd1na2vs0mg"},{"bike_id":"bd58662a-d328-443b-865c-ea9c8822f61d","system_id":"levelo_inurba_marseille","lat":43.29722,"lon":5.37695,"is_reserved":false,"is_disabled":false,"rental_uris":{"android":"levelo://app?vid=bd58662a-d328-443b-865c-ea9c8822f61d","ios":"levelo://app?vid=bd58662a-d328-443b-865c-ea9c8822f61d"},"vehicle_type_id":"4","last_reported":1718118461,"current_range_meters":2400,"station_id":"ce4bgkh2rcd13ifvqbl0","pricing_plan_id":"cebpf4jnsgd1na2vs0mg"},{"bike_id":"debc9d5d-f6c3-4f00-8bf0-ad778416d6ab","system_id":"levelo_inurba_marseille","lat":43.296935,"lon":5.376544,"is_reserved":false,"is_disabled":false,"rental_uris":{"android":"levelo://app?vid=debc9d5d-f6c3-4f00-8bf0-ad778416d6ab","ios":"levelo://app?vid=debc9d5d-f6c3-4f00-8bf0-ad778416d6ab"},"vehicle_type_id":"4","last_reported":1718118461,"current_range_meters":14000,"station_id":"ce4bgkh2rcd13ifvqbl0","pricing_plan_id":"cebpf4jnsgd1na2vs0mg"},{"bike_id":"cafe30a4-fd77-43eb-9f4b-dcf69f844e72","system_id":"levelo_inurba_marseille","lat":43.29911,"lon":5.38131,"is_reserved":false,"is_disabled":false,"rental_uris":{"android":"levelo://app?vid=cafe30a4-fd77-43eb-9f4b-dcf69f844e72","ios":"levelo://app?vid=cafe30a4-fd77-43eb-9f4b-dcf69f844e72"},"vehicle_type_id":"4","last_reported":1718118461,"current_range_meters":2800,"station_id":"ce4bgj12rcd13ifvqbc0","pricing_plan_id":"cebpf4jnsgd1na2vs0mg"},{"bike_id":"9a7cbc5e-dcbc-41c2-8654-f8bdb4afd360","system_id":"levelo_inurba_marseille","lat":43.299028,"lon":5.381509,"is_reserved":false,"is_disabled":false,"rental_uris":{"android":"levelo://app?vid=9a7cbc5e-dcbc-41c2-8654-f8bdb4afd360","ios":"levelo://app?vid=9a7cbc5e-dcbc-41c2-8654-f8bdb4afd360"},"vehicle_type_id":"4","last_reported":1718118461,"current_range_meters":20000,"station_id":"ce4bgj12rcd13ifvqbc0","pricing_plan_id":"cebpf4jnsgd1na2vs0mg"},{"bike_id":"7597f97b-d6a9-4e4c-8876-f4d1238a895b","system_id":"levelo_inurba_marseille","lat":43.299107,"lon":5.381355,"is_reserved":false,"is_disabled":false,"rental_uris":{"android":"levelo://app?vid=7597f97b-d6a9-4e4c-8876-f4d1238a895b","ios":"levelo://app?vid=7597f97b-d6a9-4e4c-8876-f4d1238a895b"},"vehicle_type_id":"4","last_reported":1718118461,"current_range_meters":0,"station_id":"ce4bgj12rcd13ifvqbc0","pricing_plan_id":"cebpf4jnsgd1na2vs0mg"},{"bike_id":"4ba21084-2697-4e20-a68e-49cc2542eb4a","system_id":"levelo_inurba_marseille","lat":43.299028,"lon":5.381509,"is_reserved":false,"is_disabled":false,"rental_uris":{"android":"levelo://app?vid=4ba21084-2697-4e20-a68e-49cc2542eb4a","ios":"levelo://app?vid=4ba21084-2697-4e20-a68e-49cc2542eb4a"},"vehicle_type_id":"4","last_reported":1718118461,"current_range_meters":6800,"station_id":"ce4bgj12rcd13ifvqbc0","pricing_plan_id":"cebpf4jnsgd1na2vs0mg"},{"bike_id":"ab9269fe-c7a4-4a81-b46a-ea323ce47320","system_id":"levelo_inurba_marseille","lat":43.299055,"lon":5.381327,"is_reserved":false,"is_disabled":false,"rental_uris":{"android":"levelo://app?vid=ab9269fe-c7a4-4a81-b46a-ea323ce47320","ios":"levelo://app?vid=ab9269fe-c7a4-4a81-b46a-ea323ce47320"},"vehicle_type_id":"4","last_reported":1718118461,"current_range_meters":26000,"station_id":"ce4bgj12rcd13ifvqbc0","pricing_plan_id":"cebpf4jnsgd1na2vs0mg"},{"bike_id":"3667008f-1fdf-4f89-943a-4cf86c3914eb","system_id":"levelo_inurba_marseille","lat":43.299028,"lon":5.381509,"is_reserved":false,"is_disabled":false,"rental_uris":{"android":"levelo://app?vid=3667008f-1fdf-4f89-943a-4cf86c3914eb","ios":"levelo://app?vid=3667008f-1fdf-4f89-943a-4cf86c3914eb"},"vehicle_type_id":"4","last_reported":1718118461,"current_range_meters":5600,"station_id":"ce4bgj12rcd13ifvqbc0","pricing_plan_id":"cebpf4jnsgd1na2vs0mg"},{"bike_id":"4cb01a27-01ef-406c-a195-96fa2f5e57ae","system_id":"levelo_inurba_marseille","lat":43.299028,"lon":5.381509,"is_reserved":false,"is_disabled":false,"rental_uris":{"android":"levelo://app?vid=4cb01a27-01ef-406c-a195-96fa2f5e57ae","ios":"levelo://app?vid=4cb01a27-01ef-406c-a195-96fa2f5e57ae"},"vehicle_type_id":"4","last_reported":1718118461,"current_range_meters":17600,"station_id":"ce4bgj12rcd13ifvqbc0","pricing_plan_id":"cebpf4jnsgd1na2vs0mg"},{"bike_id":"c091e510-7826-4289-9e2c-2922fdbd62c8","system_id":"levelo_inurba_marseille","lat":43.297175,"lon":5.377176,"is_reserved":false,"is_disabled":false,"rental_uris":{"android":"levelo://app?vid=c091e510-7826-4289-9e2c-2922fdbd62c8","ios":"levelo://app?vid=c091e510-7826-4289-9e2c-2922fdbd62c8"},"vehicle_type_id":"4","last_reported":1718118461,"current_range_meters":2000,"station_id":"ce4bgkh2rcd13ifvqbl0","pricing_plan_id":"cebpf4jnsgd1na2vs0mg"},{"bike_id":"642bfc30-77d8-4253-9b02-eaa87b8d6ffc","system_id":"levelo_inurba_marseille","lat":43.29905,"lon":5.3814,"is_reserved":false,"is_disabled":false,"rental_uris":{"android":"levelo://app?vid=642bfc30-77d8-4253-9b02-eaa87b8d6ffc","ios":"levelo://app?vid=642bfc30-77d8-4253-9b02-eaa87b8d6ffc"},"vehicle_type_id":"4","last_reported":1718118461,"current_range_meters":400,"station_id":"ce4bgj12rcd13ifvqbc0","pricing_plan_id":"cebpf4jnsgd1na2vs0mg"},{"bike_id":"759adac7-d69b-414b-9643-dda011a3714f","system_id":"levelo_inurba_marseille","lat":43.299042,"lon":5.381388,"is_reserved":false,"is_disabled":false,"rental_uris":{"android":"levelo://app?vid=759adac7-d69b-414b-9643-dda011a3714f","ios":"levelo://app?vid=759adac7-d69b-414b-9643-dda011a3714f"},"vehicle_type_id":"4","last_reported":1718118461,"current_range_meters":30800,"station_id":"ce4bgj12rcd13ifvqbc0","pricing_plan_id":"cebpf4jnsgd1na2vs0mg"},{"bike_id":"9ae7b9ba-d572-4c4b-b2a1-08f3b2e48e42","system_id":"levelo_inurba_marseille","lat":43.299028,"lon":5.381509,"is_reserved":false,"is_disabled":false,"rental_uris":{"android":"levelo://app?vid=9ae7b9ba-d572-4c4b-b2a1-08f3b2e48e42","ios":"levelo://app?vid=9ae7b9ba-d572-4c4b-b2a1-08f3b2e48e42"},"vehicle_type_id":"4","last_reported":1718118461,"current_range_meters":23200,"station_id":"ce4bgj12rcd13ifvqbc0","pricing_plan_id":"cebpf4jnsgd1na2vs0mg"},{"bike_id":"23c8957c-976f-4620-ba60-2a1772f6b80b","system_id":"levelo_inurba_marseille","lat":43.297083,"lon":5.377,"is_reserved":false,"is_disabled":false,"rental_uris":{"android":"levelo://app?vid=23c8957c-976f-4620-ba60-2a1772f6b80b","ios":"levelo://app?vid=23c8957c-976f-4620-ba60-2a1772f6b80b"},"vehicle_type_id":"4","last_reported":1718118461,"current_range_meters":800,"station_id":"ce4bgkh2rcd13ifvqbl0","pricing_plan_id":"cebpf4jnsgd1na2vs0mg"},{"bike_id":"a4da33f3-37f7-4346-b348-d861e49f3d0a","system_id":"levelo_inurba_marseille","lat":43.299028,"lon":5.381509,"is_reserved":false,"is_disabled":false,"rental_uris":{"android":"levelo://app?vid=a4da33f3-37f7-4346-b348-d861e49f3d0a","ios":"levelo://app?vid=a4da33f3-37f7-4346-b348-d861e49f3d0a"},"vehicle_type_id":"4","last_reported":1718118461,"current_range_meters":30800,"station_id":"ce4bgj12rcd13ifvqbc0","pricing_plan_id":"cebpf4jnsgd1na2vs0mg"},{"bike_id":"8f52c631-2724-498e-9962-f7ca5a617e68","system_id":"levelo_inurba_marseille","lat":43.309556,"lon":5.39035,"is_reserved":false,"is_disabled":false,"rental_uris":{"android":"levelo://app?vid=8f52c631-2724-498e-9962-f7ca5a617e68","ios":"levelo://app?vid=8f52c631-2724-498e-9962-f7ca5a617e68"},"vehicle_type_id":"4","last_reported":1718118461,"current_range_meters":0,"station_id":"ce4bgup2rcd13ifvqco0","pricing_plan_id":"cebpf4jnsgd1na2vs0mg"},{"bike_id":"357d3d54-9f3d-4986-b546-3f3738210e2f","system_id":"levelo_inurba_marseille","lat":43.299028,"lon":5.381509,"is_reserved":false,"is_disabled":false,"rental_uris":{"android":"levelo://app?vid=357d3d54-9f3d-4986-b546-3f3738210e2f","ios":"levelo://app?vid=357d3d54-9f3d-4986-b546-3f3738210e2f"},"vehicle_type_id":"4","last_reported":1718118461,"current_range_meters":28400,"station_id":"ce4bgj12rcd13ifvqbc0","pricing_plan_id":"cebpf4jnsgd1na2vs0mg"},{"bike_id":"9a5dd210-5014-429a-8c15-e054faf81518","system_id":"levelo_inurba_marseille","lat":43.30948,"lon":5.39036,"is_reserved":false,"is_disabled":false,"rental_uris":{"android":"levelo://app?vid=9a5dd210-5014-429a-8c15-e054faf81518","ios":"levelo://app?vid=9a5dd210-5014-429a-8c15-e054faf81518"},"vehicle_type_id":"4","last_reported":1718118461,"current_range_meters":0,"station_id":"ce4bgup2rcd13ifvqco0","pricing_plan_id":"cebpf4jnsgd1na2vs0mg"},{"bike_id":"782097ec-fa4c-4a68-a572-7d16ccd2fb2b","system_id":"levelo_inurba_marseille","lat":43.317557,"lon":5.390173,"is_reserved":false,"is_disabled":false,"rental_uris":{"android":"levelo://app?vid=782097ec-fa4c-4a68-a572-7d16ccd2fb2b","ios":"levelo://app?vid=782097ec-fa4c-4a68-a572-7d16ccd2fb2b"},"vehicle_type_id":"4","last_reported":1718118461,"current_range_meters":24400,"station_id":"ce4bhqp2rcd13ifvqhng","pricing_plan_id":"cebpf4jnsgd1na2vs0mg"},{"bike_id":"f7ae4e75-ac44-4786-8e68-104f0f1e5f0b","system_id":"levelo_inurba_marseille","lat":43.298037,"lon":5.381066,"is_reserved":false,"is_disabled":false,"rental_uris":{"android":"levelo://app?vid=f7ae4e75-ac44-4786-8e68-104f0f1e5f0b","ios":"levelo://app?vid=f7ae4e75-ac44-4786-8e68-104f0f1e5f0b"},"vehicle_type_id":"4","last_reported":1718118461,"current_range_meters":3600,"station_id":"ce4bgip2rcd13ifvqbb0","pricing_plan_id":"cebpf4jnsgd1na2vs0mg"},{"bike_id":"d9bed9ee-36a1-4d32-9859-faf63c291001","system_id":"levelo_inurba_marseille","lat":43.295748,"lon":5.37522,"is_reserved":false,"is_disabled":false,"rental_uris":{"android":"levelo://app?vid=d9bed9ee-36a1-4d32-9859-faf63c291001","ios":"levelo://app?vid=d9bed9ee-36a1-4d32-9859-faf63c291001"},"vehicle_type_id":"4","last_reported":1718118461,"current_range_meters":12400,"station_id":"ce4bgh92rcd13ifvqb50","pricing_plan_id":"cebpf4jnsgd1na2vs0mg"},{"bike_id":"0841386e-8790-4ae0-8576-e5e70d3eb735","system_id":"levelo_inurba_marseille","lat":43.295748,"lon":5.37522,"is_reserved":false,"is_disabled":false,"rental_uris":{"android":"levelo://app?vid=0841386e-8790-4ae0-8576-e5e70d3eb735","ios":"levelo://app?vid=0841386e-8790-4ae0-8576-e5e70d3eb735"},"vehicle_type_id":"4","last_reported":1718118461,"current_range_meters":15600,"station_id":"ce4bgh92rcd13ifvqb50","pricing_plan_id":"cebpf4jnsgd1na2vs0mg"},{"bike_id":"c28f11b2-245a-4c76-98ed-6c995bb5b34d","system_id":"levelo_inurba_marseille","lat":43.295748,"lon":5.37522,"is_reserved":false,"is_disabled":false,"rental_uris":{"android":"levelo://app?vid=c28f11b2-245a-4c76-98ed-6c995bb5b34d","ios":"levelo://app?vid=c28f11b2-245a-4c76-98ed-6c995bb5b34d"},"vehicle_type_id":"4","last_reported":1718118461,"current_range_meters":21200,"station_id":"ce4bgh92rcd13ifvqb50","pricing_plan_id":"cebpf4jnsgd1na2vs0mg"},{"bike_id":"cbb5ac7a-1dac-48e4-ab1e-0fe2250ffa12","system_id":"levelo_inurba_marseille","lat":43.295748,"lon":5.37522,"is_reserved":false,"is_disabled":false,"rental_uris":{"android":"levelo://app?vid=cbb5ac7a-1dac-48e4-ab1e-0fe2250ffa12","ios":"levelo://app?vid=cbb5ac7a-1dac-48e4-ab1e-0fe2250ffa12"},"vehicle_type_id":"4","last_reported":1718118461,"current_range_meters":30000,"station_id":"ce4bgh92rcd13ifvqb50","pricing_plan_id":"cebpf4jnsgd1na2vs0mg"},{"bike_id":"a8b26fc2-63f2-4e91-a4fe-17ffe19aaacb","system_id":"levelo_inurba_marseille","lat":43.298037,"lon":5.381066,"is_reserved":false,"is_disabled":false,"rental_uris":{"android":"levelo://app?vid=a8b26fc2-63f2-4e91-a4fe-17ffe19aaacb","ios":"levelo://app?vid=a8b26fc2-63f2-4e91-a4fe-17ffe19aaacb"},"vehicle_type_id":"4","last_reported":1718118461,"current_range_meters":31200,"station_id":"ce4bgip2rcd13ifvqbb0","pricing_plan_id":"cebpf4jnsgd1na2vs0mg"},{"bike_id":"d2374ffd-0630-4dd8-b7e4-886ba5beeabe","system_id":"levelo_inurba_marseille","lat":43.304384,"lon":5.388941,"is_reserved":false,"is_disabled":false,"rental_uris":{"android":"levelo://app?vid=d2374ffd-0630-4dd8-b7e4-886ba5beeabe","ios":"levelo://app?vid=d2374ffd-0630-4dd8-b7e4-886ba5beeabe"},"vehicle_type_id":"4","last_reported":1718118461,"current_range_meters":0,"station_id":"ce4bgt92rcd13ifvqcg0","pricing_plan_id":"cebpf4jnsgd1na2vs0mg"},{"bike_id":"7d754739-3e03-409f-8210-8f12cc1761ef","system_id":"levelo_inurba_marseille","lat":43.304327,"lon":5.389025,"is_reserved":false,"is_disabled":false,"rental_uris":{"android":"levelo://app?vid=7d754739-3e03-409f-8210-8f12cc1761ef","ios":"levelo://app?vid=7d754739-3e03-409f-8210-8f12cc1761ef"},"vehicle_type_id":"4","last_reported":1718118461,"current_range_meters":0,"station_id":"ce4bgk12rcd13ifvqbi0","pricing_plan_id":"cebpf4jnsgd1na2vs0mg"},{"bike_id":"9bec9725-859f-46be-bb9a-a96fac21af4d","system_id":"levelo_inurba_marseille","lat":43.296277,"lon":5.377108,"is_reserved":false,"is_disabled":false,"rental_uris":{"android":"levelo://app?vid=9bec9725-859f-46be-bb9a-a96fac21af4d","ios":"levelo://app?vid=9bec9725-859f-46be-bb9a-a96fac21af4d"},"vehicle_type_id":"4","last_reported":1718118461,"current_range_meters":0,"station_id":"ce4bgi92rcd13ifvqb90","pricing_plan_id":"cebpf4jnsgd1na2vs0mg"},{"bike_id":"e29ba197-c336-44bb-ba2a-6982da849d62","system_id":"levelo_inurba_marseille","lat":43.29615,"lon":5.377275,"is_reserved":false,"is_disabled":false,"rental_uris":{"android":"levelo://app?vid=e29ba197-c336-44bb-ba2a-6982da849d62","ios":"levelo://app?vid=e29ba197-c336-44bb-ba2a-6982da849d62"},"vehicle_type_id":"4","last_reported":1718118461,"current_range_meters":27600,"station_id":"ce4bgi92rcd13ifvqb90","pricing_plan_id":"cebpf4jnsgd1na2vs0mg"},{"bike_id":"4977c9fa-35ec-428b-b9c3-cb3ace0c9732","system_id":"levelo_inurba_marseille","lat":43.296122,"lon":5.377326,"is_reserved":false,"is_disabled":false,"rental_uris":{"android":"levelo://app?vid=4977c9fa-35ec-428b-b9c3-cb3ace0c9732","ios":"levelo://app?vid=4977c9fa-35ec-428b-b9c3-cb3ace0c9732"},"vehicle_type_id":"4","last_reported":1718118461,"current_range_meters":10800,"station_id":"ce4bgi92rcd13ifvqb90","pricing_plan_id":"cebpf4jnsgd1na2vs0mg"},{"bike_id":"6a2243bd-9e9d-46ec-9a37-95357c8ec5e6","system_id":"levelo_inurba_marseille","lat":43.295316,"lon":5.375026,"is_reserved":false,"is_disabled":false,"rental_uris":{"android":"levelo://app?vid=6a2243bd-9e9d-46ec-9a37-95357c8ec5e6","ios":"levelo://app?vid=6a2243bd-9e9d-46ec-9a37-95357c8ec5e6"},"vehicle_type_id":"4","last_reported":1718118461,"current_range_meters":4400,"station_id":"ce4bgkp2rcd13ifvqbmg","pricing_plan_id":"cebpf4jnsgd1na2vs0mg"},{"bike_id":"52f75a37-95bf-40a5-a3fc-3b1f47fd9f67","system_id":"levelo_inurba_marseille","lat":43.299745,"lon":5.38492,"is_reserved":false,"is_disabled":false,"rental_uris":{"android":"levelo://app?vid=52f75a37-95bf-40a5-a3fc-3b1f47fd9f67","ios":"levelo://app?vid=52f75a37-95bf-40a5-a3fc-3b1f47fd9f67"},"vehicle_type_id":"4","last_reported":1718118461,"current_range_meters":0,"station_id":"ce4bgj92rcd13ifvqbd0","pricing_plan_id":"cebpf4jnsgd1na2vs0mg"},{"bike_id":"ab652b24-c3c8-455d-ac08-835816bd909a","system_id":"levelo_inurba_marseille","lat":43.299738,"lon":5.385013,"is_reserved":false,"is_disabled":false,"rental_uris":{"android":"levelo://app?vid=ab652b24-c3c8-455d-ac08-835816bd909a","ios":"levelo://app?vid=ab652b24-c3c8-455d-ac08-835816bd909a"},"vehicle_type_id":"4","last_reported":1718118461,"current_range_meters":0,"station_id":"ce4bgj92rcd13ifvqbd0","pricing_plan_id":"cebpf4jnsgd1na2vs0mg"},{"bike_id":"f5531d14-2797-4fbd-a6bd-52cb88e3aa40","system_id":"levelo_inurba_marseille","lat":43.298037,"lon":5.381066,"is_reserved":false,"is_disabled":false,"rental_uris":{"android":"levelo://app?vid=f5531d14-2797-4fbd-a6bd-52cb88e3aa40","ios":"levelo://app?vid=f5531d14-2797-4fbd-a6bd-52cb88e3aa40"},"vehicle_type_id":"4","last_reported":1718118461,"current_range_meters":4800,"station_id":"ce4bgip2rcd13ifvqbb0","pricing_plan_id":"cebpf4jnsgd1na2vs0mg"},{"bike_id":"c03f5f2b-2f78-4632-b404-1e72fc13073c","system_id":"levelo_inurba_marseille","lat":43.32367,"lon":5.388836,"is_reserved":false,"is_disabled":false,"rental_uris":{"android":"levelo://app?vid=c03f5f2b-2f78-4632-b404-1e72fc13073c","ios":"levelo://app?vid=c03f5f2b-2f78-4632-b404-1e72fc13073c"},"vehicle_type_id":"4","last_reported":1718118461,"current_range_meters":8800,"station_id":"ce4bhqp2rcd13ifvqhog","pricing_plan_id":"cebpf4jnsgd1na2vs0mg"},{"bike_id":"3422d26f-f3a0-4ca4-bf59-5fb13cfa8d2f","system_id":"levelo_inurba_marseille","lat":43.32367,"lon":5.388836,"is_reserved":false,"is_disabled":false,"rental_uris":{"android":"levelo://app?vid=3422d26f-f3a0-4ca4-bf59-5fb13cfa8d2f","ios":"levelo://app?vid=3422d26f-f3a0-4ca4-bf59-5fb13cfa8d2f"},"vehicle_type_id":"4","last_reported":1718118461,"current_range_meters":22400,"station_id":"ce4bhqp2rcd13ifvqhog","pricing_plan_id":"cebpf4jnsgd1na2vs0mg"},{"bike_id":"c64353e2-aa1b-468a-bfbe-52959254b74e","system_id":"levelo_inurba_marseille","lat":43.29601,"lon":5.381084,"is_reserved":false,"is_disabled":false,"rental_uris":{"android":"levelo://app?vid=c64353e2-aa1b-468a-bfbe-52959254b74e","ios":"levelo://app?vid=c64353e2-aa1b-468a-bfbe-52959254b74e"},"vehicle_type_id":"4","last_reported":1718118461,"current_range_meters":31200,"station_id":"ce4bgl12rcd13ifvqbo0","pricing_plan_id":"cebpf4jnsgd1na2vs0mg"},{"bike_id":"24c77c04-5723-41d0-8fea-d13cc590b4b7","system_id":"levelo_inurba_marseille","lat":43.29601,"lon":5.381084,"is_reserved":false,"is_disabled":false,"rental_uris":{"android":"levelo://app?vid=24c77c04-5723-41d0-8fea-d13cc590b4b7","ios":"levelo://app?vid=24c77c04-5723-41d0-8fea-d13cc590b4b7"},"vehicle_type_id":"4","last_reported":1718118461,"current_range_meters":21600,"station_id":"ce4bgl12rcd13ifvqbo0","pricing_plan_id":"cebpf4jnsgd1na2vs0mg"},{"bike_id":"2ae15561-2bdb-43f1-a33c-408ec7aa5c43","system_id":"levelo_inurba_marseille","lat":43.29601,"lon":5.381084,"is_reserved":false,"is_disabled":false,"rental_uris":{"android":"levelo://app?vid=2ae15561-2bdb-43f1-a33c-408ec7aa5c43","ios":"levelo://app?vid=2ae15561-2bdb-43f1-a33c-408ec7aa5c43"},"vehicle_type_id":"4","last_reported":1718118461,"current_range_meters":0,"station_id":"ce4bgl12rcd13ifvqbo0","pricing_plan_id":"cebpf4jnsgd1na2vs0mg"},{"bike_id":"b8c0e7bf-5f0b-478b-8e72-4ddd768dc84a","system_id":"levelo_inurba_marseille","lat":43.29601,"lon":5.381084,"is_reserved":false,"is_disabled":false,"rental_uris":{"android":"levelo://app?vid=b8c0e7bf-5f0b-478b-8e72-4ddd768dc84a","ios":"levelo://app?vid=b8c0e7bf-5f0b-478b-8e72-4ddd768dc84a"},"vehicle_type_id":"4","last_reported":1718118461,"current_range_meters":31200,"station_id":"ce4bgl12rcd13ifvqbo0","pricing_plan_id":"cebpf4jnsgd1na2vs0mg"},{"bike_id":"09da7c54-1bf3-4d45-b103-ae4619f58384","system_id":"levelo_inurba_marseille","lat":43.29602,"lon":5.381084,"is_reserved":false,"is_disabled":false,"rental_uris":{"android":"levelo://app?vid=09da7c54-1bf3-4d45-b103-ae4619f58384","ios":"levelo://app?vid=09da7c54-1bf3-4d45-b103-ae4619f58384"},"vehicle_type_id":"4","last_reported":1718118461,"current_range_meters":4400,"station_id":"ce4bgl12rcd13ifvqbo0","pricing_plan_id":"cebpf4jnsgd1na2vs0mg"},{"bike_id":"13085d9d-79a2-4bcc-9da9-f06ff690ca56","system_id":"levelo_inurba_marseille","lat":43.29602,"lon":5.381084,"is_reserved":false,"is_disabled":false,"rental_uris":{"android":"levelo://app?vid=13085d9d-79a2-4bcc-9da9-f06ff690ca56","ios":"levelo://app?vid=13085d9d-79a2-4bcc-9da9-f06ff690ca56"},"vehicle_type_id":"4","last_reported":1718118461,"current_range_meters":7600,"station_id":"ce4bgl12rcd13ifvqbo0","pricing_plan_id":"cebpf4jnsgd1na2vs0mg"},{"bike_id":"8ce36ecd-5703-43a7-94ca-d8b4250688cb","system_id":"levelo_inurba_marseille","lat":43.304278,"lon":5.388868,"is_reserved":false,"is_disabled":false,"rental_uris":{"android":"levelo://app?vid=8ce36ecd-5703-43a7-94ca-d8b4250688cb","ios":"levelo://app?vid=8ce36ecd-5703-43a7-94ca-d8b4250688cb"},"vehicle_type_id":"4","last_reported":1718118461,"current_range_meters":2400,"station_id":"ce4bgk12rcd13ifvqbi0","pricing_plan_id":"cebpf4jnsgd1na2vs0mg"},{"bike_id":"091d0760-44da-4d52-91d5-c81ebd757699","system_id":"levelo_inurba_marseille","lat":43.289184,"lon":5.366408,"is_reserved":false,"is_disabled":false,"rental_uris":{"android":"levelo://app?vid=091d0760-44da-4d52-91d5-c81ebd757699","ios":"levelo://app?vid=091d0760-44da-4d52-91d5-c81ebd757699"},"vehicle_type_id":"4","last_reported":1718118461,"current_range_meters":8400,"station_id":"ce4bhap2rcd13ifvqek0","pricing_plan_id":"cebpf4jnsgd1na2vs0mg"},{"bike_id":"bcda1c22-bbd8-4c14-bfe7-9391cabbea9f","system_id":"levelo_inurba_marseille","lat":43.293096,"lon":5.374578,"is_reserved":false,"is_disabled":false,"rental_uris":{"android":"levelo://app?vid=bcda1c22-bbd8-4c14-bfe7-9391cabbea9f","ios":"levelo://app?vid=bcda1c22-bbd8-4c14-bfe7-9391cabbea9f"},"vehicle_type_id":"4","last_reported":1718118461,"current_range_meters":16800,"station_id":"ce4bgi12rcd13ifvqb70","pricing_plan_id":"cebpf4jnsgd1na2vs0mg"},{"bike_id":"20fe27a4-5f5c-4a38-b13c-b5a1b74e9bde","system_id":"levelo_inurba_marseille","lat":43.305994,"lon":5.393687,"is_reserved":false,"is_disabled":false,"rental_uris":{"android":"levelo://app?vid=20fe27a4-5f5c-4a38-b13c-b5a1b74e9bde","ios":"levelo://app?vid=20fe27a4-5f5c-4a38-b13c-b5a1b74e9bde"},"vehicle_type_id":"4","last_reported":1718118461,"current_range_meters":400,"station_id":"ce4bh0p2rcd13ifvqd80","pricing_plan_id":"cebpf4jnsgd1na2vs0mg"},{"bike_id":"c180554a-46d5-42e7-b950-9d6e2cebb6f3","system_id":"levelo_inurba_marseille","lat":43.2936,"lon":5.37835,"is_reserved":false,"is_disabled":false,"rental_uris":{"android":"levelo://app?vid=c180554a-46d5-42e7-b950-9d6e2cebb6f3","ios":"levelo://app?vid=c180554a-46d5-42e7-b950-9d6e2cebb6f3"},"vehicle_type_id":"4","last_reported":1718118461,"current_range_meters":4400,"station_id":"ce4bgjh2rcd13ifvqbf0","pricing_plan_id":"cebpf4jnsgd1na2vs0mg"},{"bike_id":"c8bead13-6d62-42df-ad99-9df4dbc04beb","system_id":"levelo_inurba_marseille","lat":43.303002,"lon":5.392142,"is_reserved":false,"is_disabled":false,"rental_uris":{"android":"levelo://app?vid=c8bead13-6d62-42df-ad99-9df4dbc04beb","ios":"levelo://app?vid=c8bead13-6d62-42df-ad99-9df4dbc04beb"},"vehicle_type_id":"4","last_reported":1718118461,"current_range_meters":1600,"station_id":"ce4bgkh2rcd13ifvqbk0","pricing_plan_id":"cebpf4jnsgd1na2vs0mg"},{"bike_id":"79f74f63-20c5-48fe-82f8-2dd96b7781c0","system_id":"levelo_inurba_marseille","lat":43.29375,"lon":5.37842,"is_reserved":false,"is_disabled":false,"rental_uris":{"android":"levelo://app?vid=79f74f63-20c5-48fe-82f8-2dd96b7781c0","ios":"levelo://app?vid=79f74f63-20c5-48fe-82f8-2dd96b7781c0"},"vehicle_type_id":"4","last_reported":1718118461,"current_range_meters":18800,"station_id":"","pricing_plan_id":"cebpf4jnsgd1na2vs0mg"},{"bike_id":"ce50639c-37dd-4610-8e3f-bde72caf169a","system_id":"levelo_inurba_marseille","lat":43.293746,"lon":5.378621,"is_reserved":false,"is_disabled":false,"rental_uris":{"android":"levelo://app?vid=ce50639c-37dd-4610-8e3f-bde72caf169a","ios":"levelo://app?vid=ce50639c-37dd-4610-8e3f-bde72caf169a"},"vehicle_type_id":"4","last_reported":1718118461,"current_range_meters":0,"station_id":"ce4bgjh2rcd13ifvqbf0","pricing_plan_id":"cebpf4jnsgd1na2vs0mg"},{"bike_id":"04808acd-a2d8-48dd-971e-4257417fece1","system_id":"levelo_inurba_marseille","lat":43.2936,"lon":5.37835,"is_reserved":false,"is_disabled":false,"rental_uris":{"android":"levelo://app?vid=04808acd-a2d8-48dd-971e-4257417fece1","ios":"levelo://app?vid=04808acd-a2d8-48dd-971e-4257417fece1"},"vehicle_type_id":"4","last_reported":1718118461,"current_range_meters":0,"station_id":"ce4bgjh2rcd13ifvqbf0","pricing_plan_id":"cebpf4jnsgd1na2vs0mg"},{"bike_id":"1df5a08f-5af0-401f-a481-9d03a1ce2a15","system_id":"levelo_inurba_marseille","lat":43.2936,"lon":5.37835,"is_reserved":false,"is_disabled":false,"rental_uris":{"android":"levelo://app?vid=1df5a08f-5af0-401f-a481-9d03a1ce2a15","ios":"levelo://app?vid=1df5a08f-5af0-401f-a481-9d03a1ce2a15"},"vehicle_type_id":"4","last_reported":1718118461,"current_range_meters":10400,"station_id":"ce4bgjh2rcd13ifvqbf0","pricing_plan_id":"cebpf4jnsgd1na2vs0mg"},{"bike_id":"c4558718-c9a5-4ce2-8133-51dd20906100","system_id":"levelo_inurba_marseille","lat":43.30085,"lon":5.390856,"is_reserved":false,"is_disabled":false,"rental_uris":{"android":"levelo://app?vid=c4558718-c9a5-4ce2-8133-51dd20906100","ios":"levelo://app?vid=c4558718-c9a5-4ce2-8133-51dd20906100"},"vehicle_type_id":"4","last_reported":1718118461,"current_range_meters":11600,"station_id":"ce4bh192rcd13ifvqdb0","pricing_plan_id":"cebpf4jnsgd1na2vs0mg"},{"bike_id":"960d3b75-f0d8-4874-b423-333dab108ec9","system_id":"levelo_inurba_marseille","lat":43.305994,"lon":5.393687,"is_reserved":false,"is_disabled":false,"rental_uris":{"android":"levelo://app?vid=960d3b75-f0d8-4874-b423-333dab108ec9","ios":"levelo://app?vid=960d3b75-f0d8-4874-b423-333dab108ec9"},"vehicle_type_id":"4","last_reported":1718118461,"current_range_meters":16800,"station_id":"ce4bh0p2rcd13ifvqd80","pricing_plan_id":"cebpf4jnsgd1na2vs0mg"},{"bike_id":"e36d59cc-ffd6-470d-8e89-e02d6227664b","system_id":"levelo_inurba_marseille","lat":43.30085,"lon":5.390856,"is_reserved":false,"is_disabled":false,"rental_uris":{"android":"levelo://app?vid=e36d59cc-ffd6-470d-8e89-e02d6227664b","ios":"levelo://app?vid=e36d59cc-ffd6-470d-8e89-e02d6227664b"},"vehicle_type_id":"4","last_reported":1718118461,"current_range_meters":0,"station_id":"ce4bh192rcd13ifvqdb0","pricing_plan_id":"cebpf4jnsgd1na2vs0mg"},{"bike_id":"480ef6b2-3fcd-4bec-a197-07700c034210","system_id":"levelo_inurba_marseille","lat":43.298764,"lon":5.388973,"is_reserved":false,"is_disabled":false,"rental_uris":{"android":"levelo://app?vid=480ef6b2-3fcd-4bec-a197-07700c034210","ios":"levelo://app?vid=480ef6b2-3fcd-4bec-a197-07700c034210"},"vehicle_type_id":"4","last_reported":1718118461,"current_range_meters":18000,"station_id":"ce4bh392rcd13ifvqdl0","pricing_plan_id":"cebpf4jnsgd1na2vs0mg"},{"bike_id":"0773c74e-807d-42e6-8fe4-c72d22c9f116","system_id":"levelo_inurba_marseille","lat":43.29881,"lon":5.38915,"is_reserved":false,"is_disabled":false,"rental_uris":{"android":"levelo://app?vid=0773c74e-807d-42e6-8fe4-c72d22c9f116","ios":"levelo://app?vid=0773c74e-807d-42e6-8fe4-c72d22c9f116"},"vehicle_type_id":"4","last_reported":1718118461,"current_range_meters":21200,"station_id":"ce4bh392rcd13ifvqdl0","pricing_plan_id":"cebpf4jnsgd1na2vs0mg"},{"bike_id":"0a135c6f-82d0-457d-9c46-af7a74253ec0","system_id":"levelo_inurba_marseille","lat":43.29136,"lon":5.370107,"is_reserved":false,"is_disabled":false,"rental_uris":{"android":"levelo://app?vid=0a135c6f-82d0-457d-9c46-af7a74253ec0","ios":"levelo://app?vid=0a135c6f-82d0-457d-9c46-af7a74253ec0"},"vehicle_type_id":"4","last_reported":1718118461,"current_range_meters":22800,"station_id":"","pricing_plan_id":"cebpf4jnsgd1na2vs0mg"},{"bike_id":"5076621a-9f6e-4671-9319-ef44e34b380f","system_id":"levelo_inurba_marseille","lat":43.291994,"lon":5.357886,"is_reserved":false,"is_disabled":false,"rental_uris":{"android":"levelo://app?vid=5076621a-9f6e-4671-9319-ef44e34b380f","ios":"levelo://app?vid=5076621a-9f6e-4671-9319-ef44e34b380f"},"vehicle_type_id":"4","last_reported":1718118461,"current_range_meters":0,"station_id":"ce4bhb12rcd13ifvqel0","pricing_plan_id":"cebpf4jnsgd1na2vs0mg"},{"bike_id":"f749eb6e-4bb3-41d9-a62f-caab6fede46a","system_id":"levelo_inurba_marseille","lat":43.313291,"lon":5.396838,"is_reserved":false,"is_disabled":false,"rental_uris":{"android":"levelo://app?vid=f749eb6e-4bb3-41d9-a62f-caab6fede46a","ios":"levelo://app?vid=f749eb6e-4bb3-41d9-a62f-caab6fede46a"},"vehicle_type_id":"4","last_reported":1718118461,"current_range_meters":5600,"station_id":"ce4bgvp2rcd13ifvqcu0","pricing_plan_id":"cebpf4jnsgd1na2vs0mg"},{"bike_id":"58912c00-1f3c-4b0d-90cd-9be0503ba43f","system_id":"levelo_inurba_marseille","lat":43.291896,"lon":5.357959,"is_reserved":false,"is_disabled":false,"rental_uris":{"android":"levelo://app?vid=58912c00-1f3c-4b0d-90cd-9be0503ba43f","ios":"levelo://app?vid=58912c00-1f3c-4b0d-90cd-9be0503ba43f"},"vehicle_type_id":"4","last_reported":1718118461,"current_range_meters":10800,"station_id":"","pricing_plan_id":"cebpf4jnsgd1na2vs0mg"},{"bike_id":"344c22b2-fbde-4d83-b1f0-8af5ef369e98","system_id":"levelo_inurba_marseille","lat":43.291994,"lon":5.357886,"is_reserved":false,"is_disabled":false,"rental_uris":{"android":"levelo://app?vid=344c22b2-fbde-4d83-b1f0-8af5ef369e98","ios":"levelo://app?vid=344c22b2-fbde-4d83-b1f0-8af5ef369e98"},"vehicle_type_id":"4","last_reported":1718118461,"current_range_meters":31200,"station_id":"ce4bhb12rcd13ifvqel0","pricing_plan_id":"cebpf4jnsgd1na2vs0mg"},{"bike_id":"f8d7431f-73e4-4474-aac1-1233a97448fb","system_id":"levelo_inurba_marseille","lat":43.313387,"lon":5.39694,"is_reserved":false,"is_disabled":false,"rental_uris":{"android":"levelo://app?vid=f8d7431f-73e4-4474-aac1-1233a97448fb","ios":"levelo://app?vid=f8d7431f-73e4-4474-aac1-1233a97448fb"},"vehicle_type_id":"4","last_reported":1718118461,"current_range_meters":0,"station_id":"ce4bgvp2rcd13ifvqcu0","pricing_plan_id":"cebpf4jnsgd1na2vs0mg"},{"bike_id":"29cbd84a-e705-4e0c-a26a-f359b8fd84ac","system_id":"levelo_inurba_marseille","lat":43.31333,"lon":5.39695,"is_reserved":false,"is_disabled":false,"rental_uris":{"android":"levelo://app?vid=29cbd84a-e705-4e0c-a26a-f359b8fd84ac","ios":"levelo://app?vid=29cbd84a-e705-4e0c-a26a-f359b8fd84ac"},"vehicle_type_id":"4","last_reported":1718118461,"current_range_meters":0,"station_id":"ce4bgvp2rcd13ifvqcu0","pricing_plan_id":"cebpf4jnsgd1na2vs0mg"},{"bike_id":"2e9b3232-2659-4c79-b4f2-858a7c6f758c","system_id":"levelo_inurba_marseille","lat":43.313291,"lon":5.396838,"is_reserved":false,"is_disabled":false,"rental_uris":{"android":"levelo://app?vid=2e9b3232-2659-4c79-b4f2-858a7c6f758c","ios":"levelo://app?vid=2e9b3232-2659-4c79-b4f2-858a7c6f758c"},"vehicle_type_id":"4","last_reported":1718118461,"current_range_meters":21200,"station_id":"ce4bgvp2rcd13ifvqcu0","pricing_plan_id":"cebpf4jnsgd1na2vs0mg"},{"bike_id":"927fe01a-5324-4403-86ee-8037e121b251","system_id":"levelo_inurba_marseille","lat":43.313291,"lon":5.396838,"is_reserved":false,"is_disabled":false,"rental_uris":{"android":"levelo://app?vid=927fe01a-5324-4403-86ee-8037e121b251","ios":"levelo://app?vid=927fe01a-5324-4403-86ee-8037e121b251"},"vehicle_type_id":"4","last_reported":1718118461,"current_range_meters":7600,"station_id":"ce4bgvp2rcd13ifvqcu0","pricing_plan_id":"cebpf4jnsgd1na2vs0mg"},{"bike_id":"41df597b-cef7-4547-a7ac-11bca0c4458f","system_id":"levelo_inurba_marseille","lat":43.313291,"lon":5.396838,"is_reserved":false,"is_disabled":false,"rental_uris":{"android":"levelo://app?vid=41df597b-cef7-4547-a7ac-11bca0c4458f","ios":"levelo://app?vid=41df597b-cef7-4547-a7ac-11bca0c4458f"},"vehicle_type_id":"4","last_reported":1718118461,"current_range_meters":5600,"station_id":"ce4bgvp2rcd13ifvqcu0","pricing_plan_id":"cebpf4jnsgd1na2vs0mg"},{"bike_id":"8e241d41-ad93-46a7-872d-5e1380c30260","system_id":"levelo_inurba_marseille","lat":43.29529,"lon":5.385581,"is_reserved":false,"is_disabled":false,"rental_uris":{"android":"levelo://app?vid=8e241d41-ad93-46a7-872d-5e1380c30260","ios":"levelo://app?vid=8e241d41-ad93-46a7-872d-5e1380c30260"},"vehicle_type_id":"4","last_reported":1718118461,"current_range_meters":24800,"station_id":"ce4bgih2rcd13ifvqba0","pricing_plan_id":"cebpf4jnsgd1na2vs0mg"},{"bike_id":"49b01edd-0b1f-4317-9fc6-80ee3170d412","system_id":"levelo_inurba_marseille","lat":43.29529,"lon":5.385581,"is_reserved":false,"is_disabled":false,"rental_uris":{"android":"levelo://app?vid=49b01edd-0b1f-4317-9fc6-80ee3170d412","ios":"levelo://app?vid=49b01edd-0b1f-4317-9fc6-80ee3170d412"},"vehicle_type_id":"4","last_reported":1718118461,"current_range_meters":27600,"station_id":"ce4bgih2rcd13ifvqba0","pricing_plan_id":"cebpf4jnsgd1na2vs0mg"},{"bike_id":"d92d62bf-27f8-4089-84c6-ee03b414d27c","system_id":"levelo_inurba_marseille","lat":43.29529,"lon":5.385581,"is_reserved":false,"is_disabled":false,"rental_uris":{"android":"levelo://app?vid=d92d62bf-27f8-4089-84c6-ee03b414d27c","ios":"levelo://app?vid=d92d62bf-27f8-4089-84c6-ee03b414d27c"},"vehicle_type_id":"4","last_reported":1718118461,"current_range_meters":10000,"station_id":"ce4bgih2rcd13ifvqba0","pricing_plan_id":"cebpf4jnsgd1na2vs0mg"},{"bike_id":"bf0a0b31-223d-477d-860c-9246f8935269","system_id":"levelo_inurba_marseille","lat":43.29529,"lon":5.385581,"is_reserved":false,"is_disabled":false,"rental_uris":{"android":"levelo://app?vid=bf0a0b31-223d-477d-860c-9246f8935269","ios":"levelo://app?vid=bf0a0b31-223d-477d-860c-9246f8935269"},"vehicle_type_id":"4","last_reported":1718118461,"current_range_meters":6800,"station_id":"ce4bgih2rcd13ifvqba0","pricing_plan_id":"cebpf4jnsgd1na2vs0mg"},{"bike_id":"691ebfe4-3578-4185-b362-618e57694779","system_id":"levelo_inurba_marseille","lat":43.29529,"lon":5.385581,"is_reserved":false,"is_disabled":false,"rental_uris":{"android":"levelo://app?vid=691ebfe4-3578-4185-b362-618e57694779","ios":"levelo://app?vid=691ebfe4-3578-4185-b362-618e57694779"},"vehicle_type_id":"4","last_reported":1718118461,"current_range_meters":20400,"station_id":"ce4bgih2rcd13ifvqba0","pricing_plan_id":"cebpf4jnsgd1na2vs0mg"},{"bike_id":"d846e7c3-0f54-4561-87b1-3706486e90cb","system_id":"levelo_inurba_marseille","lat":43.29529,"lon":5.385581,"is_reserved":false,"is_disabled":false,"rental_uris":{"android":"levelo://app?vid=d846e7c3-0f54-4561-87b1-3706486e90cb","ios":"levelo://app?vid=d846e7c3-0f54-4561-87b1-3706486e90cb"},"vehicle_type_id":"4","last_reported":1718118461,"current_range_meters":2000,"station_id":"ce4bgih2rcd13ifvqba0","pricing_plan_id":"cebpf4jnsgd1na2vs0mg"},{"bike_id":"a4f7ad33-6d3e-4427-8137-79dbbb866d29","system_id":"levelo_inurba_marseille","lat":43.29529,"lon":5.385581,"is_reserved":false,"is_disabled":false,"rental_uris":{"android":"levelo://app?vid=a4f7ad33-6d3e-4427-8137-79dbbb866d29","ios":"levelo://app?vid=a4f7ad33-6d3e-4427-8137-79dbbb866d29"},"vehicle_type_id":"4","last_reported":1718118461,"current_range_meters":1600,"station_id":"ce4bgih2rcd13ifvqba0","pricing_plan_id":"cebpf4jnsgd1na2vs0mg"},{"bike_id":"85d23156-7382-4d55-b6b1-daeb0ad3efaf","system_id":"levelo_inurba_marseille","lat":43.29529,"lon":5.385581,"is_reserved":false,"is_disabled":false,"rental_uris":{"android":"levelo://app?vid=85d23156-7382-4d55-b6b1-daeb0ad3efaf","ios":"levelo://app?vid=85d23156-7382-4d55-b6b1-daeb0ad3efaf"},"vehicle_type_id":"4","last_reported":1718118461,"current_range_meters":4400,"station_id":"ce4bgih2rcd13ifvqba0","pricing_plan_id":"cebpf4jnsgd1na2vs0mg"},{"bike_id":"75e53327-fb7d-4f04-86f8-efbe6b7f8f5d","system_id":"levelo_inurba_marseille","lat":43.290104,"lon":5.356111,"is_reserved":false,"is_disabled":false,"rental_uris":{"android":"levelo://app?vid=75e53327-fb7d-4f04-86f8-efbe6b7f8f5d","ios":"levelo://app?vid=75e53327-fb7d-4f04-86f8-efbe6b7f8f5d"},"vehicle_type_id":"4","last_reported":1718118461,"current_range_meters":6800,"station_id":"ce4bhb92rcd13ifvqen0","pricing_plan_id":"cebpf4jnsgd1na2vs0mg"},{"bike_id":"8bd02a1e-ae93-4077-9caa-a66ba6062fb8","system_id":"levelo_inurba_marseille","lat":43.29076,"lon":5.371697,"is_reserved":false,"is_disabled":false,"rental_uris":{"android":"levelo://app?vid=8bd02a1e-ae93-4077-9caa-a66ba6062fb8","ios":"levelo://app?vid=8bd02a1e-ae93-4077-9caa-a66ba6062fb8"},"vehicle_type_id":"4","last_reported":1718118461,"current_range_meters":6800,"station_id":"ce4bh5p2rcd13ifvqe4g","pricing_plan_id":"cebpf4jnsgd1na2vs0mg"},{"bike_id":"8b33167d-d4d8-4fc2-b649-23bb26bee99c","system_id":"levelo_inurba_marseille","lat":43.290754,"lon":5.372014,"is_reserved":false,"is_disabled":false,"rental_uris":{"android":"levelo://app?vid=8b33167d-d4d8-4fc2-b649-23bb26bee99c","ios":"levelo://app?vid=8b33167d-d4d8-4fc2-b649-23bb26bee99c"},"vehicle_type_id":"4","last_reported":1718118461,"current_range_meters":4400,"station_id":"ce4bh3p2rcd13ifvqdq0","pricing_plan_id":"cebpf4jnsgd1na2vs0mg"},{"bike_id":"b092c9d6-3e00-4dd6-893b-abde4d39a19a","system_id":"levelo_inurba_marseille","lat":43.30143,"lon":5.37413,"is_reserved":false,"is_disabled":false,"rental_uris":{"android":"levelo://app?vid=b092c9d6-3e00-4dd6-893b-abde4d39a19a","ios":"levelo://app?vid=b092c9d6-3e00-4dd6-893b-abde4d39a19a"},"vehicle_type_id":"4","last_reported":1718118461,"current_range_meters":29600,"station_id":"ce4bgs92rcd13ifvqcc0","pricing_plan_id":"cebpf4jnsgd1na2vs0mg"},{"bike_id":"77a2c7f9-d994-4c22-b14c-d34fd59687e6","system_id":"levelo_inurba_marseille","lat":43.290631,"lon":5.359244,"is_reserved":false,"is_disabled":false,"rental_uris":{"android":"levelo://app?vid=77a2c7f9-d994-4c22-b14c-d34fd59687e6","ios":"levelo://app?vid=77a2c7f9-d994-4c22-b14c-d34fd59687e6"},"vehicle_type_id":"4","last_reported":1718118461,"current_range_meters":4000,"station_id":"ce4bha92rcd13ifvqeg0","pricing_plan_id":"cebpf4jnsgd1na2vs0mg"},{"bike_id":"fb87355b-06bb-4ead-8760-2a604441c722","system_id":"levelo_inurba_marseille","lat":43.290624,"lon":5.359245,"is_reserved":false,"is_disabled":false,"rental_uris":{"android":"levelo://app?vid=fb87355b-06bb-4ead-8760-2a604441c722","ios":"levelo://app?vid=fb87355b-06bb-4ead-8760-2a604441c722"},"vehicle_type_id":"4","last_reported":1718118461,"current_range_meters":8400,"station_id":"ce4bha92rcd13ifvqeg0","pricing_plan_id":"cebpf4jnsgd1na2vs0mg"},{"bike_id":"d005777c-c024-47c8-9b31-c56e93155144","system_id":"levelo_inurba_marseille","lat":43.29047,"lon":5.359237,"is_reserved":false,"is_disabled":false,"rental_uris":{"android":"levelo://app?vid=d005777c-c024-47c8-9b31-c56e93155144","ios":"levelo://app?vid=d005777c-c024-47c8-9b31-c56e93155144"},"vehicle_type_id":"4","last_reported":1718118461,"current_range_meters":28400,"station_id":"","pricing_plan_id":"cebpf4jnsgd1na2vs0mg"},{"bike_id":"eebe47b0-1e3d-448d-a9fe-bb9492656f84","system_id":"levelo_inurba_marseille","lat":43.290631,"lon":5.359244,"is_reserved":false,"is_disabled":false,"rental_uris":{"android":"levelo://app?vid=eebe47b0-1e3d-448d-a9fe-bb9492656f84","ios":"levelo://app?vid=eebe47b0-1e3d-448d-a9fe-bb9492656f84"},"vehicle_type_id":"4","last_reported":1718118461,"current_range_meters":0,"station_id":"ce4bha92rcd13ifvqeg0","pricing_plan_id":"cebpf4jnsgd1na2vs0mg"},{"bike_id":"3c7595dc-0f7f-4cbb-8346-d1035f76b943","system_id":"levelo_inurba_marseille","lat":43.290631,"lon":5.359244,"is_reserved":false,"is_disabled":false,"rental_uris":{"android":"levelo://app?vid=3c7595dc-0f7f-4cbb-8346-d1035f76b943","ios":"levelo://app?vid=3c7595dc-0f7f-4cbb-8346-d1035f76b943"},"vehicle_type_id":"4","last_reported":1718118461,"current_range_meters":31600,"station_id":"ce4bha92rcd13ifvqeg0","pricing_plan_id":"cebpf4jnsgd1na2vs0mg"},{"bike_id":"1ee130b4-ff94-4a34-b232-1e6d6d7556e9","system_id":"levelo_inurba_marseille","lat":43.294138,"lon":5.385785,"is_reserved":false,"is_disabled":false,"rental_uris":{"android":"levelo://app?vid=1ee130b4-ff94-4a34-b232-1e6d6d7556e9","ios":"levelo://app?vid=1ee130b4-ff94-4a34-b232-1e6d6d7556e9"},"vehicle_type_id":"4","last_reported":1718118461,"current_range_meters":21200,"station_id":"ce4bh2h2rcd13ifvqdh0","pricing_plan_id":"cebpf4jnsgd1na2vs0mg"},{"bike_id":"6e4131e6-12ff-48e4-9bf0-a3528cadd54a","system_id":"levelo_inurba_marseille","lat":43.29425,"lon":5.38615,"is_reserved":false,"is_disabled":false,"rental_uris":{"android":"levelo://app?vid=6e4131e6-12ff-48e4-9bf0-a3528cadd54a","ios":"levelo://app?vid=6e4131e6-12ff-48e4-9bf0-a3528cadd54a"},