{"last_updated":1726992649,"ttl":30,"version":"2.2","data":{"bikes":[{"bike_id":"fd84f170-c075-4570-a556-c5e617e29406","system_id":"levelo_inurba_marseille","lat":43.28287,"lon":5.40888,"is_reserved":false,"is_disabled":false,"rental_uris":{"android":"levelo://app?vid=fd84f170-c075-4570-a556-c5e617e29406","ios":"levelo://app?vid=fd84f170-c075-4570-a556-c5e617e29406"},"vehicle_type_id":"4","last_reported":1726992649,"current_range_meters":19200,"station_id":"","pricing_plan_id":"cebpf4jnsgd1na2vs0mg"},{"bike_id":"7322c998-cc22-4396-aef7-57822e9e1df6","system_id":"levelo_inurba_marseille","lat":43.27906,"lon":5.39566,"is_reserved":false,"is_disabled":false,"rental_uris":{"android":"levelo://app?vid=7322c998-cc22-4396-aef7-57822e9e1df6","ios":"levelo://app?vid=7322c998-cc22-4396-aef7-57822e9e1df6"},"vehicle_type_id":"4","last_reported":1726992649,"current_range_meters":38000,"station_id":"ce4bhf92rcd13ifvqf40","pricing_plan_id":"cebpf4jnsgd1na2vs0mg"},{"bike_id":"09ef34b6-482f-4988-9331-10658115e1c1","system_id":"levelo_inurba_marseille","lat":43.31526,"lon":5.3803,"is_reserved":false,"is_disabled":false,"rental_uris":{"android":"levelo://app?vid=09ef34b6-482f-4988-9331-10658115e1c1","ios":"levelo://app?vid=09ef34b6-482f-4988-9331-10658115e1c1"},"vehicle_type_id":"4","last_reported":1726992649,"current_range_meters":19200,"station_id":"ce4bhsp2rcd13ifvqi50","pricing_plan_id":"cebpf4jnsgd1na2vs0mg"},{"bike_id":"521fad1f-71cc-49e7-bf7e-e262d3586722","system_id":"levelo_inurba_marseille","lat":43.293083,"lon":5.371782,"is_reserved":false,"is_disabled":false,"rental_uris":{"android":"levelo://app?vid=521fad1f-71cc-49e7-bf7e-e262d3586722","ios":"levelo://app?vid=521fad1f-71cc-49e7-bf7e-e262d3586722"},"vehicle_type_id":"4","last_reported":1726992649,"current_range_meters":15200,"station_id":"ce4bgh92rcd13ifvqb40","pricing_plan_id":"cebpf4jnsgd1na2vs0mg"},{"bike_id":"7f47b59e-4f08-45b9-9dc9-3e946771e6a0","system_id":"levelo_inurba_marseille","lat":43.296126,"lon":5.377492,"is_reserved":false,"is_disabled":false,"rental_uris":{"android":"levelo://app?vid=7f47b59e-4f08-45b9-9dc9-3e946771e6a0","ios":"levelo://app?vid=7f47b59e-4f08-45b9-9dc9-3e946771e6a0"},"vehicle_type_id":"4","last_reported":1726992649,"current_range_meters":36800,"station_id":"ce4bh2h2rcd13ifvqdh0","pricing_plan_id":"cebpf4jnsgd1na2vs0mg"},{"bike_id":"fa40c179-cc76-4642-bd2c-df0bf2c367b9","system_id":"levelo_inurba_marseille","lat":43.30319,"lon":5.40437,"is_reserved":false,"is_disabled":false,"rental_uris":{"android":"levelo://app?vid=fa40c179-cc76-4642-bd2c-df0bf2c367b9","ios":"levelo://app?vid=fa40c179-cc76-4642-bd2c-df0bf2c367b9"},"vehicle_type_id":"4","last_reported":1726992649,"current_range_meters":20400,"station_id":"ce4bh012rcd13ifvqd10","pricing_plan_id":"cebpf4jnsgd1na2vs0mg"},{"bike_id":"c4008c44-23d0-4592-b667-e21fc5691ab3","system_id":"levelo_inurba_marseille","lat":43.25575,"lon":5.38225,"is_reserved":false,"is_disabled":false,"rental_uris":{"android":"levelo://app?vid=c4008c44-23d0-4592-b667-e21fc5691ab3","ios":"levelo://app?vid=c4008c44-23d0-4592-b667-e21fc5691ab3"},"vehicle_type_id":"4","last_reported":1726992649,"current_range_meters":6800,"station_id":"ce4bhih2rcd13ifvqfs0","pricing_plan_id":"cebpf4jnsgd1na2vs0mg"},{"bike_id":"0f4bd5ad-8a1a-4214-94a9-f7a00a32a067","system_id":"levelo_inurba_marseille","lat":43.32059,"lon":5.41562,"is_reserved":false,"is_disabled":false,"rental_uris":{"android":"levelo://app?vid=0f4bd5ad-8a1a-4214-94a9-f7a00a32a067","ios":"levelo://app?vid=0f4bd5ad-8a1a-4214-94a9-f7a00a32a067"},"vehicle_type_id":"4","last_reported":1726992649,"current_range_meters":28400,"station_id":"ce4bhq92rcd13ifvqhkg","pricing_plan_id":"cebpf4jnsgd1na2vs0mg"},{"bike_id":"9f38294e-12e2-4aea-b025-0df1d7948b00","system_id":"levelo_inurba_marseille","lat":43.24547,"lon":5.39529,"is_reserved":false,"is_disabled":false,"rental_uris":{"android":"levelo://app?vid=9f38294e-12e2-4aea-b025-0df1d7948b00","ios":"levelo://app?vid=9f38294e-12e2-4aea-b025-0df1d7948b00"},"vehicle_type_id":"4","last_reported":1726992649,"current_range_meters":38800,"station_id":"ce4bhlp2rcd13ifvqgjg","pricing_plan_id":"cebpf4jnsgd1na2vs0mg"},{"bike_id":"a51e77dd-e92f-4e96-a998-002ed08501fb","system_id":"levelo_inurba_marseille","lat":43.295762,"lon":5.367368,"is_reserved":false,"is_disabled":false,"rental_uris":{"android":"levelo://app?vid=a51e77dd-e92f-4e96-a998-002ed08501fb","ios":"levelo://app?vid=a51e77dd-e92f-4e96-a998-002ed08501fb"},"vehicle_type_id":"4","last_reported":1726992649,"current_range_meters":35600,"station_id":"ce4bhb92rcd13ifvqen0","pricing_plan_id":"cebpf4jnsgd1na2vs0mg"},{"bike_id":"add3a9bb-89c0-4474-99ed-e918f5013f73","system_id":"levelo_inurba_marseille","lat":43.2396,"lon":5.36642,"is_reserved":false,"is_disabled":false,"rental_uris":{"android":"levelo://app?vid=add3a9bb-89c0-4474-99ed-e918f5013f73","ios":"levelo://app?vid=add3a9bb-89c0-4474-99ed-e918f5013f73"},"vehicle_type_id":"4","last_reported":1726992649,"current_range_meters":38800,"station_id":"ce4bhi12rcd13ifvqfp0","pricing_plan_id":"cebpf4jnsgd1na2vs0mg"},{"bike_id":"a165de31-4ba5-4662-a273-999eba1034c7","system_id":"levelo_inurba_marseille","lat":43.25825,"lon":5.39436,"is_reserved":false,"is_disabled":false,"rental_uris":{"android":"levelo://app?vid=a165de31-4ba5-4662-a273-999eba1034c7","ios":"levelo://app?vid=a165de31-4ba5-4662-a273-999eba1034c7"},"vehicle_type_id":"4","last_reported":1726992649,"current_range_meters":24400,"station_id":"ce4bhip2rcd13ifvqft0","pricing_plan_id":"cebpf4jnsgd1na2vs0mg"},{"bike_id":"89cdcc83-7aab-4c78-8e76-aa0ccb30eb08","system_id":"levelo_inurba_marseille","lat":43.31711,"lon":5.43705,"is_reserved":false,"is_disabled":false,"rental_uris":{"android":"levelo://app?vid=89cdcc83-7aab-4c78-8e76-aa0ccb30eb08","ios":"levelo://app?vid=89cdcc83-7aab-4c78-8e76-aa0ccb30eb08"},"vehicle_type_id":"4","last_reported":1726992649,"current_range_meters":21600,"station_id":"ce4bhp92rcd13ifvqhcg","pricing_plan_id":"cebpf4jnsgd1na2vs0mg"},{"bike_id":"dff3701d-b005-47ea-ace2-da2d45311a04","system_id":"levelo_inurba_marseille","lat":43.29,"lon":5.35599,"is_reserved":false,"is_disabled":false,"rental_uris":{"android":"levelo://app?vid=dff3701d-b005-47ea-ace2-da2d45311a04","ios":"levelo://app?vid=dff3701d-b005-47ea-ace2-da2d45311a04"},"vehicle_type_id":"4","last_reported":1726992649,"current_range_meters":39200,"station_id":"ce4bhb92rcd13ifvqen0","pricing_plan_id":"cebpf4jnsgd1na2vs0mg"},{"bike_id":"bedab225-f351-4171-a869-119b3a01c5f3","system_id":"levelo_inurba_marseille","lat":43.28442,"lon":5.3918,"is_reserved":false,"is_disabled":false,"rental_uris":{"android":"levelo://app?vid=bedab225-f351-4171-a869-119b3a01c5f3","ios":"levelo://app?vid=bedab225-f351-4171-a869-119b3a01c5f3"},"vehicle_type_id":"4","last_reported":1726992649,"current_range_meters":38800,"station_id":"ce4bhoh2rcd13ifvqh5g","pricing_plan_id":"cebpf4jnsgd1na2vs0mg"},{"bike_id":"f1a1b266-38cd-4948-a071-219f89de7e58","system_id":"levelo_inurba_marseille","lat":43.287,"lon":5.37388,"is_reserved":false,"is_disabled":false,"rental_uris":{"android":"levelo://app?vid=f1a1b266-38cd-4948-a071-219f89de7e58","ios":"levelo://app?vid=f1a1b266-38cd-4948-a071-219f89de7e58"},"vehicle_type_id":"4","last_reported":1726992649,"current_range_meters":39200,"station_id":"ce4bh3p2rcd13ifvqdq0","pricing_plan_id":"cebpf4jnsgd1na2vs0mg"},{"bike_id":"9fad6916-fb07-4adf-8dcf-0df96c90bf20","system_id":"levelo_inurba_marseille","lat":43.29191,"lon":5.35789,"is_reserved":false,"is_disabled":false,"rental_uris":{"android":"levelo://app?vid=9fad6916-fb07-4adf-8dcf-0df96c90bf20","ios":"levelo://app?vid=9fad6916-fb07-4adf-8dcf-0df96c90bf20"},"vehicle_type_id":"4","last_reported":1726992649,"current_range_meters":38800,"station_id":"ce4bhb12rcd13ifvqel0","pricing_plan_id":"cebpf4jnsgd1na2vs0mg"},{"bike_id":"29c3801a-7b4c-47aa-a6ad-d81b447de9a5","system_id":"levelo_inurba_marseille","lat":43.30416,"lon":5.41287,"is_reserved":false,"is_disabled":false,"rental_uris":{"android":"levelo://app?vid=29c3801a-7b4c-47aa-a6ad-d81b447de9a5","ios":"levelo://app?vid=29c3801a-7b4c-47aa-a6ad-d81b447de9a5"},"vehicle_type_id":"4","last_reported":1726992649,"current_range_meters":26000,"station_id":"ce4bhop2rcd13ifvqh8g","pricing_plan_id":"cebpf4jnsgd1na2vs0mg"},{"bike_id":"dd61549d-48e7-4a71-a4b7-6d238de3a967","system_id":"levelo_inurba_marseille","lat":43.28342,"lon":5.38107,"is_reserved":false,"is_disabled":false,"rental_uris":{"android":"levelo://app?vid=dd61549d-48e7-4a71-a4b7-6d238de3a967","ios":"levelo://app?vid=dd61549d-48e7-4a71-a4b7-6d238de3a967"},"vehicle_type_id":"4","last_reported":1726992649,"current_range_meters":36000,"station_id":"ce4bh412rcd13ifvqdr0","pricing_plan_id":"cebpf4jnsgd1na2vs0mg"},{"bike_id":"b9043ee7-1b51-4205-a7f8-061a93eb7c50","system_id":"levelo_inurba_marseille","lat":43.31889,"lon":5.40736,"is_reserved":false,"is_disabled":false,"rental_uris":{"android":"levelo://app?vid=b9043ee7-1b51-4205-a7f8-061a93eb7c50","ios":"levelo://app?vid=b9043ee7-1b51-4205-a7f8-061a93eb7c50"},"vehicle_type_id":"4","last_reported":1726992649,"current_range_meters":39200,"station_id":"ce4bhq12rcd13ifvqhig","pricing_plan_id":"cebpf4jnsgd1na2vs0mg"},{"bike_id":"3c168981-3815-461f-893b-90b4ce403053","system_id":"levelo_inurba_marseille","lat":43.25864,"lon":5.39898,"is_reserved":false,"is_disabled":false,"rental_uris":{"android":"levelo://app?vid=3c168981-3815-461f-893b-90b4ce403053","ios":"levelo://app?vid=3c168981-3815-461f-893b-90b4ce403053"},"vehicle_type_id":"4","last_reported":1726992649,"current_range_meters":25200,"station_id":"ce4bhl92rcd13ifvqghg","pricing_plan_id":"cebpf4jnsgd1na2vs0mg"},{"bike_id":"20a042f1-81aa-4cde-8548-4f002e395336","system_id":"levelo_inurba_marseille","lat":43.3017,"lon":5.39856,"is_reserved":false,"is_disabled":false,"rental_uris":{"android":"levelo://app?vid=20a042f1-81aa-4cde-8548-4f002e395336","ios":"levelo://app?vid=20a042f1-81aa-4cde-8548-4f002e395336"},"vehicle_type_id":"4","last_reported":1726992649,"current_range_meters":37600,"station_id":"ce4bgvp2rcd13ifvqct0","pricing_plan_id":"cebpf4jnsgd1na2vs0mg"},{"bike_id":"3f3a1968-161c-4281-9dac-b1f6f3f79cd0","system_id":"levelo_inurba_marseille","lat":43.27492,"lon":5.42456,"is_reserved":false,"is_disabled":false,"rental_uris":{"android":"levelo://app?vid=3f3a1968-161c-4281-9dac-b1f6f3f79cd0","ios":"levelo://app?vid=3f3a1968-161c-4281-9dac-b1f6f3f79cd0"},"vehicle_type_id":"4","last_reported":1726992649,"current_range_meters":17200,"station_id":"ce4bhn92rcd13ifvqgrg","pricing_plan_id":"cebpf4jnsgd1na2vs0mg"},{"bike_id":"ea76e2d8-2a52-4e93-b8ee-165e894e3fd3","system_id":"levelo_inurba_marseille","lat":43.286417,"lon":5.364867,"is_reserved":false,"is_disabled":false,"rental_uris":{"android":"levelo://app?vid=ea76e2d8-2a52-4e93-b8ee-165e894e3fd3","ios":"levelo://app?vid=ea76e2d8-2a52-4e93-b8ee-165e894e3fd3"},"vehicle_type_id":"4","last_reported":1726992649,"current_range_meters":24800,"station_id":"ce4bhah2rcd13ifvqej0","pricing_plan_id":"cebpf4jnsgd1na2vs0mg"},{"bike_id":"a4ae4f79-4648-4b4c-bac6-c78ecf3d57bc","system_id":"levelo_inurba_marseille","lat":43.31083,"lon":5.42429,"is_reserved":false,"is_disabled":false,"rental_uris":{"android":"levelo://app?vid=a4ae4f79-4648-4b4c-bac6-c78ecf3d57bc","ios":"levelo://app?vid=a4ae4f79-4648-4b4c-bac6-c78ecf3d57bc"},"vehicle_type_id":"4","last_reported":1726992649,"current_range_meters":10000,"station_id":"ce4bhp92rcd13ifvqhag","pricing_plan_id":"cebpf4jnsgd1na2vs0mg"},{"bike_id":"18005f0f-cb04-4552-ac34-a83d28760a6b","system_id":"levelo_inurba_marseille","lat":43.28098,"lon":5.37836,"is_reserved":false,"is_disabled":false,"rental_uris":{"android":"levelo://app?vid=18005f0f-cb04-4552-ac34-a83d28760a6b","ios":"levelo://app?vid=18005f0f-cb04-4552-ac34-a83d28760a6b"},"vehicle_type_id":"4","last_reported":1726992649,"current_range_meters":38400,"station_id":"ce4bha12rcd13ifvqee0","pricing_plan_id":"cebpf4jnsgd1na2vs0mg"},{"bike_id":"1613dd11-4b97-4896-85a3-73470be49a6a","system_id":"levelo_inurba_marseille","lat":43.3171,"lon":5.43704,"is_reserved":false,"is_disabled":false,"rental_uris":{"android":"levelo://app?vid=1613dd11-4b97-4896-85a3-73470be49a6a","ios":"levelo://app?vid=1613dd11-4b97-4896-85a3-73470be49a6a"},"vehicle_type_id":"4","last_reported":1726992649,"current_range_meters":36400,"station_id":"ce4bhp92rcd13ifvqhcg","pricing_plan_id":"cebpf4jnsgd1na2vs0mg"},{"bike_id":"d4c3c260-b3a8-4fe5-aec9-07f42c5f5835","system_id":"levelo_inurba_marseille","lat":43.29037,"lon":5.35907,"is_reserved":false,"is_disabled":false,"rental_uris":{"android":"levelo://app?vid=d4c3c260-b3a8-4fe5-aec9-07f42c5f5835","ios":"levelo://app?vid=d4c3c260-b3a8-4fe5-aec9-07f42c5f5835"},"vehicle_type_id":"4","last_reported":1726992649,"current_range_meters":38800,"station_id":"ce4bha92rcd13ifvqeg0","pricing_plan_id":"cebpf4jnsgd1na2vs0mg"},{"bike_id":"1ee41df2-3cf2-4f6b-8009-61bf353657af","system_id":"levelo_inurba_marseille","lat":43.32333,"lon":5.40617,"is_reserved":false,"is_disabled":false,"rental_uris":{"android":"levelo://app?vid=1ee41df2-3cf2-4f6b-8009-61bf353657af","ios":"levelo://app?vid=1ee41df2-3cf2-4f6b-8009-61bf353657af"},"vehicle_type_id":"4","last_reported":1726992649,"current_range_meters":10000,"station_id":"ce4bhq92rcd13ifvqhjg","pricing_plan_id":"cebpf4jnsgd1na2vs0mg"},{"bike_id":"6eb7f0eb-b1d6-49fe-bba6-beac0362eedd","system_id":"levelo_inurba_marseille","lat":43.27173,"lon":5.40991,"is_reserved":false,"is_disabled":false,"rental_uris":{"android":"levelo://app?vid=6eb7f0eb-b1d6-49fe-bba6-beac0362eedd","ios":"levelo://app?vid=6eb7f0eb-b1d6-49fe-bba6-beac0362eedd"},"vehicle_type_id":"4","last_reported":1726992649,"current_range_meters":38800,"station_id":"ce4bhl12rcd13ifvqgf0","pricing_plan_id":"cebpf4jnsgd1na2vs0mg"},{"bike_id":"e1181a64-e0c5-44b6-a184-90a821734232","system_id":"levelo_inurba_marseille","lat":43.26495,"lon":5.39535,"is_reserved":false,"is_disabled":false,"rental_uris":{"android":"levelo://app?vid=e1181a64-e0c5-44b6-a184-90a821734232","ios":"levelo://app?vid=e1181a64-e0c5-44b6-a184-90a821734232"},"vehicle_type_id":"4","last_reported":1726992649,"current_range_meters":29600,"station_id":"ce4bhi12rcd13ifvqfq0","pricing_plan_id":"cebpf4jnsgd1na2vs0mg"},{"bike_id":"96247566-d518-4409-a232-ee6adf73b250","system_id":"levelo_inurba_marseille","lat":43.2861,"lon":5.35097,"is_reserved":false,"is_disabled":false,"rental_uris":{"android":"levelo://app?vid=96247566-d518-4409-a232-ee6adf73b250","ios":"levelo://app?vid=96247566-d518-4409-a232-ee6adf73b250"},"vehicle_type_id":"4","last_reported":1726992649,"current_range_meters":38800,"station_id":"ce4bhch2rcd13ifvqeug","pricing_plan_id":"cebpf4jnsgd1na2vs0mg"},{"bike_id":"ddef2735-203a-4460-8fe2-32d0d088e5d5","system_id":"levelo_inurba_marseille","lat":43.31236,"lon":5.37984,"is_reserved":false,"is_disabled":false,"rental_uris":{"android":"levelo://app?vid=ddef2735-203a-4460-8fe2-32d0d088e5d5","ios":"levelo://app?vid=ddef2735-203a-4460-8fe2-32d0d088e5d5"},"vehicle_type_id":"4","last_reported":1726992649,"current_range_meters":7200,"station_id":"","pricing_plan_id":"cebpf4jnsgd1na2vs0mg"},{"bike_id":"c2aeaa9f-95d3-46e1-a6df-c50d01326656","system_id":"levelo_inurba_marseille","lat":43.29039,"lon":5.3996,"is_reserved":false,"is_disabled":false,"rental_uris":{"android":"levelo://app?vid=c2aeaa9f-95d3-46e1-a6df-c50d01326656","ios":"levelo://app?vid=c2aeaa9f-95d3-46e1-a6df-c50d01326656"},"vehicle_type_id":"4","last_reported":1726992649,"current_range_meters":27600,"station_id":"ce4bh392rcd13ifvqdm0","pricing_plan_id":"cebpf4jnsgd1na2vs0mg"},{"bike_id":"6827b231-1d6c-4880-9e24-d675a65cf584","system_id":"levelo_inurba_marseille","lat":43.32341,"lon":5.40626,"is_reserved":false,"is_disabled":false,"rental_uris":{"android":"levelo://app?vid=6827b231-1d6c-4880-9e24-d675a65cf584","ios":"levelo://app?vid=6827b231-1d6c-4880-9e24-d675a65cf584"},"vehicle_type_id":"4","last_reported":1726992649,"current_range_meters":8800,"station_id":"ce4bhq92rcd13ifvqhjg","pricing_plan_id":"cebpf4jnsgd1na2vs0mg"},{"bike_id":"0306de8e-8a38-4268-bad8-568b2c2495b5","system_id":"levelo_inurba_marseille","lat":43.26793,"lon":5.39409,"is_reserved":false,"is_disabled":false,"rental_uris":{"android":"levelo://app?vid=0306de8e-8a38-4268-bad8-568b2c2495b5","ios":"levelo://app?vid=0306de8e-8a38-4268-bad8-568b2c2495b5"},"vehicle_type_id":"4","last_reported":1726992649,"current_range_meters":38800,"station_id":"ce4bhh12rcd13ifvqfg0","pricing_plan_id":"cebpf4jnsgd1na2vs0mg"},{"bike_id":"80ef0bbe-2694-4d57-aa26-0ee82b5cdca4","system_id":"levelo_inurba_marseille","lat":43.32657,"lon":5.40992,"is_reserved":false,"is_disabled":false,"rental_uris":{"android":"levelo://app?vid=80ef0bbe-2694-4d57-aa26-0ee82b5cdca4","ios":"levelo://app?vid=80ef0bbe-2694-4d57-aa26-0ee82b5cdca4"},"vehicle_type_id":"4","last_reported":1726992649,"current_range_meters":38000,"station_id":"ce4bhpp2rcd13ifvqhgg","pricing_plan_id":"cebpf4jnsgd1na2vs0mg"},{"bike_id":"f6234d67-024f-421c-9c42-4afcedf786e9","system_id":"levelo_inurba_marseille","lat":43.29879,"lon":5.38906,"is_reserved":false,"is_disabled":false,"rental_uris":{"android":"levelo://app?vid=f6234d67-024f-421c-9c42-4afcedf786e9","ios":"levelo://app?vid=f6234d67-024f-421c-9c42-4afcedf786e9"},"vehicle_type_id":"4","last_reported":1726992649,"current_range_meters":8000,"station_id":"ce4bh392rcd13ifvqdl0","pricing_plan_id":"cebpf4jnsgd1na2vs0mg"},{"bike_id":"723f33ba-ee51-48ff-85ce-ad3e3fd37e58","system_id":"levelo_inurba_marseille","lat":43.30784,"lon":5.38148,"is_reserved":false,"is_disabled":false,"rental_uris":{"android":"levelo://app?vid=723f33ba-ee51-48ff-85ce-ad3e3fd37e58","ios":"levelo://app?vid=723f33ba-ee51-48ff-85ce-ad3e3fd37e58"},"vehicle_type_id":"4","last_reported":1726992649,"current_range_meters":7200,"station_id":"ce4bgt12rcd13ifvqce0","pricing_plan_id":"cebpf4jnsgd1na2vs0mg"},{"bike_id":"c85384e8-7ffe-4c1b-b8e3-bfed30ec9d77","system_id":"levelo_inurba_marseille","lat":43.28417,"lon":5.3751,"is_reserved":false,"is_disabled":false,"rental_uris":{"android":"levelo://app?vid=c85384e8-7ffe-4c1b-b8e3-bfed30ec9d77","ios":"levelo://app?vid=c85384e8-7ffe-4c1b-b8e3-bfed30ec9d77"},"vehicle_type_id":"4","last_reported":1726992649,"current_range_meters":38400,"station_id":"ce4bh412rcd13ifvqds0","pricing_plan_id":"cebpf4jnsgd1na2vs0mg"},{"bike_id":"6419325f-76c1-4392-9dbc-8446db0b27c5","system_id":"levelo_inurba_marseille","lat":43.30274,"lon":5.38372,"is_reserved":false,"is_disabled":false,"rental_uris":{"android":"levelo://app?vid=6419325f-76c1-4392-9dbc-8446db0b27c5","ios":"levelo://app?vid=6419325f-76c1-4392-9dbc-8446db0b27c5"},"vehicle_type_id":"4","last_reported":1726992649,"current_range_meters":16400,"station_id":"","pricing_plan_id":"cebpf4jnsgd1na2vs0mg"},{"bike_id":"9b7369cf-12ea-470b-a069-bd3af48648d1","system_id":"levelo_inurba_marseille","lat":43.30882,"lon":5.36806,"is_reserved":false,"is_disabled":false,"rental_uris":{"android":"levelo://app?vid=9b7369cf-12ea-470b-a069-bd3af48648d1","ios":"levelo://app?vid=9b7369cf-12ea-470b-a069-bd3af48648d1"},"vehicle_type_id":"4","last_reported":1726992649,"current_range_meters":38800,"station_id":"ce4bgn92rcd13ifvqbvg","pricing_plan_id":"cebpf4jnsgd1na2vs0mg"},{"bike_id":"bda83ca7-9798-4a91-9454-79010960b865","system_id":"levelo_inurba_marseille","lat":43.25719,"lon":5.41119,"is_reserved":false,"is_disabled":false,"rental_uris":{"android":"levelo://app?vid=bda83ca7-9798-4a91-9454-79010960b865","ios":"levelo://app?vid=bda83ca7-9798-4a91-9454-79010960b865"},"vehicle_type_id":"4","last_reported":1726992649,"current_range_meters":31200,"station_id":"ce4bhkp2rcd13ifvqgd0","pricing_plan_id":"cebpf4jnsgd1na2vs0mg"},{"bike_id":"2abfd0da-52ff-49fd-a5cb-a8f4dd818089","system_id":"levelo_inurba_marseille","lat":43.28156,"lon":5.42651,"is_reserved":false,"is_disabled":false,"rental_uris":{"android":"levelo://app?vid=2abfd0da-52ff-49fd-a5cb-a8f4dd818089","ios":"levelo://app?vid=2abfd0da-52ff-49fd-a5cb-a8f4dd818089"},"vehicle_type_id":"4","last_reported":1726992649,"current_range_meters":37600,"station_id":"ce4bhnh2rcd13ifvqgug","pricing_plan_id":"cebpf4jnsgd1na2vs0mg"},{"bike_id":"edfb1ff5-b81b-4225-8da9-100a9115b1e3","system_id":"levelo_inurba_marseille","lat":43.29735,"lon":5.36561,"is_reserved":false,"is_disabled":false,"rental_uris":{"android":"levelo://app?vid=edfb1ff5-b81b-4225-8da9-100a9115b1e3","ios":"levelo://app?vid=edfb1ff5-b81b-4225-8da9-100a9115b1e3"},"vehicle_type_id":"4","last_reported":1726992649,"current_range_meters":4400,"station_id":"","pricing_plan_id":"cebpf4jnsgd1na2vs0mg"},{"bike_id":"f546244a-65eb-486c-a7af-0ba1eaebe8c5","system_id":"levelo_inurba_marseille","lat":43.29042,"lon":5.3997,"is_reserved":false,"is_disabled":false,"rental_uris":{"android":"levelo://app?vid=f546244a-65eb-486c-a7af-0ba1eaebe8c5","ios":"levelo://app?vid=f546244a-65eb-486c-a7af-0ba1eaebe8c5"},"vehicle_type_id":"4","last_reported":1726992649,"current_range_meters":24000,"station_id":"ce4bh392rcd13ifvqdm0","pricing_plan_id":"cebpf4jnsgd1na2vs0mg"},{"bike_id":"e183f995-1eb3-447f-981c-bd060460043d","system_id":"levelo_inurba_marseille","lat":43.28412,"lon":5.37518,"is_reserved":false,"is_disabled":false,"rental_uris":{"android":"levelo://app?vid=e183f995-1eb3-447f-981c-bd060460043d","ios":"levelo://app?vid=e183f995-1eb3-447f-981c-bd060460043d"},"vehicle_type_id":"4","last_reported":1726992649,"current_range_meters":37600,"station_id":"ce4bh412rcd13ifvqds0","pricing_plan_id":"cebpf4jnsgd1na2vs0mg"},{"bike_id":"2ec63d0f-1fb9-49d0-9b49-38ec6ad1fbe0","system_id":"levelo_inurba_marseille","lat":43.3078,"lon":5.37649,"is_reserved":false,"is_disabled":false,"rental_uris":{"android":"levelo://app?vid=2ec63d0f-1fb9-49d0-9b49-38ec6ad1fbe0","ios":"levelo://app?vid=2ec63d0f-1fb9-49d0-9b49-38ec6ad1fbe0"},"vehicle_type_id":"4","last_reported":1726992649,"current_range_meters":38800,"station_id":"ce4bgv92rcd13ifvqcq0","pricing_plan_id":"cebpf4jnsgd1na2vs0mg"},{"bike_id":"c914526b-bc34-4a4c-8d27-ef89019aa801","system_id":"levelo_inurba_marseille","lat":43.29558,"lon":5.42291,"is_reserved":false,"is_disabled":false,"rental_uris":{"android":"levelo://app?vid=c914526b-bc34-4a4c-8d27-ef89019aa801","ios":"levelo://app?vid=c914526b-bc34-4a4c-8d27-ef89019aa801"},"vehicle_type_id":"4","last_reported":1726992649,"current_range_meters":16400,"station_id":"ce4bhph2rcd13ifvqhdg","pricing_plan_id":"cebpf4jnsgd1na2vs0mg"},{"bike_id":"0b2cf246-bf17-42b9-a068-c615697b42dc","system_id":"levelo_inurba_marseille","lat":43.31112,"lon":5.37773,"is_reserved":false,"is_disabled":false,"rental_uris":{"android":"levelo://app?vid=0b2cf246-bf17-42b9-a068-c615697b42dc","ios":"levelo://app?vid=0b2cf246-bf17-42b9-a068-c615697b42dc"},"vehicle_type_id":"4","last_reported":1726992649,"current_range_meters":34800,"station_id":"ce4bgt92rcd13ifvqcg0","pricing_plan_id":"cebpf4jnsgd1na2vs0mg"},{"bike_id":"26bddfec-0748-47a2-9395-97b7afaf6400","system_id":"levelo_inurba_marseille","lat":43.25862,"lon":5.39902,"is_reserved":false,"is_disabled":false,"rental_uris":{"android":"levelo://app?vid=26bddfec-0748-47a2-9395-97b7afaf6400","ios":"levelo://app?vid=26bddfec-0748-47a2-9395-97b7afaf6400"},"vehicle_type_id":"4","last_reported":1726992649,"current_range_meters":9200,"station_id":"ce4bhl92rcd13ifvqghg","pricing_plan_id":"cebpf4jnsgd1na2vs0mg"},{"bike_id":"3ab91b7c-c147-41e4-bbfa-5091b026f024","system_id":"levelo_inurba_marseille","lat":43.28275,"lon":5.35068,"is_reserved":false,"is_disabled":false,"rental_uris":{"android":"levelo://app?vid=3ab91b7c-c147-41e4-bbfa-5091b026f024","ios":"levelo://app?vid=3ab91b7c-c147-41e4-bbfa-5091b026f024"},"vehicle_type_id":"4","last_reported":1726992649,"current_range_meters":31200,"station_id":"ce4bhbp2rcd13ifvqerg","pricing_plan_id":"cebpf4jnsgd1na2vs0mg"},{"bike_id":"9b270c0b-276d-47a0-b1ea-db76f7a1e4e2","system_id":"levelo_inurba_marseille","lat":43.27381,"lon":5.36262,"is_reserved":false,"is_disabled":false,"rental_uris":{"android":"levelo://app?vid=9b270c0b-276d-47a0-b1ea-db76f7a1e4e2","ios":"levelo://app?vid=9b270c0b-276d-47a0-b1ea-db76f7a1e4e2"},"vehicle_type_id":"4","last_reported":1726992649,"current_range_meters":38400,"station_id":"ce4bhbh2rcd13ifvqeo0","pricing_plan_id":"cebpf4jnsgd1na2vs0mg"},{"bike_id":"03bad859-4358-4bb4-9b18-007f8463f1b5","system_id":"levelo_inurba_marseille","lat":43.23186,"lon":5.39982,"is_reserved":false,"is_disabled":false,"rental_uris":{"android":"levelo://app?vid=03bad859-4358-4bb4-9b18-007f8463f1b5","ios":"levelo://app?vid=03bad859-4358-4bb4-9b18-007f8463f1b5"},"vehicle_type_id":"4","last_reported":1726992649,"current_range_meters":38800,"station_id":"ce4bhn12rcd13ifvqgqg","pricing_plan_id":"cebpf4jnsgd1na2vs0mg"},{"bike_id":"72893abd-c62a-46e9-b638-e54ec5476bce","system_id":"levelo_inurba_marseille","lat":43.30417,"lon":5.41282,"is_reserved":false,"is_disabled":false,"rental_uris":{"android":"levelo://app?vid=72893abd-c62a-46e9-b638-e54ec5476bce","ios":"levelo://app?vid=72893abd-c62a-46e9-b638-e54ec5476bce"},"vehicle_type_id":"4","last_reported":1726992649,"current_range_meters":24000,"station_id":"ce4bhop2rcd13ifvqh8g","pricing_plan_id":"cebpf4jnsgd1na2vs0mg"},{"bike_id":"ea219450-0551-484e-bdfc-3c198bec9523","system_id":"levelo_inurba_marseille","lat":43.25866,"lon":5.39901,"is_reserved":false,"is_disabled":false,"rental_uris":{"android":"levelo://app?vid=ea219450-0551-484e-bdfc-3c198bec9523","ios":"levelo://app?vid=ea219450-0551-484e-bdfc-3c198bec9523"},"vehicle_type_id":"4","last_reported":1726992649,"current_range_meters":22000,"station_id":"ce4bhl92rcd13ifvqghg","pricing_plan_id":"cebpf4jnsgd1na2vs0mg"},{"bike_id":"be4e3a6b-ebd3-49c9-9eb8-d3f1c777207e","system_id":"levelo_inurba_marseille","lat":43.25115,"lon":5.40317,"is_reserved":false,"is_disabled":false,"rental_uris":{"android":"levelo://app?vid=be4e3a6b-ebd3-49c9-9eb8-d3f1c777207e","ios":"levelo://app?vid=be4e3a6b-ebd3-49c9-9eb8-d3f1c777207e"},"vehicle_type_id":"4","last_reported":1726992649,"current_range_meters":8400,"station_id":"ce4bhlh2rcd13ifvqgig","pricing_plan_id":"cebpf4jnsgd1na2vs0mg"},{"bike_id":"850b08d8-ed42-4ad0-b0d6-020b1b8ae309","system_id":"levelo_inurba_marseille","lat":43.29556,"lon":5.42271,"is_reserved":false,"is_disabled":false,"rental_uris":{"android":"levelo://app?vid=850b08d8-ed42-4ad0-b0d6-020b1b8ae309","ios":"levelo://app?vid=850b08d8-ed42-4ad0-b0d6-020b1b8ae309"},"vehicle_type_id":"4","last_reported":1726992649,"current_range_meters":13600,"station_id":"ce4bhph2rcd13ifvqhdg","pricing_plan_id":"cebpf4jnsgd1na2vs0mg"},{"bike_id":"081f9848-e6a5-48e4-b177-49826b380b89","system_id":"levelo_inurba_marseille","lat":43.25115,"lon":5.40319,"is_reserved":false,"is_disabled":false,"rental_uris":{"android":"levelo://app?vid=081f9848-e6a5-48e4-b177-49826b380b89","ios":"levelo://app?vid=081f9848-e6a5-48e4-b177-49826b380b89"},"vehicle_type_id":"4","last_reported":1726992649,"current_range_meters":36400,"station_id":"ce4bhlh2rcd13ifvqgig","pricing_plan_id":"cebpf4jnsgd1na2vs0mg"},{"bike_id":"40ae445b-e58e-4007-b412-a2f3e15ca14a","system_id":"levelo_inurba_marseille","lat":43.27201,"lon":5.39176,"is_reserved":false,"is_disabled":false,"rental_uris":{"android":"levelo://app?vid=40ae445b-e58e-4007-b412-a2f3e15ca14a","ios":"levelo://app?vid=40ae445b-e58e-4007-b412-a2f3e15ca14a"},"vehicle_type_id":"4","last_reported":1726992649,"current_range_meters":8800,"station_id":"ce4bhhp2rcd13ifvqfm0","pricing_plan_id":"cebpf4jnsgd1na2vs0mg"},{"bike_id":"0e80655c-5b3d-43d7-a3a0-9c317c246d02","system_id":"levelo_inurba_marseille","lat":43.25119,"lon":5.40318,"is_reserved":false,"is_disabled":false,"rental_uris":{"android":"levelo://app?vid=0e80655c-5b3d-43d7-a3a0-9c317c246d02","ios":"levelo://app?vid=0e80655c-5b3d-43d7-a3a0-9c317c246d02"},"vehicle_type_id":"4","last_reported":1726992649,"current_range_meters":38800,"station_id":"ce4bhlh2rcd13ifvqgig","pricing_plan_id":"cebpf4jnsgd1na2vs0mg"},{"bike_id":"94795108-246e-460b-abcb-1f5824765365","system_id":"levelo_inurba_marseille","lat":43.286102,"lon":5.370631,"is_reserved":false,"is_disabled":false,"rental_uris":{"android":"levelo://app?vid=94795108-246e-460b-abcb-1f5824765365","ios":"levelo://app?vid=94795108-246e-460b-abcb-1f5824765365"},"vehicle_type_id":"4","last_reported":1726992649,"current_range_meters":38800,"station_id":"ce4bht12rcd13ifvqi60","pricing_plan_id":"cebpf4jnsgd1na2vs0mg"},{"bike_id":"230c0f04-1561-430b-8344-301a5593819b","system_id":"levelo_inurba_marseille","lat":43.30889,"lon":5.37193,"is_reserved":false,"is_disabled":false,"rental_uris":{"android":"levelo://app?vid=230c0f04-1561-430b-8344-301a5593819b","ios":"levelo://app?vid=230c0f04-1561-430b-8344-301a5593819b"},"vehicle_type_id":"4","last_reported":1726992649,"current_range_meters":10000,"station_id":"ce4bguh2rcd13ifvqckg","pricing_plan_id":"cebpf4jnsgd1na2vs0mg"},{"bike_id":"b324fb21-ce8c-4819-9aba-57207cdedabc","system_id":"levelo_inurba_marseille","lat":43.286713,"lon":5.393217,"is_reserved":false,"is_disabled":false,"rental_uris":{"android":"levelo://app?vid=b324fb21-ce8c-4819-9aba-57207cdedabc","ios":"levelo://app?vid=b324fb21-ce8c-4819-9aba-57207cdedabc"},"vehicle_type_id":"4","last_reported":1726992649,"current_range_meters":17200,"station_id":"ce4bhop2rcd13ifvqh8g","pricing_plan_id":"cebpf4jnsgd1na2vs0mg"},{"bike_id":"7f6c13e6-2b1e-406a-8e3b-b6e6ea68c1f8","system_id":"levelo_inurba_marseille","lat":43.29265,"lon":5.40131,"is_reserved":false,"is_disabled":false,"rental_uris":{"android":"levelo://app?vid=7f6c13e6-2b1e-406a-8e3b-b6e6ea68c1f8","ios":"levelo://app?vid=7f6c13e6-2b1e-406a-8e3b-b6e6ea68c1f8"},"vehicle_type_id":"4","last_reported":1726992649,"current_range_meters":19200,"station_id":"ce4bh312rcd13ifvqdk0","pricing_plan_id":"cebpf4jnsgd1na2vs0mg"},{"bike_id":"54b7f973-33ed-4b77-bfc3-7847058bc7a6","system_id":"levelo_inurba_marseille","lat":43.31725,"lon":5.42406,"is_reserved":false,"is_disabled":false,"rental_uris":{"android":"levelo://app?vid=54b7f973-33ed-4b77-bfc3-7847058bc7a6","ios":"levelo://app?vid=54b7f973-33ed-4b77-bfc3-7847058bc7a6"},"vehicle_type_id":"4","last_reported":1726992649,"current_range_meters":39200,"station_id":"ce4bhp92rcd13ifvqhbg","pricing_plan_id":"cebpf4jnsgd1na2vs0mg"},{"bike_id":"280d8cdd-b558-44b2-9b85-42c52613bc7a","system_id":"levelo_inurba_marseille","lat":43.24653,"lon":5.38895,"is_reserved":false,"is_disabled":false,"rental_uris":{"android":"levelo://app?vid=280d8cdd-b558-44b2-9b85-42c52613bc7a","ios":"levelo://app?vid=280d8cdd-b558-44b2-9b85-42c52613bc7a"},"vehicle_type_id":"4","last_reported":1726992649,"current_range_meters":6800,"station_id":"ce4bhg12rcd13ifvqf60","pricing_plan_id":"cebpf4jnsgd1na2vs0mg"},{"bike_id":"e3148f64-045e-4cdc-af9d-640637308d67","system_id":"levelo_inurba_marseille","lat":43.2781,"lon":5.40709,"is_reserved":false,"is_disabled":false,"rental_uris":{"android":"levelo://app?vid=e3148f64-045e-4cdc-af9d-640637308d67","ios":"levelo://app?vid=e3148f64-045e-4cdc-af9d-640637308d67"},"vehicle_type_id":"4","last_reported":1726992649,"current_range_meters":37600,"station_id":"ce4bhnh2rcd13ifvqgtg","pricing_plan_id":"cebpf4jnsgd1na2vs0mg"},{"bike_id":"eeee92bd-6394-4d04-8487-072f4cc3e948","system_id":"levelo_inurba_marseille","lat":43.23961,"lon":5.36634,"is_reserved":false,"is_disabled":false,"rental_uris":{"android":"levelo://app?vid=eeee92bd-6394-4d04-8487-072f4cc3e948","ios":"levelo://app?vid=eeee92bd-6394-4d04-8487-072f4cc3e948"},"vehicle_type_id":"4","last_reported":1726992649,"current_range_meters":35200,"station_id":"ce4bhi12rcd13ifvqfp0","pricing_plan_id":"cebpf4jnsgd1na2vs0mg"},{"bike_id":"5419b1bf-d37c-4076-a34c-52ede101758e","system_id":"levelo_inurba_marseille","lat":43.337444,"lon":5.374475,"is_reserved":false,"is_disabled":false,"rental_uris":{"android":"levelo://app?vid=5419b1bf-d37c-4076-a34c-52ede101758e","ios":"levelo://app?vid=5419b1bf-d37c-4076-a34c-52ede101758e"},"vehicle_type_id":"4","last_reported":1726992649,"current_range_meters":28800,"station_id":"","pricing_plan_id":"cebpf4jnsgd1na2vs0mg"},{"bike_id":"013a1a54-8c71-4d7d-ad66-178705a1f09a","system_id":"levelo_inurba_marseille","lat":43.25874,"lon":5.39898,"is_reserved":false,"is_disabled":false,"rental_uris":{"android":"levelo://app?vid=013a1a54-8c71-4d7d-ad66-178705a1f09a","ios":"levelo://app?vid=013a1a54-8c71-4d7d-ad66-178705a1f09a"},"vehicle_type_id":"4","last_reported":1726992649,"current_range_meters":38800,"station_id":"ce4bhl92rcd13ifvqghg","pricing_plan_id":"cebpf4jnsgd1na2vs0mg"},{"bike_id":"3d11801b-4666-46ed-99aa-aabfb05b911e","system_id":"levelo_inurba_marseille","lat":43.31997,"lon":5.38146,"is_reserved":false,"is_disabled":false,"rental_uris":{"android":"levelo://app?vid=3d11801b-4666-46ed-99aa-aabfb05b911e","ios":"levelo://app?vid=3d11801b-4666-46ed-99aa-aabfb05b911e"},"vehicle_type_id":"4","last_reported":1726992649,"current_range_meters":38800,"station_id":"ce4bhr12rcd13ifvqhpg","pricing_plan_id":"cebpf4jnsgd1na2vs0mg"},{"bike_id":"2673b1af-9135-43a4-8271-b37cf775e47e","system_id":"levelo_inurba_marseille","lat":43.33601,"lon":5.41019,"is_reserved":false,"is_disabled":false,"rental_uris":{"android":"levelo://app?vid=2673b1af-9135-43a4-8271-b37cf775e47e","ios":"levelo://app?vid=2673b1af-9135-43a4-8271-b37cf775e47e"},"vehicle_type_id":"4","last_reported":1726992649,"current_range_meters":38800,"station_id":"ce4bhqh2rcd13ifvqhmg","pricing_plan_id":"cebpf4jnsgd1na2vs0mg"},{"bike_id":"1b037c9a-bb02-41f7-81f7-2761fe7dd92b","system_id":"levelo_inurba_marseille","lat":43.26212,"lon":5.37439,"is_reserved":false,"is_disabled":false,"rental_uris":{"android":"levelo://app?vid=1b037c9a-bb02-41f7-81f7-2761fe7dd92b","ios":"levelo://app?vid=1b037c9a-bb02-41f7-81f7-2761fe7dd92b"},"vehicle_type_id":"4","last_reported":1726992649,"current_range_meters":36000,"station_id":"ce4bhgp2rcd13ifvqfc0","pricing_plan_id":"cebpf4jnsgd1na2vs0mg"},{"bike_id":"870a1f8b-9acd-4417-ad40-456726425e82","system_id":"levelo_inurba_marseille","lat":43.28156,"lon":5.42637,"is_reserved":false,"is_disabled":false,"rental_uris":{"android":"levelo://app?vid=870a1f8b-9acd-4417-ad40-456726425e82","ios":"levelo://app?vid=870a1f8b-9acd-4417-ad40-456726425e82"},"vehicle_type_id":"4","last_reported":1726992649,"current_range_meters":19600,"station_id":"ce4bhnh2rcd13ifvqgug","pricing_plan_id":"cebpf4jnsgd1na2vs0mg"},{"bike_id":"43d81991-72a6-4c64-883e-7f7895935e3a","system_id":"levelo_inurba_marseille","lat":43.296631,"lon":5.390688,"is_reserved":false,"is_disabled":false,"rental_uris":{"android":"levelo://app?vid=43d81991-72a6-4c64-883e-7f7895935e3a","ios":"levelo://app?vid=43d81991-72a6-4c64-883e-7f7895935e3a"},"vehicle_type_id":"4","last_reported":1726992649,"current_range_meters":34800,"station_id":"","pricing_plan_id":"cebpf4jnsgd1na2vs0mg"},{"bike_id":"b7178700-f87d-4cd7-8b7c-4acbac304cf3","system_id":"levelo_inurba_marseille","lat":43.28562,"lon":5.3949,"is_reserved":false,"is_disabled":false,"rental_uris":{"android":"levelo://app?vid=b7178700-f87d-4cd7-8b7c-4acbac304cf3","ios":"levelo://app?vid=b7178700-f87d-4cd7-8b7c-4acbac304cf3"},"vehicle_type_id":"4","last_reported":1726992649,"current_range_meters":29600,"station_id":"ce4bh292rcd13ifvqdg0","pricing_plan_id":"cebpf4jnsgd1na2vs0mg"},{"bike_id":"cac34d75-f381-4336-8309-a17a4a0c1d69","system_id":"levelo_inurba_marseille","lat":43.25717,"lon":5.4111,"is_reserved":false,"is_disabled":false,"rental_uris":{"android":"levelo://app?vid=cac34d75-f381-4336-8309-a17a4a0c1d69","ios":"levelo://app?vid=cac34d75-f381-4336-8309-a17a4a0c1d69"},"vehicle_type_id":"4","last_reported":1726992649,"current_range_meters":24800,"station_id":"ce4bhkp2rcd13ifvqgd0","pricing_plan_id":"cebpf4jnsgd1na2vs0mg"},{"bike_id":"5f970973-f4f4-4937-9fbe-7af0359838f0","system_id":"levelo_inurba_marseille","lat":43.32342,"lon":5.40617,"is_reserved":false,"is_disabled":false,"rental_uris":{"android":"levelo://app?vid=5f970973-f4f4-4937-9fbe-7af0359838f0","ios":"levelo://app?vid=5f970973-f4f4-4937-9fbe-7af0359838f0"},"vehicle_type_id":"4","last_reported":1726992649,"current_range_meters":27200,"station_id":"ce4bhq92rcd13ifvqhjg","pricing_plan_id":"cebpf4jnsgd1na2vs0mg"},{"bike_id":"f59f9f07-2020-454d-8f62-ca65292624a4","system_id":"levelo_inurba_marseille","lat":43.31329,"lon":5.39694,"is_reserved":false,"is_disabled":false,"rental_uris":{"android":"levelo://app?vid=f59f9f07-2020-454d-8f62-ca65292624a4","ios":"levelo://app?vid=f59f9f07-2020-454d-8f62-ca65292624a4"},"vehicle_type_id":"4","last_reported":1726992649,"current_range_meters":36800,"station_id":"ce4bgvp2rcd13ifvqcu0","pricing_plan_id":"cebpf4jnsgd1na2vs0mg"},{"bike_id":"4d6f1b65-a95d-4510-bfbf-2bbf8ac25c86","system_id":"levelo_inurba_marseille","lat":43.3153,"lon":5.38031,"is_reserved":false,"is_disabled":false,"rental_uris":{"android":"levelo://app?vid=4d6f1b65-a95d-4510-bfbf-2bbf8ac25c86","ios":"levelo://app?vid=4d6f1b65-a95d-4510-bfbf-2bbf8ac25c86"},"vehicle_type_id":"4","last_reported":1726992649,"current_range_meters":30400,"station_id":"ce4bhsp2rcd13ifvqi50","pricing_plan_id":"cebpf4jnsgd1na2vs0mg"},{"bike_id":"e9519760-4bc9-4ccc-8913-faa65ced2e8f","system_id":"levelo_inurba_marseille","lat":43.2869,"lon":5.39978,"is_reserved":false,"is_disabled":false,"rental_uris":{"android":"levelo://app?vid=e9519760-4bc9-4ccc-8913-faa65ced2e8f","ios":"levelo://app?vid=e9519760-4bc9-4ccc-8913-faa65ced2e8f"},"vehicle_type_id":"4","last_reported":1726992649,"current_range_meters":38000,"station_id":"ce4bho92rcd13ifvqh3g","pricing_plan_id":"cebpf4jnsgd1na2vs0mg"},{"bike_id":"f196cae4-4da8-4191-8e3a-3f8fcdaa11a6","system_id":"levelo_inurba_marseille","lat":43.31063,"lon":5.38355,"is_reserved":false,"is_disabled":false,"rental_uris":{"android":"levelo://app?vid=f196cae4-4da8-4191-8e3a-3f8fcdaa11a6","ios":"levelo://app?vid=f196cae4-4da8-4191-8e3a-3f8fcdaa11a6"},"vehicle_type_id":"4","last_reported":1726992649,"current_range_meters":34800,"station_id":"ce4bgv92rcd13ifvqcr0","pricing_plan_id":"cebpf4jnsgd1na2vs0mg"},{"bike_id":"915340f7-a17f-44b0-ba7c-21f3b9d727ea","system_id":"levelo_inurba_marseille","lat":43.29556,"lon":5.42285,"is_reserved":false,"is_disabled":false,"rental_uris":{"android":"levelo://app?vid=915340f7-a17f-44b0-ba7c-21f3b9d727ea","ios":"levelo://app?vid=915340f7-a17f-44b0-ba7c-21f3b9d727ea"},"vehicle_type_id":"4","last_reported":1726992649,"current_range_meters":28800,"station_id":"ce4bhph2rcd13ifvqhdg","pricing_plan_id":"cebpf4jnsgd1na2vs0mg"},{"bike_id":"149779fc-bc45-458a-857f-33707eedaf6a","system_id":"levelo_inurba_marseille","lat":43.23197,"lon":5.35554,"is_reserved":false,"is_disabled":false,"rental_uris":{"android":"levelo://app?vid=149779fc-bc45-458a-857f-33707eedaf6a","ios":"levelo://app?vid=149779fc-bc45-458a-857f-33707eedaf6a"},"vehicle_type_id":"4","last_reported":1726992649,"current_range_meters":16400,"station_id":"ce4bhu92rcd13ifvqi70","pricing_plan_id":"cebpf4jnsgd1na2vs0mg"},{"bike_id":"886ef885-2e29-4a5a-9fda-6e6c4ef6282a","system_id":"levelo_inurba_marseille","lat":43.29593,"lon":5.38102,"is_reserved":false,"is_disabled":false,"rental_uris":{"android":"levelo://app?vid=886ef885-2e29-4a5a-9fda-6e6c4ef6282a","ios":"levelo://app?vid=886ef885-2e29-4a5a-9fda-6e6c4ef6282a"},"vehicle_type_id":"4","last_reported":1726992649,"current_range_meters":38400,"station_id":"ce4bgl12rcd13ifvqbo0","pricing_plan_id":"cebpf4jnsgd1na2vs0mg"},{"bike_id":"bbcee43f-f0a6-4322-a0cd-d934913cb299","system_id":"levelo_inurba_marseille","lat":43.273951,"lon":5.393439,"is_reserved":false,"is_disabled":false,"rental_uris":{"android":"levelo://app?vid=bbcee43f-f0a6-4322-a0cd-d934913cb299","ios":"levelo://app?vid=bbcee43f-f0a6-4322-a0cd-d934913cb299"},"vehicle_type_id":"4","last_reported":1726992649,"current_range_meters":36800,"station_id":"ce4bhjp2rcd13ifvqg90","pricing_plan_id":"cebpf4jnsgd1na2vs0mg"},{"bike_id":"9c953aea-1601-4259-a38b-3d5e06643e05","system_id":"levelo_inurba_marseille","lat":43.27623,"lon":5.36113,"is_reserved":false,"is_disabled":false,"rental_uris":{"android":"levelo://app?vid=9c953aea-1601-4259-a38b-3d5e06643e05","ios":"levelo://app?vid=9c953aea-1601-4259-a38b-3d5e06643e05"},"vehicle_type_id":"4","last_reported":1726992649,"current_range_meters":38800,"station_id":"ce4bgj92rcd13ifvqbe0","pricing_plan_id":"cebpf4jnsgd1na2vs0mg"},{"bike_id":"bbb13e8a-5e7e-44c9-afc9-214f1554592c","system_id":"levelo_inurba_marseille","lat":43.25107,"lon":5.40323,"is_reserved":false,"is_disabled":false,"rental_uris":{"android":"levelo://app?vid=bbb13e8a-5e7e-44c9-afc9-214f1554592c","ios":"levelo://app?vid=bbb13e8a-5e7e-44c9-afc9-214f1554592c"},"vehicle_type_id":"4","last_reported":1726992649,"current_range_meters":38000,"station_id":"ce4bhlh2rcd13ifvqgig","pricing_plan_id":"cebpf4jnsgd1na2vs0mg"},{"bike_id":"7d903340-b844-4bfb-bb1e-f140d594d2c5","system_id":"levelo_inurba_marseille","lat":43.30352,"lon":5.41874,"is_reserved":false,"is_disabled":false,"rental_uris":{"android":"levelo://app?vid=7d903340-b844-4bfb-bb1e-f140d594d2c5","ios":"levelo://app?vid=7d903340-b844-4bfb-bb1e-f140d594d2c5"},"vehicle_type_id":"4","last_reported":1726992649,"current_range_meters":35600,"station_id":"ce4bhop2rcd13ifvqh7g","pricing_plan_id":"cebpf4jnsgd1na2vs0mg"},{"bike_id":"3029a821-4f09-426b-9136-c97c9c0dcd3a","system_id":"levelo_inurba_marseille","lat":43.26485,"lon":5.3954,"is_reserved":false,"is_disabled":false,"rental_uris":{"android":"levelo://app?vid=3029a821-4f09-426b-9136-c97c9c0dcd3a","ios":"levelo://app?vid=3029a821-4f09-426b-9136-c97c9c0dcd3a"},"vehicle_type_id":"4","last_reported":1726992649,"current_range_meters":38000,"station_id":"ce4bhi12rcd13ifvqfq0","pricing_plan_id":"cebpf4jnsgd1na2vs0mg"},{"bike_id":"61437227-be5e-4999-bb29-38fdb6c6fcc9","system_id":"levelo_inurba_marseille","lat":43.30464,"lon":5.37899,"is_reserved":false,"is_disabled":false,"rental_uris":{"android":"levelo://app?vid=61437227-be5e-4999-bb29-38fdb6c6fcc9","ios":"levelo://app?vid=61437227-be5e-4999-bb29-38fdb6c6fcc9"},"vehicle_type_id":"4","last_reported":1726992649,"current_range_meters":38800,"station_id":"ce4bgup2rcd13ifvqcn0","pricing_plan_id":"cebpf4jnsgd1na2vs0mg"},{"bike_id":"604c9531-be4f-4974-bfe2-bd7828d7386f","system_id":"levelo_inurba_marseille","lat":43.29899,"lon":5.43667,"is_reserved":false,"is_disabled":false,"rental_uris":{"android":"levelo://app?vid=604c9531-be4f-4974-bfe2-bd7828d7386f","ios":"levelo://app?vid=604c9531-be4f-4974-bfe2-bd7828d7386f"},"vehicle_type_id":"4","last_reported":1726992649,"current_range_meters":18800,"station_id":"ce4bhpp2rcd13ifvqhfg","pricing_plan_id":"cebpf4jnsgd1na2vs0mg"},{"bike_id":"eec183a6-fbde-4115-8944-4e614e79191d","system_id":"levelo_inurba_marseille","lat":43.26934,"lon":5.40255,"is_reserved":false,"is_disabled":false,"rental_uris":{"android":"levelo://app?vid=eec183a6-fbde-4115-8944-4e614e79191d","ios":"levelo://app?vid=eec183a6-fbde-4115-8944-4e614e79191d"},"vehicle_type_id":"4","last_reported":1726992649,"current_range_meters":19600,"station_id":"cjm6bp8fraef2m0cb0m0","pricing_plan_id":"cebpf4jnsgd1na2vs0mg"},{"bike_id":"dffd4f54-b346-4788-86ea-8f518e84719a","system_id":"levelo_inurba_marseille","lat":43.31892,"lon":5.4073,"is_reserved":false,"is_disabled":false,"rental_uris":{"android":"levelo://app?vid=dffd4f54-b346-4788-86ea-8f518e84719a","ios":"levelo://app?vid=dffd4f54-b346-4788-86ea-8f518e84719a"},"vehicle_type_id":"4","last_reported":1726992649,"current_range_meters":20800,"station_id":"ce4bhq12rcd13ifvqhig","pricing_plan_id":"cebpf4jnsgd1na2vs0mg"},{"bike_id":"46121cc0-436d-4cf1-9853-45960b7d4d1b","system_id":"levelo_inurba_marseille","lat":43.23971,"lon":5.3662,"is_reserved":false,"is_disabled":false,"rental_uris":{"android":"levelo://app?vid=46121cc0-436d-4cf1-9853-45960b7d4d1b","ios":"levelo://app?vid=46121cc0-436d-4cf1-9853-45960b7d4d1b"},"vehicle_type_id":"4","last_reported":1726992649,"current_range_meters":36800,"station_id":"ce4bhi12rcd13ifvqfp0","pricing_plan_id":"cebpf4jnsgd1na2vs0mg"},{"bike_id":"90d8a09e-2181-4187-81ec-24698bc4e496","system_id":"levelo_inurba_marseille","lat":43.28705,"lon":5.3998,"is_reserved":false,"is_disabled":false,"rental_uris":{"android":"levelo://app?vid=90d8a09e-2181-4187-81ec-24698bc4e496","ios":"levelo://app?vid=90d8a09e-2181-4187-81ec-24698bc4e496"},"vehicle_type_id":"4","last_reported":1726992649,"current_range_meters":38800,"station_id":"ce4bho92rcd13ifvqh3g","pricing_plan_id":"cebpf4jnsgd1na2vs0mg"},{"bike_id":"226a0941-0c72-4b00-be32-622ea037304a","system_id":"levelo_inurba_marseille","lat":43.28621,"lon":5.35103,"is_reserved":false,"is_disabled":false,"rental_uris":{"android":"levelo://app?vid=226a0941-0c72-4b00-be32-622ea037304a","ios":"levelo://app?vid=226a0941-0c72-4b00-be32-622ea037304a"},"vehicle_type_id":"4","last_reported":1726992649,"current_range_meters":38800,"station_id":"ce4bhch2rcd13ifvqeug","pricing_plan_id":"cebpf4jnsgd1na2vs0mg"},{"bike_id":"97f3b290-84c6-4932-8cf2-83c9b90d4817","system_id":"levelo_inurba_marseille","lat":43.25015,"lon":5.38956,"is_reserved":false,"is_disabled":false,"rental_uris":{"android":"levelo://app?vid=97f3b290-84c6-4932-8cf2-83c9b90d4817","ios":"levelo://app?vid=97f3b290-84c6-4932-8cf2-83c9b90d4817"},"vehicle_type_id":"4","last_reported":1726992649,"current_range_meters":2800,"station_id":"ce4bhgp2rcd13ifvqfd0","pricing_plan_id":"cebpf4jnsgd1na2vs0mg"},{"bike_id":"977ad24c-2005-446b-b21e-2e9257aa7686","system_id":"levelo_inurba_marseille","lat":43.29843,"lon":5.36277,"is_reserved":false,"is_disabled":false,"rental_uris":{"android":"levelo://app?vid=977ad24c-2005-446b-b21e-2e9257aa7686","ios":"levelo://app?vid=977ad24c-2005-446b-b21e-2e9257aa7686"},"vehicle_type_id":"4","last_reported":1726992649,"current_range_meters":35600,"station_id":"ce4bgpp2rcd13ifvqc3g","pricing_plan_id":"cebpf4jnsgd1na2vs0mg"},{"bike_id":"c750c22f-57e5-44e7-ab11-ab84ef9a0b5e","system_id":"levelo_inurba_marseille","lat":43.23177,"lon":5.40003,"is_reserved":false,"is_disabled":false,"rental_uris":{"android":"levelo://app?vid=c750c22f-57e5-44e7-ab11-ab84ef9a0b5e","ios":"levelo://app?vid=c750c22f-57e5-44e7-ab11-ab84ef9a0b5e"},"vehicle_type_id":"4","last_reported":1726992649,"current_range_meters":14400,"station_id":"ce4bhn12rcd13ifvqgqg","pricing_plan_id":"cebpf4jnsgd1na2vs0mg"},{"bike_id":"d4cd02a2-8196-45a0-ade7-083f2b1cddee","system_id":"levelo_inurba_marseille","lat":43.24183,"lon":5.39719,"is_reserved":false,"is_disabled":false,"rental_uris":{"android":"levelo://app?vid=d4cd02a2-8196-45a0-ade7-083f2b1cddee","ios":"levelo://app?vid=d4cd02a2-8196-45a0-ade7-083f2b1cddee"},"vehicle_type_id":"4","last_reported":1726992649,"current_range_meters":38800,"station_id":"ce4bhn12rcd13ifvqgpg","pricing_plan_id":"cebpf4jnsgd1na2vs0mg"},{"bike_id":"a8d42cf3-65fd-4e73-93d7-47142c435399","system_id":"levelo_inurba_marseille","lat":43.3439,"lon":5.40852,"is_reserved":false,"is_disabled":false,"rental_uris":{"android":"levelo://app?vid=a8d42cf3-65fd-4e73-93d7-47142c435399","ios":"levelo://app?vid=a8d42cf3-65fd-4e73-93d7-47142c435399"},"vehicle_type_id":"4","last_reported":1726992649,"current_range_meters":22800,"station_id":"","pricing_plan_id":"cebpf4jnsgd1na2vs0mg"},{"bike_id":"affeab95-004c-4559-a39d-9d9c7e294ed6","system_id":"levelo_inurba_marseille","lat":43.24179,"lon":5.39735,"is_reserved":false,"is_disabled":false,"rental_uris":{"android":"levelo://app?vid=affeab95-004c-4559-a39d-9d9c7e294ed6","ios":"levelo://app?vid=affeab95-004c-4559-a39d-9d9c7e294ed6"},"vehicle_type_id":"4","last_reported":1726992649,"current_range_meters":30800,"station_id":"ce4bhn12rcd13ifvqgpg","pricing_plan_id":"cebpf4jnsgd1na2vs0mg"},{"bike_id":"a4d43bb5-199e-4365-aa18-44dcac5c9979","system_id":"levelo_inurba_marseille","lat":43.27986,"lon":5.40014,"is_reserved":false,"is_disabled":false,"rental_uris":{"android":"levelo://app?vid=a4d43bb5-199e-4365-aa18-44dcac5c9979","ios":"levelo://app?vid=a4d43bb5-199e-4365-aa18-44dcac5c9979"},"vehicle_type_id":"4","last_reported":1726992649,"current_range_meters":38800,"station_id":"ce4bho92rcd13ifvqh4g","pricing_plan_id":"cebpf4jnsgd1na2vs0mg"},{"bike_id":"2e2efbfa-7349-45db-b5db-becef59caf10","system_id":"levelo_inurba_marseille","lat":43.30463,"lon":5.37901,"is_reserved":false,"is_disabled":false,"rental_uris":{"android":"levelo://app?vid=2e2efbfa-7349-45db-b5db-becef59caf10","ios":"levelo://app?vid=2e2efbfa-7349-45db-b5db-becef59caf10"},"vehicle_type_id":"4","last_reported":1726992649,"current_range_meters":27600,"station_id":"ce4bgup2rcd13ifvqcn0","pricing_plan_id":"cebpf4jnsgd1na2vs0mg"},{"bike_id":"144777ab-82d3-4615-89f2-77db3a8b15c1","system_id":"levelo_inurba_marseille","lat":43.31717,"lon":5.424,"is_reserved":false,"is_disabled":false,"rental_uris":{"android":"levelo://app?vid=144777ab-82d3-4615-89f2-77db3a8b15c1","ios":"levelo://app?vid=144777ab-82d3-4615-89f2-77db3a8b15c1"},"vehicle_type_id":"4","last_reported":1726992649,"current_range_meters":34000,"station_id":"ce4bhp92rcd13ifvqhbg","pricing_plan_id":"cebpf4jnsgd1na2vs0mg"},{"bike_id":"dc48214f-da5d-40bd-9f65-e40d5982e55b","system_id":"levelo_inurba_marseille","lat":43.29421,"lon":5.38616,"is_reserved":false,"is_disabled":false,"rental_uris":{"android":"levelo://app?vid=dc48214f-da5d-40bd-9f65-e40d5982e55b","ios":"levelo://app?vid=dc48214f-da5d-40bd-9f65-e40d5982e55b"},"vehicle_type_id":"4","last_reported":1726992649,"current_range_meters":32800,"station_id":"ce4bh2h2rcd13ifvqdh0","pricing_plan_id":"cebpf4jnsgd1na2vs0mg"},{"bike_id":"488eab58-702a-49ef-b05e-83a9813536ca","system_id":"levelo_inurba_marseille","lat":43.28149,"lon":5.4264,"is_reserved":false,"is_disabled":false,"rental_uris":{"android":"levelo://app?vid=488eab58-702a-49ef-b05e-83a9813536ca","ios":"levelo://app?vid=488eab58-702a-49ef-b05e-83a9813536ca"},"vehicle_type_id":"4","last_reported":1726992649,"current_range_meters":36400,"station_id":"ce4bhnh2rcd13ifvqgug","pricing_plan_id":"cebpf4jnsgd1na2vs0mg"},{"bike_id":"eb0e566e-7d71-4cc0-bc76-de33a9fd73a8","system_id":"levelo_inurba_marseille","lat":43.2319,"lon":5.35543,"is_reserved":false,"is_disabled":false,"rental_uris":{"android":"levelo://app?vid=eb0e566e-7d71-4cc0-bc76-de33a9fd73a8","ios":"levelo://app?vid=eb0e566e-7d71-4cc0-bc76-de33a9fd73a8"},"vehicle_type_id":"4","last_reported":1726992649,"current_range_meters":37600,"station_id":"ce4bhu92rcd13ifvqi70","pricing_plan_id":"cebpf4jnsgd1na2vs0mg"},{"bike_id":"c126df7b-6239-48e5-a4ac-a6b22e608615","system_id":"levelo_inurba_marseille","lat":43.28268,"lon":5.3505,"is_reserved":false,"is_disabled":false,"rental_uris":{"android":"levelo://app?vid=c126df7b-6239-48e5-a4ac-a6b22e608615","ios":"levelo://app?vid=c126df7b-6239-48e5-a4ac-a6b22e608615"},"vehicle_type_id":"4","last_reported":1726992649,"current_range_meters":7200,"station_id":"ce4bhbp2rcd13ifvqerg","pricing_plan_id":"cebpf4jnsgd1na2vs0mg"},{"bike_id":"04999a37-2436-4404-8c16-cd85cf9b7a10","system_id":"levelo_inurba_marseille","lat":43.33021,"lon":5.39043,"is_reserved":false,"is_disabled":false,"rental_uris":{"android":"levelo://app?vid=04999a37-2436-4404-8c16-cd85cf9b7a10","ios":"levelo://app?vid=04999a37-2436-4404-8c16-cd85cf9b7a10"},"vehicle_type_id":"4","last_reported":1726992649,"current_range_meters":38400,"station_id":"ce4bhr92rcd13ifvqhrg","pricing_plan_id":"cebpf4jnsgd1na2vs0mg"},{"bike_id":"6030b138-4d5e-4345-aedc-73924c99e1f7","system_id":"levelo_inurba_marseille","lat":43.26217,"lon":5.37448,"is_reserved":false,"is_disabled":false,"rental_uris":{"android":"levelo://app?vid=6030b138-4d5e-4345-aedc-73924c99e1f7","ios":"levelo://app?vid=6030b138-4d5e-4345-aedc-73924c99e1f7"},"vehicle_type_id":"4","last_reported":1726992649,"current_range_meters":28800,"station_id":"","pricing_plan_id":"cebpf4jnsgd1na2vs0mg"},{"bike_id":"eedc2e1a-93f9-40b5-bcb6-9453018a0bcf","system_id":"levelo_inurba_marseille","lat":43.296265,"lon":5.377112,"is_reserved":false,"is_disabled":false,"rental_uris":{"android":"levelo://app?vid=eedc2e1a-93f9-40b5-bcb6-9453018a0bcf","ios":"levelo://app?vid=eedc2e1a-93f9-40b5-bcb6-9453018a0bcf"},"vehicle_type_id":"4","last_reported":1726992649,"current_range_meters":17600,"station_id":"ce4bgi92rcd13ifvqb90","pricing_plan_id":"cebpf4jnsgd1na2vs0mg"},{"bike_id":"2be09133-fc65-44c7-aabc-efba9af3feca","system_id":"levelo_inurba_marseille","lat":43.29228,"lon":5.36064,"is_reserved":false,"is_disabled":false,"rental_uris":{"android":"levelo://app?vid=2be09133-fc65-44c7-aabc-efba9af3feca","ios":"levelo://app?vid=2be09133-fc65-44c7-aabc-efba9af3feca"},"vehicle_type_id":"4","last_reported":1726992649,"current_range_meters":32400,"station_id":"ce4bhbh2rcd13ifvqeqg","pricing_plan_id":"cebpf4jnsgd1na2vs0mg"},{"bike_id":"a7a2630d-54d4-495a-8506-d0472b9b9a1a","system_id":"levelo_inurba_marseille","lat":43.29545,"lon":5.42285,"is_reserved":false,"is_disabled":false,"rental_uris":{"android":"levelo://app?vid=a7a2630d-54d4-495a-8506-d0472b9b9a1a","ios":"levelo://app?vid=a7a2630d-54d4-495a-8506-d0472b9b9a1a"},"vehicle_type_id":"4","last_reported":1726992649,"current_range_meters":38800,"station_id":"ce4bhph2rcd13ifvqhdg","pricing_plan_id":"cebpf4jnsgd1na2vs0mg"},{"bike_id":"3588ed4b-a839-4c36-8772-3fa913acb2d5","system_id":"levelo_inurba_marseille","lat":43.30322,"lon":5.40447,"is_reserved":false,"is_disabled":false,"rental_uris":{"android":"levelo://app?vid=3588ed4b-a839-4c36-8772-3fa913acb2d5","ios":"levelo://app?vid=3588ed4b-a839-4c36-8772-3fa913acb2d5"},"vehicle_type_id":"4","last_reported":1726992649,"current_range_meters":38000,"station_id":"ce4bh012rcd13ifvqd10","pricing_plan_id":"cebpf4jnsgd1na2vs0mg"},{"bike_id":"e9b7fdef-cb43-41e3-b6c7-0be3fc1935ad","system_id":"levelo_inurba_marseille","lat":43.29784,"lon":5.37096,"is_reserved":false,"is_disabled":false,"rental_uris":{"android":"levelo://app?vid=e9b7fdef-cb43-41e3-b6c7-0be3fc1935ad","ios":"levelo://app?vid=e9b7fdef-cb43-41e3-b6c7-0be3fc1935ad"},"vehicle_type_id":"4","last_reported":1726992649,"current_range_meters":33200,"station_id":"ce4bgop2rcd13ifvqc1g","pricing_plan_id":"cebpf4jnsgd1na2vs0mg"},{"bike_id":"dd71e085-a216-4659-88f3-f2355ab603d6","system_id":"levelo_inurba_marseille","lat":43.29278,"lon":5.36836,"is_reserved":false,"is_disabled":false,"rental_uris":{"android":"levelo://app?vid=dd71e085-a216-4659-88f3-f2355ab603d6","ios":"levelo://app?vid=dd71e085-a216-4659-88f3-f2355ab603d6"},"vehicle_type_id":"4","last_reported":1726992649,"current_range_meters":24000,"station_id":"ce4bhbp2rcd13ifvqesg","pricing_plan_id":"cebpf4jnsgd1na2vs0mg"},{"bike_id":"e5a1c0e7-6dbe-4fc0-91d4-a39431861126","system_id":"levelo_inurba_marseille","lat":43.26944,"lon":5.40246,"is_reserved":false,"is_disabled":false,"rental_uris":{"android":"levelo://app?vid=e5a1c0e7-6dbe-4fc0-91d4-a39431861126","ios":"levelo://app?vid=e5a1c0e7-6dbe-4fc0-91d4-a39431861126"},"vehicle_type_id":"4","last_reported":1726992649,"current_range_meters":38800,"station_id":"cjm6bp8fraef2m0cb0m0","pricing_plan_id":"cebpf4jnsgd1na2vs0mg"},{"bike_id":"7b9dd459-340b-4978-bfb0-6c163a5263e8","system_id":"levelo_inurba_marseille","lat":43.23195,"lon":5.3554,"is_reserved":false,"is_disabled":false,"rental_uris":{"android":"levelo://app?vid=7b9dd459-340b-4978-bfb0-6c163a5263e8","ios":"levelo://app?vid=7b9dd459-340b-4978-bfb0-6c163a5263e8"},"vehicle_type_id":"4","last_reported":1726992649,"current_range_meters":38800,"station_id":"ce4bhu92rcd13ifvqi70","pricing_plan_id":"cebpf4jnsgd1na2vs0mg"},{"bike_id":"a6592cd8-820f-4ce3-aa7a-5b622ebdf02c","system_id":"levelo_inurba_marseille","lat":43.29,"lon":5.35606,"is_reserved":false,"is_disabled":false,"rental_uris":{"android":"levelo://app?vid=a6592cd8-820f-4ce3-aa7a-5b622ebdf02c","ios":"levelo://app?vid=a6592cd8-820f-4ce3-aa7a-5b622ebdf02c"},"vehicle_type_id":"4","last_reported":1726992649,"current_range_meters":32000,"station_id":"ce4bhb92rcd13ifvqen0","pricing_plan_id":"cebpf4jnsgd1na2vs0mg"},{"bike_id":"9eb342ac-6683-4b0e-9068-9b33551dfa85","system_id":"levelo_inurba_marseille","lat":43.27376,"lon":5.36251,"is_reserved":false,"is_disabled":false,"rental_uris":{"android":"levelo://app?vid=9eb342ac-6683-4b0e-9068-9b33551dfa85","ios":"levelo://app?vid=9eb342ac-6683-4b0e-9068-9b33551dfa85"},"vehicle_type_id":"4","last_reported":1726992649,"current_range_meters":38000,"station_id":"ce4bhbh2rcd13ifvqeo0","pricing_plan_id":"cebpf4jnsgd1na2vs0mg"},{"bike_id":"ffd879d1-d794-4108-b26a-8f51191b1896","system_id":"levelo_inurba_marseille","lat":43.29701,"lon":5.37673,"is_reserved":false,"is_disabled":false,"rental_uris":{"android":"levelo://app?vid=ffd879d1-d794-4108-b26a-8f51191b1896","ios":"levelo://app?vid=ffd879d1-d794-4108-b26a-8f51191b1896"},"vehicle_type_id":"4","last_reported":1726992649,"current_range_meters":36400,"station_id":"ce4bgkh2rcd13ifvqbl0","pricing_plan_id":"cebpf4jnsgd1na2vs0mg"},{"bike_id":"0b47ab1b-4b26-4da4-8066-ca0061887cbd","system_id":"levelo_inurba_marseille","lat":43.3078,"lon":5.37647,"is_reserved":false,"is_disabled":false,"rental_uris":{"android":"levelo://app?vid=0b47ab1b-4b26-4da4-8066-ca0061887cbd","ios":"levelo://app?vid=0b47ab1b-4b26-4da4-8066-ca0061887cbd"},"vehicle_type_id":"4","last_reported":1726992649,"current_range_meters":18000,"station_id":"ce4bgv92rcd13ifvqcq0","pricing_plan_id":"cebpf4jnsgd1na2vs0mg"},{"bike_id":"b32e3f2f-0a0d-4421-947b-90e02f1ff146","system_id":"levelo_inurba_marseille","lat":43.27998,"lon":5.41661,"is_reserved":false,"is_disabled":false,"rental_uris":{"android":"levelo://app?vid=b32e3f2f-0a0d-4421-947b-90e02f1ff146","ios":"levelo://app?vid=b32e3f2f-0a0d-4421-947b-90e02f1ff146"},"vehicle_type_id":"4","last_reported":1726992649,"current_range_meters":8000,"station_id":"ce4bho12rcd13ifvqh1g","pricing_plan_id":"cebpf4jnsgd1na2vs0mg"},{"bike_id":"695aecc5-47eb-42b6-b509-bb05dd03a93d","system_id":"levelo_inurba_marseille","lat":43.28354,"lon":5.38105,"is_reserved":false,"is_disabled":false,"rental_uris":{"android":"levelo://app?vid=695aecc5-47eb-42b6-b509-bb05dd03a93d","ios":"levelo://app?vid=695aecc5-47eb-42b6-b509-bb05dd03a93d"},"vehicle_type_id":"4","last_reported":1726992649,"current_range_meters":38000,"station_id":"ce4bh412rcd13ifvqdr0","pricing_plan_id":"cebpf4jnsgd1na2vs0mg"},{"bike_id":"3c24c5fb-6978-47c4-bf73-1fd083102bd4","system_id":"levelo_inurba_marseille","lat":43.24387,"lon":5.37056,"is_reserved":false,"is_disabled":false,"rental_uris":{"android":"levelo://app?vid=3c24c5fb-6978-47c4-bf73-1fd083102bd4","ios":"levelo://app?vid=3c24c5fb-6978-47c4-bf73-1fd083102bd4"},"vehicle_type_id":"4","last_reported":1726992649,"current_range_meters":31200,"station_id":"ce4bhhh2rcd13ifvqfk0","pricing_plan_id":"cebpf4jnsgd1na2vs0mg"},{"bike_id":"2c03d00f-e5fa-4d36-8684-f34c7e970cdf","system_id":"levelo_inurba_marseille","lat":43.28718,"lon":5.39983,"is_reserved":false,"is_disabled":false,"rental_uris":{"android":"levelo://app?vid=2c03d00f-e5fa-4d36-8684-f34c7e970cdf","ios":"levelo://app?vid=2c03d00f-e5fa-4d36-8684-f34c7e970cdf"},"vehicle_type_id":"4","last_reported":1726992649,"current_range_meters":32800,"station_id":"ce4bho92rcd13ifvqh3g","pricing_plan_id":"cebpf4jnsgd1na2vs0mg"},{"bike_id":"10389c6e-8de5-48f9-888f-d0f6efe49ebe","system_id":"levelo_inurba_marseille","lat":43.27493,"lon":5.4245,"is_reserved":false,"is_disabled":false,"rental_uris":{"android":"levelo://app?vid=10389c6e-8de5-48f9-888f-d0f6efe49ebe","ios":"levelo://app?vid=10389c6e-8de5-48f9-888f-d0f6efe49ebe"},"vehicle_type_id":"4","last_reported":1726992649,"current_range_meters":9600,"station_id":"ce4bhn92rcd13ifvqgrg","pricing_plan_id":"cebpf4jnsgd1na2vs0mg"},{"bike_id":"71aa8592-ddf7-4343-aed4-c00d3433340f","system_id":"levelo_inurba_marseille","lat":43.337444,"lon":5.374475,"is_reserved":false,"is_disabled":false,"rental_uris":{"android":"levelo://app?vid=71aa8592-ddf7-4343-aed4-c00d3433340f","ios":"levelo://app?vid=71aa8592-ddf7-4343-aed4-c00d3433340f"},"vehicle_type_id":"4","last_reported":1726992649,"current_range_meters":32400,"station_id":"","pricing_plan_id":"cebpf4jnsgd1na2vs0mg"},{"bike_id":"3740c6df-06cd-419b-9ae6-b8d9e5eff548","system_id":"levelo_inurba_marseille","lat":43.2753,"lon":5.40935,"is_reserved":false,"is_disabled":false,"rental_uris":{"android":"levelo://app?vid=3740c6df-06cd-419b-9ae6-b8d9e5eff548","ios":"levelo://app?vid=3740c6df-06cd-419b-9ae6-b8d9e5eff548"},"vehicle_type_id":"4","last_reported":1726992649,"current_range_meters":14400,"station_id":"","pricing_plan_id":"cebpf4jnsgd1na2vs0mg"},{"bike_id":"c416d47b-78f0-43eb-bd10-52cd2f01cf9a","system_id":"levelo_inurba_marseille","lat":43.31064,"lon":5.38351,"is_reserved":false,"is_disabled":false,"rental_uris":{"android":"levelo://app?vid=c416d47b-78f0-43eb-bd10-52cd2f01cf9a","ios":"levelo://app?vid=c416d47b-78f0-43eb-bd10-52cd2f01cf9a"},"vehicle_type_id":"4","last_reported":1726992649,"current_range_meters":9600,"station_id":"ce4bgv92rcd13ifvqcr0","pricing_plan_id":"cebpf4jnsgd1na2vs0mg"},{"bike_id":"63cb3e8e-e6da-4a66-83e4-12a4ec922468","system_id":"levelo_inurba_marseille","lat":43.26203,"lon":5.37922,"is_reserved":false,"is_disabled":false,"rental_uris":{"android":"levelo://app?vid=63cb3e8e-e6da-4a66-83e4-12a4ec922468","ios":"levelo://app?vid=63cb3e8e-e6da-4a66-83e4-12a4ec922468"},"vehicle_type_id":"4","last_reported":1726992649,"current_range_meters":17600,"station_id":"ce4bhjp2rcd13ifvqg90","pricing_plan_id":"cebpf4jnsgd1na2vs0mg"},{"bike_id":"33ef26f8-933d-4a23-a2fb-f3a05d501574","system_id":"levelo_inurba_marseille","lat":43.25082,"lon":5.39514,"is_reserved":false,"is_disabled":false,"rental_uris":{"android":"levelo://app?vid=33ef26f8-933d-4a23-a2fb-f3a05d501574","ios":"levelo://app?vid=33ef26f8-933d-4a23-a2fb-f3a05d501574"},"vehicle_type_id":"4","last_reported":1726992649,"current_range_meters":38800,"station_id":"ce4bhm12rcd13ifvqgkg","pricing_plan_id":"cebpf4jnsgd1na2vs0mg"},{"bike_id":"de474168-7d22-423b-8aa5-2f9882a9c626","system_id":"levelo_inurba_marseille","lat":43.30787,"lon":5.37653,"is_reserved":false,"is_disabled":false,"rental_uris":{"android":"levelo://app?vid=de474168-7d22-423b-8aa5-2f9882a9c626","ios":"levelo://app?vid=de474168-7d22-423b-8aa5-2f9882a9c626"},"vehicle_type_id":"4","last_reported":1726992649,"current_range_meters":38800,"station_id":"ce4bgv92rcd13ifvqcq0","pricing_plan_id":"cebpf4jnsgd1na2vs0mg"},{"bike_id":"28899bbf-43c6-44fe-bc87-11c1926b2ab8","system_id":"levelo_inurba_marseille","lat":43.26207,"lon":5.37924,"is_reserved":false,"is_disabled":false,"rental_uris":{"android":"levelo://app?vid=28899bbf-43c6-44fe-bc87-11c1926b2ab8","ios":"levelo://app?vid=28899bbf-43c6-44fe-bc87-11c1926b2ab8"},"vehicle_type_id":"4","last_reported":1726992649,"current_range_meters":38400,"station_id":"ce4bhjp2rcd13ifvqg90","pricing_plan_id":"cebpf4jnsgd1na2vs0mg"},{"bike_id":"90404548-0e6b-478d-bac7-b119dc9952ec","system_id":"levelo_inurba_marseille","lat":43.27217,"lon":5.39176,"is_reserved":false,"is_disabled":false,"rental_uris":{"android":"levelo://app?vid=90404548-0e6b-478d-bac7-b119dc9952ec","ios":"levelo://app?vid=90404548-0e6b-478d-bac7-b119dc9952ec"},"vehicle_type_id":"4","last_reported":1726992649,"current_range_meters":8400,"station_id":"ce4bhhp2rcd13ifvqfm0","pricing_plan_id":"cebpf4jnsgd1na2vs0mg"},{"bike_id":"e84cc6cd-2b62-4318-ae0d-80a3e798ce3c","system_id":"levelo_inurba_marseille","lat":43.29007,"lon":5.35605,"is_reserved":false,"is_disabled":false,"rental_uris":{"android":"levelo://app?vid=e84cc6cd-2b62-4318-ae0d-80a3e798ce3c","ios":"levelo://app?vid=e84cc6cd-2b62-4318-ae0d-80a3e798ce3c"},"vehicle_type_id":"4","last_reported":1726992649,"current_range_meters":38800,"station_id":"ce4bhb92rcd13ifvqen0","pricing_plan_id":"cebpf4jnsgd1na2vs0mg"},{"bike_id":"1297e27f-c822-4150-b45d-fc207772209f","system_id":"levelo_inurba_marseille","lat":43.29785,"lon":5.38113,"is_reserved":false,"is_disabled":false,"rental_uris":{"android":"levelo://app?vid=1297e27f-c822-4150-b45d-fc207772209f","ios":"levelo://app?vid=1297e27f-c822-4150-b45d-fc207772209f"},"vehicle_type_id":"4","last_reported":1726992649,"current_range_meters":28800,"station_id":"ce4bgip2rcd13ifvqbb0","pricing_plan_id":"cebpf4jnsgd1na2vs0mg"},{"bike_id":"48cc16ec-4cea-4a8c-b13e-3ac95a0df700","system_id":"levelo_inurba_marseille","lat":43.30469,"lon":5.37899,"is_reserved":false,"is_disabled":false,"rental_uris":{"android":"levelo://app?vid=48cc16ec-4cea-4a8c-b13e-3ac95a0df700","ios":"levelo://app?vid=48cc16ec-4cea-4a8c-b13e-3ac95a0df700"},"vehicle_type_id":"4","last_reported":1726992649,"current_range_meters":6800,"station_id":"ce4bgup2rcd13ifvqcn0","pricing_plan_id":"cebpf4jnsgd1na2vs0mg"},{"bike_id":"d29e25a2-3aa1-4c1d-bd1f-dbff7dbc0ad2","system_id":"levelo_inurba_marseille","lat":43.32366,"lon":5.38885,"is_reserved":false,"is_disabled":false,"rental_uris":{"android":"levelo://app?vid=d29e25a2-3aa1-4c1d-bd1f-dbff7dbc0ad2","ios":"levelo://app?vid=d29e25a2-3aa1-4c1d-bd1f-dbff7dbc0ad2"},"vehicle_type_id":"4","last_reported":1726992649,"current_range_meters":35200,"station_id":"ce4bhqp2rcd13ifvqhog","pricing_plan_id":"cebpf4jnsgd1na2vs0mg"},{"bike_id":"587b7091-1fcd-4c6f-a820-801ebabc18cc","system_id":"levelo_inurba_marseille","lat":43.29843,"lon":5.36273,"is_reserved":false,"is_disabled":false,"rental_uris":{"android":"levelo://app?vid=587b7091-1fcd-4c6f-a820-801ebabc18cc","ios":"levelo://app?vid=587b7091-1fcd-4c6f-a820-801ebabc18cc"},"vehicle_type_id":"4","last_reported":1726992649,"current_range_meters":30800,"station_id":"ce4bgpp2rcd13ifvqc3g","pricing_plan_id":"cebpf4jnsgd1na2vs0mg"},{"bike_id":"c6ece7c7-4ec5-4120-b681-3c568db59171","system_id":"levelo_inurba_marseille","lat":43.30599,"lon":5.37223,"is_reserved":false,"is_disabled":false,"rental_uris":{"android":"levelo://app?vid=c6ece7c7-4ec5-4120-b681-3c568db59171","ios":"levelo://app?vid=c6ece7c7-4ec5-4120-b681-3c568db59171"},"vehicle_type_id":"4","last_reported":1726992649,"current_range_meters":38000,"station_id":"ce4bgqh2rcd13ifvqc4g","pricing_plan_id":"cebpf4jnsgd1na2vs0mg"},{"bike_id":"96a82ce3-2f1a-413f-9241-b63d3c553727","system_id":"levelo_inurba_marseille","lat":43.231476,"lon":5.437242,"is_reserved":false,"is_disabled":false,"rental_uris":{"android":"levelo://app?vid=96a82ce3-2f1a-413f-9241-b63d3c553727","ios":"levelo://app?vid=96a82ce3-2f1a-413f-9241-b63d3c553727"},"vehicle_type_id":"4","last_reported":1726992649,"current_range_meters":12400,"station_id":"ce4bhmp2rcd13ifvqgog","pricing_plan_id":"cebpf4jnsgd1na2vs0mg"},{"bike_id":"02415616-385e-4f14-93d0-2ad915d17a0f","system_id":"levelo_inurba_marseille","lat":43.31333,"lon":5.3969,"is_reserved":false,"is_disabled":false,"rental_uris":{"android":"levelo://app?vid=02415616-385e-4f14-93d0-2ad915d17a0f","ios":"levelo://app?vid=02415616-385e-4f14-93d0-2ad915d17a0f"},"vehicle_type_id":"4","last_reported":1726992649,"current_range_meters":37600,"station_id":"ce4bgvp2rcd13ifvqcu0","pricing_plan_id":"cebpf4jnsgd1na2vs0mg"},{"bike_id":"40f76e9d-c4d4-4e89-b102-5cd9a5126209","system_id":"levelo_inurba_marseille","lat":43.31273,"lon":5.40165,"is_reserved":false,"is_disabled":false,"rental_uris":{"android":"levelo://app?vid=40f76e9d-c4d4-4e89-b102-5cd9a5126209","ios":"levelo://app?vid=40f76e9d-c4d4-4e89-b102-5cd9a5126209"},"vehicle_type_id":"4","last_reported":1726992649,"current_range_meters":39200,"station_id":"ce4bh092rcd13ifvqd30","pricing_plan_id":"cebpf4jnsgd1na2vs0mg"},{"bike_id":"78c715ea-5b88-474f-ba55-1ab217d44d12","system_id":"levelo_inurba_marseille","lat":43.29009,"lon":5.35613,"is_reserved":false,"is_disabled":false,"rental_uris":{"android":"levelo://app?vid=78c715ea-5b88-474f-ba55-1ab217d44d12","ios":"levelo://app?vid=78c715ea-5b88-474f-ba55-1ab217d44d12"},"vehicle_type_id":"4","last_reported":1726992649,"current_range_meters":36800,"station_id":"ce4bhb92rcd13ifvqen0","pricing_plan_id":"cebpf4jnsgd1na2vs0mg"},{"bike_id":"2c608201-7510-45d2-9d81-04f19aa52afa","system_id":"levelo_inurba_marseille","lat":43.29041,"lon":5.39954,"is_reserved":false,"is_disabled":false,"rental_uris":{"android":"levelo://app?vid=2c608201-7510-45d2-9d81-04f19aa52afa","ios":"levelo://app?vid=2c608201-7510-45d2-9d81-04f19aa52afa"},"vehicle_type_id":"4","last_reported":1726992649,"current_range_meters":3200,"station_id":"ce4bh392rcd13ifvqdm0","pricing_plan_id":"cebpf4jnsgd1na2vs0mg"},{"bike_id":"c2a23c04-e4cb-496b-a6e8-fbbf90c6064f","system_id":"levelo_inurba_marseille","lat":43.24542,"lon":5.39519,"is_reserved":false,"is_disabled":false,"rental_uris":{"android":"levelo://app?vid=c2a23c04-e4cb-496b-a6e8-fbbf90c6064f","ios":"levelo://app?vid=c2a23c04-e4cb-496b-a6e8-fbbf90c6064f"},"vehicle_type_id":"4","last_reported":1726992649,"current_range_meters":38800,"station_id":"ce4bhlp2rcd13ifvqgjg","pricing_plan_id":"cebpf4jnsgd1na2vs0mg"},{"bike_id":"d76cbb43-a41c-4eb4-a896-5242672c52fa","system_id":"levelo_inurba_marseille","lat":43.28618,"lon":5.35098,"is_reserved":false,"is_disabled":false,"rental_uris":{"android":"levelo://app?vid=d76cbb43-a41c-4eb4-a896-5242672c52fa","ios":"levelo://app?vid=d76cbb43-a41c-4eb4-a896-5242672c52fa"},"vehicle_type_id":"4","last_reported":1726992649,"current_range_meters":19200,"station_id":"ce4bhch2rcd13ifvqeug","pricing_plan_id":"cebpf4jnsgd1na2vs0mg"},{"bike_id":"9063abc8-307b-42e4-b4d5-31f6c4d48646","system_id":"levelo_inurba_marseille","lat":43.30952,"lon":5.39045,"is_reserved":false,"is_disabled":false,"rental_uris":{"android":"levelo://app?vid=9063abc8-307b-42e4-b4d5-31f6c4d48646","ios":"levelo://app?vid=9063abc8-307b-42e4-b4d5-31f6c4d48646"},"vehicle_type_id":"4","last_reported":1726992649,"current_range_meters":38000,"station_id":"ce4bgup2rcd13ifvqco0","pricing_plan_id":"cebpf4jnsgd1na2vs0mg"},{"bike_id":"bca0aa49-c7d2-4c11-88f5-f1e59b0dafbc","system_id":"levelo_inurba_marseille","lat":43.27609,"lon":5.36105,"is_reserved":false,"is_disabled":false,"rental_uris":{"android":"levelo://app?vid=bca0aa49-c7d2-4c11-88f5-f1e59b0dafbc","ios":"levelo://app?vid=bca0aa49-c7d2-4c11-88f5-f1e59b0dafbc"},"vehicle_type_id":"4","last_reported":1726992649,"current_range_meters":18000,"station_id":"ce4bgj92rcd13ifvqbe0","pricing_plan_id":"cebpf4jnsgd1na2vs0mg"},{"bike_id":"1575e777-51f8-479e-bd95-714cef91a125","system_id":"levelo_inurba_marseille","lat":43.24181,"lon":5.39719,"is_reserved":false,"is_disabled":false,"rental_uris":{"android":"levelo://app?vid=1575e777-51f8-479e-bd95-714cef91a125","ios":"levelo://app?vid=1575e777-51f8-479e-bd95-714cef91a125"},"vehicle_type_id":"4","last_reported":1726992649,"current_range_meters":27600,"station_id":"ce4bhn12rcd13ifvqgpg","pricing_plan_id":"cebpf4jnsgd1na2vs0mg"},{"bike_id":"e9e6d9e2-3e2d-4420-a12d-dab77cbc6502","system_id":"levelo_inurba_marseille","lat":43.27611,"lon":5.36111,"is_reserved":false,"is_disabled":false,"rental_uris":{"android":"levelo://app?vid=e9e6d9e2-3e2d-4420-a12d-dab77cbc6502","ios":"levelo://app?vid=e9e6d9e2-3e2d-4420-a12d-dab77cbc6502"},"vehicle_type_id":"4","last_reported":1726992649,"current_range_meters":12800,"station_id":"ce4bgj92rcd13ifvqbe0","pricing_plan_id":"cebpf4jnsgd1na2vs0mg"},{"bike_id":"bd9f34a0-dc08-4657-9b7c-5589754bd8db","system_id":"levelo_inurba_marseille","lat":43.25,"lon":5.3892,"is_reserved":false,"is_disabled":false,"rental_uris":{"android":"levelo://app?vid=bd9f34a0-dc08-4657-9b7c-5589754bd8db","ios":"levelo://app?vid=bd9f34a0-dc08-4657-9b7c-5589754bd8db"},"vehicle_type_id":"4","last_reported":1726992649,"current_range_meters":38400,"station_id":"ce4bhgp2rcd13ifvqfd0","pricing_plan_id":"cebpf4jnsgd1na2vs0mg"},{"bike_id":"4f6cd953-65f5-4d4f-a052-70118d864e1d","system_id":"levelo_inurba_marseille","lat":43.29896,"lon":5.43657,"is_reserved":false,"is_disabled":false,"rental_uris":{"android":"levelo://app?vid=4f6cd953-65f5-4d4f-a052-70118d864e1d","ios":"levelo://app?vid=4f6cd953-65f5-4d4f-a052-70118d864e1d"},"vehicle_type_id":"4","last_reported":1726992649,"current_range_meters":4000,"station_id":"ce4bhpp2rcd13ifvqhfg","pricing_plan_id":"cebpf4jnsgd1na2vs0mg"},{"bike_id":"ab03fbd4-771e-4097-be15-28a0898ddabb","system_id":"levelo_inurba_marseille","lat":43.31888,"lon":5.40737,"is_reserved":false,"is_disabled":false,"rental_uris":{"android":"levelo://app?vid=ab03fbd4-771e-4097-be15-28a0898ddabb","ios":"levelo://app?vid=ab03fbd4-771e-4097-be15-28a0898ddabb"},"vehicle_type_id":"4","last_reported":1726992649,"current_range_meters":34800,"station_id":"ce4bhq12rcd13ifvqhig","pricing_plan_id":"cebpf4jnsgd1na2vs0mg"},{"bike_id":"d9e213ca-e541-459d-93e9-f901cb508c67","system_id":"levelo_inurba_marseille","lat":43.31708,"lon":5.37765,"is_reserved":false,"is_disabled":false,"rental_uris":{"android":"levelo://app?vid=d9e213ca-e541-459d-93e9-f901cb508c67","ios":"levelo://app?vid=d9e213ca-e541-459d-93e9-f901cb508c67"},"vehicle_type_id":"4","last_reported":1726992649,"current_range_meters":38800,"station_id":"ce4bgth2rcd13ifvqch0","pricing_plan_id":"cebpf4jnsgd1na2vs0mg"},{"bike_id":"742fe014-1f5e-499c-bbc5-66a0cbb87904","system_id":"levelo_inurba_marseille","lat":43.23199,"lon":5.35555,"is_reserved":false,"is_disabled":false,"rental_uris":{"android":"levelo://app?vid=742fe014-1f5e-499c-bbc5-66a0cbb87904","ios":"levelo://app?vid=742fe014-1f5e-499c-bbc5-66a0cbb87904"},"vehicle_type_id":"4","last_reported":1726992649,"current_range_meters":35200,"station_id":"ce4bhu92rcd13ifvqi70","pricing_plan_id":"cebpf4jnsgd1na2vs0mg"},{"bike_id":"eaba8a86-b9c2-4d10-801f-fe492232c8c7","system_id":"levelo_inurba_marseille","lat":43.33018,"lon":5.39044,"is_reserved":false,"is_disabled":false,"rental_uris":{"android":"levelo://app?vid=eaba8a86-b9c2-4d10-801f-fe492232c8c7","ios":"levelo://app?vid=eaba8a86-b9c2-4d10-801f-fe492232c8c7"},"vehicle_type_id":"4","last_reported":1726992649,"current_range_meters":30400,"station_id":"ce4bhr92rcd13ifvqhrg","pricing_plan_id":"cebpf4jnsgd1na2vs0mg"},{"bike_id":"885eb9fd-e64e-4dcf-b796-e74b9bc20997","system_id":"levelo_inurba_marseille","lat":43.27923,"lon":5.39569,"is_reserved":false,"is_disabled":false,"rental_uris":{"android":"levelo://app?vid=885eb9fd-e64e-4dcf-b796-e74b9bc20997","ios":"levelo://app?vid=885eb9fd-e64e-4dcf-b796-e74b9bc20997"},"vehicle_type_id":"4","last_reported":1726992649,"current_range_meters":38800,"station_id":"ce4bhf92rcd13ifvqf40","pricing_plan_id":"cebpf4jnsgd1na2vs0mg"},{"bike_id":"d535b7f1-2de7-4956-b510-47e203ad0753","system_id":"levelo_inurba_marseille","lat":43.29035,"lon":5.39976,"is_reserved":false,"is_disabled":false,"rental_uris":{"android":"levelo://app?vid=d535b7f1-2de7-4956-b510-47e203ad0753","ios":"levelo://app?vid=d535b7f1-2de7-4956-b510-47e203ad0753"},"vehicle_type_id":"4","last_reported":1726992649,"current_range_meters":30800,"station_id":"ce4bh392rcd13ifvqdm0","pricing_plan_id":"cebpf4jnsgd1na2vs0mg"},{"bike_id":"0fea90f9-a569-4ca7-baf2-dc35ee080aca","system_id":"levelo_inurba_marseille","lat":43.31755,"lon":5.39017,"is_reserved":false,"is_disabled":false,"rental_uris":{"android":"levelo://app?vid=0fea90f9-a569-4ca7-baf2-dc35ee080aca","ios":"levelo://app?vid=0fea90f9-a569-4ca7-baf2-dc35ee080aca"},"vehicle_type_id":"4","last_reported":1726992649,"current_range_meters":26800,"station_id":"ce4bhqp2rcd13ifvqhng","pricing_plan_id":"cebpf4jnsgd1na2vs0mg"},{"bike_id":"feb42740-c719-4916-9efa-d99f861e0e6d","system_id":"levelo_inurba_marseille","lat":43.32478,"lon":5.3658,"is_reserved":false,"is_disabled":false,"rental_uris":{"android":"levelo://app?vid=feb42740-c719-4916-9efa-d99f861e0e6d","ios":"levelo://app?vid=feb42740-c719-4916-9efa-d99f861e0e6d"},"vehicle_type_id":"4","last_reported":1726992649,"current_range_meters":36800,"station_id":"ce4bhs12rcd13ifvqhvg","pricing_plan_id":"cebpf4jnsgd1na2vs0mg"},{"bike_id":"beb3335f-a034-46b7-9457-3756cdde1123","system_id":"levelo_inurba_marseille","lat":43.30461,"lon":5.37893,"is_reserved":false,"is_disabled":false,"rental_uris":{"android":"levelo://app?vid=beb3335f-a034-46b7-9457-3756cdde1123","ios":"levelo://app?vid=beb3335f-a034-46b7-9457-3756cdde1123"},"vehicle_type_id":"4","last_reported":1726992649,"current_range_meters":36800,"station_id":"ce4bgup2rcd13ifvqcn0","pricing_plan_id":"cebpf4jnsgd1na2vs0mg"},{"bike_id":"92f756d4-ff7f-4b70-aeab-1d26ae42abe2","system_id":"levelo_inurba_marseille","lat":43.24074,"lon":5.37755,"is_reserved":false,"is_disabled":false,"rental_uris":{"android":"levelo://app?vid=92f756d4-ff7f-4b70-aeab-1d26ae42abe2","ios":"levelo://app?vid=92f756d4-ff7f-4b70-aeab-1d26ae42abe2"},"vehicle_type_id":"4","last_reported":1726992649,"current_range_meters":30400,"station_id":"ce4bhnp2rcd13ifvqgvg","pricing_plan_id":"cebpf4jnsgd1na2vs0mg"},{"bike_id":"f33483c1-3b2c-4303-843b-6554d88a9a5f","system_id":"levelo_inurba_marseille","lat":43.24067,"lon":5.37761,"is_reserved":false,"is_disabled":false,"rental_uris":{"android":"levelo://app?vid=f33483c1-3b2c-4303-843b-6554d88a9a5f","ios":"levelo://app?vid=f33483c1-3b2c-4303-843b-6554d88a9a5f"},"vehicle_type_id":"4","last_reported":1726992649,"current_range_meters":38400,"station_id":"ce4bhnp2rcd13ifvqgvg","pricing_plan_id":"cebpf4jnsgd1na2vs0mg"},{"bike_id":"5ce6ca70-38c1-446a-8e79-d58050d35527","system_id":"levelo_inurba_marseille","lat":43.26559,"lon":5.38999,"is_reserved":false,"is_disabled":false,"rental_uris":{"android":"levelo://app?vid=5ce6ca70-38c1-446a-8e79-d58050d35527","ios":"levelo://app?vid=5ce6ca70-38c1-446a-8e79-d58050d35527"},"vehicle_type_id":"4","last_reported":1726992649,"current_range_meters":26000,"station_id":"ce4bhe12rcd13ifvqf30","pricing_plan_id":"cebpf4jnsgd1na2vs0mg"},{"bike_id":"fce734b4-6c36-4cb6-983c-c95238702258","system_id":"levelo_inurba_marseille","lat":43.31064,"lon":5.38122,"is_reserved":false,"is_disabled":false,"rental_uris":{"android":"levelo://app?vid=fce734b4-6c36-4cb6-983c-c95238702258","ios":"levelo://app?vid=fce734b4-6c36-4cb6-983c-c95238702258"},"vehicle_type_id":"4","last_reported":1726992649,"current_range_meters":14000,"station_id":"","pricing_plan_id":"cebpf4jnsgd1na2vs0mg"},{"bike_id":"ab164393-cd31-4221-b165-f26296d40d00","system_id":"levelo_inurba_marseille","lat":43.31081,"lon":5.42427,"is_reserved":false,"is_disabled":false,"rental_uris":{"android":"levelo://app?vid=ab164393-cd31-4221-b165-f26296d40d00","ios":"levelo://app?vid=ab164393-cd31-4221-b165-f26296d40d00"},"vehicle_type_id":"4","last_reported":1726992649,"current_range_meters":10800,"station_id":"ce4bhp92rcd13ifvqhag","pricing_plan_id":"cebpf4jnsgd1na2vs0mg"},{"bike_id":"4bf9bad2-5ff0-497e-80dc-91099f373503","system_id":"levelo_inurba_marseille","lat":43.25083,"lon":5.39513,"is_reserved":false,"is_disabled":false,"rental_uris":{"android":"levelo://app?vid=4bf9bad2-5ff0-497e-80dc-91099f373503","ios":"levelo://app?vid=4bf9bad2-5ff0-497e-80dc-91099f373503"},"vehicle_type_id":"4","last_reported":1726992649,"current_range_meters":32800,"station_id":"ce4bhm12rcd13ifvqgkg","pricing_plan_id":"cebpf4jnsgd1na2vs0mg"},{"bike_id":"cf96c4a6-21ac-49c8-a898-842a1e567586","system_id":"levelo_inurba_marseille","lat":43.2844,"lon":5.39193,"is_reserved":false,"is_disabled":false,"rental_uris":{"android":"levelo://app?vid=cf96c4a6-21ac-49c8-a898-842a1e567586","ios":"levelo://app?vid=cf96c4a6-21ac-49c8-a898-842a1e567586"},"vehicle_type_id":"4","last_reported":1726992649,"current_range_meters":38800,"station_id":"ce4bhoh2rcd13ifvqh5g","pricing_plan_id":"cebpf4jnsgd1na2vs0mg"},{"bike_id":"a27dbfcf-fdb2-45f8-985f-42b146435a71","system_id":"levelo_inurba_marseille","lat":43.32338,"lon":5.40624,"is_reserved":false,"is_disabled":false,"rental_uris":{"android":"levelo://app?vid=a27dbfcf-fdb2-45f8-985f-42b146435a71","ios":"levelo://app?vid=a27dbfcf-fdb2-45f8-985f-42b146435a71"},"vehicle_type_id":"4","last_reported":1726992649,"current_range_meters":38000,"station_id":"ce4bhq92rcd13ifvqhjg","pricing_plan_id":"cebpf4jnsgd1na2vs0mg"},{"bike_id":"f74941be-f473-4ce7-9230-0799526567ae","system_id":"levelo_inurba_marseille","lat":43.23196,"lon":5.35542,"is_reserved":false,"is_disabled":false,"rental_uris":{"android":"levelo://app?vid=f74941be-f473-4ce7-9230-0799526567ae","ios":"levelo://app?vid=f74941be-f473-4ce7-9230-0799526567ae"},"vehicle_type_id":"4","last_reported":1726992649,"current_range_meters":38400,"station_id":"ce4bhu92rcd13ifvqi70","pricing_plan_id":"cebpf4jnsgd1na2vs0mg"},{"bike_id":"89b43d7b-3ae1-483c-b3a3-a1270ea3b6e4","system_id":"levelo_inurba_marseille","lat":43.299312,"lon":5.365528,"is_reserved":false,"is_disabled":false,"rental_uris":{"android":"levelo://app?vid=89b43d7b-3ae1-483c-b3a3-a1270ea3b6e4","ios":"levelo://app?vid=89b43d7b-3ae1-483c-b3a3-a1270ea3b6e4"},"vehicle_type_id":"4","last_reported":1726992649,"current_range_meters":32400,"station_id":"ce4bgm92rcd13ifvqbr0","pricing_plan_id":"cebpf4jnsgd1na2vs0mg"},{"bike_id":"1d843a13-7297-42bd-88e3-7bc313e4a30a","system_id":"levelo_inurba_marseille","lat":43.3093,"lon":5.40145,"is_reserved":false,"is_disabled":false,"rental_uris":{"android":"levelo://app?vid=1d843a13-7297-42bd-88e3-7bc313e4a30a","ios":"levelo://app?vid=1d843a13-7297-42bd-88e3-7bc313e4a30a"},"vehicle_type_id":"4","last_reported":1726992649,"current_range_meters":11200,"station_id":"ce4bgvp2rcd13ifvqct0","pricing_plan_id":"cebpf4jnsgd1na2vs0mg"},{"bike_id":"b9503bfd-a2c9-491b-b8be-4c7c0bcc5cfa","system_id":"levelo_inurba_marseille","lat":43.27317,"lon":5.39092,"is_reserved":false,"is_disabled":false,"rental_uris":{"android":"levelo://app?vid=b9503bfd-a2c9-491b-b8be-4c7c0bcc5cfa","ios":"levelo://app?vid=b9503bfd-a2c9-491b-b8be-4c7c0bcc5cfa"},"vehicle_type_id":"4","last_reported":1726992649,"current_range_meters":39200,"station_id":"ce4bhgp2rcd13ifvqfe0","pricing_plan_id":"cebpf4jnsgd1na2vs0mg"},{"bike_id":"b652c763-09e2-4f37-a6de-277df3aeac28","system_id":"levelo_inurba_marseille","lat":43.30536,"lon":5.36552,"is_reserved":false,"is_disabled":false,"rental_uris":{"android":"levelo://app?vid=b652c763-09e2-4f37-a6de-277df3aeac28","ios":"levelo://app?vid=b652c763-09e2-4f37-a6de-277df3aeac28"},"vehicle_type_id":"4","last_reported":1726992649,"current_range_meters":32000,"station_id":"ce4bgs12rcd13ifvqcag","pricing_plan_id":"cebpf4jnsgd1na2vs0mg"},{"bike_id":"bc2224ad-a18e-479e-9927-fa7d79220cd4","system_id":"levelo_inurba_marseille","lat":43.32339,"lon":5.40625,"is_reserved":false,"is_disabled":false,"rental_uris":{"android":"levelo://app?vid=bc2224ad-a18e-479e-9927-fa7d79220cd4","ios":"levelo://app?vid=bc2224ad-a18e-479e-9927-fa7d79220cd4"},"vehicle_type_id":"4","last_reported":1726992649,"current_range_meters":38000,"station_id":"ce4bhq92rcd13ifvqhjg","pricing_plan_id":"cebpf4jnsgd1na2vs0mg"},{"bike_id":"a910cfe6-5988-4081-87cf-da794a5766f5","system_id":"levelo_inurba_marseille","lat":43.295725,"lon":5.367358,"is_reserved":false,"is_disabled":false,"rental_uris":{"android":"levelo://app?vid=a910cfe6-5988-4081-87cf-da794a5766f5","ios":"levelo://app?vid=a910cfe6-5988-4081-87cf-da794a5766f5"},"vehicle_type_id":"4","last_reported":1726992649,"current_range_meters":38000,"station_id":"ce4bgph2rcd13ifvqc2g","pricing_plan_id":"cebpf4jnsgd1na2vs0mg"},{"bike_id":"6a27e725-2d8c-4144-8185-44daee5ca0de","system_id":"levelo_inurba_marseille","lat":43.31749,"lon":5.39015,"is_reserved":false,"is_disabled":false,"rental_uris":{"android":"levelo://app?vid=6a27e725-2d8c-4144-8185-44daee5ca0de","ios":"levelo://app?vid=6a27e725-2d8c-4144-8185-44daee5ca0de"},"vehicle_type_id":"4","last_reported":1726992649,"current_range_meters":22400,"station_id":"ce4bhqp2rcd13ifvqhng","pricing_plan_id":"cebpf4jnsgd1na2vs0mg"},{"bike_id":"0e096696-3d4b-4de0-9857-4c7a8fcdfae9","system_id":"levelo_inurba_marseille","lat":43.305936,"lon":5.372333,"is_reserved":false,"is_disabled":false,"rental_uris":{"android":"levelo://app?vid=0e096696-3d4b-4de0-9857-4c7a8fcdfae9","ios":"levelo://app?vid=0e096696-3d4b-4de0-9857-4c7a8fcdfae9"},"vehicle_type_id":"4","last_reported":1726992649,"current_range_meters":29600,"station_id":"ce4bgqh2rcd13ifvqc4g","pricing_plan_id":"cebpf4jnsgd1na2vs0mg"},{"bike_id":"aa18d1b9-803b-47fa-bea1-cb0edab5554a","system_id":"levelo_inurba_marseille","lat":43.28695,"lon":5.39983,"is_reserved":false,"is_disabled":false,"rental_uris":{"android":"levelo://app?vid=aa18d1b9-803b-47fa-bea1-cb0edab5554a","ios":"levelo://app?vid=aa18d1b9-803b-47fa-bea1-cb0edab5554a"},"vehicle_type_id":"4","last_reported":1726992649,"current_range_meters":29600,"station_id":"ce4bho92rcd13ifvqh3g","pricing_plan_id":"cebpf4jnsgd1na2vs0mg"},{"bike_id":"27be6f2f-1bc2-4192-a569-44eba2fb71ae","system_id":"levelo_inurba_marseille","lat":43.25942,"lon":5.409,"is_reserved":false,"is_disabled":false,"rental_uris":{"android":"levelo://app?vid=27be6f2f-1bc2-4192-a569-44eba2fb71ae","ios":"levelo://app?vid=27be6f2f-1bc2-4192-a569-44eba2fb71ae"},"vehicle_type_id":"4","last_reported":1726992649,"current_range_meters":14000,"station_id":"ce4bhm92rcd13ifvqglg","pricing_plan_id":"cebpf4jnsgd1na2vs0mg"},{"bike_id":"165b741a-2404-4624-b268-999183c6a48e","system_id":"levelo_inurba_marseille","lat":43.27492,"lon":5.42455,"is_reserved":false,"is_disabled":false,"rental_uris":{"android":"levelo://app?vid=165b741a-2404-4624-b268-999183c6a48e","ios":"levelo://app?vid=165b741a-2404-4624-b268-999183c6a48e"},"vehicle_type_id":"4","last_reported":1726992649,"current_range_meters":37600,"station_id":"ce4bhn92rcd13ifvqgrg","pricing_plan_id":"cebpf4jnsgd1na2vs0mg"},{"bike_id":"12c02b25-8208-48c6-9bf8-e85113e7990d","system_id":"levelo_inurba_marseille","lat":43.23155,"lon":5.43713,"is_reserved":false,"is_disabled":false,"rental_uris":{"android":"levelo://app?vid=12c02b25-8208-48c6-9bf8-e85113e7990d","ios":"levelo://app?vid=12c02b25-8208-48c6-9bf8-e85113e7990d"},"vehicle_type_id":"4","last_reported":1726992649,"current_range_meters":21600,"station_id":"ce4bhmp2rcd13ifvqgog","pricing_plan_id":"cebpf4jnsgd1na2vs0mg"},{"bike_id":"523dbe2c-4770-45c9-bbf3-0c8e932b3386","system_id":"levelo_inurba_marseille","lat":43.26482,"lon":5.39545,"is_reserved":false,"is_disabled":false,"rental_uris":{"android":"levelo://app?vid=523dbe2c-4770-45c9-bbf3-0c8e932b3386","ios":"levelo://app?vid=523dbe2c-4770-45c9-bbf3-0c8e932b3386"},"vehicle_type_id":"4","last_reported":1726992649,"current_range_meters":8800,"station_id":"ce4bhi12rcd13ifvqfq0","pricing_plan_id":"cebpf4jnsgd1na2vs0mg"},{"bike_id":"fb2b63d9-4a26-4602-9a57-d2caab531ee7","system_id":"levelo_inurba_marseille","lat":43.33727,"lon":5.39185,"is_reserved":false,"is_disabled":false,"rental_uris":{"android":"levelo://app?vid=fb2b63d9-4a26-4602-9a57-d2caab531ee7","ios":"levelo://app?vid=fb2b63d9-4a26-4602-9a57-d2caab531ee7"},"vehicle_type_id":"4","last_reported":1726992649,"current_range_meters":38000,"station_id":"ce4bhr92rcd13ifvqhsg","pricing_plan_id":"cebpf4jnsgd1na2vs0mg"},{"bike_id":"82e6fd96-a62a-435f-a86e-ecb925dd224a","system_id":"levelo_inurba_marseille","lat":43.28607,"lon":5.37069,"is_reserved":false,"is_disabled":false,"rental_uris":{"android":"levelo://app?vid=82e6fd96-a62a-435f-a86e-ecb925dd224a","ios":"levelo://app?vid=82e6fd96-a62a-435f-a86e-ecb925dd224a"},"vehicle_type_id":"4","last_reported":1726992649,"current_range_meters":38800,"station_id":"ce4bht12rcd13ifvqi60","pricing_plan_id":"cebpf4jnsgd1na2vs0mg"},{"bike_id":"02377e6b-91dd-4a5c-ab17-d496528b5dc2","system_id":"levelo_inurba_marseille","lat":43.25107,"lon":5.40321,"is_reserved":false,"is_disabled":false,"rental_uris":{"android":"levelo://app?vid=02377e6b-91dd-4a5c-ab17-d496528b5dc2","ios":"levelo://app?vid=02377e6b-91dd-4a5c-ab17-d496528b5dc2"},"vehicle_type_id":"4","last_reported":1726992649,"current_range_meters":9200,"station_id":"ce4bhlh2rcd13ifvqgig","pricing_plan_id":"cebpf4jnsgd1na2vs0mg"},{"bike_id":"1b9d8915-0624-4b56-858f-ec03de152121","system_id":"levelo_inurba_marseille","lat":43.27912,"lon":5.379933,"is_reserved":false,"is_disabled":false,"rental_uris":{"android":"levelo://app?vid=1b9d8915-0624-4b56-858f-ec03de152121","ios":"levelo://app?vid=1b9d8915-0624-4b56-858f-ec03de152121"},"vehicle_type_id":"4","last_reported":1726992649,"current_range_meters":38800,"station_id":"ce4bhf92rcd13ifvqf50","pricing_plan_id":"cebpf4jnsgd1na2vs0mg"},{"bike_id":"e8d9fcc7-4a1f-4d96-8ebf-5d7fd0b8bb85","system_id":"levelo_inurba_marseille","lat":43.23178,"lon":5.39974,"is_reserved":false,"is_disabled":false,"rental_uris":{"android":"levelo://app?vid=e8d9fcc7-4a1f-4d96-8ebf-5d7fd0b8bb85","ios":"levelo://app?vid=e8d9fcc7-4a1f-4d96-8ebf-5d7fd0b8bb85"},"vehicle_type_id":"4","last_reported":1726992649,"current_range_meters":24000,"station_id":"ce4bhn12rcd13ifvqgqg","pricing_plan_id":"cebpf4jnsgd1na2vs0mg"},{"bike_id":"ef8c4665-5ed2-4c55-a204-5049067fb8cf","system_id":"levelo_inurba_marseille","lat":43.31327,"lon":5.3969,"is_reserved":false,"is_disabled":false,"rental_uris":{"android":"levelo://app?vid=ef8c4665-5ed2-4c55-a204-5049067fb8cf","ios":"levelo://app?vid=ef8c4665-5ed2-4c55-a204-5049067fb8cf"},"vehicle_type_id":"4","last_reported":1726992649,"current_range_meters":38800,"station_id":"ce4bgvp2rcd13ifvqcu0","pricing_plan_id":"cebpf4jnsgd1na2vs0mg"},{"bike_id":"a9f970fa-8fa9-4f75-a9c9-ba0a24a4c539","system_id":"levelo_inurba_marseille","lat":43.28418,"lon":5.349768,"is_reserved":false,"is_disabled":false,"rental_uris":{"android":"levelo://app?vid=a9f970fa-8fa9-4f75-a9c9-ba0a24a4c539","ios":"levelo://app?vid=a9f970fa-8fa9-4f75-a9c9-ba0a24a4c539"},"vehicle_type_id":"4","last_reported":1726992649,"current_range_meters":35200,"station_id":"ce4bhbh2rcd13ifvqepg","pricing_plan_id":"cebpf4jnsgd1na2vs0mg"},{"bike_id":"954b06dc-9cf5-43b1-89c5-33c1bab61b2b","system_id":"levelo_inurba_marseille","lat":43.31486,"lon":5.37301,"is_reserved":false,"is_disabled":false,"rental_uris":{"android":"levelo://app?vid=954b06dc-9cf5-43b1-89c5-33c1bab61b2b","ios":"levelo://app?vid=954b06dc-9cf5-43b1-89c5-33c1bab61b2b"},"vehicle_type_id":"4","last_reported":1726992649,"current_range_meters":38800,"station_id":"ce4bgt12rcd13ifvqcd0","pricing_plan_id":"cebpf4jnsgd1na2vs0mg"},{"bike_id":"f512d4d4-a00a-47e1-859f-a838674f6188","system_id":"levelo_inurba_marseille","lat":43.289179,"lon":5.383904,"is_reserved":false,"is_disabled":false,"rental_uris":{"android":"levelo://app?vid=f512d4d4-a00a-47e1-859f-a838674f6188","ios":"levelo://app?vid=f512d4d4-a00a-47e1-859f-a838674f6188"},"vehicle_type_id":"4","last_reported":1726992649,"current_range_meters":38000,"station_id":"ce4bh612rcd13ifvqe6g","pricing_plan_id":"cebpf4jnsgd1na2vs0mg"},{"bike_id":"9db086ca-e7d0-4cbd-a8a0-00e1ea9007af","system_id":"levelo_inurba_marseille","lat":43.26204,"lon":5.37926,"is_reserved":false,"is_disabled":false,"rental_uris":{"android":"levelo://app?vid=9db086ca-e7d0-4cbd-a8a0-00e1ea9007af","ios":"levelo://app?vid=9db086ca-e7d0-4cbd-a8a0-00e1ea9007af"},"vehicle_type_id":"4","last_reported":1726992649,"current_range_meters":6800,"station_id":"ce4bhjp2rcd13ifvqg90","pricing_plan_id":"cebpf4jnsgd1na2vs0mg"},{"bike_id":"e95fdd8e-a2a3-4a7b-969a-fa0ebc672c7d","system_id":"levelo_inurba_marseille","lat":43.33725,"lon":5.39185,"is_reserved":false,"is_disabled":false,"rental_uris":{"android":"levelo://app?vid=e95fdd8e-a2a3-4a7b-969a-fa0ebc672c7d","ios":"levelo://app?vid=e95fdd8e-a2a3-4a7b-969a-fa0ebc672c7d"},"vehicle_type_id":"4","last_reported":1726992649,"current_range_meters":22400,"station_id":"ce4bhr92rcd13ifvqhsg","pricing_plan_id":"cebpf4jnsgd1na2vs0mg"},{"bike_id":"fa690805-233a-4a70-a9f3-33f1b67cdb1f","system_id":"levelo_inurba_marseille","lat":43.32288,"lon":5.38254,"is_reserved":false,"is_disabled":false,"rental_uris":{"android":"levelo://app?vid=fa690805-233a-4a70-a9f3-33f1b67cdb1f","ios":"levelo://app?vid=fa690805-233a-4a70-a9f3-33f1b67cdb1f"},"vehicle_type_id":"4","last_reported":1726992649,"current_range_meters":8400,"station_id":"ce4bhr12rcd13ifvqhqg","pricing_plan_id":"cebpf4jnsgd1na2vs0mg"},{"bike_id":"80e63dfc-a645-4d2f-a0b5-3f87a2df0aaa","system_id":"levelo_inurba_marseille","lat":43.24661,"lon":5.38158,"is_reserved":false,"is_disabled":false,"rental_uris":{"android":"levelo://app?vid=80e63dfc-a645-4d2f-a0b5-3f87a2df0aaa","ios":"levelo://app?vid=80e63dfc-a645-4d2f-a0b5-3f87a2df0aaa"},"vehicle_type_id":"4","last_reported":1726992649,"current_range_meters":28000,"station_id":"ce4bhih2rcd13ifvqfr0","pricing_plan_id":"cebpf4jnsgd1na2vs0mg"},{"bike_id":"2f210386-dc1c-4b15-8f6d-09fcb7b42d45","system_id":"levelo_inurba_marseille","lat":43.28697,"lon":5.37387,"is_reserved":false,"is_disabled":false,"rental_uris":{"android":"levelo://app?vid=2f210386-dc1c-4b15-8f6d-09fcb7b42d45","ios":"levelo://app?vid=2f210386-dc1c-4b15-8f6d-09fcb7b42d45"},"vehicle_type_id":"4","last_reported":1726992649,"current_range_meters":9600,"station_id":"ce4bh3p2rcd13ifvqdq0","pricing_plan_id":"cebpf4jnsgd1na2vs0mg"},{"bike_id":"5fa82376-81a3-4ec5-b423-69ab8c99225b","system_id":"levelo_inurba_marseille","lat":43.29273,"lon":5.3683,"is_reserved":false,"is_disabled":false,"rental_uris":{"android":"levelo://app?vid=5fa82376-81a3-4ec5-b423-69ab8c99225b","ios":"levelo://app?vid=5fa82376-81a3-4ec5-b423-69ab8c99225b"},"vehicle_type_id":"4","last_reported":1726992649,"current_range_meters":14000,"station_id":"ce4bhbp2rcd13ifvqesg","pricing_plan_id":"cebpf4jnsgd1na2vs0mg"},{"bike_id":"bda0e437-05e4-4752-96ea-02906d3ac892","system_id":"levelo_inurba_marseille","lat":43.3019,"lon":5.36611,"is_reserved":false,"is_disabled":false,"rental_uris":{"android":"levelo://app?vid=bda0e437-05e4-4752-96ea-02906d3ac892","ios":"levelo://app?vid=bda0e437-05e4-4752-96ea-02906d3ac892"},"vehicle_type_id":"4","last_reported":1726992649,"current_range_meters":37600,"station_id":"ce4bgrh2rcd13ifvqc8g","pricing_plan_id":"cebpf4jnsgd1na2vs0mg"},{"bike_id":"c2eb79bf-4c7e-483a-9912-eae871470aa3","system_id":"levelo_inurba_marseille","lat":43.28668,"lon":5.3866,"is_reserved":false,"is_disabled":false,"rental_uris":{"android":"levelo://app?vid=c2eb79bf-4c7e-483a-9912-eae871470aa3","ios":"levelo://app?vid=c2eb79bf-4c7e-483a-9912-eae871470aa3"},"vehicle_type_id":"4","last_reported":1726992649,"current_range_meters":38000,"station_id":"ce4bh492rcd13ifvqdug","pricing_plan_id":"cebpf4jnsgd1na2vs0mg"},{"bike_id":"fecfa792-a07c-4ec0-81d5-2fe7a6beed2d","system_id":"levelo_inurba_marseille","lat":43.27069,"lon":5.42277,"is_reserved":false,"is_disabled":false,"rental_uris":{"android":"levelo://app?vid=fecfa792-a07c-4ec0-81d5-2fe7a6beed2d","ios":"levelo://app?vid=fecfa792-a07c-4ec0-81d5-2fe7a6beed2d"},"vehicle_type_id":"4","last_reported":1726992649,"current_range_meters":39200,"station_id":"ce4bhk92rcd13ifvqgb0","pricing_plan_id":"cebpf4jnsgd1na2vs0mg"},{"bike_id":"b2763354-ec6c-4733-8de6-6c4493759ae9","system_id":"levelo_inurba_marseille","lat":43.29037,"lon":5.40139,"is_reserved":false,"is_disabled":false,"rental_uris":{"android":"levelo://app?vid=b2763354-ec6c-4733-8de6-6c4493759ae9","ios":"levelo://app?vid=b2763354-ec6c-4733-8de6-6c4493759ae9"},"vehicle_type_id":"4","last_reported":1726992649,"current_range_meters":9200,"station_id":"","pricing_plan_id":"cebpf4jnsgd1na2vs0mg"},{"bike_id":"2a02db94-e9e5-4250-bb8b-fd12e5afc898","system_id":"levelo_inurba_marseille","lat":43.26563,"lon":5.39011,"is_reserved":false,"is_disabled":false,"rental_uris":{"android":"levelo://app?vid=2a02db94-e9e5-4250-bb8b-fd12e5afc898","ios":"levelo://app?vid=2a02db94-e9e5-4250-bb8b-fd12e5afc898"},"vehicle_type_id":"4","last_reported":1726992649,"current_range_meters":22000,"station_id":"ce4bhe12rcd13ifvqf30","pricing_plan_id":"cebpf4jnsgd1na2vs0mg"},{"bike_id":"367424b8-5def-4ef4-b57a-5a4e7275573c","system_id":"levelo_inurba_marseille","lat":43.2952,"lon":5.37489,"is_reserved":false,"is_disabled":false,"rental_uris":{"android":"levelo://app?vid=367424b8-5def-4ef4-b57a-5a4e7275573c","ios":"levelo://app?vid=367424b8-5def-4ef4-b57a-5a4e7275573c"},"vehicle_type_id":"4","last_reported":1726992649,"current_range_meters":36800,"station_id":"ce4bgkp2rcd13ifvqbmg","pricing_plan_id":"cebpf4jnsgd1na2vs0mg"},{"bike_id":"e31de2a4-85fb-467d-a504-2f3cf4294688","system_id":"levelo_inurba_marseille","lat":43.25823,"lon":5.39425,"is_reserved":false,"is_disabled":false,"rental_uris":{"android":"levelo://app?vid=e31de2a4-85fb-467d-a504-2f3cf4294688","ios":"levelo://app?vid=e31de2a4-85fb-467d-a504-2f3cf4294688"},"vehicle_type_id":"4","last_reported":1726992649,"current_range_meters":28800,"station_id":"ce4bhip2rcd13ifvqft0","pricing_plan_id":"cebpf4jnsgd1na2vs0mg"},{"bike_id":"dad7cbfb-c131-4505-8ca6-522e0464f841","system_id":"levelo_inurba_marseille","lat":43.292999,"lon":5.371649,"is_reserved":false,"is_disabled":false,"rental_uris":{"android":"levelo://app?vid=dad7cbfb-c131-4505-8ca6-522e0464f841","ios":"levelo://app?vid=dad7cbfb-c131-4505-8ca6-522e0464f841"},"vehicle_type_id":"4","last_reported":1726992649,"current_range_meters":10000,"station_id":"ce4bhjp2rcd13ifvqg90","pricing_plan_id":"cebpf4jnsgd1na2vs0mg"},{"bike_id":"70ca700e-4c35-4c7d-85a4-2cc17571cb4f","system_id":"levelo_inurba_marseille","lat":43.25107,"lon":5.40327,"is_reserved":false,"is_disabled":false,"rental_uris":{"android":"levelo://app?vid=70ca700e-4c35-4c7d-85a4-2cc17571cb4f","ios":"levelo://app?vid=70ca700e-4c35-4c7d-85a4-2cc17571cb4f"},"vehicle_type_id":"4","last_reported":1726992649,"current_range_meters":38800,"station_id":"ce4bhlh2rcd13ifvqgig","pricing_plan_id":"cebpf4jnsgd1na2vs0mg"},{"bike_id":"b5312d09-7495-4a11-9270-8b8509805415","system_id":"levelo_inurba_marseille","lat":43.26543,"lon":5.37281,"is_reserved":false,"is_disabled":false,"rental_uris":{"android":"levelo://app?vid=b5312d09-7495-4a11-9270-8b8509805415","ios":"levelo://app?vid=b5312d09-7495-4a11-9270-8b8509805415"},"vehicle_type_id":"4","last_reported":1726992649,"current_range_meters":38000,"station_id":"ce4bhg12rcd13ifvqf70","pricing_plan_id":"cebpf4jnsgd1na2vs0mg"},{"bike_id":"46fbb630-09e8-4170-9be5-4fdb9fc3d75f","system_id":"levelo_inurba_marseille","lat":43.32483,"lon":5.36557,"is_reserved":false,"is_disabled":false,"rental_uris":{"android":"levelo://app?vid=46fbb630-09e8-4170-9be5-4fdb9fc3d75f","ios":"levelo://app?vid=46fbb630-09e8-4170-9be5-4fdb9fc3d75f"},"vehicle_type_id":"4","last_reported":1726992649,"current_range_meters":37600,"station_id":"ce4bhs12rcd13ifvqhvg","pricing_plan_id":"cebpf4jnsgd1na2vs0mg"},{"bike_id":"a0289229-7d2f-4cc9-a78f-fe3631a5093b","system_id":"levelo_inurba_marseille","lat":43.28931,"lon":5.36628,"is_reserved":false,"is_disabled":false,"rental_uris":{"android":"levelo://app?vid=a0289229-7d2f-4cc9-a78f-fe3631a5093b","ios":"levelo://app?vid=a0289229-7d2f-4cc9-a78f-fe3631a5093b"},"vehicle_type_id":"4","last_reported":1726992649,"current_range_meters":38000,"station_id":"ce4bhap2rcd13ifvqek0","pricing_plan_id":"cebpf4jnsgd1na2vs0mg"},{"bike_id":"6e866676-6958-47a0-bba1-aad239c4e52e","system_id":"levelo_inurba_marseille","lat":43.30358,"lon":5.41854,"is_reserved":false,"is_disabled":false,"rental_uris":{"android":"levelo://app?vid=6e866676-6958-47a0-bba1-aad239c4e52e","ios":"levelo://app?vid=6e866676-6958-47a0-bba1-aad239c4e52e"},"vehicle_type_id":"4","last_reported":1726992649,"current_range_meters":22400,"station_id":"ce4bhop2rcd13ifvqh7g","pricing_plan_id":"cebpf4jnsgd1na2vs0mg"},{"bike_id":"d28ffa41-9d7e-41f1-8b70-1aa04f034503","system_id":"levelo_inurba_marseille","lat":43.29553,"lon":5.42283,"is_reserved":false,"is_disabled":false,"rental_uris":{"android":"levelo://app?vid=d28ffa41-9d7e-41f1-8b70-1aa04f034503","ios":"levelo://app?vid=d28ffa41-9d7e-41f1-8b70-1aa04f034503"},"vehicle_type_id":"4","last_reported":1726992649,"current_range_meters":6000,"station_id":"ce4bhph2rcd13ifvqhdg","pricing_plan_id":"cebpf4jnsgd1na2vs0mg"},{"bike_id":"2b40b9d7-323b-4207-b2de-d3cf4cff3e1f","system_id":"levelo_inurba_marseille","lat":43.23196,"lon":5.35556,"is_reserved":false,"is_disabled":false,"rental_uris":{"android":"levelo://app?vid=2b40b9d7-323b-4207-b2de-d3cf4cff3e1f","ios":"levelo://app?vid=2b40b9d7-323b-4207-b2de-d3cf4cff3e1f"},"vehicle_type_id":"4","last_reported":1726992649,"current_range_meters":16000,"station_id":"ce4bhu92rcd13ifvqi70","pricing_plan_id":"cebpf4jnsgd1na2vs0mg"},{"bike_id":"f1c65647-c1b0-4c23-bf04-752b6fa29535","system_id":"levelo_inurba_marseille","lat":43.31704,"lon":5.37754,"is_reserved":false,"is_disabled":false,"rental_uris":{"android":"levelo://app?vid=f1c65647-c1b0-4c23-bf04-752b6fa29535","ios":"levelo://app?vid=f1c65647-c1b0-4c23-bf04-752b6fa29535"},"vehicle_type_id":"4","last_reported":1726992649,"current_range_meters":38800,"station_id":"ce4bgth2rcd13ifvqch0","pricing_plan_id":"cebpf4jnsgd1na2vs0mg"},