{"last_updated":1702559426,"ttl":30,"version":"2.2","data":{"bikes":[{"bike_id":"5d702cc1-8b03-4825-aefc-3cfe8c411735","system_id":"levelo_inurba_marseille","lat":43.3134,"lon":5.36731,"is_reserved":false,"is_disabled":false,"rental_uris":{"android":"levelo://app?vid=5d702cc1-8b03-4825-aefc-3cfe8c411735","ios":"levelo://app?vid=5d702cc1-8b03-4825-aefc-3cfe8c411735"},"vehicle_type_id":"4","last_reported":1702559426,"current_range_meters":30000,"station_id":"ce4bgr92rcd13ifvqc6g","pricing_plan_id":"free"},{"bike_id":"0349cfe3-d4fc-4c2f-a928-645bcf88f8c7","system_id":"levelo_inurba_marseille","lat":43.313391,"lon":5.36706,"is_reserved":false,"is_disabled":false,"rental_uris":{"android":"levelo://app?vid=0349cfe3-d4fc-4c2f-a928-645bcf88f8c7","ios":"levelo://app?vid=0349cfe3-d4fc-4c2f-a928-645bcf88f8c7"},"vehicle_type_id":"4","last_reported":1702559426,"current_range_meters":31600,"station_id":"ce4bgr92rcd13ifvqc6g","pricing_plan_id":"free"},{"bike_id":"49e5abb6-f09f-4b7e-bdeb-52461f3f6eb2","system_id":"levelo_inurba_marseille","lat":43.313391,"lon":5.36706,"is_reserved":false,"is_disabled":false,"rental_uris":{"android":"levelo://app?vid=49e5abb6-f09f-4b7e-bdeb-52461f3f6eb2","ios":"levelo://app?vid=49e5abb6-f09f-4b7e-bdeb-52461f3f6eb2"},"vehicle_type_id":"4","last_reported":1702559426,"current_range_meters":17600,"station_id":"ce4bgr92rcd13ifvqc6g","pricing_plan_id":"free"},{"bike_id":"a723faf6-6dfb-426d-a6cf-68dca6c2720e","system_id":"levelo_inurba_marseille","lat":43.313391,"lon":5.36706,"is_reserved":false,"is_disabled":false,"rental_uris":{"android":"levelo://app?vid=a723faf6-6dfb-426d-a6cf-68dca6c2720e","ios":"levelo://app?vid=a723faf6-6dfb-426d-a6cf-68dca6c2720e"},"vehicle_type_id":"4","last_reported":1702559426,"current_range_meters":17600,"station_id":"ce4bgr92rcd13ifvqc6g","pricing_plan_id":"free"},{"bike_id":"79b27502-46cd-423f-9fcb-ffae1d3f261a","system_id":"levelo_inurba_marseille","lat":43.313495,"lon":5.367203,"is_reserved":false,"is_disabled":false,"rental_uris":{"android":"levelo://app?vid=79b27502-46cd-423f-9fcb-ffae1d3f261a","ios":"levelo://app?vid=79b27502-46cd-423f-9fcb-ffae1d3f261a"},"vehicle_type_id":"4","last_reported":1702559426,"current_range_meters":25600,"station_id":"ce4bgr92rcd13ifvqc6g","pricing_plan_id":"free"},{"bike_id":"5e870a68-e5e1-4f23-9b79-346d0b2e9ca3","system_id":"levelo_inurba_marseille","lat":43.313391,"lon":5.36706,"is_reserved":false,"is_disabled":false,"rental_uris":{"android":"levelo://app?vid=5e870a68-e5e1-4f23-9b79-346d0b2e9ca3","ios":"levelo://app?vid=5e870a68-e5e1-4f23-9b79-346d0b2e9ca3"},"vehicle_type_id":"4","last_reported":1702559426,"current_range_meters":31600,"station_id":"ce4bgr92rcd13ifvqc6g","pricing_plan_id":"free"},{"bike_id":"fd0d3195-a222-4a69-a6a8-0786757b5026","system_id":"levelo_inurba_marseille","lat":43.313391,"lon":5.36706,"is_reserved":false,"is_disabled":false,"rental_uris":{"android":"levelo://app?vid=fd0d3195-a222-4a69-a6a8-0786757b5026","ios":"levelo://app?vid=fd0d3195-a222-4a69-a6a8-0786757b5026"},"vehicle_type_id":"4","last_reported":1702559426,"current_range_meters":20800,"station_id":"ce4bgr92rcd13ifvqc6g","pricing_plan_id":"free"},{"bike_id":"63506cc9-8014-44db-b920-011f0d9737ca","system_id":"levelo_inurba_marseille","lat":43.313555,"lon":5.367208,"is_reserved":false,"is_disabled":false,"rental_uris":{"android":"levelo://app?vid=63506cc9-8014-44db-b920-011f0d9737ca","ios":"levelo://app?vid=63506cc9-8014-44db-b920-011f0d9737ca"},"vehicle_type_id":"4","last_reported":1702559426,"current_range_meters":16400,"station_id":"ce4bgr92rcd13ifvqc6g","pricing_plan_id":"free"},{"bike_id":"33e8d0a6-b2a8-4156-b786-d5622f35b13b","system_id":"levelo_inurba_marseille","lat":43.31359,"lon":5.36721,"is_reserved":false,"is_disabled":false,"rental_uris":{"android":"levelo://app?vid=33e8d0a6-b2a8-4156-b786-d5622f35b13b","ios":"levelo://app?vid=33e8d0a6-b2a8-4156-b786-d5622f35b13b"},"vehicle_type_id":"4","last_reported":1702559426,"current_range_meters":31200,"station_id":"ce4bgr92rcd13ifvqc6g","pricing_plan_id":"free"},{"bike_id":"132756b2-21b0-4b37-a3ac-98574bf56a76","system_id":"levelo_inurba_marseille","lat":43.313391,"lon":5.36706,"is_reserved":false,"is_disabled":false,"rental_uris":{"android":"levelo://app?vid=132756b2-21b0-4b37-a3ac-98574bf56a76","ios":"levelo://app?vid=132756b2-21b0-4b37-a3ac-98574bf56a76"},"vehicle_type_id":"4","last_reported":1702559426,"current_range_meters":15200,"station_id":"ce4bgr92rcd13ifvqc6g","pricing_plan_id":"free"},{"bike_id":"4e8da820-d94c-4282-a15b-0d99d45343d6","system_id":"levelo_inurba_marseille","lat":43.312239,"lon":5.368562,"is_reserved":false,"is_disabled":false,"rental_uris":{"android":"levelo://app?vid=4e8da820-d94c-4282-a15b-0d99d45343d6","ios":"levelo://app?vid=4e8da820-d94c-4282-a15b-0d99d45343d6"},"vehicle_type_id":"4","last_reported":1702559426,"current_range_meters":31600,"station_id":"ce4bgl92rcd13ifvqbq0","pricing_plan_id":"free"},{"bike_id":"b78c9a51-0e04-4998-b6ca-7a16de769080","system_id":"levelo_inurba_marseille","lat":43.312239,"lon":5.368562,"is_reserved":false,"is_disabled":false,"rental_uris":{"android":"levelo://app?vid=b78c9a51-0e04-4998-b6ca-7a16de769080","ios":"levelo://app?vid=b78c9a51-0e04-4998-b6ca-7a16de769080"},"vehicle_type_id":"4","last_reported":1702559426,"current_range_meters":31600,"station_id":"ce4bgl92rcd13ifvqbq0","pricing_plan_id":"free"},{"bike_id":"59074f10-9bc7-4ffd-8bc8-559090846504","system_id":"levelo_inurba_marseille","lat":43.312239,"lon":5.368562,"is_reserved":false,"is_disabled":false,"rental_uris":{"android":"levelo://app?vid=59074f10-9bc7-4ffd-8bc8-559090846504","ios":"levelo://app?vid=59074f10-9bc7-4ffd-8bc8-559090846504"},"vehicle_type_id":"4","last_reported":1702559426,"current_range_meters":22000,"station_id":"ce4bgl92rcd13ifvqbq0","pricing_plan_id":"free"},{"bike_id":"5a037603-ad63-44df-b177-426009f2951c","system_id":"levelo_inurba_marseille","lat":43.312239,"lon":5.368562,"is_reserved":false,"is_disabled":false,"rental_uris":{"android":"levelo://app?vid=5a037603-ad63-44df-b177-426009f2951c","ios":"levelo://app?vid=5a037603-ad63-44df-b177-426009f2951c"},"vehicle_type_id":"4","last_reported":1702559426,"current_range_meters":31600,"station_id":"ce4bgl92rcd13ifvqbq0","pricing_plan_id":"free"},{"bike_id":"dca2b111-d324-4194-89c5-abf8ada894d9","system_id":"levelo_inurba_marseille","lat":43.312239,"lon":5.368562,"is_reserved":false,"is_disabled":false,"rental_uris":{"android":"levelo://app?vid=dca2b111-d324-4194-89c5-abf8ada894d9","ios":"levelo://app?vid=dca2b111-d324-4194-89c5-abf8ada894d9"},"vehicle_type_id":"4","last_reported":1702559426,"current_range_meters":31200,"station_id":"ce4bgl92rcd13ifvqbq0","pricing_plan_id":"free"},{"bike_id":"782ba954-8744-44a8-ac2c-1af11b08b18d","system_id":"levelo_inurba_marseille","lat":43.312239,"lon":5.368562,"is_reserved":false,"is_disabled":false,"rental_uris":{"android":"levelo://app?vid=782ba954-8744-44a8-ac2c-1af11b08b18d","ios":"levelo://app?vid=782ba954-8744-44a8-ac2c-1af11b08b18d"},"vehicle_type_id":"4","last_reported":1702559426,"current_range_meters":31200,"station_id":"ce4bgl92rcd13ifvqbq0","pricing_plan_id":"free"},{"bike_id":"51fbed6e-dc60-4118-b993-e2a8ed4f7f17","system_id":"levelo_inurba_marseille","lat":43.309076,"lon":5.368465,"is_reserved":false,"is_disabled":false,"rental_uris":{"android":"levelo://app?vid=51fbed6e-dc60-4118-b993-e2a8ed4f7f17","ios":"levelo://app?vid=51fbed6e-dc60-4118-b993-e2a8ed4f7f17"},"vehicle_type_id":"4","last_reported":1702559426,"current_range_meters":31200,"station_id":"ce4bgn92rcd13ifvqbvg","pricing_plan_id":"free"},{"bike_id":"de709b56-6f8b-419d-acde-0e70afe08fb4","system_id":"levelo_inurba_marseille","lat":43.309107,"lon":5.36846,"is_reserved":false,"is_disabled":false,"rental_uris":{"android":"levelo://app?vid=de709b56-6f8b-419d-acde-0e70afe08fb4","ios":"levelo://app?vid=de709b56-6f8b-419d-acde-0e70afe08fb4"},"vehicle_type_id":"4","last_reported":1702559426,"current_range_meters":28400,"station_id":"ce4bgn92rcd13ifvqbvg","pricing_plan_id":"free"},{"bike_id":"8a1cffcf-f58c-40e9-bd54-602e521cc411","system_id":"levelo_inurba_marseille","lat":43.309076,"lon":5.368465,"is_reserved":false,"is_disabled":false,"rental_uris":{"android":"levelo://app?vid=8a1cffcf-f58c-40e9-bd54-602e521cc411","ios":"levelo://app?vid=8a1cffcf-f58c-40e9-bd54-602e521cc411"},"vehicle_type_id":"4","last_reported":1702559426,"current_range_meters":27600,"station_id":"ce4bgn92rcd13ifvqbvg","pricing_plan_id":"free"},{"bike_id":"6598fe0a-0e14-432a-8111-f8b14e8fe7d0","system_id":"levelo_inurba_marseille","lat":43.31535,"lon":5.37317,"is_reserved":false,"is_disabled":false,"rental_uris":{"android":"levelo://app?vid=6598fe0a-0e14-432a-8111-f8b14e8fe7d0","ios":"levelo://app?vid=6598fe0a-0e14-432a-8111-f8b14e8fe7d0"},"vehicle_type_id":"4","last_reported":1702559426,"current_range_meters":24800,"station_id":"","pricing_plan_id":"free"},{"bike_id":"3f8b821f-e430-4a35-bf14-f8b6e777ea11","system_id":"levelo_inurba_marseille","lat":43.313939,"lon":5.375306,"is_reserved":false,"is_disabled":false,"rental_uris":{"android":"levelo://app?vid=3f8b821f-e430-4a35-bf14-f8b6e777ea11","ios":"levelo://app?vid=3f8b821f-e430-4a35-bf14-f8b6e777ea11"},"vehicle_type_id":"4","last_reported":1702559426,"current_range_meters":4000,"station_id":"","pricing_plan_id":"free"},{"bike_id":"52e0a277-6e82-42cc-88cb-f05f346c6b56","system_id":"levelo_inurba_marseille","lat":43.30541,"lon":5.3671,"is_reserved":false,"is_disabled":false,"rental_uris":{"android":"levelo://app?vid=52e0a277-6e82-42cc-88cb-f05f346c6b56","ios":"levelo://app?vid=52e0a277-6e82-42cc-88cb-f05f346c6b56"},"vehicle_type_id":"4","last_reported":1702559426,"current_range_meters":31200,"station_id":"ce4bgrp2rcd13ifvqc9g","pricing_plan_id":"free"},{"bike_id":"b9263e7f-7a2f-43b6-b50e-d6f6a45cd83a","system_id":"levelo_inurba_marseille","lat":43.3054,"lon":5.36708,"is_reserved":false,"is_disabled":false,"rental_uris":{"android":"levelo://app?vid=b9263e7f-7a2f-43b6-b50e-d6f6a45cd83a","ios":"levelo://app?vid=b9263e7f-7a2f-43b6-b50e-d6f6a45cd83a"},"vehicle_type_id":"4","last_reported":1702559426,"current_range_meters":30800,"station_id":"ce4bgrp2rcd13ifvqc9g","pricing_plan_id":"free"},{"bike_id":"affa531c-e0ee-494f-8c4b-f6f07fb44f30","system_id":"levelo_inurba_marseille","lat":43.305712,"lon":5.365641,"is_reserved":false,"is_disabled":false,"rental_uris":{"android":"levelo://app?vid=affa531c-e0ee-494f-8c4b-f6f07fb44f30","ios":"levelo://app?vid=affa531c-e0ee-494f-8c4b-f6f07fb44f30"},"vehicle_type_id":"4","last_reported":1702559426,"current_range_meters":30800,"station_id":"ce4bgs12rcd13ifvqcag","pricing_plan_id":"free"},{"bike_id":"0d29da90-c347-4063-8f45-47464d525dfd","system_id":"levelo_inurba_marseille","lat":43.305706,"lon":5.365654,"is_reserved":false,"is_disabled":false,"rental_uris":{"android":"levelo://app?vid=0d29da90-c347-4063-8f45-47464d525dfd","ios":"levelo://app?vid=0d29da90-c347-4063-8f45-47464d525dfd"},"vehicle_type_id":"4","last_reported":1702559426,"current_range_meters":31200,"station_id":"ce4bgs12rcd13ifvqcag","pricing_plan_id":"free"},{"bike_id":"f890311f-ac37-400e-ab9c-b765d9b46ae6","system_id":"levelo_inurba_marseille","lat":43.305714,"lon":5.365633,"is_reserved":false,"is_disabled":false,"rental_uris":{"android":"levelo://app?vid=f890311f-ac37-400e-ab9c-b765d9b46ae6","ios":"levelo://app?vid=f890311f-ac37-400e-ab9c-b765d9b46ae6"},"vehicle_type_id":"4","last_reported":1702559426,"current_range_meters":18800,"station_id":"ce4bgs12rcd13ifvqcag","pricing_plan_id":"free"},{"bike_id":"955e4ab2-16e5-44e8-a986-a2f50ff96c06","system_id":"levelo_inurba_marseille","lat":43.305382,"lon":5.365389,"is_reserved":false,"is_disabled":false,"rental_uris":{"android":"levelo://app?vid=955e4ab2-16e5-44e8-a986-a2f50ff96c06","ios":"levelo://app?vid=955e4ab2-16e5-44e8-a986-a2f50ff96c06"},"vehicle_type_id":"4","last_reported":1702559426,"current_range_meters":23200,"station_id":"","pricing_plan_id":"free"},{"bike_id":"21db55fb-26e2-4400-9351-c897baffe75c","system_id":"levelo_inurba_marseille","lat":43.30514,"lon":5.36538,"is_reserved":false,"is_disabled":false,"rental_uris":{"android":"levelo://app?vid=21db55fb-26e2-4400-9351-c897baffe75c","ios":"levelo://app?vid=21db55fb-26e2-4400-9351-c897baffe75c"},"vehicle_type_id":"4","last_reported":1702559426,"current_range_meters":29600,"station_id":"","pricing_plan_id":"free"},{"bike_id":"6dac830e-02f2-4ff2-85ca-153130d6bdd5","system_id":"levelo_inurba_marseille","lat":43.307945,"lon":5.376487,"is_reserved":false,"is_disabled":false,"rental_uris":{"android":"levelo://app?vid=6dac830e-02f2-4ff2-85ca-153130d6bdd5","ios":"levelo://app?vid=6dac830e-02f2-4ff2-85ca-153130d6bdd5"},"vehicle_type_id":"4","last_reported":1702559426,"current_range_meters":16800,"station_id":"ce4bgv92rcd13ifvqcq0","pricing_plan_id":"free"},{"bike_id":"35dc5cef-d338-467c-9809-4e1edc5efaa4","system_id":"levelo_inurba_marseille","lat":43.317075,"lon":5.377367,"is_reserved":false,"is_disabled":false,"rental_uris":{"android":"levelo://app?vid=35dc5cef-d338-467c-9809-4e1edc5efaa4","ios":"levelo://app?vid=35dc5cef-d338-467c-9809-4e1edc5efaa4"},"vehicle_type_id":"4","last_reported":1702559426,"current_range_meters":27600,"station_id":"ce4bgth2rcd13ifvqch0","pricing_plan_id":"free"},{"bike_id":"c088e832-4877-46f1-97b0-69262def60a2","system_id":"levelo_inurba_marseille","lat":43.307979,"lon":5.381494,"is_reserved":false,"is_disabled":false,"rental_uris":{"android":"levelo://app?vid=c088e832-4877-46f1-97b0-69262def60a2","ios":"levelo://app?vid=c088e832-4877-46f1-97b0-69262def60a2"},"vehicle_type_id":"4","last_reported":1702559426,"current_range_meters":28000,"station_id":"ce4bgt12rcd13ifvqce0","pricing_plan_id":"free"},{"bike_id":"98f6f3fa-da62-4986-a9ef-b0f619e0e910","system_id":"levelo_inurba_marseille","lat":43.30143,"lon":5.37413,"is_reserved":false,"is_disabled":false,"rental_uris":{"android":"levelo://app?vid=98f6f3fa-da62-4986-a9ef-b0f619e0e910","ios":"levelo://app?vid=98f6f3fa-da62-4986-a9ef-b0f619e0e910"},"vehicle_type_id":"4","last_reported":1702559426,"current_range_meters":18000,"station_id":"ce4bgs92rcd13ifvqcc0","pricing_plan_id":"free"},{"bike_id":"52f702d3-a4d3-4d7c-8e56-58b46746f31c","system_id":"levelo_inurba_marseille","lat":43.302784,"lon":5.377158,"is_reserved":false,"is_disabled":false,"rental_uris":{"android":"levelo://app?vid=52f702d3-a4d3-4d7c-8e56-58b46746f31c","ios":"levelo://app?vid=52f702d3-a4d3-4d7c-8e56-58b46746f31c"},"vehicle_type_id":"4","last_reported":1702559426,"current_range_meters":17600,"station_id":"ce4bguh2rcd13ifvqcj0","pricing_plan_id":"free"},{"bike_id":"1a8c0082-5078-44a1-9332-1bdfdb48ef22","system_id":"levelo_inurba_marseille","lat":43.301429,"lon":5.37413,"is_reserved":false,"is_disabled":false,"rental_uris":{"android":"levelo://app?vid=1a8c0082-5078-44a1-9332-1bdfdb48ef22","ios":"levelo://app?vid=1a8c0082-5078-44a1-9332-1bdfdb48ef22"},"vehicle_type_id":"4","last_reported":1702559426,"current_range_meters":31200,"station_id":"ce4bgs92rcd13ifvqcc0","pricing_plan_id":"free"},{"bike_id":"f19b0271-3547-4695-b18f-fbd263cb12d9","system_id":"levelo_inurba_marseille","lat":43.29929,"lon":5.36556,"is_reserved":false,"is_disabled":false,"rental_uris":{"android":"levelo://app?vid=f19b0271-3547-4695-b18f-fbd263cb12d9","ios":"levelo://app?vid=f19b0271-3547-4695-b18f-fbd263cb12d9"},"vehicle_type_id":"4","last_reported":1702559426,"current_range_meters":8800,"station_id":"ce4bgm92rcd13ifvqbr0","pricing_plan_id":"free"},{"bike_id":"cc530d5a-f22d-4a93-a126-cd14ae6ac4d3","system_id":"levelo_inurba_marseille","lat":43.299724,"lon":5.371829,"is_reserved":false,"is_disabled":false,"rental_uris":{"android":"levelo://app?vid=cc530d5a-f22d-4a93-a126-cd14ae6ac4d3","ios":"levelo://app?vid=cc530d5a-f22d-4a93-a126-cd14ae6ac4d3"},"vehicle_type_id":"4","last_reported":1702559426,"current_range_meters":14000,"station_id":"ce4bgr92rcd13ifvqc7g","pricing_plan_id":"free"},{"bike_id":"63121347-acf5-46d5-89cb-12b5626174ed","system_id":"levelo_inurba_marseille","lat":43.298433,"lon":5.362774,"is_reserved":false,"is_disabled":false,"rental_uris":{"android":"levelo://app?vid=63121347-acf5-46d5-89cb-12b5626174ed","ios":"levelo://app?vid=63121347-acf5-46d5-89cb-12b5626174ed"},"vehicle_type_id":"4","last_reported":1702559426,"current_range_meters":27200,"station_id":"ce4bgpp2rcd13ifvqc3g","pricing_plan_id":"free"},{"bike_id":"f835b577-fbb6-411e-8fb2-7d818fb82187","system_id":"levelo_inurba_marseille","lat":43.298433,"lon":5.362774,"is_reserved":false,"is_disabled":false,"rental_uris":{"android":"levelo://app?vid=f835b577-fbb6-411e-8fb2-7d818fb82187","ios":"levelo://app?vid=f835b577-fbb6-411e-8fb2-7d818fb82187"},"vehicle_type_id":"4","last_reported":1702559426,"current_range_meters":31200,"station_id":"ce4bgpp2rcd13ifvqc3g","pricing_plan_id":"free"},{"bike_id":"62c4f95f-ec48-4f8f-96b5-1da2ba2b0a34","system_id":"levelo_inurba_marseille","lat":43.31154,"lon":5.386844,"is_reserved":false,"is_disabled":false,"rental_uris":{"android":"levelo://app?vid=62c4f95f-ec48-4f8f-96b5-1da2ba2b0a34","ios":"levelo://app?vid=62c4f95f-ec48-4f8f-96b5-1da2ba2b0a34"},"vehicle_type_id":"4","last_reported":1702559426,"current_range_meters":9600,"station_id":"ce4bgv12rcd13ifvqcp0","pricing_plan_id":"free"},{"bike_id":"ef1106cb-f131-49ab-93c5-811fe1dd48b5","system_id":"levelo_inurba_marseille","lat":43.298433,"lon":5.362774,"is_reserved":false,"is_disabled":false,"rental_uris":{"android":"levelo://app?vid=ef1106cb-f131-49ab-93c5-811fe1dd48b5","ios":"levelo://app?vid=ef1106cb-f131-49ab-93c5-811fe1dd48b5"},"vehicle_type_id":"4","last_reported":1702559426,"current_range_meters":31200,"station_id":"ce4bgpp2rcd13ifvqc3g","pricing_plan_id":"free"},{"bike_id":"cf880a93-689f-496b-b06b-64d66a80d22d","system_id":"levelo_inurba_marseille","lat":43.298433,"lon":5.362774,"is_reserved":false,"is_disabled":false,"rental_uris":{"android":"levelo://app?vid=cf880a93-689f-496b-b06b-64d66a80d22d","ios":"levelo://app?vid=cf880a93-689f-496b-b06b-64d66a80d22d"},"vehicle_type_id":"4","last_reported":1702559426,"current_range_meters":27200,"station_id":"ce4bgpp2rcd13ifvqc3g","pricing_plan_id":"free"},{"bike_id":"17236dfb-b8d1-4802-8b11-8755a04199a7","system_id":"levelo_inurba_marseille","lat":43.299243,"lon":5.37481,"is_reserved":false,"is_disabled":false,"rental_uris":{"android":"levelo://app?vid=17236dfb-b8d1-4802-8b11-8755a04199a7","ios":"levelo://app?vid=17236dfb-b8d1-4802-8b11-8755a04199a7"},"vehicle_type_id":"4","last_reported":1702559426,"current_range_meters":10400,"station_id":"ce4bgjh2rcd13ifvqbg0","pricing_plan_id":"free"},{"bike_id":"ed5f0256-776d-4300-ad00-c107bee05a60","system_id":"levelo_inurba_marseille","lat":43.322872,"lon":5.382756,"is_reserved":false,"is_disabled":false,"rental_uris":{"android":"levelo://app?vid=ed5f0256-776d-4300-ad00-c107bee05a60","ios":"levelo://app?vid=ed5f0256-776d-4300-ad00-c107bee05a60"},"vehicle_type_id":"4","last_reported":1702559426,"current_range_meters":22400,"station_id":"ce4bhr12rcd13ifvqhqg","pricing_plan_id":"free"},{"bike_id":"ff1c48d9-766d-47d0-ba39-a55391305eca","system_id":"levelo_inurba_marseille","lat":43.297163,"lon":5.365866,"is_reserved":false,"is_disabled":false,"rental_uris":{"android":"levelo://app?vid=ff1c48d9-766d-47d0-ba39-a55391305eca","ios":"levelo://app?vid=ff1c48d9-766d-47d0-ba39-a55391305eca"},"vehicle_type_id":"4","last_reported":1702559426,"current_range_meters":28000,"station_id":"ce4bgn12rcd13ifvqbt0","pricing_plan_id":"free"},{"bike_id":"cca3a3f2-39d3-4b46-948e-1d5f082889d9","system_id":"levelo_inurba_marseille","lat":43.29573,"lon":5.367355,"is_reserved":false,"is_disabled":false,"rental_uris":{"android":"levelo://app?vid=cca3a3f2-39d3-4b46-948e-1d5f082889d9","ios":"levelo://app?vid=cca3a3f2-39d3-4b46-948e-1d5f082889d9"},"vehicle_type_id":"4","last_reported":1702559426,"current_range_meters":12400,"station_id":"ce4bgph2rcd13ifvqc2g","pricing_plan_id":"free"},{"bike_id":"bd7bb81d-1155-4ebd-8f55-5ff0021cc493","system_id":"levelo_inurba_marseille","lat":43.299028,"lon":5.381509,"is_reserved":false,"is_disabled":false,"rental_uris":{"android":"levelo://app?vid=bd7bb81d-1155-4ebd-8f55-5ff0021cc493","ios":"levelo://app?vid=bd7bb81d-1155-4ebd-8f55-5ff0021cc493"},"vehicle_type_id":"4","last_reported":1702559426,"current_range_meters":25600,"station_id":"ce4bgj12rcd13ifvqbc0","pricing_plan_id":"free"},{"bike_id":"9f587b86-b7d9-4f56-b05d-eeab601d5237","system_id":"levelo_inurba_marseille","lat":43.296935,"lon":5.376544,"is_reserved":false,"is_disabled":false,"rental_uris":{"android":"levelo://app?vid=9f587b86-b7d9-4f56-b05d-eeab601d5237","ios":"levelo://app?vid=9f587b86-b7d9-4f56-b05d-eeab601d5237"},"vehicle_type_id":"4","last_reported":1702559426,"current_range_meters":11200,"station_id":"ce4bgkh2rcd13ifvqbl0","pricing_plan_id":"free"},{"bike_id":"8767dff5-0fc9-4b07-95fb-c56a2f803760","system_id":"levelo_inurba_marseille","lat":43.309589,"lon":5.390258,"is_reserved":false,"is_disabled":false,"rental_uris":{"android":"levelo://app?vid=8767dff5-0fc9-4b07-95fb-c56a2f803760","ios":"levelo://app?vid=8767dff5-0fc9-4b07-95fb-c56a2f803760"},"vehicle_type_id":"4","last_reported":1702559426,"current_range_meters":12400,"station_id":"ce4bgup2rcd13ifvqco0","pricing_plan_id":"free"},{"bike_id":"38267179-0845-405f-ae8f-339900e68789","system_id":"levelo_inurba_marseille","lat":43.30944,"lon":5.39043,"is_reserved":false,"is_disabled":false,"rental_uris":{"android":"levelo://app?vid=38267179-0845-405f-ae8f-339900e68789","ios":"levelo://app?vid=38267179-0845-405f-ae8f-339900e68789"},"vehicle_type_id":"4","last_reported":1702559426,"current_range_meters":0,"station_id":"ce4bgup2rcd13ifvqco0","pricing_plan_id":"free"},{"bike_id":"3ef1498b-b2e6-43ea-b499-6bbb881b67c5","system_id":"levelo_inurba_marseille","lat":43.317557,"lon":5.390173,"is_reserved":false,"is_disabled":false,"rental_uris":{"android":"levelo://app?vid=3ef1498b-b2e6-43ea-b499-6bbb881b67c5","ios":"levelo://app?vid=3ef1498b-b2e6-43ea-b499-6bbb881b67c5"},"vehicle_type_id":"4","last_reported":1702559426,"current_range_meters":17200,"station_id":"ce4bhqp2rcd13ifvqhng","pricing_plan_id":"free"},{"bike_id":"6fa473cc-bb32-4878-a1e3-621b49bf645b","system_id":"levelo_inurba_marseille","lat":43.29796,"lon":5.38076,"is_reserved":false,"is_disabled":false,"rental_uris":{"android":"levelo://app?vid=6fa473cc-bb32-4878-a1e3-621b49bf645b","ios":"levelo://app?vid=6fa473cc-bb32-4878-a1e3-621b49bf645b"},"vehicle_type_id":"4","last_reported":1702559426,"current_range_meters":26800,"station_id":"","pricing_plan_id":"free"},{"bike_id":"43a88fdd-261e-4efc-a41e-2646eb5182d9","system_id":"levelo_inurba_marseille","lat":43.29794,"lon":5.38096,"is_reserved":false,"is_disabled":false,"rental_uris":{"android":"levelo://app?vid=43a88fdd-261e-4efc-a41e-2646eb5182d9","ios":"levelo://app?vid=43a88fdd-261e-4efc-a41e-2646eb5182d9"},"vehicle_type_id":"4","last_reported":1702559426,"current_range_meters":29600,"station_id":"ce4bgip2rcd13ifvqbb0","pricing_plan_id":"free"},{"bike_id":"43710c5e-5925-4219-8fee-64840ec74d31","system_id":"levelo_inurba_marseille","lat":43.32367,"lon":5.38888,"is_reserved":false,"is_disabled":false,"rental_uris":{"android":"levelo://app?vid=43710c5e-5925-4219-8fee-64840ec74d31","ios":"levelo://app?vid=43710c5e-5925-4219-8fee-64840ec74d31"},"vehicle_type_id":"4","last_reported":1702559426,"current_range_meters":22000,"station_id":"ce4bhqp2rcd13ifvqhog","pricing_plan_id":"free"},{"bike_id":"a1a98dcb-db28-4495-b25f-f67fdcc7ca9e","system_id":"levelo_inurba_marseille","lat":43.29602,"lon":5.381084,"is_reserved":false,"is_disabled":false,"rental_uris":{"android":"levelo://app?vid=a1a98dcb-db28-4495-b25f-f67fdcc7ca9e","ios":"levelo://app?vid=a1a98dcb-db28-4495-b25f-f67fdcc7ca9e"},"vehicle_type_id":"4","last_reported":1702559426,"current_range_meters":18400,"station_id":"ce4bgl12rcd13ifvqbo0","pricing_plan_id":"free"},{"bike_id":"b1968c2c-6c0d-47ec-a975-e9ddb4b47cfc","system_id":"levelo_inurba_marseille","lat":43.30305,"lon":5.39211,"is_reserved":false,"is_disabled":false,"rental_uris":{"android":"levelo://app?vid=b1968c2c-6c0d-47ec-a975-e9ddb4b47cfc","ios":"levelo://app?vid=b1968c2c-6c0d-47ec-a975-e9ddb4b47cfc"},"vehicle_type_id":"4","last_reported":1702559426,"current_range_meters":27600,"station_id":"ce4bgkh2rcd13ifvqbk0","pricing_plan_id":"free"},{"bike_id":"537b83a7-a4aa-4a22-a8f3-d3eae4ee3425","system_id":"levelo_inurba_marseille","lat":43.303008,"lon":5.392143,"is_reserved":false,"is_disabled":false,"rental_uris":{"android":"levelo://app?vid=537b83a7-a4aa-4a22-a8f3-d3eae4ee3425","ios":"levelo://app?vid=537b83a7-a4aa-4a22-a8f3-d3eae4ee3425"},"vehicle_type_id":"4","last_reported":1702559426,"current_range_meters":26000,"station_id":"ce4bgkh2rcd13ifvqbk0","pricing_plan_id":"free"},{"bike_id":"619a69f0-ac4b-4d74-8398-f8143a0590a0","system_id":"levelo_inurba_marseille","lat":43.29529,"lon":5.385581,"is_reserved":false,"is_disabled":false,"rental_uris":{"android":"levelo://app?vid=619a69f0-ac4b-4d74-8398-f8143a0590a0","ios":"levelo://app?vid=619a69f0-ac4b-4d74-8398-f8143a0590a0"},"vehicle_type_id":"4","last_reported":1702559426,"current_range_meters":3600,"station_id":"ce4bgih2rcd13ifvqba0","pricing_plan_id":"free"},{"bike_id":"eba968f7-b4c2-439a-9c21-09d31f0275d3","system_id":"levelo_inurba_marseille","lat":43.290779,"lon":5.371482,"is_reserved":false,"is_disabled":false,"rental_uris":{"android":"levelo://app?vid=eba968f7-b4c2-439a-9c21-09d31f0275d3","ios":"levelo://app?vid=eba968f7-b4c2-439a-9c21-09d31f0275d3"},"vehicle_type_id":"4","last_reported":1702559426,"current_range_meters":9600,"station_id":"ce4bh5p2rcd13ifvqe4g","pricing_plan_id":"free"},{"bike_id":"f9ccb580-c786-4f48-8f7b-e728e3207473","system_id":"levelo_inurba_marseille","lat":43.290779,"lon":5.371482,"is_reserved":false,"is_disabled":false,"rental_uris":{"android":"levelo://app?vid=f9ccb580-c786-4f48-8f7b-e728e3207473","ios":"levelo://app?vid=f9ccb580-c786-4f48-8f7b-e728e3207473"},"vehicle_type_id":"4","last_reported":1702559426,"current_range_meters":24800,"station_id":"ce4bh5p2rcd13ifvqe4g","pricing_plan_id":"free"},{"bike_id":"d5b7fa59-5af6-4194-93b9-fe6e17bb5e34","system_id":"levelo_inurba_marseille","lat":43.289461,"lon":5.366299,"is_reserved":false,"is_disabled":false,"rental_uris":{"android":"levelo://app?vid=d5b7fa59-5af6-4194-93b9-fe6e17bb5e34","ios":"levelo://app?vid=d5b7fa59-5af6-4194-93b9-fe6e17bb5e34"},"vehicle_type_id":"4","last_reported":1702559426,"current_range_meters":21600,"station_id":"ce4bhap2rcd13ifvqek0","pricing_plan_id":"free"},{"bike_id":"8431c7df-599e-45d0-a1c8-6783a8247f73","system_id":"levelo_inurba_marseille","lat":43.294153,"lon":5.386305,"is_reserved":false,"is_disabled":false,"rental_uris":{"android":"levelo://app?vid=8431c7df-599e-45d0-a1c8-6783a8247f73","ios":"levelo://app?vid=8431c7df-599e-45d0-a1c8-6783a8247f73"},"vehicle_type_id":"4","last_reported":1702559426,"current_range_meters":13200,"station_id":"ce4bh2h2rcd13ifvqdh0","pricing_plan_id":"free"},{"bike_id":"3af926b5-def8-45b2-a478-cca042f4ce26","system_id":"levelo_inurba_marseille","lat":43.292644,"lon":5.384257,"is_reserved":false,"is_disabled":false,"rental_uris":{"android":"levelo://app?vid=3af926b5-def8-45b2-a478-cca042f4ce26","ios":"levelo://app?vid=3af926b5-def8-45b2-a478-cca042f4ce26"},"vehicle_type_id":"4","last_reported":1702559426,"current_range_meters":18800,"station_id":"ce4bh692rcd13ifvqea0","pricing_plan_id":"free"},{"bike_id":"d2dbdea2-abe9-49db-8720-20b7d9018aae","system_id":"levelo_inurba_marseille","lat":43.330442,"lon":5.389148,"is_reserved":false,"is_disabled":false,"rental_uris":{"android":"levelo://app?vid=d2dbdea2-abe9-49db-8720-20b7d9018aae","ios":"levelo://app?vid=d2dbdea2-abe9-49db-8720-20b7d9018aae"},"vehicle_type_id":"4","last_reported":1702559426,"current_range_meters":28000,"station_id":"ce4bhr92rcd13ifvqhrg","pricing_plan_id":"free"},{"bike_id":"eaac9ad2-a743-4771-a4b0-c34965a43884","system_id":"levelo_inurba_marseille","lat":43.290103,"lon":5.356114,"is_reserved":false,"is_disabled":false,"rental_uris":{"android":"levelo://app?vid=eaac9ad2-a743-4771-a4b0-c34965a43884","ios":"levelo://app?vid=eaac9ad2-a743-4771-a4b0-c34965a43884"},"vehicle_type_id":"4","last_reported":1702559426,"current_range_meters":26400,"station_id":"ce4bhb92rcd13ifvqen0","pricing_plan_id":"free"},{"bike_id":"bdad5279-3114-4b97-af22-0f7496a98ec5","system_id":"levelo_inurba_marseille","lat":43.289743,"lon":5.378304,"is_reserved":false,"is_disabled":false,"rental_uris":{"android":"levelo://app?vid=bdad5279-3114-4b97-af22-0f7496a98ec5","ios":"levelo://app?vid=bdad5279-3114-4b97-af22-0f7496a98ec5"},"vehicle_type_id":"4","last_reported":1702559426,"current_range_meters":18800,"station_id":"ce4bh9p2rcd13ifvqed0","pricing_plan_id":"free"},{"bike_id":"bdd87f9b-62bb-4845-8b71-4fcc2b7a6854","system_id":"levelo_inurba_marseille","lat":43.295169,"lon":5.390426,"is_reserved":false,"is_disabled":false,"rental_uris":{"android":"levelo://app?vid=bdd87f9b-62bb-4845-8b71-4fcc2b7a6854","ios":"levelo://app?vid=bdd87f9b-62bb-4845-8b71-4fcc2b7a6854"},"vehicle_type_id":"4","last_reported":1702559426,"current_range_meters":19200,"station_id":"ce4bh3p2rcd13ifvqdp0","pricing_plan_id":"free"},{"bike_id":"e51a9038-fd76-4902-8cbe-6c1c2351946b","system_id":"levelo_inurba_marseille","lat":43.289743,"lon":5.378304,"is_reserved":false,"is_disabled":false,"rental_uris":{"android":"levelo://app?vid=e51a9038-fd76-4902-8cbe-6c1c2351946b","ios":"levelo://app?vid=e51a9038-fd76-4902-8cbe-6c1c2351946b"},"vehicle_type_id":"4","last_reported":1702559426,"current_range_meters":23600,"station_id":"ce4bh9p2rcd13ifvqed0","pricing_plan_id":"free"},{"bike_id":"9e05826c-5d49-4626-8989-9e74e2375e1f","system_id":"levelo_inurba_marseille","lat":43.28854,"lon":5.35846,"is_reserved":false,"is_disabled":false,"rental_uris":{"android":"levelo://app?vid=9e05826c-5d49-4626-8989-9e74e2375e1f","ios":"levelo://app?vid=9e05826c-5d49-4626-8989-9e74e2375e1f"},"vehicle_type_id":"4","last_reported":1702559426,"current_range_meters":26800,"station_id":"ce4bhb12rcd13ifvqem0","pricing_plan_id":"free"},{"bike_id":"683b3549-243a-4e6a-b4e7-b1f456b9d020","system_id":"levelo_inurba_marseille","lat":43.28849,"lon":5.35862,"is_reserved":false,"is_disabled":false,"rental_uris":{"android":"levelo://app?vid=683b3549-243a-4e6a-b4e7-b1f456b9d020","ios":"levelo://app?vid=683b3549-243a-4e6a-b4e7-b1f456b9d020"},"vehicle_type_id":"4","last_reported":1702559426,"current_range_meters":22800,"station_id":"ce4bhb12rcd13ifvqem0","pricing_plan_id":"free"},{"bike_id":"ea1a06c3-49dd-4ad6-a782-80369cc979cc","system_id":"levelo_inurba_marseille","lat":43.33772,"lon":5.37443,"is_reserved":false,"is_disabled":false,"rental_uris":{"android":"levelo://app?vid=ea1a06c3-49dd-4ad6-a782-80369cc979cc","ios":"levelo://app?vid=ea1a06c3-49dd-4ad6-a782-80369cc979cc"},"vehicle_type_id":"4","last_reported":1702559426,"current_range_meters":29600,"station_id":"","pricing_plan_id":"free"},{"bike_id":"1e68ea93-1eaa-4692-a23a-1c3ad6ee9e8d","system_id":"levelo_inurba_marseille","lat":43.28727,"lon":5.36078,"is_reserved":false,"is_disabled":false,"rental_uris":{"android":"levelo://app?vid=1e68ea93-1eaa-4692-a23a-1c3ad6ee9e8d","ios":"levelo://app?vid=1e68ea93-1eaa-4692-a23a-1c3ad6ee9e8d"},"vehicle_type_id":"4","last_reported":1702559426,"current_range_meters":21600,"station_id":"cki0cbj6b192h4jlfktg","pricing_plan_id":"free"},{"bike_id":"84743e5c-417f-4b4b-b5ea-5c98fca15d1a","system_id":"levelo_inurba_marseille","lat":43.286593,"lon":5.363346,"is_reserved":false,"is_disabled":false,"rental_uris":{"android":"levelo://app?vid=84743e5c-417f-4b4b-b5ea-5c98fca15d1a","ios":"levelo://app?vid=84743e5c-417f-4b4b-b5ea-5c98fca15d1a"},"vehicle_type_id":"4","last_reported":1702559426,"current_range_meters":21200,"station_id":"ce4bhah2rcd13ifvqej0","pricing_plan_id":"free"},{"bike_id":"4c52402f-3a82-4eee-a9e6-e9a9d1057c16","system_id":"levelo_inurba_marseille","lat":43.289307,"lon":5.38406,"is_reserved":false,"is_disabled":false,"rental_uris":{"android":"levelo://app?vid=4c52402f-3a82-4eee-a9e6-e9a9d1057c16","ios":"levelo://app?vid=4c52402f-3a82-4eee-a9e6-e9a9d1057c16"},"vehicle_type_id":"4","last_reported":1702559426,"current_range_meters":25200,"station_id":"ce4bh612rcd13ifvqe6g","pricing_plan_id":"free"},{"bike_id":"c1d0c0af-5775-42d7-8d59-5abd9d8c429d","system_id":"levelo_inurba_marseille","lat":43.29024,"lon":5.38649,"is_reserved":false,"is_disabled":false,"rental_uris":{"android":"levelo://app?vid=c1d0c0af-5775-42d7-8d59-5abd9d8c429d","ios":"levelo://app?vid=c1d0c0af-5775-42d7-8d59-5abd9d8c429d"},"vehicle_type_id":"4","last_reported":1702559426,"current_range_meters":24000,"station_id":"ce4bh4p2rcd13ifvqe0g","pricing_plan_id":"free"},{"bike_id":"557b694a-a9fa-4ef8-9d14-f70965659a0c","system_id":"levelo_inurba_marseille","lat":43.290345,"lon":5.38646,"is_reserved":false,"is_disabled":false,"rental_uris":{"android":"levelo://app?vid=557b694a-a9fa-4ef8-9d14-f70965659a0c","ios":"levelo://app?vid=557b694a-a9fa-4ef8-9d14-f70965659a0c"},"vehicle_type_id":"4","last_reported":1702559426,"current_range_meters":8800,"station_id":"ce4bh4p2rcd13ifvqe0g","pricing_plan_id":"free"},{"bike_id":"da541e52-b6c2-4fb9-9063-452c363f5361","system_id":"levelo_inurba_marseille","lat":43.302759,"lon":5.400793,"is_reserved":false,"is_disabled":false,"rental_uris":{"android":"levelo://app?vid=da541e52-b6c2-4fb9-9063-452c363f5361","ios":"levelo://app?vid=da541e52-b6c2-4fb9-9063-452c363f5361"},"vehicle_type_id":"4","last_reported":1702559426,"current_range_meters":27600,"station_id":"ce4bgvh2rcd13ifvqcs0","pricing_plan_id":"free"},{"bike_id":"a13a2463-be07-485f-a4f2-4d7d0687e78b","system_id":"levelo_inurba_marseille","lat":43.287185,"lon":5.379373,"is_reserved":false,"is_disabled":false,"rental_uris":{"android":"levelo://app?vid=a13a2463-be07-485f-a4f2-4d7d0687e78b","ios":"levelo://app?vid=a13a2463-be07-485f-a4f2-4d7d0687e78b"},"vehicle_type_id":"4","last_reported":1702559426,"current_range_meters":25200,"station_id":"ce4bh9p2rcd13ifvqec0","pricing_plan_id":"free"},{"bike_id":"2cbaee90-3a27-4e7f-b985-0d7b8c2ca0c0","system_id":"levelo_inurba_marseille","lat":43.316828,"lon":5.404723,"is_reserved":false,"is_disabled":false,"rental_uris":{"android":"levelo://app?vid=2cbaee90-3a27-4e7f-b985-0d7b8c2ca0c0","ios":"levelo://app?vid=2cbaee90-3a27-4e7f-b985-0d7b8c2ca0c0"},"vehicle_type_id":"4","last_reported":1702559426,"current_range_meters":23200,"station_id":"ce4bh012rcd13ifvqd00","pricing_plan_id":"free"},{"bike_id":"32b2c5e7-4732-44c3-b5ee-d4941b28480c","system_id":"levelo_inurba_marseille","lat":43.31688,"lon":5.40472,"is_reserved":false,"is_disabled":false,"rental_uris":{"android":"levelo://app?vid=32b2c5e7-4732-44c3-b5ee-d4941b28480c","ios":"levelo://app?vid=32b2c5e7-4732-44c3-b5ee-d4941b28480c"},"vehicle_type_id":"4","last_reported":1702559426,"current_range_meters":6000,"station_id":"ce4bh012rcd13ifvqd00","pricing_plan_id":"free"},{"bike_id":"2e561e80-6259-4368-86e7-4f23807a139a","system_id":"levelo_inurba_marseille","lat":43.316828,"lon":5.404723,"is_reserved":false,"is_disabled":false,"rental_uris":{"android":"levelo://app?vid=2e561e80-6259-4368-86e7-4f23807a139a","ios":"levelo://app?vid=2e561e80-6259-4368-86e7-4f23807a139a"},"vehicle_type_id":"4","last_reported":1702559426,"current_range_meters":14400,"station_id":"ce4bh012rcd13ifvqd00","pricing_plan_id":"free"},{"bike_id":"0d81b149-71c5-4793-837f-bd14e692c75e","system_id":"levelo_inurba_marseille","lat":43.291994,"lon":5.392907,"is_reserved":false,"is_disabled":false,"rental_uris":{"android":"levelo://app?vid=0d81b149-71c5-4793-837f-bd14e692c75e","ios":"levelo://app?vid=0d81b149-71c5-4793-837f-bd14e692c75e"},"vehicle_type_id":"4","last_reported":1702559426,"current_range_meters":17600,"station_id":"ce4bh192rcd13ifvqdd0","pricing_plan_id":"free"},{"bike_id":"378658f9-4868-4fcd-8c1d-f9b6d368342d","system_id":"levelo_inurba_marseille","lat":43.284534,"lon":5.358662,"is_reserved":false,"is_disabled":false,"rental_uris":{"android":"levelo://app?vid=378658f9-4868-4fcd-8c1d-f9b6d368342d","ios":"levelo://app?vid=378658f9-4868-4fcd-8c1d-f9b6d368342d"},"vehicle_type_id":"4","last_reported":1702559426,"current_range_meters":24800,"station_id":"ce4bhah2rcd13ifvqei0","pricing_plan_id":"free"},{"bike_id":"bbe54b40-de8c-43f2-849a-ec9460ca381f","system_id":"levelo_inurba_marseille","lat":43.294314,"lon":5.397498,"is_reserved":false,"is_disabled":false,"rental_uris":{"android":"levelo://app?vid=bbe54b40-de8c-43f2-849a-ec9460ca381f","ios":"levelo://app?vid=bbe54b40-de8c-43f2-849a-ec9460ca381f"},"vehicle_type_id":"4","last_reported":1702559426,"current_range_meters":26000,"station_id":"ce4bh3h2rcd13ifvqdo0","pricing_plan_id":"free"},{"bike_id":"bbb00f67-cf65-4f13-9f01-e2aee0844f8e","system_id":"levelo_inurba_marseille","lat":43.28612,"lon":5.351019,"is_reserved":false,"is_disabled":false,"rental_uris":{"android":"levelo://app?vid=bbb00f67-cf65-4f13-9f01-e2aee0844f8e","ios":"levelo://app?vid=bbb00f67-cf65-4f13-9f01-e2aee0844f8e"},"vehicle_type_id":"4","last_reported":1702559426,"current_range_meters":0,"station_id":"ce4bhch2rcd13ifvqeug","pricing_plan_id":"free"},{"bike_id":"13c13ed8-88d9-4270-a506-1045b0fc77ec","system_id":"levelo_inurba_marseille","lat":43.283998,"lon":5.375062,"is_reserved":false,"is_disabled":false,"rental_uris":{"android":"levelo://app?vid=13c13ed8-88d9-4270-a506-1045b0fc77ec","ios":"levelo://app?vid=13c13ed8-88d9-4270-a506-1045b0fc77ec"},"vehicle_type_id":"4","last_reported":1702559426,"current_range_meters":1200,"station_id":"ce4bh412rcd13ifvqds0","pricing_plan_id":"free"},{"bike_id":"13629fb7-6dea-41b0-893e-f769d16511e8","system_id":"levelo_inurba_marseille","lat":43.286681,"lon":5.386679,"is_reserved":false,"is_disabled":false,"rental_uris":{"android":"levelo://app?vid=13629fb7-6dea-41b0-893e-f769d16511e8","ios":"levelo://app?vid=13629fb7-6dea-41b0-893e-f769d16511e8"},"vehicle_type_id":"4","last_reported":1702559426,"current_range_meters":16800,"station_id":"","pricing_plan_id":"free"},{"bike_id":"2c92f10e-fa6e-4ddb-9530-d6f90043c9b5","system_id":"levelo_inurba_marseille","lat":43.33717,"lon":5.391857,"is_reserved":false,"is_disabled":false,"rental_uris":{"android":"levelo://app?vid=2c92f10e-fa6e-4ddb-9530-d6f90043c9b5","ios":"levelo://app?vid=2c92f10e-fa6e-4ddb-9530-d6f90043c9b5"},"vehicle_type_id":"4","last_reported":1702559426,"current_range_meters":28800,"station_id":"ce4bhr92rcd13ifvqhsg","pricing_plan_id":"free"},{"bike_id":"feb066b9-baae-458b-b374-2a6a57faf547","system_id":"levelo_inurba_marseille","lat":43.292724,"lon":5.401131,"is_reserved":false,"is_disabled":false,"rental_uris":{"android":"levelo://app?vid=feb066b9-baae-458b-b374-2a6a57faf547","ios":"levelo://app?vid=feb066b9-baae-458b-b374-2a6a57faf547"},"vehicle_type_id":"4","last_reported":1702559426,"current_range_meters":24800,"station_id":"ce4bh312rcd13ifvqdk0","pricing_plan_id":"free"},{"bike_id":"77330320-8ccb-4092-91ed-43f91c0119a3","system_id":"levelo_inurba_marseille","lat":43.281044,"lon":5.378308,"is_reserved":false,"is_disabled":false,"rental_uris":{"android":"levelo://app?vid=77330320-8ccb-4092-91ed-43f91c0119a3","ios":"levelo://app?vid=77330320-8ccb-4092-91ed-43f91c0119a3"},"vehicle_type_id":"4","last_reported":1702559426,"current_range_meters":14000,"station_id":"ce4bha12rcd13ifvqee0","pricing_plan_id":"free"},{"bike_id":"5ff3a690-3e51-4e6d-b96e-c8596327b642","system_id":"levelo_inurba_marseille","lat":43.276771,"lon":5.388799,"is_reserved":false,"is_disabled":false,"rental_uris":{"android":"levelo://app?vid=5ff3a690-3e51-4e6d-b96e-c8596327b642","ios":"levelo://app?vid=5ff3a690-3e51-4e6d-b96e-c8596327b642"},"vehicle_type_id":"4","last_reported":1702559426,"current_range_meters":22000,"station_id":"ce4bhi12rcd13ifvqfo0","pricing_plan_id":"free"},{"bike_id":"c7f03692-9210-4bb1-9361-eb1158568a10","system_id":"levelo_inurba_marseille","lat":43.284462,"lon":5.392121,"is_reserved":false,"is_disabled":false,"rental_uris":{"android":"levelo://app?vid=c7f03692-9210-4bb1-9361-eb1158568a10","ios":"levelo://app?vid=c7f03692-9210-4bb1-9361-eb1158568a10"},"vehicle_type_id":"4","last_reported":1702559426,"current_range_meters":30400,"station_id":"ce4bhoh2rcd13ifvqh5g","pricing_plan_id":"free"},{"bike_id":"5a0c4afe-ce9b-4ecf-8381-920cf2cc9108","system_id":"levelo_inurba_marseille","lat":43.28573,"lon":5.394992,"is_reserved":false,"is_disabled":false,"rental_uris":{"android":"levelo://app?vid=5a0c4afe-ce9b-4ecf-8381-920cf2cc9108","ios":"levelo://app?vid=5a0c4afe-ce9b-4ecf-8381-920cf2cc9108"},"vehicle_type_id":"4","last_reported":1702559426,"current_range_meters":10400,"station_id":"ce4bh292rcd13ifvqdg0","pricing_plan_id":"free"},{"bike_id":"9d63cf6a-f0e3-415b-8dd6-462452ac2089","system_id":"levelo_inurba_marseille","lat":43.304188,"lon":5.412904,"is_reserved":false,"is_disabled":false,"rental_uris":{"android":"levelo://app?vid=9d63cf6a-f0e3-415b-8dd6-462452ac2089","ios":"levelo://app?vid=9d63cf6a-f0e3-415b-8dd6-462452ac2089"},"vehicle_type_id":"4","last_reported":1702559426,"current_range_meters":27200,"station_id":"ce4bhop2rcd13ifvqh8g","pricing_plan_id":"free"},{"bike_id":"de03739b-1e74-4910-a4f7-81e7f4ae76e8","system_id":"levelo_inurba_marseille","lat":43.292571,"lon":5.409107,"is_reserved":false,"is_disabled":false,"rental_uris":{"android":"levelo://app?vid=de03739b-1e74-4910-a4f7-81e7f4ae76e8","ios":"levelo://app?vid=de03739b-1e74-4910-a4f7-81e7f4ae76e8"},"vehicle_type_id":"4","last_reported":1702559426,"current_range_meters":19600,"station_id":"ce4bh192rcd13ifvqdc0","pricing_plan_id":"free"},{"bike_id":"93160ac2-f71b-47ff-989a-a8354ea99363","system_id":"levelo_inurba_marseille","lat":43.292569,"lon":5.409107,"is_reserved":false,"is_disabled":false,"rental_uris":{"android":"levelo://app?vid=93160ac2-f71b-47ff-989a-a8354ea99363","ios":"levelo://app?vid=93160ac2-f71b-47ff-989a-a8354ea99363"},"vehicle_type_id":"4","last_reported":1702559426,"current_range_meters":22000,"station_id":"ce4bh192rcd13ifvqdc0","pricing_plan_id":"free"},{"bike_id":"18d01258-4002-4ac8-9f16-20374a754bd0","system_id":"levelo_inurba_marseille","lat":43.292569,"lon":5.409107,"is_reserved":false,"is_disabled":false,"rental_uris":{"android":"levelo://app?vid=18d01258-4002-4ac8-9f16-20374a754bd0","ios":"levelo://app?vid=18d01258-4002-4ac8-9f16-20374a754bd0"},"vehicle_type_id":"4","last_reported":1702559426,"current_range_meters":0,"station_id":"ce4bh192rcd13ifvqdc0","pricing_plan_id":"free"},{"bike_id":"9a125995-9b1e-4ec5-a1ae-fec8b0e288cf","system_id":"levelo_inurba_marseille","lat":43.292571,"lon":5.409107,"is_reserved":false,"is_disabled":false,"rental_uris":{"android":"levelo://app?vid=9a125995-9b1e-4ec5-a1ae-fec8b0e288cf","ios":"levelo://app?vid=9a125995-9b1e-4ec5-a1ae-fec8b0e288cf"},"vehicle_type_id":"4","last_reported":1702559426,"current_range_meters":27600,"station_id":"ce4bh192rcd13ifvqdc0","pricing_plan_id":"free"},{"bike_id":"e025a454-a7ee-46ec-b0bb-477db5580451","system_id":"levelo_inurba_marseille","lat":43.325243,"lon":5.414326,"is_reserved":false,"is_disabled":false,"rental_uris":{"android":"levelo://app?vid=e025a454-a7ee-46ec-b0bb-477db5580451","ios":"levelo://app?vid=e025a454-a7ee-46ec-b0bb-477db5580451"},"vehicle_type_id":"4","last_reported":1702559426,"current_range_meters":18400,"station_id":"ce4bhq12rcd13ifvqhhg","pricing_plan_id":"free"},{"bike_id":"459764d2-fd4c-42e5-add5-8d793922db64","system_id":"levelo_inurba_marseille","lat":43.325243,"lon":5.414326,"is_reserved":false,"is_disabled":false,"rental_uris":{"android":"levelo://app?vid=459764d2-fd4c-42e5-add5-8d793922db64","ios":"levelo://app?vid=459764d2-fd4c-42e5-add5-8d793922db64"},"vehicle_type_id":"4","last_reported":1702559426,"current_range_meters":19200,"station_id":"ce4bhq12rcd13ifvqhhg","pricing_plan_id":"free"},{"bike_id":"aa4e8aac-6f2e-4426-b4a8-86b62eb50f3d","system_id":"levelo_inurba_marseille","lat":43.27618,"lon":5.361009,"is_reserved":false,"is_disabled":false,"rental_uris":{"android":"levelo://app?vid=aa4e8aac-6f2e-4426-b4a8-86b62eb50f3d","ios":"levelo://app?vid=aa4e8aac-6f2e-4426-b4a8-86b62eb50f3d"},"vehicle_type_id":"4","last_reported":1702559426,"current_range_meters":20400,"station_id":"ce4bgj92rcd13ifvqbe0","pricing_plan_id":"free"},{"bike_id":"44d93f86-6321-4de3-bbc1-780bc3cf4cb8","system_id":"levelo_inurba_marseille","lat":43.325233,"lon":5.414318,"is_reserved":false,"is_disabled":false,"rental_uris":{"android":"levelo://app?vid=44d93f86-6321-4de3-bbc1-780bc3cf4cb8","ios":"levelo://app?vid=44d93f86-6321-4de3-bbc1-780bc3cf4cb8"},"vehicle_type_id":"4","last_reported":1702559426,"current_range_meters":27200,"station_id":"ce4bhq12rcd13ifvqhhg","pricing_plan_id":"free"},{"bike_id":"c912988d-253f-4251-9433-b2e535821465","system_id":"levelo_inurba_marseille","lat":43.278399,"lon":5.392139,"is_reserved":false,"is_disabled":false,"rental_uris":{"android":"levelo://app?vid=c912988d-253f-4251-9433-b2e535821465","ios":"levelo://app?vid=c912988d-253f-4251-9433-b2e535821465"},"vehicle_type_id":"4","last_reported":1702559426,"current_range_meters":21600,"station_id":"ce4bhjp2rcd13ifvqga0","pricing_plan_id":"free"},{"bike_id":"9bac72fa-33e0-41b0-985b-43be3d7b69e0","system_id":"levelo_inurba_marseille","lat":43.278399,"lon":5.392139,"is_reserved":false,"is_disabled":false,"rental_uris":{"android":"levelo://app?vid=9bac72fa-33e0-41b0-985b-43be3d7b69e0","ios":"levelo://app?vid=9bac72fa-33e0-41b0-985b-43be3d7b69e0"},"vehicle_type_id":"4","last_reported":1702559426,"current_range_meters":11600,"station_id":"ce4bhjp2rcd13ifvqga0","pricing_plan_id":"free"},{"bike_id":"fac95fad-492a-4f29-b8d3-464cdc304e46","system_id":"levelo_inurba_marseille","lat":43.275625,"lon":5.384392,"is_reserved":false,"is_disabled":false,"rental_uris":{"android":"levelo://app?vid=fac95fad-492a-4f29-b8d3-464cdc304e46","ios":"levelo://app?vid=fac95fad-492a-4f29-b8d3-464cdc304e46"},"vehicle_type_id":"4","last_reported":1702559426,"current_range_meters":16400,"station_id":"ce4bhh92rcd13ifvqfi0","pricing_plan_id":"free"},{"bike_id":"c4cfb68b-0ac0-4a8c-b786-f9b41850db55","system_id":"levelo_inurba_marseille","lat":43.273613,"lon":5.362705,"is_reserved":false,"is_disabled":false,"rental_uris":{"android":"levelo://app?vid=c4cfb68b-0ac0-4a8c-b786-f9b41850db55","ios":"levelo://app?vid=c4cfb68b-0ac0-4a8c-b786-f9b41850db55"},"vehicle_type_id":"4","last_reported":1702559426,"current_range_meters":26000,"station_id":"ce4bhbh2rcd13ifvqeo0","pricing_plan_id":"free"},{"bike_id":"ccaa59a6-7d99-4a18-9e46-95087d495809","system_id":"levelo_inurba_marseille","lat":43.273613,"lon":5.362705,"is_reserved":false,"is_disabled":false,"rental_uris":{"android":"levelo://app?vid=ccaa59a6-7d99-4a18-9e46-95087d495809","ios":"levelo://app?vid=ccaa59a6-7d99-4a18-9e46-95087d495809"},"vehicle_type_id":"4","last_reported":1702559426,"current_range_meters":26800,"station_id":"ce4bhbh2rcd13ifvqeo0","pricing_plan_id":"free"},{"bike_id":"8e838614-7153-460b-99f5-ff9e1a9ca04d","system_id":"levelo_inurba_marseille","lat":43.336134,"lon":5.410341,"is_reserved":false,"is_disabled":false,"rental_uris":{"android":"levelo://app?vid=8e838614-7153-460b-99f5-ff9e1a9ca04d","ios":"levelo://app?vid=8e838614-7153-460b-99f5-ff9e1a9ca04d"},"vehicle_type_id":"4","last_reported":1702559426,"current_range_meters":9600,"station_id":"ce4bhqh2rcd13ifvqhmg","pricing_plan_id":"free"},{"bike_id":"ea2b4370-f8b7-45ce-bd51-dbc6a0600509","system_id":"levelo_inurba_marseille","lat":43.276769,"lon":5.388787,"is_reserved":false,"is_disabled":false,"rental_uris":{"android":"levelo://app?vid=ea2b4370-f8b7-45ce-bd51-dbc6a0600509","ios":"levelo://app?vid=ea2b4370-f8b7-45ce-bd51-dbc6a0600509"},"vehicle_type_id":"4","last_reported":1702559426,"current_range_meters":26400,"station_id":"ce4bhi12rcd13ifvqfo0","pricing_plan_id":"free"},{"bike_id":"7c16ae43-23bf-456f-91ee-1b1041501b91","system_id":"levelo_inurba_marseille","lat":43.276771,"lon":5.388799,"is_reserved":false,"is_disabled":false,"rental_uris":{"android":"levelo://app?vid=7c16ae43-23bf-456f-91ee-1b1041501b91","ios":"levelo://app?vid=7c16ae43-23bf-456f-91ee-1b1041501b91"},"vehicle_type_id":"4","last_reported":1702559426,"current_range_meters":1600,"station_id":"ce4bhi12rcd13ifvqfo0","pricing_plan_id":"free"},{"bike_id":"a2a8e0de-57b5-40a2-a708-1738c2156968","system_id":"levelo_inurba_marseille","lat":43.276771,"lon":5.388799,"is_reserved":false,"is_disabled":false,"rental_uris":{"android":"levelo://app?vid=a2a8e0de-57b5-40a2-a708-1738c2156968","ios":"levelo://app?vid=a2a8e0de-57b5-40a2-a708-1738c2156968"},"vehicle_type_id":"4","last_reported":1702559426,"current_range_meters":18000,"station_id":"ce4bhi12rcd13ifvqfo0","pricing_plan_id":"free"},{"bike_id":"55f8cf7b-a384-4860-b1f5-075034029351","system_id":"levelo_inurba_marseille","lat":43.31715,"lon":5.42399,"is_reserved":false,"is_disabled":false,"rental_uris":{"android":"levelo://app?vid=55f8cf7b-a384-4860-b1f5-075034029351","ios":"levelo://app?vid=55f8cf7b-a384-4860-b1f5-075034029351"},"vehicle_type_id":"4","last_reported":1702559426,"current_range_meters":21200,"station_id":"ce4bhp92rcd13ifvqhbg","pricing_plan_id":"free"},{"bike_id":"ac2c58ee-191e-4bb0-956f-1c831f336570","system_id":"levelo_inurba_marseille","lat":43.340804,"lon":5.410219,"is_reserved":false,"is_disabled":false,"rental_uris":{"android":"levelo://app?vid=ac2c58ee-191e-4bb0-956f-1c831f336570","ios":"levelo://app?vid=ac2c58ee-191e-4bb0-956f-1c831f336570"},"vehicle_type_id":"4","last_reported":1702559426,"current_range_meters":25600,"station_id":"ce4bhqh2rcd13ifvqhlg","pricing_plan_id":"free"},{"bike_id":"c1bb8d87-2ec8-43f9-90cc-c1323bd02da6","system_id":"levelo_inurba_marseille","lat":43.340804,"lon":5.410219,"is_reserved":false,"is_disabled":false,"rental_uris":{"android":"levelo://app?vid=c1bb8d87-2ec8-43f9-90cc-c1323bd02da6","ios":"levelo://app?vid=c1bb8d87-2ec8-43f9-90cc-c1323bd02da6"},"vehicle_type_id":"4","last_reported":1702559426,"current_range_meters":17200,"station_id":"ce4bhqh2rcd13ifvqhlg","pricing_plan_id":"free"},{"bike_id":"3ca2c2d2-99b0-4aa6-a05d-e30f02e6a7fb","system_id":"levelo_inurba_marseille","lat":43.276092,"lon":5.395289,"is_reserved":false,"is_disabled":false,"rental_uris":{"android":"levelo://app?vid=3ca2c2d2-99b0-4aa6-a05d-e30f02e6a7fb","ios":"levelo://app?vid=3ca2c2d2-99b0-4aa6-a05d-e30f02e6a7fb"},"vehicle_type_id":"4","last_reported":1702559426,"current_range_meters":29600,"station_id":"","pricing_plan_id":"free"},{"bike_id":"f7f44f04-df14-42ab-82eb-e63cc2cfc8c9","system_id":"levelo_inurba_marseille","lat":43.273125,"lon":5.390731,"is_reserved":false,"is_disabled":false,"rental_uris":{"android":"levelo://app?vid=f7f44f04-df14-42ab-82eb-e63cc2cfc8c9","ios":"levelo://app?vid=f7f44f04-df14-42ab-82eb-e63cc2cfc8c9"},"vehicle_type_id":"4","last_reported":1702559426,"current_range_meters":1200,"station_id":"ce4bhgp2rcd13ifvqfe0","pricing_plan_id":"free"},{"bike_id":"1bce1585-ff80-4c7e-8c0b-c6ed54ab2f61","system_id":"levelo_inurba_marseille","lat":43.274099,"lon":5.394019,"is_reserved":false,"is_disabled":false,"rental_uris":{"android":"levelo://app?vid=1bce1585-ff80-4c7e-8c0b-c6ed54ab2f61","ios":"levelo://app?vid=1bce1585-ff80-4c7e-8c0b-c6ed54ab2f61"},"vehicle_type_id":"4","last_reported":1702559426,"current_range_meters":24000,"station_id":"ce4bhdp2rcd13ifvqf20","pricing_plan_id":"free"},{"bike_id":"c0a734d9-805b-4467-85e3-df0ff7d4f5e9","system_id":"levelo_inurba_marseille","lat":43.269467,"lon":5.386439,"is_reserved":false,"is_disabled":false,"rental_uris":{"android":"levelo://app?vid=c0a734d9-805b-4467-85e3-df0ff7d4f5e9","ios":"levelo://app?vid=c0a734d9-805b-4467-85e3-df0ff7d4f5e9"},"vehicle_type_id":"4","last_reported":1702559426,"current_range_meters":24000,"station_id":"ce4bhh92rcd13ifvqfh0","pricing_plan_id":"free"},{"bike_id":"1d6c7805-f9fd-4d91-83bc-6eb4eda2541c","system_id":"levelo_inurba_marseille","lat":43.269467,"lon":5.386439,"is_reserved":false,"is_disabled":false,"rental_uris":{"android":"levelo://app?vid=1d6c7805-f9fd-4d91-83bc-6eb4eda2541c","ios":"levelo://app?vid=1d6c7805-f9fd-4d91-83bc-6eb4eda2541c"},"vehicle_type_id":"4","last_reported":1702559426,"current_range_meters":12800,"station_id":"ce4bhh92rcd13ifvqfh0","pricing_plan_id":"free"},{"bike_id":"108d2657-a9dc-414d-99f6-4a0ce0ff56ea","system_id":"levelo_inurba_marseille","lat":43.269467,"lon":5.386439,"is_reserved":false,"is_disabled":false,"rental_uris":{"android":"levelo://app?vid=108d2657-a9dc-414d-99f6-4a0ce0ff56ea","ios":"levelo://app?vid=108d2657-a9dc-414d-99f6-4a0ce0ff56ea"},"vehicle_type_id":"4","last_reported":1702559426,"current_range_meters":25200,"station_id":"ce4bhh92rcd13ifvqfh0","pricing_plan_id":"free"},{"bike_id":"f65e65e4-60d5-43ed-8c2a-005371e6214c","system_id":"levelo_inurba_marseille","lat":43.269522,"lon":5.386326,"is_reserved":false,"is_disabled":false,"rental_uris":{"android":"levelo://app?vid=f65e65e4-60d5-43ed-8c2a-005371e6214c","ios":"levelo://app?vid=f65e65e4-60d5-43ed-8c2a-005371e6214c"},"vehicle_type_id":"4","last_reported":1702559426,"current_range_meters":9600,"station_id":"ce4bhh92rcd13ifvqfh0","pricing_plan_id":"free"},{"bike_id":"8aec4ff8-1b37-45c1-8f66-205250e0b38a","system_id":"levelo_inurba_marseille","lat":43.26953,"lon":5.38638,"is_reserved":false,"is_disabled":false,"rental_uris":{"android":"levelo://app?vid=8aec4ff8-1b37-45c1-8f66-205250e0b38a","ios":"levelo://app?vid=8aec4ff8-1b37-45c1-8f66-205250e0b38a"},"vehicle_type_id":"4","last_reported":1702559426,"current_range_meters":18400,"station_id":"ce4bhh92rcd13ifvqfh0","pricing_plan_id":"free"},{"bike_id":"1267b9d0-1eca-47d9-920a-85f355fd9fc1","system_id":"levelo_inurba_marseille","lat":43.279511,"lon":5.410446,"is_reserved":false,"is_disabled":false,"rental_uris":{"android":"levelo://app?vid=1267b9d0-1eca-47d9-920a-85f355fd9fc1","ios":"levelo://app?vid=1267b9d0-1eca-47d9-920a-85f355fd9fc1"},"vehicle_type_id":"4","last_reported":1702559426,"current_range_meters":10800,"station_id":"ce4bhnp2rcd13ifvqh0g","pricing_plan_id":"free"},{"bike_id":"b9a6360d-4d4c-4fbf-b0e3-28eea09edc9c","system_id":"levelo_inurba_marseille","lat":43.26681,"lon":5.382694,"is_reserved":false,"is_disabled":false,"rental_uris":{"android":"levelo://app?vid=b9a6360d-4d4c-4fbf-b0e3-28eea09edc9c","ios":"levelo://app?vid=b9a6360d-4d4c-4fbf-b0e3-28eea09edc9c"},"vehicle_type_id":"4","last_reported":1702559426,"current_range_meters":22400,"station_id":"ce4bhg92rcd13ifvqf90","pricing_plan_id":"free"},{"bike_id":"3c6d100d-abd1-4a56-a80c-997adf65f7ca","system_id":"levelo_inurba_marseille","lat":43.2668,"lon":5.38273,"is_reserved":false,"is_disabled":false,"rental_uris":{"android":"levelo://app?vid=3c6d100d-abd1-4a56-a80c-997adf65f7ca","ios":"levelo://app?vid=3c6d100d-abd1-4a56-a80c-997adf65f7ca"},"vehicle_type_id":"4","last_reported":1702559426,"current_range_meters":23200,"station_id":"ce4bhg92rcd13ifvqf90","pricing_plan_id":"free"},{"bike_id":"db28a4d6-ec3b-4fd9-8aaf-045e36a42dba","system_id":"levelo_inurba_marseille","lat":43.26679,"lon":5.38276,"is_reserved":false,"is_disabled":false,"rental_uris":{"android":"levelo://app?vid=db28a4d6-ec3b-4fd9-8aaf-045e36a42dba","ios":"levelo://app?vid=db28a4d6-ec3b-4fd9-8aaf-045e36a42dba"},"vehicle_type_id":"4","last_reported":1702559426,"current_range_meters":27600,"station_id":"ce4bhg92rcd13ifvqf90","pricing_plan_id":"free"},{"bike_id":"f7ba1bd1-0b64-4579-812f-07ee12780698","system_id":"levelo_inurba_marseille","lat":43.26554,"lon":5.37282,"is_reserved":false,"is_disabled":false,"rental_uris":{"android":"levelo://app?vid=f7ba1bd1-0b64-4579-812f-07ee12780698","ios":"levelo://app?vid=f7ba1bd1-0b64-4579-812f-07ee12780698"},"vehicle_type_id":"4","last_reported":1702559426,"current_range_meters":3600,"station_id":"ce4bhg12rcd13ifvqf70","pricing_plan_id":"free"},{"bike_id":"86b7143c-ce4c-493e-813a-36b70f377cc1","system_id":"levelo_inurba_marseille","lat":43.26681,"lon":5.382694,"is_reserved":false,"is_disabled":false,"rental_uris":{"android":"levelo://app?vid=86b7143c-ce4c-493e-813a-36b70f377cc1","ios":"levelo://app?vid=86b7143c-ce4c-493e-813a-36b70f377cc1"},"vehicle_type_id":"4","last_reported":1702559426,"current_range_meters":3600,"station_id":"ce4bhg92rcd13ifvqf90","pricing_plan_id":"free"},{"bike_id":"311eff5b-de8f-47e0-b029-37361dae204e","system_id":"levelo_inurba_marseille","lat":43.275028,"lon":5.424534,"is_reserved":false,"is_disabled":false,"rental_uris":{"android":"levelo://app?vid=311eff5b-de8f-47e0-b029-37361dae204e","ios":"levelo://app?vid=311eff5b-de8f-47e0-b029-37361dae204e"},"vehicle_type_id":"4","last_reported":1702559426,"current_range_meters":2800,"station_id":"ce4bhn92rcd13ifvqgrg","pricing_plan_id":"free"},{"bike_id":"6af79807-ed5c-48c8-a11e-c995af7eaf8a","system_id":"levelo_inurba_marseille","lat":43.265569,"lon":5.390047,"is_reserved":false,"is_disabled":false,"rental_uris":{"android":"levelo://app?vid=6af79807-ed5c-48c8-a11e-c995af7eaf8a","ios":"levelo://app?vid=6af79807-ed5c-48c8-a11e-c995af7eaf8a"},"vehicle_type_id":"4","last_reported":1702559426,"current_range_meters":23200,"station_id":"ce4bhe12rcd13ifvqf30","pricing_plan_id":"free"},{"bike_id":"6ed9a9b0-eeef-4de0-a34b-cab56517fd5a","system_id":"levelo_inurba_marseille","lat":43.26949,"lon":5.40262,"is_reserved":false,"is_disabled":false,"rental_uris":{"android":"levelo://app?vid=6ed9a9b0-eeef-4de0-a34b-cab56517fd5a","ios":"levelo://app?vid=6ed9a9b0-eeef-4de0-a34b-cab56517fd5a"},"vehicle_type_id":"4","last_reported":1702559426,"current_range_meters":0,"station_id":"cjm6bp8fraef2m0cb0m0","pricing_plan_id":"free"},{"bike_id":"9c2ff6ff-4b0d-4f55-ba05-f2cbbd018860","system_id":"levelo_inurba_marseille","lat":43.261782,"lon":5.374515,"is_reserved":false,"is_disabled":false,"rental_uris":{"android":"levelo://app?vid=9c2ff6ff-4b0d-4f55-ba05-f2cbbd018860","ios":"levelo://app?vid=9c2ff6ff-4b0d-4f55-ba05-f2cbbd018860"},"vehicle_type_id":"4","last_reported":1702559426,"current_range_meters":13200,"station_id":"ce4bhgp2rcd13ifvqfc0","pricing_plan_id":"free"},{"bike_id":"b6938647-2397-4611-817c-2b79f86944cf","system_id":"levelo_inurba_marseille","lat":43.26183,"lon":5.37447,"is_reserved":false,"is_disabled":false,"rental_uris":{"android":"levelo://app?vid=b6938647-2397-4611-817c-2b79f86944cf","ios":"levelo://app?vid=b6938647-2397-4611-817c-2b79f86944cf"},"vehicle_type_id":"4","last_reported":1702559426,"current_range_meters":14000,"station_id":"ce4bhgp2rcd13ifvqfc0","pricing_plan_id":"free"},{"bike_id":"2a9b5c26-716b-49ad-a0d0-742f445ef661","system_id":"levelo_inurba_marseille","lat":43.262012,"lon":5.379307,"is_reserved":false,"is_disabled":false,"rental_uris":{"android":"levelo://app?vid=2a9b5c26-716b-49ad-a0d0-742f445ef661","ios":"levelo://app?vid=2a9b5c26-716b-49ad-a0d0-742f445ef661"},"vehicle_type_id":"4","last_reported":1702559426,"current_range_meters":29600,"station_id":"ce4bhjp2rcd13ifvqg90","pricing_plan_id":"free"},{"bike_id":"96dd960e-9e5f-4ba8-a693-12d87ec3b4a9","system_id":"levelo_inurba_marseille","lat":43.271388,"lon":5.409269,"is_reserved":false,"is_disabled":false,"rental_uris":{"android":"levelo://app?vid=96dd960e-9e5f-4ba8-a693-12d87ec3b4a9","ios":"levelo://app?vid=96dd960e-9e5f-4ba8-a693-12d87ec3b4a9"},"vehicle_type_id":"4","last_reported":1702559426,"current_range_meters":31200,"station_id":"ce4bhl12rcd13ifvqgf0","pricing_plan_id":"free"},{"bike_id":"293b0fd3-65b1-42bb-807b-a77a51ee2260","system_id":"levelo_inurba_marseille","lat":43.271388,"lon":5.409269,"is_reserved":false,"is_disabled":false,"rental_uris":{"android":"levelo://app?vid=293b0fd3-65b1-42bb-807b-a77a51ee2260","ios":"levelo://app?vid=293b0fd3-65b1-42bb-807b-a77a51ee2260"},"vehicle_type_id":"4","last_reported":1702559426,"current_range_meters":30000,"station_id":"ce4bhl12rcd13ifvqgf0","pricing_plan_id":"free"},{"bike_id":"7d5f7346-2fb8-4a87-8aa5-074b5a79ac77","system_id":"levelo_inurba_marseille","lat":43.271368,"lon":5.40928,"is_reserved":false,"is_disabled":false,"rental_uris":{"android":"levelo://app?vid=7d5f7346-2fb8-4a87-8aa5-074b5a79ac77","ios":"levelo://app?vid=7d5f7346-2fb8-4a87-8aa5-074b5a79ac77"},"vehicle_type_id":"4","last_reported":1702559426,"current_range_meters":29200,"station_id":"ce4bhl12rcd13ifvqgf0","pricing_plan_id":"free"},{"bike_id":"c1a8efc5-2e3d-49d0-904c-c79a29112631","system_id":"levelo_inurba_marseille","lat":43.26202,"lon":5.379299,"is_reserved":false,"is_disabled":false,"rental_uris":{"android":"levelo://app?vid=c1a8efc5-2e3d-49d0-904c-c79a29112631","ios":"levelo://app?vid=c1a8efc5-2e3d-49d0-904c-c79a29112631"},"vehicle_type_id":"4","last_reported":1702559426,"current_range_meters":31600,"station_id":"ce4bhjp2rcd13ifvqg90","pricing_plan_id":"free"},{"bike_id":"ae6f9245-5cb7-449d-b038-f2de69599c57","system_id":"levelo_inurba_marseille","lat":43.26202,"lon":5.379299,"is_reserved":false,"is_disabled":false,"rental_uris":{"android":"levelo://app?vid=ae6f9245-5cb7-449d-b038-f2de69599c57","ios":"levelo://app?vid=ae6f9245-5cb7-449d-b038-f2de69599c57"},"vehicle_type_id":"4","last_reported":1702559426,"current_range_meters":20800,"station_id":"ce4bhjp2rcd13ifvqg90","pricing_plan_id":"free"},{"bike_id":"d1d32a8f-6061-42f8-beac-ce290461e74b","system_id":"levelo_inurba_marseille","lat":43.271368,"lon":5.40928,"is_reserved":false,"is_disabled":false,"rental_uris":{"android":"levelo://app?vid=d1d32a8f-6061-42f8-beac-ce290461e74b","ios":"levelo://app?vid=d1d32a8f-6061-42f8-beac-ce290461e74b"},"vehicle_type_id":"4","last_reported":1702559426,"current_range_meters":27200,"station_id":"ce4bhl12rcd13ifvqgf0","pricing_plan_id":"free"},{"bike_id":"81a6f7c7-e876-4da9-9acc-cd51e761bff2","system_id":"levelo_inurba_marseille","lat":43.267959,"lon":5.402687,"is_reserved":false,"is_disabled":false,"rental_uris":{"android":"levelo://app?vid=81a6f7c7-e876-4da9-9acc-cd51e761bff2","ios":"levelo://app?vid=81a6f7c7-e876-4da9-9acc-cd51e761bff2"},"vehicle_type_id":"4","last_reported":1702559426,"current_range_meters":26400,"station_id":"ce501612rcd8frsf0b60","pricing_plan_id":"free"},{"bike_id":"96ba9d10-482b-4b54-ba33-7a67558f4e06","system_id":"levelo_inurba_marseille","lat":43.264995,"lon":5.39541,"is_reserved":false,"is_disabled":false,"rental_uris":{"android":"levelo://app?vid=96ba9d10-482b-4b54-ba33-7a67558f4e06","ios":"levelo://app?vid=96ba9d10-482b-4b54-ba33-7a67558f4e06"},"vehicle_type_id":"4","last_reported":1702559426,"current_range_meters":14800,"station_id":"","pricing_plan_id":"free"},{"bike_id":"38a4a3ac-b01c-43e0-abb4-5a012521fc8c","system_id":"levelo_inurba_marseille","lat":43.298768,"lon":5.43643,"is_reserved":false,"is_disabled":false,"rental_uris":{"android":"levelo://app?vid=38a4a3ac-b01c-43e0-abb4-5a012521fc8c","ios":"levelo://app?vid=38a4a3ac-b01c-43e0-abb4-5a012521fc8c"},"vehicle_type_id":"4","last_reported":1702559426,"current_range_meters":30400,"station_id":"ce4bhpp2rcd13ifvqhfg","pricing_plan_id":"free"},{"bike_id":"77b2a286-354b-40cc-be5e-9ae26145de61","system_id":"levelo_inurba_marseille","lat":43.281534,"lon":5.426464,"is_reserved":false,"is_disabled":false,"rental_uris":{"android":"levelo://app?vid=77b2a286-354b-40cc-be5e-9ae26145de61","ios":"levelo://app?vid=77b2a286-354b-40cc-be5e-9ae26145de61"},"vehicle_type_id":"4","last_reported":1702559426,"current_range_meters":22400,"station_id":"ce4bhnh2rcd13ifvqgug","pricing_plan_id":"free"},{"bike_id":"6c291e9b-d89d-44c2-a954-65d77e5af433","system_id":"levelo_inurba_marseille","lat":43.281548,"lon":5.42643,"is_reserved":false,"is_disabled":false,"rental_uris":{"android":"levelo://app?vid=6c291e9b-d89d-44c2-a954-65d77e5af433","ios":"levelo://app?vid=6c291e9b-d89d-44c2-a954-65d77e5af433"},"vehicle_type_id":"4","last_reported":1702559426,"current_range_meters":30000,"station_id":"ce4bhnh2rcd13ifvqgug","pricing_plan_id":"free"},{"bike_id":"7767d44a-601b-4d39-95ad-9fd63259ccc4","system_id":"levelo_inurba_marseille","lat":43.275028,"lon":5.424534,"is_reserved":false,"is_disabled":false,"rental_uris":{"android":"levelo://app?vid=7767d44a-601b-4d39-95ad-9fd63259ccc4","ios":"levelo://app?vid=7767d44a-601b-4d39-95ad-9fd63259ccc4"},"vehicle_type_id":"4","last_reported":1702559426,"current_range_meters":15600,"station_id":"ce4bhn92rcd13ifvqgrg","pricing_plan_id":"free"},{"bike_id":"768df0c0-7cfe-41ab-9207-b50532a6ba08","system_id":"levelo_inurba_marseille","lat":43.275028,"lon":5.424534,"is_reserved":false,"is_disabled":false,"rental_uris":{"android":"levelo://app?vid=768df0c0-7cfe-41ab-9207-b50532a6ba08","ios":"levelo://app?vid=768df0c0-7cfe-41ab-9207-b50532a6ba08"},"vehicle_type_id":"4","last_reported":1702559426,"current_range_meters":17200,"station_id":"ce4bhn92rcd13ifvqgrg","pricing_plan_id":"free"},{"bike_id":"19f4a43b-c44f-40d3-8f3c-388e3920d4ad","system_id":"levelo_inurba_marseille","lat":43.275028,"lon":5.424534,"is_reserved":false,"is_disabled":false,"rental_uris":{"android":"levelo://app?vid=19f4a43b-c44f-40d3-8f3c-388e3920d4ad","ios":"levelo://app?vid=19f4a43b-c44f-40d3-8f3c-388e3920d4ad"},"vehicle_type_id":"4","last_reported":1702559426,"current_range_meters":24400,"station_id":"ce4bhn92rcd13ifvqgrg","pricing_plan_id":"free"},{"bike_id":"8aa4db4c-1af1-443b-9dca-49a29cd3baa4","system_id":"levelo_inurba_marseille","lat":43.25824,"lon":5.39434,"is_reserved":false,"is_disabled":false,"rental_uris":{"android":"levelo://app?vid=8aa4db4c-1af1-443b-9dca-49a29cd3baa4","ios":"levelo://app?vid=8aa4db4c-1af1-443b-9dca-49a29cd3baa4"},"vehicle_type_id":"4","last_reported":1702559426,"current_range_meters":10000,"station_id":"ce4bhip2rcd13ifvqft0","pricing_plan_id":"free"},{"bike_id":"ecf01aad-11c2-411e-91d2-0e6db3600a9b","system_id":"levelo_inurba_marseille","lat":43.25821,"lon":5.39435,"is_reserved":false,"is_disabled":false,"rental_uris":{"android":"levelo://app?vid=ecf01aad-11c2-411e-91d2-0e6db3600a9b","ios":"levelo://app?vid=ecf01aad-11c2-411e-91d2-0e6db3600a9b"},"vehicle_type_id":"4","last_reported":1702559426,"current_range_meters":13200,"station_id":"ce4bhip2rcd13ifvqft0","pricing_plan_id":"free"},{"bike_id":"8930228e-77b2-4434-a368-ffee58eccf81","system_id":"levelo_inurba_marseille","lat":43.25575,"lon":5.38247,"is_reserved":false,"is_disabled":false,"rental_uris":{"android":"levelo://app?vid=8930228e-77b2-4434-a368-ffee58eccf81","ios":"levelo://app?vid=8930228e-77b2-4434-a368-ffee58eccf81"},"vehicle_type_id":"4","last_reported":1702559426,"current_range_meters":6400,"station_id":"ce4bhih2rcd13ifvqfs0","pricing_plan_id":"free"},{"bike_id":"9d3a85b4-3ffa-45ee-a0ed-d032bf9b456e","system_id":"levelo_inurba_marseille","lat":43.25864,"lon":5.39905,"is_reserved":false,"is_disabled":false,"rental_uris":{"android":"levelo://app?vid=9d3a85b4-3ffa-45ee-a0ed-d032bf9b456e","ios":"levelo://app?vid=9d3a85b4-3ffa-45ee-a0ed-d032bf9b456e"},"vehicle_type_id":"4","last_reported":1702559426,"current_range_meters":400,"station_id":"ce4bhl92rcd13ifvqghg","pricing_plan_id":"free"},{"bike_id":"3c847056-2e72-49a6-a67b-46501b320c09","system_id":"levelo_inurba_marseille","lat":43.250009,"lon":5.389195,"is_reserved":false,"is_disabled":false,"rental_uris":{"android":"levelo://app?vid=3c847056-2e72-49a6-a67b-46501b320c09","ios":"levelo://app?vid=3c847056-2e72-49a6-a67b-46501b320c09"},"vehicle_type_id":"4","last_reported":1702559426,"current_range_meters":23600,"station_id":"ce4bhgp2rcd13ifvqfd0","pricing_plan_id":"free"},{"bike_id":"bfee5f1a-e03e-4050-ab5a-dfd6edc54ec9","system_id":"levelo_inurba_marseille","lat":43.250023,"lon":5.38919,"is_reserved":false,"is_disabled":false,"rental_uris":{"android":"levelo://app?vid=bfee5f1a-e03e-4050-ab5a-dfd6edc54ec9","ios":"levelo://app?vid=bfee5f1a-e03e-4050-ab5a-dfd6edc54ec9"},"vehicle_type_id":"4","last_reported":1702559426,"current_range_meters":4400,"station_id":"ce4bhgp2rcd13ifvqfd0","pricing_plan_id":"free"},{"bike_id":"34999db6-ea25-4ba9-9ba6-1924fee55ee9","system_id":"levelo_inurba_marseille","lat":43.2479,"lon":5.374457,"is_reserved":false,"is_disabled":false,"rental_uris":{"android":"levelo://app?vid=34999db6-ea25-4ba9-9ba6-1924fee55ee9","ios":"levelo://app?vid=34999db6-ea25-4ba9-9ba6-1924fee55ee9"},"vehicle_type_id":"4","last_reported":1702559426,"current_range_meters":10800,"station_id":"ce4bhgh2rcd13ifvqfb0","pricing_plan_id":"free"},{"bike_id":"f097b67e-0598-416d-a63d-0ee465e3ac10","system_id":"levelo_inurba_marseille","lat":43.2479,"lon":5.374457,"is_reserved":false,"is_disabled":false,"rental_uris":{"android":"levelo://app?vid=f097b67e-0598-416d-a63d-0ee465e3ac10","ios":"levelo://app?vid=f097b67e-0598-416d-a63d-0ee465e3ac10"},"vehicle_type_id":"4","last_reported":1702559426,"current_range_meters":0,"station_id":"ce4bhgh2rcd13ifvqfb0","pricing_plan_id":"free"},{"bike_id":"09870add-e204-48a8-be49-23c6e9d93693","system_id":"levelo_inurba_marseille","lat":43.250966,"lon":5.395186,"is_reserved":false,"is_disabled":false,"rental_uris":{"android":"levelo://app?vid=09870add-e204-48a8-be49-23c6e9d93693","ios":"levelo://app?vid=09870add-e204-48a8-be49-23c6e9d93693"},"vehicle_type_id":"4","last_reported":1702559426,"current_range_meters":19200,"station_id":"ce4bhm12rcd13ifvqgkg","pricing_plan_id":"free"},{"bike_id":"6005baed-1776-4ffb-ae93-bc6824886ec3","system_id":"levelo_inurba_marseille","lat":43.25102,"lon":5.403214,"is_reserved":false,"is_disabled":false,"rental_uris":{"android":"levelo://app?vid=6005baed-1776-4ffb-ae93-bc6824886ec3","ios":"levelo://app?vid=6005baed-1776-4ffb-ae93-bc6824886ec3"},"vehicle_type_id":"4","last_reported":1702559426,"current_range_meters":6400,"station_id":"ce4bhlh2rcd13ifvqgig","pricing_plan_id":"free"},{"bike_id":"9d408787-7468-4be0-b825-4d2e70908a99","system_id":"levelo_inurba_marseille","lat":43.243884,"lon":5.370737,"is_reserved":false,"is_disabled":false,"rental_uris":{"android":"levelo://app?vid=9d408787-7468-4be0-b825-4d2e70908a99","ios":"levelo://app?vid=9d408787-7468-4be0-b825-4d2e70908a99"},"vehicle_type_id":"4","last_reported":1702559426,"current_range_meters":28000,"station_id":"ce4bhhh2rcd13ifvqfk0","pricing_plan_id":"free"},{"bike_id":"3fd9d478-d509-4fd0-ad0b-eb3b24fce254","system_id":"levelo_inurba_marseille","lat":43.2408,"lon":5.3776,"is_reserved":false,"is_disabled":false,"rental_uris":{"android":"levelo://app?vid=3fd9d478-d509-4fd0-ad0b-eb3b24fce254","ios":"levelo://app?vid=3fd9d478-d509-4fd0-ad0b-eb3b24fce254"},"vehicle_type_id":"4","last_reported":1702559426,"current_range_meters":2400,"station_id":"ce4bhnp2rcd13ifvqgvg","pricing_plan_id":"free"},{"bike_id":"db79a0b7-2eb5-4a4f-93cf-70b6122e3cc6","system_id":"levelo_inurba_marseille","lat":43.240623,"lon":5.377642,"is_reserved":false,"is_disabled":false,"rental_uris":{"android":"levelo://app?vid=db79a0b7-2eb5-4a4f-93cf-70b6122e3cc6","ios":"levelo://app?vid=db79a0b7-2eb5-4a4f-93cf-70b6122e3cc6"},"vehicle_type_id":"4","last_reported":1702559426,"current_range_meters":10800,"station_id":"ce4bhnp2rcd13ifvqgvg","pricing_plan_id":"free"},{"bike_id":"77a25dcb-42c7-459f-9088-d1a09eec1776","system_id":"levelo_inurba_marseille","lat":43.240623,"lon":5.377642,"is_reserved":false,"is_disabled":false,"rental_uris":{"android":"levelo://app?vid=77a25dcb-42c7-459f-9088-d1a09eec1776","ios":"levelo://app?vid=77a25dcb-42c7-459f-9088-d1a09eec1776"},"vehicle_type_id":"4","last_reported":1702559426,"current_range_meters":14800,"station_id":"ce4bhnp2rcd13ifvqgvg","pricing_plan_id":"free"},{"bike_id":"7181a3fc-4966-47fa-a1bc-6597b1a21606","system_id":"levelo_inurba_marseille","lat":43.24072,"lon":5.3776,"is_reserved":false,"is_disabled":false,"rental_uris":{"android":"levelo://app?vid=7181a3fc-4966-47fa-a1bc-6597b1a21606","ios":"levelo://app?vid=7181a3fc-4966-47fa-a1bc-6597b1a21606"},"vehicle_type_id":"4","last_reported":1702559426,"current_range_meters":17600,"station_id":"ce4bhnp2rcd13ifvqgvg","pricing_plan_id":"free"},{"bike_id":"9a8c4184-8b4d-4870-984d-5b3ed5be8f0e","system_id":"levelo_inurba_marseille","lat":43.240623,"lon":5.377642,"is_reserved":false,"is_disabled":false,"rental_uris":{"android":"levelo://app?vid=9a8c4184-8b4d-4870-984d-5b3ed5be8f0e","ios":"levelo://app?vid=9a8c4184-8b4d-4870-984d-5b3ed5be8f0e"},"vehicle_type_id":"4","last_reported":1702559426,"current_range_meters":6000,"station_id":"ce4bhnp2rcd13ifvqgvg","pricing_plan_id":"free"},{"bike_id":"b9704be7-bf55-4c51-9eb0-ccd081eb72a4","system_id":"levelo_inurba_marseille","lat":43.2407,"lon":5.37764,"is_reserved":false,"is_disabled":false,"rental_uris":{"android":"levelo://app?vid=b9704be7-bf55-4c51-9eb0-ccd081eb72a4","ios":"levelo://app?vid=b9704be7-bf55-4c51-9eb0-ccd081eb72a4"},"vehicle_type_id":"4","last_reported":1702559426,"current_range_meters":12000,"station_id":"ce4bhnp2rcd13ifvqgvg","pricing_plan_id":"free"},{"bike_id":"e7aa122c-cdc7-40b9-b560-ad5e1f4738c1","system_id":"levelo_inurba_marseille","lat":43.240623,"lon":5.377642,"is_reserved":false,"is_disabled":false,"rental_uris":{"android":"levelo://app?vid=e7aa122c-cdc7-40b9-b560-ad5e1f4738c1","ios":"levelo://app?vid=e7aa122c-cdc7-40b9-b560-ad5e1f4738c1"},"vehicle_type_id":"4","last_reported":1702559426,"current_range_meters":28000,"station_id":"ce4bhnp2rcd13ifvqgvg","pricing_plan_id":"free"},{"bike_id":"417c4bb2-53a9-4a4c-a128-5a6478c52446","system_id":"levelo_inurba_marseille","lat":43.239588,"lon":5.366238,"is_reserved":false,"is_disabled":false,"rental_uris":{"android":"levelo://app?vid=417c4bb2-53a9-4a4c-a128-5a6478c52446","ios":"levelo://app?vid=417c4bb2-53a9-4a4c-a128-5a6478c52446"},"vehicle_type_id":"4","last_reported":1702559426,"current_range_meters":23200,"station_id":"ce4bhi12rcd13ifvqfp0","pricing_plan_id":"free"},{"bike_id":"463cc425-7ea2-4c45-a7d7-e70447af8a25","system_id":"levelo_inurba_marseille","lat":43.239588,"lon":5.366238,"is_reserved":false,"is_disabled":false,"rental_uris":{"android":"levelo://app?vid=463cc425-7ea2-4c45-a7d7-e70447af8a25","ios":"levelo://app?vid=463cc425-7ea2-4c45-a7d7-e70447af8a25"},"vehicle_type_id":"4","last_reported":1702559426,"current_range_meters":28400,"station_id":"ce4bhi12rcd13ifvqfp0","pricing_plan_id":"free"},{"bike_id":"3a814a24-07d8-4e6f-9e30-e43634a525e4","system_id":"levelo_inurba_marseille","lat":43.23961,"lon":5.36638,"is_reserved":false,"is_disabled":false,"rental_uris":{"android":"levelo://app?vid=3a814a24-07d8-4e6f-9e30-e43634a525e4","ios":"levelo://app?vid=3a814a24-07d8-4e6f-9e30-e43634a525e4"},"vehicle_type_id":"4","last_reported":1702559426,"current_range_meters":7200,"station_id":"ce4bhi12rcd13ifvqfp0","pricing_plan_id":"free"},{"bike_id":"fd8191e0-ad84-4f00-a6cc-62d25ab5fbdb","system_id":"levelo_inurba_marseille","lat":43.24177,"lon":5.39727,"is_reserved":false,"is_disabled":false,"rental_uris":{"android":"levelo://app?vid=fd8191e0-ad84-4f00-a6cc-62d25ab5fbdb","ios":"levelo://app?vid=fd8191e0-ad84-4f00-a6cc-62d25ab5fbdb"},"vehicle_type_id":"4","last_reported":1702559426,"current_range_meters":6000,"station_id":"ce4bhn12rcd13ifvqgpg","pricing_plan_id":"free"},{"bike_id":"95f75991-87a3-49c7-9e10-1ebd776a35c2","system_id":"levelo_inurba_marseille","lat":43.231923,"lon":5.355545,"is_reserved":false,"is_disabled":false,"rental_uris":{"android":"levelo://app?vid=95f75991-87a3-49c7-9e10-1ebd776a35c2","ios":"levelo://app?vid=95f75991-87a3-49c7-9e10-1ebd776a35c2"},"vehicle_type_id":"4","last_reported":1702559426,"current_range_meters":22000,"station_id":"ce4bhu92rcd13ifvqi70","pricing_plan_id":"free"},{"bike_id":"06866d47-2c37-4144-baca-d9ea40f74b26","system_id":"levelo_inurba_marseille","lat":43.231562,"lon":5.436933,"is_reserved":false,"is_disabled":false,"rental_uris":{"android":"levelo://app?vid=06866d47-2c37-4144-baca-d9ea40f74b26","ios":"levelo://app?vid=06866d47-2c37-4144-baca-d9ea40f74b26"},"vehicle_type_id":"4","last_reported":1702559426,"current_range_meters":0,"station_id":"ce4bhmp2rcd13ifvqgog","pricing_plan_id":"free"},{"bike_id":"b8d6cddc-e29b-4a0d-97a4-4116529b420d","system_id":"levelo_inurba_marseille","lat":43.231562,"lon":5.436933,"is_reserved":false,"is_disabled":false,"rental_uris":{"android":"levelo://app?vid=b8d6cddc-e29b-4a0d-97a4-4116529b420d","ios":"levelo://app?vid=b8d6cddc-e29b-4a0d-97a4-4116529b420d"},"vehicle_type_id":"4","last_reported":1702559426,"current_range_meters":16000,"station_id":"ce4bhmp2rcd13ifvqgog","pricing_plan_id":"free"},{"bike_id":"be72807a-9a7f-4d6b-9ec7-53daa8856b96","system_id":"levelo_inurba_marseille","lat":43.231562,"lon":5.436933,"is_reserved":false,"is_disabled":false,"rental_uris":{"android":"levelo://app?vid=be72807a-9a7f-4d6b-9ec7-53daa8856b96","ios":"levelo://app?vid=be72807a-9a7f-4d6b-9ec7-53daa8856b96"},"vehicle_type_id":"4","last_reported":1702559426,"current_range_meters":4000,"station_id":"ce4bhmp2rcd13ifvqgog","pricing_plan_id":"free"},{"bike_id":"5baad603-16af-4b46-9899-8c12c42ef7f0","system_id":"levelo_inurba_marseille","lat":43.231562,"lon":5.436933,"is_reserved":false,"is_disabled":false,"rental_uris":{"android":"levelo://app?vid=5baad603-16af-4b46-9899-8c12c42ef7f0","ios":"levelo://app?vid=5baad603-16af-4b46-9899-8c12c42ef7f0"},"vehicle_type_id":"4","last_reported":1702559426,"current_range_meters":9200,"station_id":"ce4bhmp2rcd13ifvqgog","pricing_plan_id":"free"},{"bike_id":"2bfd76a0-1e79-4241-ad52-f5a596eddc26","system_id":"levelo_inurba_marseille","lat":43.23155,"lon":5.43711,"is_reserved":false,"is_disabled":false,"rental_uris":{"android":"levelo://app?vid=2bfd76a0-1e79-4241-ad52-f5a596eddc26","ios":"levelo://app?vid=2bfd76a0-1e79-4241-ad52-f5a596eddc26"},"vehicle_type_id":"4","last_reported":1702559426,"current_range_meters":30800,"station_id":"ce4bhmp2rcd13ifvqgog","pricing_plan_id":"free"},{"bike_id":"f6419703-0daf-4ce1-8be0-92733369fcca","system_id":"levelo_inurba_marseille","lat":43.231562,"lon":5.436933,"is_reserved":false,"is_disabled":false,"rental_uris":{"android":"levelo://app?vid=f6419703-0daf-4ce1-8be0-92733369fcca","ios":"levelo://app?vid=f6419703-0daf-4ce1-8be0-92733369fcca"},"vehicle_type_id":"4","last_reported":1702559426,"current_range_meters":4400,"station_id":"ce4bhmp2rcd13ifvqgog","pricing_plan_id":"free"},{"bike_id":"4fa388d2-5dbe-456c-aae4-95aa38c16702","system_id":"levelo_inurba_marseille","lat":43.23153,"lon":5.4371,"is_reserved":false,"is_disabled":false,"rental_uris":{"android":"levelo://app?vid=4fa388d2-5dbe-456c-aae4-95aa38c16702","ios":"levelo://app?vid=4fa388d2-5dbe-456c-aae4-95aa38c16702"},"vehicle_type_id":"4","last_reported":1702559426,"current_range_meters":7200,"station_id":"ce4bhmp2rcd13ifvqgog","pricing_plan_id":"free"},{"bike_id":"edd0328e-4f4d-4404-b1ac-6a3c4f9973e8","system_id":"levelo_inurba_marseille","lat":43.231562,"lon":5.436933,"is_reserved":false,"is_disabled":false,"rental_uris":{"android":"levelo://app?vid=edd0328e-4f4d-4404-b1ac-6a3c4f9973e8","ios":"levelo://app?vid=edd0328e-4f4d-4404-b1ac-6a3c4f9973e8"},"vehicle_type_id":"4","last_reported":1702559426,"current_range_meters":15600,"station_id":"ce4bhmp2rcd13ifvqgog","pricing_plan_id":"free"},{"bike_id":"4b56c5a8-b830-4918-b74a-41a7f1965b9c","system_id":"levelo_inurba_marseille","lat":43.23152,"lon":5.43717,"is_reserved":false,"is_disabled":false,"rental_uris":{"android":"levelo://app?vid=4b56c5a8-b830-4918-b74a-41a7f1965b9c","ios":"levelo://app?vid=4b56c5a8-b830-4918-b74a-41a7f1965b9c"},"vehicle_type_id":"4","last_reported":1702559426,"current_range_meters":11200,"station_id":"ce4bhmp2rcd13ifvqgog","pricing_plan_id":"free"},{"bike_id":"b569a46d-e980-4041-aabf-063e4829ad55","system_id":"levelo_inurba_marseille","lat":43.2315,"lon":5.43722,"is_reserved":false,"is_disabled":false,"rental_uris":{"android":"levelo://app?vid=b569a46d-e980-4041-aabf-063e4829ad55","ios":"levelo://app?vid=b569a46d-e980-4041-aabf-063e4829ad55"},"vehicle_type_id":"4","last_reported":1702559426,"current_range_meters":0,"station_id":"ce4bhmp2rcd13ifvqgog","pricing_plan_id":"free"},{"bike_id":"ae4ddecf-40fa-483c-a214-73fd38f74dd6","system_id":"levelo_inurba_marseille","lat":43.231562,"lon":5.436933,"is_reserved":false,"is_disabled":false,"rental_uris":{"android":"levelo://app?vid=ae4ddecf-40fa-483c-a214-73fd38f74dd6","ios":"levelo://app?vid=ae4ddecf-40fa-483c-a214-73fd38f74dd6"},"vehicle_type_id":"4","last_reported":1702559426,"current_range_meters":400,"station_id":"ce4bhmp2rcd13ifvqgog","pricing_plan_id":"free"},{"bike_id":"ca5e62ab-ad96-4c53-a03e-be2c50cd695e","system_id":"levelo_inurba_marseille","lat":43.23143,"lon":5.43708,"is_reserved":false,"is_disabled":false,"rental_uris":{"android":"levelo://app?vid=ca5e62ab-ad96-4c53-a03e-be2c50cd695e","ios":"levelo://app?vid=ca5e62ab-ad96-4c53-a03e-be2c50cd695e"},"vehicle_type_id":"4","last_reported":1702559426,"current_range_meters":8400,"station_id":"ce4bhmp2rcd13ifvqgog","pricing_plan_id":"free"},{"bike_id":"2ea46915-471b-464d-8750-24d549c4255e","system_id":"levelo_inurba_marseille","lat":43.231562,"lon":5.436933,"is_reserved":false,"is_disabled":false,"rental_uris":{"android":"levelo://app?vid=2ea46915-471b-464d-8750-24d549c4255e","ios":"levelo://app?vid=2ea46915-471b-464d-8750-24d549c4255e"},"vehicle_type_id":"4","last_reported":1702559426,"current_range_meters":18000,"station_id":"ce4bhmp2rcd13ifvqgog","pricing_plan_id":"free"}]}}