{"last_updated":1781440419,"ttl":60,"version":"2.2","data":{"bikes":[{"bike_id":"ec12d144-24c8-4071-abf6-197e520eae96","system_id":"levelo_inurba_marseille","lat":43.337444,"lon":5.374475,"is_reserved":false,"is_disabled":false,"rental_uris":{"android":"levelo://app?vid=ec12d144-24c8-4071-abf6-197e520eae96","ios":"levelo://app?vid=ec12d144-24c8-4071-abf6-197e520eae96"},"vehicle_type_id":"4","last_reported":1781440420,"current_range_meters":0,"station_id":"","pricing_plan_id":"cebpf4jnsgd1na2vs0mg"},{"bike_id":"ab64c6c9-07a0-4b78-b2a9-1480d04f1b25","system_id":"levelo_inurba_marseille","lat":43.29937,"lon":5.36499,"is_reserved":false,"is_disabled":false,"rental_uris":{"android":"levelo://app?vid=ab64c6c9-07a0-4b78-b2a9-1480d04f1b25","ios":"levelo://app?vid=ab64c6c9-07a0-4b78-b2a9-1480d04f1b25"},"vehicle_type_id":"4","last_reported":1781440420,"current_range_meters":2800,"station_id":"ce4bgm92rcd13ifvqbr0","pricing_plan_id":"cebpf4jnsgd1na2vs0mg"},{"bike_id":"cf6ebc72-078f-48a2-9514-1f3943eaa735","system_id":"levelo_inurba_marseille","lat":43.231938,"lon":5.355553,"is_reserved":false,"is_disabled":false,"rental_uris":{"android":"levelo://app?vid=cf6ebc72-078f-48a2-9514-1f3943eaa735","ios":"levelo://app?vid=cf6ebc72-078f-48a2-9514-1f3943eaa735"},"vehicle_type_id":"4","last_reported":1781440420,"current_range_meters":2800,"station_id":"ce4bhu92rcd13ifvqi70","pricing_plan_id":"cebpf4jnsgd1na2vs0mg"},{"bike_id":"bf601120-2f22-4bcd-8556-91c5f1ccc8b1","system_id":"levelo_inurba_marseille","lat":43.31405,"lon":5.38113,"is_reserved":false,"is_disabled":false,"rental_uris":{"android":"levelo://app?vid=bf601120-2f22-4bcd-8556-91c5f1ccc8b1","ios":"levelo://app?vid=bf601120-2f22-4bcd-8556-91c5f1ccc8b1"},"vehicle_type_id":"4","last_reported":1781440420,"current_range_meters":2800,"station_id":"","pricing_plan_id":"cebpf4jnsgd1na2vs0mg"},{"bike_id":"2e296511-deb4-43a9-83f0-81592d7a3463","system_id":"levelo_inurba_marseille","lat":43.33196,"lon":5.37715,"is_reserved":false,"is_disabled":false,"rental_uris":{"android":"levelo://app?vid=2e296511-deb4-43a9-83f0-81592d7a3463","ios":"levelo://app?vid=2e296511-deb4-43a9-83f0-81592d7a3463"},"vehicle_type_id":"4","last_reported":1781440420,"current_range_meters":2800,"station_id":"","pricing_plan_id":"cebpf4jnsgd1na2vs0mg"},{"bike_id":"4b84cc20-93d9-4e85-811a-ba432f50bc38","system_id":"levelo_inurba_marseille","lat":43.26178,"lon":5.38089,"is_reserved":false,"is_disabled":false,"rental_uris":{"android":"levelo://app?vid=4b84cc20-93d9-4e85-811a-ba432f50bc38","ios":"levelo://app?vid=4b84cc20-93d9-4e85-811a-ba432f50bc38"},"vehicle_type_id":"4","last_reported":1781440420,"current_range_meters":2800,"station_id":"","pricing_plan_id":"cebpf4jnsgd1na2vs0mg"},{"bike_id":"ef048e93-3c21-4aea-ad20-87c8427753a3","system_id":"levelo_inurba_marseille","lat":43.2888,"lon":5.42492,"is_reserved":false,"is_disabled":false,"rental_uris":{"android":"levelo://app?vid=ef048e93-3c21-4aea-ad20-87c8427753a3","ios":"levelo://app?vid=ef048e93-3c21-4aea-ad20-87c8427753a3"},"vehicle_type_id":"4","last_reported":1781440420,"current_range_meters":2800,"station_id":"st_d3b462108ojc7389ooeg","pricing_plan_id":"cebpf4jnsgd1na2vs0mg"},{"bike_id":"a4367c49-3ad9-4e5d-b890-d24a763f0a44","system_id":"levelo_inurba_marseille","lat":43.28812,"lon":5.4277,"is_reserved":false,"is_disabled":false,"rental_uris":{"android":"levelo://app?vid=a4367c49-3ad9-4e5d-b890-d24a763f0a44","ios":"levelo://app?vid=a4367c49-3ad9-4e5d-b890-d24a763f0a44"},"vehicle_type_id":"4","last_reported":1781440420,"current_range_meters":2800,"station_id":"","pricing_plan_id":"cebpf4jnsgd1na2vs0mg"},{"bike_id":"6db0e189-20d1-4d92-ab9f-a2ad8e479225","system_id":"levelo_inurba_marseille","lat":43.29268,"lon":5.35554,"is_reserved":false,"is_disabled":false,"rental_uris":{"android":"levelo://app?vid=6db0e189-20d1-4d92-ab9f-a2ad8e479225","ios":"levelo://app?vid=6db0e189-20d1-4d92-ab9f-a2ad8e479225"},"vehicle_type_id":"4","last_reported":1781440420,"current_range_meters":2800,"station_id":"","pricing_plan_id":"cebpf4jnsgd1na2vs0mg"},{"bike_id":"0552603b-3371-4934-976f-7d6e6f41a04f","system_id":"levelo_inurba_marseille","lat":43.26555,"lon":5.37287,"is_reserved":false,"is_disabled":false,"rental_uris":{"android":"levelo://app?vid=0552603b-3371-4934-976f-7d6e6f41a04f","ios":"levelo://app?vid=0552603b-3371-4934-976f-7d6e6f41a04f"},"vehicle_type_id":"4","last_reported":1781440420,"current_range_meters":3200,"station_id":"ce4bhg12rcd13ifvqf70","pricing_plan_id":"cebpf4jnsgd1na2vs0mg"},{"bike_id":"fb229e89-3a6e-44c2-bab9-1a7cbe265184","system_id":"levelo_inurba_marseille","lat":43.28974,"lon":5.37833,"is_reserved":false,"is_disabled":false,"rental_uris":{"android":"levelo://app?vid=fb229e89-3a6e-44c2-bab9-1a7cbe265184","ios":"levelo://app?vid=fb229e89-3a6e-44c2-bab9-1a7cbe265184"},"vehicle_type_id":"4","last_reported":1781440420,"current_range_meters":3200,"station_id":"ce4bh9p2rcd13ifvqed0","pricing_plan_id":"cebpf4jnsgd1na2vs0mg"},{"bike_id":"7750fed4-d122-41f8-ad9e-d930d3ad1cf1","system_id":"levelo_inurba_marseille","lat":43.27307,"lon":5.40024,"is_reserved":false,"is_disabled":false,"rental_uris":{"android":"levelo://app?vid=7750fed4-d122-41f8-ad9e-d930d3ad1cf1","ios":"levelo://app?vid=7750fed4-d122-41f8-ad9e-d930d3ad1cf1"},"vehicle_type_id":"4","last_reported":1781440420,"current_range_meters":3200,"station_id":"","pricing_plan_id":"cebpf4jnsgd1na2vs0mg"},{"bike_id":"6216e971-d99d-4e09-bc68-2b6a22b618d5","system_id":"levelo_inurba_marseille","lat":43.34205,"lon":5.36064,"is_reserved":false,"is_disabled":false,"rental_uris":{"android":"levelo://app?vid=6216e971-d99d-4e09-bc68-2b6a22b618d5","ios":"levelo://app?vid=6216e971-d99d-4e09-bc68-2b6a22b618d5"},"vehicle_type_id":"4","last_reported":1781440420,"current_range_meters":3200,"station_id":"","pricing_plan_id":"cebpf4jnsgd1na2vs0mg"},{"bike_id":"aa4d4832-791f-46b6-b904-76b96512b7a5","system_id":"levelo_inurba_marseille","lat":43.29595,"lon":5.43992,"is_reserved":false,"is_disabled":false,"rental_uris":{"android":"levelo://app?vid=aa4d4832-791f-46b6-b904-76b96512b7a5","ios":"levelo://app?vid=aa4d4832-791f-46b6-b904-76b96512b7a5"},"vehicle_type_id":"4","last_reported":1781440420,"current_range_meters":3200,"station_id":"","pricing_plan_id":"cebpf4jnsgd1na2vs0mg"},{"bike_id":"50958dce-4e1d-4404-87e6-7173aa67c6e9","system_id":"levelo_inurba_marseille","lat":43.26365,"lon":5.41085,"is_reserved":false,"is_disabled":false,"rental_uris":{"android":"levelo://app?vid=50958dce-4e1d-4404-87e6-7173aa67c6e9","ios":"levelo://app?vid=50958dce-4e1d-4404-87e6-7173aa67c6e9"},"vehicle_type_id":"4","last_reported":1781440420,"current_range_meters":3200,"station_id":"st_d4e5ca6na9uc73bfl5fg","pricing_plan_id":"cebpf4jnsgd1na2vs0mg"},{"bike_id":"de1aa6e0-b781-47d6-b5b7-aeceeaa52c8d","system_id":"levelo_inurba_marseille","lat":43.29055,"lon":5.37155,"is_reserved":false,"is_disabled":true,"rental_uris":{"android":"levelo://app?vid=de1aa6e0-b781-47d6-b5b7-aeceeaa52c8d","ios":"levelo://app?vid=de1aa6e0-b781-47d6-b5b7-aeceeaa52c8d"},"vehicle_type_id":"4","last_reported":1781440420,"current_range_meters":3200,"station_id":"ce4bh5p2rcd13ifvqe4g","pricing_plan_id":"cebpf4jnsgd1na2vs0mg"},{"bike_id":"dc566b07-2814-4be6-acd4-29f7f508649b","system_id":"levelo_inurba_marseille","lat":43.21734,"lon":5.34643,"is_reserved":false,"is_disabled":false,"rental_uris":{"android":"levelo://app?vid=dc566b07-2814-4be6-acd4-29f7f508649b","ios":"levelo://app?vid=dc566b07-2814-4be6-acd4-29f7f508649b"},"vehicle_type_id":"4","last_reported":1781440420,"current_range_meters":3200,"station_id":"st_cvj6r9ubvosntc0bgbag","pricing_plan_id":"cebpf4jnsgd1na2vs0mg"},{"bike_id":"12326527-aa04-43ed-8122-fab62005bcac","system_id":"levelo_inurba_marseille","lat":43.27392,"lon":5.36262,"is_reserved":false,"is_disabled":true,"rental_uris":{"android":"levelo://app?vid=12326527-aa04-43ed-8122-fab62005bcac","ios":"levelo://app?vid=12326527-aa04-43ed-8122-fab62005bcac"},"vehicle_type_id":"4","last_reported":1781440420,"current_range_meters":3200,"station_id":"ce4bhbh2rcd13ifvqeo0","pricing_plan_id":"cebpf4jnsgd1na2vs0mg"},{"bike_id":"20b0f04c-b882-40c0-b849-52f7f91d6240","system_id":"levelo_inurba_marseille","lat":43.27468,"lon":5.41829,"is_reserved":false,"is_disabled":false,"rental_uris":{"android":"levelo://app?vid=20b0f04c-b882-40c0-b849-52f7f91d6240","ios":"levelo://app?vid=20b0f04c-b882-40c0-b849-52f7f91d6240"},"vehicle_type_id":"4","last_reported":1781440420,"current_range_meters":3200,"station_id":"","pricing_plan_id":"cebpf4jnsgd1na2vs0mg"},{"bike_id":"dc3e3e35-560a-41ac-8b92-c31e5b3f3434","system_id":"levelo_inurba_marseille","lat":43.26692,"lon":5.39269,"is_reserved":false,"is_disabled":false,"rental_uris":{"android":"levelo://app?vid=dc3e3e35-560a-41ac-8b92-c31e5b3f3434","ios":"levelo://app?vid=dc3e3e35-560a-41ac-8b92-c31e5b3f3434"},"vehicle_type_id":"4","last_reported":1781440420,"current_range_meters":3200,"station_id":"","pricing_plan_id":"cebpf4jnsgd1na2vs0mg"},{"bike_id":"d89537aa-fbc0-4608-92f9-c315a30fed18","system_id":"levelo_inurba_marseille","lat":43.29168,"lon":5.3715,"is_reserved":false,"is_disabled":true,"rental_uris":{"android":"levelo://app?vid=d89537aa-fbc0-4608-92f9-c315a30fed18","ios":"levelo://app?vid=d89537aa-fbc0-4608-92f9-c315a30fed18"},"vehicle_type_id":"4","last_reported":1781440420,"current_range_meters":3200,"station_id":"ce4bha92rcd13ifvqeh0","pricing_plan_id":"cebpf4jnsgd1na2vs0mg"},{"bike_id":"bf3a9ff2-424e-4fab-acec-79c9e1198c21","system_id":"levelo_inurba_marseille","lat":43.29261,"lon":5.38441,"is_reserved":false,"is_disabled":false,"rental_uris":{"android":"levelo://app?vid=bf3a9ff2-424e-4fab-acec-79c9e1198c21","ios":"levelo://app?vid=bf3a9ff2-424e-4fab-acec-79c9e1198c21"},"vehicle_type_id":"4","last_reported":1781440420,"current_range_meters":3200,"station_id":"","pricing_plan_id":"cebpf4jnsgd1na2vs0mg"},{"bike_id":"46662480-dd9a-4b00-851a-0609a7b4c897","system_id":"levelo_inurba_marseille","lat":43.24168,"lon":5.36399,"is_reserved":false,"is_disabled":false,"rental_uris":{"android":"levelo://app?vid=46662480-dd9a-4b00-851a-0609a7b4c897","ios":"levelo://app?vid=46662480-dd9a-4b00-851a-0609a7b4c897"},"vehicle_type_id":"4","last_reported":1781440420,"current_range_meters":3200,"station_id":"cpo36qri1sfpv3e86is0","pricing_plan_id":"cebpf4jnsgd1na2vs0mg"},{"bike_id":"1ee09c36-c3d7-429d-900c-73e2f1643a9e","system_id":"levelo_inurba_marseille","lat":43.276168,"lon":5.361024,"is_reserved":false,"is_disabled":true,"rental_uris":{"android":"levelo://app?vid=1ee09c36-c3d7-429d-900c-73e2f1643a9e","ios":"levelo://app?vid=1ee09c36-c3d7-429d-900c-73e2f1643a9e"},"vehicle_type_id":"4","last_reported":1781440420,"current_range_meters":3200,"station_id":"ce4bgj92rcd13ifvqbe0","pricing_plan_id":"cebpf4jnsgd1na2vs0mg"},{"bike_id":"743d7a49-ee48-4eef-bff9-1b426eaf0aaa","system_id":"levelo_inurba_marseille","lat":43.23384,"lon":5.41248,"is_reserved":false,"is_disabled":false,"rental_uris":{"android":"levelo://app?vid=743d7a49-ee48-4eef-bff9-1b426eaf0aaa","ios":"levelo://app?vid=743d7a49-ee48-4eef-bff9-1b426eaf0aaa"},"vehicle_type_id":"4","last_reported":1781440420,"current_range_meters":3200,"station_id":"st_d75pvndhf9lc73cqq3eg","pricing_plan_id":"cebpf4jnsgd1na2vs0mg"},{"bike_id":"4c78b6b3-2f8d-4f10-973f-a50992bad914","system_id":"levelo_inurba_marseille","lat":43.21191,"lon":5.35071,"is_reserved":false,"is_disabled":false,"rental_uris":{"android":"levelo://app?vid=4c78b6b3-2f8d-4f10-973f-a50992bad914","ios":"levelo://app?vid=4c78b6b3-2f8d-4f10-973f-a50992bad914"},"vehicle_type_id":"4","last_reported":1781440420,"current_range_meters":3600,"station_id":"st_cvj6sg6p6f1abm77japg","pricing_plan_id":"cebpf4jnsgd1na2vs0mg"},{"bike_id":"fca4716d-363f-4061-9268-5fdf2b190705","system_id":"levelo_inurba_marseille","lat":43.281035,"lon":5.367145,"is_reserved":false,"is_disabled":true,"rental_uris":{"android":"levelo://app?vid=fca4716d-363f-4061-9268-5fdf2b190705","ios":"levelo://app?vid=fca4716d-363f-4061-9268-5fdf2b190705"},"vehicle_type_id":"4","last_reported":1781440420,"current_range_meters":3600,"station_id":"ce4bhgp2rcd13ifvqfc0","pricing_plan_id":"cebpf4jnsgd1na2vs0mg"},{"bike_id":"43689083-ea20-4825-a2dd-1fbda67f00f2","system_id":"levelo_inurba_marseille","lat":43.25575,"lon":5.38229,"is_reserved":false,"is_disabled":false,"rental_uris":{"android":"levelo://app?vid=43689083-ea20-4825-a2dd-1fbda67f00f2","ios":"levelo://app?vid=43689083-ea20-4825-a2dd-1fbda67f00f2"},"vehicle_type_id":"4","last_reported":1781440420,"current_range_meters":3600,"station_id":"ce4bhih2rcd13ifvqfs0","pricing_plan_id":"cebpf4jnsgd1na2vs0mg"},{"bike_id":"731ed8cb-814b-4310-b65d-238d36ebe9b5","system_id":"levelo_inurba_marseille","lat":43.21188,"lon":5.3511,"is_reserved":false,"is_disabled":false,"rental_uris":{"android":"levelo://app?vid=731ed8cb-814b-4310-b65d-238d36ebe9b5","ios":"levelo://app?vid=731ed8cb-814b-4310-b65d-238d36ebe9b5"},"vehicle_type_id":"4","last_reported":1781440420,"current_range_meters":3600,"station_id":"st_cvj6sg6p6f1abm77japg","pricing_plan_id":"cebpf4jnsgd1na2vs0mg"},{"bike_id":"5b5ea2fb-3ba8-4c10-841c-ca34891a615c","system_id":"levelo_inurba_marseille","lat":43.29353,"lon":5.36371,"is_reserved":false,"is_disabled":false,"rental_uris":{"android":"levelo://app?vid=5b5ea2fb-3ba8-4c10-841c-ca34891a615c","ios":"levelo://app?vid=5b5ea2fb-3ba8-4c10-841c-ca34891a615c"},"vehicle_type_id":"4","last_reported":1781440420,"current_range_meters":3600,"station_id":"","pricing_plan_id":"cebpf4jnsgd1na2vs0mg"},{"bike_id":"591697fc-811e-41dd-b5fc-27787514de44","system_id":"levelo_inurba_marseille","lat":43.30184,"lon":5.36632,"is_reserved":false,"is_disabled":false,"rental_uris":{"android":"levelo://app?vid=591697fc-811e-41dd-b5fc-27787514de44","ios":"levelo://app?vid=591697fc-811e-41dd-b5fc-27787514de44"},"vehicle_type_id":"4","last_reported":1781440420,"current_range_meters":3600,"station_id":"ce4bgrh2rcd13ifvqc8g","pricing_plan_id":"cebpf4jnsgd1na2vs0mg"},{"bike_id":"d2673cd9-6c70-4d80-832c-9de4211b4cad","system_id":"levelo_inurba_marseille","lat":43.27382,"lon":5.36257,"is_reserved":false,"is_disabled":true,"rental_uris":{"android":"levelo://app?vid=d2673cd9-6c70-4d80-832c-9de4211b4cad","ios":"levelo://app?vid=d2673cd9-6c70-4d80-832c-9de4211b4cad"},"vehicle_type_id":"4","last_reported":1781440420,"current_range_meters":3600,"station_id":"ce4bhbh2rcd13ifvqeo0","pricing_plan_id":"cebpf4jnsgd1na2vs0mg"},{"bike_id":"4b910ed8-62e8-40cd-93dc-35308cfde7be","system_id":"levelo_inurba_marseille","lat":43.26696,"lon":5.38283,"is_reserved":false,"is_disabled":true,"rental_uris":{"android":"levelo://app?vid=4b910ed8-62e8-40cd-93dc-35308cfde7be","ios":"levelo://app?vid=4b910ed8-62e8-40cd-93dc-35308cfde7be"},"vehicle_type_id":"4","last_reported":1781440420,"current_range_meters":3600,"station_id":"ce4bhg92rcd13ifvqf90","pricing_plan_id":"cebpf4jnsgd1na2vs0mg"},{"bike_id":"6fb07b35-b88f-45ae-9e9e-ceed1b219374","system_id":"levelo_inurba_marseille","lat":43.3249,"lon":5.3657,"is_reserved":false,"is_disabled":true,"rental_uris":{"android":"levelo://app?vid=6fb07b35-b88f-45ae-9e9e-ceed1b219374","ios":"levelo://app?vid=6fb07b35-b88f-45ae-9e9e-ceed1b219374"},"vehicle_type_id":"4","last_reported":1781440420,"current_range_meters":3600,"station_id":"ce4bhs12rcd13ifvqhvg","pricing_plan_id":"cebpf4jnsgd1na2vs0mg"},{"bike_id":"5940aa6f-684d-4e25-9cd7-7b715139c6ab","system_id":"levelo_inurba_marseille","lat":43.29048,"lon":5.35925,"is_reserved":false,"is_disabled":false,"rental_uris":{"android":"levelo://app?vid=5940aa6f-684d-4e25-9cd7-7b715139c6ab","ios":"levelo://app?vid=5940aa6f-684d-4e25-9cd7-7b715139c6ab"},"vehicle_type_id":"4","last_reported":1781440420,"current_range_meters":3600,"station_id":"ce4bha92rcd13ifvqeg0","pricing_plan_id":"cebpf4jnsgd1na2vs0mg"},{"bike_id":"61acdcff-76d7-4bb2-a256-e2ec611550e8","system_id":"levelo_inurba_marseille","lat":43.2656,"lon":5.39023,"is_reserved":false,"is_disabled":true,"rental_uris":{"android":"levelo://app?vid=61acdcff-76d7-4bb2-a256-e2ec611550e8","ios":"levelo://app?vid=61acdcff-76d7-4bb2-a256-e2ec611550e8"},"vehicle_type_id":"4","last_reported":1781440420,"current_range_meters":3600,"station_id":"ce4bhe12rcd13ifvqf30","pricing_plan_id":"cebpf4jnsgd1na2vs0mg"},{"bike_id":"35c260f2-de80-462e-a2ac-5a9b5660d9ca","system_id":"levelo_inurba_marseille","lat":43.28595,"lon":5.39928,"is_reserved":false,"is_disabled":false,"rental_uris":{"android":"levelo://app?vid=35c260f2-de80-462e-a2ac-5a9b5660d9ca","ios":"levelo://app?vid=35c260f2-de80-462e-a2ac-5a9b5660d9ca"},"vehicle_type_id":"4","last_reported":1781440420,"current_range_meters":3600,"station_id":"ce4bho92rcd13ifvqh3g","pricing_plan_id":"cebpf4jnsgd1na2vs0mg"},{"bike_id":"8f809aba-fb91-4274-9669-f9211fc8e411","system_id":"levelo_inurba_marseille","lat":43.23341,"lon":5.39922,"is_reserved":false,"is_disabled":false,"rental_uris":{"android":"levelo://app?vid=8f809aba-fb91-4274-9669-f9211fc8e411","ios":"levelo://app?vid=8f809aba-fb91-4274-9669-f9211fc8e411"},"vehicle_type_id":"4","last_reported":1781440420,"current_range_meters":4000,"station_id":"","pricing_plan_id":"cebpf4jnsgd1na2vs0mg"},{"bike_id":"1fa9d7e4-1f68-42ba-b54d-02fcd69dfb3c","system_id":"levelo_inurba_marseille","lat":43.29963,"lon":5.38498,"is_reserved":false,"is_disabled":true,"rental_uris":{"android":"levelo://app?vid=1fa9d7e4-1f68-42ba-b54d-02fcd69dfb3c","ios":"levelo://app?vid=1fa9d7e4-1f68-42ba-b54d-02fcd69dfb3c"},"vehicle_type_id":"4","last_reported":1781440420,"current_range_meters":4000,"station_id":"ce4bgj92rcd13ifvqbd0","pricing_plan_id":"cebpf4jnsgd1na2vs0mg"},{"bike_id":"c694324e-0526-49eb-8163-41e9e6fd37bb","system_id":"levelo_inurba_marseille","lat":43.29768,"lon":5.37101,"is_reserved":false,"is_disabled":false,"rental_uris":{"android":"levelo://app?vid=c694324e-0526-49eb-8163-41e9e6fd37bb","ios":"levelo://app?vid=c694324e-0526-49eb-8163-41e9e6fd37bb"},"vehicle_type_id":"4","last_reported":1781440420,"current_range_meters":4000,"station_id":"ce4bgop2rcd13ifvqc1g","pricing_plan_id":"cebpf4jnsgd1na2vs0mg"},{"bike_id":"c34fbc7c-a764-4caa-9ea2-2d49365a9388","system_id":"levelo_inurba_marseille","lat":43.32487,"lon":5.36587,"is_reserved":false,"is_disabled":false,"rental_uris":{"android":"levelo://app?vid=c34fbc7c-a764-4caa-9ea2-2d49365a9388","ios":"levelo://app?vid=c34fbc7c-a764-4caa-9ea2-2d49365a9388"},"vehicle_type_id":"4","last_reported":1781440420,"current_range_meters":4000,"station_id":"ce4bhs12rcd13ifvqhvg","pricing_plan_id":"cebpf4jnsgd1na2vs0mg"},{"bike_id":"3534c916-7da7-4861-bf1f-dd1992b270ad","system_id":"levelo_inurba_marseille","lat":43.293639,"lon":5.37847,"is_reserved":false,"is_disabled":false,"rental_uris":{"android":"levelo://app?vid=3534c916-7da7-4861-bf1f-dd1992b270ad","ios":"levelo://app?vid=3534c916-7da7-4861-bf1f-dd1992b270ad"},"vehicle_type_id":"4","last_reported":1781440420,"current_range_meters":4000,"station_id":"ce4bgjh2rcd13ifvqbf0","pricing_plan_id":"cebpf4jnsgd1na2vs0mg"},{"bike_id":"144f2322-b563-478e-b51d-53f70e7622bf","system_id":"levelo_inurba_marseille","lat":43.23783,"lon":5.36629,"is_reserved":false,"is_disabled":false,"rental_uris":{"android":"levelo://app?vid=144f2322-b563-478e-b51d-53f70e7622bf","ios":"levelo://app?vid=144f2322-b563-478e-b51d-53f70e7622bf"},"vehicle_type_id":"4","last_reported":1781440420,"current_range_meters":4000,"station_id":"st_d3nk18o9ro0c73en2l3g","pricing_plan_id":"cebpf4jnsgd1na2vs0mg"},{"bike_id":"8adff352-665a-41fb-ab05-9f2ef7f2e2c5","system_id":"levelo_inurba_marseille","lat":43.25512,"lon":5.37655,"is_reserved":false,"is_disabled":false,"rental_uris":{"android":"levelo://app?vid=8adff352-665a-41fb-ab05-9f2ef7f2e2c5","ios":"levelo://app?vid=8adff352-665a-41fb-ab05-9f2ef7f2e2c5"},"vehicle_type_id":"4","last_reported":1781440420,"current_range_meters":4000,"station_id":"ce4bhh12rcd13ifvqff0","pricing_plan_id":"cebpf4jnsgd1na2vs0mg"},{"bike_id":"cf11dd40-b113-45d9-8d41-8d04b849c2c4","system_id":"levelo_inurba_marseille","lat":43.2911,"lon":5.42776,"is_reserved":false,"is_disabled":false,"rental_uris":{"android":"levelo://app?vid=cf11dd40-b113-45d9-8d41-8d04b849c2c4","ios":"levelo://app?vid=cf11dd40-b113-45d9-8d41-8d04b849c2c4"},"vehicle_type_id":"4","last_reported":1781440420,"current_range_meters":4000,"station_id":"","pricing_plan_id":"cebpf4jnsgd1na2vs0mg"},{"bike_id":"41d61f3a-572c-4240-9f59-8b5b646be959","system_id":"levelo_inurba_marseille","lat":43.31887,"lon":5.36804,"is_reserved":false,"is_disabled":false,"rental_uris":{"android":"levelo://app?vid=41d61f3a-572c-4240-9f59-8b5b646be959","ios":"levelo://app?vid=41d61f3a-572c-4240-9f59-8b5b646be959"},"vehicle_type_id":"4","last_reported":1781440420,"current_range_meters":4000,"station_id":"st_d6o2h0d0559c73evc1b0","pricing_plan_id":"cebpf4jnsgd1na2vs0mg"},{"bike_id":"7717390a-9f55-4678-b2a5-ba0a73b8a548","system_id":"levelo_inurba_marseille","lat":43.31652,"lon":5.36949,"is_reserved":false,"is_disabled":false,"rental_uris":{"android":"levelo://app?vid=7717390a-9f55-4678-b2a5-ba0a73b8a548","ios":"levelo://app?vid=7717390a-9f55-4678-b2a5-ba0a73b8a548"},"vehicle_type_id":"4","last_reported":1781440420,"current_range_meters":4000,"station_id":"","pricing_plan_id":"cebpf4jnsgd1na2vs0mg"},{"bike_id":"c97fb99a-7c2e-4698-a401-a6886e4eb5f4","system_id":"levelo_inurba_marseille","lat":43.28806,"lon":5.42635,"is_reserved":false,"is_disabled":false,"rental_uris":{"android":"levelo://app?vid=c97fb99a-7c2e-4698-a401-a6886e4eb5f4","ios":"levelo://app?vid=c97fb99a-7c2e-4698-a401-a6886e4eb5f4"},"vehicle_type_id":"4","last_reported":1781440420,"current_range_meters":4000,"station_id":"","pricing_plan_id":"cebpf4jnsgd1na2vs0mg"},{"bike_id":"3f683387-f7ec-4b9f-9801-ff63896077b4","system_id":"levelo_inurba_marseille","lat":43.23966,"lon":5.36551,"is_reserved":false,"is_disabled":false,"rental_uris":{"android":"levelo://app?vid=3f683387-f7ec-4b9f-9801-ff63896077b4","ios":"levelo://app?vid=3f683387-f7ec-4b9f-9801-ff63896077b4"},"vehicle_type_id":"4","last_reported":1781440420,"current_range_meters":4000,"station_id":"","pricing_plan_id":"cebpf4jnsgd1na2vs0mg"},{"bike_id":"5428c0d3-9570-4f1a-a9ab-4800b92e1ad4","system_id":"levelo_inurba_marseille","lat":43.23194,"lon":5.35558,"is_reserved":false,"is_disabled":false,"rental_uris":{"android":"levelo://app?vid=5428c0d3-9570-4f1a-a9ab-4800b92e1ad4","ios":"levelo://app?vid=5428c0d3-9570-4f1a-a9ab-4800b92e1ad4"},"vehicle_type_id":"4","last_reported":1781440420,"current_range_meters":4000,"station_id":"ce4bhu92rcd13ifvqi70","pricing_plan_id":"cebpf4jnsgd1na2vs0mg"},{"bike_id":"d356b961-a75b-49d6-be2c-ec8ebb95668c","system_id":"levelo_inurba_marseille","lat":43.28152,"lon":5.42645,"is_reserved":false,"is_disabled":false,"rental_uris":{"android":"levelo://app?vid=d356b961-a75b-49d6-be2c-ec8ebb95668c","ios":"levelo://app?vid=d356b961-a75b-49d6-be2c-ec8ebb95668c"},"vehicle_type_id":"4","last_reported":1781440420,"current_range_meters":4000,"station_id":"ce4bhnh2rcd13ifvqgug","pricing_plan_id":"cebpf4jnsgd1na2vs0mg"},{"bike_id":"da49f8bf-ac47-4f75-a9fc-b5a0f8173bc6","system_id":"levelo_inurba_marseille","lat":43.28452,"lon":5.35882,"is_reserved":false,"is_disabled":true,"rental_uris":{"android":"levelo://app?vid=da49f8bf-ac47-4f75-a9fc-b5a0f8173bc6","ios":"levelo://app?vid=da49f8bf-ac47-4f75-a9fc-b5a0f8173bc6"},"vehicle_type_id":"4","last_reported":1781440420,"current_range_meters":4400,"station_id":"ce4bhah2rcd13ifvqei0","pricing_plan_id":"cebpf4jnsgd1na2vs0mg"},{"bike_id":"a052da6d-759c-40da-aca1-876c4d16c1e0","system_id":"levelo_inurba_marseille","lat":43.21196,"lon":5.35072,"is_reserved":false,"is_disabled":false,"rental_uris":{"android":"levelo://app?vid=a052da6d-759c-40da-aca1-876c4d16c1e0","ios":"levelo://app?vid=a052da6d-759c-40da-aca1-876c4d16c1e0"},"vehicle_type_id":"4","last_reported":1781440420,"current_range_meters":4400,"station_id":"st_cvj6sg6p6f1abm77japg","pricing_plan_id":"cebpf4jnsgd1na2vs0mg"},{"bike_id":"0e2512e3-35ea-4cdf-9bc9-5b8050484ef4","system_id":"levelo_inurba_marseille","lat":43.24629,"lon":5.43152,"is_reserved":false,"is_disabled":false,"rental_uris":{"android":"levelo://app?vid=0e2512e3-35ea-4cdf-9bc9-5b8050484ef4","ios":"levelo://app?vid=0e2512e3-35ea-4cdf-9bc9-5b8050484ef4"},"vehicle_type_id":"4","last_reported":1781440420,"current_range_meters":4400,"station_id":"st_d2m6c4gdas8pm72e190g","pricing_plan_id":"cebpf4jnsgd1na2vs0mg"},{"bike_id":"edd66704-9bd7-4849-9e24-18c925dc6171","system_id":"levelo_inurba_marseille","lat":43.23192,"lon":5.35565,"is_reserved":false,"is_disabled":false,"rental_uris":{"android":"levelo://app?vid=edd66704-9bd7-4849-9e24-18c925dc6171","ios":"levelo://app?vid=edd66704-9bd7-4849-9e24-18c925dc6171"},"vehicle_type_id":"4","last_reported":1781440420,"current_range_meters":4400,"station_id":"ce4bhu92rcd13ifvqi70","pricing_plan_id":"cebpf4jnsgd1na2vs0mg"},{"bike_id":"1c788ec5-566e-4d09-9344-44c449a1a9eb","system_id":"levelo_inurba_marseille","lat":43.30113,"lon":5.43105,"is_reserved":false,"is_disabled":false,"rental_uris":{"android":"levelo://app?vid=1c788ec5-566e-4d09-9344-44c449a1a9eb","ios":"levelo://app?vid=1c788ec5-566e-4d09-9344-44c449a1a9eb"},"vehicle_type_id":"4","last_reported":1781440420,"current_range_meters":4400,"station_id":"st_d3js3co5814s73ftftug","pricing_plan_id":"cebpf4jnsgd1na2vs0mg"},{"bike_id":"b9611479-8073-44f7-9e8e-de185ff42ef0","system_id":"levelo_inurba_marseille","lat":43.285977,"lon":5.370525,"is_reserved":false,"is_disabled":false,"rental_uris":{"android":"levelo://app?vid=b9611479-8073-44f7-9e8e-de185ff42ef0","ios":"levelo://app?vid=b9611479-8073-44f7-9e8e-de185ff42ef0"},"vehicle_type_id":"4","last_reported":1781440420,"current_range_meters":4400,"station_id":"ce4bht12rcd13ifvqi60","pricing_plan_id":"cebpf4jnsgd1na2vs0mg"},{"bike_id":"b2f084fa-26c4-45b7-88b9-eadd0af6928a","system_id":"levelo_inurba_marseille","lat":43.28039,"lon":5.41678,"is_reserved":false,"is_disabled":false,"rental_uris":{"android":"levelo://app?vid=b2f084fa-26c4-45b7-88b9-eadd0af6928a","ios":"levelo://app?vid=b2f084fa-26c4-45b7-88b9-eadd0af6928a"},"vehicle_type_id":"4","last_reported":1781440420,"current_range_meters":4400,"station_id":"ce4bho12rcd13ifvqh1g","pricing_plan_id":"cebpf4jnsgd1na2vs0mg"},{"bike_id":"5d88f60e-817b-47ae-a28e-86bd41fd207c","system_id":"levelo_inurba_marseille","lat":43.27055,"lon":5.40255,"is_reserved":false,"is_disabled":false,"rental_uris":{"android":"levelo://app?vid=5d88f60e-817b-47ae-a28e-86bd41fd207c","ios":"levelo://app?vid=5d88f60e-817b-47ae-a28e-86bd41fd207c"},"vehicle_type_id":"4","last_reported":1781440420,"current_range_meters":4400,"station_id":"ce4bhk92rcd13ifvqgc0","pricing_plan_id":"cebpf4jnsgd1na2vs0mg"},{"bike_id":"948e7dcf-c12b-4293-8ebe-ef6b71975867","system_id":"levelo_inurba_marseille","lat":43.2417,"lon":5.36403,"is_reserved":false,"is_disabled":true,"rental_uris":{"android":"levelo://app?vid=948e7dcf-c12b-4293-8ebe-ef6b71975867","ios":"levelo://app?vid=948e7dcf-c12b-4293-8ebe-ef6b71975867"},"vehicle_type_id":"4","last_reported":1781440420,"current_range_meters":4400,"station_id":"cpo36qri1sfpv3e86is0","pricing_plan_id":"cebpf4jnsgd1na2vs0mg"},{"bike_id":"e3f8a3bb-8545-40dd-97a4-231ab6e595be","system_id":"levelo_inurba_marseille","lat":43.29594,"lon":5.37557,"is_reserved":false,"is_disabled":false,"rental_uris":{"android":"levelo://app?vid=e3f8a3bb-8545-40dd-97a4-231ab6e595be","ios":"levelo://app?vid=e3f8a3bb-8545-40dd-97a4-231ab6e595be"},"vehicle_type_id":"4","last_reported":1781440420,"current_range_meters":4400,"station_id":"ce4bgh92rcd13ifvqb50","pricing_plan_id":"cebpf4jnsgd1na2vs0mg"},{"bike_id":"59abd848-b938-4706-8b9d-aa54cd5d850e","system_id":"levelo_inurba_marseille","lat":43.28525,"lon":5.38648,"is_reserved":false,"is_disabled":false,"rental_uris":{"android":"levelo://app?vid=59abd848-b938-4706-8b9d-aa54cd5d850e","ios":"levelo://app?vid=59abd848-b938-4706-8b9d-aa54cd5d850e"},"vehicle_type_id":"4","last_reported":1781440420,"current_range_meters":4400,"station_id":"","pricing_plan_id":"cebpf4jnsgd1na2vs0mg"},{"bike_id":"9f0be29b-c3fc-43d2-88d9-7ef79e23fe90","system_id":"levelo_inurba_marseille","lat":43.24543,"lon":5.39523,"is_reserved":false,"is_disabled":false,"rental_uris":{"android":"levelo://app?vid=9f0be29b-c3fc-43d2-88d9-7ef79e23fe90","ios":"levelo://app?vid=9f0be29b-c3fc-43d2-88d9-7ef79e23fe90"},"vehicle_type_id":"4","last_reported":1781440420,"current_range_meters":4800,"station_id":"ce4bhlp2rcd13ifvqgjg","pricing_plan_id":"cebpf4jnsgd1na2vs0mg"},{"bike_id":"8185a93a-df23-4cba-b5aa-efc041cddc09","system_id":"levelo_inurba_marseille","lat":43.29628,"lon":5.40602,"is_reserved":false,"is_disabled":true,"rental_uris":{"android":"levelo://app?vid=8185a93a-df23-4cba-b5aa-efc041cddc09","ios":"levelo://app?vid=8185a93a-df23-4cba-b5aa-efc041cddc09"},"vehicle_type_id":"4","last_reported":1781440420,"current_range_meters":4800,"station_id":"ce4bh0h2rcd13ifvqd60","pricing_plan_id":"cebpf4jnsgd1na2vs0mg"},{"bike_id":"93b03f6b-edc6-445d-908a-770c538c330f","system_id":"levelo_inurba_marseille","lat":43.25963,"lon":5.39409,"is_reserved":false,"is_disabled":false,"rental_uris":{"android":"levelo://app?vid=93b03f6b-edc6-445d-908a-770c538c330f","ios":"levelo://app?vid=93b03f6b-edc6-445d-908a-770c538c330f"},"vehicle_type_id":"4","last_reported":1781440420,"current_range_meters":4800,"station_id":"","pricing_plan_id":"cebpf4jnsgd1na2vs0mg"},{"bike_id":"eb6a9cfd-9834-472e-84c9-d095d9a96d02","system_id":"levelo_inurba_marseille","lat":43.2922,"lon":5.38383,"is_reserved":false,"is_disabled":false,"rental_uris":{"android":"levelo://app?vid=eb6a9cfd-9834-472e-84c9-d095d9a96d02","ios":"levelo://app?vid=eb6a9cfd-9834-472e-84c9-d095d9a96d02"},"vehicle_type_id":"4","last_reported":1781440420,"current_range_meters":4800,"station_id":"","pricing_plan_id":"cebpf4jnsgd1na2vs0mg"},{"bike_id":"28b75407-b95d-4028-b050-f6d44a2ffa77","system_id":"levelo_inurba_marseille","lat":43.23784,"lon":5.36629,"is_reserved":false,"is_disabled":false,"rental_uris":{"android":"levelo://app?vid=28b75407-b95d-4028-b050-f6d44a2ffa77","ios":"levelo://app?vid=28b75407-b95d-4028-b050-f6d44a2ffa77"},"vehicle_type_id":"4","last_reported":1781440420,"current_range_meters":4800,"station_id":"st_d3nk18o9ro0c73en2l3g","pricing_plan_id":"cebpf4jnsgd1na2vs0mg"},{"bike_id":"d51ce86a-5b38-4b76-8e51-2a3373a4f2df","system_id":"levelo_inurba_marseille","lat":43.32052,"lon":5.36829,"is_reserved":false,"is_disabled":false,"rental_uris":{"android":"levelo://app?vid=d51ce86a-5b38-4b76-8e51-2a3373a4f2df","ios":"levelo://app?vid=d51ce86a-5b38-4b76-8e51-2a3373a4f2df"},"vehicle_type_id":"4","last_reported":1781440420,"current_range_meters":4800,"station_id":"","pricing_plan_id":"cebpf4jnsgd1na2vs0mg"},{"bike_id":"a48f8c10-9f9e-4f8e-a42f-cb29826f480e","system_id":"levelo_inurba_marseille","lat":43.2669,"lon":5.38265,"is_reserved":false,"is_disabled":false,"rental_uris":{"android":"levelo://app?vid=a48f8c10-9f9e-4f8e-a42f-cb29826f480e","ios":"levelo://app?vid=a48f8c10-9f9e-4f8e-a42f-cb29826f480e"},"vehicle_type_id":"4","last_reported":1781440420,"current_range_meters":4800,"station_id":"ce4bhg92rcd13ifvqf90","pricing_plan_id":"cebpf4jnsgd1na2vs0mg"},{"bike_id":"1bad5c3d-a537-4cef-a409-4d865ab2e318","system_id":"levelo_inurba_marseille","lat":43.25597,"lon":5.382348,"is_reserved":false,"is_disabled":false,"rental_uris":{"android":"levelo://app?vid=1bad5c3d-a537-4cef-a409-4d865ab2e318","ios":"levelo://app?vid=1bad5c3d-a537-4cef-a409-4d865ab2e318"},"vehicle_type_id":"4","last_reported":1781440420,"current_range_meters":4800,"station_id":"st_d8gjfg747rts73coq3b0","pricing_plan_id":"cebpf4jnsgd1na2vs0mg"},{"bike_id":"b333dd63-be6b-4b45-9f8f-f915b52a0711","system_id":"levelo_inurba_marseille","lat":43.25072,"lon":5.38842,"is_reserved":false,"is_disabled":false,"rental_uris":{"android":"levelo://app?vid=b333dd63-be6b-4b45-9f8f-f915b52a0711","ios":"levelo://app?vid=b333dd63-be6b-4b45-9f8f-f915b52a0711"},"vehicle_type_id":"4","last_reported":1781440420,"current_range_meters":4800,"station_id":"","pricing_plan_id":"cebpf4jnsgd1na2vs0mg"},{"bike_id":"d0f051fb-958c-4dee-a308-5cc79a4f9d2d","system_id":"levelo_inurba_marseille","lat":43.30154,"lon":5.38096,"is_reserved":false,"is_disabled":false,"rental_uris":{"android":"levelo://app?vid=d0f051fb-958c-4dee-a308-5cc79a4f9d2d","ios":"levelo://app?vid=d0f051fb-958c-4dee-a308-5cc79a4f9d2d"},"vehicle_type_id":"4","last_reported":1781440420,"current_range_meters":4800,"station_id":"ce4bgjp2rcd13ifvqbh0","pricing_plan_id":"cebpf4jnsgd1na2vs0mg"},{"bike_id":"d1e6d63b-7ae7-4818-b98c-e7ec7ff6ef18","system_id":"levelo_inurba_marseille","lat":43.22552,"lon":5.41641,"is_reserved":false,"is_disabled":false,"rental_uris":{"android":"levelo://app?vid=d1e6d63b-7ae7-4818-b98c-e7ec7ff6ef18","ios":"levelo://app?vid=d1e6d63b-7ae7-4818-b98c-e7ec7ff6ef18"},"vehicle_type_id":"4","last_reported":1781440420,"current_range_meters":4800,"station_id":"st_d2o4gvlbi1j2169b742g","pricing_plan_id":"cebpf4jnsgd1na2vs0mg"},{"bike_id":"4c0aaefd-2b66-45a7-8e6f-bab47a273073","system_id":"levelo_inurba_marseille","lat":43.3258,"lon":5.42636,"is_reserved":false,"is_disabled":false,"rental_uris":{"android":"levelo://app?vid=4c0aaefd-2b66-45a7-8e6f-bab47a273073","ios":"levelo://app?vid=4c0aaefd-2b66-45a7-8e6f-bab47a273073"},"vehicle_type_id":"4","last_reported":1781440420,"current_range_meters":4800,"station_id":"","pricing_plan_id":"cebpf4jnsgd1na2vs0mg"},{"bike_id":"15db509e-d1e3-471f-b48f-32cadf31b3a1","system_id":"levelo_inurba_marseille","lat":43.26214,"lon":5.37445,"is_reserved":false,"is_disabled":false,"rental_uris":{"android":"levelo://app?vid=15db509e-d1e3-471f-b48f-32cadf31b3a1","ios":"levelo://app?vid=15db509e-d1e3-471f-b48f-32cadf31b3a1"},"vehicle_type_id":"4","last_reported":1781440420,"current_range_meters":4800,"station_id":"ce4bhgp2rcd13ifvqfc0","pricing_plan_id":"cebpf4jnsgd1na2vs0mg"},{"bike_id":"b00d8bd0-800e-45a7-ac0f-43138ef8f6fe","system_id":"levelo_inurba_marseille","lat":43.26782,"lon":5.3943,"is_reserved":false,"is_disabled":true,"rental_uris":{"android":"levelo://app?vid=b00d8bd0-800e-45a7-ac0f-43138ef8f6fe","ios":"levelo://app?vid=b00d8bd0-800e-45a7-ac0f-43138ef8f6fe"},"vehicle_type_id":"4","last_reported":1781440420,"current_range_meters":4800,"station_id":"ce4bhh12rcd13ifvqfg0","pricing_plan_id":"cebpf4jnsgd1na2vs0mg"},{"bike_id":"cf0c68e9-108f-4cb2-8999-26e59936ff8c","system_id":"levelo_inurba_marseille","lat":43.23071,"lon":5.35505,"is_reserved":false,"is_disabled":false,"rental_uris":{"android":"levelo://app?vid=cf0c68e9-108f-4cb2-8999-26e59936ff8c","ios":"levelo://app?vid=cf0c68e9-108f-4cb2-8999-26e59936ff8c"},"vehicle_type_id":"4","last_reported":1781440420,"current_range_meters":5600,"station_id":"cpo3342slgdg3j2ifvpg","pricing_plan_id":"cebpf4jnsgd1na2vs0mg"},{"bike_id":"524b5098-c1ae-4877-837e-5df2fc9fb64c","system_id":"levelo_inurba_marseille","lat":43.28154,"lon":5.42635,"is_reserved":false,"is_disabled":false,"rental_uris":{"android":"levelo://app?vid=524b5098-c1ae-4877-837e-5df2fc9fb64c","ios":"levelo://app?vid=524b5098-c1ae-4877-837e-5df2fc9fb64c"},"vehicle_type_id":"4","last_reported":1781440420,"current_range_meters":5600,"station_id":"ce4bhnh2rcd13ifvqgug","pricing_plan_id":"cebpf4jnsgd1na2vs0mg"},{"bike_id":"abecaa06-8c9e-49c0-b952-914ba311d920","system_id":"levelo_inurba_marseille","lat":43.29271,"lon":5.38452,"is_reserved":false,"is_disabled":false,"rental_uris":{"android":"levelo://app?vid=abecaa06-8c9e-49c0-b952-914ba311d920","ios":"levelo://app?vid=abecaa06-8c9e-49c0-b952-914ba311d920"},"vehicle_type_id":"4","last_reported":1781440420,"current_range_meters":5600,"station_id":"ce4bh692rcd13ifvqea0","pricing_plan_id":"cebpf4jnsgd1na2vs0mg"},{"bike_id":"d2c1c417-9992-4f5c-be0f-08fcbeddbcd9","system_id":"levelo_inurba_marseille","lat":43.29565,"lon":5.38016,"is_reserved":false,"is_disabled":true,"rental_uris":{"android":"levelo://app?vid=d2c1c417-9992-4f5c-be0f-08fcbeddbcd9","ios":"levelo://app?vid=d2c1c417-9992-4f5c-be0f-08fcbeddbcd9"},"vehicle_type_id":"4","last_reported":1781440420,"current_range_meters":5600,"station_id":"ce4bgl12rcd13ifvqbo0","pricing_plan_id":"cebpf4jnsgd1na2vs0mg"},{"bike_id":"65656522-6967-4ec3-a9aa-c619425a119c","system_id":"levelo_inurba_marseille","lat":43.22531,"lon":5.34827,"is_reserved":false,"is_disabled":false,"rental_uris":{"android":"levelo://app?vid=65656522-6967-4ec3-a9aa-c619425a119c","ios":"levelo://app?vid=65656522-6967-4ec3-a9aa-c619425a119c"},"vehicle_type_id":"4","last_reported":1781440420,"current_range_meters":5600,"station_id":"st_cvj5dfep6f1abm77gieg","pricing_plan_id":"cebpf4jnsgd1na2vs0mg"},{"bike_id":"1a1ad63b-bf2d-4119-8f23-2b8341ecdf2b","system_id":"levelo_inurba_marseille","lat":43.31761,"lon":5.39009,"is_reserved":false,"is_disabled":false,"rental_uris":{"android":"levelo://app?vid=1a1ad63b-bf2d-4119-8f23-2b8341ecdf2b","ios":"levelo://app?vid=1a1ad63b-bf2d-4119-8f23-2b8341ecdf2b"},"vehicle_type_id":"4","last_reported":1781440420,"current_range_meters":5600,"station_id":"ce4bhqp2rcd13ifvqhng","pricing_plan_id":"cebpf4jnsgd1na2vs0mg"},{"bike_id":"757c423b-2a82-46b3-ba98-1af12f958ffe","system_id":"levelo_inurba_marseille","lat":43.28473,"lon":5.35872,"is_reserved":false,"is_disabled":false,"rental_uris":{"android":"levelo://app?vid=757c423b-2a82-46b3-ba98-1af12f958ffe","ios":"levelo://app?vid=757c423b-2a82-46b3-ba98-1af12f958ffe"},"vehicle_type_id":"4","last_reported":1781440420,"current_range_meters":5600,"station_id":"ce4bhah2rcd13ifvqei0","pricing_plan_id":"cebpf4jnsgd1na2vs0mg"},{"bike_id":"68944ba6-2e6c-4dea-8ae5-3702bb7ece93","system_id":"levelo_inurba_marseille","lat":43.29531,"lon":5.38547,"is_reserved":false,"is_disabled":false,"rental_uris":{"android":"levelo://app?vid=68944ba6-2e6c-4dea-8ae5-3702bb7ece93","ios":"levelo://app?vid=68944ba6-2e6c-4dea-8ae5-3702bb7ece93"},"vehicle_type_id":"4","last_reported":1781440420,"current_range_meters":5600,"station_id":"ce4bgih2rcd13ifvqba0","pricing_plan_id":"cebpf4jnsgd1na2vs0mg"},{"bike_id":"43aec827-b955-4a67-bba8-4df0141e7eb1","system_id":"levelo_inurba_marseille","lat":43.33758,"lon":5.37477,"is_reserved":false,"is_disabled":false,"rental_uris":{"android":"levelo://app?vid=43aec827-b955-4a67-bba8-4df0141e7eb1","ios":"levelo://app?vid=43aec827-b955-4a67-bba8-4df0141e7eb1"},"vehicle_type_id":"4","last_reported":1781440420,"current_range_meters":5600,"station_id":"","pricing_plan_id":"cebpf4jnsgd1na2vs0mg"},{"bike_id":"52f3e772-ae75-4b62-8837-30b3a36cd0d4","system_id":"levelo_inurba_marseille","lat":43.31038,"lon":5.39383,"is_reserved":false,"is_disabled":false,"rental_uris":{"android":"levelo://app?vid=52f3e772-ae75-4b62-8837-30b3a36cd0d4","ios":"levelo://app?vid=52f3e772-ae75-4b62-8837-30b3a36cd0d4"},"vehicle_type_id":"4","last_reported":1781440420,"current_range_meters":5600,"station_id":"","pricing_plan_id":"cebpf4jnsgd1na2vs0mg"},{"bike_id":"e2298d1e-9f46-40e5-8442-06c6300e3b87","system_id":"levelo_inurba_marseille","lat":43.24604,"lon":5.39747,"is_reserved":false,"is_disabled":false,"rental_uris":{"android":"levelo://app?vid=e2298d1e-9f46-40e5-8442-06c6300e3b87","ios":"levelo://app?vid=e2298d1e-9f46-40e5-8442-06c6300e3b87"},"vehicle_type_id":"4","last_reported":1781440420,"current_range_meters":5600,"station_id":"","pricing_plan_id":"cebpf4jnsgd1na2vs0mg"},{"bike_id":"e0cccf2d-e125-4492-af49-bf7d33582c99","system_id":"levelo_inurba_marseille","lat":43.2408,"lon":5.37728,"is_reserved":false,"is_disabled":false,"rental_uris":{"android":"levelo://app?vid=e0cccf2d-e125-4492-af49-bf7d33582c99","ios":"levelo://app?vid=e0cccf2d-e125-4492-af49-bf7d33582c99"},"vehicle_type_id":"4","last_reported":1781440420,"current_range_meters":5600,"station_id":"ce4bhnp2rcd13ifvqgvg","pricing_plan_id":"cebpf4jnsgd1na2vs0mg"},{"bike_id":"7bb9d837-8621-443d-b257-e306cb33cfa1","system_id":"levelo_inurba_marseille","lat":43.28648,"lon":5.37083,"is_reserved":false,"is_disabled":false,"rental_uris":{"android":"levelo://app?vid=7bb9d837-8621-443d-b257-e306cb33cfa1","ios":"levelo://app?vid=7bb9d837-8621-443d-b257-e306cb33cfa1"},"vehicle_type_id":"4","last_reported":1781440420,"current_range_meters":5600,"station_id":"","pricing_plan_id":"cebpf4jnsgd1na2vs0mg"},{"bike_id":"f57ddc5d-b3ad-43f3-bbc4-226ea7be866d","system_id":"levelo_inurba_marseille","lat":43.29854,"lon":5.4228,"is_reserved":false,"is_disabled":false,"rental_uris":{"android":"levelo://app?vid=f57ddc5d-b3ad-43f3-bbc4-226ea7be866d","ios":"levelo://app?vid=f57ddc5d-b3ad-43f3-bbc4-226ea7be866d"},"vehicle_type_id":"4","last_reported":1781440420,"current_range_meters":5600,"station_id":"","pricing_plan_id":"cebpf4jnsgd1na2vs0mg"},{"bike_id":"d8af3ed3-f110-42fc-a859-20bcac54350f","system_id":"levelo_inurba_marseille","lat":43.30775,"lon":5.37654,"is_reserved":false,"is_disabled":true,"rental_uris":{"android":"levelo://app?vid=d8af3ed3-f110-42fc-a859-20bcac54350f","ios":"levelo://app?vid=d8af3ed3-f110-42fc-a859-20bcac54350f"},"vehicle_type_id":"4","last_reported":1781440420,"current_range_meters":5600,"station_id":"ce4bgv92rcd13ifvqcq0","pricing_plan_id":"cebpf4jnsgd1na2vs0mg"},{"bike_id":"5e644823-0361-426b-bc16-4ac715221997","system_id":"levelo_inurba_marseille","lat":43.28697,"lon":5.46686,"is_reserved":false,"is_disabled":false,"rental_uris":{"android":"levelo://app?vid=5e644823-0361-426b-bc16-4ac715221997","ios":"levelo://app?vid=5e644823-0361-426b-bc16-4ac715221997"},"vehicle_type_id":"4","last_reported":1781440420,"current_range_meters":5600,"station_id":"st_d6tc3vkotcvc738tfjhg","pricing_plan_id":"cebpf4jnsgd1na2vs0mg"},{"bike_id":"fd65a658-61ad-44d3-86ee-26341a46bbd7","system_id":"levelo_inurba_marseille","lat":43.29255,"lon":5.38436,"is_reserved":false,"is_disabled":false,"rental_uris":{"android":"levelo://app?vid=fd65a658-61ad-44d3-86ee-26341a46bbd7","ios":"levelo://app?vid=fd65a658-61ad-44d3-86ee-26341a46bbd7"},"vehicle_type_id":"4","last_reported":1781440420,"current_range_meters":5600,"station_id":"","pricing_plan_id":"cebpf4jnsgd1na2vs0mg"},{"bike_id":"ae1c1707-411f-4854-9869-719468dccb1d","system_id":"levelo_inurba_marseille","lat":43.29934,"lon":5.3648,"is_reserved":false,"is_disabled":false,"rental_uris":{"android":"levelo://app?vid=ae1c1707-411f-4854-9869-719468dccb1d","ios":"levelo://app?vid=ae1c1707-411f-4854-9869-719468dccb1d"},"vehicle_type_id":"4","last_reported":1781440420,"current_range_meters":5600,"station_id":"ce4bgm92rcd13ifvqbr0","pricing_plan_id":"cebpf4jnsgd1na2vs0mg"},{"bike_id":"244af543-1895-45de-bf77-09cd912b2eb3","system_id":"levelo_inurba_marseille","lat":43.28629,"lon":5.35181,"is_reserved":false,"is_disabled":false,"rental_uris":{"android":"levelo://app?vid=244af543-1895-45de-bf77-09cd912b2eb3","ios":"levelo://app?vid=244af543-1895-45de-bf77-09cd912b2eb3"},"vehicle_type_id":"4","last_reported":1781440420,"current_range_meters":5600,"station_id":"ce4bhch2rcd13ifvqeug","pricing_plan_id":"cebpf4jnsgd1na2vs0mg"},{"bike_id":"85ff7ea8-5fb7-4bf1-8a5b-dee5e4773c13","system_id":"levelo_inurba_marseille","lat":43.31954,"lon":5.39453,"is_reserved":false,"is_disabled":false,"rental_uris":{"android":"levelo://app?vid=85ff7ea8-5fb7-4bf1-8a5b-dee5e4773c13","ios":"levelo://app?vid=85ff7ea8-5fb7-4bf1-8a5b-dee5e4773c13"},"vehicle_type_id":"4","last_reported":1781440420,"current_range_meters":5600,"station_id":"","pricing_plan_id":"cebpf4jnsgd1na2vs0mg"},{"bike_id":"252bc6c7-aba2-4b76-b5e9-8fa80e00c93b","system_id":"levelo_inurba_marseille","lat":43.28506,"lon":5.38451,"is_reserved":false,"is_disabled":false,"rental_uris":{"android":"levelo://app?vid=252bc6c7-aba2-4b76-b5e9-8fa80e00c93b","ios":"levelo://app?vid=252bc6c7-aba2-4b76-b5e9-8fa80e00c93b"},"vehicle_type_id":"4","last_reported":1781440420,"current_range_meters":5600,"station_id":"ce4bh512rcd13ifvqe3g","pricing_plan_id":"cebpf4jnsgd1na2vs0mg"},{"bike_id":"1ad3b388-7f05-40c4-b2be-92a0734b3aef","system_id":"levelo_inurba_marseille","lat":43.27764,"lon":5.42799,"is_reserved":false,"is_disabled":false,"rental_uris":{"android":"levelo://app?vid=1ad3b388-7f05-40c4-b2be-92a0734b3aef","ios":"levelo://app?vid=1ad3b388-7f05-40c4-b2be-92a0734b3aef"},"vehicle_type_id":"4","last_reported":1781440420,"current_range_meters":6000,"station_id":"","pricing_plan_id":"cebpf4jnsgd1na2vs0mg"},{"bike_id":"56997dce-9cb4-4387-a274-e82e510b15e3","system_id":"levelo_inurba_marseille","lat":43.28616,"lon":5.35097,"is_reserved":false,"is_disabled":false,"rental_uris":{"android":"levelo://app?vid=56997dce-9cb4-4387-a274-e82e510b15e3","ios":"levelo://app?vid=56997dce-9cb4-4387-a274-e82e510b15e3"},"vehicle_type_id":"4","last_reported":1781440420,"current_range_meters":6000,"station_id":"ce4bhch2rcd13ifvqeug","pricing_plan_id":"cebpf4jnsgd1na2vs0mg"},{"bike_id":"ee5326b1-f810-41ef-b1b7-1ea9c2c8872f","system_id":"levelo_inurba_marseille","lat":43.28719,"lon":5.46707,"is_reserved":false,"is_disabled":false,"rental_uris":{"android":"levelo://app?vid=ee5326b1-f810-41ef-b1b7-1ea9c2c8872f","ios":"levelo://app?vid=ee5326b1-f810-41ef-b1b7-1ea9c2c8872f"},"vehicle_type_id":"4","last_reported":1781440420,"current_range_meters":6000,"station_id":"st_d6tc3vkotcvc738tfjhg","pricing_plan_id":"cebpf4jnsgd1na2vs0mg"},{"bike_id":"99ea0427-494f-44d3-90a7-6bc8137bb58a","system_id":"levelo_inurba_marseille","lat":43.30894,"lon":5.39634,"is_reserved":false,"is_disabled":false,"rental_uris":{"android":"levelo://app?vid=99ea0427-494f-44d3-90a7-6bc8137bb58a","ios":"levelo://app?vid=99ea0427-494f-44d3-90a7-6bc8137bb58a"},"vehicle_type_id":"4","last_reported":1781440420,"current_range_meters":6000,"station_id":"ce4bh012rcd13ifvqcv0","pricing_plan_id":"cebpf4jnsgd1na2vs0mg"},{"bike_id":"a47f7ec5-339e-411f-a9f3-d5a489312e95","system_id":"levelo_inurba_marseille","lat":43.28048,"lon":5.35123,"is_reserved":false,"is_disabled":false,"rental_uris":{"android":"levelo://app?vid=a47f7ec5-339e-411f-a9f3-d5a489312e95","ios":"levelo://app?vid=a47f7ec5-339e-411f-a9f3-d5a489312e95"},"vehicle_type_id":"4","last_reported":1781440420,"current_range_meters":6000,"station_id":"","pricing_plan_id":"cebpf4jnsgd1na2vs0mg"},{"bike_id":"0a447fbd-c4e9-4d6f-95ca-96703b3388eb","system_id":"levelo_inurba_marseille","lat":43.21181,"lon":5.35074,"is_reserved":false,"is_disabled":false,"rental_uris":{"android":"levelo://app?vid=0a447fbd-c4e9-4d6f-95ca-96703b3388eb","ios":"levelo://app?vid=0a447fbd-c4e9-4d6f-95ca-96703b3388eb"},"vehicle_type_id":"4","last_reported":1781440420,"current_range_meters":6000,"station_id":"st_cvj6sg6p6f1abm77japg","pricing_plan_id":"cebpf4jnsgd1na2vs0mg"},{"bike_id":"2d5036af-f9df-45c6-97e4-648868345309","system_id":"levelo_inurba_marseille","lat":43.33391,"lon":5.39099,"is_reserved":false,"is_disabled":false,"rental_uris":{"android":"levelo://app?vid=2d5036af-f9df-45c6-97e4-648868345309","ios":"levelo://app?vid=2d5036af-f9df-45c6-97e4-648868345309"},"vehicle_type_id":"4","last_reported":1781440420,"current_range_meters":6000,"station_id":"","pricing_plan_id":"cebpf4jnsgd1na2vs0mg"},{"bike_id":"5f12a197-d5cd-4a34-a7ca-9a05859b7a9d","system_id":"levelo_inurba_marseille","lat":43.29487,"lon":5.40242,"is_reserved":false,"is_disabled":false,"rental_uris":{"android":"levelo://app?vid=5f12a197-d5cd-4a34-a7ca-9a05859b7a9d","ios":"levelo://app?vid=5f12a197-d5cd-4a34-a7ca-9a05859b7a9d"},"vehicle_type_id":"4","last_reported":1781440420,"current_range_meters":6000,"station_id":"","pricing_plan_id":"cebpf4jnsgd1na2vs0mg"},{"bike_id":"dca9d940-d48c-408f-b32f-b332f073e218","system_id":"levelo_inurba_marseille","lat":43.26061,"lon":5.394,"is_reserved":false,"is_disabled":false,"rental_uris":{"android":"levelo://app?vid=dca9d940-d48c-408f-b32f-b332f073e218","ios":"levelo://app?vid=dca9d940-d48c-408f-b32f-b332f073e218"},"vehicle_type_id":"4","last_reported":1781440420,"current_range_meters":6000,"station_id":"ce4bhh92rcd13ifvqfj0","pricing_plan_id":"cebpf4jnsgd1na2vs0mg"},{"bike_id":"1b5c7b8e-75a6-4e5b-a896-3aa61ed24deb","system_id":"levelo_inurba_marseille","lat":43.29529,"lon":5.3941,"is_reserved":false,"is_disabled":true,"rental_uris":{"android":"levelo://app?vid=1b5c7b8e-75a6-4e5b-a896-3aa61ed24deb","ios":"levelo://app?vid=1b5c7b8e-75a6-4e5b-a896-3aa61ed24deb"},"vehicle_type_id":"4","last_reported":1781440420,"current_range_meters":6000,"station_id":"ce4bh292rcd13ifvqdf0","pricing_plan_id":"cebpf4jnsgd1na2vs0mg"},{"bike_id":"b635f729-045b-46d9-ba30-9436b10c4efe","system_id":"levelo_inurba_marseille","lat":43.26484,"lon":5.39545,"is_reserved":false,"is_disabled":false,"rental_uris":{"android":"levelo://app?vid=b635f729-045b-46d9-ba30-9436b10c4efe","ios":"levelo://app?vid=b635f729-045b-46d9-ba30-9436b10c4efe"},"vehicle_type_id":"4","last_reported":1781440420,"current_range_meters":6000,"station_id":"ce4bhi12rcd13ifvqfq0","pricing_plan_id":"cebpf4jnsgd1na2vs0mg"},{"bike_id":"178788d6-7709-4484-9971-d7cbf5ca17ce","system_id":"levelo_inurba_marseille","lat":43.21741,"lon":5.34628,"is_reserved":false,"is_disabled":false,"rental_uris":{"android":"levelo://app?vid=178788d6-7709-4484-9971-d7cbf5ca17ce","ios":"levelo://app?vid=178788d6-7709-4484-9971-d7cbf5ca17ce"},"vehicle_type_id":"4","last_reported":1781440420,"current_range_meters":6000,"station_id":"st_cvj6r9ubvosntc0bgbag","pricing_plan_id":"cebpf4jnsgd1na2vs0mg"},{"bike_id":"c2bfcf75-197f-4d0d-8b20-256d9aaad722","system_id":"levelo_inurba_marseille","lat":43.32121,"lon":5.36833,"is_reserved":false,"is_disabled":false,"rental_uris":{"android":"levelo://app?vid=c2bfcf75-197f-4d0d-8b20-256d9aaad722","ios":"levelo://app?vid=c2bfcf75-197f-4d0d-8b20-256d9aaad722"},"vehicle_type_id":"4","last_reported":1781440420,"current_range_meters":6000,"station_id":"","pricing_plan_id":"cebpf4jnsgd1na2vs0mg"},{"bike_id":"8f27be64-7acf-498b-9d2e-74cba605605d","system_id":"levelo_inurba_marseille","lat":43.21742,"lon":5.34585,"is_reserved":false,"is_disabled":false,"rental_uris":{"android":"levelo://app?vid=8f27be64-7acf-498b-9d2e-74cba605605d","ios":"levelo://app?vid=8f27be64-7acf-498b-9d2e-74cba605605d"},"vehicle_type_id":"4","last_reported":1781440420,"current_range_meters":6000,"station_id":"st_cvj6r9ubvosntc0bgbag","pricing_plan_id":"cebpf4jnsgd1na2vs0mg"},{"bike_id":"a50af965-b87b-4f91-9b9a-3e26dc71f7c1","system_id":"levelo_inurba_marseille","lat":43.29058,"lon":5.43986,"is_reserved":false,"is_disabled":false,"rental_uris":{"android":"levelo://app?vid=a50af965-b87b-4f91-9b9a-3e26dc71f7c1","ios":"levelo://app?vid=a50af965-b87b-4f91-9b9a-3e26dc71f7c1"},"vehicle_type_id":"4","last_reported":1781440420,"current_range_meters":6000,"station_id":"","pricing_plan_id":"cebpf4jnsgd1na2vs0mg"},{"bike_id":"ff183300-e381-4623-b20d-53a94b47ae87","system_id":"levelo_inurba_marseille","lat":43.32591,"lon":5.36521,"is_reserved":false,"is_disabled":false,"rental_uris":{"android":"levelo://app?vid=ff183300-e381-4623-b20d-53a94b47ae87","ios":"levelo://app?vid=ff183300-e381-4623-b20d-53a94b47ae87"},"vehicle_type_id":"4","last_reported":1781440420,"current_range_meters":6000,"station_id":"","pricing_plan_id":"cebpf4jnsgd1na2vs0mg"},{"bike_id":"6e890818-0091-49c7-b448-7d8a9bd027f5","system_id":"levelo_inurba_marseille","lat":43.24102,"lon":5.37743,"is_reserved":false,"is_disabled":false,"rental_uris":{"android":"levelo://app?vid=6e890818-0091-49c7-b448-7d8a9bd027f5","ios":"levelo://app?vid=6e890818-0091-49c7-b448-7d8a9bd027f5"},"vehicle_type_id":"4","last_reported":1781440420,"current_range_meters":6000,"station_id":"ce4bhnp2rcd13ifvqgvg","pricing_plan_id":"cebpf4jnsgd1na2vs0mg"},{"bike_id":"e6268e01-408c-4640-b5e2-0cc5f3b5f674","system_id":"levelo_inurba_marseille","lat":43.33538,"lon":5.37455,"is_reserved":false,"is_disabled":false,"rental_uris":{"android":"levelo://app?vid=e6268e01-408c-4640-b5e2-0cc5f3b5f674","ios":"levelo://app?vid=e6268e01-408c-4640-b5e2-0cc5f3b5f674"},"vehicle_type_id":"4","last_reported":1781440420,"current_range_meters":6000,"station_id":"st_d46tts09ee8s73dlu43g","pricing_plan_id":"cebpf4jnsgd1na2vs0mg"},{"bike_id":"8150589d-aa57-493e-b46c-c7049ac03237","system_id":"levelo_inurba_marseille","lat":43.32498,"lon":5.39153,"is_reserved":false,"is_disabled":false,"rental_uris":{"android":"levelo://app?vid=8150589d-aa57-493e-b46c-c7049ac03237","ios":"levelo://app?vid=8150589d-aa57-493e-b46c-c7049ac03237"},"vehicle_type_id":"4","last_reported":1781440420,"current_range_meters":6000,"station_id":"","pricing_plan_id":"cebpf4jnsgd1na2vs0mg"},{"bike_id":"d729573f-a86b-41d2-bc51-bd23c133868d","system_id":"levelo_inurba_marseille","lat":43.31554,"lon":5.3841,"is_reserved":false,"is_disabled":false,"rental_uris":{"android":"levelo://app?vid=d729573f-a86b-41d2-bc51-bd23c133868d","ios":"levelo://app?vid=d729573f-a86b-41d2-bc51-bd23c133868d"},"vehicle_type_id":"4","last_reported":1781440420,"current_range_meters":6000,"station_id":"","pricing_plan_id":"cebpf4jnsgd1na2vs0mg"},{"bike_id":"8c35e00d-f145-4990-9075-f1452b27a592","system_id":"levelo_inurba_marseille","lat":43.212,"lon":5.35074,"is_reserved":false,"is_disabled":false,"rental_uris":{"android":"levelo://app?vid=8c35e00d-f145-4990-9075-f1452b27a592","ios":"levelo://app?vid=8c35e00d-f145-4990-9075-f1452b27a592"},"vehicle_type_id":"4","last_reported":1781440420,"current_range_meters":6400,"station_id":"st_cvj6sg6p6f1abm77japg","pricing_plan_id":"cebpf4jnsgd1na2vs0mg"},{"bike_id":"d117df6f-92d3-41bd-88ad-1367bea50a0c","system_id":"levelo_inurba_marseille","lat":43.24814,"lon":5.37588,"is_reserved":false,"is_disabled":false,"rental_uris":{"android":"levelo://app?vid=d117df6f-92d3-41bd-88ad-1367bea50a0c","ios":"levelo://app?vid=d117df6f-92d3-41bd-88ad-1367bea50a0c"},"vehicle_type_id":"4","last_reported":1781440420,"current_range_meters":6400,"station_id":"","pricing_plan_id":"cebpf4jnsgd1na2vs0mg"},{"bike_id":"f2ba73c5-fc69-4601-a3f3-cbbbb5b9b11d","system_id":"levelo_inurba_marseille","lat":43.28344,"lon":5.38836,"is_reserved":false,"is_disabled":false,"rental_uris":{"android":"levelo://app?vid=f2ba73c5-fc69-4601-a3f3-cbbbb5b9b11d","ios":"levelo://app?vid=f2ba73c5-fc69-4601-a3f3-cbbbb5b9b11d"},"vehicle_type_id":"4","last_reported":1781440420,"current_range_meters":6400,"station_id":"","pricing_plan_id":"cebpf4jnsgd1na2vs0mg"},{"bike_id":"1aa69796-4597-4e19-90ef-464fe6857eba","system_id":"levelo_inurba_marseille","lat":43.29471,"lon":5.44523,"is_reserved":false,"is_disabled":false,"rental_uris":{"android":"levelo://app?vid=1aa69796-4597-4e19-90ef-464fe6857eba","ios":"levelo://app?vid=1aa69796-4597-4e19-90ef-464fe6857eba"},"vehicle_type_id":"4","last_reported":1781440420,"current_range_meters":6400,"station_id":"","pricing_plan_id":"cebpf4jnsgd1na2vs0mg"},{"bike_id":"4db9eef1-aef2-45ba-bc16-8e29354c786c","system_id":"levelo_inurba_marseille","lat":43.26189,"lon":5.37471,"is_reserved":false,"is_disabled":false,"rental_uris":{"android":"levelo://app?vid=4db9eef1-aef2-45ba-bc16-8e29354c786c","ios":"levelo://app?vid=4db9eef1-aef2-45ba-bc16-8e29354c786c"},"vehicle_type_id":"4","last_reported":1781440420,"current_range_meters":6400,"station_id":"ce4bhgp2rcd13ifvqfc0","pricing_plan_id":"cebpf4jnsgd1na2vs0mg"},{"bike_id":"abc01caa-7e82-486b-ad5a-e31151d2d0fc","system_id":"levelo_inurba_marseille","lat":43.27734,"lon":5.39648,"is_reserved":false,"is_disabled":false,"rental_uris":{"android":"levelo://app?vid=abc01caa-7e82-486b-ad5a-e31151d2d0fc","ios":"levelo://app?vid=abc01caa-7e82-486b-ad5a-e31151d2d0fc"},"vehicle_type_id":"4","last_reported":1781440420,"current_range_meters":6400,"station_id":"","pricing_plan_id":"cebpf4jnsgd1na2vs0mg"},{"bike_id":"67b5d997-f3d7-4ed9-aa45-e579b87e467a","system_id":"levelo_inurba_marseille","lat":43.33763,"lon":5.37419,"is_reserved":false,"is_disabled":false,"rental_uris":{"android":"levelo://app?vid=67b5d997-f3d7-4ed9-aa45-e579b87e467a","ios":"levelo://app?vid=67b5d997-f3d7-4ed9-aa45-e579b87e467a"},"vehicle_type_id":"4","last_reported":1781440420,"current_range_meters":6400,"station_id":"","pricing_plan_id":"cebpf4jnsgd1na2vs0mg"},{"bike_id":"c3f35f22-68a5-408e-87c8-d3793e3c0068","system_id":"levelo_inurba_marseille","lat":43.28417,"lon":5.34974,"is_reserved":false,"is_disabled":false,"rental_uris":{"android":"levelo://app?vid=c3f35f22-68a5-408e-87c8-d3793e3c0068","ios":"levelo://app?vid=c3f35f22-68a5-408e-87c8-d3793e3c0068"},"vehicle_type_id":"4","last_reported":1781440420,"current_range_meters":6400,"station_id":"ce4bhbh2rcd13ifvqepg","pricing_plan_id":"cebpf4jnsgd1na2vs0mg"},{"bike_id":"7b96c87a-2fcb-4340-b672-05f5b778a97b","system_id":"levelo_inurba_marseille","lat":43.28588,"lon":5.3988,"is_reserved":false,"is_disabled":false,"rental_uris":{"android":"levelo://app?vid=7b96c87a-2fcb-4340-b672-05f5b778a97b","ios":"levelo://app?vid=7b96c87a-2fcb-4340-b672-05f5b778a97b"},"vehicle_type_id":"4","last_reported":1781440420,"current_range_meters":6400,"station_id":"st_d4a7ka997mjs738ck50g","pricing_plan_id":"cebpf4jnsgd1na2vs0mg"},{"bike_id":"26de732b-5e0c-47b4-9e6f-a8ab3961c9b3","system_id":"levelo_inurba_marseille","lat":43.31527,"lon":5.38034,"is_reserved":false,"is_disabled":false,"rental_uris":{"android":"levelo://app?vid=26de732b-5e0c-47b4-9e6f-a8ab3961c9b3","ios":"levelo://app?vid=26de732b-5e0c-47b4-9e6f-a8ab3961c9b3"},"vehicle_type_id":"4","last_reported":1781440420,"current_range_meters":6400,"station_id":"ce4bhsp2rcd13ifvqi50","pricing_plan_id":"cebpf4jnsgd1na2vs0mg"},{"bike_id":"337eb001-89f6-4742-b457-62c46e70e8ff","system_id":"levelo_inurba_marseille","lat":43.29281,"lon":5.36836,"is_reserved":false,"is_disabled":false,"rental_uris":{"android":"levelo://app?vid=337eb001-89f6-4742-b457-62c46e70e8ff","ios":"levelo://app?vid=337eb001-89f6-4742-b457-62c46e70e8ff"},"vehicle_type_id":"4","last_reported":1781440420,"current_range_meters":6400,"station_id":"ce4bhbp2rcd13ifvqesg","pricing_plan_id":"cebpf4jnsgd1na2vs0mg"},{"bike_id":"bc9bb278-9a3f-444c-9ee4-086e46a06286","system_id":"levelo_inurba_marseille","lat":43.22259,"lon":5.40489,"is_reserved":false,"is_disabled":false,"rental_uris":{"android":"levelo://app?vid=bc9bb278-9a3f-444c-9ee4-086e46a06286","ios":"levelo://app?vid=bc9bb278-9a3f-444c-9ee4-086e46a06286"},"vehicle_type_id":"4","last_reported":1781440420,"current_range_meters":6400,"station_id":"","pricing_plan_id":"cebpf4jnsgd1na2vs0mg"},{"bike_id":"96b2ab90-d8d2-49df-9035-0467b0e6c086","system_id":"levelo_inurba_marseille","lat":43.29817,"lon":5.44062,"is_reserved":false,"is_disabled":false,"rental_uris":{"android":"levelo://app?vid=96b2ab90-d8d2-49df-9035-0467b0e6c086","ios":"levelo://app?vid=96b2ab90-d8d2-49df-9035-0467b0e6c086"},"vehicle_type_id":"4","last_reported":1781440420,"current_range_meters":6400,"station_id":"st_d3jp68qikq2c7381ktn0","pricing_plan_id":"cebpf4jnsgd1na2vs0mg"},{"bike_id":"2f5a2eb1-a60a-4fe8-a5aa-002259731410","system_id":"levelo_inurba_marseille","lat":43.31057,"lon":5.37192,"is_reserved":false,"is_disabled":true,"rental_uris":{"android":"levelo://app?vid=2f5a2eb1-a60a-4fe8-a5aa-002259731410","ios":"levelo://app?vid=2f5a2eb1-a60a-4fe8-a5aa-002259731410"},"vehicle_type_id":"4","last_reported":1781440420,"current_range_meters":6400,"station_id":"st_d4kl2rp97mjs73e7tdfg","pricing_plan_id":"cebpf4jnsgd1na2vs0mg"},{"bike_id":"eb2f4075-16e7-4ce0-87ba-97c686a4d7a3","system_id":"levelo_inurba_marseille","lat":43.27368,"lon":5.36266,"is_reserved":false,"is_disabled":false,"rental_uris":{"android":"levelo://app?vid=eb2f4075-16e7-4ce0-87ba-97c686a4d7a3","ios":"levelo://app?vid=eb2f4075-16e7-4ce0-87ba-97c686a4d7a3"},"vehicle_type_id":"4","last_reported":1781440420,"current_range_meters":6400,"station_id":"ce4bhbh2rcd13ifvqeo0","pricing_plan_id":"cebpf4jnsgd1na2vs0mg"},{"bike_id":"18d3753c-9feb-4a72-9030-d19f09b8a97b","system_id":"levelo_inurba_marseille","lat":43.29848,"lon":5.37886,"is_reserved":false,"is_disabled":false,"rental_uris":{"android":"levelo://app?vid=18d3753c-9feb-4a72-9030-d19f09b8a97b","ios":"levelo://app?vid=18d3753c-9feb-4a72-9030-d19f09b8a97b"},"vehicle_type_id":"4","last_reported":1781440420,"current_range_meters":6800,"station_id":"","pricing_plan_id":"cebpf4jnsgd1na2vs0mg"},{"bike_id":"536a42be-8ddd-4165-be83-050fd5961519","system_id":"levelo_inurba_marseille","lat":43.26218,"lon":5.37445,"is_reserved":false,"is_disabled":false,"rental_uris":{"android":"levelo://app?vid=536a42be-8ddd-4165-be83-050fd5961519","ios":"levelo://app?vid=536a42be-8ddd-4165-be83-050fd5961519"},"vehicle_type_id":"4","last_reported":1781440420,"current_range_meters":6800,"station_id":"ce4bhgp2rcd13ifvqfc0","pricing_plan_id":"cebpf4jnsgd1na2vs0mg"},{"bike_id":"8fea25ca-fb48-4384-9778-a8089f84f9ac","system_id":"levelo_inurba_marseille","lat":43.29724,"lon":5.38085,"is_reserved":false,"is_disabled":false,"rental_uris":{"android":"levelo://app?vid=8fea25ca-fb48-4384-9778-a8089f84f9ac","ios":"levelo://app?vid=8fea25ca-fb48-4384-9778-a8089f84f9ac"},"vehicle_type_id":"4","last_reported":1781440420,"current_range_meters":6800,"station_id":"","pricing_plan_id":"cebpf4jnsgd1na2vs0mg"},{"bike_id":"7ab101d2-fd7e-47cf-982d-f85b01b5cea8","system_id":"levelo_inurba_marseille","lat":43.29028,"lon":5.36993,"is_reserved":false,"is_disabled":false,"rental_uris":{"android":"levelo://app?vid=7ab101d2-fd7e-47cf-982d-f85b01b5cea8","ios":"levelo://app?vid=7ab101d2-fd7e-47cf-982d-f85b01b5cea8"},"vehicle_type_id":"4","last_reported":1781440420,"current_range_meters":6800,"station_id":"","pricing_plan_id":"cebpf4jnsgd1na2vs0mg"},{"bike_id":"56f2ef51-600d-4f49-a422-ce2f71d0bb3a","system_id":"levelo_inurba_marseille","lat":43.24405,"lon":5.37056,"is_reserved":false,"is_disabled":false,"rental_uris":{"android":"levelo://app?vid=56f2ef51-600d-4f49-a422-ce2f71d0bb3a","ios":"levelo://app?vid=56f2ef51-600d-4f49-a422-ce2f71d0bb3a"},"vehicle_type_id":"4","last_reported":1781440420,"current_range_meters":6800,"station_id":"ce4bhhh2rcd13ifvqfk0","pricing_plan_id":"cebpf4jnsgd1na2vs0mg"},{"bike_id":"a9be34b3-7af7-48b3-85d3-4d6cad2bd612","system_id":"levelo_inurba_marseille","lat":43.29259,"lon":5.40905,"is_reserved":false,"is_disabled":false,"rental_uris":{"android":"levelo://app?vid=a9be34b3-7af7-48b3-85d3-4d6cad2bd612","ios":"levelo://app?vid=a9be34b3-7af7-48b3-85d3-4d6cad2bd612"},"vehicle_type_id":"4","last_reported":1781440420,"current_range_meters":6800,"station_id":"ce4bh192rcd13ifvqdc0","pricing_plan_id":"cebpf4jnsgd1na2vs0mg"},{"bike_id":"72a68596-e19c-4a52-ba10-9bdae69e8aa7","system_id":"levelo_inurba_marseille","lat":43.26485,"lon":5.39561,"is_reserved":false,"is_disabled":true,"rental_uris":{"android":"levelo://app?vid=72a68596-e19c-4a52-ba10-9bdae69e8aa7","ios":"levelo://app?vid=72a68596-e19c-4a52-ba10-9bdae69e8aa7"},"vehicle_type_id":"4","last_reported":1781440420,"current_range_meters":6800,"station_id":"ce4bhi12rcd13ifvqfq0","pricing_plan_id":"cebpf4jnsgd1na2vs0mg"},{"bike_id":"79d3fe55-179a-4dcd-8254-78b6944a2fa4","system_id":"levelo_inurba_marseille","lat":43.2553,"lon":5.3765,"is_reserved":false,"is_disabled":false,"rental_uris":{"android":"levelo://app?vid=79d3fe55-179a-4dcd-8254-78b6944a2fa4","ios":"levelo://app?vid=79d3fe55-179a-4dcd-8254-78b6944a2fa4"},"vehicle_type_id":"4","last_reported":1781440420,"current_range_meters":6800,"station_id":"ce4bhh12rcd13ifvqff0","pricing_plan_id":"cebpf4jnsgd1na2vs0mg"},{"bike_id":"1e9a7ee5-8923-4d2c-bec4-a0618f554436","system_id":"levelo_inurba_marseille","lat":43.3112,"lon":5.39493,"is_reserved":false,"is_disabled":false,"rental_uris":{"android":"levelo://app?vid=1e9a7ee5-8923-4d2c-bec4-a0618f554436","ios":"levelo://app?vid=1e9a7ee5-8923-4d2c-bec4-a0618f554436"},"vehicle_type_id":"4","last_reported":1781440420,"current_range_meters":6800,"station_id":"","pricing_plan_id":"cebpf4jnsgd1na2vs0mg"},{"bike_id":"2efefc03-4edd-4e9c-8c65-243cf8199fbd","system_id":"levelo_inurba_marseille","lat":43.24447,"lon":5.4246,"is_reserved":false,"is_disabled":false,"rental_uris":{"android":"levelo://app?vid=2efefc03-4edd-4e9c-8c65-243cf8199fbd","ios":"levelo://app?vid=2efefc03-4edd-4e9c-8c65-243cf8199fbd"},"vehicle_type_id":"4","last_reported":1781440420,"current_range_meters":6800,"station_id":"","pricing_plan_id":"cebpf4jnsgd1na2vs0mg"},{"bike_id":"eaf7b6af-4b59-4c2d-9b24-3b2ba05e4160","system_id":"levelo_inurba_marseille","lat":43.3169,"lon":5.37668,"is_reserved":false,"is_disabled":false,"rental_uris":{"android":"levelo://app?vid=eaf7b6af-4b59-4c2d-9b24-3b2ba05e4160","ios":"levelo://app?vid=eaf7b6af-4b59-4c2d-9b24-3b2ba05e4160"},"vehicle_type_id":"4","last_reported":1781440420,"current_range_meters":6800,"station_id":"","pricing_plan_id":"cebpf4jnsgd1na2vs0mg"},{"bike_id":"31a5c23d-40d4-417f-98b3-4241d25cf95b","system_id":"levelo_inurba_marseille","lat":43.33373,"lon":5.39318,"is_reserved":false,"is_disabled":false,"rental_uris":{"android":"levelo://app?vid=31a5c23d-40d4-417f-98b3-4241d25cf95b","ios":"levelo://app?vid=31a5c23d-40d4-417f-98b3-4241d25cf95b"},"vehicle_type_id":"4","last_reported":1781440420,"current_range_meters":6800,"station_id":"","pricing_plan_id":"cebpf4jnsgd1na2vs0mg"},{"bike_id":"92392093-a828-41ad-8728-12a3d2dae9ad","system_id":"levelo_inurba_marseille","lat":43.28165,"lon":5.35025,"is_reserved":false,"is_disabled":false,"rental_uris":{"android":"levelo://app?vid=92392093-a828-41ad-8728-12a3d2dae9ad","ios":"levelo://app?vid=92392093-a828-41ad-8728-12a3d2dae9ad"},"vehicle_type_id":"4","last_reported":1781440420,"current_range_meters":6800,"station_id":"","pricing_plan_id":"cebpf4jnsgd1na2vs0mg"},{"bike_id":"f61863b0-f767-44a6-8d35-21d2d9984309","system_id":"levelo_inurba_marseille","lat":43.28924,"lon":5.38843,"is_reserved":false,"is_disabled":false,"rental_uris":{"android":"levelo://app?vid=f61863b0-f767-44a6-8d35-21d2d9984309","ios":"levelo://app?vid=f61863b0-f767-44a6-8d35-21d2d9984309"},"vehicle_type_id":"4","last_reported":1781440420,"current_range_meters":6800,"station_id":"","pricing_plan_id":"cebpf4jnsgd1na2vs0mg"},{"bike_id":"1e846356-253f-4967-bed8-f2e64bb73f91","system_id":"levelo_inurba_marseille","lat":43.28739,"lon":5.35207,"is_reserved":false,"is_disabled":false,"rental_uris":{"android":"levelo://app?vid=1e846356-253f-4967-bed8-f2e64bb73f91","ios":"levelo://app?vid=1e846356-253f-4967-bed8-f2e64bb73f91"},"vehicle_type_id":"4","last_reported":1781440420,"current_range_meters":6800,"station_id":"","pricing_plan_id":"cebpf4jnsgd1na2vs0mg"},{"bike_id":"893d4a98-72b0-4e13-b7a4-bba677617c55","system_id":"levelo_inurba_marseille","lat":43.27902,"lon":5.39152,"is_reserved":false,"is_disabled":false,"rental_uris":{"android":"levelo://app?vid=893d4a98-72b0-4e13-b7a4-bba677617c55","ios":"levelo://app?vid=893d4a98-72b0-4e13-b7a4-bba677617c55"},"vehicle_type_id":"4","last_reported":1781440420,"current_range_meters":6800,"station_id":"","pricing_plan_id":"cebpf4jnsgd1na2vs0mg"},{"bike_id":"9b329a65-7b70-4e26-a818-02e7b725d4f9","system_id":"levelo_inurba_marseille","lat":43.28432,"lon":5.35001,"is_reserved":false,"is_disabled":false,"rental_uris":{"android":"levelo://app?vid=9b329a65-7b70-4e26-a818-02e7b725d4f9","ios":"levelo://app?vid=9b329a65-7b70-4e26-a818-02e7b725d4f9"},"vehicle_type_id":"4","last_reported":1781440420,"current_range_meters":6800,"station_id":"ce4bhbh2rcd13ifvqepg","pricing_plan_id":"cebpf4jnsgd1na2vs0mg"},{"bike_id":"bd14a80d-7334-4287-bdb2-58dca8894c70","system_id":"levelo_inurba_marseille","lat":43.28606,"lon":5.35101,"is_reserved":false,"is_disabled":false,"rental_uris":{"android":"levelo://app?vid=bd14a80d-7334-4287-bdb2-58dca8894c70","ios":"levelo://app?vid=bd14a80d-7334-4287-bdb2-58dca8894c70"},"vehicle_type_id":"4","last_reported":1781440420,"current_range_meters":6800,"station_id":"ce4bhch2rcd13ifvqeug","pricing_plan_id":"cebpf4jnsgd1na2vs0mg"},{"bike_id":"fcbdd51f-fa24-4cc6-b92f-f3288e2d1c12","system_id":"levelo_inurba_marseille","lat":43.28754,"lon":5.46712,"is_reserved":false,"is_disabled":false,"rental_uris":{"android":"levelo://app?vid=fcbdd51f-fa24-4cc6-b92f-f3288e2d1c12","ios":"levelo://app?vid=fcbdd51f-fa24-4cc6-b92f-f3288e2d1c12"},"vehicle_type_id":"4","last_reported":1781440420,"current_range_meters":6800,"station_id":"st_d6tc3vkotcvc738tfjhg","pricing_plan_id":"cebpf4jnsgd1na2vs0mg"},{"bike_id":"9dd4f3a8-39d5-43f7-9f51-1797629b3584","system_id":"levelo_inurba_marseille","lat":43.22525,"lon":5.3484,"is_reserved":false,"is_disabled":false,"rental_uris":{"android":"levelo://app?vid=9dd4f3a8-39d5-43f7-9f51-1797629b3584","ios":"levelo://app?vid=9dd4f3a8-39d5-43f7-9f51-1797629b3584"},"vehicle_type_id":"4","last_reported":1781440420,"current_range_meters":6800,"station_id":"st_cvj5dfep6f1abm77gieg","pricing_plan_id":"cebpf4jnsgd1na2vs0mg"},{"bike_id":"1fe501c8-a9d1-4409-8044-0b525db2c081","system_id":"levelo_inurba_marseille","lat":43.31688,"lon":5.40472,"is_reserved":false,"is_disabled":false,"rental_uris":{"android":"levelo://app?vid=1fe501c8-a9d1-4409-8044-0b525db2c081","ios":"levelo://app?vid=1fe501c8-a9d1-4409-8044-0b525db2c081"},"vehicle_type_id":"4","last_reported":1781440420,"current_range_meters":6800,"station_id":"ce4bh012rcd13ifvqd00","pricing_plan_id":"cebpf4jnsgd1na2vs0mg"},{"bike_id":"423f6182-a443-4c34-a818-81a8277ac3c4","system_id":"levelo_inurba_marseille","lat":43.22528,"lon":5.34831,"is_reserved":false,"is_disabled":false,"rental_uris":{"android":"levelo://app?vid=423f6182-a443-4c34-a818-81a8277ac3c4","ios":"levelo://app?vid=423f6182-a443-4c34-a818-81a8277ac3c4"},"vehicle_type_id":"4","last_reported":1781440420,"current_range_meters":6800,"station_id":"st_cvj5dfep6f1abm77gieg","pricing_plan_id":"cebpf4jnsgd1na2vs0mg"},{"bike_id":"f0a02edb-3131-4a4a-ac11-16d3e0e34271","system_id":"levelo_inurba_marseille","lat":43.30186,"lon":5.38092,"is_reserved":false,"is_disabled":false,"rental_uris":{"android":"levelo://app?vid=f0a02edb-3131-4a4a-ac11-16d3e0e34271","ios":"levelo://app?vid=f0a02edb-3131-4a4a-ac11-16d3e0e34271"},"vehicle_type_id":"4","last_reported":1781440420,"current_range_meters":6800,"station_id":"ce4bgjp2rcd13ifvqbh0","pricing_plan_id":"cebpf4jnsgd1na2vs0mg"},{"bike_id":"54e482a5-c534-4992-ad75-060a9850516b","system_id":"levelo_inurba_marseille","lat":43.3236,"lon":5.3674,"is_reserved":false,"is_disabled":false,"rental_uris":{"android":"levelo://app?vid=54e482a5-c534-4992-ad75-060a9850516b","ios":"levelo://app?vid=54e482a5-c534-4992-ad75-060a9850516b"},"vehicle_type_id":"4","last_reported":1781440420,"current_range_meters":7200,"station_id":"ce4bhsh2rcd13ifvqi2g","pricing_plan_id":"cebpf4jnsgd1na2vs0mg"},{"bike_id":"055420a4-26a4-4ac2-924a-cb2e21a57b7b","system_id":"levelo_inurba_marseille","lat":43.29731,"lon":5.37694,"is_reserved":false,"is_disabled":false,"rental_uris":{"android":"levelo://app?vid=055420a4-26a4-4ac2-924a-cb2e21a57b7b","ios":"levelo://app?vid=055420a4-26a4-4ac2-924a-cb2e21a57b7b"},"vehicle_type_id":"4","last_reported":1781440420,"current_range_meters":7200,"station_id":"ce4bgkh2rcd13ifvqbl0","pricing_plan_id":"cebpf4jnsgd1na2vs0mg"},{"bike_id":"013347b5-f5ff-4484-8a34-93cd1d903112","system_id":"levelo_inurba_marseille","lat":43.28401,"lon":5.34943,"is_reserved":false,"is_disabled":false,"rental_uris":{"android":"levelo://app?vid=013347b5-f5ff-4484-8a34-93cd1d903112","ios":"levelo://app?vid=013347b5-f5ff-4484-8a34-93cd1d903112"},"vehicle_type_id":"4","last_reported":1781440420,"current_range_meters":7200,"station_id":"ce4bhbh2rcd13ifvqepg","pricing_plan_id":"cebpf4jnsgd1na2vs0mg"},{"bike_id":"d1800741-fac1-4624-b995-5a057797ea03","system_id":"levelo_inurba_marseille","lat":43.27237,"lon":5.42367,"is_reserved":false,"is_disabled":false,"rental_uris":{"android":"levelo://app?vid=d1800741-fac1-4624-b995-5a057797ea03","ios":"levelo://app?vid=d1800741-fac1-4624-b995-5a057797ea03"},"vehicle_type_id":"4","last_reported":1781440420,"current_range_meters":7200,"station_id":"","pricing_plan_id":"cebpf4jnsgd1na2vs0mg"},{"bike_id":"39d0c51c-f43f-4de3-bda2-70f364f473b9","system_id":"levelo_inurba_marseille","lat":43.21743,"lon":5.34613,"is_reserved":false,"is_disabled":false,"rental_uris":{"android":"levelo://app?vid=39d0c51c-f43f-4de3-bda2-70f364f473b9","ios":"levelo://app?vid=39d0c51c-f43f-4de3-bda2-70f364f473b9"},"vehicle_type_id":"4","last_reported":1781440420,"current_range_meters":7200,"station_id":"st_cvj6r9ubvosntc0bgbag","pricing_plan_id":"cebpf4jnsgd1na2vs0mg"},{"bike_id":"3a178be9-377a-4a25-b16e-746e76e3b7b2","system_id":"levelo_inurba_marseille","lat":43.26213,"lon":5.38837,"is_reserved":false,"is_disabled":false,"rental_uris":{"android":"levelo://app?vid=3a178be9-377a-4a25-b16e-746e76e3b7b2","ios":"levelo://app?vid=3a178be9-377a-4a25-b16e-746e76e3b7b2"},"vehicle_type_id":"4","last_reported":1781440420,"current_range_meters":7200,"station_id":"","pricing_plan_id":"cebpf4jnsgd1na2vs0mg"},{"bike_id":"c2d1c0df-0e86-4c2a-8f8c-a589e1b924d5","system_id":"levelo_inurba_marseille","lat":43.21733,"lon":5.34611,"is_reserved":false,"is_disabled":false,"rental_uris":{"android":"levelo://app?vid=c2d1c0df-0e86-4c2a-8f8c-a589e1b924d5","ios":"levelo://app?vid=c2d1c0df-0e86-4c2a-8f8c-a589e1b924d5"},"vehicle_type_id":"4","last_reported":1781440420,"current_range_meters":7200,"station_id":"st_cvj6r9ubvosntc0bgbag","pricing_plan_id":"cebpf4jnsgd1na2vs0mg"},{"bike_id":"c800199a-5474-40e1-bb50-c25e031e8be6","system_id":"levelo_inurba_marseille","lat":43.21187,"lon":5.35072,"is_reserved":false,"is_disabled":false,"rental_uris":{"android":"levelo://app?vid=c800199a-5474-40e1-bb50-c25e031e8be6","ios":"levelo://app?vid=c800199a-5474-40e1-bb50-c25e031e8be6"},"vehicle_type_id":"4","last_reported":1781440420,"current_range_meters":7200,"station_id":"st_cvj6sg6p6f1abm77japg","pricing_plan_id":"cebpf4jnsgd1na2vs0mg"},{"bike_id":"54410e0e-88fe-44cb-9cd3-c20ab067986a","system_id":"levelo_inurba_marseille","lat":43.28249,"lon":5.34861,"is_reserved":false,"is_disabled":false,"rental_uris":{"android":"levelo://app?vid=54410e0e-88fe-44cb-9cd3-c20ab067986a","ios":"levelo://app?vid=54410e0e-88fe-44cb-9cd3-c20ab067986a"},"vehicle_type_id":"4","last_reported":1781440420,"current_range_meters":7200,"station_id":"","pricing_plan_id":"cebpf4jnsgd1na2vs0mg"},{"bike_id":"57e80d1f-f68d-4159-a20d-83dda85924dd","system_id":"levelo_inurba_marseille","lat":43.21741,"lon":5.34605,"is_reserved":false,"is_disabled":false,"rental_uris":{"android":"levelo://app?vid=57e80d1f-f68d-4159-a20d-83dda85924dd","ios":"levelo://app?vid=57e80d1f-f68d-4159-a20d-83dda85924dd"},"vehicle_type_id":"4","last_reported":1781440420,"current_range_meters":7200,"station_id":"st_cvj6r9ubvosntc0bgbag","pricing_plan_id":"cebpf4jnsgd1na2vs0mg"},{"bike_id":"64d1def8-2a5b-48eb-8ec4-f02e72a31395","system_id":"levelo_inurba_marseille","lat":43.286897,"lon":5.466812,"is_reserved":false,"is_disabled":false,"rental_uris":{"android":"levelo://app?vid=64d1def8-2a5b-48eb-8ec4-f02e72a31395","ios":"levelo://app?vid=64d1def8-2a5b-48eb-8ec4-f02e72a31395"},"vehicle_type_id":"4","last_reported":1781440420,"current_range_meters":7200,"station_id":"st_d6tc3vkotcvc738tfjhg","pricing_plan_id":"cebpf4jnsgd1na2vs0mg"},{"bike_id":"7eb0e1f6-8b24-42f8-85b5-cd4213042544","system_id":"levelo_inurba_marseille","lat":43.3013,"lon":5.3988,"is_reserved":false,"is_disabled":false,"rental_uris":{"android":"levelo://app?vid=7eb0e1f6-8b24-42f8-85b5-cd4213042544","ios":"levelo://app?vid=7eb0e1f6-8b24-42f8-85b5-cd4213042544"},"vehicle_type_id":"4","last_reported":1781440420,"current_range_meters":7200,"station_id":"ce4bh0h2rcd13ifvqd40","pricing_plan_id":"cebpf4jnsgd1na2vs0mg"},{"bike_id":"3a6b8eab-1ede-4128-9a2b-cf6f9ee89f98","system_id":"levelo_inurba_marseille","lat":43.27881,"lon":5.3801,"is_reserved":false,"is_disabled":false,"rental_uris":{"android":"levelo://app?vid=3a6b8eab-1ede-4128-9a2b-cf6f9ee89f98","ios":"levelo://app?vid=3a6b8eab-1ede-4128-9a2b-cf6f9ee89f98"},"vehicle_type_id":"4","last_reported":1781440420,"current_range_meters":7200,"station_id":"ce4bhf92rcd13ifvqf50","pricing_plan_id":"cebpf4jnsgd1na2vs0mg"},{"bike_id":"e6eda01b-4746-4a1b-b8bd-bc2e29bf1778","system_id":"levelo_inurba_marseille","lat":43.28456,"lon":5.48387,"is_reserved":false,"is_disabled":false,"rental_uris":{"android":"levelo://app?vid=e6eda01b-4746-4a1b-b8bd-bc2e29bf1778","ios":"levelo://app?vid=e6eda01b-4746-4a1b-b8bd-bc2e29bf1778"},"vehicle_type_id":"4","last_reported":1781440420,"current_range_meters":7200,"station_id":"st_d3svhcjqgbts73a3dn0g","pricing_plan_id":"cebpf4jnsgd1na2vs0mg"},{"bike_id":"d9df716e-04c3-410e-a684-88b6b88fa6c5","system_id":"levelo_inurba_marseille","lat":43.24413,"lon":5.37074,"is_reserved":false,"is_disabled":true,"rental_uris":{"android":"levelo://app?vid=d9df716e-04c3-410e-a684-88b6b88fa6c5","ios":"levelo://app?vid=d9df716e-04c3-410e-a684-88b6b88fa6c5"},"vehicle_type_id":"4","last_reported":1781440420,"current_range_meters":7200,"station_id":"ce4bhhh2rcd13ifvqfk0","pricing_plan_id":"cebpf4jnsgd1na2vs0mg"},{"bike_id":"b0481780-0b07-40f4-9d72-761d252f9a7d","system_id":"levelo_inurba_marseille","lat":43.2619,"lon":5.37451,"is_reserved":false,"is_disabled":false,"rental_uris":{"android":"levelo://app?vid=b0481780-0b07-40f4-9d72-761d252f9a7d","ios":"levelo://app?vid=b0481780-0b07-40f4-9d72-761d252f9a7d"},"vehicle_type_id":"4","last_reported":1781440420,"current_range_meters":7200,"station_id":"ce4bhgp2rcd13ifvqfc0","pricing_plan_id":"cebpf4jnsgd1na2vs0mg"},{"bike_id":"56b376d5-9b28-4e92-ac45-b76b482244af","system_id":"levelo_inurba_marseille","lat":43.31897,"lon":5.36808,"is_reserved":false,"is_disabled":false,"rental_uris":{"android":"levelo://app?vid=56b376d5-9b28-4e92-ac45-b76b482244af","ios":"levelo://app?vid=56b376d5-9b28-4e92-ac45-b76b482244af"},"vehicle_type_id":"4","last_reported":1781440420,"current_range_meters":7200,"station_id":"st_d6o2h0d0559c73evc1b0","pricing_plan_id":"cebpf4jnsgd1na2vs0mg"},{"bike_id":"c1d734fd-9377-400d-8dda-b844a392e7e1","system_id":"levelo_inurba_marseille","lat":43.28382,"lon":5.38677,"is_reserved":false,"is_disabled":true,"rental_uris":{"android":"levelo://app?vid=c1d734fd-9377-400d-8dda-b844a392e7e1","ios":"levelo://app?vid=c1d734fd-9377-400d-8dda-b844a392e7e1"},"vehicle_type_id":"4","last_reported":1781440420,"current_range_meters":7200,"station_id":"ce4bh492rcd13ifvqdvg","pricing_plan_id":"cebpf4jnsgd1na2vs0mg"},{"bike_id":"d0dab105-ce32-47f1-ba84-4ee150a03bbd","system_id":"levelo_inurba_marseille","lat":43.2572,"lon":5.41102,"is_reserved":false,"is_disabled":false,"rental_uris":{"android":"levelo://app?vid=d0dab105-ce32-47f1-ba84-4ee150a03bbd","ios":"levelo://app?vid=d0dab105-ce32-47f1-ba84-4ee150a03bbd"},"vehicle_type_id":"4","last_reported":1781440420,"current_range_meters":7200,"station_id":"ce4bhkp2rcd13ifvqgd0","pricing_plan_id":"cebpf4jnsgd1na2vs0mg"},{"bike_id":"fa2c05a1-b0b5-4afe-b939-a50eb32528d8","system_id":"levelo_inurba_marseille","lat":43.2313,"lon":5.43714,"is_reserved":false,"is_disabled":false,"rental_uris":{"android":"levelo://app?vid=fa2c05a1-b0b5-4afe-b939-a50eb32528d8","ios":"levelo://app?vid=fa2c05a1-b0b5-4afe-b939-a50eb32528d8"},"vehicle_type_id":"4","last_reported":1781440420,"current_range_meters":7200,"station_id":"ce4bhmp2rcd13ifvqgog","pricing_plan_id":"cebpf4jnsgd1na2vs0mg"},{"bike_id":"58df25d0-bd57-4415-b2e9-39adcdff72a1","system_id":"levelo_inurba_marseille","lat":43.29154,"lon":5.37166,"is_reserved":false,"is_disabled":true,"rental_uris":{"android":"levelo://app?vid=58df25d0-bd57-4415-b2e9-39adcdff72a1","ios":"levelo://app?vid=58df25d0-bd57-4415-b2e9-39adcdff72a1"},"vehicle_type_id":"4","last_reported":1781440420,"current_range_meters":7200,"station_id":"ce4bha92rcd13ifvqeh0","pricing_plan_id":"cebpf4jnsgd1na2vs0mg"},{"bike_id":"e5112433-aa95-4996-836d-6a5e3dd047ee","system_id":"levelo_inurba_marseille","lat":43.3024,"lon":5.37989,"is_reserved":false,"is_disabled":false,"rental_uris":{"android":"levelo://app?vid=e5112433-aa95-4996-836d-6a5e3dd047ee","ios":"levelo://app?vid=e5112433-aa95-4996-836d-6a5e3dd047ee"},"vehicle_type_id":"4","last_reported":1781440420,"current_range_meters":7200,"station_id":"","pricing_plan_id":"cebpf4jnsgd1na2vs0mg"},{"bike_id":"504b1786-1594-4fbd-a43d-b972e3c54b50","system_id":"levelo_inurba_marseille","lat":43.29585,"lon":5.3751,"is_reserved":false,"is_disabled":false,"rental_uris":{"android":"levelo://app?vid=504b1786-1594-4fbd-a43d-b972e3c54b50","ios":"levelo://app?vid=504b1786-1594-4fbd-a43d-b972e3c54b50"},"vehicle_type_id":"4","last_reported":1781440420,"current_range_meters":7200,"station_id":"ce4bgh92rcd13ifvqb50","pricing_plan_id":"cebpf4jnsgd1na2vs0mg"},{"bike_id":"1cc1e854-a64b-4eaa-bd00-1c309caff36d","system_id":"levelo_inurba_marseille","lat":43.28625,"lon":5.35098,"is_reserved":false,"is_disabled":true,"rental_uris":{"android":"levelo://app?vid=1cc1e854-a64b-4eaa-bd00-1c309caff36d","ios":"levelo://app?vid=1cc1e854-a64b-4eaa-bd00-1c309caff36d"},"vehicle_type_id":"4","last_reported":1781440420,"current_range_meters":7200,"station_id":"ce4bhch2rcd13ifvqeug","pricing_plan_id":"cebpf4jnsgd1na2vs0mg"},{"bike_id":"bbcfa845-04e7-4147-af58-e656c6582dc2","system_id":"levelo_inurba_marseille","lat":43.27655,"lon":5.35883,"is_reserved":false,"is_disabled":false,"rental_uris":{"android":"levelo://app?vid=bbcfa845-04e7-4147-af58-e656c6582dc2","ios":"levelo://app?vid=bbcfa845-04e7-4147-af58-e656c6582dc2"},"vehicle_type_id":"4","last_reported":1781440420,"current_range_meters":7200,"station_id":"","pricing_plan_id":"cebpf4jnsgd1na2vs0mg"},{"bike_id":"7272f913-724d-4b58-b6a6-688b3e04b242","system_id":"levelo_inurba_marseille","lat":43.24693,"lon":5.41273,"is_reserved":false,"is_disabled":false,"rental_uris":{"android":"levelo://app?vid=7272f913-724d-4b58-b6a6-688b3e04b242","ios":"levelo://app?vid=7272f913-724d-4b58-b6a6-688b3e04b242"},"vehicle_type_id":"4","last_reported":1781440420,"current_range_meters":7200,"station_id":"","pricing_plan_id":"cebpf4jnsgd1na2vs0mg"},{"bike_id":"4e6d713d-5d98-4f27-9e30-016f10070add","system_id":"levelo_inurba_marseille","lat":43.24451,"lon":5.42531,"is_reserved":false,"is_disabled":false,"rental_uris":{"android":"levelo://app?vid=4e6d713d-5d98-4f27-9e30-016f10070add","ios":"levelo://app?vid=4e6d713d-5d98-4f27-9e30-016f10070add"},"vehicle_type_id":"4","last_reported":1781440420,"current_range_meters":7200,"station_id":"st_d4a3vfp97mjs738cd8kg","pricing_plan_id":"cebpf4jnsgd1na2vs0mg"},{"bike_id":"fcf4d312-9968-4443-82f2-b045268fd358","system_id":"levelo_inurba_marseille","lat":43.29921,"lon":5.41002,"is_reserved":false,"is_disabled":false,"rental_uris":{"android":"levelo://app?vid=fcf4d312-9968-4443-82f2-b045268fd358","ios":"levelo://app?vid=fcf4d312-9968-4443-82f2-b045268fd358"},"vehicle_type_id":"4","last_reported":1781440420,"current_range_meters":7200,"station_id":"","pricing_plan_id":"cebpf4jnsgd1na2vs0mg"},{"bike_id":"a0967682-704e-4097-9142-482a1f2d36c9","system_id":"levelo_inurba_marseille","lat":43.21185,"lon":5.35063,"is_reserved":false,"is_disabled":true,"rental_uris":{"android":"levelo://app?vid=a0967682-704e-4097-9142-482a1f2d36c9","ios":"levelo://app?vid=a0967682-704e-4097-9142-482a1f2d36c9"},"vehicle_type_id":"4","last_reported":1781440420,"current_range_meters":7200,"station_id":"st_cvj6sg6p6f1abm77japg","pricing_plan_id":"cebpf4jnsgd1na2vs0mg"},{"bike_id":"d69d9eb9-ea1f-4071-869d-601ac21bdfd9","system_id":"levelo_inurba_marseille","lat":43.30144,"lon":5.37495,"is_reserved":false,"is_disabled":false,"rental_uris":{"android":"levelo://app?vid=d69d9eb9-ea1f-4071-869d-601ac21bdfd9","ios":"levelo://app?vid=d69d9eb9-ea1f-4071-869d-601ac21bdfd9"},"vehicle_type_id":"4","last_reported":1781440420,"current_range_meters":8000,"station_id":"ce4bgs92rcd13ifvqcc0","pricing_plan_id":"cebpf4jnsgd1na2vs0mg"},{"bike_id":"56bb3791-0b7c-4274-94a5-f0f179ab08b3","system_id":"levelo_inurba_marseille","lat":43.30935,"lon":5.40152,"is_reserved":false,"is_disabled":false,"rental_uris":{"android":"levelo://app?vid=56bb3791-0b7c-4274-94a5-f0f179ab08b3","ios":"levelo://app?vid=56bb3791-0b7c-4274-94a5-f0f179ab08b3"},"vehicle_type_id":"4","last_reported":1781440420,"current_range_meters":8000,"station_id":"ce4bgvp2rcd13ifvqct0","pricing_plan_id":"cebpf4jnsgd1na2vs0mg"},{"bike_id":"c1b158b5-fdc9-4eb0-8418-c97cbe8616d7","system_id":"levelo_inurba_marseille","lat":43.30301,"lon":5.38634,"is_reserved":false,"is_disabled":false,"rental_uris":{"android":"levelo://app?vid=c1b158b5-fdc9-4eb0-8418-c97cbe8616d7","ios":"levelo://app?vid=c1b158b5-fdc9-4eb0-8418-c97cbe8616d7"},"vehicle_type_id":"4","last_reported":1781440420,"current_range_meters":8000,"station_id":"","pricing_plan_id":"cebpf4jnsgd1na2vs0mg"},{"bike_id":"25eb5048-129e-4d8a-ab38-a0633618891a","system_id":"levelo_inurba_marseille","lat":43.25855,"lon":5.39935,"is_reserved":false,"is_disabled":false,"rental_uris":{"android":"levelo://app?vid=25eb5048-129e-4d8a-ab38-a0633618891a","ios":"levelo://app?vid=25eb5048-129e-4d8a-ab38-a0633618891a"},"vehicle_type_id":"4","last_reported":1781440420,"current_range_meters":8000,"station_id":"ce4bhl92rcd13ifvqghg","pricing_plan_id":"cebpf4jnsgd1na2vs0mg"},{"bike_id":"a08e46ab-d7ed-406f-af3c-1a36579baa76","system_id":"levelo_inurba_marseille","lat":43.28174,"lon":5.42647,"is_reserved":false,"is_disabled":false,"rental_uris":{"android":"levelo://app?vid=a08e46ab-d7ed-406f-af3c-1a36579baa76","ios":"levelo://app?vid=a08e46ab-d7ed-406f-af3c-1a36579baa76"},"vehicle_type_id":"4","last_reported":1781440420,"current_range_meters":8000,"station_id":"ce4bhnh2rcd13ifvqgug","pricing_plan_id":"cebpf4jnsgd1na2vs0mg"},{"bike_id":"e951097c-25bc-4ef7-97e6-1783eeefa1c0","system_id":"levelo_inurba_marseille","lat":43.33647,"lon":5.41939,"is_reserved":false,"is_disabled":false,"rental_uris":{"android":"levelo://app?vid=e951097c-25bc-4ef7-97e6-1783eeefa1c0","ios":"levelo://app?vid=e951097c-25bc-4ef7-97e6-1783eeefa1c0"},"vehicle_type_id":"4","last_reported":1781440420,"current_range_meters":8000,"station_id":"","pricing_plan_id":"cebpf4jnsgd1na2vs0mg"},{"bike_id":"6c2ad55a-7a93-482d-ad15-fccce86cb438","system_id":"levelo_inurba_marseille","lat":43.26545,"lon":5.37292,"is_reserved":false,"is_disabled":false,"rental_uris":{"android":"levelo://app?vid=6c2ad55a-7a93-482d-ad15-fccce86cb438","ios":"levelo://app?vid=6c2ad55a-7a93-482d-ad15-fccce86cb438"},"vehicle_type_id":"4","last_reported":1781440420,"current_range_meters":8000,"station_id":"ce4bhg12rcd13ifvqf70","pricing_plan_id":"cebpf4jnsgd1na2vs0mg"},{"bike_id":"da15c788-c8d8-49d8-bc7f-d521b9e32c05","system_id":"levelo_inurba_marseille","lat":43.28428,"lon":5.34996,"is_reserved":false,"is_disabled":false,"rental_uris":{"android":"levelo://app?vid=da15c788-c8d8-49d8-bc7f-d521b9e32c05","ios":"levelo://app?vid=da15c788-c8d8-49d8-bc7f-d521b9e32c05"},"vehicle_type_id":"4","last_reported":1781440420,"current_range_meters":8000,"station_id":"ce4bhbh2rcd13ifvqepg","pricing_plan_id":"cebpf4jnsgd1na2vs0mg"},{"bike_id":"e91d4c37-49e1-4eb2-811e-d4c855f1b23c","system_id":"levelo_inurba_marseille","lat":43.31712,"lon":5.37834,"is_reserved":false,"is_disabled":false,"rental_uris":{"android":"levelo://app?vid=e91d4c37-49e1-4eb2-811e-d4c855f1b23c","ios":"levelo://app?vid=e91d4c37-49e1-4eb2-811e-d4c855f1b23c"},"vehicle_type_id":"4","last_reported":1781440420,"current_range_meters":8000,"station_id":"","pricing_plan_id":"cebpf4jnsgd1na2vs0mg"},{"bike_id":"aff014c2-15fa-45d6-bb80-ee15e1a06979","system_id":"levelo_inurba_marseille","lat":43.23805,"lon":5.3664,"is_reserved":false,"is_disabled":false,"rental_uris":{"android":"levelo://app?vid=aff014c2-15fa-45d6-bb80-ee15e1a06979","ios":"levelo://app?vid=aff014c2-15fa-45d6-bb80-ee15e1a06979"},"vehicle_type_id":"4","last_reported":1781440420,"current_range_meters":8000,"station_id":"st_d3nk18o9ro0c73en2l3g","pricing_plan_id":"cebpf4jnsgd1na2vs0mg"},{"bike_id":"f10274f0-d5a3-4847-854d-5e53c5520946","system_id":"levelo_inurba_marseille","lat":43.32349,"lon":5.36726,"is_reserved":false,"is_disabled":false,"rental_uris":{"android":"levelo://app?vid=f10274f0-d5a3-4847-854d-5e53c5520946","ios":"levelo://app?vid=f10274f0-d5a3-4847-854d-5e53c5520946"},"vehicle_type_id":"4","last_reported":1781440420,"current_range_meters":8000,"station_id":"ce4bhsh2rcd13ifvqi2g","pricing_plan_id":"cebpf4jnsgd1na2vs0mg"},{"bike_id":"a4edeb52-13ba-476f-a9de-2a431575e0f4","system_id":"levelo_inurba_marseille","lat":43.3037,"lon":5.4249,"is_reserved":false,"is_disabled":false,"rental_uris":{"android":"levelo://app?vid=a4edeb52-13ba-476f-a9de-2a431575e0f4","ios":"levelo://app?vid=a4edeb52-13ba-476f-a9de-2a431575e0f4"},"vehicle_type_id":"4","last_reported":1781440420,"current_range_meters":8000,"station_id":"ce4bhoh2rcd13ifvqh6g","pricing_plan_id":"cebpf4jnsgd1na2vs0mg"},{"bike_id":"000925cd-1ae9-4d04-a0dc-1e084bcc4c5c","system_id":"levelo_inurba_marseille","lat":43.32112,"lon":5.36802,"is_reserved":false,"is_disabled":false,"rental_uris":{"android":"levelo://app?vid=000925cd-1ae9-4d04-a0dc-1e084bcc4c5c","ios":"levelo://app?vid=000925cd-1ae9-4d04-a0dc-1e084bcc4c5c"},"vehicle_type_id":"4","last_reported":1781440420,"current_range_meters":8000,"station_id":"ce4bhrh2rcd13ifvqhug","pricing_plan_id":"cebpf4jnsgd1na2vs0mg"},{"bike_id":"520e7007-685d-436d-8d38-db025ae27a9c","system_id":"levelo_inurba_marseille","lat":43.33734,"lon":5.392,"is_reserved":false,"is_disabled":false,"rental_uris":{"android":"levelo://app?vid=520e7007-685d-436d-8d38-db025ae27a9c","ios":"levelo://app?vid=520e7007-685d-436d-8d38-db025ae27a9c"},"vehicle_type_id":"4","last_reported":1781440420,"current_range_meters":8000,"station_id":"ce4bhr92rcd13ifvqhsg","pricing_plan_id":"cebpf4jnsgd1na2vs0mg"},{"bike_id":"4b51180a-f031-4891-9ca2-75426db627c3","system_id":"levelo_inurba_marseille","lat":43.26554,"lon":5.39447,"is_reserved":false,"is_disabled":false,"rental_uris":{"android":"levelo://app?vid=4b51180a-f031-4891-9ca2-75426db627c3","ios":"levelo://app?vid=4b51180a-f031-4891-9ca2-75426db627c3"},"vehicle_type_id":"4","last_reported":1781440420,"current_range_meters":8000,"station_id":"","pricing_plan_id":"cebpf4jnsgd1na2vs0mg"},{"bike_id":"795c8263-b8d9-4fb4-98a6-7e3fbac3000a","system_id":"levelo_inurba_marseille","lat":43.23961,"lon":5.36642,"is_reserved":false,"is_disabled":false,"rental_uris":{"android":"levelo://app?vid=795c8263-b8d9-4fb4-98a6-7e3fbac3000a","ios":"levelo://app?vid=795c8263-b8d9-4fb4-98a6-7e3fbac3000a"},"vehicle_type_id":"4","last_reported":1781440420,"current_range_meters":8000,"station_id":"ce4bhi12rcd13ifvqfp0","pricing_plan_id":"cebpf4jnsgd1na2vs0mg"},{"bike_id":"eb0c1c7f-47b8-4a10-8001-0064309e6c74","system_id":"levelo_inurba_marseille","lat":43.22535,"lon":5.34828,"is_reserved":false,"is_disabled":false,"rental_uris":{"android":"levelo://app?vid=eb0c1c7f-47b8-4a10-8001-0064309e6c74","ios":"levelo://app?vid=eb0c1c7f-47b8-4a10-8001-0064309e6c74"},"vehicle_type_id":"4","last_reported":1781440420,"current_range_meters":8000,"station_id":"st_cvj5dfep6f1abm77gieg","pricing_plan_id":"cebpf4jnsgd1na2vs0mg"},{"bike_id":"0630f1a9-8739-454b-b039-f139598f8686","system_id":"levelo_inurba_marseille","lat":43.29722,"lon":5.37211,"is_reserved":false,"is_disabled":false,"rental_uris":{"android":"levelo://app?vid=0630f1a9-8739-454b-b039-f139598f8686","ios":"levelo://app?vid=0630f1a9-8739-454b-b039-f139598f8686"},"vehicle_type_id":"4","last_reported":1781440420,"current_range_meters":8000,"station_id":"","pricing_plan_id":"cebpf4jnsgd1na2vs0mg"},{"bike_id":"c01f6dec-89dd-472c-9d53-44f20e2f469d","system_id":"levelo_inurba_marseille","lat":43.2804,"lon":5.34831,"is_reserved":false,"is_disabled":false,"rental_uris":{"android":"levelo://app?vid=c01f6dec-89dd-472c-9d53-44f20e2f469d","ios":"levelo://app?vid=c01f6dec-89dd-472c-9d53-44f20e2f469d"},"vehicle_type_id":"4","last_reported":1781440420,"current_range_meters":8000,"station_id":"","pricing_plan_id":"cebpf4jnsgd1na2vs0mg"},{"bike_id":"9059db4d-53f9-4bc2-96ea-2911cca7514a","system_id":"levelo_inurba_marseille","lat":43.21257,"lon":5.35143,"is_reserved":false,"is_disabled":false,"rental_uris":{"android":"levelo://app?vid=9059db4d-53f9-4bc2-96ea-2911cca7514a","ios":"levelo://app?vid=9059db4d-53f9-4bc2-96ea-2911cca7514a"},"vehicle_type_id":"4","last_reported":1781440420,"current_range_meters":8000,"station_id":"","pricing_plan_id":"cebpf4jnsgd1na2vs0mg"},{"bike_id":"8201d4c2-f665-4db0-aeb7-7b4a87145f87","system_id":"levelo_inurba_marseille","lat":43.25702,"lon":5.41126,"is_reserved":false,"is_disabled":false,"rental_uris":{"android":"levelo://app?vid=8201d4c2-f665-4db0-aeb7-7b4a87145f87","ios":"levelo://app?vid=8201d4c2-f665-4db0-aeb7-7b4a87145f87"},"vehicle_type_id":"4","last_reported":1781440420,"current_range_meters":8000,"station_id":"ce4bhkp2rcd13ifvqgd0","pricing_plan_id":"cebpf4jnsgd1na2vs0mg"},{"bike_id":"06529429-997b-4428-bb18-7a4362f7cf61","system_id":"levelo_inurba_marseille","lat":43.25123,"lon":5.40361,"is_reserved":false,"is_disabled":false,"rental_uris":{"android":"levelo://app?vid=06529429-997b-4428-bb18-7a4362f7cf61","ios":"levelo://app?vid=06529429-997b-4428-bb18-7a4362f7cf61"},"vehicle_type_id":"4","last_reported":1781440420,"current_range_meters":8000,"station_id":"ce4bhlh2rcd13ifvqgig","pricing_plan_id":"cebpf4jnsgd1na2vs0mg"},{"bike_id":"e386d0c8-e4b4-44d0-b548-8a70c615d57c","system_id":"levelo_inurba_marseille","lat":43.27049,"lon":5.40264,"is_reserved":false,"is_disabled":true,"rental_uris":{"android":"levelo://app?vid=e386d0c8-e4b4-44d0-b548-8a70c615d57c","ios":"levelo://app?vid=e386d0c8-e4b4-44d0-b548-8a70c615d57c"},"vehicle_type_id":"4","last_reported":1781440420,"current_range_meters":8400,"station_id":"ce4bhk92rcd13ifvqgc0","pricing_plan_id":"cebpf4jnsgd1na2vs0mg"},{"bike_id":"1a8cb47a-5d59-4c6d-ad62-c1db110b52de","system_id":"levelo_inurba_marseille","lat":43.23958,"lon":5.36631,"is_reserved":false,"is_disabled":false,"rental_uris":{"android":"levelo://app?vid=1a8cb47a-5d59-4c6d-ad62-c1db110b52de","ios":"levelo://app?vid=1a8cb47a-5d59-4c6d-ad62-c1db110b52de"},"vehicle_type_id":"4","last_reported":1781440420,"current_range_meters":8400,"station_id":"ce4bhi12rcd13ifvqfp0","pricing_plan_id":"cebpf4jnsgd1na2vs0mg"},{"bike_id":"182d1bf5-086e-469e-a37a-df64c4d0603f","system_id":"levelo_inurba_marseille","lat":43.31524,"lon":5.38606,"is_reserved":false,"is_disabled":false,"rental_uris":{"android":"levelo://app?vid=182d1bf5-086e-469e-a37a-df64c4d0603f","ios":"levelo://app?vid=182d1bf5-086e-469e-a37a-df64c4d0603f"},"vehicle_type_id":"4","last_reported":1781440420,"current_range_meters":8400,"station_id":"","pricing_plan_id":"cebpf4jnsgd1na2vs0mg"},{"bike_id":"4d8df8ec-f6c0-4c39-8cac-00a49ce6968d","system_id":"levelo_inurba_marseille","lat":43.29073,"lon":5.37185,"is_reserved":false,"is_disabled":true,"rental_uris":{"android":"levelo://app?vid=4d8df8ec-f6c0-4c39-8cac-00a49ce6968d","ios":"levelo://app?vid=4d8df8ec-f6c0-4c39-8cac-00a49ce6968d"},"vehicle_type_id":"4","last_reported":1781440420,"current_range_meters":8400,"station_id":"ce4bh5p2rcd13ifvqe4g","pricing_plan_id":"cebpf4jnsgd1na2vs0mg"},{"bike_id":"bb2b8605-01de-4068-976a-c32a5cbafae1","system_id":"levelo_inurba_marseille","lat":43.2849,"lon":5.48403,"is_reserved":false,"is_disabled":false,"rental_uris":{"android":"levelo://app?vid=bb2b8605-01de-4068-976a-c32a5cbafae1","ios":"levelo://app?vid=bb2b8605-01de-4068-976a-c32a5cbafae1"},"vehicle_type_id":"4","last_reported":1781440420,"current_range_meters":8400,"station_id":"st_d3svhcjqgbts73a3dn0g","pricing_plan_id":"cebpf4jnsgd1na2vs0mg"},{"bike_id":"5762482e-dee2-42a8-859f-f24d2e7583cc","system_id":"levelo_inurba_marseille","lat":43.23898,"lon":5.37456,"is_reserved":false,"is_disabled":false,"rental_uris":{"android":"levelo://app?vid=5762482e-dee2-42a8-859f-f24d2e7583cc","ios":"levelo://app?vid=5762482e-dee2-42a8-859f-f24d2e7583cc"},"vehicle_type_id":"4","last_reported":1781440420,"current_range_meters":8400,"station_id":"st_d6sm7csbq4hs73f8fpjg","pricing_plan_id":"cebpf4jnsgd1na2vs0mg"},{"bike_id":"25be4c42-672c-49a7-89ee-e9ffe568c73f","system_id":"levelo_inurba_marseille","lat":43.24334,"lon":5.37124,"is_reserved":false,"is_disabled":false,"rental_uris":{"android":"levelo://app?vid=25be4c42-672c-49a7-89ee-e9ffe568c73f","ios":"levelo://app?vid=25be4c42-672c-49a7-89ee-e9ffe568c73f"},"vehicle_type_id":"4","last_reported":1781440420,"current_range_meters":8400,"station_id":"","pricing_plan_id":"cebpf4jnsgd1na2vs0mg"},{"bike_id":"b6ea83a2-ada5-4057-8da1-d80fd24437d9","system_id":"levelo_inurba_marseille","lat":43.3096,"lon":5.39052,"is_reserved":false,"is_disabled":true,"rental_uris":{"android":"levelo://app?vid=b6ea83a2-ada5-4057-8da1-d80fd24437d9","ios":"levelo://app?vid=b6ea83a2-ada5-4057-8da1-d80fd24437d9"},"vehicle_type_id":"4","last_reported":1781440420,"current_range_meters":8400,"station_id":"ce4bgup2rcd13ifvqco0","pricing_plan_id":"cebpf4jnsgd1na2vs0mg"},{"bike_id":"a3fa242f-3e57-4794-9540-eaa70705caf9","system_id":"levelo_inurba_marseille","lat":43.29273,"lon":5.37642,"is_reserved":false,"is_disabled":false,"rental_uris":{"android":"levelo://app?vid=a3fa242f-3e57-4794-9540-eaa70705caf9","ios":"levelo://app?vid=a3fa242f-3e57-4794-9540-eaa70705caf9"},"vehicle_type_id":"4","last_reported":1781440420,"current_range_meters":8400,"station_id":"ce4bgi12rcd13ifvqb80","pricing_plan_id":"cebpf4jnsgd1na2vs0mg"},{"bike_id":"3f79f6bd-6890-498c-9016-7fee5e242811","system_id":"levelo_inurba_marseille","lat":43.23199,"lon":5.35607,"is_reserved":false,"is_disabled":false,"rental_uris":{"android":"levelo://app?vid=3f79f6bd-6890-498c-9016-7fee5e242811","ios":"levelo://app?vid=3f79f6bd-6890-498c-9016-7fee5e242811"},"vehicle_type_id":"4","last_reported":1781440420,"current_range_meters":8400,"station_id":"ce4bhu92rcd13ifvqi70","pricing_plan_id":"cebpf4jnsgd1na2vs0mg"},{"bike_id":"c5f9f740-6a30-451e-a20f-5b296e4ae0bf","system_id":"levelo_inurba_marseille","lat":43.24381,"lon":5.37059,"is_reserved":false,"is_disabled":false,"rental_uris":{"android":"levelo://app?vid=c5f9f740-6a30-451e-a20f-5b296e4ae0bf","ios":"levelo://app?vid=c5f9f740-6a30-451e-a20f-5b296e4ae0bf"},"vehicle_type_id":"4","last_reported":1781440420,"current_range_meters":8400,"station_id":"ce4bhhh2rcd13ifvqfk0","pricing_plan_id":"cebpf4jnsgd1na2vs0mg"},{"bike_id":"eb61e911-b9cb-41ca-b7e4-b5bcd03e3551","system_id":"levelo_inurba_marseille","lat":43.30545,"lon":5.36526,"is_reserved":false,"is_disabled":false,"rental_uris":{"android":"levelo://app?vid=eb61e911-b9cb-41ca-b7e4-b5bcd03e3551","ios":"levelo://app?vid=eb61e911-b9cb-41ca-b7e4-b5bcd03e3551"},"vehicle_type_id":"4","last_reported":1781440420,"current_range_meters":8400,"station_id":"ce4bgs12rcd13ifvqcag","pricing_plan_id":"cebpf4jnsgd1na2vs0mg"},{"bike_id":"8e716518-f7dc-4388-b9a9-fa4a653bc3df","system_id":"levelo_inurba_marseille","lat":43.29589,"lon":5.37525,"is_reserved":false,"is_disabled":false,"rental_uris":{"android":"levelo://app?vid=8e716518-f7dc-4388-b9a9-fa4a653bc3df","ios":"levelo://app?vid=8e716518-f7dc-4388-b9a9-fa4a653bc3df"},"vehicle_type_id":"4","last_reported":1781440420,"current_range_meters":8400,"station_id":"ce4bgh92rcd13ifvqb50","pricing_plan_id":"cebpf4jnsgd1na2vs0mg"},{"bike_id":"f6157e06-20b6-4de8-9777-c5f812301933","system_id":"levelo_inurba_marseille","lat":43.32103,"lon":5.36775,"is_reserved":false,"is_disabled":false,"rental_uris":{"android":"levelo://app?vid=f6157e06-20b6-4de8-9777-c5f812301933","ios":"levelo://app?vid=f6157e06-20b6-4de8-9777-c5f812301933"},"vehicle_type_id":"4","last_reported":1781440420,"current_range_meters":8400,"station_id":"ce4bhrh2rcd13ifvqhug","pricing_plan_id":"cebpf4jnsgd1na2vs0mg"},{"bike_id":"2a0a750e-a03f-4f39-aac5-af4c5216bda4","system_id":"levelo_inurba_marseille","lat":43.3078,"lon":5.37652,"is_reserved":false,"is_disabled":false,"rental_uris":{"android":"levelo://app?vid=2a0a750e-a03f-4f39-aac5-af4c5216bda4","ios":"levelo://app?vid=2a0a750e-a03f-4f39-aac5-af4c5216bda4"},"vehicle_type_id":"4","last_reported":1781440420,"current_range_meters":8400,"station_id":"ce4bgv92rcd13ifvqcq0","pricing_plan_id":"cebpf4jnsgd1na2vs0mg"},{"bike_id":"10c3d2ae-f5da-41e9-ad71-c65b3c5f004a","system_id":"levelo_inurba_marseille","lat":43.225401,"lon":5.348242,"is_reserved":false,"is_disabled":false,"rental_uris":{"android":"levelo://app?vid=10c3d2ae-f5da-41e9-ad71-c65b3c5f004a","ios":"levelo://app?vid=10c3d2ae-f5da-41e9-ad71-c65b3c5f004a"},"vehicle_type_id":"4","last_reported":1781440420,"current_range_meters":8400,"station_id":"st_cvj5dfep6f1abm77gieg","pricing_plan_id":"cebpf4jnsgd1na2vs0mg"},