{"last_updated":1738336123,"ttl":60,"version":"2.2","data":{"bikes":[{"bike_id":"fb75187c-0661-439a-ba7a-c096894007f0","system_id":"levelo_inurba_marseille","lat":43.29224,"lon":5.36055,"is_reserved":false,"is_disabled":false,"rental_uris":{"android":"levelo://app?vid=fb75187c-0661-439a-ba7a-c096894007f0","ios":"levelo://app?vid=fb75187c-0661-439a-ba7a-c096894007f0"},"vehicle_type_id":"4","last_reported":1738336124,"current_range_meters":38800,"station_id":"ce4bhbh2rcd13ifvqeqg","pricing_plan_id":"cebpf4jnsgd1na2vs0mg"},{"bike_id":"31270426-539a-44d7-942e-c2e16893d54c","system_id":"levelo_inurba_marseille","lat":43.29577,"lon":5.37508,"is_reserved":false,"is_disabled":false,"rental_uris":{"android":"levelo://app?vid=31270426-539a-44d7-942e-c2e16893d54c","ios":"levelo://app?vid=31270426-539a-44d7-942e-c2e16893d54c"},"vehicle_type_id":"4","last_reported":1738336124,"current_range_meters":36800,"station_id":"ce4bgh92rcd13ifvqb50","pricing_plan_id":"cebpf4jnsgd1na2vs0mg"},{"bike_id":"9ddcbbf4-a411-4ab3-b0fe-303403a8515c","system_id":"levelo_inurba_marseille","lat":43.25727,"lon":5.41114,"is_reserved":false,"is_disabled":false,"rental_uris":{"android":"levelo://app?vid=9ddcbbf4-a411-4ab3-b0fe-303403a8515c","ios":"levelo://app?vid=9ddcbbf4-a411-4ab3-b0fe-303403a8515c"},"vehicle_type_id":"4","last_reported":1738336124,"current_range_meters":39200,"station_id":"ce4bhkp2rcd13ifvqgd0","pricing_plan_id":"cebpf4jnsgd1na2vs0mg"},{"bike_id":"f4649d7e-5e2c-4e4c-8c70-30b893431950","system_id":"levelo_inurba_marseille","lat":43.29173,"lon":5.37156,"is_reserved":false,"is_disabled":false,"rental_uris":{"android":"levelo://app?vid=f4649d7e-5e2c-4e4c-8c70-30b893431950","ios":"levelo://app?vid=f4649d7e-5e2c-4e4c-8c70-30b893431950"},"vehicle_type_id":"4","last_reported":1738336124,"current_range_meters":38000,"station_id":"ce4bha92rcd13ifvqeh0","pricing_plan_id":"cebpf4jnsgd1na2vs0mg"},{"bike_id":"8cbc5f15-341e-4dab-a490-9a1a622430b4","system_id":"levelo_inurba_marseille","lat":43.31718,"lon":5.42397,"is_reserved":false,"is_disabled":false,"rental_uris":{"android":"levelo://app?vid=8cbc5f15-341e-4dab-a490-9a1a622430b4","ios":"levelo://app?vid=8cbc5f15-341e-4dab-a490-9a1a622430b4"},"vehicle_type_id":"4","last_reported":1738336124,"current_range_meters":26800,"station_id":"ce4bhp92rcd13ifvqhbg","pricing_plan_id":"cebpf4jnsgd1na2vs0mg"},{"bike_id":"76f77e28-c071-4cc7-af8e-15772cec19ca","system_id":"levelo_inurba_marseille","lat":43.244,"lon":5.37046,"is_reserved":false,"is_disabled":false,"rental_uris":{"android":"levelo://app?vid=76f77e28-c071-4cc7-af8e-15772cec19ca","ios":"levelo://app?vid=76f77e28-c071-4cc7-af8e-15772cec19ca"},"vehicle_type_id":"4","last_reported":1738336124,"current_range_meters":39200,"station_id":"ce4bhhh2rcd13ifvqfk0","pricing_plan_id":"cebpf4jnsgd1na2vs0mg"},{"bike_id":"998deb99-0fd1-40a0-9cf0-7a5252137d38","system_id":"levelo_inurba_marseille","lat":43.30782,"lon":5.37658,"is_reserved":false,"is_disabled":false,"rental_uris":{"android":"levelo://app?vid=998deb99-0fd1-40a0-9cf0-7a5252137d38","ios":"levelo://app?vid=998deb99-0fd1-40a0-9cf0-7a5252137d38"},"vehicle_type_id":"4","last_reported":1738336124,"current_range_meters":27200,"station_id":"ce4bgv92rcd13ifvqcq0","pricing_plan_id":"cebpf4jnsgd1na2vs0mg"},{"bike_id":"e3bd597c-c7e5-4110-a93b-4281c14b2f12","system_id":"levelo_inurba_marseille","lat":43.26562,"lon":5.39025,"is_reserved":false,"is_disabled":false,"rental_uris":{"android":"levelo://app?vid=e3bd597c-c7e5-4110-a93b-4281c14b2f12","ios":"levelo://app?vid=e3bd597c-c7e5-4110-a93b-4281c14b2f12"},"vehicle_type_id":"4","last_reported":1738336124,"current_range_meters":24000,"station_id":"ce4bhe12rcd13ifvqf30","pricing_plan_id":"cebpf4jnsgd1na2vs0mg"},{"bike_id":"16e42f05-eb9b-46bc-83a0-370becfa01aa","system_id":"levelo_inurba_marseille","lat":43.29417,"lon":5.38626,"is_reserved":false,"is_disabled":false,"rental_uris":{"android":"levelo://app?vid=16e42f05-eb9b-46bc-83a0-370becfa01aa","ios":"levelo://app?vid=16e42f05-eb9b-46bc-83a0-370becfa01aa"},"vehicle_type_id":"4","last_reported":1738336124,"current_range_meters":4400,"station_id":"ce4bh2h2rcd13ifvqdh0","pricing_plan_id":"cebpf4jnsgd1na2vs0mg"},{"bike_id":"9589ffb9-c7bb-4b69-9093-3f10a1b7ad66","system_id":"levelo_inurba_marseille","lat":43.32047,"lon":5.41595,"is_reserved":false,"is_disabled":false,"rental_uris":{"android":"levelo://app?vid=9589ffb9-c7bb-4b69-9093-3f10a1b7ad66","ios":"levelo://app?vid=9589ffb9-c7bb-4b69-9093-3f10a1b7ad66"},"vehicle_type_id":"4","last_reported":1738336124,"current_range_meters":24800,"station_id":"ce4bhq92rcd13ifvqhkg","pricing_plan_id":"cebpf4jnsgd1na2vs0mg"},{"bike_id":"fb2359d4-b332-4ddc-b4ca-36110511a449","system_id":"levelo_inurba_marseille","lat":43.30955,"lon":5.39039,"is_reserved":false,"is_disabled":false,"rental_uris":{"android":"levelo://app?vid=fb2359d4-b332-4ddc-b4ca-36110511a449","ios":"levelo://app?vid=fb2359d4-b332-4ddc-b4ca-36110511a449"},"vehicle_type_id":"4","last_reported":1738336124,"current_range_meters":36400,"station_id":"ce4bgup2rcd13ifvqco0","pricing_plan_id":"cebpf4jnsgd1na2vs0mg"},{"bike_id":"e9559856-b97a-49f4-8741-09cd10b492ee","system_id":"levelo_inurba_marseille","lat":43.28684,"lon":5.3517,"is_reserved":false,"is_disabled":false,"rental_uris":{"android":"levelo://app?vid=e9559856-b97a-49f4-8741-09cd10b492ee","ios":"levelo://app?vid=e9559856-b97a-49f4-8741-09cd10b492ee"},"vehicle_type_id":"4","last_reported":1738336124,"current_range_meters":22800,"station_id":"","pricing_plan_id":"cebpf4jnsgd1na2vs0mg"},{"bike_id":"8126c25c-c3a2-4cdd-a2e4-d380d215e724","system_id":"levelo_inurba_marseille","lat":43.268,"lon":5.40263,"is_reserved":false,"is_disabled":false,"rental_uris":{"android":"levelo://app?vid=8126c25c-c3a2-4cdd-a2e4-d380d215e724","ios":"levelo://app?vid=8126c25c-c3a2-4cdd-a2e4-d380d215e724"},"vehicle_type_id":"4","last_reported":1738336124,"current_range_meters":38000,"station_id":"ce501612rcd8frsf0b60","pricing_plan_id":"cebpf4jnsgd1na2vs0mg"},{"bike_id":"9587a62c-e3a6-48e1-995a-1d9253f38c24","system_id":"levelo_inurba_marseille","lat":43.31495,"lon":5.37307,"is_reserved":false,"is_disabled":false,"rental_uris":{"android":"levelo://app?vid=9587a62c-e3a6-48e1-995a-1d9253f38c24","ios":"levelo://app?vid=9587a62c-e3a6-48e1-995a-1d9253f38c24"},"vehicle_type_id":"4","last_reported":1738336124,"current_range_meters":27600,"station_id":"ce4bgt12rcd13ifvqcd0","pricing_plan_id":"cebpf4jnsgd1na2vs0mg"},{"bike_id":"534c086f-4419-4511-a4ca-a912a0401085","system_id":"levelo_inurba_marseille","lat":43.25866,"lon":5.399,"is_reserved":false,"is_disabled":true,"rental_uris":{"android":"levelo://app?vid=534c086f-4419-4511-a4ca-a912a0401085","ios":"levelo://app?vid=534c086f-4419-4511-a4ca-a912a0401085"},"vehicle_type_id":"4","last_reported":1738336124,"current_range_meters":0,"station_id":"ce4bhl92rcd13ifvqghg","pricing_plan_id":"cebpf4jnsgd1na2vs0mg"},{"bike_id":"6de811c6-50e6-4e2b-8b21-f20c18788d32","system_id":"levelo_inurba_marseille","lat":43.33952,"lon":5.37353,"is_reserved":false,"is_disabled":false,"rental_uris":{"android":"levelo://app?vid=6de811c6-50e6-4e2b-8b21-f20c18788d32","ios":"levelo://app?vid=6de811c6-50e6-4e2b-8b21-f20c18788d32"},"vehicle_type_id":"4","last_reported":1738336124,"current_range_meters":38800,"station_id":"","pricing_plan_id":"cebpf4jnsgd1na2vs0mg"},{"bike_id":"1fbf3f20-0930-4b85-8900-561217e5a0eb","system_id":"levelo_inurba_marseille","lat":43.30414,"lon":5.4128,"is_reserved":false,"is_disabled":false,"rental_uris":{"android":"levelo://app?vid=1fbf3f20-0930-4b85-8900-561217e5a0eb","ios":"levelo://app?vid=1fbf3f20-0930-4b85-8900-561217e5a0eb"},"vehicle_type_id":"4","last_reported":1738336124,"current_range_meters":28000,"station_id":"ce4bhop2rcd13ifvqh8g","pricing_plan_id":"cebpf4jnsgd1na2vs0mg"},{"bike_id":"0ed8a6c6-eadb-4bd0-a58f-0b8be240ba0c","system_id":"levelo_inurba_marseille","lat":43.27817,"lon":5.40708,"is_reserved":false,"is_disabled":false,"rental_uris":{"android":"levelo://app?vid=0ed8a6c6-eadb-4bd0-a58f-0b8be240ba0c","ios":"levelo://app?vid=0ed8a6c6-eadb-4bd0-a58f-0b8be240ba0c"},"vehicle_type_id":"4","last_reported":1738336124,"current_range_meters":26000,"station_id":"ce4bhnh2rcd13ifvqgtg","pricing_plan_id":"cebpf4jnsgd1na2vs0mg"},{"bike_id":"d7489050-7cbc-4b72-bc44-51a019b07289","system_id":"levelo_inurba_marseille","lat":43.25588,"lon":5.38228,"is_reserved":false,"is_disabled":true,"rental_uris":{"android":"levelo://app?vid=d7489050-7cbc-4b72-bc44-51a019b07289","ios":"levelo://app?vid=d7489050-7cbc-4b72-bc44-51a019b07289"},"vehicle_type_id":"4","last_reported":1738336124,"current_range_meters":1600,"station_id":"ce4bhih2rcd13ifvqfs0","pricing_plan_id":"cebpf4jnsgd1na2vs0mg"},{"bike_id":"989be531-b603-4061-8c75-81f3535f5fe4","system_id":"levelo_inurba_marseille","lat":43.3013,"lon":5.39872,"is_reserved":false,"is_disabled":false,"rental_uris":{"android":"levelo://app?vid=989be531-b603-4061-8c75-81f3535f5fe4","ios":"levelo://app?vid=989be531-b603-4061-8c75-81f3535f5fe4"},"vehicle_type_id":"4","last_reported":1738336124,"current_range_meters":10800,"station_id":"ce4bh0h2rcd13ifvqd40","pricing_plan_id":"cebpf4jnsgd1na2vs0mg"},{"bike_id":"ee082be5-29f6-4e91-8343-b7b0c9fcdff1","system_id":"levelo_inurba_marseille","lat":43.25083,"lon":5.39515,"is_reserved":false,"is_disabled":false,"rental_uris":{"android":"levelo://app?vid=ee082be5-29f6-4e91-8343-b7b0c9fcdff1","ios":"levelo://app?vid=ee082be5-29f6-4e91-8343-b7b0c9fcdff1"},"vehicle_type_id":"4","last_reported":1738336124,"current_range_meters":32800,"station_id":"ce4bhm12rcd13ifvqgkg","pricing_plan_id":"cebpf4jnsgd1na2vs0mg"},{"bike_id":"ab0ec696-ce2c-4f7f-a964-2e9c9f313854","system_id":"levelo_inurba_marseille","lat":43.23963,"lon":5.36642,"is_reserved":false,"is_disabled":false,"rental_uris":{"android":"levelo://app?vid=ab0ec696-ce2c-4f7f-a964-2e9c9f313854","ios":"levelo://app?vid=ab0ec696-ce2c-4f7f-a964-2e9c9f313854"},"vehicle_type_id":"4","last_reported":1738336124,"current_range_meters":28400,"station_id":"ce4bhi12rcd13ifvqfp0","pricing_plan_id":"cebpf4jnsgd1na2vs0mg"},{"bike_id":"23f78061-2e6e-4c05-812e-55ea5a69a776","system_id":"levelo_inurba_marseille","lat":43.29254,"lon":5.40921,"is_reserved":false,"is_disabled":false,"rental_uris":{"android":"levelo://app?vid=23f78061-2e6e-4c05-812e-55ea5a69a776","ios":"levelo://app?vid=23f78061-2e6e-4c05-812e-55ea5a69a776"},"vehicle_type_id":"4","last_reported":1738336124,"current_range_meters":38800,"station_id":"ce4bh192rcd13ifvqdc0","pricing_plan_id":"cebpf4jnsgd1na2vs0mg"},{"bike_id":"e99c90aa-e079-42e2-a963-1534829ba9c7","system_id":"levelo_inurba_marseille","lat":43.26216,"lon":5.37425,"is_reserved":false,"is_disabled":false,"rental_uris":{"android":"levelo://app?vid=e99c90aa-e079-42e2-a963-1534829ba9c7","ios":"levelo://app?vid=e99c90aa-e079-42e2-a963-1534829ba9c7"},"vehicle_type_id":"4","last_reported":1738336124,"current_range_meters":31200,"station_id":"ce4bhgp2rcd13ifvqfc0","pricing_plan_id":"cebpf4jnsgd1na2vs0mg"},{"bike_id":"217de6f9-0d4a-40eb-b60e-143c6d70feb4","system_id":"levelo_inurba_marseille","lat":43.26496,"lon":5.39539,"is_reserved":false,"is_disabled":false,"rental_uris":{"android":"levelo://app?vid=217de6f9-0d4a-40eb-b60e-143c6d70feb4","ios":"levelo://app?vid=217de6f9-0d4a-40eb-b60e-143c6d70feb4"},"vehicle_type_id":"4","last_reported":1738336124,"current_range_meters":37600,"station_id":"ce4bhi12rcd13ifvqfq0","pricing_plan_id":"cebpf4jnsgd1na2vs0mg"},{"bike_id":"472815ce-dd78-4e4c-82e8-cea31da48d22","system_id":"levelo_inurba_marseille","lat":43.33719,"lon":5.39181,"is_reserved":false,"is_disabled":false,"rental_uris":{"android":"levelo://app?vid=472815ce-dd78-4e4c-82e8-cea31da48d22","ios":"levelo://app?vid=472815ce-dd78-4e4c-82e8-cea31da48d22"},"vehicle_type_id":"4","last_reported":1738336124,"current_range_meters":38800,"station_id":"ce4bhr92rcd13ifvqhsg","pricing_plan_id":"cebpf4jnsgd1na2vs0mg"},{"bike_id":"cc47836a-b908-432f-8e0e-2f793407f141","system_id":"levelo_inurba_marseille","lat":43.2293,"lon":5.35372,"is_reserved":false,"is_disabled":false,"rental_uris":{"android":"levelo://app?vid=cc47836a-b908-432f-8e0e-2f793407f141","ios":"levelo://app?vid=cc47836a-b908-432f-8e0e-2f793407f141"},"vehicle_type_id":"4","last_reported":1738336124,"current_range_meters":9600,"station_id":"cpo3532slgdg3j2ikp40","pricing_plan_id":"cebpf4jnsgd1na2vs0mg"},{"bike_id":"dc88a78b-618f-4f83-8a69-83b165a245fb","system_id":"levelo_inurba_marseille","lat":43.27565,"lon":5.38417,"is_reserved":false,"is_disabled":false,"rental_uris":{"android":"levelo://app?vid=dc88a78b-618f-4f83-8a69-83b165a245fb","ios":"levelo://app?vid=dc88a78b-618f-4f83-8a69-83b165a245fb"},"vehicle_type_id":"4","last_reported":1738336124,"current_range_meters":29600,"station_id":"ce4bhh92rcd13ifvqfi0","pricing_plan_id":"cebpf4jnsgd1na2vs0mg"},{"bike_id":"f80287fc-a2f4-4c37-8f2b-cadf84efecb2","system_id":"levelo_inurba_marseille","lat":43.29552,"lon":5.42266,"is_reserved":false,"is_disabled":false,"rental_uris":{"android":"levelo://app?vid=f80287fc-a2f4-4c37-8f2b-cadf84efecb2","ios":"levelo://app?vid=f80287fc-a2f4-4c37-8f2b-cadf84efecb2"},"vehicle_type_id":"4","last_reported":1738336124,"current_range_meters":39200,"station_id":"ce4bhph2rcd13ifvqhdg","pricing_plan_id":"cebpf4jnsgd1na2vs0mg"},{"bike_id":"e8a24478-654c-4f28-a9bc-7a0dd3fd5b64","system_id":"levelo_inurba_marseille","lat":43.30524,"lon":5.36536,"is_reserved":false,"is_disabled":false,"rental_uris":{"android":"levelo://app?vid=e8a24478-654c-4f28-a9bc-7a0dd3fd5b64","ios":"levelo://app?vid=e8a24478-654c-4f28-a9bc-7a0dd3fd5b64"},"vehicle_type_id":"4","last_reported":1738336124,"current_range_meters":35600,"station_id":"ce4bgs12rcd13ifvqcag","pricing_plan_id":"cebpf4jnsgd1na2vs0mg"},{"bike_id":"328105a8-4d6a-4694-89f3-16c925e9626b","system_id":"levelo_inurba_marseille","lat":43.29595,"lon":5.38103,"is_reserved":false,"is_disabled":false,"rental_uris":{"android":"levelo://app?vid=328105a8-4d6a-4694-89f3-16c925e9626b","ios":"levelo://app?vid=328105a8-4d6a-4694-89f3-16c925e9626b"},"vehicle_type_id":"4","last_reported":1738336124,"current_range_meters":27600,"station_id":"ce4bgl12rcd13ifvqbo0","pricing_plan_id":"cebpf4jnsgd1na2vs0mg"},{"bike_id":"3506206d-f2e7-43f6-8376-78965d88c4f1","system_id":"levelo_inurba_marseille","lat":43.24173,"lon":5.3974,"is_reserved":false,"is_disabled":false,"rental_uris":{"android":"levelo://app?vid=3506206d-f2e7-43f6-8376-78965d88c4f1","ios":"levelo://app?vid=3506206d-f2e7-43f6-8376-78965d88c4f1"},"vehicle_type_id":"4","last_reported":1738336124,"current_range_meters":25200,"station_id":"ce4bhn12rcd13ifvqgpg","pricing_plan_id":"cebpf4jnsgd1na2vs0mg"},{"bike_id":"e70f035b-bd3b-4e63-bb7a-2edb3163686b","system_id":"levelo_inurba_marseille","lat":43.2719,"lon":5.4099,"is_reserved":false,"is_disabled":false,"rental_uris":{"android":"levelo://app?vid=e70f035b-bd3b-4e63-bb7a-2edb3163686b","ios":"levelo://app?vid=e70f035b-bd3b-4e63-bb7a-2edb3163686b"},"vehicle_type_id":"4","last_reported":1738336124,"current_range_meters":24000,"station_id":"ce4bhl12rcd13ifvqgf0","pricing_plan_id":"cebpf4jnsgd1na2vs0mg"},{"bike_id":"7fbc607b-e12b-47bd-a53f-1c18ac62adfd","system_id":"levelo_inurba_marseille","lat":43.27823,"lon":5.40698,"is_reserved":false,"is_disabled":false,"rental_uris":{"android":"levelo://app?vid=7fbc607b-e12b-47bd-a53f-1c18ac62adfd","ios":"levelo://app?vid=7fbc607b-e12b-47bd-a53f-1c18ac62adfd"},"vehicle_type_id":"4","last_reported":1738336124,"current_range_meters":33200,"station_id":"ce4bhnh2rcd13ifvqgtg","pricing_plan_id":"cebpf4jnsgd1na2vs0mg"},{"bike_id":"735cf356-6ca7-4c83-bf25-d301ccde8042","system_id":"levelo_inurba_marseille","lat":43.27195,"lon":5.40964,"is_reserved":false,"is_disabled":false,"rental_uris":{"android":"levelo://app?vid=735cf356-6ca7-4c83-bf25-d301ccde8042","ios":"levelo://app?vid=735cf356-6ca7-4c83-bf25-d301ccde8042"},"vehicle_type_id":"4","last_reported":1738336124,"current_range_meters":25600,"station_id":"ce4bhl12rcd13ifvqgf0","pricing_plan_id":"cebpf4jnsgd1na2vs0mg"},{"bike_id":"f34fcd93-0f66-400a-8f07-aa08bfa23861","system_id":"levelo_inurba_marseille","lat":43.25929,"lon":5.40881,"is_reserved":false,"is_disabled":false,"rental_uris":{"android":"levelo://app?vid=f34fcd93-0f66-400a-8f07-aa08bfa23861","ios":"levelo://app?vid=f34fcd93-0f66-400a-8f07-aa08bfa23861"},"vehicle_type_id":"4","last_reported":1738336124,"current_range_meters":38000,"station_id":"ce4bhm92rcd13ifvqglg","pricing_plan_id":"cebpf4jnsgd1na2vs0mg"},{"bike_id":"db7f3b10-3249-4ef1-b2d2-417c75340e93","system_id":"levelo_inurba_marseille","lat":43.26799,"lon":5.40264,"is_reserved":false,"is_disabled":false,"rental_uris":{"android":"levelo://app?vid=db7f3b10-3249-4ef1-b2d2-417c75340e93","ios":"levelo://app?vid=db7f3b10-3249-4ef1-b2d2-417c75340e93"},"vehicle_type_id":"4","last_reported":1738336124,"current_range_meters":38000,"station_id":"ce501612rcd8frsf0b60","pricing_plan_id":"cebpf4jnsgd1na2vs0mg"},{"bike_id":"606053f9-3da2-4594-b4df-8e24b5fa812c","system_id":"levelo_inurba_marseille","lat":43.26933,"lon":5.40263,"is_reserved":false,"is_disabled":false,"rental_uris":{"android":"levelo://app?vid=606053f9-3da2-4594-b4df-8e24b5fa812c","ios":"levelo://app?vid=606053f9-3da2-4594-b4df-8e24b5fa812c"},"vehicle_type_id":"4","last_reported":1738336124,"current_range_meters":37600,"station_id":"cjm6bp8fraef2m0cb0m0","pricing_plan_id":"cebpf4jnsgd1na2vs0mg"},{"bike_id":"8838e785-ddde-4529-b2e2-2393a68c07bc","system_id":"levelo_inurba_marseille","lat":43.31489,"lon":5.37291,"is_reserved":false,"is_disabled":true,"rental_uris":{"android":"levelo://app?vid=8838e785-ddde-4529-b2e2-2393a68c07bc","ios":"levelo://app?vid=8838e785-ddde-4529-b2e2-2393a68c07bc"},"vehicle_type_id":"4","last_reported":1738336124,"current_range_meters":0,"station_id":"ce4bgt12rcd13ifvqcd0","pricing_plan_id":"cebpf4jnsgd1na2vs0mg"},{"bike_id":"0b0615a4-2ced-4b55-b9bc-ede4d343349e","system_id":"levelo_inurba_marseille","lat":43.24388,"lon":5.37049,"is_reserved":false,"is_disabled":false,"rental_uris":{"android":"levelo://app?vid=0b0615a4-2ced-4b55-b9bc-ede4d343349e","ios":"levelo://app?vid=0b0615a4-2ced-4b55-b9bc-ede4d343349e"},"vehicle_type_id":"4","last_reported":1738336124,"current_range_meters":18800,"station_id":"ce4bhhh2rcd13ifvqfk0","pricing_plan_id":"cebpf4jnsgd1na2vs0mg"},{"bike_id":"0b66d3f9-796f-4131-baf5-c367505e8f76","system_id":"levelo_inurba_marseille","lat":43.24664,"lon":5.38172,"is_reserved":false,"is_disabled":false,"rental_uris":{"android":"levelo://app?vid=0b66d3f9-796f-4131-baf5-c367505e8f76","ios":"levelo://app?vid=0b66d3f9-796f-4131-baf5-c367505e8f76"},"vehicle_type_id":"4","last_reported":1738336124,"current_range_meters":14400,"station_id":"ce4bhih2rcd13ifvqfr0","pricing_plan_id":"cebpf4jnsgd1na2vs0mg"},{"bike_id":"db14cd8a-5ba9-45f6-b197-f717b13b5230","system_id":"levelo_inurba_marseille","lat":43.29845,"lon":5.36273,"is_reserved":false,"is_disabled":false,"rental_uris":{"android":"levelo://app?vid=db14cd8a-5ba9-45f6-b197-f717b13b5230","ios":"levelo://app?vid=db14cd8a-5ba9-45f6-b197-f717b13b5230"},"vehicle_type_id":"4","last_reported":1738336124,"current_range_meters":38800,"station_id":"ce4bgpp2rcd13ifvqc3g","pricing_plan_id":"cebpf4jnsgd1na2vs0mg"},{"bike_id":"808232f1-e991-4dd8-8765-6f4f5aba4517","system_id":"levelo_inurba_marseille","lat":43.336,"lon":5.40993,"is_reserved":false,"is_disabled":true,"rental_uris":{"android":"levelo://app?vid=808232f1-e991-4dd8-8765-6f4f5aba4517","ios":"levelo://app?vid=808232f1-e991-4dd8-8765-6f4f5aba4517"},"vehicle_type_id":"4","last_reported":1738336124,"current_range_meters":0,"station_id":"ce4bhqh2rcd13ifvqhmg","pricing_plan_id":"cebpf4jnsgd1na2vs0mg"},{"bike_id":"cb2664cc-12ec-4d60-a531-da306a62bb75","system_id":"levelo_inurba_marseille","lat":43.27945,"lon":5.4106,"is_reserved":false,"is_disabled":false,"rental_uris":{"android":"levelo://app?vid=cb2664cc-12ec-4d60-a531-da306a62bb75","ios":"levelo://app?vid=cb2664cc-12ec-4d60-a531-da306a62bb75"},"vehicle_type_id":"4","last_reported":1738336124,"current_range_meters":11200,"station_id":"ce4bhnp2rcd13ifvqh0g","pricing_plan_id":"cebpf4jnsgd1na2vs0mg"},{"bike_id":"0f5acdd1-b69b-4f8c-ab18-c14c778751b0","system_id":"levelo_inurba_marseille","lat":43.28702,"lon":5.3998,"is_reserved":false,"is_disabled":true,"rental_uris":{"android":"levelo://app?vid=0f5acdd1-b69b-4f8c-ab18-c14c778751b0","ios":"levelo://app?vid=0f5acdd1-b69b-4f8c-ab18-c14c778751b0"},"vehicle_type_id":"4","last_reported":1738336124,"current_range_meters":0,"station_id":"ce4bho92rcd13ifvqh3g","pricing_plan_id":"cebpf4jnsgd1na2vs0mg"},{"bike_id":"9f7cbc3c-6e0b-4442-8c70-64c0b2a1452e","system_id":"levelo_inurba_marseille","lat":43.23062,"lon":5.35505,"is_reserved":false,"is_disabled":false,"rental_uris":{"android":"levelo://app?vid=9f7cbc3c-6e0b-4442-8c70-64c0b2a1452e","ios":"levelo://app?vid=9f7cbc3c-6e0b-4442-8c70-64c0b2a1452e"},"vehicle_type_id":"4","last_reported":1738336124,"current_range_meters":8000,"station_id":"cpo3342slgdg3j2ifvpg","pricing_plan_id":"cebpf4jnsgd1na2vs0mg"},{"bike_id":"c8a3a0ed-dff2-4f3c-87dc-2e6b47b1ad28","system_id":"levelo_inurba_marseille","lat":43.337444,"lon":5.374475,"is_reserved":false,"is_disabled":true,"rental_uris":{"android":"levelo://app?vid=c8a3a0ed-dff2-4f3c-87dc-2e6b47b1ad28","ios":"levelo://app?vid=c8a3a0ed-dff2-4f3c-87dc-2e6b47b1ad28"},"vehicle_type_id":"4","last_reported":1738336124,"current_range_meters":0,"station_id":"","pricing_plan_id":"cebpf4jnsgd1na2vs0mg"},{"bike_id":"f89539a6-095e-4e2d-8340-7b530ec63361","system_id":"levelo_inurba_marseille","lat":43.28935,"lon":5.36638,"is_reserved":false,"is_disabled":false,"rental_uris":{"android":"levelo://app?vid=f89539a6-095e-4e2d-8340-7b530ec63361","ios":"levelo://app?vid=f89539a6-095e-4e2d-8340-7b530ec63361"},"vehicle_type_id":"4","last_reported":1738336124,"current_range_meters":18800,"station_id":"ce4bhap2rcd13ifvqek0","pricing_plan_id":"cebpf4jnsgd1na2vs0mg"},{"bike_id":"0ca64129-63ca-480d-a228-e4b0575b143c","system_id":"levelo_inurba_marseille","lat":43.28708,"lon":5.37424,"is_reserved":false,"is_disabled":false,"rental_uris":{"android":"levelo://app?vid=0ca64129-63ca-480d-a228-e4b0575b143c","ios":"levelo://app?vid=0ca64129-63ca-480d-a228-e4b0575b143c"},"vehicle_type_id":"4","last_reported":1738336124,"current_range_meters":28000,"station_id":"ce4bh3p2rcd13ifvqdq0","pricing_plan_id":"cebpf4jnsgd1na2vs0mg"},{"bike_id":"730557a1-6463-447d-ae6e-4f062687878b","system_id":"levelo_inurba_marseille","lat":43.27201,"lon":5.39225,"is_reserved":false,"is_disabled":false,"rental_uris":{"android":"levelo://app?vid=730557a1-6463-447d-ae6e-4f062687878b","ios":"levelo://app?vid=730557a1-6463-447d-ae6e-4f062687878b"},"vehicle_type_id":"4","last_reported":1738336124,"current_range_meters":38000,"station_id":"ce4bhhp2rcd13ifvqfm0","pricing_plan_id":"cebpf4jnsgd1na2vs0mg"},{"bike_id":"7247902a-635d-4f06-9cf7-f11e089c2d38","system_id":"levelo_inurba_marseille","lat":43.26934,"lon":5.40263,"is_reserved":false,"is_disabled":false,"rental_uris":{"android":"levelo://app?vid=7247902a-635d-4f06-9cf7-f11e089c2d38","ios":"levelo://app?vid=7247902a-635d-4f06-9cf7-f11e089c2d38"},"vehicle_type_id":"4","last_reported":1738336124,"current_range_meters":37600,"station_id":"cjm6bp8fraef2m0cb0m0","pricing_plan_id":"cebpf4jnsgd1na2vs0mg"},{"bike_id":"b9dfdd12-ed8d-4873-9fc8-0a1849f2020b","system_id":"levelo_inurba_marseille","lat":43.26819,"lon":5.40252,"is_reserved":false,"is_disabled":false,"rental_uris":{"android":"levelo://app?vid=b9dfdd12-ed8d-4873-9fc8-0a1849f2020b","ios":"levelo://app?vid=b9dfdd12-ed8d-4873-9fc8-0a1849f2020b"},"vehicle_type_id":"4","last_reported":1738336124,"current_range_meters":38400,"station_id":"ce501612rcd8frsf0b60","pricing_plan_id":"cebpf4jnsgd1na2vs0mg"},{"bike_id":"ef94d2be-016e-4595-af9c-fa8ff29cc1de","system_id":"levelo_inurba_marseille","lat":43.28565,"lon":5.39494,"is_reserved":false,"is_disabled":false,"rental_uris":{"android":"levelo://app?vid=ef94d2be-016e-4595-af9c-fa8ff29cc1de","ios":"levelo://app?vid=ef94d2be-016e-4595-af9c-fa8ff29cc1de"},"vehicle_type_id":"4","last_reported":1738336124,"current_range_meters":34800,"station_id":"ce4bh292rcd13ifvqdg0","pricing_plan_id":"cebpf4jnsgd1na2vs0mg"},{"bike_id":"90394fde-9bd5-4f98-b24e-2ccaeea0ffdc","system_id":"levelo_inurba_marseille","lat":43.2786,"lon":5.40691,"is_reserved":false,"is_disabled":false,"rental_uris":{"android":"levelo://app?vid=90394fde-9bd5-4f98-b24e-2ccaeea0ffdc","ios":"levelo://app?vid=90394fde-9bd5-4f98-b24e-2ccaeea0ffdc"},"vehicle_type_id":"4","last_reported":1738336124,"current_range_meters":28000,"station_id":"","pricing_plan_id":"cebpf4jnsgd1na2vs0mg"},{"bike_id":"32802d31-82e5-49aa-928e-45336ddb5e58","system_id":"levelo_inurba_marseille","lat":43.250089,"lon":5.389295,"is_reserved":false,"is_disabled":false,"rental_uris":{"android":"levelo://app?vid=32802d31-82e5-49aa-928e-45336ddb5e58","ios":"levelo://app?vid=32802d31-82e5-49aa-928e-45336ddb5e58"},"vehicle_type_id":"4","last_reported":1738336124,"current_range_meters":38800,"station_id":"ce4bhgp2rcd13ifvqfd0","pricing_plan_id":"cebpf4jnsgd1na2vs0mg"},{"bike_id":"d06240a3-8895-42e8-9212-5c068d44e9d2","system_id":"levelo_inurba_marseille","lat":43.28645,"lon":5.35069,"is_reserved":false,"is_disabled":false,"rental_uris":{"android":"levelo://app?vid=d06240a3-8895-42e8-9212-5c068d44e9d2","ios":"levelo://app?vid=d06240a3-8895-42e8-9212-5c068d44e9d2"},"vehicle_type_id":"4","last_reported":1738336124,"current_range_meters":26000,"station_id":"ce4bhch2rcd13ifvqeug","pricing_plan_id":"cebpf4jnsgd1na2vs0mg"},{"bike_id":"a730ad96-1643-4b28-8bdb-7f33f046a999","system_id":"levelo_inurba_marseille","lat":43.3013,"lon":5.37431,"is_reserved":false,"is_disabled":false,"rental_uris":{"android":"levelo://app?vid=a730ad96-1643-4b28-8bdb-7f33f046a999","ios":"levelo://app?vid=a730ad96-1643-4b28-8bdb-7f33f046a999"},"vehicle_type_id":"4","last_reported":1738336124,"current_range_meters":39200,"station_id":"ce4bgs92rcd13ifvqcc0","pricing_plan_id":"cebpf4jnsgd1na2vs0mg"},{"bike_id":"a7e1bb12-c60b-445a-9547-4b41c03d5f68","system_id":"levelo_inurba_marseille","lat":43.28147,"lon":5.42624,"is_reserved":false,"is_disabled":true,"rental_uris":{"android":"levelo://app?vid=a7e1bb12-c60b-445a-9547-4b41c03d5f68","ios":"levelo://app?vid=a7e1bb12-c60b-445a-9547-4b41c03d5f68"},"vehicle_type_id":"4","last_reported":1738336124,"current_range_meters":0,"station_id":"ce4bhnh2rcd13ifvqgug","pricing_plan_id":"cebpf4jnsgd1na2vs0mg"},{"bike_id":"00c0b55e-3da8-4657-b8f9-2b266599e408","system_id":"levelo_inurba_marseille","lat":43.2895,"lon":5.36399,"is_reserved":false,"is_disabled":false,"rental_uris":{"android":"levelo://app?vid=00c0b55e-3da8-4657-b8f9-2b266599e408","ios":"levelo://app?vid=00c0b55e-3da8-4657-b8f9-2b266599e408"},"vehicle_type_id":"4","last_reported":1738336124,"current_range_meters":38800,"station_id":"ce4bhc92rcd13ifvqetg","pricing_plan_id":"cebpf4jnsgd1na2vs0mg"},{"bike_id":"038191cd-2a1e-4308-bce4-7eb51d092d06","system_id":"levelo_inurba_marseille","lat":43.29849,"lon":5.36285,"is_reserved":false,"is_disabled":false,"rental_uris":{"android":"levelo://app?vid=038191cd-2a1e-4308-bce4-7eb51d092d06","ios":"levelo://app?vid=038191cd-2a1e-4308-bce4-7eb51d092d06"},"vehicle_type_id":"4","last_reported":1738336124,"current_range_meters":17600,"station_id":"ce4bgpp2rcd13ifvqc3g","pricing_plan_id":"cebpf4jnsgd1na2vs0mg"},{"bike_id":"cf09a19c-46cb-421b-9118-81bce00771f6","system_id":"levelo_inurba_marseille","lat":43.30554,"lon":5.36541,"is_reserved":false,"is_disabled":false,"rental_uris":{"android":"levelo://app?vid=cf09a19c-46cb-421b-9118-81bce00771f6","ios":"levelo://app?vid=cf09a19c-46cb-421b-9118-81bce00771f6"},"vehicle_type_id":"4","last_reported":1738336124,"current_range_meters":39200,"station_id":"ce4bgs12rcd13ifvqcag","pricing_plan_id":"cebpf4jnsgd1na2vs0mg"},{"bike_id":"a36de8bd-2e3e-4fb2-8780-295adcb078f0","system_id":"levelo_inurba_marseille","lat":43.26574,"lon":5.3732,"is_reserved":false,"is_disabled":false,"rental_uris":{"android":"levelo://app?vid=a36de8bd-2e3e-4fb2-8780-295adcb078f0","ios":"levelo://app?vid=a36de8bd-2e3e-4fb2-8780-295adcb078f0"},"vehicle_type_id":"4","last_reported":1738336124,"current_range_meters":32400,"station_id":"ce4bhg12rcd13ifvqf70","pricing_plan_id":"cebpf4jnsgd1na2vs0mg"},{"bike_id":"9838cc78-2b53-49d3-ae13-82df62c4fd64","system_id":"levelo_inurba_marseille","lat":43.28412,"lon":5.40934,"is_reserved":false,"is_disabled":true,"rental_uris":{"android":"levelo://app?vid=9838cc78-2b53-49d3-ae13-82df62c4fd64","ios":"levelo://app?vid=9838cc78-2b53-49d3-ae13-82df62c4fd64"},"vehicle_type_id":"4","last_reported":1738336124,"current_range_meters":0,"station_id":"","pricing_plan_id":"cebpf4jnsgd1na2vs0mg"},{"bike_id":"89b42613-6540-4f9b-be12-b035b7ac50e4","system_id":"levelo_inurba_marseille","lat":43.31327,"lon":5.3971,"is_reserved":false,"is_disabled":false,"rental_uris":{"android":"levelo://app?vid=89b42613-6540-4f9b-be12-b035b7ac50e4","ios":"levelo://app?vid=89b42613-6540-4f9b-be12-b035b7ac50e4"},"vehicle_type_id":"4","last_reported":1738336124,"current_range_meters":32400,"station_id":"ce4bgvp2rcd13ifvqcu0","pricing_plan_id":"cebpf4jnsgd1na2vs0mg"},{"bike_id":"81445527-cc14-438c-bdd9-537856230b3a","system_id":"levelo_inurba_marseille","lat":43.29873,"lon":5.39734,"is_reserved":false,"is_disabled":false,"rental_uris":{"android":"levelo://app?vid=81445527-cc14-438c-bdd9-537856230b3a","ios":"levelo://app?vid=81445527-cc14-438c-bdd9-537856230b3a"},"vehicle_type_id":"4","last_reported":1738336124,"current_range_meters":39200,"station_id":"ce4bh0h2rcd13ifvqd50","pricing_plan_id":"cebpf4jnsgd1na2vs0mg"},{"bike_id":"0849fdfb-f7a7-4090-94e7-d3a945c98a6a","system_id":"levelo_inurba_marseille","lat":43.302055,"lon":5.394795,"is_reserved":false,"is_disabled":false,"rental_uris":{"android":"levelo://app?vid=0849fdfb-f7a7-4090-94e7-d3a945c98a6a","ios":"levelo://app?vid=0849fdfb-f7a7-4090-94e7-d3a945c98a6a"},"vehicle_type_id":"4","last_reported":1738336124,"current_range_meters":27200,"station_id":"ce4bh0p2rcd13ifvqd70","pricing_plan_id":"cebpf4jnsgd1na2vs0mg"},{"bike_id":"a5646cab-9a7a-46d4-9871-a302b81e6e2b","system_id":"levelo_inurba_marseille","lat":43.29861,"lon":5.39758,"is_reserved":false,"is_disabled":false,"rental_uris":{"android":"levelo://app?vid=a5646cab-9a7a-46d4-9871-a302b81e6e2b","ios":"levelo://app?vid=a5646cab-9a7a-46d4-9871-a302b81e6e2b"},"vehicle_type_id":"4","last_reported":1738336124,"current_range_meters":39200,"station_id":"ce4bh0h2rcd13ifvqd50","pricing_plan_id":"cebpf4jnsgd1na2vs0mg"},{"bike_id":"471eca08-401e-4a75-bc9a-3f015ab502d6","system_id":"levelo_inurba_marseille","lat":43.29548,"lon":5.42264,"is_reserved":false,"is_disabled":false,"rental_uris":{"android":"levelo://app?vid=471eca08-401e-4a75-bc9a-3f015ab502d6","ios":"levelo://app?vid=471eca08-401e-4a75-bc9a-3f015ab502d6"},"vehicle_type_id":"4","last_reported":1738336124,"current_range_meters":38800,"station_id":"ce4bhph2rcd13ifvqhdg","pricing_plan_id":"cebpf4jnsgd1na2vs0mg"},{"bike_id":"4bbfab15-7f28-4fb2-9ec3-f938420ec585","system_id":"levelo_inurba_marseille","lat":43.23182,"lon":5.39998,"is_reserved":false,"is_disabled":false,"rental_uris":{"android":"levelo://app?vid=4bbfab15-7f28-4fb2-9ec3-f938420ec585","ios":"levelo://app?vid=4bbfab15-7f28-4fb2-9ec3-f938420ec585"},"vehicle_type_id":"4","last_reported":1738336124,"current_range_meters":13600,"station_id":"ce4bhn12rcd13ifvqgqg","pricing_plan_id":"cebpf4jnsgd1na2vs0mg"},{"bike_id":"3d3683d0-6fa2-4625-8b79-882bbb185c30","system_id":"levelo_inurba_marseille","lat":43.32273,"lon":5.38226,"is_reserved":false,"is_disabled":false,"rental_uris":{"android":"levelo://app?vid=3d3683d0-6fa2-4625-8b79-882bbb185c30","ios":"levelo://app?vid=3d3683d0-6fa2-4625-8b79-882bbb185c30"},"vehicle_type_id":"4","last_reported":1738336124,"current_range_meters":27600,"station_id":"ce4bhr12rcd13ifvqhqg","pricing_plan_id":"cebpf4jnsgd1na2vs0mg"},{"bike_id":"e28ef4b1-156f-4c62-898f-9a0754569c89","system_id":"levelo_inurba_marseille","lat":43.30144,"lon":5.381,"is_reserved":false,"is_disabled":false,"rental_uris":{"android":"levelo://app?vid=e28ef4b1-156f-4c62-898f-9a0754569c89","ios":"levelo://app?vid=e28ef4b1-156f-4c62-898f-9a0754569c89"},"vehicle_type_id":"4","last_reported":1738336124,"current_range_meters":32000,"station_id":"ce4bgjp2rcd13ifvqbh0","pricing_plan_id":"cebpf4jnsgd1na2vs0mg"},{"bike_id":"976a519e-e041-4be0-a8ce-cf32f3f91c5d","system_id":"levelo_inurba_marseille","lat":43.305497,"lon":5.367017,"is_reserved":false,"is_disabled":false,"rental_uris":{"android":"levelo://app?vid=976a519e-e041-4be0-a8ce-cf32f3f91c5d","ios":"levelo://app?vid=976a519e-e041-4be0-a8ce-cf32f3f91c5d"},"vehicle_type_id":"4","last_reported":1738336124,"current_range_meters":37600,"station_id":"ce4bgrp2rcd13ifvqc9g","pricing_plan_id":"cebpf4jnsgd1na2vs0mg"},{"bike_id":"f708dfa9-98d2-47bf-b3ff-37aade42a7e8","system_id":"levelo_inurba_marseille","lat":43.26583,"lon":5.39021,"is_reserved":false,"is_disabled":false,"rental_uris":{"android":"levelo://app?vid=f708dfa9-98d2-47bf-b3ff-37aade42a7e8","ios":"levelo://app?vid=f708dfa9-98d2-47bf-b3ff-37aade42a7e8"},"vehicle_type_id":"4","last_reported":1738336124,"current_range_meters":7200,"station_id":"ce4bhe12rcd13ifvqf30","pricing_plan_id":"cebpf4jnsgd1na2vs0mg"},{"bike_id":"6f2cc4b6-0f8b-4df3-8f07-8dc0e58fa585","system_id":"levelo_inurba_marseille","lat":43.29902,"lon":5.37472,"is_reserved":false,"is_disabled":false,"rental_uris":{"android":"levelo://app?vid=6f2cc4b6-0f8b-4df3-8f07-8dc0e58fa585","ios":"levelo://app?vid=6f2cc4b6-0f8b-4df3-8f07-8dc0e58fa585"},"vehicle_type_id":"4","last_reported":1738336124,"current_range_meters":29600,"station_id":"ce4bgjh2rcd13ifvqbg0","pricing_plan_id":"cebpf4jnsgd1na2vs0mg"},{"bike_id":"d979d8d2-ec65-47af-9229-e4270aab279a","system_id":"levelo_inurba_marseille","lat":43.23062,"lon":5.35484,"is_reserved":false,"is_disabled":false,"rental_uris":{"android":"levelo://app?vid=d979d8d2-ec65-47af-9229-e4270aab279a","ios":"levelo://app?vid=d979d8d2-ec65-47af-9229-e4270aab279a"},"vehicle_type_id":"4","last_reported":1738336124,"current_range_meters":9200,"station_id":"cpo3342slgdg3j2ifvpg","pricing_plan_id":"cebpf4jnsgd1na2vs0mg"},{"bike_id":"f10d9b40-8520-41ee-b039-cd6e7d066065","system_id":"levelo_inurba_marseille","lat":43.2622,"lon":5.37447,"is_reserved":false,"is_disabled":false,"rental_uris":{"android":"levelo://app?vid=f10d9b40-8520-41ee-b039-cd6e7d066065","ios":"levelo://app?vid=f10d9b40-8520-41ee-b039-cd6e7d066065"},"vehicle_type_id":"4","last_reported":1738336124,"current_range_meters":32800,"station_id":"ce4bhgp2rcd13ifvqfc0","pricing_plan_id":"cebpf4jnsgd1na2vs0mg"},{"bike_id":"e260ee7f-b864-47f7-a3c1-649332ddaaee","system_id":"levelo_inurba_marseille","lat":43.30801,"lon":5.38157,"is_reserved":false,"is_disabled":false,"rental_uris":{"android":"levelo://app?vid=e260ee7f-b864-47f7-a3c1-649332ddaaee","ios":"levelo://app?vid=e260ee7f-b864-47f7-a3c1-649332ddaaee"},"vehicle_type_id":"4","last_reported":1738336124,"current_range_meters":38800,"station_id":"ce4bgt12rcd13ifvqce0","pricing_plan_id":"cebpf4jnsgd1na2vs0mg"},{"bike_id":"8f982301-5907-46b6-b1e8-1b8abf5c682a","system_id":"levelo_inurba_marseille","lat":43.26212,"lon":5.37438,"is_reserved":false,"is_disabled":false,"rental_uris":{"android":"levelo://app?vid=8f982301-5907-46b6-b1e8-1b8abf5c682a","ios":"levelo://app?vid=8f982301-5907-46b6-b1e8-1b8abf5c682a"},"vehicle_type_id":"4","last_reported":1738336124,"current_range_meters":38800,"station_id":"ce4bhgp2rcd13ifvqfc0","pricing_plan_id":"cebpf4jnsgd1na2vs0mg"},{"bike_id":"efe7056c-0b9c-4a4c-83d6-452434e2f890","system_id":"levelo_inurba_marseille","lat":43.26952,"lon":5.38875,"is_reserved":false,"is_disabled":false,"rental_uris":{"android":"levelo://app?vid=efe7056c-0b9c-4a4c-83d6-452434e2f890","ios":"levelo://app?vid=efe7056c-0b9c-4a4c-83d6-452434e2f890"},"vehicle_type_id":"4","last_reported":1738336124,"current_range_meters":22800,"station_id":"ce4bhhh2rcd13ifvqfl0","pricing_plan_id":"cebpf4jnsgd1na2vs0mg"},{"bike_id":"4b0f7fd1-0c58-4c21-824f-06ce1401ea2e","system_id":"levelo_inurba_marseille","lat":43.30034,"lon":5.38937,"is_reserved":false,"is_disabled":false,"rental_uris":{"android":"levelo://app?vid=4b0f7fd1-0c58-4c21-824f-06ce1401ea2e","ios":"levelo://app?vid=4b0f7fd1-0c58-4c21-824f-06ce1401ea2e"},"vehicle_type_id":"4","last_reported":1738336124,"current_range_meters":16000,"station_id":"ce4bh392rcd13ifvqdl0","pricing_plan_id":"cebpf4jnsgd1na2vs0mg"},{"bike_id":"7d6260ec-6d8c-4d5b-8950-1a493871014c","system_id":"levelo_inurba_marseille","lat":43.298987,"lon":5.436769,"is_reserved":false,"is_disabled":false,"rental_uris":{"android":"levelo://app?vid=7d6260ec-6d8c-4d5b-8950-1a493871014c","ios":"levelo://app?vid=7d6260ec-6d8c-4d5b-8950-1a493871014c"},"vehicle_type_id":"4","last_reported":1738336124,"current_range_meters":30000,"station_id":"ce4bhpp2rcd13ifvqhfg","pricing_plan_id":"cebpf4jnsgd1na2vs0mg"},{"bike_id":"4288a232-ae1a-4a0e-b7e1-97ede851d38b","system_id":"levelo_inurba_marseille","lat":43.2694,"lon":5.40259,"is_reserved":false,"is_disabled":false,"rental_uris":{"android":"levelo://app?vid=4288a232-ae1a-4a0e-b7e1-97ede851d38b","ios":"levelo://app?vid=4288a232-ae1a-4a0e-b7e1-97ede851d38b"},"vehicle_type_id":"4","last_reported":1738336124,"current_range_meters":27600,"station_id":"cjm6bp8fraef2m0cb0m0","pricing_plan_id":"cebpf4jnsgd1na2vs0mg"},{"bike_id":"cbd8e521-170f-40de-8051-a654a0ce8f65","system_id":"levelo_inurba_marseille","lat":43.28938,"lon":5.36616,"is_reserved":false,"is_disabled":false,"rental_uris":{"android":"levelo://app?vid=cbd8e521-170f-40de-8051-a654a0ce8f65","ios":"levelo://app?vid=cbd8e521-170f-40de-8051-a654a0ce8f65"},"vehicle_type_id":"4","last_reported":1738336124,"current_range_meters":37600,"station_id":"ce4bhap2rcd13ifvqek0","pricing_plan_id":"cebpf4jnsgd1na2vs0mg"},{"bike_id":"5b2c6512-6eed-41b4-b9a7-6aad2122c352","system_id":"levelo_inurba_marseille","lat":43.28456,"lon":5.35907,"is_reserved":false,"is_disabled":false,"rental_uris":{"android":"levelo://app?vid=5b2c6512-6eed-41b4-b9a7-6aad2122c352","ios":"levelo://app?vid=5b2c6512-6eed-41b4-b9a7-6aad2122c352"},"vehicle_type_id":"4","last_reported":1738336124,"current_range_meters":24000,"station_id":"ce4bhah2rcd13ifvqei0","pricing_plan_id":"cebpf4jnsgd1na2vs0mg"},{"bike_id":"396d2bf0-6b5f-403b-bacf-9deaab552e51","system_id":"levelo_inurba_marseille","lat":43.23963,"lon":5.36628,"is_reserved":false,"is_disabled":false,"rental_uris":{"android":"levelo://app?vid=396d2bf0-6b5f-403b-bacf-9deaab552e51","ios":"levelo://app?vid=396d2bf0-6b5f-403b-bacf-9deaab552e51"},"vehicle_type_id":"4","last_reported":1738336124,"current_range_meters":12400,"station_id":"ce4bhi12rcd13ifvqfp0","pricing_plan_id":"cebpf4jnsgd1na2vs0mg"},{"bike_id":"d8b1c3f9-ff6e-4179-8423-4ba0d2a2af0e","system_id":"levelo_inurba_marseille","lat":43.337234,"lon":5.39181,"is_reserved":false,"is_disabled":false,"rental_uris":{"android":"levelo://app?vid=d8b1c3f9-ff6e-4179-8423-4ba0d2a2af0e","ios":"levelo://app?vid=d8b1c3f9-ff6e-4179-8423-4ba0d2a2af0e"},"vehicle_type_id":"4","last_reported":1738336124,"current_range_meters":38800,"station_id":"ce4bhr92rcd13ifvqhsg","pricing_plan_id":"cebpf4jnsgd1na2vs0mg"},{"bike_id":"b542ddbc-0bc2-4617-b278-31868294449b","system_id":"levelo_inurba_marseille","lat":43.26787,"lon":5.39407,"is_reserved":false,"is_disabled":false,"rental_uris":{"android":"levelo://app?vid=b542ddbc-0bc2-4617-b278-31868294449b","ios":"levelo://app?vid=b542ddbc-0bc2-4617-b278-31868294449b"},"vehicle_type_id":"4","last_reported":1738336124,"current_range_meters":29600,"station_id":"ce4bhh12rcd13ifvqfg0","pricing_plan_id":"cebpf4jnsgd1na2vs0mg"},{"bike_id":"6efe0f9b-7f60-42e1-b4d6-454d55df2d9f","system_id":"levelo_inurba_marseille","lat":43.28855,"lon":5.39315,"is_reserved":false,"is_disabled":false,"rental_uris":{"android":"levelo://app?vid=6efe0f9b-7f60-42e1-b4d6-454d55df2d9f","ios":"levelo://app?vid=6efe0f9b-7f60-42e1-b4d6-454d55df2d9f"},"vehicle_type_id":"4","last_reported":1738336124,"current_range_meters":38800,"station_id":"ce4bh2p2rcd13ifvqdi0","pricing_plan_id":"cebpf4jnsgd1na2vs0mg"},{"bike_id":"37a316fb-b3fd-47c4-b337-ae3ed2613770","system_id":"levelo_inurba_marseille","lat":43.25859,"lon":5.39911,"is_reserved":false,"is_disabled":false,"rental_uris":{"android":"levelo://app?vid=37a316fb-b3fd-47c4-b337-ae3ed2613770","ios":"levelo://app?vid=37a316fb-b3fd-47c4-b337-ae3ed2613770"},"vehicle_type_id":"4","last_reported":1738336124,"current_range_meters":38800,"station_id":"ce4bhl92rcd13ifvqghg","pricing_plan_id":"cebpf4jnsgd1na2vs0mg"},{"bike_id":"f086b070-9af2-4a12-baa6-4f5148d2f614","system_id":"levelo_inurba_marseille","lat":43.27803,"lon":5.40728,"is_reserved":false,"is_disabled":false,"rental_uris":{"android":"levelo://app?vid=f086b070-9af2-4a12-baa6-4f5148d2f614","ios":"levelo://app?vid=f086b070-9af2-4a12-baa6-4f5148d2f614"},"vehicle_type_id":"4","last_reported":1738336124,"current_range_meters":19600,"station_id":"ce4bhnh2rcd13ifvqgtg","pricing_plan_id":"cebpf4jnsgd1na2vs0mg"},{"bike_id":"f1531728-b8ea-45f6-b10e-94dd52db4db3","system_id":"levelo_inurba_marseille","lat":43.31321,"lon":5.3972,"is_reserved":false,"is_disabled":false,"rental_uris":{"android":"levelo://app?vid=f1531728-b8ea-45f6-b10e-94dd52db4db3","ios":"levelo://app?vid=f1531728-b8ea-45f6-b10e-94dd52db4db3"},"vehicle_type_id":"4","last_reported":1738336124,"current_range_meters":38800,"station_id":"ce4bgvp2rcd13ifvqcu0","pricing_plan_id":"cebpf4jnsgd1na2vs0mg"},{"bike_id":"97720b80-9b73-412f-b364-307a0f334978","system_id":"levelo_inurba_marseille","lat":43.267661,"lon":5.394415,"is_reserved":false,"is_disabled":false,"rental_uris":{"android":"levelo://app?vid=97720b80-9b73-412f-b364-307a0f334978","ios":"levelo://app?vid=97720b80-9b73-412f-b364-307a0f334978"},"vehicle_type_id":"4","last_reported":1738336124,"current_range_meters":16800,"station_id":"ce4bhh12rcd13ifvqfg0","pricing_plan_id":"cebpf4jnsgd1na2vs0mg"},{"bike_id":"93b70775-0577-4739-bc63-32a63c93af9d","system_id":"levelo_inurba_marseille","lat":43.29798,"lon":5.38097,"is_reserved":false,"is_disabled":false,"rental_uris":{"android":"levelo://app?vid=93b70775-0577-4739-bc63-32a63c93af9d","ios":"levelo://app?vid=93b70775-0577-4739-bc63-32a63c93af9d"},"vehicle_type_id":"4","last_reported":1738336124,"current_range_meters":38800,"station_id":"ce4bgip2rcd13ifvqbb0","pricing_plan_id":"cebpf4jnsgd1na2vs0mg"},{"bike_id":"01a8d7dc-50a9-4946-9c2b-ae219c7eea47","system_id":"levelo_inurba_marseille","lat":43.29119,"lon":5.38118,"is_reserved":false,"is_disabled":false,"rental_uris":{"android":"levelo://app?vid=01a8d7dc-50a9-4946-9c2b-ae219c7eea47","ios":"levelo://app?vid=01a8d7dc-50a9-4946-9c2b-ae219c7eea47"},"vehicle_type_id":"4","last_reported":1738336124,"current_range_meters":39200,"station_id":"ce4bh512rcd13ifvqe2g","pricing_plan_id":"cebpf4jnsgd1na2vs0mg"},{"bike_id":"123aed8e-857d-442b-aa84-924afac40406","system_id":"levelo_inurba_marseille","lat":43.3054,"lon":5.38434,"is_reserved":false,"is_disabled":false,"rental_uris":{"android":"levelo://app?vid=123aed8e-857d-442b-aa84-924afac40406","ios":"levelo://app?vid=123aed8e-857d-442b-aa84-924afac40406"},"vehicle_type_id":"4","last_reported":1738336124,"current_range_meters":10800,"station_id":"ce4bgg92rcd13ifvqb30","pricing_plan_id":"cebpf4jnsgd1na2vs0mg"},{"bike_id":"8d738762-ad14-4067-951b-e941e6c61ea3","system_id":"levelo_inurba_marseille","lat":43.28269,"lon":5.35073,"is_reserved":false,"is_disabled":false,"rental_uris":{"android":"levelo://app?vid=8d738762-ad14-4067-951b-e941e6c61ea3","ios":"levelo://app?vid=8d738762-ad14-4067-951b-e941e6c61ea3"},"vehicle_type_id":"4","last_reported":1738336124,"current_range_meters":10800,"station_id":"ce4bhbp2rcd13ifvqerg","pricing_plan_id":"cebpf4jnsgd1na2vs0mg"},{"bike_id":"bcabc7a5-73e4-4d8b-97a7-c7fbdca65bfb","system_id":"levelo_inurba_marseille","lat":43.3133,"lon":5.39694,"is_reserved":false,"is_disabled":false,"rental_uris":{"android":"levelo://app?vid=bcabc7a5-73e4-4d8b-97a7-c7fbdca65bfb","ios":"levelo://app?vid=bcabc7a5-73e4-4d8b-97a7-c7fbdca65bfb"},"vehicle_type_id":"4","last_reported":1738336124,"current_range_meters":25200,"station_id":"ce4bgvp2rcd13ifvqcu0","pricing_plan_id":"cebpf4jnsgd1na2vs0mg"},{"bike_id":"34d03d88-e555-447b-9243-f17cc5397179","system_id":"levelo_inurba_marseille","lat":43.29876,"lon":5.39732,"is_reserved":false,"is_disabled":false,"rental_uris":{"android":"levelo://app?vid=34d03d88-e555-447b-9243-f17cc5397179","ios":"levelo://app?vid=34d03d88-e555-447b-9243-f17cc5397179"},"vehicle_type_id":"4","last_reported":1738336124,"current_range_meters":26800,"station_id":"ce4bh0h2rcd13ifvqd50","pricing_plan_id":"cebpf4jnsgd1na2vs0mg"},{"bike_id":"116e9faa-6bf9-4b8b-afdb-42e6306382f8","system_id":"levelo_inurba_marseille","lat":43.25935,"lon":5.40888,"is_reserved":false,"is_disabled":false,"rental_uris":{"android":"levelo://app?vid=116e9faa-6bf9-4b8b-afdb-42e6306382f8","ios":"levelo://app?vid=116e9faa-6bf9-4b8b-afdb-42e6306382f8"},"vehicle_type_id":"4","last_reported":1738336124,"current_range_meters":8400,"station_id":"ce4bhm92rcd13ifvqglg","pricing_plan_id":"cebpf4jnsgd1na2vs0mg"},{"bike_id":"fa007fe0-3dc1-405c-9d10-9879e2200643","system_id":"levelo_inurba_marseille","lat":43.32329,"lon":5.4062,"is_reserved":false,"is_disabled":false,"rental_uris":{"android":"levelo://app?vid=fa007fe0-3dc1-405c-9d10-9879e2200643","ios":"levelo://app?vid=fa007fe0-3dc1-405c-9d10-9879e2200643"},"vehicle_type_id":"4","last_reported":1738336124,"current_range_meters":24000,"station_id":"ce4bhq92rcd13ifvqhjg","pricing_plan_id":"cebpf4jnsgd1na2vs0mg"},{"bike_id":"e88eb1f3-8ae0-45d5-b478-7fa0e88e8228","system_id":"levelo_inurba_marseille","lat":43.32298,"lon":5.38267,"is_reserved":false,"is_disabled":false,"rental_uris":{"android":"levelo://app?vid=e88eb1f3-8ae0-45d5-b478-7fa0e88e8228","ios":"levelo://app?vid=e88eb1f3-8ae0-45d5-b478-7fa0e88e8228"},"vehicle_type_id":"4","last_reported":1738336124,"current_range_meters":35200,"station_id":"ce4bhr12rcd13ifvqhqg","pricing_plan_id":"cebpf4jnsgd1na2vs0mg"},{"bike_id":"6fd983bf-2229-4fda-9095-8042b3083b17","system_id":"levelo_inurba_marseille","lat":43.29044,"lon":5.37566,"is_reserved":false,"is_disabled":false,"rental_uris":{"android":"levelo://app?vid=6fd983bf-2229-4fda-9095-8042b3083b17","ios":"levelo://app?vid=6fd983bf-2229-4fda-9095-8042b3083b17"},"vehicle_type_id":"4","last_reported":1738336124,"current_range_meters":38800,"station_id":"ce4bh692rcd13ifvqe90","pricing_plan_id":"cebpf4jnsgd1na2vs0mg"},{"bike_id":"fe11ec81-8e43-46aa-9848-81a5bac57eb7","system_id":"levelo_inurba_marseille","lat":43.31072,"lon":5.38343,"is_reserved":false,"is_disabled":false,"rental_uris":{"android":"levelo://app?vid=fe11ec81-8e43-46aa-9848-81a5bac57eb7","ios":"levelo://app?vid=fe11ec81-8e43-46aa-9848-81a5bac57eb7"},"vehicle_type_id":"4","last_reported":1738336124,"current_range_meters":10800,"station_id":"ce4bgv92rcd13ifvqcr0","pricing_plan_id":"cebpf4jnsgd1na2vs0mg"},{"bike_id":"f7fbdb2d-7edd-4721-b31a-b1aae0697167","system_id":"levelo_inurba_marseille","lat":43.28272,"lon":5.35075,"is_reserved":false,"is_disabled":false,"rental_uris":{"android":"levelo://app?vid=f7fbdb2d-7edd-4721-b31a-b1aae0697167","ios":"levelo://app?vid=f7fbdb2d-7edd-4721-b31a-b1aae0697167"},"vehicle_type_id":"4","last_reported":1738336124,"current_range_meters":30000,"station_id":"ce4bhbp2rcd13ifvqerg","pricing_plan_id":"cebpf4jnsgd1na2vs0mg"},{"bike_id":"6abe0c05-61a1-4926-a7fc-471d13d57779","system_id":"levelo_inurba_marseille","lat":43.29415,"lon":5.38627,"is_reserved":false,"is_disabled":false,"rental_uris":{"android":"levelo://app?vid=6abe0c05-61a1-4926-a7fc-471d13d57779","ios":"levelo://app?vid=6abe0c05-61a1-4926-a7fc-471d13d57779"},"vehicle_type_id":"4","last_reported":1738336124,"current_range_meters":33200,"station_id":"ce4bh2h2rcd13ifvqdh0","pricing_plan_id":"cebpf4jnsgd1na2vs0mg"},{"bike_id":"64cc8768-bd97-4948-ab7a-b158c90df482","system_id":"levelo_inurba_marseille","lat":43.31691,"lon":5.40455,"is_reserved":false,"is_disabled":false,"rental_uris":{"android":"levelo://app?vid=64cc8768-bd97-4948-ab7a-b158c90df482","ios":"levelo://app?vid=64cc8768-bd97-4948-ab7a-b158c90df482"},"vehicle_type_id":"4","last_reported":1738336124,"current_range_meters":16400,"station_id":"ce4bh012rcd13ifvqd00","pricing_plan_id":"cebpf4jnsgd1na2vs0mg"},{"bike_id":"0b13a75e-73fd-43f9-b985-cb7a75c57a04","system_id":"levelo_inurba_marseille","lat":43.27367,"lon":5.36249,"is_reserved":false,"is_disabled":false,"rental_uris":{"android":"levelo://app?vid=0b13a75e-73fd-43f9-b985-cb7a75c57a04","ios":"levelo://app?vid=0b13a75e-73fd-43f9-b985-cb7a75c57a04"},"vehicle_type_id":"4","last_reported":1738336124,"current_range_meters":10800,"station_id":"ce4bhbh2rcd13ifvqeo0","pricing_plan_id":"cebpf4jnsgd1na2vs0mg"},{"bike_id":"e76772ad-4d7b-4743-aa72-133535f3d9df","system_id":"levelo_inurba_marseille","lat":43.296239,"lon":5.377045,"is_reserved":false,"is_disabled":true,"rental_uris":{"android":"levelo://app?vid=e76772ad-4d7b-4743-aa72-133535f3d9df","ios":"levelo://app?vid=e76772ad-4d7b-4743-aa72-133535f3d9df"},"vehicle_type_id":"4","last_reported":1738336124,"current_range_meters":0,"station_id":"","pricing_plan_id":"cebpf4jnsgd1na2vs0mg"},{"bike_id":"276191be-c556-4a71-bf18-eb357c9bdf55","system_id":"levelo_inurba_marseille","lat":43.31118,"lon":5.37774,"is_reserved":false,"is_disabled":false,"rental_uris":{"android":"levelo://app?vid=276191be-c556-4a71-bf18-eb357c9bdf55","ios":"levelo://app?vid=276191be-c556-4a71-bf18-eb357c9bdf55"},"vehicle_type_id":"4","last_reported":1738336124,"current_range_meters":30000,"station_id":"ce4bgt92rcd13ifvqcg0","pricing_plan_id":"cebpf4jnsgd1na2vs0mg"},{"bike_id":"ab2c796a-c23b-4a3a-9534-777b873d6a05","system_id":"levelo_inurba_marseille","lat":43.24174,"lon":5.364,"is_reserved":false,"is_disabled":false,"rental_uris":{"android":"levelo://app?vid=ab2c796a-c23b-4a3a-9534-777b873d6a05","ios":"levelo://app?vid=ab2c796a-c23b-4a3a-9534-777b873d6a05"},"vehicle_type_id":"4","last_reported":1738336124,"current_range_meters":36800,"station_id":"cpo36qri1sfpv3e86is0","pricing_plan_id":"cebpf4jnsgd1na2vs0mg"},{"bike_id":"66d26847-06f0-4ca4-aae0-7253f5ac912f","system_id":"levelo_inurba_marseille","lat":43.29945,"lon":5.38481,"is_reserved":false,"is_disabled":true,"rental_uris":{"android":"levelo://app?vid=66d26847-06f0-4ca4-aae0-7253f5ac912f","ios":"levelo://app?vid=66d26847-06f0-4ca4-aae0-7253f5ac912f"},"vehicle_type_id":"4","last_reported":1738336124,"current_range_meters":1200,"station_id":"ce4bgj92rcd13ifvqbd0","pricing_plan_id":"cebpf4jnsgd1na2vs0mg"},{"bike_id":"58feef8f-17b5-470d-8151-c7a13f0dbe24","system_id":"levelo_inurba_marseille","lat":43.28437,"lon":5.37552,"is_reserved":false,"is_disabled":true,"rental_uris":{"android":"levelo://app?vid=58feef8f-17b5-470d-8151-c7a13f0dbe24","ios":"levelo://app?vid=58feef8f-17b5-470d-8151-c7a13f0dbe24"},"vehicle_type_id":"4","last_reported":1738336124,"current_range_meters":400,"station_id":"ce4bh412rcd13ifvqds0","pricing_plan_id":"cebpf4jnsgd1na2vs0mg"},{"bike_id":"abf9e02a-80ba-4e44-b340-b432a9edcae4","system_id":"levelo_inurba_marseille","lat":43.27207,"lon":5.39183,"is_reserved":false,"is_disabled":false,"rental_uris":{"android":"levelo://app?vid=abf9e02a-80ba-4e44-b340-b432a9edcae4","ios":"levelo://app?vid=abf9e02a-80ba-4e44-b340-b432a9edcae4"},"vehicle_type_id":"4","last_reported":1738336124,"current_range_meters":11200,"station_id":"ce4bhhp2rcd13ifvqfm0","pricing_plan_id":"cebpf4jnsgd1na2vs0mg"},{"bike_id":"9bfb3bca-0d21-44b9-a0d0-eca905133ea5","system_id":"levelo_inurba_marseille","lat":43.25109,"lon":5.40329,"is_reserved":false,"is_disabled":false,"rental_uris":{"android":"levelo://app?vid=9bfb3bca-0d21-44b9-a0d0-eca905133ea5","ios":"levelo://app?vid=9bfb3bca-0d21-44b9-a0d0-eca905133ea5"},"vehicle_type_id":"4","last_reported":1738336124,"current_range_meters":36400,"station_id":"ce4bhlh2rcd13ifvqgig","pricing_plan_id":"cebpf4jnsgd1na2vs0mg"},{"bike_id":"b3f9d40e-c6c3-4e70-a1cf-be32056d433c","system_id":"levelo_inurba_marseille","lat":43.24393,"lon":5.37066,"is_reserved":false,"is_disabled":false,"rental_uris":{"android":"levelo://app?vid=b3f9d40e-c6c3-4e70-a1cf-be32056d433c","ios":"levelo://app?vid=b3f9d40e-c6c3-4e70-a1cf-be32056d433c"},"vehicle_type_id":"4","last_reported":1738336124,"current_range_meters":30800,"station_id":"ce4bhhh2rcd13ifvqfk0","pricing_plan_id":"cebpf4jnsgd1na2vs0mg"},{"bike_id":"4453e33c-51ab-42cc-b275-60a2c345fb5c","system_id":"levelo_inurba_marseille","lat":43.29006,"lon":5.35604,"is_reserved":false,"is_disabled":false,"rental_uris":{"android":"levelo://app?vid=4453e33c-51ab-42cc-b275-60a2c345fb5c","ios":"levelo://app?vid=4453e33c-51ab-42cc-b275-60a2c345fb5c"},"vehicle_type_id":"4","last_reported":1738336124,"current_range_meters":28800,"station_id":"ce4bhb92rcd13ifvqen0","pricing_plan_id":"cebpf4jnsgd1na2vs0mg"},{"bike_id":"fc2dee61-6a5e-41ce-a75c-e2029dcb39bc","system_id":"levelo_inurba_marseille","lat":43.26547,"lon":5.37328,"is_reserved":false,"is_disabled":false,"rental_uris":{"android":"levelo://app?vid=fc2dee61-6a5e-41ce-a75c-e2029dcb39bc","ios":"levelo://app?vid=fc2dee61-6a5e-41ce-a75c-e2029dcb39bc"},"vehicle_type_id":"4","last_reported":1738336124,"current_range_meters":12800,"station_id":"ce4bhg12rcd13ifvqf70","pricing_plan_id":"cebpf4jnsgd1na2vs0mg"},{"bike_id":"866e1aac-afb3-42bc-97ef-69d419e0b0e0","system_id":"levelo_inurba_marseille","lat":43.30545,"lon":5.365353,"is_reserved":false,"is_disabled":false,"rental_uris":{"android":"levelo://app?vid=866e1aac-afb3-42bc-97ef-69d419e0b0e0","ios":"levelo://app?vid=866e1aac-afb3-42bc-97ef-69d419e0b0e0"},"vehicle_type_id":"4","last_reported":1738336124,"current_range_meters":28800,"station_id":"ce4bgs12rcd13ifvqcag","pricing_plan_id":"cebpf4jnsgd1na2vs0mg"},{"bike_id":"e3d9edd1-4b21-4861-aed7-6b704ae4933c","system_id":"levelo_inurba_marseille","lat":43.28934,"lon":5.36622,"is_reserved":false,"is_disabled":false,"rental_uris":{"android":"levelo://app?vid=e3d9edd1-4b21-4861-aed7-6b704ae4933c","ios":"levelo://app?vid=e3d9edd1-4b21-4861-aed7-6b704ae4933c"},"vehicle_type_id":"4","last_reported":1738336124,"current_range_meters":38000,"station_id":"ce4bhap2rcd13ifvqek0","pricing_plan_id":"cebpf4jnsgd1na2vs0mg"},{"bike_id":"743b76e5-d2c2-4f7e-9fcb-5cac24a1b2d5","system_id":"levelo_inurba_marseille","lat":43.29789,"lon":5.381,"is_reserved":false,"is_disabled":false,"rental_uris":{"android":"levelo://app?vid=743b76e5-d2c2-4f7e-9fcb-5cac24a1b2d5","ios":"levelo://app?vid=743b76e5-d2c2-4f7e-9fcb-5cac24a1b2d5"},"vehicle_type_id":"4","last_reported":1738336124,"current_range_meters":4800,"station_id":"ce4bgip2rcd13ifvqbb0","pricing_plan_id":"cebpf4jnsgd1na2vs0mg"},{"bike_id":"e8e1f7c6-d773-4c38-bfcc-4a6d773355ce","system_id":"levelo_inurba_marseille","lat":43.229421,"lon":5.353817,"is_reserved":false,"is_disabled":false,"rental_uris":{"android":"levelo://app?vid=e8e1f7c6-d773-4c38-bfcc-4a6d773355ce","ios":"levelo://app?vid=e8e1f7c6-d773-4c38-bfcc-4a6d773355ce"},"vehicle_type_id":"4","last_reported":1738336124,"current_range_meters":38800,"station_id":"cpo3532slgdg3j2ikp40","pricing_plan_id":"cebpf4jnsgd1na2vs0mg"},{"bike_id":"98f8e47d-584f-4f3e-b424-822b5fda866a","system_id":"levelo_inurba_marseille","lat":43.24162,"lon":5.39742,"is_reserved":false,"is_disabled":false,"rental_uris":{"android":"levelo://app?vid=98f8e47d-584f-4f3e-b424-822b5fda866a","ios":"levelo://app?vid=98f8e47d-584f-4f3e-b424-822b5fda866a"},"vehicle_type_id":"4","last_reported":1738336124,"current_range_meters":22800,"station_id":"ce4bhn12rcd13ifvqgpg","pricing_plan_id":"cebpf4jnsgd1na2vs0mg"},{"bike_id":"def6e6f0-bdd3-44b5-9cf5-47d29620e1f0","system_id":"levelo_inurba_marseille","lat":43.32361,"lon":5.36753,"is_reserved":false,"is_disabled":false,"rental_uris":{"android":"levelo://app?vid=def6e6f0-bdd3-44b5-9cf5-47d29620e1f0","ios":"levelo://app?vid=def6e6f0-bdd3-44b5-9cf5-47d29620e1f0"},"vehicle_type_id":"4","last_reported":1738336124,"current_range_meters":18800,"station_id":"ce4bhsh2rcd13ifvqi2g","pricing_plan_id":"cebpf4jnsgd1na2vs0mg"},{"bike_id":"888770a9-8e73-4700-ad4a-e18595403e5b","system_id":"levelo_inurba_marseille","lat":43.25582,"lon":5.38229,"is_reserved":false,"is_disabled":false,"rental_uris":{"android":"levelo://app?vid=888770a9-8e73-4700-ad4a-e18595403e5b","ios":"levelo://app?vid=888770a9-8e73-4700-ad4a-e18595403e5b"},"vehicle_type_id":"4","last_reported":1738336124,"current_range_meters":10000,"station_id":"ce4bhih2rcd13ifvqfs0","pricing_plan_id":"cebpf4jnsgd1na2vs0mg"},{"bike_id":"b55e91dc-af17-4634-8e79-096c3196a1d8","system_id":"levelo_inurba_marseille","lat":43.30312,"lon":5.36896,"is_reserved":false,"is_disabled":false,"rental_uris":{"android":"levelo://app?vid=b55e91dc-af17-4634-8e79-096c3196a1d8","ios":"levelo://app?vid=b55e91dc-af17-4634-8e79-096c3196a1d8"},"vehicle_type_id":"4","last_reported":1738336124,"current_range_meters":37600,"station_id":"ce4bgqh2rcd13ifvqc5g","pricing_plan_id":"cebpf4jnsgd1na2vs0mg"},{"bike_id":"e3d8a223-fb6b-449d-8e45-ad3295748cda","system_id":"levelo_inurba_marseille","lat":43.29581,"lon":5.38142,"is_reserved":false,"is_disabled":false,"rental_uris":{"android":"levelo://app?vid=e3d8a223-fb6b-449d-8e45-ad3295748cda","ios":"levelo://app?vid=e3d8a223-fb6b-449d-8e45-ad3295748cda"},"vehicle_type_id":"4","last_reported":1738336124,"current_range_meters":34000,"station_id":"ce4bgl12rcd13ifvqbo0","pricing_plan_id":"cebpf4jnsgd1na2vs0mg"},{"bike_id":"446cfbd8-380d-483d-82ba-61ff47e31d05","system_id":"levelo_inurba_marseille","lat":43.29261,"lon":5.38437,"is_reserved":false,"is_disabled":true,"rental_uris":{"android":"levelo://app?vid=446cfbd8-380d-483d-82ba-61ff47e31d05","ios":"levelo://app?vid=446cfbd8-380d-483d-82ba-61ff47e31d05"},"vehicle_type_id":"4","last_reported":1738336124,"current_range_meters":3200,"station_id":"ce4bh692rcd13ifvqea0","pricing_plan_id":"cebpf4jnsgd1na2vs0mg"},{"bike_id":"15a4cde9-9176-4b0a-baea-7f4f797bb1d5","system_id":"levelo_inurba_marseille","lat":43.30185,"lon":5.3661,"is_reserved":false,"is_disabled":false,"rental_uris":{"android":"levelo://app?vid=15a4cde9-9176-4b0a-baea-7f4f797bb1d5","ios":"levelo://app?vid=15a4cde9-9176-4b0a-baea-7f4f797bb1d5"},"vehicle_type_id":"4","last_reported":1738336124,"current_range_meters":39200,"station_id":"ce4bgrh2rcd13ifvqc8g","pricing_plan_id":"cebpf4jnsgd1na2vs0mg"},{"bike_id":"60335d1b-4a92-46bd-8eca-dffb02768c78","system_id":"levelo_inurba_marseille","lat":43.25007,"lon":5.38936,"is_reserved":false,"is_disabled":false,"rental_uris":{"android":"levelo://app?vid=60335d1b-4a92-46bd-8eca-dffb02768c78","ios":"levelo://app?vid=60335d1b-4a92-46bd-8eca-dffb02768c78"},"vehicle_type_id":"4","last_reported":1738336124,"current_range_meters":15200,"station_id":"ce4bhgp2rcd13ifvqfd0","pricing_plan_id":"cebpf4jnsgd1na2vs0mg"},{"bike_id":"60911234-26e8-4f42-acbb-88b4c360ca2e","system_id":"levelo_inurba_marseille","lat":43.24997,"lon":5.38926,"is_reserved":false,"is_disabled":false,"rental_uris":{"android":"levelo://app?vid=60911234-26e8-4f42-acbb-88b4c360ca2e","ios":"levelo://app?vid=60911234-26e8-4f42-acbb-88b4c360ca2e"},"vehicle_type_id":"4","last_reported":1738336124,"current_range_meters":30800,"station_id":"ce4bhgp2rcd13ifvqfd0","pricing_plan_id":"cebpf4jnsgd1na2vs0mg"},{"bike_id":"fc52d5c5-af7e-4db6-8f28-25fd6b488d53","system_id":"levelo_inurba_marseille","lat":43.30886,"lon":5.39658,"is_reserved":false,"is_disabled":false,"rental_uris":{"android":"levelo://app?vid=fc52d5c5-af7e-4db6-8f28-25fd6b488d53","ios":"levelo://app?vid=fc52d5c5-af7e-4db6-8f28-25fd6b488d53"},"vehicle_type_id":"4","last_reported":1738336124,"current_range_meters":38000,"station_id":"ce4bh012rcd13ifvqcv0","pricing_plan_id":"cebpf4jnsgd1na2vs0mg"},{"bike_id":"070218cf-5f55-4a87-b307-d0bbb1caf6f4","system_id":"levelo_inurba_marseille","lat":43.23183,"lon":5.4,"is_reserved":false,"is_disabled":false,"rental_uris":{"android":"levelo://app?vid=070218cf-5f55-4a87-b307-d0bbb1caf6f4","ios":"levelo://app?vid=070218cf-5f55-4a87-b307-d0bbb1caf6f4"},"vehicle_type_id":"4","last_reported":1738336124,"current_range_meters":38800,"station_id":"ce4bhn12rcd13ifvqgqg","pricing_plan_id":"cebpf4jnsgd1na2vs0mg"},{"bike_id":"ce27dd8c-aaf1-4b5a-b307-aa8a4daf0be9","system_id":"levelo_inurba_marseille","lat":43.29799,"lon":5.38089,"is_reserved":false,"is_disabled":false,"rental_uris":{"android":"levelo://app?vid=ce27dd8c-aaf1-4b5a-b307-aa8a4daf0be9","ios":"levelo://app?vid=ce27dd8c-aaf1-4b5a-b307-aa8a4daf0be9"},"vehicle_type_id":"4","last_reported":1738336124,"current_range_meters":38800,"station_id":"ce4bgip2rcd13ifvqbb0","pricing_plan_id":"cebpf4jnsgd1na2vs0mg"},{"bike_id":"c807c779-0643-465e-a199-4981bf054e67","system_id":"levelo_inurba_marseille","lat":43.296023,"lon":5.377341,"is_reserved":false,"is_disabled":false,"rental_uris":{"android":"levelo://app?vid=c807c779-0643-465e-a199-4981bf054e67","ios":"levelo://app?vid=c807c779-0643-465e-a199-4981bf054e67"},"vehicle_type_id":"4","last_reported":1738336124,"current_range_meters":38800,"station_id":"ce4bgi92rcd13ifvqb90","pricing_plan_id":"cebpf4jnsgd1na2vs0mg"},{"bike_id":"71f34f72-d3b7-46a5-9bd4-1fe057b3152f","system_id":"levelo_inurba_marseille","lat":43.22932,"lon":5.3537,"is_reserved":false,"is_disabled":false,"rental_uris":{"android":"levelo://app?vid=71f34f72-d3b7-46a5-9bd4-1fe057b3152f","ios":"levelo://app?vid=71f34f72-d3b7-46a5-9bd4-1fe057b3152f"},"vehicle_type_id":"4","last_reported":1738336124,"current_range_meters":38800,"station_id":"cpo3532slgdg3j2ikp40","pricing_plan_id":"cebpf4jnsgd1na2vs0mg"},{"bike_id":"20029bdd-9f9c-4ff9-86e4-5ba6ed30f46a","system_id":"levelo_inurba_marseille","lat":43.23148,"lon":5.43705,"is_reserved":false,"is_disabled":true,"rental_uris":{"android":"levelo://app?vid=20029bdd-9f9c-4ff9-86e4-5ba6ed30f46a","ios":"levelo://app?vid=20029bdd-9f9c-4ff9-86e4-5ba6ed30f46a"},"vehicle_type_id":"4","last_reported":1738336124,"current_range_meters":0,"station_id":"ce4bhmp2rcd13ifvqgog","pricing_plan_id":"cebpf4jnsgd1na2vs0mg"},{"bike_id":"9a420f87-7d7e-4781-b326-9c09400ca210","system_id":"levelo_inurba_marseille","lat":43.26239,"lon":5.3744,"is_reserved":false,"is_disabled":false,"rental_uris":{"android":"levelo://app?vid=9a420f87-7d7e-4781-b326-9c09400ca210","ios":"levelo://app?vid=9a420f87-7d7e-4781-b326-9c09400ca210"},"vehicle_type_id":"4","last_reported":1738336124,"current_range_meters":38800,"station_id":"ce4bhgp2rcd13ifvqfc0","pricing_plan_id":"cebpf4jnsgd1na2vs0mg"},{"bike_id":"3d4b3e0a-4326-4344-bb72-09251a157a11","system_id":"levelo_inurba_marseille","lat":43.30551,"lon":5.36547,"is_reserved":false,"is_disabled":true,"rental_uris":{"android":"levelo://app?vid=3d4b3e0a-4326-4344-bb72-09251a157a11","ios":"levelo://app?vid=3d4b3e0a-4326-4344-bb72-09251a157a11"},"vehicle_type_id":"4","last_reported":1738336124,"current_range_meters":32800,"station_id":"ce4bgs12rcd13ifvqcag","pricing_plan_id":"cebpf4jnsgd1na2vs0mg"},{"bike_id":"f4d6faaf-3373-48f8-b12f-81d02af0cd67","system_id":"levelo_inurba_marseille","lat":43.2408,"lon":5.37754,"is_reserved":false,"is_disabled":false,"rental_uris":{"android":"levelo://app?vid=f4d6faaf-3373-48f8-b12f-81d02af0cd67","ios":"levelo://app?vid=f4d6faaf-3373-48f8-b12f-81d02af0cd67"},"vehicle_type_id":"4","last_reported":1738336124,"current_range_meters":30000,"station_id":"ce4bhnp2rcd13ifvqgvg","pricing_plan_id":"cebpf4jnsgd1na2vs0mg"},{"bike_id":"c7b7d5dc-fcd4-4974-ac80-02e658adb2bb","system_id":"levelo_inurba_marseille","lat":43.3017,"lon":5.38097,"is_reserved":false,"is_disabled":false,"rental_uris":{"android":"levelo://app?vid=c7b7d5dc-fcd4-4974-ac80-02e658adb2bb","ios":"levelo://app?vid=c7b7d5dc-fcd4-4974-ac80-02e658adb2bb"},"vehicle_type_id":"4","last_reported":1738336124,"current_range_meters":38400,"station_id":"ce4bgjp2rcd13ifvqbh0","pricing_plan_id":"cebpf4jnsgd1na2vs0mg"},{"bike_id":"c116e3f6-7077-4f84-b653-a0878ae93f06","system_id":"levelo_inurba_marseille","lat":43.25582,"lon":5.38241,"is_reserved":false,"is_disabled":false,"rental_uris":{"android":"levelo://app?vid=c116e3f6-7077-4f84-b653-a0878ae93f06","ios":"levelo://app?vid=c116e3f6-7077-4f84-b653-a0878ae93f06"},"vehicle_type_id":"4","last_reported":1738336124,"current_range_meters":22400,"station_id":"ce4bhih2rcd13ifvqfs0","pricing_plan_id":"cebpf4jnsgd1na2vs0mg"},{"bike_id":"b7c67c9d-20bb-496a-a0df-618401506efd","system_id":"levelo_inurba_marseille","lat":43.30144,"lon":5.38084,"is_reserved":false,"is_disabled":false,"rental_uris":{"android":"levelo://app?vid=b7c67c9d-20bb-496a-a0df-618401506efd","ios":"levelo://app?vid=b7c67c9d-20bb-496a-a0df-618401506efd"},"vehicle_type_id":"4","last_reported":1738336124,"current_range_meters":38400,"station_id":"ce4bgjp2rcd13ifvqbh0","pricing_plan_id":"cebpf4jnsgd1na2vs0mg"},{"bike_id":"05865aae-e7aa-4436-809a-640be4d9286b","system_id":"levelo_inurba_marseille","lat":43.301524,"lon":5.380781,"is_reserved":false,"is_disabled":false,"rental_uris":{"android":"levelo://app?vid=05865aae-e7aa-4436-809a-640be4d9286b","ios":"levelo://app?vid=05865aae-e7aa-4436-809a-640be4d9286b"},"vehicle_type_id":"4","last_reported":1738336124,"current_range_meters":27200,"station_id":"ce4bgjp2rcd13ifvqbh0","pricing_plan_id":"cebpf4jnsgd1na2vs0mg"},{"bike_id":"491407c5-a175-44f0-86fc-0f4ccadf82e3","system_id":"levelo_inurba_marseille","lat":43.337444,"lon":5.374475,"is_reserved":false,"is_disabled":true,"rental_uris":{"android":"levelo://app?vid=491407c5-a175-44f0-86fc-0f4ccadf82e3","ios":"levelo://app?vid=491407c5-a175-44f0-86fc-0f4ccadf82e3"},"vehicle_type_id":"4","last_reported":1738336124,"current_range_meters":0,"station_id":"","pricing_plan_id":"cebpf4jnsgd1na2vs0mg"},{"bike_id":"45fd4a2a-a5dc-4b7e-962f-4641aedb60dd","system_id":"levelo_inurba_marseille","lat":43.27988,"lon":5.41667,"is_reserved":false,"is_disabled":false,"rental_uris":{"android":"levelo://app?vid=45fd4a2a-a5dc-4b7e-962f-4641aedb60dd","ios":"levelo://app?vid=45fd4a2a-a5dc-4b7e-962f-4641aedb60dd"},"vehicle_type_id":"4","last_reported":1738336124,"current_range_meters":38800,"station_id":"ce4bho12rcd13ifvqh1g","pricing_plan_id":"cebpf4jnsgd1na2vs0mg"},{"bike_id":"1e2757ee-0eae-44ad-91cf-f612260ef51a","system_id":"levelo_inurba_marseille","lat":43.31763,"lon":5.39017,"is_reserved":false,"is_disabled":false,"rental_uris":{"android":"levelo://app?vid=1e2757ee-0eae-44ad-91cf-f612260ef51a","ios":"levelo://app?vid=1e2757ee-0eae-44ad-91cf-f612260ef51a"},"vehicle_type_id":"4","last_reported":1738336124,"current_range_meters":38400,"station_id":"ce4bhqp2rcd13ifvqhng","pricing_plan_id":"cebpf4jnsgd1na2vs0mg"},{"bike_id":"cd2ca1aa-425c-4fa1-b6bc-b3cc41c627b6","system_id":"levelo_inurba_marseille","lat":43.29769,"lon":5.37105,"is_reserved":false,"is_disabled":false,"rental_uris":{"android":"levelo://app?vid=cd2ca1aa-425c-4fa1-b6bc-b3cc41c627b6","ios":"levelo://app?vid=cd2ca1aa-425c-4fa1-b6bc-b3cc41c627b6"},"vehicle_type_id":"4","last_reported":1738336124,"current_range_meters":18800,"station_id":"ce4bgop2rcd13ifvqc1g","pricing_plan_id":"cebpf4jnsgd1na2vs0mg"},{"bike_id":"494b7547-7a22-4c74-9aae-e4b9ac052a09","system_id":"levelo_inurba_marseille","lat":43.2958,"lon":5.36748,"is_reserved":false,"is_disabled":false,"rental_uris":{"android":"levelo://app?vid=494b7547-7a22-4c74-9aae-e4b9ac052a09","ios":"levelo://app?vid=494b7547-7a22-4c74-9aae-e4b9ac052a09"},"vehicle_type_id":"4","last_reported":1738336124,"current_range_meters":38800,"station_id":"ce4bgph2rcd13ifvqc2g","pricing_plan_id":"cebpf4jnsgd1na2vs0mg"},{"bike_id":"85e7cf41-5d49-4bcb-ba0d-0c247684cbc9","system_id":"levelo_inurba_marseille","lat":43.30194,"lon":5.36628,"is_reserved":false,"is_disabled":false,"rental_uris":{"android":"levelo://app?vid=85e7cf41-5d49-4bcb-ba0d-0c247684cbc9","ios":"levelo://app?vid=85e7cf41-5d49-4bcb-ba0d-0c247684cbc9"},"vehicle_type_id":"4","last_reported":1738336124,"current_range_meters":27200,"station_id":"ce4bgrh2rcd13ifvqc8g","pricing_plan_id":"cebpf4jnsgd1na2vs0mg"},{"bike_id":"95aee25f-5c57-4ea4-ae9b-fd75ffb2acea","system_id":"levelo_inurba_marseille","lat":43.23183,"lon":5.39988,"is_reserved":false,"is_disabled":false,"rental_uris":{"android":"levelo://app?vid=95aee25f-5c57-4ea4-ae9b-fd75ffb2acea","ios":"levelo://app?vid=95aee25f-5c57-4ea4-ae9b-fd75ffb2acea"},"vehicle_type_id":"4","last_reported":1738336124,"current_range_meters":29600,"station_id":"ce4bhn12rcd13ifvqgqg","pricing_plan_id":"cebpf4jnsgd1na2vs0mg"},{"bike_id":"1c19df71-a661-42d9-bef6-8b9c0630f0da","system_id":"levelo_inurba_marseille","lat":43.30509,"lon":5.36553,"is_reserved":false,"is_disabled":false,"rental_uris":{"android":"levelo://app?vid=1c19df71-a661-42d9-bef6-8b9c0630f0da","ios":"levelo://app?vid=1c19df71-a661-42d9-bef6-8b9c0630f0da"},"vehicle_type_id":"4","last_reported":1738336124,"current_range_meters":16400,"station_id":"","pricing_plan_id":"cebpf4jnsgd1na2vs0mg"},{"bike_id":"528fe304-774b-4f5e-99b0-3a6df52f7bd5","system_id":"levelo_inurba_marseille","lat":43.26945,"lon":5.40249,"is_reserved":false,"is_disabled":false,"rental_uris":{"android":"levelo://app?vid=528fe304-774b-4f5e-99b0-3a6df52f7bd5","ios":"levelo://app?vid=528fe304-774b-4f5e-99b0-3a6df52f7bd5"},"vehicle_type_id":"4","last_reported":1738336124,"current_range_meters":24800,"station_id":"cjm6bp8fraef2m0cb0m0","pricing_plan_id":"cebpf4jnsgd1na2vs0mg"},{"bike_id":"9bd862b5-41ed-415b-908f-0b3f930ba20f","system_id":"levelo_inurba_marseille","lat":43.28695,"lon":5.37413,"is_reserved":false,"is_disabled":false,"rental_uris":{"android":"levelo://app?vid=9bd862b5-41ed-415b-908f-0b3f930ba20f","ios":"levelo://app?vid=9bd862b5-41ed-415b-908f-0b3f930ba20f"},"vehicle_type_id":"4","last_reported":1738336124,"current_range_meters":25200,"station_id":"ce4bh3p2rcd13ifvqdq0","pricing_plan_id":"cebpf4jnsgd1na2vs0mg"},{"bike_id":"c29efa44-984d-4c76-ab5f-60fe4a87f1bb","system_id":"levelo_inurba_marseille","lat":43.2669,"lon":5.38279,"is_reserved":false,"is_disabled":false,"rental_uris":{"android":"levelo://app?vid=c29efa44-984d-4c76-ab5f-60fe4a87f1bb","ios":"levelo://app?vid=c29efa44-984d-4c76-ab5f-60fe4a87f1bb"},"vehicle_type_id":"4","last_reported":1738336124,"current_range_meters":38000,"station_id":"ce4bhg92rcd13ifvqf90","pricing_plan_id":"cebpf4jnsgd1na2vs0mg"},{"bike_id":"06ef57c7-8095-47a9-87a2-83d69735c7d4","system_id":"levelo_inurba_marseille","lat":43.317035,"lon":5.37631,"is_reserved":false,"is_disabled":false,"rental_uris":{"android":"levelo://app?vid=06ef57c7-8095-47a9-87a2-83d69735c7d4","ios":"levelo://app?vid=06ef57c7-8095-47a9-87a2-83d69735c7d4"},"vehicle_type_id":"4","last_reported":1738336124,"current_range_meters":24800,"station_id":"ce4bgth2rcd13ifvqch0","pricing_plan_id":"cebpf4jnsgd1na2vs0mg"},{"bike_id":"8c88d0f3-c1b8-4caf-9314-42839cc9f24d","system_id":"levelo_inurba_marseille","lat":43.28711,"lon":5.37405,"is_reserved":false,"is_disabled":false,"rental_uris":{"android":"levelo://app?vid=8c88d0f3-c1b8-4caf-9314-42839cc9f24d","ios":"levelo://app?vid=8c88d0f3-c1b8-4caf-9314-42839cc9f24d"},"vehicle_type_id":"4","last_reported":1738336124,"current_range_meters":30400,"station_id":"ce4bh3p2rcd13ifvqdq0","pricing_plan_id":"cebpf4jnsgd1na2vs0mg"},{"bike_id":"c3d805fa-5da3-4146-a2b9-15dade748ab1","system_id":"levelo_inurba_marseille","lat":43.2958,"lon":5.36738,"is_reserved":false,"is_disabled":false,"rental_uris":{"android":"levelo://app?vid=c3d805fa-5da3-4146-a2b9-15dade748ab1","ios":"levelo://app?vid=c3d805fa-5da3-4146-a2b9-15dade748ab1"},"vehicle_type_id":"4","last_reported":1738336124,"current_range_meters":10000,"station_id":"ce4bgph2rcd13ifvqc2g","pricing_plan_id":"cebpf4jnsgd1na2vs0mg"},{"bike_id":"f8c952c1-c0d8-4553-90b4-8ae839b7f743","system_id":"levelo_inurba_marseille","lat":43.30941,"lon":5.40146,"is_reserved":false,"is_disabled":true,"rental_uris":{"android":"levelo://app?vid=f8c952c1-c0d8-4553-90b4-8ae839b7f743","ios":"levelo://app?vid=f8c952c1-c0d8-4553-90b4-8ae839b7f743"},"vehicle_type_id":"4","last_reported":1738336124,"current_range_meters":1600,"station_id":"ce4bgvp2rcd13ifvqct0","pricing_plan_id":"cebpf4jnsgd1na2vs0mg"},{"bike_id":"6725a974-636a-4cad-bf4d-273395199ad4","system_id":"levelo_inurba_marseille","lat":43.33719,"lon":5.39178,"is_reserved":false,"is_disabled":false,"rental_uris":{"android":"levelo://app?vid=6725a974-636a-4cad-bf4d-273395199ad4","ios":"levelo://app?vid=6725a974-636a-4cad-bf4d-273395199ad4"},"vehicle_type_id":"4","last_reported":1738336124,"current_range_meters":24800,"station_id":"ce4bhr92rcd13ifvqhsg","pricing_plan_id":"cebpf4jnsgd1na2vs0mg"},{"bike_id":"e36db202-a0c5-4337-b881-dbba49b15e2b","system_id":"levelo_inurba_marseille","lat":43.23958,"lon":5.36632,"is_reserved":false,"is_disabled":false,"rental_uris":{"android":"levelo://app?vid=e36db202-a0c5-4337-b881-dbba49b15e2b","ios":"levelo://app?vid=e36db202-a0c5-4337-b881-dbba49b15e2b"},"vehicle_type_id":"4","last_reported":1738336124,"current_range_meters":19600,"station_id":"ce4bhi12rcd13ifvqfp0","pricing_plan_id":"cebpf4jnsgd1na2vs0mg"},{"bike_id":"bd8a828d-e634-4034-9cac-55889d5bbfa5","system_id":"levelo_inurba_marseille","lat":43.28144,"lon":5.42647,"is_reserved":false,"is_disabled":false,"rental_uris":{"android":"levelo://app?vid=bd8a828d-e634-4034-9cac-55889d5bbfa5","ios":"levelo://app?vid=bd8a828d-e634-4034-9cac-55889d5bbfa5"},"vehicle_type_id":"4","last_reported":1738336124,"current_range_meters":26000,"station_id":"ce4bhnh2rcd13ifvqgug","pricing_plan_id":"cebpf4jnsgd1na2vs0mg"},{"bike_id":"56869ed2-b4d6-4fdb-aff2-8c618baecdc1","system_id":"levelo_inurba_marseille","lat":43.31086,"lon":5.42432,"is_reserved":false,"is_disabled":false,"rental_uris":{"android":"levelo://app?vid=56869ed2-b4d6-4fdb-aff2-8c618baecdc1","ios":"levelo://app?vid=56869ed2-b4d6-4fdb-aff2-8c618baecdc1"},"vehicle_type_id":"4","last_reported":1738336124,"current_range_meters":38400,"station_id":"ce4bhp92rcd13ifvqhag","pricing_plan_id":"cebpf4jnsgd1na2vs0mg"},{"bike_id":"f9d35a32-65b2-4842-bd83-8cbe10324274","system_id":"levelo_inurba_marseille","lat":43.28632,"lon":5.35102,"is_reserved":false,"is_disabled":false,"rental_uris":{"android":"levelo://app?vid=f9d35a32-65b2-4842-bd83-8cbe10324274","ios":"levelo://app?vid=f9d35a32-65b2-4842-bd83-8cbe10324274"},"vehicle_type_id":"4","last_reported":1738336124,"current_range_meters":12000,"station_id":"ce4bhch2rcd13ifvqeug","pricing_plan_id":"cebpf4jnsgd1na2vs0mg"},{"bike_id":"e737d6b4-980a-4244-b0b6-85b0751595d1","system_id":"levelo_inurba_marseille","lat":43.32058,"lon":5.4153,"is_reserved":false,"is_disabled":false,"rental_uris":{"android":"levelo://app?vid=e737d6b4-980a-4244-b0b6-85b0751595d1","ios":"levelo://app?vid=e737d6b4-980a-4244-b0b6-85b0751595d1"},"vehicle_type_id":"4","last_reported":1738336124,"current_range_meters":35600,"station_id":"ce4bhq92rcd13ifvqhkg","pricing_plan_id":"cebpf4jnsgd1na2vs0mg"},{"bike_id":"9d402fed-0d7f-4c33-ae87-1f54a7a1f2d1","system_id":"levelo_inurba_marseille","lat":43.2693,"lon":5.38916,"is_reserved":false,"is_disabled":false,"rental_uris":{"android":"levelo://app?vid=9d402fed-0d7f-4c33-ae87-1f54a7a1f2d1","ios":"levelo://app?vid=9d402fed-0d7f-4c33-ae87-1f54a7a1f2d1"},"vehicle_type_id":"4","last_reported":1738336124,"current_range_meters":20000,"station_id":"ce4bhhh2rcd13ifvqfl0","pricing_plan_id":"cebpf4jnsgd1na2vs0mg"},{"bike_id":"4305dc7c-ef4d-4a64-bf57-4f79d4019a64","system_id":"levelo_inurba_marseille","lat":43.29278,"lon":5.36838,"is_reserved":false,"is_disabled":false,"rental_uris":{"android":"levelo://app?vid=4305dc7c-ef4d-4a64-bf57-4f79d4019a64","ios":"levelo://app?vid=4305dc7c-ef4d-4a64-bf57-4f79d4019a64"},"vehicle_type_id":"4","last_reported":1738336124,"current_range_meters":17200,"station_id":"ce4bhbp2rcd13ifvqesg","pricing_plan_id":"cebpf4jnsgd1na2vs0mg"},{"bike_id":"e130584b-151a-4515-b6de-68ccd01827c6","system_id":"levelo_inurba_marseille","lat":43.25721,"lon":5.41115,"is_reserved":false,"is_disabled":false,"rental_uris":{"android":"levelo://app?vid=e130584b-151a-4515-b6de-68ccd01827c6","ios":"levelo://app?vid=e130584b-151a-4515-b6de-68ccd01827c6"},"vehicle_type_id":"4","last_reported":1738336124,"current_range_meters":13600,"station_id":"ce4bhkp2rcd13ifvqgd0","pricing_plan_id":"cebpf4jnsgd1na2vs0mg"},{"bike_id":"5cbdbab0-67fc-4efc-a893-43bc49c7a99f","system_id":"levelo_inurba_marseille","lat":43.2651,"lon":5.39555,"is_reserved":false,"is_disabled":false,"rental_uris":{"android":"levelo://app?vid=5cbdbab0-67fc-4efc-a893-43bc49c7a99f","ios":"levelo://app?vid=5cbdbab0-67fc-4efc-a893-43bc49c7a99f"},"vehicle_type_id":"4","last_reported":1738336124,"current_range_meters":36800,"station_id":"ce4bhi12rcd13ifvqfq0","pricing_plan_id":"cebpf4jnsgd1na2vs0mg"},{"bike_id":"759c4a02-5987-4b3a-a60a-471843eb4b79","system_id":"levelo_inurba_marseille","lat":43.25109,"lon":5.40325,"is_reserved":false,"is_disabled":false,"rental_uris":{"android":"levelo://app?vid=759c4a02-5987-4b3a-a60a-471843eb4b79","ios":"levelo://app?vid=759c4a02-5987-4b3a-a60a-471843eb4b79"},"vehicle_type_id":"4","last_reported":1738336124,"current_range_meters":32800,"station_id":"ce4bhlh2rcd13ifvqgig","pricing_plan_id":"cebpf4jnsgd1na2vs0mg"},{"bike_id":"ad3cdf25-9963-4fac-b030-f249efcede1b","system_id":"levelo_inurba_marseille","lat":43.243922,"lon":5.370634,"is_reserved":false,"is_disabled":false,"rental_uris":{"android":"levelo://app?vid=ad3cdf25-9963-4fac-b030-f249efcede1b","ios":"levelo://app?vid=ad3cdf25-9963-4fac-b030-f249efcede1b"},"vehicle_type_id":"4","last_reported":1738336124,"current_range_meters":38800,"station_id":"ce4bhhh2rcd13ifvqfk0","pricing_plan_id":"cebpf4jnsgd1na2vs0mg"},{"bike_id":"46b43093-b875-4b52-a6ea-76dd9dc96ba1","system_id":"levelo_inurba_marseille","lat":43.30523,"lon":5.36545,"is_reserved":false,"is_disabled":true,"rental_uris":{"android":"levelo://app?vid=46b43093-b875-4b52-a6ea-76dd9dc96ba1","ios":"levelo://app?vid=46b43093-b875-4b52-a6ea-76dd9dc96ba1"},"vehicle_type_id":"4","last_reported":1738336124,"current_range_meters":3600,"station_id":"ce4bgs12rcd13ifvqcag","pricing_plan_id":"cebpf4jnsgd1na2vs0mg"},{"bike_id":"56d6b97f-30a2-4c2a-8be6-a12a9fc19507","system_id":"levelo_inurba_marseille","lat":43.31754,"lon":5.39031,"is_reserved":false,"is_disabled":false,"rental_uris":{"android":"levelo://app?vid=56d6b97f-30a2-4c2a-8be6-a12a9fc19507","ios":"levelo://app?vid=56d6b97f-30a2-4c2a-8be6-a12a9fc19507"},"vehicle_type_id":"4","last_reported":1738336124,"current_range_meters":13600,"station_id":"ce4bhqp2rcd13ifvqhng","pricing_plan_id":"cebpf4jnsgd1na2vs0mg"},{"bike_id":"75a18411-4c45-4421-921c-f4bdfd318cee","system_id":"levelo_inurba_marseille","lat":43.31113,"lon":5.37772,"is_reserved":false,"is_disabled":false,"rental_uris":{"android":"levelo://app?vid=75a18411-4c45-4421-921c-f4bdfd318cee","ios":"levelo://app?vid=75a18411-4c45-4421-921c-f4bdfd318cee"},"vehicle_type_id":"4","last_reported":1738336124,"current_range_meters":32800,"station_id":"ce4bgt92rcd13ifvqcg0","pricing_plan_id":"cebpf4jnsgd1na2vs0mg"},{"bike_id":"d2a61873-58f7-4bc8-abeb-3ce8c1c55c8d","system_id":"levelo_inurba_marseille","lat":43.27215,"lon":5.40963,"is_reserved":false,"is_disabled":false,"rental_uris":{"android":"levelo://app?vid=d2a61873-58f7-4bc8-abeb-3ce8c1c55c8d","ios":"levelo://app?vid=d2a61873-58f7-4bc8-abeb-3ce8c1c55c8d"},"vehicle_type_id":"4","last_reported":1738336124,"current_range_meters":12000,"station_id":"ce4bhl12rcd13ifvqgf0","pricing_plan_id":"cebpf4jnsgd1na2vs0mg"},{"bike_id":"936d592f-7b6b-4efd-89d6-7503c46cd8c8","system_id":"levelo_inurba_marseille","lat":43.27924,"lon":5.39573,"is_reserved":false,"is_disabled":false,"rental_uris":{"android":"levelo://app?vid=936d592f-7b6b-4efd-89d6-7503c46cd8c8","ios":"levelo://app?vid=936d592f-7b6b-4efd-89d6-7503c46cd8c8"},"vehicle_type_id":"4","last_reported":1738336124,"current_range_meters":9200,"station_id":"ce4bhf92rcd13ifvqf40","pricing_plan_id":"cebpf4jnsgd1na2vs0mg"},{"bike_id":"b61407a7-d93a-47a9-ae07-fdf92f9b0164","system_id":"levelo_inurba_marseille","lat":43.27622,"lon":5.3609,"is_reserved":false,"is_disabled":false,"rental_uris":{"android":"levelo://app?vid=b61407a7-d93a-47a9-ae07-fdf92f9b0164","ios":"levelo://app?vid=b61407a7-d93a-47a9-ae07-fdf92f9b0164"},"vehicle_type_id":"4","last_reported":1738336124,"current_range_meters":38800,"station_id":"ce4bgj92rcd13ifvqbe0","pricing_plan_id":"cebpf4jnsgd1na2vs0mg"},{"bike_id":"d8b9d007-a10a-402f-a842-dc817cadcf59","system_id":"levelo_inurba_marseille","lat":43.29416,"lon":5.38625,"is_reserved":false,"is_disabled":false,"rental_uris":{"android":"levelo://app?vid=d8b9d007-a10a-402f-a842-dc817cadcf59","ios":"levelo://app?vid=d8b9d007-a10a-402f-a842-dc817cadcf59"},"vehicle_type_id":"4","last_reported":1738336124,"current_range_meters":24800,"station_id":"ce4bh2h2rcd13ifvqdh0","pricing_plan_id":"cebpf4jnsgd1na2vs0mg"},{"bike_id":"5dcfbf68-498b-43b7-9261-c1788cc7b925","system_id":"levelo_inurba_marseille","lat":43.26223,"lon":5.40447,"is_reserved":false,"is_disabled":false,"rental_uris":{"android":"levelo://app?vid=5dcfbf68-498b-43b7-9261-c1788cc7b925","ios":"levelo://app?vid=5dcfbf68-498b-43b7-9261-c1788cc7b925"},"vehicle_type_id":"4","last_reported":1738336124,"current_range_meters":23200,"station_id":"ce4bhmh2rcd13ifvqgmg","pricing_plan_id":"cebpf4jnsgd1na2vs0mg"},{"bike_id":"c47dd06e-0361-47d5-b2c6-c9b45c81f8b0","system_id":"levelo_inurba_marseille","lat":43.2694,"lon":5.40256,"is_reserved":false,"is_disabled":false,"rental_uris":{"android":"levelo://app?vid=c47dd06e-0361-47d5-b2c6-c9b45c81f8b0","ios":"levelo://app?vid=c47dd06e-0361-47d5-b2c6-c9b45c81f8b0"},"vehicle_type_id":"4","last_reported":1738336124,"current_range_meters":8800,"station_id":"cjm6bp8fraef2m0cb0m0","pricing_plan_id":"cebpf4jnsgd1na2vs0mg"},{"bike_id":"8382186f-0d25-40e6-beca-2632cc8590f2","system_id":"levelo_inurba_marseille","lat":43.29551,"lon":5.42288,"is_reserved":false,"is_disabled":false,"rental_uris":{"android":"levelo://app?vid=8382186f-0d25-40e6-beca-2632cc8590f2","ios":"levelo://app?vid=8382186f-0d25-40e6-beca-2632cc8590f2"},"vehicle_type_id":"4","last_reported":1738336124,"current_range_meters":39200,"station_id":"ce4bhph2rcd13ifvqhdg","pricing_plan_id":"cebpf4jnsgd1na2vs0mg"},{"bike_id":"96caf13d-4c9d-4188-87b8-598aebcea853","system_id":"levelo_inurba_marseille","lat":43.30544,"lon":5.36687,"is_reserved":false,"is_disabled":false,"rental_uris":{"android":"levelo://app?vid=96caf13d-4c9d-4188-87b8-598aebcea853","ios":"levelo://app?vid=96caf13d-4c9d-4188-87b8-598aebcea853"},"vehicle_type_id":"4","last_reported":1738336124,"current_range_meters":28800,"station_id":"ce4bgrp2rcd13ifvqc9g","pricing_plan_id":"cebpf4jnsgd1na2vs0mg"},{"bike_id":"c0a5239c-ce8c-4f2b-8c7d-7bbd44c6f4fc","system_id":"levelo_inurba_marseille","lat":43.286097,"lon":5.35115,"is_reserved":false,"is_disabled":false,"rental_uris":{"android":"levelo://app?vid=c0a5239c-ce8c-4f2b-8c7d-7bbd44c6f4fc","ios":"levelo://app?vid=c0a5239c-ce8c-4f2b-8c7d-7bbd44c6f4fc"},"vehicle_type_id":"4","last_reported":1738336124,"current_range_meters":38400,"station_id":"ce4bhch2rcd13ifvqeug","pricing_plan_id":"cebpf4jnsgd1na2vs0mg"},{"bike_id":"6a3cbb9f-8663-4702-ab2f-57714697fccd","system_id":"levelo_inurba_marseille","lat":43.30194,"lon":5.37344,"is_reserved":false,"is_disabled":false,"rental_uris":{"android":"levelo://app?vid=6a3cbb9f-8663-4702-ab2f-57714697fccd","ios":"levelo://app?vid=6a3cbb9f-8663-4702-ab2f-57714697fccd"},"vehicle_type_id":"4","last_reported":1738336124,"current_range_meters":28400,"station_id":"","pricing_plan_id":"cebpf4jnsgd1na2vs0mg"},{"bike_id":"c5d83d2c-bbec-46e8-9c7c-458ad16298ea","system_id":"levelo_inurba_marseille","lat":43.29023,"lon":5.38138,"is_reserved":false,"is_disabled":false,"rental_uris":{"android":"levelo://app?vid=c5d83d2c-bbec-46e8-9c7c-458ad16298ea","ios":"levelo://app?vid=c5d83d2c-bbec-46e8-9c7c-458ad16298ea"},"vehicle_type_id":"4","last_reported":1738336124,"current_range_meters":39200,"station_id":"ce4bh4p2rcd13ifvqe1g","pricing_plan_id":"cebpf4jnsgd1na2vs0mg"},{"bike_id":"6cbf0a4e-38d6-47e5-9674-7835ff03a77f","system_id":"levelo_inurba_marseille","lat":43.29951,"lon":5.36524,"is_reserved":false,"is_disabled":false,"rental_uris":{"android":"levelo://app?vid=6cbf0a4e-38d6-47e5-9674-7835ff03a77f","ios":"levelo://app?vid=6cbf0a4e-38d6-47e5-9674-7835ff03a77f"},"vehicle_type_id":"4","last_reported":1738336124,"current_range_meters":23200,"station_id":"ce4bgm92rcd13ifvqbr0","pricing_plan_id":"cebpf4jnsgd1na2vs0mg"},{"bike_id":"22104948-5f50-4e80-98c9-a0836d4c33ff","system_id":"levelo_inurba_marseille","lat":43.28079,"lon":5.39665,"is_reserved":false,"is_disabled":true,"rental_uris":{"android":"levelo://app?vid=22104948-5f50-4e80-98c9-a0836d4c33ff","ios":"levelo://app?vid=22104948-5f50-4e80-98c9-a0836d4c33ff"},"vehicle_type_id":"4","last_reported":1738336124,"current_range_meters":1600,"station_id":"ce4bho12rcd13ifvqh2g","pricing_plan_id":"cebpf4jnsgd1na2vs0mg"},{"bike_id":"d88d85be-410c-4f6b-bb47-500ea0120aea","system_id":"levelo_inurba_marseille","lat":43.29425,"lon":5.38618,"is_reserved":false,"is_disabled":false,"rental_uris":{"android":"levelo://app?vid=d88d85be-410c-4f6b-bb47-500ea0120aea","ios":"levelo://app?vid=d88d85be-410c-4f6b-bb47-500ea0120aea"},"vehicle_type_id":"4","last_reported":1738336124,"current_range_meters":39200,"station_id":"ce4bh2h2rcd13ifvqdh0","pricing_plan_id":"cebpf4jnsgd1na2vs0mg"},{"bike_id":"32d9a329-7366-4eb8-8d55-73b5c99c70c3","system_id":"levelo_inurba_marseille","lat":43.23203,"lon":5.35541,"is_reserved":false,"is_disabled":false,"rental_uris":{"android":"levelo://app?vid=32d9a329-7366-4eb8-8d55-73b5c99c70c3","ios":"levelo://app?vid=32d9a329-7366-4eb8-8d55-73b5c99c70c3"},"vehicle_type_id":"4","last_reported":1738336124,"current_range_meters":38800,"station_id":"ce4bhu92rcd13ifvqi70","pricing_plan_id":"cebpf4jnsgd1na2vs0mg"},{"bike_id":"8056f615-2ae8-41a5-a64d-35896471c39c","system_id":"levelo_inurba_marseille","lat":43.29225,"lon":5.36074,"is_reserved":false,"is_disabled":false,"rental_uris":{"android":"levelo://app?vid=8056f615-2ae8-41a5-a64d-35896471c39c","ios":"levelo://app?vid=8056f615-2ae8-41a5-a64d-35896471c39c"},"vehicle_type_id":"4","last_reported":1738336124,"current_range_meters":22400,"station_id":"ce4bhbh2rcd13ifvqeqg","pricing_plan_id":"cebpf4jnsgd1na2vs0mg"},{"bike_id":"0a2fd205-d616-4064-aa75-d4d529957d90","system_id":"levelo_inurba_marseille","lat":43.230661,"lon":5.355086,"is_reserved":false,"is_disabled":false,"rental_uris":{"android":"levelo://app?vid=0a2fd205-d616-4064-aa75-d4d529957d90","ios":"levelo://app?vid=0a2fd205-d616-4064-aa75-d4d529957d90"},"vehicle_type_id":"4","last_reported":1738336124,"current_range_meters":20400,"station_id":"cpo3342slgdg3j2ifvpg","pricing_plan_id":"cebpf4jnsgd1na2vs0mg"},{"bike_id":"61daeab0-2b5f-4b35-a623-931546a8f04a","system_id":"levelo_inurba_marseille","lat":43.2905,"lon":5.35907,"is_reserved":false,"is_disabled":false,"rental_uris":{"android":"levelo://app?vid=61daeab0-2b5f-4b35-a623-931546a8f04a","ios":"levelo://app?vid=61daeab0-2b5f-4b35-a623-931546a8f04a"},"vehicle_type_id":"4","last_reported":1738336124,"current_range_meters":37600,"station_id":"ce4bha92rcd13ifvqeg0","pricing_plan_id":"cebpf4jnsgd1na2vs0mg"},{"bike_id":"851692c4-6ece-4a71-ba19-f442921d2278","system_id":"levelo_inurba_marseille","lat":43.298944,"lon":5.436668,"is_reserved":false,"is_disabled":false,"rental_uris":{"android":"levelo://app?vid=851692c4-6ece-4a71-ba19-f442921d2278","ios":"levelo://app?vid=851692c4-6ece-4a71-ba19-f442921d2278"},"vehicle_type_id":"4","last_reported":1738336124,"current_range_meters":37600,"station_id":"ce4bhpp2rcd13ifvqhfg","pricing_plan_id":"cebpf4jnsgd1na2vs0mg"},{"bike_id":"36e3a682-dd00-4474-89d9-bbaf36706a41","system_id":"levelo_inurba_marseille","lat":43.27999,"lon":5.40021,"is_reserved":false,"is_disabled":false,"rental_uris":{"android":"levelo://app?vid=36e3a682-dd00-4474-89d9-bbaf36706a41","ios":"levelo://app?vid=36e3a682-dd00-4474-89d9-bbaf36706a41"},"vehicle_type_id":"4","last_reported":1738336124,"current_range_meters":35600,"station_id":"ce4bho92rcd13ifvqh4g","pricing_plan_id":"cebpf4jnsgd1na2vs0mg"},{"bike_id":"ec090f6f-e6b5-4865-b929-1d76257370f9","system_id":"levelo_inurba_marseille","lat":43.30146,"lon":5.38775,"is_reserved":false,"is_disabled":false,"rental_uris":{"android":"levelo://app?vid=ec090f6f-e6b5-4865-b929-1d76257370f9","ios":"levelo://app?vid=ec090f6f-e6b5-4865-b929-1d76257370f9"},"vehicle_type_id":"4","last_reported":1738336124,"current_range_meters":24800,"station_id":"ce4bhoh2rcd13ifvqh6g","pricing_plan_id":"cebpf4jnsgd1na2vs0mg"},{"bike_id":"2dcea597-6175-45f7-be3e-2ee0705f08d3","system_id":"levelo_inurba_marseille","lat":43.2694,"lon":5.38914,"is_reserved":false,"is_disabled":false,"rental_uris":{"android":"levelo://app?vid=2dcea597-6175-45f7-be3e-2ee0705f08d3","ios":"levelo://app?vid=2dcea597-6175-45f7-be3e-2ee0705f08d3"},"vehicle_type_id":"4","last_reported":1738336124,"current_range_meters":38800,"station_id":"ce4bhhh2rcd13ifvqfl0","pricing_plan_id":"cebpf4jnsgd1na2vs0mg"},{"bike_id":"803e03d8-7d2e-4feb-ac46-774902d16dee","system_id":"levelo_inurba_marseille","lat":43.33759,"lon":5.37451,"is_reserved":false,"is_disabled":true,"rental_uris":{"android":"levelo://app?vid=803e03d8-7d2e-4feb-ac46-774902d16dee","ios":"levelo://app?vid=803e03d8-7d2e-4feb-ac46-774902d16dee"},"vehicle_type_id":"4","last_reported":1738336124,"current_range_meters":36800,"station_id":"","pricing_plan_id":"cebpf4jnsgd1na2vs0mg"},{"bike_id":"baa29b07-c929-4791-93f4-403cf3c9ae74","system_id":"levelo_inurba_marseille","lat":43.29914,"lon":5.37476,"is_reserved":false,"is_disabled":false,"rental_uris":{"android":"levelo://app?vid=baa29b07-c929-4791-93f4-403cf3c9ae74","ios":"levelo://app?vid=baa29b07-c929-4791-93f4-403cf3c9ae74"},"vehicle_type_id":"4","last_reported":1738336124,"current_range_meters":17600,"station_id":"ce4bgjh2rcd13ifvqbg0","pricing_plan_id":"cebpf4jnsgd1na2vs0mg"},{"bike_id":"22083a2b-9022-47de-87d2-5448dffec6fa","system_id":"levelo_inurba_marseille","lat":43.29762,"lon":5.38102,"is_reserved":false,"is_disabled":false,"rental_uris":{"android":"levelo://app?vid=22083a2b-9022-47de-87d2-5448dffec6fa","ios":"levelo://app?vid=22083a2b-9022-47de-87d2-5448dffec6fa"},"vehicle_type_id":"4","last_reported":1738336124,"current_range_meters":8400,"station_id":"ce4bgip2rcd13ifvqbb0","pricing_plan_id":"cebpf4jnsgd1na2vs0mg"},{"bike_id":"70423f7d-74d1-4b56-9add-3f6db3957b30","system_id":"levelo_inurba_marseille","lat":43.2827,"lon":5.3507,"is_reserved":false,"is_disabled":false,"rental_uris":{"android":"levelo://app?vid=70423f7d-74d1-4b56-9add-3f6db3957b30","ios":"levelo://app?vid=70423f7d-74d1-4b56-9add-3f6db3957b30"},"vehicle_type_id":"4","last_reported":1738336124,"current_range_meters":11200,"station_id":"ce4bhbp2rcd13ifvqerg","pricing_plan_id":"cebpf4jnsgd1na2vs0mg"},{"bike_id":"65fe0418-918a-4c00-b6b6-69da8e180eb2","system_id":"levelo_inurba_marseille","lat":43.30926,"lon":5.40155,"is_reserved":false,"is_disabled":false,"rental_uris":{"android":"levelo://app?vid=65fe0418-918a-4c00-b6b6-69da8e180eb2","ios":"levelo://app?vid=65fe0418-918a-4c00-b6b6-69da8e180eb2"},"vehicle_type_id":"4","last_reported":1738336124,"current_range_meters":12800,"station_id":"ce4bgvp2rcd13ifvqct0","pricing_plan_id":"cebpf4jnsgd1na2vs0mg"},{"bike_id":"51cdb94b-2c55-4885-8973-5bf0f611e4b7","system_id":"levelo_inurba_marseille","lat":43.29718,"lon":5.37691,"is_reserved":false,"is_disabled":false,"rental_uris":{"android":"levelo://app?vid=51cdb94b-2c55-4885-8973-5bf0f611e4b7","ios":"levelo://app?vid=51cdb94b-2c55-4885-8973-5bf0f611e4b7"},"vehicle_type_id":"4","last_reported":1738336124,"current_range_meters":38800,"station_id":"ce4bgkh2rcd13ifvqbl0","pricing_plan_id":"cebpf4jnsgd1na2vs0mg"},{"bike_id":"9665cd84-a08a-4882-b348-de415533e949","system_id":"levelo_inurba_marseille","lat":43.25863,"lon":5.39908,"is_reserved":false,"is_disabled":false,"rental_uris":{"android":"levelo://app?vid=9665cd84-a08a-4882-b348-de415533e949","ios":"levelo://app?vid=9665cd84-a08a-4882-b348-de415533e949"},"vehicle_type_id":"4","last_reported":1738336124,"current_range_meters":6400,"station_id":"ce4bhl92rcd13ifvqghg","pricing_plan_id":"cebpf4jnsgd1na2vs0mg"},{"bike_id":"f0014efe-59be-4c6a-b455-e28e23b4487f","system_id":"levelo_inurba_marseille","lat":43.27813,"lon":5.40709,"is_reserved":false,"is_disabled":false,"rental_uris":{"android":"levelo://app?vid=f0014efe-59be-4c6a-b455-e28e23b4487f","ios":"levelo://app?vid=f0014efe-59be-4c6a-b455-e28e23b4487f"},"vehicle_type_id":"4","last_reported":1738336124,"current_range_meters":30000,"station_id":"ce4bhnh2rcd13ifvqgtg","pricing_plan_id":"cebpf4jnsgd1na2vs0mg"},{"bike_id":"1f3960cd-eea7-4117-a4b8-926e34aacb5c","system_id":"levelo_inurba_marseille","lat":43.28612,"lon":5.37059,"is_reserved":false,"is_disabled":true,"rental_uris":{"android":"levelo://app?vid=1f3960cd-eea7-4117-a4b8-926e34aacb5c","ios":"levelo://app?vid=1f3960cd-eea7-4117-a4b8-926e34aacb5c"},"vehicle_type_id":"4","last_reported":1738336124,"current_range_meters":19200,"station_id":"ce4bht12rcd13ifvqi60","pricing_plan_id":"cebpf4jnsgd1na2vs0mg"},{"bike_id":"6337d338-3511-4993-ada0-12102998e834","system_id":"levelo_inurba_marseille","lat":43.23066,"lon":5.35484,"is_reserved":false,"is_disabled":false,"rental_uris":{"android":"levelo://app?vid=6337d338-3511-4993-ada0-12102998e834","ios":"levelo://app?vid=6337d338-3511-4993-ada0-12102998e834"},"vehicle_type_id":"4","last_reported":1738336124,"current_range_meters":14800,"station_id":"cpo3342slgdg3j2ifvpg","pricing_plan_id":"cebpf4jnsgd1na2vs0mg"},{"bike_id":"fe003c8d-49c9-48fb-b04d-8f90aac5a3e9","system_id":"levelo_inurba_marseille","lat":43.2501,"lon":5.38916,"is_reserved":false,"is_disabled":false,"rental_uris":{"android":"levelo://app?vid=fe003c8d-49c9-48fb-b04d-8f90aac5a3e9","ios":"levelo://app?vid=fe003c8d-49c9-48fb-b04d-8f90aac5a3e9"},"vehicle_type_id":"4","last_reported":1738336124,"current_range_meters":34000,"station_id":"ce4bhgp2rcd13ifvqfd0","pricing_plan_id":"cebpf4jnsgd1na2vs0mg"},{"bike_id":"b71d6ada-d4ab-4a21-bfa1-eb56ceccd0b8","system_id":"levelo_inurba_marseille","lat":43.27205,"lon":5.39185,"is_reserved":false,"is_disabled":false,"rental_uris":{"android":"levelo://app?vid=b71d6ada-d4ab-4a21-bfa1-eb56ceccd0b8","ios":"levelo://app?vid=b71d6ada-d4ab-4a21-bfa1-eb56ceccd0b8"},"vehicle_type_id":"4","last_reported":1738336124,"current_range_meters":27600,"station_id":"ce4bhhp2rcd13ifvqfm0","pricing_plan_id":"cebpf4jnsgd1na2vs0mg"},{"bike_id":"37766b3f-cbcb-444a-a1d7-e4f66144d5ac","system_id":"levelo_inurba_marseille","lat":43.30155,"lon":5.38082,"is_reserved":false,"is_disabled":false,"rental_uris":{"android":"levelo://app?vid=37766b3f-cbcb-444a-a1d7-e4f66144d5ac","ios":"levelo://app?vid=37766b3f-cbcb-444a-a1d7-e4f66144d5ac"},"vehicle_type_id":"4","last_reported":1738336124,"current_range_meters":38800,"station_id":"ce4bgjp2rcd13ifvqbh0","pricing_plan_id":"cebpf4jnsgd1na2vs0mg"},{"bike_id":"3e06e3df-52c1-4111-856b-f1a8184ab824","system_id":"levelo_inurba_marseille","lat":43.2782,"lon":5.40734,"is_reserved":false,"is_disabled":false,"rental_uris":{"android":"levelo://app?vid=3e06e3df-52c1-4111-856b-f1a8184ab824","ios":"levelo://app?vid=3e06e3df-52c1-4111-856b-f1a8184ab824"},"vehicle_type_id":"4","last_reported":1738336124,"current_range_meters":27600,"station_id":"ce4bhnh2rcd13ifvqgtg","pricing_plan_id":"cebpf4jnsgd1na2vs0mg"},{"bike_id":"d994d4a0-0318-4f4e-9986-d94426f50c25","system_id":"levelo_inurba_marseille","lat":43.26209,"lon":5.37474,"is_reserved":false,"is_disabled":false,"rental_uris":{"android":"levelo://app?vid=d994d4a0-0318-4f4e-9986-d94426f50c25","ios":"levelo://app?vid=d994d4a0-0318-4f4e-9986-d94426f50c25"},"vehicle_type_id":"4","last_reported":1738336124,"current_range_meters":38800,"station_id":"ce4bhgp2rcd13ifvqfc0","pricing_plan_id":"cebpf4jnsgd1na2vs0mg"},{"bike_id":"99b8ed86-0bc0-4285-a2a2-428c7db3c442","system_id":"levelo_inurba_marseille","lat":43.30568,"lon":5.36521,"is_reserved":false,"is_disabled":false,"rental_uris":{"android":"levelo://app?vid=99b8ed86-0bc0-4285-a2a2-428c7db3c442","ios":"levelo://app?vid=99b8ed86-0bc0-4285-a2a2-428c7db3c442"},"vehicle_type_id":"4","last_reported":1738336124,"current_range_meters":38800,"station_id":"ce4bgs12rcd13ifvqcag","pricing_plan_id":"cebpf4jnsgd1na2vs0mg"},{"bike_id":"9900f1a4-6fec-4768-9689-365d0e3a621d","system_id":"levelo_inurba_marseille","lat":43.23188,"lon":5.39997,"is_reserved":false,"is_disabled":false,"rental_uris":{"android":"levelo://app?vid=9900f1a4-6fec-4768-9689-365d0e3a621d","ios":"levelo://app?vid=9900f1a4-6fec-4768-9689-365d0e3a621d"},"vehicle_type_id":"4","last_reported":1738336124,"current_range_meters":38800,"station_id":"ce4bhn12rcd13ifvqgqg","pricing_plan_id":"cebpf4jnsgd1na2vs0mg"},{"bike_id":"4537fc7e-9c3b-4c59-873f-fdf096c03778","system_id":"levelo_inurba_marseille","lat":43.28662,"lon":5.36355,"is_reserved":false,"is_disabled":false,"rental_uris":{"android":"levelo://app?vid=4537fc7e-9c3b-4c59-873f-fdf096c03778","ios":"levelo://app?vid=4537fc7e-9c3b-4c59-873f-fdf096c03778"},"vehicle_type_id":"4","last_reported":1738336124,"current_range_meters":30800,"station_id":"ce4bhah2rcd13ifvqej0","pricing_plan_id":"cebpf4jnsgd1na2vs0mg"},{"bike_id":"6630ca91-ca35-4e81-9c54-578b49e543d0","system_id":"levelo_inurba_marseille","lat":43.278084,"lon":5.407285,"is_reserved":false,"is_disabled":false,"rental_uris":{"android":"levelo://app?vid=6630ca91-ca35-4e81-9c54-578b49e543d0","ios":"levelo://app?vid=6630ca91-ca35-4e81-9c54-578b49e543d0"},"vehicle_type_id":"4","last_reported":1738336124,"current_range_meters":35200,"station_id":"ce4bhnh2rcd13ifvqgtg","pricing_plan_id":"cebpf4jnsgd1na2vs0mg"},{"bike_id":"9db57a78-94d7-48d3-8b52-97e4b541515c","system_id":"levelo_inurba_marseille","lat":43.30569,"lon":5.36593,"is_reserved":false,"is_disabled":false,"rental_uris":{"android":"levelo://app?vid=9db57a78-94d7-48d3-8b52-97e4b541515c","ios":"levelo://app?vid=9db57a78-94d7-48d3-8b52-97e4b541515c"},"vehicle_type_id":"4","last_reported":1738336124,"current_range_meters":36400,"station_id":"ce4bgs12rcd13ifvqcag","pricing_plan_id":"cebpf4jnsgd1na2vs0mg"},{"bike_id":"b1fd571c-e785-4fc7-9d16-3c2e86fe87de","system_id":"levelo_inurba_marseille","lat":43.27183,"lon":5.40985,"is_reserved":false,"is_disabled":true,"rental_uris":{"android":"levelo://app?vid=b1fd571c-e785-4fc7-9d16-3c2e86fe87de","ios":"levelo://app?vid=b1fd571c-e785-4fc7-9d16-3c2e86fe87de"},"vehicle_type_id":"4","last_reported":1738336124,"current_range_meters":800,"station_id":"ce4bhl12rcd13ifvqgf0","pricing_plan_id":"cebpf4jnsgd1na2vs0mg"},{"bike_id":"6b396088-9541-42e8-9ba4-d9704d90d27a","system_id":"levelo_inurba_marseille","lat":43.30798,"lon":5.43526,"is_reserved":false,"is_disabled":false,"rental_uris":{"android":"levelo://app?vid=6b396088-9541-42e8-9ba4-d9704d90d27a","ios":"levelo://app?vid=6b396088-9541-42e8-9ba4-d9704d90d27a"},"vehicle_type_id":"4","last_reported":1738336124,"current_range_meters":11200,"station_id":"ce4bhph2rcd13ifvqheg","pricing_plan_id":"cebpf4jnsgd1na2vs0mg"},{"bike_id":"3a25fc2a-fa88-4f99-acce-667d733f876d","system_id":"levelo_inurba_marseille","lat":43.29934,"lon":5.36504,"is_reserved":false,"is_disabled":false,"rental_uris":{"android":"levelo://app?vid=3a25fc2a-fa88-4f99-acce-667d733f876d","ios":"levelo://app?vid=3a25fc2a-fa88-4f99-acce-667d733f876d"},"vehicle_type_id":"4","last_reported":1738336124,"current_range_meters":19200,"station_id":"ce4bgm92rcd13ifvqbr0","pricing_plan_id":"cebpf4jnsgd1na2vs0mg"},{"bike_id":"608bd0f8-96e5-4e19-8bc0-06cba19c2255","system_id":"levelo_inurba_marseille","lat":43.25726,"lon":5.41108,"is_reserved":false,"is_disabled":false,"rental_uris":{"android":"levelo://app?vid=608bd0f8-96e5-4e19-8bc0-06cba19c2255","ios":"levelo://app?vid=608bd0f8-96e5-4e19-8bc0-06cba19c2255"},"vehicle_type_id":"4","last_reported":1738336124,"current_range_meters":10000,"station_id":"ce4bhkp2rcd13ifvqgd0","pricing_plan_id":"cebpf4jnsgd1na2vs0mg"},