{"last_updated":1739261567,"ttl":60,"version":"2.2","data":{"bikes":[{"bike_id":"5cda301b-bce8-41d3-abea-2e981f99524e","system_id":"levelo_inurba_marseille","lat":43.29849,"lon":5.36299,"is_reserved":false,"is_disabled":false,"rental_uris":{"android":"levelo://app?vid=5cda301b-bce8-41d3-abea-2e981f99524e","ios":"levelo://app?vid=5cda301b-bce8-41d3-abea-2e981f99524e"},"vehicle_type_id":"4","last_reported":1739261567,"current_range_meters":26000,"station_id":"ce4bgpp2rcd13ifvqc3g","pricing_plan_id":"cebpf4jnsgd1na2vs0mg"},{"bike_id":"412b6536-2a68-4da0-a77e-6a13bc7420c9","system_id":"levelo_inurba_marseille","lat":43.31359,"lon":5.36709,"is_reserved":false,"is_disabled":false,"rental_uris":{"android":"levelo://app?vid=412b6536-2a68-4da0-a77e-6a13bc7420c9","ios":"levelo://app?vid=412b6536-2a68-4da0-a77e-6a13bc7420c9"},"vehicle_type_id":"4","last_reported":1739261567,"current_range_meters":22800,"station_id":"ce4bgr92rcd13ifvqc6g","pricing_plan_id":"cebpf4jnsgd1na2vs0mg"},{"bike_id":"be9c23dc-ea9d-4e03-87f6-f29a74076248","system_id":"levelo_inurba_marseille","lat":43.28411,"lon":5.37518,"is_reserved":false,"is_disabled":false,"rental_uris":{"android":"levelo://app?vid=be9c23dc-ea9d-4e03-87f6-f29a74076248","ios":"levelo://app?vid=be9c23dc-ea9d-4e03-87f6-f29a74076248"},"vehicle_type_id":"4","last_reported":1739261567,"current_range_meters":35600,"station_id":"ce4bh412rcd13ifvqds0","pricing_plan_id":"cebpf4jnsgd1na2vs0mg"},{"bike_id":"b068362a-3288-489d-9388-78d1aec4149d","system_id":"levelo_inurba_marseille","lat":43.26557,"lon":5.39062,"is_reserved":false,"is_disabled":false,"rental_uris":{"android":"levelo://app?vid=b068362a-3288-489d-9388-78d1aec4149d","ios":"levelo://app?vid=b068362a-3288-489d-9388-78d1aec4149d"},"vehicle_type_id":"4","last_reported":1739261567,"current_range_meters":37600,"station_id":"ce4bhe12rcd13ifvqf30","pricing_plan_id":"cebpf4jnsgd1na2vs0mg"},{"bike_id":"a0dd54ee-e890-4da0-a7d9-a7f80b816a23","system_id":"levelo_inurba_marseille","lat":43.27989,"lon":5.41674,"is_reserved":false,"is_disabled":false,"rental_uris":{"android":"levelo://app?vid=a0dd54ee-e890-4da0-a7d9-a7f80b816a23","ios":"levelo://app?vid=a0dd54ee-e890-4da0-a7d9-a7f80b816a23"},"vehicle_type_id":"4","last_reported":1739261567,"current_range_meters":34000,"station_id":"ce4bho12rcd13ifvqh1g","pricing_plan_id":"cebpf4jnsgd1na2vs0mg"},{"bike_id":"d97371c7-3be3-40dd-b03a-028b5a4c71c0","system_id":"levelo_inurba_marseille","lat":43.31351,"lon":5.36711,"is_reserved":false,"is_disabled":false,"rental_uris":{"android":"levelo://app?vid=d97371c7-3be3-40dd-b03a-028b5a4c71c0","ios":"levelo://app?vid=d97371c7-3be3-40dd-b03a-028b5a4c71c0"},"vehicle_type_id":"4","last_reported":1739261567,"current_range_meters":29600,"station_id":"ce4bgr92rcd13ifvqc6g","pricing_plan_id":"cebpf4jnsgd1na2vs0mg"},{"bike_id":"c42ec01e-6613-4f8e-a4db-7cb2a8549b13","system_id":"levelo_inurba_marseille","lat":43.26682,"lon":5.38267,"is_reserved":false,"is_disabled":false,"rental_uris":{"android":"levelo://app?vid=c42ec01e-6613-4f8e-a4db-7cb2a8549b13","ios":"levelo://app?vid=c42ec01e-6613-4f8e-a4db-7cb2a8549b13"},"vehicle_type_id":"4","last_reported":1739261567,"current_range_meters":25200,"station_id":"ce4bhg92rcd13ifvqf90","pricing_plan_id":"cebpf4jnsgd1na2vs0mg"},{"bike_id":"ac04c715-abc5-410a-936e-086b153f3319","system_id":"levelo_inurba_marseille","lat":43.30648,"lon":5.36714,"is_reserved":false,"is_disabled":false,"rental_uris":{"android":"levelo://app?vid=ac04c715-abc5-410a-936e-086b153f3319","ios":"levelo://app?vid=ac04c715-abc5-410a-936e-086b153f3319"},"vehicle_type_id":"4","last_reported":1739261567,"current_range_meters":27600,"station_id":"ce4bguh2rcd13ifvqckg","pricing_plan_id":"cebpf4jnsgd1na2vs0mg"},{"bike_id":"6ad12fed-a7c3-4ded-a0c5-213958e34b8e","system_id":"levelo_inurba_marseille","lat":43.32468,"lon":5.36582,"is_reserved":false,"is_disabled":false,"rental_uris":{"android":"levelo://app?vid=6ad12fed-a7c3-4ded-a0c5-213958e34b8e","ios":"levelo://app?vid=6ad12fed-a7c3-4ded-a0c5-213958e34b8e"},"vehicle_type_id":"4","last_reported":1739261567,"current_range_meters":39200,"station_id":"ce4bhs12rcd13ifvqhvg","pricing_plan_id":"cebpf4jnsgd1na2vs0mg"},{"bike_id":"98774985-e40b-4395-8531-7d6f099eff3e","system_id":"levelo_inurba_marseille","lat":43.26684,"lon":5.38278,"is_reserved":false,"is_disabled":false,"rental_uris":{"android":"levelo://app?vid=98774985-e40b-4395-8531-7d6f099eff3e","ios":"levelo://app?vid=98774985-e40b-4395-8531-7d6f099eff3e"},"vehicle_type_id":"4","last_reported":1739261567,"current_range_meters":22000,"station_id":"ce4bhg92rcd13ifvqf90","pricing_plan_id":"cebpf4jnsgd1na2vs0mg"},{"bike_id":"070ded19-db45-4133-9e69-a50aacceab14","system_id":"levelo_inurba_marseille","lat":43.25939,"lon":5.40899,"is_reserved":false,"is_disabled":false,"rental_uris":{"android":"levelo://app?vid=070ded19-db45-4133-9e69-a50aacceab14","ios":"levelo://app?vid=070ded19-db45-4133-9e69-a50aacceab14"},"vehicle_type_id":"4","last_reported":1739261567,"current_range_meters":3600,"station_id":"ce4bhm92rcd13ifvqglg","pricing_plan_id":"cebpf4jnsgd1na2vs0mg"},{"bike_id":"a5534359-ee9f-45d4-827a-404504b92dff","system_id":"levelo_inurba_marseille","lat":43.29573,"lon":5.37523,"is_reserved":false,"is_disabled":false,"rental_uris":{"android":"levelo://app?vid=a5534359-ee9f-45d4-827a-404504b92dff","ios":"levelo://app?vid=a5534359-ee9f-45d4-827a-404504b92dff"},"vehicle_type_id":"4","last_reported":1739261567,"current_range_meters":12400,"station_id":"ce4bgh92rcd13ifvqb50","pricing_plan_id":"cebpf4jnsgd1na2vs0mg"},{"bike_id":"9cebbfac-f2bd-4a25-81be-e499c5a5f4c8","system_id":"levelo_inurba_marseille","lat":43.302761,"lon":5.377143,"is_reserved":false,"is_disabled":false,"rental_uris":{"android":"levelo://app?vid=9cebbfac-f2bd-4a25-81be-e499c5a5f4c8","ios":"levelo://app?vid=9cebbfac-f2bd-4a25-81be-e499c5a5f4c8"},"vehicle_type_id":"4","last_reported":1739261567,"current_range_meters":38800,"station_id":"ce4bguh2rcd13ifvqcj0","pricing_plan_id":"cebpf4jnsgd1na2vs0mg"},{"bike_id":"783ee94b-6044-42f0-85b3-7d1aca1b3d61","system_id":"levelo_inurba_marseille","lat":43.29569,"lon":5.37522,"is_reserved":false,"is_disabled":true,"rental_uris":{"android":"levelo://app?vid=783ee94b-6044-42f0-85b3-7d1aca1b3d61","ios":"levelo://app?vid=783ee94b-6044-42f0-85b3-7d1aca1b3d61"},"vehicle_type_id":"4","last_reported":1739261567,"current_range_meters":20400,"station_id":"ce4bgh92rcd13ifvqb50","pricing_plan_id":"cebpf4jnsgd1na2vs0mg"},{"bike_id":"fc63d1c6-39db-42fc-a5f0-8ec761e9b064","system_id":"levelo_inurba_marseille","lat":43.31683,"lon":5.40473,"is_reserved":false,"is_disabled":false,"rental_uris":{"android":"levelo://app?vid=fc63d1c6-39db-42fc-a5f0-8ec761e9b064","ios":"levelo://app?vid=fc63d1c6-39db-42fc-a5f0-8ec761e9b064"},"vehicle_type_id":"4","last_reported":1739261567,"current_range_meters":39200,"station_id":"ce4bh012rcd13ifvqd00","pricing_plan_id":"cebpf4jnsgd1na2vs0mg"},{"bike_id":"9e4564f0-0519-46c9-beea-73f529a3ce6a","system_id":"levelo_inurba_marseille","lat":43.24818,"lon":5.3746,"is_reserved":false,"is_disabled":false,"rental_uris":{"android":"levelo://app?vid=9e4564f0-0519-46c9-beea-73f529a3ce6a","ios":"levelo://app?vid=9e4564f0-0519-46c9-beea-73f529a3ce6a"},"vehicle_type_id":"4","last_reported":1739261567,"current_range_meters":33600,"station_id":"ce4bhgh2rcd13ifvqfb0","pricing_plan_id":"cebpf4jnsgd1na2vs0mg"},{"bike_id":"cf62dccb-f2cf-41d1-b1c3-fdd564c2bb54","system_id":"levelo_inurba_marseille","lat":43.2978,"lon":5.37098,"is_reserved":false,"is_disabled":false,"rental_uris":{"android":"levelo://app?vid=cf62dccb-f2cf-41d1-b1c3-fdd564c2bb54","ios":"levelo://app?vid=cf62dccb-f2cf-41d1-b1c3-fdd564c2bb54"},"vehicle_type_id":"4","last_reported":1739261567,"current_range_meters":36400,"station_id":"ce4bgop2rcd13ifvqc1g","pricing_plan_id":"cebpf4jnsgd1na2vs0mg"},{"bike_id":"6e1261de-61ca-45f3-8263-50cd9c374486","system_id":"levelo_inurba_marseille","lat":43.29603,"lon":5.37708,"is_reserved":false,"is_disabled":false,"rental_uris":{"android":"levelo://app?vid=6e1261de-61ca-45f3-8263-50cd9c374486","ios":"levelo://app?vid=6e1261de-61ca-45f3-8263-50cd9c374486"},"vehicle_type_id":"4","last_reported":1739261567,"current_range_meters":36800,"station_id":"ce4bgi92rcd13ifvqb90","pricing_plan_id":"cebpf4jnsgd1na2vs0mg"},{"bike_id":"9b1d5f82-eea6-49eb-899b-9dd4b7f0d171","system_id":"levelo_inurba_marseille","lat":43.27057,"lon":5.40256,"is_reserved":false,"is_disabled":false,"rental_uris":{"android":"levelo://app?vid=9b1d5f82-eea6-49eb-899b-9dd4b7f0d171","ios":"levelo://app?vid=9b1d5f82-eea6-49eb-899b-9dd4b7f0d171"},"vehicle_type_id":"4","last_reported":1739261567,"current_range_meters":38400,"station_id":"","pricing_plan_id":"cebpf4jnsgd1na2vs0mg"},{"bike_id":"e1b7c5bc-ba1c-42b9-a842-0b329d2cd64c","system_id":"levelo_inurba_marseille","lat":43.29027,"lon":5.43247,"is_reserved":false,"is_disabled":false,"rental_uris":{"android":"levelo://app?vid=e1b7c5bc-ba1c-42b9-a842-0b329d2cd64c","ios":"levelo://app?vid=e1b7c5bc-ba1c-42b9-a842-0b329d2cd64c"},"vehicle_type_id":"4","last_reported":1739261567,"current_range_meters":33200,"station_id":"","pricing_plan_id":"cebpf4jnsgd1na2vs0mg"},{"bike_id":"2ae9762d-0fad-48ff-b47e-e62a9442a343","system_id":"levelo_inurba_marseille","lat":43.295687,"lon":5.375318,"is_reserved":false,"is_disabled":false,"rental_uris":{"android":"levelo://app?vid=2ae9762d-0fad-48ff-b47e-e62a9442a343","ios":"levelo://app?vid=2ae9762d-0fad-48ff-b47e-e62a9442a343"},"vehicle_type_id":"4","last_reported":1739261567,"current_range_meters":30000,"station_id":"ce4bgpp2rcd13ifvqc3g","pricing_plan_id":"cebpf4jnsgd1na2vs0mg"},{"bike_id":"03e763eb-2ea5-4191-8380-138ad06f19b1","system_id":"levelo_inurba_marseille","lat":43.32472,"lon":5.36558,"is_reserved":false,"is_disabled":false,"rental_uris":{"android":"levelo://app?vid=03e763eb-2ea5-4191-8380-138ad06f19b1","ios":"levelo://app?vid=03e763eb-2ea5-4191-8380-138ad06f19b1"},"vehicle_type_id":"4","last_reported":1739261567,"current_range_meters":29600,"station_id":"ce4bhs12rcd13ifvqhvg","pricing_plan_id":"cebpf4jnsgd1na2vs0mg"},{"bike_id":"8ce175ac-b904-4ebb-9b6e-482917069a41","system_id":"levelo_inurba_marseille","lat":43.26191,"lon":5.37461,"is_reserved":false,"is_disabled":false,"rental_uris":{"android":"levelo://app?vid=8ce175ac-b904-4ebb-9b6e-482917069a41","ios":"levelo://app?vid=8ce175ac-b904-4ebb-9b6e-482917069a41"},"vehicle_type_id":"4","last_reported":1739261567,"current_range_meters":17600,"station_id":"ce4bhgp2rcd13ifvqfc0","pricing_plan_id":"cebpf4jnsgd1na2vs0mg"},{"bike_id":"6803ddfa-d502-42a2-ad93-8e0a9a783768","system_id":"levelo_inurba_marseille","lat":43.260259,"lon":5.375506,"is_reserved":false,"is_disabled":false,"rental_uris":{"android":"levelo://app?vid=6803ddfa-d502-42a2-ad93-8e0a9a783768","ios":"levelo://app?vid=6803ddfa-d502-42a2-ad93-8e0a9a783768"},"vehicle_type_id":"4","last_reported":1739261567,"current_range_meters":20800,"station_id":"ce4bhgh2rcd13ifvqfa0","pricing_plan_id":"cebpf4jnsgd1na2vs0mg"},{"bike_id":"80356bc0-33c9-4759-84b3-a83068594d77","system_id":"levelo_inurba_marseille","lat":43.30962,"lon":5.39058,"is_reserved":false,"is_disabled":false,"rental_uris":{"android":"levelo://app?vid=80356bc0-33c9-4759-84b3-a83068594d77","ios":"levelo://app?vid=80356bc0-33c9-4759-84b3-a83068594d77"},"vehicle_type_id":"4","last_reported":1739261567,"current_range_meters":36800,"station_id":"","pricing_plan_id":"cebpf4jnsgd1na2vs0mg"},{"bike_id":"894c1cd6-ced2-4b41-b576-bff0b1d4b045","system_id":"levelo_inurba_marseille","lat":43.30316,"lon":5.36914,"is_reserved":false,"is_disabled":false,"rental_uris":{"android":"levelo://app?vid=894c1cd6-ced2-4b41-b576-bff0b1d4b045","ios":"levelo://app?vid=894c1cd6-ced2-4b41-b576-bff0b1d4b045"},"vehicle_type_id":"4","last_reported":1739261567,"current_range_meters":4400,"station_id":"ce4bgqh2rcd13ifvqc5g","pricing_plan_id":"cebpf4jnsgd1na2vs0mg"},{"bike_id":"070aade5-5a0f-4ded-a84b-f96914ac2eca","system_id":"levelo_inurba_marseille","lat":43.31552,"lon":5.36647,"is_reserved":false,"is_disabled":false,"rental_uris":{"android":"levelo://app?vid=070aade5-5a0f-4ded-a84b-f96914ac2eca","ios":"levelo://app?vid=070aade5-5a0f-4ded-a84b-f96914ac2eca"},"vehicle_type_id":"4","last_reported":1739261567,"current_range_meters":6400,"station_id":"","pricing_plan_id":"cebpf4jnsgd1na2vs0mg"},{"bike_id":"f798cbc4-a869-471f-bce8-f64397eebe81","system_id":"levelo_inurba_marseille","lat":43.23962,"lon":5.36656,"is_reserved":false,"is_disabled":false,"rental_uris":{"android":"levelo://app?vid=f798cbc4-a869-471f-bce8-f64397eebe81","ios":"levelo://app?vid=f798cbc4-a869-471f-bce8-f64397eebe81"},"vehicle_type_id":"4","last_reported":1739261567,"current_range_meters":23200,"station_id":"ce4bhi12rcd13ifvqfp0","pricing_plan_id":"cebpf4jnsgd1na2vs0mg"},{"bike_id":"70f8b8f3-c647-46aa-87a6-806fb665fa37","system_id":"levelo_inurba_marseille","lat":43.28019,"lon":5.36948,"is_reserved":false,"is_disabled":false,"rental_uris":{"android":"levelo://app?vid=70f8b8f3-c647-46aa-87a6-806fb665fa37","ios":"levelo://app?vid=70f8b8f3-c647-46aa-87a6-806fb665fa37"},"vehicle_type_id":"4","last_reported":1739261567,"current_range_meters":16800,"station_id":"ce4bha12rcd13ifvqef0","pricing_plan_id":"cebpf4jnsgd1na2vs0mg"},{"bike_id":"daf53b4c-83f8-43f9-969a-2e1ec5c14d2b","system_id":"levelo_inurba_marseille","lat":43.26679,"lon":5.38277,"is_reserved":false,"is_disabled":false,"rental_uris":{"android":"levelo://app?vid=daf53b4c-83f8-43f9-969a-2e1ec5c14d2b","ios":"levelo://app?vid=daf53b4c-83f8-43f9-969a-2e1ec5c14d2b"},"vehicle_type_id":"4","last_reported":1739261567,"current_range_meters":28000,"station_id":"ce4bhg92rcd13ifvqf90","pricing_plan_id":"cebpf4jnsgd1na2vs0mg"},{"bike_id":"a6d254f7-4619-4450-ac84-3257acf14119","system_id":"levelo_inurba_marseille","lat":43.29885,"lon":5.43649,"is_reserved":false,"is_disabled":false,"rental_uris":{"android":"levelo://app?vid=a6d254f7-4619-4450-ac84-3257acf14119","ios":"levelo://app?vid=a6d254f7-4619-4450-ac84-3257acf14119"},"vehicle_type_id":"4","last_reported":1739261567,"current_range_meters":18800,"station_id":"ce4bhpp2rcd13ifvqhfg","pricing_plan_id":"cebpf4jnsgd1na2vs0mg"},{"bike_id":"286ac499-4cbc-400b-8efb-ccfdabd65b5e","system_id":"levelo_inurba_marseille","lat":43.30495,"lon":5.3789,"is_reserved":false,"is_disabled":false,"rental_uris":{"android":"levelo://app?vid=286ac499-4cbc-400b-8efb-ccfdabd65b5e","ios":"levelo://app?vid=286ac499-4cbc-400b-8efb-ccfdabd65b5e"},"vehicle_type_id":"4","last_reported":1739261567,"current_range_meters":20800,"station_id":"ce4bgup2rcd13ifvqcn0","pricing_plan_id":"cebpf4jnsgd1na2vs0mg"},{"bike_id":"bf8cd02e-ccdc-4523-894a-3fce83d782e3","system_id":"levelo_inurba_marseille","lat":43.33727,"lon":5.39227,"is_reserved":false,"is_disabled":false,"rental_uris":{"android":"levelo://app?vid=bf8cd02e-ccdc-4523-894a-3fce83d782e3","ios":"levelo://app?vid=bf8cd02e-ccdc-4523-894a-3fce83d782e3"},"vehicle_type_id":"4","last_reported":1739261567,"current_range_meters":38000,"station_id":"ce4bhr92rcd13ifvqhsg","pricing_plan_id":"cebpf4jnsgd1na2vs0mg"},{"bike_id":"7c6bbf7f-41d8-44ee-ba01-3c107a914dec","system_id":"levelo_inurba_marseille","lat":43.30773,"lon":5.3712,"is_reserved":false,"is_disabled":false,"rental_uris":{"android":"levelo://app?vid=7c6bbf7f-41d8-44ee-ba01-3c107a914dec","ios":"levelo://app?vid=7c6bbf7f-41d8-44ee-ba01-3c107a914dec"},"vehicle_type_id":"4","last_reported":1739261567,"current_range_meters":24800,"station_id":"","pricing_plan_id":"cebpf4jnsgd1na2vs0mg"},{"bike_id":"44250f9a-32b8-422c-ac24-5176fa2a88b0","system_id":"levelo_inurba_marseille","lat":43.2938,"lon":5.37864,"is_reserved":false,"is_disabled":true,"rental_uris":{"android":"levelo://app?vid=44250f9a-32b8-422c-ac24-5176fa2a88b0","ios":"levelo://app?vid=44250f9a-32b8-422c-ac24-5176fa2a88b0"},"vehicle_type_id":"4","last_reported":1739261567,"current_range_meters":33200,"station_id":"ce4bgjh2rcd13ifvqbf0","pricing_plan_id":"cebpf4jnsgd1na2vs0mg"},{"bike_id":"fd9acd5e-756c-41ee-9062-ef43d9b348f9","system_id":"levelo_inurba_marseille","lat":43.2919,"lon":5.35791,"is_reserved":false,"is_disabled":true,"rental_uris":{"android":"levelo://app?vid=fd9acd5e-756c-41ee-9062-ef43d9b348f9","ios":"levelo://app?vid=fd9acd5e-756c-41ee-9062-ef43d9b348f9"},"vehicle_type_id":"4","last_reported":1739261567,"current_range_meters":38800,"station_id":"ce4bhb12rcd13ifvqel0","pricing_plan_id":"cebpf4jnsgd1na2vs0mg"},{"bike_id":"759b8086-bffb-4165-a1de-ba5d459f50d6","system_id":"levelo_inurba_marseille","lat":43.30304,"lon":5.36889,"is_reserved":false,"is_disabled":false,"rental_uris":{"android":"levelo://app?vid=759b8086-bffb-4165-a1de-ba5d459f50d6","ios":"levelo://app?vid=759b8086-bffb-4165-a1de-ba5d459f50d6"},"vehicle_type_id":"4","last_reported":1739261567,"current_range_meters":23200,"station_id":"ce4bgqh2rcd13ifvqc5g","pricing_plan_id":"cebpf4jnsgd1na2vs0mg"},{"bike_id":"d92a9b86-4ac7-446c-bfea-7d50868b04e2","system_id":"levelo_inurba_marseille","lat":43.25936,"lon":5.40899,"is_reserved":false,"is_disabled":false,"rental_uris":{"android":"levelo://app?vid=d92a9b86-4ac7-446c-bfea-7d50868b04e2","ios":"levelo://app?vid=d92a9b86-4ac7-446c-bfea-7d50868b04e2"},"vehicle_type_id":"4","last_reported":1739261567,"current_range_meters":12400,"station_id":"ce4bhm92rcd13ifvqglg","pricing_plan_id":"cebpf4jnsgd1na2vs0mg"},{"bike_id":"139a9daf-9c74-4396-b43d-5e8ca17362be","system_id":"levelo_inurba_marseille","lat":43.27325,"lon":5.39126,"is_reserved":false,"is_disabled":true,"rental_uris":{"android":"levelo://app?vid=139a9daf-9c74-4396-b43d-5e8ca17362be","ios":"levelo://app?vid=139a9daf-9c74-4396-b43d-5e8ca17362be"},"vehicle_type_id":"4","last_reported":1739261567,"current_range_meters":37600,"station_id":"ce4bhgp2rcd13ifvqfe0","pricing_plan_id":"cebpf4jnsgd1na2vs0mg"},{"bike_id":"79f6247e-7327-43b7-b1bd-4e7e3d7f1f56","system_id":"levelo_inurba_marseille","lat":43.30455,"lon":5.37907,"is_reserved":false,"is_disabled":false,"rental_uris":{"android":"levelo://app?vid=79f6247e-7327-43b7-b1bd-4e7e3d7f1f56","ios":"levelo://app?vid=79f6247e-7327-43b7-b1bd-4e7e3d7f1f56"},"vehicle_type_id":"4","last_reported":1739261567,"current_range_meters":39200,"station_id":"ce4bgup2rcd13ifvqcn0","pricing_plan_id":"cebpf4jnsgd1na2vs0mg"},{"bike_id":"c826a5b8-42ba-4da2-bbca-091a581992ec","system_id":"levelo_inurba_marseille","lat":43.288503,"lon":5.393154,"is_reserved":false,"is_disabled":false,"rental_uris":{"android":"levelo://app?vid=c826a5b8-42ba-4da2-bbca-091a581992ec","ios":"levelo://app?vid=c826a5b8-42ba-4da2-bbca-091a581992ec"},"vehicle_type_id":"4","last_reported":1739261567,"current_range_meters":20800,"station_id":"ce4bh2p2rcd13ifvqdi0","pricing_plan_id":"cebpf4jnsgd1na2vs0mg"},{"bike_id":"3921f878-5958-4830-9ec9-bf5bd62940ae","system_id":"levelo_inurba_marseille","lat":43.25936,"lon":5.40901,"is_reserved":false,"is_disabled":false,"rental_uris":{"android":"levelo://app?vid=3921f878-5958-4830-9ec9-bf5bd62940ae","ios":"levelo://app?vid=3921f878-5958-4830-9ec9-bf5bd62940ae"},"vehicle_type_id":"4","last_reported":1739261567,"current_range_meters":20000,"station_id":"ce4bhm92rcd13ifvqglg","pricing_plan_id":"cebpf4jnsgd1na2vs0mg"},{"bike_id":"726fb099-c3d7-4106-beb8-89951bfba46d","system_id":"levelo_inurba_marseille","lat":43.29602,"lon":5.37617,"is_reserved":false,"is_disabled":true,"rental_uris":{"android":"levelo://app?vid=726fb099-c3d7-4106-beb8-89951bfba46d","ios":"levelo://app?vid=726fb099-c3d7-4106-beb8-89951bfba46d"},"vehicle_type_id":"4","last_reported":1739261567,"current_range_meters":30800,"station_id":"","pricing_plan_id":"cebpf4jnsgd1na2vs0mg"},{"bike_id":"2c114970-39bb-4783-978f-a076dc8a4772","system_id":"levelo_inurba_marseille","lat":43.32491,"lon":5.36565,"is_reserved":false,"is_disabled":false,"rental_uris":{"android":"levelo://app?vid=2c114970-39bb-4783-978f-a076dc8a4772","ios":"levelo://app?vid=2c114970-39bb-4783-978f-a076dc8a4772"},"vehicle_type_id":"4","last_reported":1739261567,"current_range_meters":38800,"station_id":"ce4bhs12rcd13ifvqhvg","pricing_plan_id":"cebpf4jnsgd1na2vs0mg"},{"bike_id":"ce077761-b5c2-4be4-aa16-eb408eaef56c","system_id":"levelo_inurba_marseille","lat":43.23186,"lon":5.40001,"is_reserved":false,"is_disabled":false,"rental_uris":{"android":"levelo://app?vid=ce077761-b5c2-4be4-aa16-eb408eaef56c","ios":"levelo://app?vid=ce077761-b5c2-4be4-aa16-eb408eaef56c"},"vehicle_type_id":"4","last_reported":1739261567,"current_range_meters":17200,"station_id":"ce4bhn12rcd13ifvqgqg","pricing_plan_id":"cebpf4jnsgd1na2vs0mg"},{"bike_id":"9836b973-7234-4581-b5b7-19d8b751167e","system_id":"levelo_inurba_marseille","lat":43.241768,"lon":5.397333,"is_reserved":false,"is_disabled":false,"rental_uris":{"android":"levelo://app?vid=9836b973-7234-4581-b5b7-19d8b751167e","ios":"levelo://app?vid=9836b973-7234-4581-b5b7-19d8b751167e"},"vehicle_type_id":"4","last_reported":1739261567,"current_range_meters":3600,"station_id":"ce4bhn12rcd13ifvqgpg","pricing_plan_id":"cebpf4jnsgd1na2vs0mg"},{"bike_id":"880c9b63-4d9a-4992-9cbf-12614be9bcfe","system_id":"levelo_inurba_marseille","lat":43.30903,"lon":5.36851,"is_reserved":false,"is_disabled":false,"rental_uris":{"android":"levelo://app?vid=880c9b63-4d9a-4992-9cbf-12614be9bcfe","ios":"levelo://app?vid=880c9b63-4d9a-4992-9cbf-12614be9bcfe"},"vehicle_type_id":"4","last_reported":1739261567,"current_range_meters":28800,"station_id":"ce4bgn92rcd13ifvqbvg","pricing_plan_id":"cebpf4jnsgd1na2vs0mg"},{"bike_id":"171c3676-c0f4-4981-9461-912d90bb8a25","system_id":"levelo_inurba_marseille","lat":43.30592,"lon":5.37226,"is_reserved":false,"is_disabled":false,"rental_uris":{"android":"levelo://app?vid=171c3676-c0f4-4981-9461-912d90bb8a25","ios":"levelo://app?vid=171c3676-c0f4-4981-9461-912d90bb8a25"},"vehicle_type_id":"4","last_reported":1739261567,"current_range_meters":39200,"station_id":"ce4bgqh2rcd13ifvqc4g","pricing_plan_id":"cebpf4jnsgd1na2vs0mg"},{"bike_id":"55fe04a7-d37a-4ee4-965a-2262a655cb55","system_id":"levelo_inurba_marseille","lat":43.231825,"lon":5.399871,"is_reserved":false,"is_disabled":false,"rental_uris":{"android":"levelo://app?vid=55fe04a7-d37a-4ee4-965a-2262a655cb55","ios":"levelo://app?vid=55fe04a7-d37a-4ee4-965a-2262a655cb55"},"vehicle_type_id":"4","last_reported":1739261567,"current_range_meters":38800,"station_id":"ce4bhn12rcd13ifvqgqg","pricing_plan_id":"cebpf4jnsgd1na2vs0mg"},{"bike_id":"3441c74a-282b-45aa-b329-9e43a88c8a80","system_id":"levelo_inurba_marseille","lat":43.24795,"lon":5.37493,"is_reserved":false,"is_disabled":false,"rental_uris":{"android":"levelo://app?vid=3441c74a-282b-45aa-b329-9e43a88c8a80","ios":"levelo://app?vid=3441c74a-282b-45aa-b329-9e43a88c8a80"},"vehicle_type_id":"4","last_reported":1739261567,"current_range_meters":16800,"station_id":"ce4bhgh2rcd13ifvqfb0","pricing_plan_id":"cebpf4jnsgd1na2vs0mg"},{"bike_id":"46004c0d-ec75-44cc-8683-f6a48aa980f4","system_id":"levelo_inurba_marseille","lat":43.29037,"lon":5.39964,"is_reserved":false,"is_disabled":false,"rental_uris":{"android":"levelo://app?vid=46004c0d-ec75-44cc-8683-f6a48aa980f4","ios":"levelo://app?vid=46004c0d-ec75-44cc-8683-f6a48aa980f4"},"vehicle_type_id":"4","last_reported":1739261567,"current_range_meters":38400,"station_id":"ce4bh392rcd13ifvqdm0","pricing_plan_id":"cebpf4jnsgd1na2vs0mg"},{"bike_id":"792fdbcd-6d34-4421-8340-3de09168ea7d","system_id":"levelo_inurba_marseille","lat":43.280828,"lon":5.396629,"is_reserved":false,"is_disabled":false,"rental_uris":{"android":"levelo://app?vid=792fdbcd-6d34-4421-8340-3de09168ea7d","ios":"levelo://app?vid=792fdbcd-6d34-4421-8340-3de09168ea7d"},"vehicle_type_id":"4","last_reported":1739261567,"current_range_meters":18000,"station_id":"ce4bho12rcd13ifvqh2g","pricing_plan_id":"cebpf4jnsgd1na2vs0mg"},{"bike_id":"6e1b6112-cd26-421f-b157-6ac716f542d7","system_id":"levelo_inurba_marseille","lat":43.271835,"lon":5.409859,"is_reserved":false,"is_disabled":false,"rental_uris":{"android":"levelo://app?vid=6e1b6112-cd26-421f-b157-6ac716f542d7","ios":"levelo://app?vid=6e1b6112-cd26-421f-b157-6ac716f542d7"},"vehicle_type_id":"4","last_reported":1739261567,"current_range_meters":35200,"station_id":"ce4bhl12rcd13ifvqgf0","pricing_plan_id":"cebpf4jnsgd1na2vs0mg"},{"bike_id":"a104adbd-6a0a-4d56-b95e-7816c04d1b9b","system_id":"levelo_inurba_marseille","lat":43.31709,"lon":5.43708,"is_reserved":false,"is_disabled":false,"rental_uris":{"android":"levelo://app?vid=a104adbd-6a0a-4d56-b95e-7816c04d1b9b","ios":"levelo://app?vid=a104adbd-6a0a-4d56-b95e-7816c04d1b9b"},"vehicle_type_id":"4","last_reported":1739261567,"current_range_meters":33200,"station_id":"ce4bhp92rcd13ifvqhcg","pricing_plan_id":"cebpf4jnsgd1na2vs0mg"},{"bike_id":"5a712f7b-faea-4b41-b7bd-078b067ddb56","system_id":"levelo_inurba_marseille","lat":43.25575,"lon":5.38255,"is_reserved":false,"is_disabled":true,"rental_uris":{"android":"levelo://app?vid=5a712f7b-faea-4b41-b7bd-078b067ddb56","ios":"levelo://app?vid=5a712f7b-faea-4b41-b7bd-078b067ddb56"},"vehicle_type_id":"4","last_reported":1739261567,"current_range_meters":28800,"station_id":"ce4bhih2rcd13ifvqfs0","pricing_plan_id":"cebpf4jnsgd1na2vs0mg"},{"bike_id":"b41d8475-1b61-4022-b648-2777adae10ea","system_id":"levelo_inurba_marseille","lat":43.24169,"lon":5.364,"is_reserved":false,"is_disabled":false,"rental_uris":{"android":"levelo://app?vid=b41d8475-1b61-4022-b648-2777adae10ea","ios":"levelo://app?vid=b41d8475-1b61-4022-b648-2777adae10ea"},"vehicle_type_id":"4","last_reported":1739261567,"current_range_meters":27200,"station_id":"cpo36qri1sfpv3e86is0","pricing_plan_id":"cebpf4jnsgd1na2vs0mg"},{"bike_id":"797c91fd-a875-467b-999b-207e5af3706b","system_id":"levelo_inurba_marseille","lat":43.27898,"lon":5.38011,"is_reserved":false,"is_disabled":false,"rental_uris":{"android":"levelo://app?vid=797c91fd-a875-467b-999b-207e5af3706b","ios":"levelo://app?vid=797c91fd-a875-467b-999b-207e5af3706b"},"vehicle_type_id":"4","last_reported":1739261567,"current_range_meters":38800,"station_id":"ce4bhf92rcd13ifvqf50","pricing_plan_id":"cebpf4jnsgd1na2vs0mg"},{"bike_id":"3b3275f6-005e-466d-a091-71f91326b576","system_id":"levelo_inurba_marseille","lat":43.33613,"lon":5.41021,"is_reserved":false,"is_disabled":false,"rental_uris":{"android":"levelo://app?vid=3b3275f6-005e-466d-a091-71f91326b576","ios":"levelo://app?vid=3b3275f6-005e-466d-a091-71f91326b576"},"vehicle_type_id":"4","last_reported":1739261567,"current_range_meters":38800,"station_id":"ce4bhqh2rcd13ifvqhmg","pricing_plan_id":"cebpf4jnsgd1na2vs0mg"},{"bike_id":"de4cb2eb-78bb-4944-a492-0e724458ef4f","system_id":"levelo_inurba_marseille","lat":43.24644,"lon":5.38896,"is_reserved":false,"is_disabled":false,"rental_uris":{"android":"levelo://app?vid=de4cb2eb-78bb-4944-a492-0e724458ef4f","ios":"levelo://app?vid=de4cb2eb-78bb-4944-a492-0e724458ef4f"},"vehicle_type_id":"4","last_reported":1739261567,"current_range_meters":35600,"station_id":"ce4bhg12rcd13ifvqf60","pricing_plan_id":"cebpf4jnsgd1na2vs0mg"},{"bike_id":"c6d668f6-941c-4533-8dc4-268029ce8ce4","system_id":"levelo_inurba_marseille","lat":43.27831,"lon":5.39196,"is_reserved":false,"is_disabled":false,"rental_uris":{"android":"levelo://app?vid=c6d668f6-941c-4533-8dc4-268029ce8ce4","ios":"levelo://app?vid=c6d668f6-941c-4533-8dc4-268029ce8ce4"},"vehicle_type_id":"4","last_reported":1739261567,"current_range_meters":38800,"station_id":"ce4bhjp2rcd13ifvqga0","pricing_plan_id":"cebpf4jnsgd1na2vs0mg"},{"bike_id":"5c5185fd-8820-4254-a5c9-0e6a473deec7","system_id":"levelo_inurba_marseille","lat":43.27774,"lon":5.42096,"is_reserved":false,"is_disabled":true,"rental_uris":{"android":"levelo://app?vid=5c5185fd-8820-4254-a5c9-0e6a473deec7","ios":"levelo://app?vid=5c5185fd-8820-4254-a5c9-0e6a473deec7"},"vehicle_type_id":"4","last_reported":1739261567,"current_range_meters":0,"station_id":"","pricing_plan_id":"cebpf4jnsgd1na2vs0mg"},{"bike_id":"5cc1c40c-0cfa-47bf-8c35-a147fbb523c6","system_id":"levelo_inurba_marseille","lat":43.33034,"lon":5.39247,"is_reserved":false,"is_disabled":false,"rental_uris":{"android":"levelo://app?vid=5cc1c40c-0cfa-47bf-8c35-a147fbb523c6","ios":"levelo://app?vid=5cc1c40c-0cfa-47bf-8c35-a147fbb523c6"},"vehicle_type_id":"4","last_reported":1739261567,"current_range_meters":36400,"station_id":"","pricing_plan_id":"cebpf4jnsgd1na2vs0mg"},{"bike_id":"405eff07-47fc-4995-9b2b-3196442bdb5a","system_id":"levelo_inurba_marseille","lat":43.30954,"lon":5.3902,"is_reserved":false,"is_disabled":false,"rental_uris":{"android":"levelo://app?vid=405eff07-47fc-4995-9b2b-3196442bdb5a","ios":"levelo://app?vid=405eff07-47fc-4995-9b2b-3196442bdb5a"},"vehicle_type_id":"4","last_reported":1739261567,"current_range_meters":28800,"station_id":"","pricing_plan_id":"cebpf4jnsgd1na2vs0mg"},{"bike_id":"51ab7186-5043-4bed-baca-73708608a302","system_id":"levelo_inurba_marseille","lat":43.29584,"lon":5.37026,"is_reserved":false,"is_disabled":true,"rental_uris":{"android":"levelo://app?vid=51ab7186-5043-4bed-baca-73708608a302","ios":"levelo://app?vid=51ab7186-5043-4bed-baca-73708608a302"},"vehicle_type_id":"4","last_reported":1739261567,"current_range_meters":8400,"station_id":"","pricing_plan_id":"cebpf4jnsgd1na2vs0mg"},{"bike_id":"3664dbbc-23a1-4cc8-b192-1f5bf82ad2ae","system_id":"levelo_inurba_marseille","lat":43.271816,"lon":5.409951,"is_reserved":false,"is_disabled":false,"rental_uris":{"android":"levelo://app?vid=3664dbbc-23a1-4cc8-b192-1f5bf82ad2ae","ios":"levelo://app?vid=3664dbbc-23a1-4cc8-b192-1f5bf82ad2ae"},"vehicle_type_id":"4","last_reported":1739261567,"current_range_meters":38800,"station_id":"ce4bhl12rcd13ifvqgf0","pricing_plan_id":"cebpf4jnsgd1na2vs0mg"},{"bike_id":"757d734e-7f26-48e8-a1bd-264dc48c68ec","system_id":"levelo_inurba_marseille","lat":43.29041,"lon":5.39968,"is_reserved":false,"is_disabled":false,"rental_uris":{"android":"levelo://app?vid=757d734e-7f26-48e8-a1bd-264dc48c68ec","ios":"levelo://app?vid=757d734e-7f26-48e8-a1bd-264dc48c68ec"},"vehicle_type_id":"4","last_reported":1739261567,"current_range_meters":9600,"station_id":"ce4bh392rcd13ifvqdm0","pricing_plan_id":"cebpf4jnsgd1na2vs0mg"},{"bike_id":"d5a7c0d8-a829-49d3-8fa0-7d7687bb6110","system_id":"levelo_inurba_marseille","lat":43.30739,"lon":5.37154,"is_reserved":false,"is_disabled":false,"rental_uris":{"android":"levelo://app?vid=d5a7c0d8-a829-49d3-8fa0-7d7687bb6110","ios":"levelo://app?vid=d5a7c0d8-a829-49d3-8fa0-7d7687bb6110"},"vehicle_type_id":"4","last_reported":1739261567,"current_range_meters":19200,"station_id":"","pricing_plan_id":"cebpf4jnsgd1na2vs0mg"},{"bike_id":"46ec9686-87c2-4705-bf84-f8a2b268075d","system_id":"levelo_inurba_marseille","lat":43.25933,"lon":5.40908,"is_reserved":false,"is_disabled":false,"rental_uris":{"android":"levelo://app?vid=46ec9686-87c2-4705-bf84-f8a2b268075d","ios":"levelo://app?vid=46ec9686-87c2-4705-bf84-f8a2b268075d"},"vehicle_type_id":"4","last_reported":1739261567,"current_range_meters":28000,"station_id":"ce4bhm92rcd13ifvqglg","pricing_plan_id":"cebpf4jnsgd1na2vs0mg"},{"bike_id":"890464c4-7185-412e-a93b-79d798bd90c9","system_id":"levelo_inurba_marseille","lat":43.28436,"lon":5.39219,"is_reserved":false,"is_disabled":false,"rental_uris":{"android":"levelo://app?vid=890464c4-7185-412e-a93b-79d798bd90c9","ios":"levelo://app?vid=890464c4-7185-412e-a93b-79d798bd90c9"},"vehicle_type_id":"4","last_reported":1739261567,"current_range_meters":38800,"station_id":"ce4bhoh2rcd13ifvqh5g","pricing_plan_id":"cebpf4jnsgd1na2vs0mg"},{"bike_id":"19c987bc-414e-442d-adbf-ce58f34e6fc3","system_id":"levelo_inurba_marseille","lat":43.30943,"lon":5.39015,"is_reserved":false,"is_disabled":false,"rental_uris":{"android":"levelo://app?vid=19c987bc-414e-442d-adbf-ce58f34e6fc3","ios":"levelo://app?vid=19c987bc-414e-442d-adbf-ce58f34e6fc3"},"vehicle_type_id":"4","last_reported":1739261567,"current_range_meters":9600,"station_id":"","pricing_plan_id":"cebpf4jnsgd1na2vs0mg"},{"bike_id":"b854f3d7-eb90-4cc1-b69e-909047f83037","system_id":"levelo_inurba_marseille","lat":43.30537,"lon":5.36704,"is_reserved":false,"is_disabled":false,"rental_uris":{"android":"levelo://app?vid=b854f3d7-eb90-4cc1-b69e-909047f83037","ios":"levelo://app?vid=b854f3d7-eb90-4cc1-b69e-909047f83037"},"vehicle_type_id":"4","last_reported":1739261567,"current_range_meters":18800,"station_id":"ce4bgrp2rcd13ifvqc9g","pricing_plan_id":"cebpf4jnsgd1na2vs0mg"},{"bike_id":"9cc5d856-a531-4d77-866a-e66468759d0e","system_id":"levelo_inurba_marseille","lat":43.29966,"lon":5.37187,"is_reserved":false,"is_disabled":false,"rental_uris":{"android":"levelo://app?vid=9cc5d856-a531-4d77-866a-e66468759d0e","ios":"levelo://app?vid=9cc5d856-a531-4d77-866a-e66468759d0e"},"vehicle_type_id":"4","last_reported":1739261567,"current_range_meters":9200,"station_id":"ce4bgr92rcd13ifvqc7g","pricing_plan_id":"cebpf4jnsgd1na2vs0mg"},{"bike_id":"7d2f98d0-3280-4e26-9a79-5d6635033773","system_id":"levelo_inurba_marseille","lat":43.246546,"lon":5.389292,"is_reserved":false,"is_disabled":false,"rental_uris":{"android":"levelo://app?vid=7d2f98d0-3280-4e26-9a79-5d6635033773","ios":"levelo://app?vid=7d2f98d0-3280-4e26-9a79-5d6635033773"},"vehicle_type_id":"4","last_reported":1739261567,"current_range_meters":26000,"station_id":"ce4bhg12rcd13ifvqf60","pricing_plan_id":"cebpf4jnsgd1na2vs0mg"},{"bike_id":"b90ca344-1084-4ea6-8da0-1d09f34d7390","system_id":"levelo_inurba_marseille","lat":43.28927,"lon":5.38403,"is_reserved":false,"is_disabled":false,"rental_uris":{"android":"levelo://app?vid=b90ca344-1084-4ea6-8da0-1d09f34d7390","ios":"levelo://app?vid=b90ca344-1084-4ea6-8da0-1d09f34d7390"},"vehicle_type_id":"4","last_reported":1739261567,"current_range_meters":28000,"station_id":"ce4bh612rcd13ifvqe6g","pricing_plan_id":"cebpf4jnsgd1na2vs0mg"},{"bike_id":"0cdcc8f7-f674-43f1-9b73-0f1949650402","system_id":"levelo_inurba_marseille","lat":43.239657,"lon":5.366221,"is_reserved":false,"is_disabled":false,"rental_uris":{"android":"levelo://app?vid=0cdcc8f7-f674-43f1-9b73-0f1949650402","ios":"levelo://app?vid=0cdcc8f7-f674-43f1-9b73-0f1949650402"},"vehicle_type_id":"4","last_reported":1739261567,"current_range_meters":36400,"station_id":"ce4bhi12rcd13ifvqfp0","pricing_plan_id":"cebpf4jnsgd1na2vs0mg"},{"bike_id":"6a285717-9264-4258-afaa-458002754084","system_id":"levelo_inurba_marseille","lat":43.30434,"lon":5.38881,"is_reserved":false,"is_disabled":false,"rental_uris":{"android":"levelo://app?vid=6a285717-9264-4258-afaa-458002754084","ios":"levelo://app?vid=6a285717-9264-4258-afaa-458002754084"},"vehicle_type_id":"4","last_reported":1739261567,"current_range_meters":32000,"station_id":"ce4bgk12rcd13ifvqbi0","pricing_plan_id":"cebpf4jnsgd1na2vs0mg"},{"bike_id":"de77abfa-6f74-40e9-8131-b7884eda37eb","system_id":"levelo_inurba_marseille","lat":43.299331,"lon":5.393994,"is_reserved":false,"is_disabled":false,"rental_uris":{"android":"levelo://app?vid=de77abfa-6f74-40e9-8131-b7884eda37eb","ios":"levelo://app?vid=de77abfa-6f74-40e9-8131-b7884eda37eb"},"vehicle_type_id":"4","last_reported":1739261567,"current_range_meters":29600,"station_id":"","pricing_plan_id":"cebpf4jnsgd1na2vs0mg"},{"bike_id":"83951a85-bc3f-4b4f-ac45-61da34b90d33","system_id":"levelo_inurba_marseille","lat":43.30552,"lon":5.36734,"is_reserved":false,"is_disabled":false,"rental_uris":{"android":"levelo://app?vid=83951a85-bc3f-4b4f-ac45-61da34b90d33","ios":"levelo://app?vid=83951a85-bc3f-4b4f-ac45-61da34b90d33"},"vehicle_type_id":"4","last_reported":1739261567,"current_range_meters":9200,"station_id":"ce4bgrp2rcd13ifvqc9g","pricing_plan_id":"cebpf4jnsgd1na2vs0mg"},{"bike_id":"c275a277-c8fc-4f3b-b3ec-a42a4ead8956","system_id":"levelo_inurba_marseille","lat":43.30136,"lon":5.37443,"is_reserved":false,"is_disabled":false,"rental_uris":{"android":"levelo://app?vid=c275a277-c8fc-4f3b-b3ec-a42a4ead8956","ios":"levelo://app?vid=c275a277-c8fc-4f3b-b3ec-a42a4ead8956"},"vehicle_type_id":"4","last_reported":1739261567,"current_range_meters":38800,"station_id":"ce4bgs92rcd13ifvqcc0","pricing_plan_id":"cebpf4jnsgd1na2vs0mg"},{"bike_id":"ee079ffa-4416-4a91-bc98-3bd665acea3b","system_id":"levelo_inurba_marseille","lat":43.33723,"lon":5.39202,"is_reserved":false,"is_disabled":false,"rental_uris":{"android":"levelo://app?vid=ee079ffa-4416-4a91-bc98-3bd665acea3b","ios":"levelo://app?vid=ee079ffa-4416-4a91-bc98-3bd665acea3b"},"vehicle_type_id":"4","last_reported":1739261567,"current_range_meters":38800,"station_id":"ce4bhr92rcd13ifvqhsg","pricing_plan_id":"cebpf4jnsgd1na2vs0mg"},{"bike_id":"1fa82dc6-47d4-4356-bbca-393bf4461726","system_id":"levelo_inurba_marseille","lat":43.239576,"lon":5.366284,"is_reserved":false,"is_disabled":false,"rental_uris":{"android":"levelo://app?vid=1fa82dc6-47d4-4356-bbca-393bf4461726","ios":"levelo://app?vid=1fa82dc6-47d4-4356-bbca-393bf4461726"},"vehicle_type_id":"4","last_reported":1739261567,"current_range_meters":19200,"station_id":"ce4bhi12rcd13ifvqfp0","pricing_plan_id":"cebpf4jnsgd1na2vs0mg"},{"bike_id":"bfda265a-2a28-4612-8b48-cb0931cef6e0","system_id":"levelo_inurba_marseille","lat":43.27965,"lon":5.38739,"is_reserved":false,"is_disabled":false,"rental_uris":{"android":"levelo://app?vid=bfda265a-2a28-4612-8b48-cb0931cef6e0","ios":"levelo://app?vid=bfda265a-2a28-4612-8b48-cb0931cef6e0"},"vehicle_type_id":"4","last_reported":1739261567,"current_range_meters":34000,"station_id":"ce4bhg12rcd13ifvqf80","pricing_plan_id":"cebpf4jnsgd1na2vs0mg"},{"bike_id":"ab2df82b-c7be-4692-9178-b26a20bd4dfa","system_id":"levelo_inurba_marseille","lat":43.29303,"lon":5.37179,"is_reserved":false,"is_disabled":true,"rental_uris":{"android":"levelo://app?vid=ab2df82b-c7be-4692-9178-b26a20bd4dfa","ios":"levelo://app?vid=ab2df82b-c7be-4692-9178-b26a20bd4dfa"},"vehicle_type_id":"4","last_reported":1739261567,"current_range_meters":0,"station_id":"ce4bgh92rcd13ifvqb40","pricing_plan_id":"cebpf4jnsgd1na2vs0mg"},{"bike_id":"43d9c899-b698-4010-980b-b17004dc2d7c","system_id":"levelo_inurba_marseille","lat":43.29973,"lon":5.37179,"is_reserved":false,"is_disabled":false,"rental_uris":{"android":"levelo://app?vid=43d9c899-b698-4010-980b-b17004dc2d7c","ios":"levelo://app?vid=43d9c899-b698-4010-980b-b17004dc2d7c"},"vehicle_type_id":"4","last_reported":1739261567,"current_range_meters":12800,"station_id":"ce4bgr92rcd13ifvqc7g","pricing_plan_id":"cebpf4jnsgd1na2vs0mg"},{"bike_id":"67c77a93-95e0-4dde-b030-1b6a0f65cf9a","system_id":"levelo_inurba_marseille","lat":43.27154,"lon":5.41,"is_reserved":false,"is_disabled":false,"rental_uris":{"android":"levelo://app?vid=67c77a93-95e0-4dde-b030-1b6a0f65cf9a","ios":"levelo://app?vid=67c77a93-95e0-4dde-b030-1b6a0f65cf9a"},"vehicle_type_id":"4","last_reported":1739261567,"current_range_meters":9200,"station_id":"ce4bhl12rcd13ifvqgf0","pricing_plan_id":"cebpf4jnsgd1na2vs0mg"},{"bike_id":"a9299f02-9583-4371-a8b7-067052f87e0c","system_id":"levelo_inurba_marseille","lat":43.26055,"lon":5.39395,"is_reserved":false,"is_disabled":false,"rental_uris":{"android":"levelo://app?vid=a9299f02-9583-4371-a8b7-067052f87e0c","ios":"levelo://app?vid=a9299f02-9583-4371-a8b7-067052f87e0c"},"vehicle_type_id":"4","last_reported":1739261567,"current_range_meters":39200,"station_id":"ce4bhh92rcd13ifvqfj0","pricing_plan_id":"cebpf4jnsgd1na2vs0mg"},{"bike_id":"d4cc9099-d6fa-474e-ae72-0973f57da119","system_id":"levelo_inurba_marseille","lat":43.30276,"lon":5.37736,"is_reserved":false,"is_disabled":false,"rental_uris":{"android":"levelo://app?vid=d4cc9099-d6fa-474e-ae72-0973f57da119","ios":"levelo://app?vid=d4cc9099-d6fa-474e-ae72-0973f57da119"},"vehicle_type_id":"4","last_reported":1739261567,"current_range_meters":39200,"station_id":"ce4bguh2rcd13ifvqcj0","pricing_plan_id":"cebpf4jnsgd1na2vs0mg"},{"bike_id":"496fa2ad-a547-4095-b8b9-a29f1a78ab4b","system_id":"levelo_inurba_marseille","lat":43.278137,"lon":5.407147,"is_reserved":false,"is_disabled":false,"rental_uris":{"android":"levelo://app?vid=496fa2ad-a547-4095-b8b9-a29f1a78ab4b","ios":"levelo://app?vid=496fa2ad-a547-4095-b8b9-a29f1a78ab4b"},"vehicle_type_id":"4","last_reported":1739261567,"current_range_meters":37600,"station_id":"ce4bhnh2rcd13ifvqgtg","pricing_plan_id":"cebpf4jnsgd1na2vs0mg"},{"bike_id":"75d80e4d-7f8e-4044-969a-f39ce5a84fed","system_id":"levelo_inurba_marseille","lat":43.27064,"lon":5.40267,"is_reserved":false,"is_disabled":false,"rental_uris":{"android":"levelo://app?vid=75d80e4d-7f8e-4044-969a-f39ce5a84fed","ios":"levelo://app?vid=75d80e4d-7f8e-4044-969a-f39ce5a84fed"},"vehicle_type_id":"4","last_reported":1739261567,"current_range_meters":18800,"station_id":"ce4bhk92rcd13ifvqgc0","pricing_plan_id":"cebpf4jnsgd1na2vs0mg"},{"bike_id":"6513c882-1fc4-4125-b50a-ceb9ce5450b0","system_id":"levelo_inurba_marseille","lat":43.28097,"lon":5.37836,"is_reserved":false,"is_disabled":false,"rental_uris":{"android":"levelo://app?vid=6513c882-1fc4-4125-b50a-ceb9ce5450b0","ios":"levelo://app?vid=6513c882-1fc4-4125-b50a-ceb9ce5450b0"},"vehicle_type_id":"4","last_reported":1739261567,"current_range_meters":37600,"station_id":"ce4bha12rcd13ifvqee0","pricing_plan_id":"cebpf4jnsgd1na2vs0mg"},{"bike_id":"05f6ac8f-0127-4e39-bd11-d53a74225ef8","system_id":"levelo_inurba_marseille","lat":43.27874,"lon":5.40597,"is_reserved":false,"is_disabled":true,"rental_uris":{"android":"levelo://app?vid=05f6ac8f-0127-4e39-bd11-d53a74225ef8","ios":"levelo://app?vid=05f6ac8f-0127-4e39-bd11-d53a74225ef8"},"vehicle_type_id":"4","last_reported":1739261567,"current_range_meters":0,"station_id":"","pricing_plan_id":"cebpf4jnsgd1na2vs0mg"},{"bike_id":"9b374ae2-ee2c-4179-b471-3dc70bdb54d6","system_id":"levelo_inurba_marseille","lat":43.27964,"lon":5.38723,"is_reserved":false,"is_disabled":false,"rental_uris":{"android":"levelo://app?vid=9b374ae2-ee2c-4179-b471-3dc70bdb54d6","ios":"levelo://app?vid=9b374ae2-ee2c-4179-b471-3dc70bdb54d6"},"vehicle_type_id":"4","last_reported":1739261567,"current_range_meters":39200,"station_id":"ce4bhg12rcd13ifvqf80","pricing_plan_id":"cebpf4jnsgd1na2vs0mg"},{"bike_id":"a3d2302b-9b93-49df-85ba-bce6080207a0","system_id":"levelo_inurba_marseille","lat":43.23142,"lon":5.43747,"is_reserved":false,"is_disabled":false,"rental_uris":{"android":"levelo://app?vid=a3d2302b-9b93-49df-85ba-bce6080207a0","ios":"levelo://app?vid=a3d2302b-9b93-49df-85ba-bce6080207a0"},"vehicle_type_id":"4","last_reported":1739261567,"current_range_meters":6000,"station_id":"ce4bhmp2rcd13ifvqgog","pricing_plan_id":"cebpf4jnsgd1na2vs0mg"},{"bike_id":"1ec39080-1b56-488e-b874-18ff0fb413c3","system_id":"levelo_inurba_marseille","lat":43.29966,"lon":5.37174,"is_reserved":false,"is_disabled":false,"rental_uris":{"android":"levelo://app?vid=1ec39080-1b56-488e-b874-18ff0fb413c3","ios":"levelo://app?vid=1ec39080-1b56-488e-b874-18ff0fb413c3"},"vehicle_type_id":"4","last_reported":1739261567,"current_range_meters":25600,"station_id":"ce4bgr92rcd13ifvqc7g","pricing_plan_id":"cebpf4jnsgd1na2vs0mg"},{"bike_id":"0b521d2a-0459-4e0e-b793-71d6dc8c032e","system_id":"levelo_inurba_marseille","lat":43.26552,"lon":5.37298,"is_reserved":false,"is_disabled":false,"rental_uris":{"android":"levelo://app?vid=0b521d2a-0459-4e0e-b793-71d6dc8c032e","ios":"levelo://app?vid=0b521d2a-0459-4e0e-b793-71d6dc8c032e"},"vehicle_type_id":"4","last_reported":1739261567,"current_range_meters":38800,"station_id":"ce4bhg12rcd13ifvqf70","pricing_plan_id":"cebpf4jnsgd1na2vs0mg"},{"bike_id":"0d5874f3-9e05-431e-8c35-c35c394384b1","system_id":"levelo_inurba_marseille","lat":43.27071,"lon":5.42301,"is_reserved":false,"is_disabled":false,"rental_uris":{"android":"levelo://app?vid=0d5874f3-9e05-431e-8c35-c35c394384b1","ios":"levelo://app?vid=0d5874f3-9e05-431e-8c35-c35c394384b1"},"vehicle_type_id":"4","last_reported":1739261567,"current_range_meters":35600,"station_id":"ce4bhk92rcd13ifvqgb0","pricing_plan_id":"cebpf4jnsgd1na2vs0mg"},{"bike_id":"3d01ee57-be5d-4165-815d-c5b06c8be331","system_id":"levelo_inurba_marseille","lat":43.25001,"lon":5.38931,"is_reserved":false,"is_disabled":false,"rental_uris":{"android":"levelo://app?vid=3d01ee57-be5d-4165-815d-c5b06c8be331","ios":"levelo://app?vid=3d01ee57-be5d-4165-815d-c5b06c8be331"},"vehicle_type_id":"4","last_reported":1739261567,"current_range_meters":39200,"station_id":"ce4bhgp2rcd13ifvqfd0","pricing_plan_id":"cebpf4jnsgd1na2vs0mg"},{"bike_id":"888de15d-5155-402d-af0b-510ff5556f61","system_id":"levelo_inurba_marseille","lat":43.32355,"lon":5.3889,"is_reserved":false,"is_disabled":false,"rental_uris":{"android":"levelo://app?vid=888de15d-5155-402d-af0b-510ff5556f61","ios":"levelo://app?vid=888de15d-5155-402d-af0b-510ff5556f61"},"vehicle_type_id":"4","last_reported":1739261567,"current_range_meters":27600,"station_id":"ce4bhqp2rcd13ifvqhog","pricing_plan_id":"cebpf4jnsgd1na2vs0mg"},{"bike_id":"1ba8075d-c45b-45a8-a5f0-4609fb7e8979","system_id":"levelo_inurba_marseille","lat":43.24174,"lon":5.39733,"is_reserved":false,"is_disabled":false,"rental_uris":{"android":"levelo://app?vid=1ba8075d-c45b-45a8-a5f0-4609fb7e8979","ios":"levelo://app?vid=1ba8075d-c45b-45a8-a5f0-4609fb7e8979"},"vehicle_type_id":"4","last_reported":1739261567,"current_range_meters":28000,"station_id":"ce4bhn12rcd13ifvqgpg","pricing_plan_id":"cebpf4jnsgd1na2vs0mg"},{"bike_id":"2b7cd904-4faf-44f6-9462-957323ca33d5","system_id":"levelo_inurba_marseille","lat":43.30921,"lon":5.36853,"is_reserved":false,"is_disabled":false,"rental_uris":{"android":"levelo://app?vid=2b7cd904-4faf-44f6-9462-957323ca33d5","ios":"levelo://app?vid=2b7cd904-4faf-44f6-9462-957323ca33d5"},"vehicle_type_id":"4","last_reported":1739261567,"current_range_meters":38800,"station_id":"ce4bgn92rcd13ifvqbvg","pricing_plan_id":"cebpf4jnsgd1na2vs0mg"},{"bike_id":"d5682053-08dd-49fb-ba2f-fa748d8b84c7","system_id":"levelo_inurba_marseille","lat":43.2894,"lon":5.39636,"is_reserved":false,"is_disabled":false,"rental_uris":{"android":"levelo://app?vid=d5682053-08dd-49fb-ba2f-fa748d8b84c7","ios":"levelo://app?vid=d5682053-08dd-49fb-ba2f-fa748d8b84c7"},"vehicle_type_id":"4","last_reported":1739261567,"current_range_meters":18000,"station_id":"ce4bh3h2rcd13ifvqdn0","pricing_plan_id":"cebpf4jnsgd1na2vs0mg"},{"bike_id":"76ed4e97-7fa9-4836-bcd3-e52753ef31b4","system_id":"levelo_inurba_marseille","lat":43.29842,"lon":5.3627,"is_reserved":false,"is_disabled":false,"rental_uris":{"android":"levelo://app?vid=76ed4e97-7fa9-4836-bcd3-e52753ef31b4","ios":"levelo://app?vid=76ed4e97-7fa9-4836-bcd3-e52753ef31b4"},"vehicle_type_id":"4","last_reported":1739261567,"current_range_meters":39200,"station_id":"ce4bgpp2rcd13ifvqc3g","pricing_plan_id":"cebpf4jnsgd1na2vs0mg"},{"bike_id":"fd7cd6eb-8023-4160-9061-39fa556cf25c","system_id":"levelo_inurba_marseille","lat":43.30315,"lon":5.4044,"is_reserved":false,"is_disabled":true,"rental_uris":{"android":"levelo://app?vid=fd7cd6eb-8023-4160-9061-39fa556cf25c","ios":"levelo://app?vid=fd7cd6eb-8023-4160-9061-39fa556cf25c"},"vehicle_type_id":"4","last_reported":1739261567,"current_range_meters":29600,"station_id":"ce4bh012rcd13ifvqd10","pricing_plan_id":"cebpf4jnsgd1na2vs0mg"},{"bike_id":"e4e9f784-4a8b-4a3f-9f73-d7bbf81c2870","system_id":"levelo_inurba_marseille","lat":43.29031,"lon":5.39967,"is_reserved":false,"is_disabled":false,"rental_uris":{"android":"levelo://app?vid=e4e9f784-4a8b-4a3f-9f73-d7bbf81c2870","ios":"levelo://app?vid=e4e9f784-4a8b-4a3f-9f73-d7bbf81c2870"},"vehicle_type_id":"4","last_reported":1739261567,"current_range_meters":38800,"station_id":"ce4bh392rcd13ifvqdm0","pricing_plan_id":"cebpf4jnsgd1na2vs0mg"},{"bike_id":"d32849cf-4c14-4032-9063-172d06d3f04f","system_id":"levelo_inurba_marseille","lat":43.23183,"lon":5.35563,"is_reserved":false,"is_disabled":false,"rental_uris":{"android":"levelo://app?vid=d32849cf-4c14-4032-9063-172d06d3f04f","ios":"levelo://app?vid=d32849cf-4c14-4032-9063-172d06d3f04f"},"vehicle_type_id":"4","last_reported":1739261567,"current_range_meters":36000,"station_id":"ce4bhu92rcd13ifvqi70","pricing_plan_id":"cebpf4jnsgd1na2vs0mg"},{"bike_id":"f3c27c37-a208-4afe-9b03-6fecda56ffa8","system_id":"levelo_inurba_marseille","lat":43.29973,"lon":5.37184,"is_reserved":false,"is_disabled":false,"rental_uris":{"android":"levelo://app?vid=f3c27c37-a208-4afe-9b03-6fecda56ffa8","ios":"levelo://app?vid=f3c27c37-a208-4afe-9b03-6fecda56ffa8"},"vehicle_type_id":"4","last_reported":1739261567,"current_range_meters":38400,"station_id":"ce4bgr92rcd13ifvqc7g","pricing_plan_id":"cebpf4jnsgd1na2vs0mg"},{"bike_id":"b05a1241-e7a1-4994-8365-a71d1bd4a997","system_id":"levelo_inurba_marseille","lat":43.29559,"lon":5.42325,"is_reserved":false,"is_disabled":false,"rental_uris":{"android":"levelo://app?vid=b05a1241-e7a1-4994-8365-a71d1bd4a997","ios":"levelo://app?vid=b05a1241-e7a1-4994-8365-a71d1bd4a997"},"vehicle_type_id":"4","last_reported":1739261567,"current_range_meters":38400,"station_id":"ce4bhph2rcd13ifvqhdg","pricing_plan_id":"cebpf4jnsgd1na2vs0mg"},{"bike_id":"02e5c4a6-1752-426c-b535-086c406e3885","system_id":"levelo_inurba_marseille","lat":43.27803,"lon":5.4072,"is_reserved":false,"is_disabled":false,"rental_uris":{"android":"levelo://app?vid=02e5c4a6-1752-426c-b535-086c406e3885","ios":"levelo://app?vid=02e5c4a6-1752-426c-b535-086c406e3885"},"vehicle_type_id":"4","last_reported":1739261567,"current_range_meters":38800,"station_id":"ce4bhnh2rcd13ifvqgtg","pricing_plan_id":"cebpf4jnsgd1na2vs0mg"},{"bike_id":"09a31e22-31a3-4a8b-a8f3-c6b84a9cc357","system_id":"levelo_inurba_marseille","lat":43.27556,"lon":5.38418,"is_reserved":false,"is_disabled":false,"rental_uris":{"android":"levelo://app?vid=09a31e22-31a3-4a8b-a8f3-c6b84a9cc357","ios":"levelo://app?vid=09a31e22-31a3-4a8b-a8f3-c6b84a9cc357"},"vehicle_type_id":"4","last_reported":1739261567,"current_range_meters":28400,"station_id":"ce4bhh92rcd13ifvqfi0","pricing_plan_id":"cebpf4jnsgd1na2vs0mg"},{"bike_id":"b7cfafc0-fba3-47fa-8c3d-d96c6bee1f7a","system_id":"levelo_inurba_marseille","lat":43.24387,"lon":5.37056,"is_reserved":false,"is_disabled":false,"rental_uris":{"android":"levelo://app?vid=b7cfafc0-fba3-47fa-8c3d-d96c6bee1f7a","ios":"levelo://app?vid=b7cfafc0-fba3-47fa-8c3d-d96c6bee1f7a"},"vehicle_type_id":"4","last_reported":1739261567,"current_range_meters":34000,"station_id":"ce4bhhh2rcd13ifvqfk0","pricing_plan_id":"cebpf4jnsgd1na2vs0mg"},{"bike_id":"9ba133ba-7b58-4607-8737-7fb5bce66e58","system_id":"levelo_inurba_marseille","lat":43.243953,"lon":5.37069,"is_reserved":false,"is_disabled":false,"rental_uris":{"android":"levelo://app?vid=9ba133ba-7b58-4607-8737-7fb5bce66e58","ios":"levelo://app?vid=9ba133ba-7b58-4607-8737-7fb5bce66e58"},"vehicle_type_id":"4","last_reported":1739261567,"current_range_meters":38800,"station_id":"ce4bhhh2rcd13ifvqfk0","pricing_plan_id":"cebpf4jnsgd1na2vs0mg"},{"bike_id":"7ad2debf-586d-4c17-96ee-4293391683d1","system_id":"levelo_inurba_marseille","lat":43.2817,"lon":5.42676,"is_reserved":false,"is_disabled":false,"rental_uris":{"android":"levelo://app?vid=7ad2debf-586d-4c17-96ee-4293391683d1","ios":"levelo://app?vid=7ad2debf-586d-4c17-96ee-4293391683d1"},"vehicle_type_id":"4","last_reported":1739261567,"current_range_meters":18000,"station_id":"ce4bhnh2rcd13ifvqgug","pricing_plan_id":"cebpf4jnsgd1na2vs0mg"},{"bike_id":"de604ce1-344c-45ed-b513-dfc750a67dd3","system_id":"levelo_inurba_marseille","lat":43.29916,"lon":5.38516,"is_reserved":false,"is_disabled":false,"rental_uris":{"android":"levelo://app?vid=de604ce1-344c-45ed-b513-dfc750a67dd3","ios":"levelo://app?vid=de604ce1-344c-45ed-b513-dfc750a67dd3"},"vehicle_type_id":"4","last_reported":1739261567,"current_range_meters":27600,"station_id":"ce4bgi92rcd13ifvqb90","pricing_plan_id":"cebpf4jnsgd1na2vs0mg"},{"bike_id":"99f7cab8-6f21-4cfb-949a-50500771e3bd","system_id":"levelo_inurba_marseille","lat":43.23957,"lon":5.36627,"is_reserved":false,"is_disabled":false,"rental_uris":{"android":"levelo://app?vid=99f7cab8-6f21-4cfb-949a-50500771e3bd","ios":"levelo://app?vid=99f7cab8-6f21-4cfb-949a-50500771e3bd"},"vehicle_type_id":"4","last_reported":1739261567,"current_range_meters":11600,"station_id":"ce4bhi12rcd13ifvqfp0","pricing_plan_id":"cebpf4jnsgd1na2vs0mg"},{"bike_id":"f97cf5ab-5809-4756-93c3-d41c2eaf9f41","system_id":"levelo_inurba_marseille","lat":43.317236,"lon":5.424103,"is_reserved":false,"is_disabled":false,"rental_uris":{"android":"levelo://app?vid=f97cf5ab-5809-4756-93c3-d41c2eaf9f41","ios":"levelo://app?vid=f97cf5ab-5809-4756-93c3-d41c2eaf9f41"},"vehicle_type_id":"4","last_reported":1739261567,"current_range_meters":38400,"station_id":"ce4bhp92rcd13ifvqhbg","pricing_plan_id":"cebpf4jnsgd1na2vs0mg"},{"bike_id":"14b2070b-6ddc-42e3-b1e8-9c0cbc081f72","system_id":"levelo_inurba_marseille","lat":43.33717,"lon":5.39192,"is_reserved":false,"is_disabled":false,"rental_uris":{"android":"levelo://app?vid=14b2070b-6ddc-42e3-b1e8-9c0cbc081f72","ios":"levelo://app?vid=14b2070b-6ddc-42e3-b1e8-9c0cbc081f72"},"vehicle_type_id":"4","last_reported":1739261567,"current_range_meters":35600,"station_id":"ce4bhr92rcd13ifvqhsg","pricing_plan_id":"cebpf4jnsgd1na2vs0mg"},{"bike_id":"648a0972-13b4-432e-83e9-3b1cab71aee4","system_id":"levelo_inurba_marseille","lat":43.29277,"lon":5.36845,"is_reserved":false,"is_disabled":false,"rental_uris":{"android":"levelo://app?vid=648a0972-13b4-432e-83e9-3b1cab71aee4","ios":"levelo://app?vid=648a0972-13b4-432e-83e9-3b1cab71aee4"},"vehicle_type_id":"4","last_reported":1739261567,"current_range_meters":33600,"station_id":"ce4bhbp2rcd13ifvqesg","pricing_plan_id":"cebpf4jnsgd1na2vs0mg"},{"bike_id":"3ad78980-d954-4439-b88d-56e0dcfe7b89","system_id":"levelo_inurba_marseille","lat":43.23959,"lon":5.36654,"is_reserved":false,"is_disabled":false,"rental_uris":{"android":"levelo://app?vid=3ad78980-d954-4439-b88d-56e0dcfe7b89","ios":"levelo://app?vid=3ad78980-d954-4439-b88d-56e0dcfe7b89"},"vehicle_type_id":"4","last_reported":1739261567,"current_range_meters":10800,"station_id":"ce4bhi12rcd13ifvqfp0","pricing_plan_id":"cebpf4jnsgd1na2vs0mg"},{"bike_id":"f654d2d3-817a-4c55-8ebd-8025694bc89f","system_id":"levelo_inurba_marseille","lat":43.30165,"lon":5.38093,"is_reserved":false,"is_disabled":false,"rental_uris":{"android":"levelo://app?vid=f654d2d3-817a-4c55-8ebd-8025694bc89f","ios":"levelo://app?vid=f654d2d3-817a-4c55-8ebd-8025694bc89f"},"vehicle_type_id":"4","last_reported":1739261567,"current_range_meters":27600,"station_id":"ce4bgjp2rcd13ifvqbh0","pricing_plan_id":"cebpf4jnsgd1na2vs0mg"},{"bike_id":"f69cd6be-4142-4fae-b32e-2ad56ba1af59","system_id":"levelo_inurba_marseille","lat":43.31689,"lon":5.40474,"is_reserved":false,"is_disabled":false,"rental_uris":{"android":"levelo://app?vid=f69cd6be-4142-4fae-b32e-2ad56ba1af59","ios":"levelo://app?vid=f69cd6be-4142-4fae-b32e-2ad56ba1af59"},"vehicle_type_id":"4","last_reported":1739261567,"current_range_meters":36800,"station_id":"ce4bh012rcd13ifvqd00","pricing_plan_id":"cebpf4jnsgd1na2vs0mg"},{"bike_id":"7d745428-6e84-4052-9e08-7d87eb618c38","system_id":"levelo_inurba_marseille","lat":43.29041,"lon":5.39966,"is_reserved":false,"is_disabled":false,"rental_uris":{"android":"levelo://app?vid=7d745428-6e84-4052-9e08-7d87eb618c38","ios":"levelo://app?vid=7d745428-6e84-4052-9e08-7d87eb618c38"},"vehicle_type_id":"4","last_reported":1739261567,"current_range_meters":22000,"station_id":"ce4bh392rcd13ifvqdm0","pricing_plan_id":"cebpf4jnsgd1na2vs0mg"},{"bike_id":"7236e1b4-722d-4c60-b1c2-1f90cff793c1","system_id":"levelo_inurba_marseille","lat":43.27971,"lon":5.38741,"is_reserved":false,"is_disabled":false,"rental_uris":{"android":"levelo://app?vid=7236e1b4-722d-4c60-b1c2-1f90cff793c1","ios":"levelo://app?vid=7236e1b4-722d-4c60-b1c2-1f90cff793c1"},"vehicle_type_id":"4","last_reported":1739261567,"current_range_meters":25600,"station_id":"ce4bhg12rcd13ifvqf80","pricing_plan_id":"cebpf4jnsgd1na2vs0mg"},{"bike_id":"23667c4d-d336-40c5-a10c-a3723b0d0e5c","system_id":"levelo_inurba_marseille","lat":43.30276,"lon":5.37709,"is_reserved":false,"is_disabled":false,"rental_uris":{"android":"levelo://app?vid=23667c4d-d336-40c5-a10c-a3723b0d0e5c","ios":"levelo://app?vid=23667c4d-d336-40c5-a10c-a3723b0d0e5c"},"vehicle_type_id":"4","last_reported":1739261567,"current_range_meters":18000,"station_id":"ce4bguh2rcd13ifvqcj0","pricing_plan_id":"cebpf4jnsgd1na2vs0mg"},{"bike_id":"392397e1-22cf-47c2-8b5e-e2b91ee84a07","system_id":"levelo_inurba_marseille","lat":43.30532,"lon":5.36707,"is_reserved":false,"is_disabled":false,"rental_uris":{"android":"levelo://app?vid=392397e1-22cf-47c2-8b5e-e2b91ee84a07","ios":"levelo://app?vid=392397e1-22cf-47c2-8b5e-e2b91ee84a07"},"vehicle_type_id":"4","last_reported":1739261567,"current_range_meters":37600,"station_id":"ce4bgrp2rcd13ifvqc9g","pricing_plan_id":"cebpf4jnsgd1na2vs0mg"},{"bike_id":"201b14f4-65c7-45ff-8010-fe136e6675ac","system_id":"levelo_inurba_marseille","lat":43.24175,"lon":5.39718,"is_reserved":false,"is_disabled":false,"rental_uris":{"android":"levelo://app?vid=201b14f4-65c7-45ff-8010-fe136e6675ac","ios":"levelo://app?vid=201b14f4-65c7-45ff-8010-fe136e6675ac"},"vehicle_type_id":"4","last_reported":1739261567,"current_range_meters":22800,"station_id":"ce4bhn12rcd13ifvqgpg","pricing_plan_id":"cebpf4jnsgd1na2vs0mg"},{"bike_id":"9207b0f3-9707-4707-b4f6-b2339a5ec8ff","system_id":"levelo_inurba_marseille","lat":43.28136,"lon":5.42655,"is_reserved":false,"is_disabled":false,"rental_uris":{"android":"levelo://app?vid=9207b0f3-9707-4707-b4f6-b2339a5ec8ff","ios":"levelo://app?vid=9207b0f3-9707-4707-b4f6-b2339a5ec8ff"},"vehicle_type_id":"4","last_reported":1739261567,"current_range_meters":37600,"station_id":"ce4bhnh2rcd13ifvqgug","pricing_plan_id":"cebpf4jnsgd1na2vs0mg"},{"bike_id":"3bb91385-514e-4bb7-bbc6-ce3aa19ccbeb","system_id":"levelo_inurba_marseille","lat":43.31993,"lon":5.38161,"is_reserved":false,"is_disabled":false,"rental_uris":{"android":"levelo://app?vid=3bb91385-514e-4bb7-bbc6-ce3aa19ccbeb","ios":"levelo://app?vid=3bb91385-514e-4bb7-bbc6-ce3aa19ccbeb"},"vehicle_type_id":"4","last_reported":1739261567,"current_range_meters":38800,"station_id":"ce4bhr12rcd13ifvqhpg","pricing_plan_id":"cebpf4jnsgd1na2vs0mg"},{"bike_id":"56533ae9-01e0-4fbd-a2eb-8ec6e6269a75","system_id":"levelo_inurba_marseille","lat":43.2706,"lon":5.40261,"is_reserved":false,"is_disabled":false,"rental_uris":{"android":"levelo://app?vid=56533ae9-01e0-4fbd-a2eb-8ec6e6269a75","ios":"levelo://app?vid=56533ae9-01e0-4fbd-a2eb-8ec6e6269a75"},"vehicle_type_id":"4","last_reported":1739261567,"current_range_meters":26800,"station_id":"ce4bhk92rcd13ifvqgc0","pricing_plan_id":"cebpf4jnsgd1na2vs0mg"},{"bike_id":"ca4ef645-a9d5-4dec-bc8e-46d920a6e7cd","system_id":"levelo_inurba_marseille","lat":43.31116,"lon":5.37777,"is_reserved":false,"is_disabled":false,"rental_uris":{"android":"levelo://app?vid=ca4ef645-a9d5-4dec-bc8e-46d920a6e7cd","ios":"levelo://app?vid=ca4ef645-a9d5-4dec-bc8e-46d920a6e7cd"},"vehicle_type_id":"4","last_reported":1739261567,"current_range_meters":37600,"station_id":"ce4bgt92rcd13ifvqcg0","pricing_plan_id":"cebpf4jnsgd1na2vs0mg"},{"bike_id":"0085eac2-df35-4b37-a52c-ef336d4cbb2b","system_id":"levelo_inurba_marseille","lat":43.29041,"lon":5.39968,"is_reserved":false,"is_disabled":false,"rental_uris":{"android":"levelo://app?vid=0085eac2-df35-4b37-a52c-ef336d4cbb2b","ios":"levelo://app?vid=0085eac2-df35-4b37-a52c-ef336d4cbb2b"},"vehicle_type_id":"4","last_reported":1739261567,"current_range_meters":27200,"station_id":"ce4bh392rcd13ifvqdm0","pricing_plan_id":"cebpf4jnsgd1na2vs0mg"},{"bike_id":"c03e3e74-2231-4470-8600-8fa32748c474","system_id":"levelo_inurba_marseille","lat":43.24804,"lon":5.37478,"is_reserved":false,"is_disabled":false,"rental_uris":{"android":"levelo://app?vid=c03e3e74-2231-4470-8600-8fa32748c474","ios":"levelo://app?vid=c03e3e74-2231-4470-8600-8fa32748c474"},"vehicle_type_id":"4","last_reported":1739261567,"current_range_meters":36000,"station_id":"ce4bhgh2rcd13ifvqfb0","pricing_plan_id":"cebpf4jnsgd1na2vs0mg"},{"bike_id":"fa5decec-2aab-4029-b23d-b8d961348940","system_id":"levelo_inurba_marseille","lat":43.28471,"lon":5.38424,"is_reserved":false,"is_disabled":false,"rental_uris":{"android":"levelo://app?vid=fa5decec-2aab-4029-b23d-b8d961348940","ios":"levelo://app?vid=fa5decec-2aab-4029-b23d-b8d961348940"},"vehicle_type_id":"4","last_reported":1739261567,"current_range_meters":37600,"station_id":"ce4bh512rcd13ifvqe3g","pricing_plan_id":"cebpf4jnsgd1na2vs0mg"},{"bike_id":"78fe7908-c1f6-41c1-aeda-b891427ed72e","system_id":"levelo_inurba_marseille","lat":43.29032,"lon":5.39969,"is_reserved":false,"is_disabled":false,"rental_uris":{"android":"levelo://app?vid=78fe7908-c1f6-41c1-aeda-b891427ed72e","ios":"levelo://app?vid=78fe7908-c1f6-41c1-aeda-b891427ed72e"},"vehicle_type_id":"4","last_reported":1739261567,"current_range_meters":20800,"station_id":"ce4bh392rcd13ifvqdm0","pricing_plan_id":"cebpf4jnsgd1na2vs0mg"},{"bike_id":"c2250f20-2283-4e17-b7ce-382f2f740aa1","system_id":"levelo_inurba_marseille","lat":43.24816,"lon":5.37424,"is_reserved":false,"is_disabled":false,"rental_uris":{"android":"levelo://app?vid=c2250f20-2283-4e17-b7ce-382f2f740aa1","ios":"levelo://app?vid=c2250f20-2283-4e17-b7ce-382f2f740aa1"},"vehicle_type_id":"4","last_reported":1739261567,"current_range_meters":39200,"station_id":"ce4bhgh2rcd13ifvqfb0","pricing_plan_id":"cebpf4jnsgd1na2vs0mg"},{"bike_id":"47c2b19e-2fb6-4b11-b86d-8f02a9946da7","system_id":"levelo_inurba_marseille","lat":43.25938,"lon":5.40905,"is_reserved":false,"is_disabled":false,"rental_uris":{"android":"levelo://app?vid=47c2b19e-2fb6-4b11-b86d-8f02a9946da7","ios":"levelo://app?vid=47c2b19e-2fb6-4b11-b86d-8f02a9946da7"},"vehicle_type_id":"4","last_reported":1739261567,"current_range_meters":26000,"station_id":"ce4bhm92rcd13ifvqglg","pricing_plan_id":"cebpf4jnsgd1na2vs0mg"},{"bike_id":"3a46e6af-4441-4eb5-9ea7-9d3a275672cd","system_id":"levelo_inurba_marseille","lat":43.27685,"lon":5.38842,"is_reserved":false,"is_disabled":false,"rental_uris":{"android":"levelo://app?vid=3a46e6af-4441-4eb5-9ea7-9d3a275672cd","ios":"levelo://app?vid=3a46e6af-4441-4eb5-9ea7-9d3a275672cd"},"vehicle_type_id":"4","last_reported":1739261567,"current_range_meters":38400,"station_id":"ce4bhi12rcd13ifvqfo0","pricing_plan_id":"cebpf4jnsgd1na2vs0mg"},{"bike_id":"441756a0-4bd6-444f-844a-706673d06d5d","system_id":"levelo_inurba_marseille","lat":43.28106,"lon":5.39841,"is_reserved":false,"is_disabled":false,"rental_uris":{"android":"levelo://app?vid=441756a0-4bd6-444f-844a-706673d06d5d","ios":"levelo://app?vid=441756a0-4bd6-444f-844a-706673d06d5d"},"vehicle_type_id":"4","last_reported":1739261567,"current_range_meters":9200,"station_id":"","pricing_plan_id":"cebpf4jnsgd1na2vs0mg"},{"bike_id":"46364d9d-9e7c-4b5a-9d07-d05c87074a64","system_id":"levelo_inurba_marseille","lat":43.29528,"lon":5.39044,"is_reserved":false,"is_disabled":true,"rental_uris":{"android":"levelo://app?vid=46364d9d-9e7c-4b5a-9d07-d05c87074a64","ios":"levelo://app?vid=46364d9d-9e7c-4b5a-9d07-d05c87074a64"},"vehicle_type_id":"4","last_reported":1739261567,"current_range_meters":22000,"station_id":"ce4bh3p2rcd13ifvqdp0","pricing_plan_id":"cebpf4jnsgd1na2vs0mg"},{"bike_id":"35a15fce-0bc5-47ea-985a-488653db9c19","system_id":"levelo_inurba_marseille","lat":43.33622,"lon":5.41016,"is_reserved":false,"is_disabled":true,"rental_uris":{"android":"levelo://app?vid=35a15fce-0bc5-47ea-985a-488653db9c19","ios":"levelo://app?vid=35a15fce-0bc5-47ea-985a-488653db9c19"},"vehicle_type_id":"4","last_reported":1739261567,"current_range_meters":0,"station_id":"ce4bhqh2rcd13ifvqhmg","pricing_plan_id":"cebpf4jnsgd1na2vs0mg"},{"bike_id":"95eeadf8-212f-4612-aef5-70c42a9e14be","system_id":"levelo_inurba_marseille","lat":43.3135,"lon":5.3672,"is_reserved":false,"is_disabled":false,"rental_uris":{"android":"levelo://app?vid=95eeadf8-212f-4612-aef5-70c42a9e14be","ios":"levelo://app?vid=95eeadf8-212f-4612-aef5-70c42a9e14be"},"vehicle_type_id":"4","last_reported":1739261567,"current_range_meters":22800,"station_id":"ce4bgr92rcd13ifvqc6g","pricing_plan_id":"cebpf4jnsgd1na2vs0mg"},{"bike_id":"51840721-23f0-47bb-8e43-5a239092c5ec","system_id":"levelo_inurba_marseille","lat":43.25581,"lon":5.38233,"is_reserved":false,"is_disabled":false,"rental_uris":{"android":"levelo://app?vid=51840721-23f0-47bb-8e43-5a239092c5ec","ios":"levelo://app?vid=51840721-23f0-47bb-8e43-5a239092c5ec"},"vehicle_type_id":"4","last_reported":1739261567,"current_range_meters":22400,"station_id":"ce4bhih2rcd13ifvqfs0","pricing_plan_id":"cebpf4jnsgd1na2vs0mg"},{"bike_id":"806c4581-8395-42b7-8724-b5928ef6a512","system_id":"levelo_inurba_marseille","lat":43.30949,"lon":5.39048,"is_reserved":false,"is_disabled":false,"rental_uris":{"android":"levelo://app?vid=806c4581-8395-42b7-8724-b5928ef6a512","ios":"levelo://app?vid=806c4581-8395-42b7-8724-b5928ef6a512"},"vehicle_type_id":"4","last_reported":1739261567,"current_range_meters":34000,"station_id":"","pricing_plan_id":"cebpf4jnsgd1na2vs0mg"},{"bike_id":"882be2d9-83f1-4f8c-bbbd-d744734438ec","system_id":"levelo_inurba_marseille","lat":43.30141,"lon":5.38087,"is_reserved":false,"is_disabled":false,"rental_uris":{"android":"levelo://app?vid=882be2d9-83f1-4f8c-bbbd-d744734438ec","ios":"levelo://app?vid=882be2d9-83f1-4f8c-bbbd-d744734438ec"},"vehicle_type_id":"4","last_reported":1739261567,"current_range_meters":24400,"station_id":"ce4bgjp2rcd13ifvqbh0","pricing_plan_id":"cebpf4jnsgd1na2vs0mg"},{"bike_id":"cb1768ca-5396-479f-a0b8-10af7f1372e6","system_id":"levelo_inurba_marseille","lat":43.30467,"lon":5.37907,"is_reserved":false,"is_disabled":false,"rental_uris":{"android":"levelo://app?vid=cb1768ca-5396-479f-a0b8-10af7f1372e6","ios":"levelo://app?vid=cb1768ca-5396-479f-a0b8-10af7f1372e6"},"vehicle_type_id":"4","last_reported":1739261567,"current_range_meters":34000,"station_id":"ce4bgup2rcd13ifvqcn0","pricing_plan_id":"cebpf4jnsgd1na2vs0mg"},{"bike_id":"be237c27-17d7-4433-b8f3-4abb352b8af0","system_id":"levelo_inurba_marseille","lat":43.30537,"lon":5.3669,"is_reserved":false,"is_disabled":false,"rental_uris":{"android":"levelo://app?vid=be237c27-17d7-4433-b8f3-4abb352b8af0","ios":"levelo://app?vid=be237c27-17d7-4433-b8f3-4abb352b8af0"},"vehicle_type_id":"4","last_reported":1739261567,"current_range_meters":26800,"station_id":"ce4bgrp2rcd13ifvqc9g","pricing_plan_id":"cebpf4jnsgd1na2vs0mg"},{"bike_id":"90992f30-e68b-4954-868a-2a864329bfcf","system_id":"levelo_inurba_marseille","lat":43.29044,"lon":5.39981,"is_reserved":false,"is_disabled":true,"rental_uris":{"android":"levelo://app?vid=90992f30-e68b-4954-868a-2a864329bfcf","ios":"levelo://app?vid=90992f30-e68b-4954-868a-2a864329bfcf"},"vehicle_type_id":"4","last_reported":1739261567,"current_range_meters":28800,"station_id":"ce4bh392rcd13ifvqdm0","pricing_plan_id":"cebpf4jnsgd1na2vs0mg"},{"bike_id":"ac3db915-85ff-460a-b948-c32ecd7db728","system_id":"levelo_inurba_marseille","lat":43.30142,"lon":5.38092,"is_reserved":false,"is_disabled":false,"rental_uris":{"android":"levelo://app?vid=ac3db915-85ff-460a-b948-c32ecd7db728","ios":"levelo://app?vid=ac3db915-85ff-460a-b948-c32ecd7db728"},"vehicle_type_id":"4","last_reported":1739261567,"current_range_meters":38800,"station_id":"ce4bgjp2rcd13ifvqbh0","pricing_plan_id":"cebpf4jnsgd1na2vs0mg"},{"bike_id":"01bf6f75-bd96-4be0-8c47-b775b68ae3cf","system_id":"levelo_inurba_marseille","lat":43.27565,"lon":5.38441,"is_reserved":false,"is_disabled":false,"rental_uris":{"android":"levelo://app?vid=01bf6f75-bd96-4be0-8c47-b775b68ae3cf","ios":"levelo://app?vid=01bf6f75-bd96-4be0-8c47-b775b68ae3cf"},"vehicle_type_id":"4","last_reported":1739261567,"current_range_meters":3600,"station_id":"ce4bhh92rcd13ifvqfi0","pricing_plan_id":"cebpf4jnsgd1na2vs0mg"},{"bike_id":"1d2000e3-6e82-4c8d-9a0a-5d8181e36eb3","system_id":"levelo_inurba_marseille","lat":43.250096,"lon":5.389147,"is_reserved":false,"is_disabled":false,"rental_uris":{"android":"levelo://app?vid=1d2000e3-6e82-4c8d-9a0a-5d8181e36eb3","ios":"levelo://app?vid=1d2000e3-6e82-4c8d-9a0a-5d8181e36eb3"},"vehicle_type_id":"4","last_reported":1739261567,"current_range_meters":7200,"station_id":"ce4bhgp2rcd13ifvqfd0","pricing_plan_id":"cebpf4jnsgd1na2vs0mg"},{"bike_id":"aa0ad7c9-050a-4c17-9044-d0753114d7d0","system_id":"levelo_inurba_marseille","lat":43.28475,"lon":5.38547,"is_reserved":false,"is_disabled":false,"rental_uris":{"android":"levelo://app?vid=aa0ad7c9-050a-4c17-9044-d0753114d7d0","ios":"levelo://app?vid=aa0ad7c9-050a-4c17-9044-d0753114d7d0"},"vehicle_type_id":"4","last_reported":1739261567,"current_range_meters":6400,"station_id":"ce4bh8p2rcd13ifvqeb0","pricing_plan_id":"cebpf4jnsgd1na2vs0mg"},{"bike_id":"df32b82b-3edd-410c-809a-94d92822697b","system_id":"levelo_inurba_marseille","lat":43.269867,"lon":5.387921,"is_reserved":false,"is_disabled":false,"rental_uris":{"android":"levelo://app?vid=df32b82b-3edd-410c-809a-94d92822697b","ios":"levelo://app?vid=df32b82b-3edd-410c-809a-94d92822697b"},"vehicle_type_id":"4","last_reported":1739261567,"current_range_meters":38800,"station_id":"ce4bhhh2rcd13ifvqfl0","pricing_plan_id":"cebpf4jnsgd1na2vs0mg"},{"bike_id":"1ecb6694-20ff-4bc8-ac28-3228262fb33f","system_id":"levelo_inurba_marseille","lat":43.24065,"lon":5.3774,"is_reserved":false,"is_disabled":false,"rental_uris":{"android":"levelo://app?vid=1ecb6694-20ff-4bc8-ac28-3228262fb33f","ios":"levelo://app?vid=1ecb6694-20ff-4bc8-ac28-3228262fb33f"},"vehicle_type_id":"4","last_reported":1739261567,"current_range_meters":24400,"station_id":"ce4bhnp2rcd13ifvqgvg","pricing_plan_id":"cebpf4jnsgd1na2vs0mg"},{"bike_id":"e673b253-bd7c-45ce-a06f-ff88a62a7e4e","system_id":"levelo_inurba_marseille","lat":43.30171,"lon":5.38086,"is_reserved":false,"is_disabled":false,"rental_uris":{"android":"levelo://app?vid=e673b253-bd7c-45ce-a06f-ff88a62a7e4e","ios":"levelo://app?vid=e673b253-bd7c-45ce-a06f-ff88a62a7e4e"},"vehicle_type_id":"4","last_reported":1739261567,"current_range_meters":38800,"station_id":"ce4bgjp2rcd13ifvqbh0","pricing_plan_id":"cebpf4jnsgd1na2vs0mg"},{"bike_id":"114230f1-fda9-4a9e-962b-4f7a3ae198a2","system_id":"levelo_inurba_marseille","lat":43.27429,"lon":5.3944,"is_reserved":false,"is_disabled":false,"rental_uris":{"android":"levelo://app?vid=114230f1-fda9-4a9e-962b-4f7a3ae198a2","ios":"levelo://app?vid=114230f1-fda9-4a9e-962b-4f7a3ae198a2"},"vehicle_type_id":"4","last_reported":1739261567,"current_range_meters":38400,"station_id":"ce4bhdp2rcd13ifvqf20","pricing_plan_id":"cebpf4jnsgd1na2vs0mg"},{"bike_id":"5e0ce2f5-5f29-4db4-8071-87cc00cd3b17","system_id":"levelo_inurba_marseille","lat":43.28694,"lon":5.39983,"is_reserved":false,"is_disabled":false,"rental_uris":{"android":"levelo://app?vid=5e0ce2f5-5f29-4db4-8071-87cc00cd3b17","ios":"levelo://app?vid=5e0ce2f5-5f29-4db4-8071-87cc00cd3b17"},"vehicle_type_id":"4","last_reported":1739261567,"current_range_meters":37600,"station_id":"ce4bho92rcd13ifvqh3g","pricing_plan_id":"cebpf4jnsgd1na2vs0mg"},{"bike_id":"d5a37605-4e0b-406c-a924-7ca9f964c4e0","system_id":"levelo_inurba_marseille","lat":43.248128,"lon":5.374646,"is_reserved":false,"is_disabled":false,"rental_uris":{"android":"levelo://app?vid=d5a37605-4e0b-406c-a924-7ca9f964c4e0","ios":"levelo://app?vid=d5a37605-4e0b-406c-a924-7ca9f964c4e0"},"vehicle_type_id":"4","last_reported":1739261567,"current_range_meters":27200,"station_id":"ce4bhgh2rcd13ifvqfb0","pricing_plan_id":"cebpf4jnsgd1na2vs0mg"},{"bike_id":"adc55ee8-8600-492b-84a9-bcb55794c212","system_id":"levelo_inurba_marseille","lat":43.27058,"lon":5.42283,"is_reserved":false,"is_disabled":false,"rental_uris":{"android":"levelo://app?vid=adc55ee8-8600-492b-84a9-bcb55794c212","ios":"levelo://app?vid=adc55ee8-8600-492b-84a9-bcb55794c212"},"vehicle_type_id":"4","last_reported":1739261567,"current_range_meters":26000,"station_id":"ce4bhk92rcd13ifvqgb0","pricing_plan_id":"cebpf4jnsgd1na2vs0mg"},{"bike_id":"0c628780-2679-4e4f-a640-ad02e11598a3","system_id":"levelo_inurba_marseille","lat":43.30915,"lon":5.36848,"is_reserved":false,"is_disabled":false,"rental_uris":{"android":"levelo://app?vid=0c628780-2679-4e4f-a640-ad02e11598a3","ios":"levelo://app?vid=0c628780-2679-4e4f-a640-ad02e11598a3"},"vehicle_type_id":"4","last_reported":1739261567,"current_range_meters":13600,"station_id":"ce4bgn92rcd13ifvqbvg","pricing_plan_id":"cebpf4jnsgd1na2vs0mg"},{"bike_id":"04d4b8ab-1d4d-44ab-9d49-e10f569c0553","system_id":"levelo_inurba_marseille","lat":43.29846,"lon":5.36256,"is_reserved":false,"is_disabled":false,"rental_uris":{"android":"levelo://app?vid=04d4b8ab-1d4d-44ab-9d49-e10f569c0553","ios":"levelo://app?vid=04d4b8ab-1d4d-44ab-9d49-e10f569c0553"},"vehicle_type_id":"4","last_reported":1739261567,"current_range_meters":8800,"station_id":"ce4bgpp2rcd13ifvqc3g","pricing_plan_id":"cebpf4jnsgd1na2vs0mg"},{"bike_id":"a97f3a8d-e1f7-4ede-af5a-b155aa57a80e","system_id":"levelo_inurba_marseille","lat":43.25579,"lon":5.38236,"is_reserved":false,"is_disabled":false,"rental_uris":{"android":"levelo://app?vid=a97f3a8d-e1f7-4ede-af5a-b155aa57a80e","ios":"levelo://app?vid=a97f3a8d-e1f7-4ede-af5a-b155aa57a80e"},"vehicle_type_id":"4","last_reported":1739261567,"current_range_meters":38800,"station_id":"ce4bhih2rcd13ifvqfs0","pricing_plan_id":"cebpf4jnsgd1na2vs0mg"},{"bike_id":"c65ef58b-ac53-4e82-8688-b6b2c1dcabea","system_id":"levelo_inurba_marseille","lat":43.26265,"lon":5.41189,"is_reserved":false,"is_disabled":false,"rental_uris":{"android":"levelo://app?vid=c65ef58b-ac53-4e82-8688-b6b2c1dcabea","ios":"levelo://app?vid=c65ef58b-ac53-4e82-8688-b6b2c1dcabea"},"vehicle_type_id":"4","last_reported":1739261567,"current_range_meters":37600,"station_id":"","pricing_plan_id":"cebpf4jnsgd1na2vs0mg"},{"bike_id":"b965b493-8ca8-44e5-a19e-6ca9c8cd5cf0","system_id":"levelo_inurba_marseille","lat":43.2593,"lon":5.40906,"is_reserved":false,"is_disabled":false,"rental_uris":{"android":"levelo://app?vid=b965b493-8ca8-44e5-a19e-6ca9c8cd5cf0","ios":"levelo://app?vid=b965b493-8ca8-44e5-a19e-6ca9c8cd5cf0"},"vehicle_type_id":"4","last_reported":1739261567,"current_range_meters":17200,"station_id":"ce4bhm92rcd13ifvqglg","pricing_plan_id":"cebpf4jnsgd1na2vs0mg"},{"bike_id":"56d32f7e-a805-4b07-82eb-2b25d137f6df","system_id":"levelo_inurba_marseille","lat":43.3204,"lon":5.41571,"is_reserved":false,"is_disabled":false,"rental_uris":{"android":"levelo://app?vid=56d32f7e-a805-4b07-82eb-2b25d137f6df","ios":"levelo://app?vid=56d32f7e-a805-4b07-82eb-2b25d137f6df"},"vehicle_type_id":"4","last_reported":1739261567,"current_range_meters":38000,"station_id":"ce4bhq92rcd13ifvqhkg","pricing_plan_id":"cebpf4jnsgd1na2vs0mg"},{"bike_id":"c4813b27-4250-43ea-8be5-ccd7321d2af3","system_id":"levelo_inurba_marseille","lat":43.28215,"lon":5.36992,"is_reserved":false,"is_disabled":false,"rental_uris":{"android":"levelo://app?vid=c4813b27-4250-43ea-8be5-ccd7321d2af3","ios":"levelo://app?vid=c4813b27-4250-43ea-8be5-ccd7321d2af3"},"vehicle_type_id":"4","last_reported":1739261567,"current_range_meters":23200,"station_id":"","pricing_plan_id":"cebpf4jnsgd1na2vs0mg"},{"bike_id":"93bc07c8-c5e8-4508-b353-1c2773c131f8","system_id":"levelo_inurba_marseille","lat":43.33601,"lon":5.40959,"is_reserved":false,"is_disabled":false,"rental_uris":{"android":"levelo://app?vid=93bc07c8-c5e8-4508-b353-1c2773c131f8","ios":"levelo://app?vid=93bc07c8-c5e8-4508-b353-1c2773c131f8"},"vehicle_type_id":"4","last_reported":1739261567,"current_range_meters":39200,"station_id":"ce4bhqh2rcd13ifvqhmg","pricing_plan_id":"cebpf4jnsgd1na2vs0mg"},{"bike_id":"5971a83c-5820-4d32-80fd-91654872cb2c","system_id":"levelo_inurba_marseille","lat":43.27944,"lon":5.41051,"is_reserved":false,"is_disabled":false,"rental_uris":{"android":"levelo://app?vid=5971a83c-5820-4d32-80fd-91654872cb2c","ios":"levelo://app?vid=5971a83c-5820-4d32-80fd-91654872cb2c"},"vehicle_type_id":"4","last_reported":1739261567,"current_range_meters":24400,"station_id":"ce4bhnp2rcd13ifvqh0g","pricing_plan_id":"cebpf4jnsgd1na2vs0mg"},{"bike_id":"30040434-0ce6-4639-9cfb-4b7e126d7c60","system_id":"levelo_inurba_marseille","lat":43.27495,"lon":5.42455,"is_reserved":false,"is_disabled":false,"rental_uris":{"android":"levelo://app?vid=30040434-0ce6-4639-9cfb-4b7e126d7c60","ios":"levelo://app?vid=30040434-0ce6-4639-9cfb-4b7e126d7c60"},"vehicle_type_id":"4","last_reported":1739261567,"current_range_meters":38000,"station_id":"ce4bhn92rcd13ifvqgrg","pricing_plan_id":"cebpf4jnsgd1na2vs0mg"},{"bike_id":"3e9a52c9-da56-49d4-984b-d10214957865","system_id":"levelo_inurba_marseille","lat":43.29022,"lon":5.38135,"is_reserved":false,"is_disabled":false,"rental_uris":{"android":"levelo://app?vid=3e9a52c9-da56-49d4-984b-d10214957865","ios":"levelo://app?vid=3e9a52c9-da56-49d4-984b-d10214957865"},"vehicle_type_id":"4","last_reported":1739261567,"current_range_meters":14000,"station_id":"ce4bh4p2rcd13ifvqe1g","pricing_plan_id":"cebpf4jnsgd1na2vs0mg"},{"bike_id":"3f69c81b-67dd-4d0d-91be-e8c8a656df75","system_id":"levelo_inurba_marseille","lat":43.30468,"lon":5.37893,"is_reserved":false,"is_disabled":true,"rental_uris":{"android":"levelo://app?vid=3f69c81b-67dd-4d0d-91be-e8c8a656df75","ios":"levelo://app?vid=3f69c81b-67dd-4d0d-91be-e8c8a656df75"},"vehicle_type_id":"4","last_reported":1739261567,"current_range_meters":23200,"station_id":"ce4bho92rcd13ifvqh3g","pricing_plan_id":"cebpf4jnsgd1na2vs0mg"},{"bike_id":"b6001317-094c-4256-b423-cfc74743c608","system_id":"levelo_inurba_marseille","lat":43.25869,"lon":5.39893,"is_reserved":false,"is_disabled":false,"rental_uris":{"android":"levelo://app?vid=b6001317-094c-4256-b423-cfc74743c608","ios":"levelo://app?vid=b6001317-094c-4256-b423-cfc74743c608"},"vehicle_type_id":"4","last_reported":1739261567,"current_range_meters":29600,"station_id":"ce4bhl92rcd13ifvqghg","pricing_plan_id":"cebpf4jnsgd1na2vs0mg"},{"bike_id":"260e9838-2399-4eb1-b0ca-e79e7c0785e4","system_id":"levelo_inurba_marseille","lat":43.29842,"lon":5.36277,"is_reserved":false,"is_disabled":false,"rental_uris":{"android":"levelo://app?vid=260e9838-2399-4eb1-b0ca-e79e7c0785e4","ios":"levelo://app?vid=260e9838-2399-4eb1-b0ca-e79e7c0785e4"},"vehicle_type_id":"4","last_reported":1739261567,"current_range_meters":16000,"station_id":"ce4bgpp2rcd13ifvqc3g","pricing_plan_id":"cebpf4jnsgd1na2vs0mg"},{"bike_id":"6e000fc7-2c34-419c-ae07-0bb295f75ad0","system_id":"levelo_inurba_marseille","lat":43.23416,"lon":5.36104,"is_reserved":false,"is_disabled":false,"rental_uris":{"android":"levelo://app?vid=6e000fc7-2c34-419c-ae07-0bb295f75ad0","ios":"levelo://app?vid=6e000fc7-2c34-419c-ae07-0bb295f75ad0"},"vehicle_type_id":"4","last_reported":1739261567,"current_range_meters":6800,"station_id":"","pricing_plan_id":"cebpf4jnsgd1na2vs0mg"},{"bike_id":"841e0f04-b00a-44de-83b7-b9b92c40d93b","system_id":"levelo_inurba_marseille","lat":43.28146,"lon":5.42645,"is_reserved":false,"is_disabled":false,"rental_uris":{"android":"levelo://app?vid=841e0f04-b00a-44de-83b7-b9b92c40d93b","ios":"levelo://app?vid=841e0f04-b00a-44de-83b7-b9b92c40d93b"},"vehicle_type_id":"4","last_reported":1739261567,"current_range_meters":14800,"station_id":"ce4bhnh2rcd13ifvqgug","pricing_plan_id":"cebpf4jnsgd1na2vs0mg"},{"bike_id":"869f4c34-bbae-417e-8cb5-9ea56deec715","system_id":"levelo_inurba_marseille","lat":43.30797,"lon":5.3815,"is_reserved":false,"is_disabled":false,"rental_uris":{"android":"levelo://app?vid=869f4c34-bbae-417e-8cb5-9ea56deec715","ios":"levelo://app?vid=869f4c34-bbae-417e-8cb5-9ea56deec715"},"vehicle_type_id":"4","last_reported":1739261567,"current_range_meters":38800,"station_id":"ce4bgt12rcd13ifvqce0","pricing_plan_id":"cebpf4jnsgd1na2vs0mg"},{"bike_id":"88379eaf-5a6d-4117-a07a-21ee5231369a","system_id":"levelo_inurba_marseille","lat":43.31536,"lon":5.38031,"is_reserved":false,"is_disabled":false,"rental_uris":{"android":"levelo://app?vid=88379eaf-5a6d-4117-a07a-21ee5231369a","ios":"levelo://app?vid=88379eaf-5a6d-4117-a07a-21ee5231369a"},"vehicle_type_id":"4","last_reported":1739261567,"current_range_meters":38800,"station_id":"ce4bhsp2rcd13ifvqi50","pricing_plan_id":"cebpf4jnsgd1na2vs0mg"},{"bike_id":"1672a38a-2ede-4dd0-8d62-1b7a73ddefab","system_id":"levelo_inurba_marseille","lat":43.33598,"lon":5.41002,"is_reserved":false,"is_disabled":false,"rental_uris":{"android":"levelo://app?vid=1672a38a-2ede-4dd0-8d62-1b7a73ddefab","ios":"levelo://app?vid=1672a38a-2ede-4dd0-8d62-1b7a73ddefab"},"vehicle_type_id":"4","last_reported":1739261567,"current_range_meters":6400,"station_id":"ce4bhqh2rcd13ifvqhmg","pricing_plan_id":"cebpf4jnsgd1na2vs0mg"},{"bike_id":"d672dfd1-eb49-41bd-98e9-cf0079bce74f","system_id":"levelo_inurba_marseille","lat":43.31245,"lon":5.36852,"is_reserved":false,"is_disabled":false,"rental_uris":{"android":"levelo://app?vid=d672dfd1-eb49-41bd-98e9-cf0079bce74f","ios":"levelo://app?vid=d672dfd1-eb49-41bd-98e9-cf0079bce74f"},"vehicle_type_id":"4","last_reported":1739261567,"current_range_meters":27200,"station_id":"ce4bgl92rcd13ifvqbq0","pricing_plan_id":"cebpf4jnsgd1na2vs0mg"},{"bike_id":"6c3f380f-5c23-4736-94fd-378b4d8035b4","system_id":"levelo_inurba_marseille","lat":43.30461,"lon":5.37911,"is_reserved":false,"is_disabled":false,"rental_uris":{"android":"levelo://app?vid=6c3f380f-5c23-4736-94fd-378b4d8035b4","ios":"levelo://app?vid=6c3f380f-5c23-4736-94fd-378b4d8035b4"},"vehicle_type_id":"4","last_reported":1739261567,"current_range_meters":26800,"station_id":"ce4bgup2rcd13ifvqcn0","pricing_plan_id":"cebpf4jnsgd1na2vs0mg"},{"bike_id":"187c18dc-173f-40c4-ba01-a035263d7783","system_id":"levelo_inurba_marseille","lat":43.31365,"lon":5.3674,"is_reserved":false,"is_disabled":false,"rental_uris":{"android":"levelo://app?vid=187c18dc-173f-40c4-ba01-a035263d7783","ios":"levelo://app?vid=187c18dc-173f-40c4-ba01-a035263d7783"},"vehicle_type_id":"4","last_reported":1739261567,"current_range_meters":26000,"station_id":"ce4bgr92rcd13ifvqc6g","pricing_plan_id":"cebpf4jnsgd1na2vs0mg"},{"bike_id":"1ec14052-2d33-4aa1-9ab8-58cc71db74d1","system_id":"levelo_inurba_marseille","lat":43.241685,"lon":5.363987,"is_reserved":false,"is_disabled":false,"rental_uris":{"android":"levelo://app?vid=1ec14052-2d33-4aa1-9ab8-58cc71db74d1","ios":"levelo://app?vid=1ec14052-2d33-4aa1-9ab8-58cc71db74d1"},"vehicle_type_id":"4","last_reported":1739261567,"current_range_meters":16000,"station_id":"cpo36qri1sfpv3e86is0","pricing_plan_id":"cebpf4jnsgd1na2vs0mg"},{"bike_id":"b3b45130-4456-4f49-a726-9923bcb61db7","system_id":"levelo_inurba_marseille","lat":43.26953,"lon":5.38664,"is_reserved":false,"is_disabled":false,"rental_uris":{"android":"levelo://app?vid=b3b45130-4456-4f49-a726-9923bcb61db7","ios":"levelo://app?vid=b3b45130-4456-4f49-a726-9923bcb61db7"},"vehicle_type_id":"4","last_reported":1739261567,"current_range_meters":39200,"station_id":"ce4bhh92rcd13ifvqfh0","pricing_plan_id":"cebpf4jnsgd1na2vs0mg"},{"bike_id":"6f3a357c-7050-42ba-b936-9f74986259b7","system_id":"levelo_inurba_marseille","lat":43.33007,"lon":5.39046,"is_reserved":false,"is_disabled":false,"rental_uris":{"android":"levelo://app?vid=6f3a357c-7050-42ba-b936-9f74986259b7","ios":"levelo://app?vid=6f3a357c-7050-42ba-b936-9f74986259b7"},"vehicle_type_id":"4","last_reported":1739261567,"current_range_meters":38800,"station_id":"ce4bhr92rcd13ifvqhrg","pricing_plan_id":"cebpf4jnsgd1na2vs0mg"},{"bike_id":"605182cb-1623-4c1f-bb48-a7e822f9d2c7","system_id":"levelo_inurba_marseille","lat":43.33607,"lon":5.41033,"is_reserved":false,"is_disabled":false,"rental_uris":{"android":"levelo://app?vid=605182cb-1623-4c1f-bb48-a7e822f9d2c7","ios":"levelo://app?vid=605182cb-1623-4c1f-bb48-a7e822f9d2c7"},"vehicle_type_id":"4","last_reported":1739261567,"current_range_meters":24400,"station_id":"ce4bhqh2rcd13ifvqhmg","pricing_plan_id":"cebpf4jnsgd1na2vs0mg"},{"bike_id":"1fc2e01a-39db-473e-9340-05e46c2bfee3","system_id":"levelo_inurba_marseille","lat":43.28555,"lon":5.39603,"is_reserved":false,"is_disabled":false,"rental_uris":{"android":"levelo://app?vid=1fc2e01a-39db-473e-9340-05e46c2bfee3","ios":"levelo://app?vid=1fc2e01a-39db-473e-9340-05e46c2bfee3"},"vehicle_type_id":"4","last_reported":1739261567,"current_range_meters":38800,"station_id":"ce4bh292rcd13ifvqdg0","pricing_plan_id":"cebpf4jnsgd1na2vs0mg"},{"bike_id":"443e1ca2-af34-45b1-bcc4-ac5839a766d9","system_id":"levelo_inurba_marseille","lat":43.28939,"lon":5.39638,"is_reserved":false,"is_disabled":false,"rental_uris":{"android":"levelo://app?vid=443e1ca2-af34-45b1-bcc4-ac5839a766d9","ios":"levelo://app?vid=443e1ca2-af34-45b1-bcc4-ac5839a766d9"},"vehicle_type_id":"4","last_reported":1739261567,"current_range_meters":38800,"station_id":"ce4bh3h2rcd13ifvqdn0","pricing_plan_id":"cebpf4jnsgd1na2vs0mg"},{"bike_id":"79df8d93-a019-4f4d-ad9b-607d770a7910","system_id":"levelo_inurba_marseille","lat":43.29388,"lon":5.38904,"is_reserved":false,"is_disabled":false,"rental_uris":{"android":"levelo://app?vid=79df8d93-a019-4f4d-ad9b-607d770a7910","ios":"levelo://app?vid=79df8d93-a019-4f4d-ad9b-607d770a7910"},"vehicle_type_id":"4","last_reported":1739261567,"current_range_meters":27200,"station_id":"","pricing_plan_id":"cebpf4jnsgd1na2vs0mg"},{"bike_id":"fbb98623-bd6f-4427-9463-8f7fc3b3bd20","system_id":"levelo_inurba_marseille","lat":43.280351,"lon":5.369361,"is_reserved":false,"is_disabled":false,"rental_uris":{"android":"levelo://app?vid=fbb98623-bd6f-4427-9463-8f7fc3b3bd20","ios":"levelo://app?vid=fbb98623-bd6f-4427-9463-8f7fc3b3bd20"},"vehicle_type_id":"4","last_reported":1739261567,"current_range_meters":29600,"station_id":"ce4bha12rcd13ifvqef0","pricing_plan_id":"cebpf4jnsgd1na2vs0mg"},{"bike_id":"d37a56cf-7136-4e6e-a35d-b588d1bd39ab","system_id":"levelo_inurba_marseille","lat":43.315404,"lon":5.380249,"is_reserved":false,"is_disabled":false,"rental_uris":{"android":"levelo://app?vid=d37a56cf-7136-4e6e-a35d-b588d1bd39ab","ios":"levelo://app?vid=d37a56cf-7136-4e6e-a35d-b588d1bd39ab"},"vehicle_type_id":"4","last_reported":1739261567,"current_range_meters":30000,"station_id":"ce4bhsp2rcd13ifvqi50","pricing_plan_id":"cebpf4jnsgd1na2vs0mg"},{"bike_id":"5d5b9d52-4005-4b8d-8e03-12940e9796d0","system_id":"levelo_inurba_marseille","lat":43.24075,"lon":5.37753,"is_reserved":false,"is_disabled":true,"rental_uris":{"android":"levelo://app?vid=5d5b9d52-4005-4b8d-8e03-12940e9796d0","ios":"levelo://app?vid=5d5b9d52-4005-4b8d-8e03-12940e9796d0"},"vehicle_type_id":"4","last_reported":1739261567,"current_range_meters":16800,"station_id":"ce4bhnp2rcd13ifvqgvg","pricing_plan_id":"cebpf4jnsgd1na2vs0mg"},{"bike_id":"e74edd37-0ec7-4f56-b77f-e7249fd01314","system_id":"levelo_inurba_marseille","lat":43.30552,"lon":5.365308,"is_reserved":false,"is_disabled":true,"rental_uris":{"android":"levelo://app?vid=e74edd37-0ec7-4f56-b77f-e7249fd01314","ios":"levelo://app?vid=e74edd37-0ec7-4f56-b77f-e7249fd01314"},"vehicle_type_id":"4","last_reported":1739261567,"current_range_meters":14000,"station_id":"ce4bgs12rcd13ifvqcag","pricing_plan_id":"cebpf4jnsgd1na2vs0mg"},{"bike_id":"d65a14c4-ecf3-4048-b05f-9a757ce2f182","system_id":"levelo_inurba_marseille","lat":43.246798,"lon":5.381674,"is_reserved":false,"is_disabled":false,"rental_uris":{"android":"levelo://app?vid=d65a14c4-ecf3-4048-b05f-9a757ce2f182","ios":"levelo://app?vid=d65a14c4-ecf3-4048-b05f-9a757ce2f182"},"vehicle_type_id":"4","last_reported":1739261567,"current_range_meters":37600,"station_id":"ce4bhih2rcd13ifvqfr0","pricing_plan_id":"cebpf4jnsgd1na2vs0mg"},{"bike_id":"c973605e-c61f-4977-a2a5-db8af17e11ce","system_id":"levelo_inurba_marseille","lat":43.30894,"lon":5.37191,"is_reserved":false,"is_disabled":false,"rental_uris":{"android":"levelo://app?vid=c973605e-c61f-4977-a2a5-db8af17e11ce","ios":"levelo://app?vid=c973605e-c61f-4977-a2a5-db8af17e11ce"},"vehicle_type_id":"4","last_reported":1739261567,"current_range_meters":28400,"station_id":"ce4bguh2rcd13ifvqckg","pricing_plan_id":"cebpf4jnsgd1na2vs0mg"},{"bike_id":"ca63d75f-d551-49cb-bec7-e060cadddd73","system_id":"levelo_inurba_marseille","lat":43.28074,"lon":5.44219,"is_reserved":false,"is_disabled":false,"rental_uris":{"android":"levelo://app?vid=ca63d75f-d551-49cb-bec7-e060cadddd73","ios":"levelo://app?vid=ca63d75f-d551-49cb-bec7-e060cadddd73"},"vehicle_type_id":"4","last_reported":1739261567,"current_range_meters":15200,"station_id":"","pricing_plan_id":"cebpf4jnsgd1na2vs0mg"},{"bike_id":"6f905171-ccae-4083-a3c3-568ea9e819a0","system_id":"levelo_inurba_marseille","lat":43.30486,"lon":5.37895,"is_reserved":false,"is_disabled":false,"rental_uris":{"android":"levelo://app?vid=6f905171-ccae-4083-a3c3-568ea9e819a0","ios":"levelo://app?vid=6f905171-ccae-4083-a3c3-568ea9e819a0"},"vehicle_type_id":"4","last_reported":1739261567,"current_range_meters":30400,"station_id":"ce4bgup2rcd13ifvqcn0","pricing_plan_id":"cebpf4jnsgd1na2vs0mg"},{"bike_id":"f5192e58-2178-4d17-a82e-b63f16cde088","system_id":"levelo_inurba_marseille","lat":43.30322,"lon":5.36904,"is_reserved":false,"is_disabled":false,"rental_uris":{"android":"levelo://app?vid=f5192e58-2178-4d17-a82e-b63f16cde088","ios":"levelo://app?vid=f5192e58-2178-4d17-a82e-b63f16cde088"},"vehicle_type_id":"4","last_reported":1739261567,"current_range_meters":27600,"station_id":"ce4bgqh2rcd13ifvqc5g","pricing_plan_id":"cebpf4jnsgd1na2vs0mg"},{"bike_id":"e1a44cfd-2e43-4fd5-9cb1-1421dfc9e92e","system_id":"levelo_inurba_marseille","lat":43.31527,"lon":5.38051,"is_reserved":false,"is_disabled":false,"rental_uris":{"android":"levelo://app?vid=e1a44cfd-2e43-4fd5-9cb1-1421dfc9e92e","ios":"levelo://app?vid=e1a44cfd-2e43-4fd5-9cb1-1421dfc9e92e"},"vehicle_type_id":"4","last_reported":1739261567,"current_range_meters":12800,"station_id":"ce4bhsp2rcd13ifvqi50","pricing_plan_id":"cebpf4jnsgd1na2vs0mg"},{"bike_id":"5baf39dd-07ca-4c36-b84d-55d91f868a26","system_id":"levelo_inurba_marseille","lat":43.29556,"lon":5.38242,"is_reserved":false,"is_disabled":true,"rental_uris":{"android":"levelo://app?vid=5baf39dd-07ca-4c36-b84d-55d91f868a26","ios":"levelo://app?vid=5baf39dd-07ca-4c36-b84d-55d91f868a26"},"vehicle_type_id":"4","last_reported":1739261567,"current_range_meters":33600,"station_id":"","pricing_plan_id":"cebpf4jnsgd1na2vs0mg"},{"bike_id":"8bce58b7-09dd-40c8-9495-3bed2e803587","system_id":"levelo_inurba_marseille","lat":43.30532,"lon":5.36552,"is_reserved":false,"is_disabled":false,"rental_uris":{"android":"levelo://app?vid=8bce58b7-09dd-40c8-9495-3bed2e803587","ios":"levelo://app?vid=8bce58b7-09dd-40c8-9495-3bed2e803587"},"vehicle_type_id":"4","last_reported":1739261567,"current_range_meters":35200,"station_id":"ce4bgs12rcd13ifvqcag","pricing_plan_id":"cebpf4jnsgd1na2vs0mg"},{"bike_id":"fbea60db-4452-4204-91f1-f84370aefc96","system_id":"levelo_inurba_marseille","lat":43.3134,"lon":5.3674,"is_reserved":false,"is_disabled":true,"rental_uris":{"android":"levelo://app?vid=fbea60db-4452-4204-91f1-f84370aefc96","ios":"levelo://app?vid=fbea60db-4452-4204-91f1-f84370aefc96"},"vehicle_type_id":"4","last_reported":1739261567,"current_range_meters":1600,"station_id":"ce4bgr92rcd13ifvqc6g","pricing_plan_id":"cebpf4jnsgd1na2vs0mg"},{"bike_id":"0f6abac1-d6e2-40cd-a44f-2ca90e438dc0","system_id":"levelo_inurba_marseille","lat":43.30947,"lon":5.39048,"is_reserved":false,"is_disabled":false,"rental_uris":{"android":"levelo://app?vid=0f6abac1-d6e2-40cd-a44f-2ca90e438dc0","ios":"levelo://app?vid=0f6abac1-d6e2-40cd-a44f-2ca90e438dc0"},"vehicle_type_id":"4","last_reported":1739261567,"current_range_meters":22800,"station_id":"ce4bgup2rcd13ifvqco0","pricing_plan_id":"cebpf4jnsgd1na2vs0mg"},{"bike_id":"9b8abd08-e44c-4856-b389-4f5ff2f6b096","system_id":"levelo_inurba_marseille","lat":43.29189,"lon":5.37554,"is_reserved":false,"is_disabled":false,"rental_uris":{"android":"levelo://app?vid=9b8abd08-e44c-4856-b389-4f5ff2f6b096","ios":"levelo://app?vid=9b8abd08-e44c-4856-b389-4f5ff2f6b096"},"vehicle_type_id":"4","last_reported":1739261567,"current_range_meters":12000,"station_id":"","pricing_plan_id":"cebpf4jnsgd1na2vs0mg"},{"bike_id":"f2a19d6d-1c3c-4ae5-a155-e51d34c1aabd","system_id":"levelo_inurba_marseille","lat":43.28565,"lon":5.39526,"is_reserved":false,"is_disabled":false,"rental_uris":{"android":"levelo://app?vid=f2a19d6d-1c3c-4ae5-a155-e51d34c1aabd","ios":"levelo://app?vid=f2a19d6d-1c3c-4ae5-a155-e51d34c1aabd"},"vehicle_type_id":"4","last_reported":1739261567,"current_range_meters":39200,"station_id":"ce4bh292rcd13ifvqdg0","pricing_plan_id":"cebpf4jnsgd1na2vs0mg"},{"bike_id":"118acaa8-c377-4759-a8f9-c3303973ef34","system_id":"levelo_inurba_marseille","lat":43.29885,"lon":5.38907,"is_reserved":false,"is_disabled":false,"rental_uris":{"android":"levelo://app?vid=118acaa8-c377-4759-a8f9-c3303973ef34","ios":"levelo://app?vid=118acaa8-c377-4759-a8f9-c3303973ef34"},"vehicle_type_id":"4","last_reported":1739261567,"current_range_meters":25600,"station_id":"ce4bh392rcd13ifvqdl0","pricing_plan_id":"cebpf4jnsgd1na2vs0mg"},{"bike_id":"fbd03bc5-eeec-43a8-9a4b-c9d5079b4f48","system_id":"levelo_inurba_marseille","lat":43.25937,"lon":5.40904,"is_reserved":false,"is_disabled":false,"rental_uris":{"android":"levelo://app?vid=fbd03bc5-eeec-43a8-9a4b-c9d5079b4f48","ios":"levelo://app?vid=fbd03bc5-eeec-43a8-9a4b-c9d5079b4f48"},"vehicle_type_id":"4","last_reported":1739261567,"current_range_meters":24000,"station_id":"ce4bhm92rcd13ifvqglg","pricing_plan_id":"cebpf4jnsgd1na2vs0mg"},{"bike_id":"08248491-dd29-4cad-9842-0f4a63373d2a","system_id":"levelo_inurba_marseille","lat":43.26706,"lon":5.38225,"is_reserved":false,"is_disabled":false,"rental_uris":{"android":"levelo://app?vid=08248491-dd29-4cad-9842-0f4a63373d2a","ios":"levelo://app?vid=08248491-dd29-4cad-9842-0f4a63373d2a"},"vehicle_type_id":"4","last_reported":1739261567,"current_range_meters":29600,"station_id":"ce4bhg92rcd13ifvqf90","pricing_plan_id":"cebpf4jnsgd1na2vs0mg"},{"bike_id":"71729715-a0e6-4615-ae37-074e053a04bc","system_id":"levelo_inurba_marseille","lat":43.2417,"lon":5.39733,"is_reserved":false,"is_disabled":false,"rental_uris":{"android":"levelo://app?vid=71729715-a0e6-4615-ae37-074e053a04bc","ios":"levelo://app?vid=71729715-a0e6-4615-ae37-074e053a04bc"},"vehicle_type_id":"4","last_reported":1739261567,"current_range_meters":28400,"station_id":"ce4bhn12rcd13ifvqgpg","pricing_plan_id":"cebpf4jnsgd1na2vs0mg"},{"bike_id":"e476b422-69b1-4f74-9e6f-2e8608063c5f","system_id":"levelo_inurba_marseille","lat":43.30522,"lon":5.36558,"is_reserved":false,"is_disabled":false,"rental_uris":{"android":"levelo://app?vid=e476b422-69b1-4f74-9e6f-2e8608063c5f","ios":"levelo://app?vid=e476b422-69b1-4f74-9e6f-2e8608063c5f"},"vehicle_type_id":"4","last_reported":1739261567,"current_range_meters":18000,"station_id":"ce4bgs12rcd13ifvqcag","pricing_plan_id":"cebpf4jnsgd1na2vs0mg"},{"bike_id":"bb2c3666-e655-4322-865e-a1fcfe1f8a0c","system_id":"levelo_inurba_marseille","lat":43.301576,"lon":5.380932,"is_reserved":false,"is_disabled":false,"rental_uris":{"android":"levelo://app?vid=bb2c3666-e655-4322-865e-a1fcfe1f8a0c","ios":"levelo://app?vid=bb2c3666-e655-4322-865e-a1fcfe1f8a0c"},"vehicle_type_id":"4","last_reported":1739261567,"current_range_meters":28800,"station_id":"ce4bgjp2rcd13ifvqbh0","pricing_plan_id":"cebpf4jnsgd1na2vs0mg"},{"bike_id":"54ce597b-1ca1-4d62-923d-d4b29eec04b3","system_id":"levelo_inurba_marseille","lat":43.31131,"lon":5.38261,"is_reserved":false,"is_disabled":false,"rental_uris":{"android":"levelo://app?vid=54ce597b-1ca1-4d62-923d-d4b29eec04b3","ios":"levelo://app?vid=54ce597b-1ca1-4d62-923d-d4b29eec04b3"},"vehicle_type_id":"4","last_reported":1739261567,"current_range_meters":21600,"station_id":"","pricing_plan_id":"cebpf4jnsgd1na2vs0mg"},{"bike_id":"b4765ae2-b7fb-4718-bf68-ce7ba2c817f9","system_id":"levelo_inurba_marseille","lat":43.27066,"lon":5.42294,"is_reserved":false,"is_disabled":false,"rental_uris":{"android":"levelo://app?vid=b4765ae2-b7fb-4718-bf68-ce7ba2c817f9","ios":"levelo://app?vid=b4765ae2-b7fb-4718-bf68-ce7ba2c817f9"},"vehicle_type_id":"4","last_reported":1739261567,"current_range_meters":24800,"station_id":"ce4bhk92rcd13ifvqgb0","pricing_plan_id":"cebpf4jnsgd1na2vs0mg"},{"bike_id":"ace7c7c4-55ef-471c-935e-108dd26488b5","system_id":"levelo_inurba_marseille","lat":43.24546,"lon":5.39547,"is_reserved":false,"is_disabled":false,"rental_uris":{"android":"levelo://app?vid=ace7c7c4-55ef-471c-935e-108dd26488b5","ios":"levelo://app?vid=ace7c7c4-55ef-471c-935e-108dd26488b5"},"vehicle_type_id":"4","last_reported":1739261567,"current_range_meters":32000,"station_id":"ce4bhlp2rcd13ifvqgjg","pricing_plan_id":"cebpf4jnsgd1na2vs0mg"},{"bike_id":"d12e89c6-1084-4581-a0ba-7f67374e4884","system_id":"levelo_inurba_marseille","lat":43.29528,"lon":5.38547,"is_reserved":false,"is_disabled":false,"rental_uris":{"android":"levelo://app?vid=d12e89c6-1084-4581-a0ba-7f67374e4884","ios":"levelo://app?vid=d12e89c6-1084-4581-a0ba-7f67374e4884"},"vehicle_type_id":"4","last_reported":1739261567,"current_range_meters":12800,"station_id":"ce4bgih2rcd13ifvqba0","pricing_plan_id":"cebpf4jnsgd1na2vs0mg"},{"bike_id":"e9fa90f7-9581-4d90-8103-d6b31b8c76c2","system_id":"levelo_inurba_marseille","lat":43.29738,"lon":5.3768,"is_reserved":false,"is_disabled":false,"rental_uris":{"android":"levelo://app?vid=e9fa90f7-9581-4d90-8103-d6b31b8c76c2","ios":"levelo://app?vid=e9fa90f7-9581-4d90-8103-d6b31b8c76c2"},"vehicle_type_id":"4","last_reported":1739261567,"current_range_meters":7200,"station_id":"ce4bgkh2rcd13ifvqbl0","pricing_plan_id":"cebpf4jnsgd1na2vs0mg"},{"bike_id":"139984c7-e3e0-4bda-956c-85f93d82ddf6","system_id":"levelo_inurba_marseille","lat":43.251554,"lon":5.390433,"is_reserved":false,"is_disabled":false,"rental_uris":{"android":"levelo://app?vid=139984c7-e3e0-4bda-956c-85f93d82ddf6","ios":"levelo://app?vid=139984c7-e3e0-4bda-956c-85f93d82ddf6"},"vehicle_type_id":"4","last_reported":1739261567,"current_range_meters":5600,"station_id":"","pricing_plan_id":"cebpf4jnsgd1na2vs0mg"},{"bike_id":"4a6a1800-2f28-4b12-b753-98cde892230c","system_id":"levelo_inurba_marseille","lat":43.33024,"lon":5.39045,"is_reserved":false,"is_disabled":false,"rental_uris":{"android":"levelo://app?vid=4a6a1800-2f28-4b12-b753-98cde892230c","ios":"levelo://app?vid=4a6a1800-2f28-4b12-b753-98cde892230c"},"vehicle_type_id":"4","last_reported":1739261567,"current_range_meters":38800,"station_id":"ce4bhr92rcd13ifvqhrg","pricing_plan_id":"cebpf4jnsgd1na2vs0mg"},{"bike_id":"5fcc18a4-b033-425f-956c-ba9cc3756f71","system_id":"levelo_inurba_marseille","lat":43.28617,"lon":5.35109,"is_reserved":false,"is_disabled":true,"rental_uris":{"android":"levelo://app?vid=5fcc18a4-b033-425f-956c-ba9cc3756f71","ios":"levelo://app?vid=5fcc18a4-b033-425f-956c-ba9cc3756f71"},"vehicle_type_id":"4","last_reported":1739261567,"current_range_meters":26800,"station_id":"","pricing_plan_id":"cebpf4jnsgd1na2vs0mg"},{"bike_id":"bda39e72-ee23-41e0-8f95-76382dd8148d","system_id":"levelo_inurba_marseille","lat":43.27318,"lon":5.39111,"is_reserved":false,"is_disabled":true,"rental_uris":{"android":"levelo://app?vid=bda39e72-ee23-41e0-8f95-76382dd8148d","ios":"levelo://app?vid=bda39e72-ee23-41e0-8f95-76382dd8148d"},"vehicle_type_id":"4","last_reported":1739261567,"current_range_meters":37600,"station_id":"ce4bhgp2rcd13ifvqfe0","pricing_plan_id":"cebpf4jnsgd1na2vs0mg"},{"bike_id":"16426ddd-1b47-4d7f-b07d-a9a7387a04c9","system_id":"levelo_inurba_marseille","lat":43.31132,"lon":5.3779,"is_reserved":false,"is_disabled":false,"rental_uris":{"android":"levelo://app?vid=16426ddd-1b47-4d7f-b07d-a9a7387a04c9","ios":"levelo://app?vid=16426ddd-1b47-4d7f-b07d-a9a7387a04c9"},"vehicle_type_id":"4","last_reported":1739261567,"current_range_meters":24000,"station_id":"ce4bgt92rcd13ifvqcg0","pricing_plan_id":"cebpf4jnsgd1na2vs0mg"},{"bike_id":"a1292981-74f1-409d-9b26-02c19fb4e197","system_id":"levelo_inurba_marseille","lat":43.28911,"lon":5.38425,"is_reserved":false,"is_disabled":false,"rental_uris":{"android":"levelo://app?vid=a1292981-74f1-409d-9b26-02c19fb4e197","ios":"levelo://app?vid=a1292981-74f1-409d-9b26-02c19fb4e197"},"vehicle_type_id":"4","last_reported":1739261567,"current_range_meters":34000,"station_id":"ce4bh612rcd13ifvqe6g","pricing_plan_id":"cebpf4jnsgd1na2vs0mg"},{"bike_id":"1908e374-1f5b-468c-b327-1268af01d89d","system_id":"levelo_inurba_marseille","lat":43.26212,"lon":5.37456,"is_reserved":false,"is_disabled":false,"rental_uris":{"android":"levelo://app?vid=1908e374-1f5b-468c-b327-1268af01d89d","ios":"levelo://app?vid=1908e374-1f5b-468c-b327-1268af01d89d"},