{"last_updated":1729015921,"ttl":60,"version":"2.2","data":{"bikes":[{"bike_id":"cfc7efa0-6f9e-48e8-8b40-963a46f3a1d4","system_id":"levelo_inurba_marseille","lat":43.25109,"lon":5.40321,"is_reserved":false,"is_disabled":false,"rental_uris":{"android":"levelo://app?vid=cfc7efa0-6f9e-48e8-8b40-963a46f3a1d4","ios":"levelo://app?vid=cfc7efa0-6f9e-48e8-8b40-963a46f3a1d4"},"vehicle_type_id":"4","last_reported":1729015921,"current_range_meters":12800,"station_id":"ce4bhlh2rcd13ifvqgig","pricing_plan_id":"cebpf4jnsgd1na2vs0mg"},{"bike_id":"69197799-1c4b-46f8-85b6-3058b9ee9332","system_id":"levelo_inurba_marseille","lat":43.29529,"lon":5.38549,"is_reserved":false,"is_disabled":false,"rental_uris":{"android":"levelo://app?vid=69197799-1c4b-46f8-85b6-3058b9ee9332","ios":"levelo://app?vid=69197799-1c4b-46f8-85b6-3058b9ee9332"},"vehicle_type_id":"4","last_reported":1729015921,"current_range_meters":6400,"station_id":"ce4bgih2rcd13ifvqba0","pricing_plan_id":"cebpf4jnsgd1na2vs0mg"},{"bike_id":"ffc2ef40-c8de-4d2b-bf6a-b1cec6c53bc8","system_id":"levelo_inurba_marseille","lat":43.33025,"lon":5.3904,"is_reserved":false,"is_disabled":false,"rental_uris":{"android":"levelo://app?vid=ffc2ef40-c8de-4d2b-bf6a-b1cec6c53bc8","ios":"levelo://app?vid=ffc2ef40-c8de-4d2b-bf6a-b1cec6c53bc8"},"vehicle_type_id":"4","last_reported":1729015921,"current_range_meters":35200,"station_id":"ce4bhr92rcd13ifvqhrg","pricing_plan_id":"cebpf4jnsgd1na2vs0mg"},{"bike_id":"f2fdf74f-5e15-4827-9d38-65a4050d017a","system_id":"levelo_inurba_marseille","lat":43.28076,"lon":5.39652,"is_reserved":false,"is_disabled":false,"rental_uris":{"android":"levelo://app?vid=f2fdf74f-5e15-4827-9d38-65a4050d017a","ios":"levelo://app?vid=f2fdf74f-5e15-4827-9d38-65a4050d017a"},"vehicle_type_id":"4","last_reported":1729015921,"current_range_meters":20800,"station_id":"ce4bho12rcd13ifvqh2g","pricing_plan_id":"cebpf4jnsgd1na2vs0mg"},{"bike_id":"531333bf-e3cd-4ce4-bc39-fe36bfd47ee9","system_id":"levelo_inurba_marseille","lat":43.31332,"lon":5.39693,"is_reserved":false,"is_disabled":false,"rental_uris":{"android":"levelo://app?vid=531333bf-e3cd-4ce4-bc39-fe36bfd47ee9","ios":"levelo://app?vid=531333bf-e3cd-4ce4-bc39-fe36bfd47ee9"},"vehicle_type_id":"4","last_reported":1729015921,"current_range_meters":4400,"station_id":"ce4bgvp2rcd13ifvqcu0","pricing_plan_id":"cebpf4jnsgd1na2vs0mg"},{"bike_id":"d666b878-8c6a-46ea-a928-48676fd31d18","system_id":"levelo_inurba_marseille","lat":43.2794,"lon":5.41049,"is_reserved":false,"is_disabled":false,"rental_uris":{"android":"levelo://app?vid=d666b878-8c6a-46ea-a928-48676fd31d18","ios":"levelo://app?vid=d666b878-8c6a-46ea-a928-48676fd31d18"},"vehicle_type_id":"4","last_reported":1729015921,"current_range_meters":9600,"station_id":"ce4bhnp2rcd13ifvqh0g","pricing_plan_id":"cebpf4jnsgd1na2vs0mg"},{"bike_id":"0b3b36eb-d8b0-4dc0-935d-c74641b38246","system_id":"levelo_inurba_marseille","lat":43.3149,"lon":5.3731,"is_reserved":false,"is_disabled":false,"rental_uris":{"android":"levelo://app?vid=0b3b36eb-d8b0-4dc0-935d-c74641b38246","ios":"levelo://app?vid=0b3b36eb-d8b0-4dc0-935d-c74641b38246"},"vehicle_type_id":"4","last_reported":1729015921,"current_range_meters":16800,"station_id":"ce4bgt12rcd13ifvqcd0","pricing_plan_id":"cebpf4jnsgd1na2vs0mg"},{"bike_id":"d5844eb3-37c9-4424-a7ae-2088918302af","system_id":"levelo_inurba_marseille","lat":43.3108,"lon":5.42432,"is_reserved":false,"is_disabled":false,"rental_uris":{"android":"levelo://app?vid=d5844eb3-37c9-4424-a7ae-2088918302af","ios":"levelo://app?vid=d5844eb3-37c9-4424-a7ae-2088918302af"},"vehicle_type_id":"4","last_reported":1729015921,"current_range_meters":32400,"station_id":"ce4bhp92rcd13ifvqhag","pricing_plan_id":"cebpf4jnsgd1na2vs0mg"},{"bike_id":"5554a15a-3e77-4957-960a-9fd3bb5c6cef","system_id":"levelo_inurba_marseille","lat":43.31997,"lon":5.38159,"is_reserved":false,"is_disabled":false,"rental_uris":{"android":"levelo://app?vid=5554a15a-3e77-4957-960a-9fd3bb5c6cef","ios":"levelo://app?vid=5554a15a-3e77-4957-960a-9fd3bb5c6cef"},"vehicle_type_id":"4","last_reported":1729015921,"current_range_meters":16800,"station_id":"ce4bhr12rcd13ifvqhpg","pricing_plan_id":"cebpf4jnsgd1na2vs0mg"},{"bike_id":"dc5f6dbe-5d62-43f5-8a9e-4a48f2a9a38c","system_id":"levelo_inurba_marseille","lat":43.25577,"lon":5.38226,"is_reserved":false,"is_disabled":false,"rental_uris":{"android":"levelo://app?vid=dc5f6dbe-5d62-43f5-8a9e-4a48f2a9a38c","ios":"levelo://app?vid=dc5f6dbe-5d62-43f5-8a9e-4a48f2a9a38c"},"vehicle_type_id":"4","last_reported":1729015921,"current_range_meters":10000,"station_id":"ce4bhih2rcd13ifvqfs0","pricing_plan_id":"cebpf4jnsgd1na2vs0mg"},{"bike_id":"fd8f7274-5d01-4fe2-8fc0-9a3c1b57c122","system_id":"levelo_inurba_marseille","lat":43.28413,"lon":5.34979,"is_reserved":false,"is_disabled":false,"rental_uris":{"android":"levelo://app?vid=fd8f7274-5d01-4fe2-8fc0-9a3c1b57c122","ios":"levelo://app?vid=fd8f7274-5d01-4fe2-8fc0-9a3c1b57c122"},"vehicle_type_id":"4","last_reported":1729015921,"current_range_meters":26000,"station_id":"ce4bhbh2rcd13ifvqepg","pricing_plan_id":"cebpf4jnsgd1na2vs0mg"},{"bike_id":"3668da75-c41f-466b-8262-09a17c054d21","system_id":"levelo_inurba_marseille","lat":43.31081,"lon":5.42432,"is_reserved":false,"is_disabled":false,"rental_uris":{"android":"levelo://app?vid=3668da75-c41f-466b-8262-09a17c054d21","ios":"levelo://app?vid=3668da75-c41f-466b-8262-09a17c054d21"},"vehicle_type_id":"4","last_reported":1729015921,"current_range_meters":8800,"station_id":"ce4bhp92rcd13ifvqhag","pricing_plan_id":"cebpf4jnsgd1na2vs0mg"},{"bike_id":"406be873-cddf-42a6-b688-ff343efd7471","system_id":"levelo_inurba_marseille","lat":43.24806,"lon":5.37458,"is_reserved":false,"is_disabled":false,"rental_uris":{"android":"levelo://app?vid=406be873-cddf-42a6-b688-ff343efd7471","ios":"levelo://app?vid=406be873-cddf-42a6-b688-ff343efd7471"},"vehicle_type_id":"4","last_reported":1729015921,"current_range_meters":4000,"station_id":"ce4bhgh2rcd13ifvqfb0","pricing_plan_id":"cebpf4jnsgd1na2vs0mg"},{"bike_id":"38b89885-ec25-461b-bd73-3c8d7c061b3c","system_id":"levelo_inurba_marseille","lat":43.25581,"lon":5.38229,"is_reserved":false,"is_disabled":false,"rental_uris":{"android":"levelo://app?vid=38b89885-ec25-461b-bd73-3c8d7c061b3c","ios":"levelo://app?vid=38b89885-ec25-461b-bd73-3c8d7c061b3c"},"vehicle_type_id":"4","last_reported":1729015921,"current_range_meters":12400,"station_id":"ce4bhih2rcd13ifvqfs0","pricing_plan_id":"cebpf4jnsgd1na2vs0mg"},{"bike_id":"48f84c3b-176d-47a7-954a-43607af6aa58","system_id":"levelo_inurba_marseille","lat":43.31326,"lon":5.39686,"is_reserved":false,"is_disabled":false,"rental_uris":{"android":"levelo://app?vid=48f84c3b-176d-47a7-954a-43607af6aa58","ios":"levelo://app?vid=48f84c3b-176d-47a7-954a-43607af6aa58"},"vehicle_type_id":"4","last_reported":1729015921,"current_range_meters":29600,"station_id":"ce4bgvp2rcd13ifvqcu0","pricing_plan_id":"cebpf4jnsgd1na2vs0mg"},{"bike_id":"9cd892e6-0153-4355-b408-71d292bf6664","system_id":"levelo_inurba_marseille","lat":43.29712,"lon":5.37711,"is_reserved":false,"is_disabled":false,"rental_uris":{"android":"levelo://app?vid=9cd892e6-0153-4355-b408-71d292bf6664","ios":"levelo://app?vid=9cd892e6-0153-4355-b408-71d292bf6664"},"vehicle_type_id":"4","last_reported":1729015921,"current_range_meters":12000,"station_id":"ce4bgkh2rcd13ifvqbl0","pricing_plan_id":"cebpf4jnsgd1na2vs0mg"},{"bike_id":"c5f5cb1d-6115-4834-a655-3c011396eda6","system_id":"levelo_inurba_marseille","lat":43.23173,"lon":5.39988,"is_reserved":false,"is_disabled":false,"rental_uris":{"android":"levelo://app?vid=c5f5cb1d-6115-4834-a655-3c011396eda6","ios":"levelo://app?vid=c5f5cb1d-6115-4834-a655-3c011396eda6"},"vehicle_type_id":"4","last_reported":1729015921,"current_range_meters":25200,"station_id":"ce4bhn12rcd13ifvqgqg","pricing_plan_id":"cebpf4jnsgd1na2vs0mg"},{"bike_id":"de1deda1-32d3-45f0-96b9-10c5a1b9e2fc","system_id":"levelo_inurba_marseille","lat":43.28718,"lon":5.3609,"is_reserved":false,"is_disabled":false,"rental_uris":{"android":"levelo://app?vid=de1deda1-32d3-45f0-96b9-10c5a1b9e2fc","ios":"levelo://app?vid=de1deda1-32d3-45f0-96b9-10c5a1b9e2fc"},"vehicle_type_id":"4","last_reported":1729015921,"current_range_meters":10000,"station_id":"cki0cbj6b192h4jlfktg","pricing_plan_id":"cebpf4jnsgd1na2vs0mg"},{"bike_id":"9a6b79d1-6cb4-4b06-b6e7-e93597ae1532","system_id":"levelo_inurba_marseille","lat":43.31157,"lon":5.38724,"is_reserved":false,"is_disabled":false,"rental_uris":{"android":"levelo://app?vid=9a6b79d1-6cb4-4b06-b6e7-e93597ae1532","ios":"levelo://app?vid=9a6b79d1-6cb4-4b06-b6e7-e93597ae1532"},"vehicle_type_id":"4","last_reported":1729015921,"current_range_meters":8400,"station_id":"ce4bgv12rcd13ifvqcp0","pricing_plan_id":"cebpf4jnsgd1na2vs0mg"},{"bike_id":"7046d5eb-bbfe-4666-9473-e559414e9ace","system_id":"levelo_inurba_marseille","lat":43.26567,"lon":5.39013,"is_reserved":false,"is_disabled":false,"rental_uris":{"android":"levelo://app?vid=7046d5eb-bbfe-4666-9473-e559414e9ace","ios":"levelo://app?vid=7046d5eb-bbfe-4666-9473-e559414e9ace"},"vehicle_type_id":"4","last_reported":1729015921,"current_range_meters":38800,"station_id":"ce4bhe12rcd13ifvqf30","pricing_plan_id":"cebpf4jnsgd1na2vs0mg"},{"bike_id":"4b29ea64-7a12-43ba-ae2f-97eff0c12de8","system_id":"levelo_inurba_marseille","lat":43.32368,"lon":5.38884,"is_reserved":false,"is_disabled":false,"rental_uris":{"android":"levelo://app?vid=4b29ea64-7a12-43ba-ae2f-97eff0c12de8","ios":"levelo://app?vid=4b29ea64-7a12-43ba-ae2f-97eff0c12de8"},"vehicle_type_id":"4","last_reported":1729015921,"current_range_meters":32000,"station_id":"ce4bhqp2rcd13ifvqhog","pricing_plan_id":"cebpf4jnsgd1na2vs0mg"},{"bike_id":"755a7622-70a2-4447-afe8-59317900f64c","system_id":"levelo_inurba_marseille","lat":43.28082,"lon":5.39657,"is_reserved":false,"is_disabled":false,"rental_uris":{"android":"levelo://app?vid=755a7622-70a2-4447-afe8-59317900f64c","ios":"levelo://app?vid=755a7622-70a2-4447-afe8-59317900f64c"},"vehicle_type_id":"4","last_reported":1729015921,"current_range_meters":28400,"station_id":"ce4bho12rcd13ifvqh2g","pricing_plan_id":"cebpf4jnsgd1na2vs0mg"},{"bike_id":"3ca8f103-5d19-45d4-a96c-69803d404514","system_id":"levelo_inurba_marseille","lat":43.296251,"lon":5.406088,"is_reserved":false,"is_disabled":false,"rental_uris":{"android":"levelo://app?vid=3ca8f103-5d19-45d4-a96c-69803d404514","ios":"levelo://app?vid=3ca8f103-5d19-45d4-a96c-69803d404514"},"vehicle_type_id":"4","last_reported":1729015921,"current_range_meters":35200,"station_id":"ce4bhr12rcd13ifvqhpg","pricing_plan_id":"cebpf4jnsgd1na2vs0mg"},{"bike_id":"0d76cc15-8036-4f29-8942-797a81af4898","system_id":"levelo_inurba_marseille","lat":43.278387,"lon":5.392089,"is_reserved":false,"is_disabled":false,"rental_uris":{"android":"levelo://app?vid=0d76cc15-8036-4f29-8942-797a81af4898","ios":"levelo://app?vid=0d76cc15-8036-4f29-8942-797a81af4898"},"vehicle_type_id":"4","last_reported":1729015921,"current_range_meters":38400,"station_id":"ce4bhjp2rcd13ifvqga0","pricing_plan_id":"cebpf4jnsgd1na2vs0mg"},{"bike_id":"6658fd78-b49f-4fdf-bcce-62aa711cf2d3","system_id":"levelo_inurba_marseille","lat":43.27987,"lon":5.41663,"is_reserved":false,"is_disabled":false,"rental_uris":{"android":"levelo://app?vid=6658fd78-b49f-4fdf-bcce-62aa711cf2d3","ios":"levelo://app?vid=6658fd78-b49f-4fdf-bcce-62aa711cf2d3"},"vehicle_type_id":"4","last_reported":1729015921,"current_range_meters":11600,"station_id":"ce4bho12rcd13ifvqh1g","pricing_plan_id":"cebpf4jnsgd1na2vs0mg"},{"bike_id":"5e131e71-0b4b-41d1-9203-5ce398c5c74f","system_id":"levelo_inurba_marseille","lat":43.302951,"lon":5.377433,"is_reserved":false,"is_disabled":false,"rental_uris":{"android":"levelo://app?vid=5e131e71-0b4b-41d1-9203-5ce398c5c74f","ios":"levelo://app?vid=5e131e71-0b4b-41d1-9203-5ce398c5c74f"},"vehicle_type_id":"4","last_reported":1729015921,"current_range_meters":38000,"station_id":"ce4bguh2rcd13ifvqcj0","pricing_plan_id":"cebpf4jnsgd1na2vs0mg"},{"bike_id":"34fbf935-30df-428b-be06-e155b990065f","system_id":"levelo_inurba_marseille","lat":43.2407,"lon":5.37766,"is_reserved":false,"is_disabled":false,"rental_uris":{"android":"levelo://app?vid=34fbf935-30df-428b-be06-e155b990065f","ios":"levelo://app?vid=34fbf935-30df-428b-be06-e155b990065f"},"vehicle_type_id":"4","last_reported":1729015921,"current_range_meters":16800,"station_id":"ce4bhnp2rcd13ifvqgvg","pricing_plan_id":"cebpf4jnsgd1na2vs0mg"},{"bike_id":"83be5a0c-2f31-4e89-8c29-493818764358","system_id":"levelo_inurba_marseille","lat":43.31685,"lon":5.4048,"is_reserved":false,"is_disabled":false,"rental_uris":{"android":"levelo://app?vid=83be5a0c-2f31-4e89-8c29-493818764358","ios":"levelo://app?vid=83be5a0c-2f31-4e89-8c29-493818764358"},"vehicle_type_id":"4","last_reported":1729015921,"current_range_meters":17200,"station_id":"ce4bh012rcd13ifvqd00","pricing_plan_id":"cebpf4jnsgd1na2vs0mg"},{"bike_id":"5f866cdd-5cee-442e-81d2-26f78a203ab9","system_id":"levelo_inurba_marseille","lat":43.32001,"lon":5.38157,"is_reserved":false,"is_disabled":false,"rental_uris":{"android":"levelo://app?vid=5f866cdd-5cee-442e-81d2-26f78a203ab9","ios":"levelo://app?vid=5f866cdd-5cee-442e-81d2-26f78a203ab9"},"vehicle_type_id":"4","last_reported":1729015921,"current_range_meters":30800,"station_id":"ce4bhr12rcd13ifvqhpg","pricing_plan_id":"cebpf4jnsgd1na2vs0mg"},{"bike_id":"c58611c9-5610-40ca-9dff-13b158d6d313","system_id":"levelo_inurba_marseille","lat":43.31694,"lon":5.37735,"is_reserved":false,"is_disabled":false,"rental_uris":{"android":"levelo://app?vid=c58611c9-5610-40ca-9dff-13b158d6d313","ios":"levelo://app?vid=c58611c9-5610-40ca-9dff-13b158d6d313"},"vehicle_type_id":"4","last_reported":1729015921,"current_range_meters":29600,"station_id":"ce4bgth2rcd13ifvqch0","pricing_plan_id":"cebpf4jnsgd1na2vs0mg"},{"bike_id":"eb646d5e-71f3-41a5-8f49-b168b4fba9d8","system_id":"levelo_inurba_marseille","lat":43.27816,"lon":5.40717,"is_reserved":false,"is_disabled":false,"rental_uris":{"android":"levelo://app?vid=eb646d5e-71f3-41a5-8f49-b168b4fba9d8","ios":"levelo://app?vid=eb646d5e-71f3-41a5-8f49-b168b4fba9d8"},"vehicle_type_id":"4","last_reported":1729015921,"current_range_meters":16400,"station_id":"ce4bhnh2rcd13ifvqgtg","pricing_plan_id":"cebpf4jnsgd1na2vs0mg"},{"bike_id":"60dd2e01-51fa-4d51-a95b-e6a0b7f9c894","system_id":"levelo_inurba_marseille","lat":43.32001,"lon":5.38152,"is_reserved":false,"is_disabled":false,"rental_uris":{"android":"levelo://app?vid=60dd2e01-51fa-4d51-a95b-e6a0b7f9c894","ios":"levelo://app?vid=60dd2e01-51fa-4d51-a95b-e6a0b7f9c894"},"vehicle_type_id":"4","last_reported":1729015921,"current_range_meters":10800,"station_id":"ce4bhr12rcd13ifvqhpg","pricing_plan_id":"cebpf4jnsgd1na2vs0mg"},{"bike_id":"170f14ce-d44d-4fee-b7d3-dbf06922bb03","system_id":"levelo_inurba_marseille","lat":43.29278,"lon":5.40115,"is_reserved":false,"is_disabled":false,"rental_uris":{"android":"levelo://app?vid=170f14ce-d44d-4fee-b7d3-dbf06922bb03","ios":"levelo://app?vid=170f14ce-d44d-4fee-b7d3-dbf06922bb03"},"vehicle_type_id":"4","last_reported":1729015921,"current_range_meters":31200,"station_id":"ce4bh312rcd13ifvqdk0","pricing_plan_id":"cebpf4jnsgd1na2vs0mg"},{"bike_id":"05adb47d-1266-4e21-ab38-5e328a4b3445","system_id":"levelo_inurba_marseille","lat":43.33026,"lon":5.39039,"is_reserved":false,"is_disabled":false,"rental_uris":{"android":"levelo://app?vid=05adb47d-1266-4e21-ab38-5e328a4b3445","ios":"levelo://app?vid=05adb47d-1266-4e21-ab38-5e328a4b3445"},"vehicle_type_id":"4","last_reported":1729015921,"current_range_meters":23200,"station_id":"ce4bhr92rcd13ifvqhrg","pricing_plan_id":"cebpf4jnsgd1na2vs0mg"},{"bike_id":"3771dbe0-e22d-4fb8-bf57-473d32a3a251","system_id":"levelo_inurba_marseille","lat":43.32643,"lon":5.38873,"is_reserved":false,"is_disabled":false,"rental_uris":{"android":"levelo://app?vid=3771dbe0-e22d-4fb8-bf57-473d32a3a251","ios":"levelo://app?vid=3771dbe0-e22d-4fb8-bf57-473d32a3a251"},"vehicle_type_id":"4","last_reported":1729015921,"current_range_meters":29600,"station_id":"","pricing_plan_id":"cebpf4jnsgd1na2vs0mg"},{"bike_id":"5987fbd1-a743-4c10-8553-a7d31e7f72e2","system_id":"levelo_inurba_marseille","lat":43.28562,"lon":5.39495,"is_reserved":false,"is_disabled":false,"rental_uris":{"android":"levelo://app?vid=5987fbd1-a743-4c10-8553-a7d31e7f72e2","ios":"levelo://app?vid=5987fbd1-a743-4c10-8553-a7d31e7f72e2"},"vehicle_type_id":"4","last_reported":1729015921,"current_range_meters":24000,"station_id":"ce4bh292rcd13ifvqdg0","pricing_plan_id":"cebpf4jnsgd1na2vs0mg"},{"bike_id":"c8055c6b-08a5-478f-ad8a-5a38c13efef7","system_id":"levelo_inurba_marseille","lat":43.32368,"lon":5.38886,"is_reserved":false,"is_disabled":false,"rental_uris":{"android":"levelo://app?vid=c8055c6b-08a5-478f-ad8a-5a38c13efef7","ios":"levelo://app?vid=c8055c6b-08a5-478f-ad8a-5a38c13efef7"},"vehicle_type_id":"4","last_reported":1729015921,"current_range_meters":38800,"station_id":"ce4bhqp2rcd13ifvqhog","pricing_plan_id":"cebpf4jnsgd1na2vs0mg"},{"bike_id":"c0670d96-b06e-446b-a07e-6b5eeebc59d7","system_id":"levelo_inurba_marseille","lat":43.274948,"lon":5.424466,"is_reserved":false,"is_disabled":false,"rental_uris":{"android":"levelo://app?vid=c0670d96-b06e-446b-a07e-6b5eeebc59d7","ios":"levelo://app?vid=c0670d96-b06e-446b-a07e-6b5eeebc59d7"},"vehicle_type_id":"4","last_reported":1729015921,"current_range_meters":11200,"station_id":"ce4bhn92rcd13ifvqgrg","pricing_plan_id":"cebpf4jnsgd1na2vs0mg"},{"bike_id":"40861389-3aaa-4281-a19e-08690ab8a191","system_id":"levelo_inurba_marseille","lat":43.292,"lon":5.3931,"is_reserved":false,"is_disabled":false,"rental_uris":{"android":"levelo://app?vid=40861389-3aaa-4281-a19e-08690ab8a191","ios":"levelo://app?vid=40861389-3aaa-4281-a19e-08690ab8a191"},"vehicle_type_id":"4","last_reported":1729015921,"current_range_meters":5600,"station_id":"ce4bh192rcd13ifvqdd0","pricing_plan_id":"cebpf4jnsgd1na2vs0mg"},{"bike_id":"a0d3d324-fa7e-4417-aee7-85012ecab44e","system_id":"levelo_inurba_marseille","lat":43.34194,"lon":5.445,"is_reserved":false,"is_disabled":false,"rental_uris":{"android":"levelo://app?vid=a0d3d324-fa7e-4417-aee7-85012ecab44e","ios":"levelo://app?vid=a0d3d324-fa7e-4417-aee7-85012ecab44e"},"vehicle_type_id":"4","last_reported":1729015921,"current_range_meters":23200,"station_id":"","pricing_plan_id":"cebpf4jnsgd1na2vs0mg"},{"bike_id":"b4399525-8ade-4680-85ed-e0ac615afec6","system_id":"levelo_inurba_marseille","lat":43.28966,"lon":5.37834,"is_reserved":false,"is_disabled":false,"rental_uris":{"android":"levelo://app?vid=b4399525-8ade-4680-85ed-e0ac615afec6","ios":"levelo://app?vid=b4399525-8ade-4680-85ed-e0ac615afec6"},"vehicle_type_id":"4","last_reported":1729015921,"current_range_meters":20800,"station_id":"ce4bh9p2rcd13ifvqed0","pricing_plan_id":"cebpf4jnsgd1na2vs0mg"},{"bike_id":"d8753687-ab15-4f4f-bb98-cba0e3f2c0b8","system_id":"levelo_inurba_marseille","lat":43.27941,"lon":5.4105,"is_reserved":false,"is_disabled":false,"rental_uris":{"android":"levelo://app?vid=d8753687-ab15-4f4f-bb98-cba0e3f2c0b8","ios":"levelo://app?vid=d8753687-ab15-4f4f-bb98-cba0e3f2c0b8"},"vehicle_type_id":"4","last_reported":1729015921,"current_range_meters":31200,"station_id":"ce4bhnp2rcd13ifvqh0g","pricing_plan_id":"cebpf4jnsgd1na2vs0mg"},{"bike_id":"dd461e87-b2b3-4145-b514-4336ade298d1","system_id":"levelo_inurba_marseille","lat":43.27995,"lon":5.4002,"is_reserved":false,"is_disabled":false,"rental_uris":{"android":"levelo://app?vid=dd461e87-b2b3-4145-b514-4336ade298d1","ios":"levelo://app?vid=dd461e87-b2b3-4145-b514-4336ade298d1"},"vehicle_type_id":"4","last_reported":1729015921,"current_range_meters":22000,"station_id":"ce4bho92rcd13ifvqh4g","pricing_plan_id":"cebpf4jnsgd1na2vs0mg"},{"bike_id":"0994d7f0-fa2e-480f-b967-2b1e1b476b78","system_id":"levelo_inurba_marseille","lat":43.23195,"lon":5.35555,"is_reserved":false,"is_disabled":false,"rental_uris":{"android":"levelo://app?vid=0994d7f0-fa2e-480f-b967-2b1e1b476b78","ios":"levelo://app?vid=0994d7f0-fa2e-480f-b967-2b1e1b476b78"},"vehicle_type_id":"4","last_reported":1729015921,"current_range_meters":25600,"station_id":"ce4bhu92rcd13ifvqi70","pricing_plan_id":"cebpf4jnsgd1na2vs0mg"},{"bike_id":"4d423de8-5e22-441a-8848-ae5dc9d8eb39","system_id":"levelo_inurba_marseille","lat":43.33726,"lon":5.37455,"is_reserved":false,"is_disabled":false,"rental_uris":{"android":"levelo://app?vid=4d423de8-5e22-441a-8848-ae5dc9d8eb39","ios":"levelo://app?vid=4d423de8-5e22-441a-8848-ae5dc9d8eb39"},"vehicle_type_id":"4","last_reported":1729015921,"current_range_meters":9200,"station_id":"","pricing_plan_id":"cebpf4jnsgd1na2vs0mg"},{"bike_id":"d9f0671a-86fc-4afa-8d8e-7f729d6d6869","system_id":"levelo_inurba_marseille","lat":43.29709,"lon":5.36613,"is_reserved":false,"is_disabled":false,"rental_uris":{"android":"levelo://app?vid=d9f0671a-86fc-4afa-8d8e-7f729d6d6869","ios":"levelo://app?vid=d9f0671a-86fc-4afa-8d8e-7f729d6d6869"},"vehicle_type_id":"4","last_reported":1729015921,"current_range_meters":38000,"station_id":"ce4bgn12rcd13ifvqbt0","pricing_plan_id":"cebpf4jnsgd1na2vs0mg"},{"bike_id":"8f1473c8-5614-4fe5-9a08-5f8d5d6a0adb","system_id":"levelo_inurba_marseille","lat":43.32108,"lon":5.36778,"is_reserved":false,"is_disabled":false,"rental_uris":{"android":"levelo://app?vid=8f1473c8-5614-4fe5-9a08-5f8d5d6a0adb","ios":"levelo://app?vid=8f1473c8-5614-4fe5-9a08-5f8d5d6a0adb"},"vehicle_type_id":"4","last_reported":1729015921,"current_range_meters":25600,"station_id":"ce4bhrh2rcd13ifvqhug","pricing_plan_id":"cebpf4jnsgd1na2vs0mg"},{"bike_id":"69338d0a-2bc4-4b90-90a3-3de791c6fe6e","system_id":"levelo_inurba_marseille","lat":43.29264,"lon":5.38443,"is_reserved":false,"is_disabled":false,"rental_uris":{"android":"levelo://app?vid=69338d0a-2bc4-4b90-90a3-3de791c6fe6e","ios":"levelo://app?vid=69338d0a-2bc4-4b90-90a3-3de791c6fe6e"},"vehicle_type_id":"4","last_reported":1729015921,"current_range_meters":30800,"station_id":"","pricing_plan_id":"cebpf4jnsgd1na2vs0mg"},{"bike_id":"780498b7-200e-464d-b1b1-ebc41b18e0d8","system_id":"levelo_inurba_marseille","lat":43.27946,"lon":5.41059,"is_reserved":false,"is_disabled":false,"rental_uris":{"android":"levelo://app?vid=780498b7-200e-464d-b1b1-ebc41b18e0d8","ios":"levelo://app?vid=780498b7-200e-464d-b1b1-ebc41b18e0d8"},"vehicle_type_id":"4","last_reported":1729015921,"current_range_meters":16000,"station_id":"ce4bhnp2rcd13ifvqh0g","pricing_plan_id":"cebpf4jnsgd1na2vs0mg"},{"bike_id":"756982e7-2f39-4a61-8320-4e874ba3348d","system_id":"levelo_inurba_marseille","lat":43.29415,"lon":5.38618,"is_reserved":false,"is_disabled":false,"rental_uris":{"android":"levelo://app?vid=756982e7-2f39-4a61-8320-4e874ba3348d","ios":"levelo://app?vid=756982e7-2f39-4a61-8320-4e874ba3348d"},"vehicle_type_id":"4","last_reported":1729015921,"current_range_meters":36800,"station_id":"ce4bh2h2rcd13ifvqdh0","pricing_plan_id":"cebpf4jnsgd1na2vs0mg"},{"bike_id":"1bae4104-feb2-4ff5-a21d-98e5f929332f","system_id":"levelo_inurba_marseille","lat":43.28031,"lon":5.3695,"is_reserved":false,"is_disabled":false,"rental_uris":{"android":"levelo://app?vid=1bae4104-feb2-4ff5-a21d-98e5f929332f","ios":"levelo://app?vid=1bae4104-feb2-4ff5-a21d-98e5f929332f"},"vehicle_type_id":"4","last_reported":1729015921,"current_range_meters":30800,"station_id":"ce4bha12rcd13ifvqef0","pricing_plan_id":"cebpf4jnsgd1na2vs0mg"},{"bike_id":"e084d3b6-fcfe-4f8b-9130-92054313ed0a","system_id":"levelo_inurba_marseille","lat":43.32314,"lon":5.38521,"is_reserved":false,"is_disabled":false,"rental_uris":{"android":"levelo://app?vid=e084d3b6-fcfe-4f8b-9130-92054313ed0a","ios":"levelo://app?vid=e084d3b6-fcfe-4f8b-9130-92054313ed0a"},"vehicle_type_id":"4","last_reported":1729015921,"current_range_meters":4000,"station_id":"","pricing_plan_id":"cebpf4jnsgd1na2vs0mg"},{"bike_id":"87bfd9a1-d584-4acd-8bfc-d0e9e6fe105a","system_id":"levelo_inurba_marseille","lat":43.28285,"lon":5.38542,"is_reserved":false,"is_disabled":false,"rental_uris":{"android":"levelo://app?vid=87bfd9a1-d584-4acd-8bfc-d0e9e6fe105a","ios":"levelo://app?vid=87bfd9a1-d584-4acd-8bfc-d0e9e6fe105a"},"vehicle_type_id":"4","last_reported":1729015921,"current_range_meters":8400,"station_id":"","pricing_plan_id":"cebpf4jnsgd1na2vs0mg"},{"bike_id":"2140b6a3-5118-4150-823e-9225aeb56201","system_id":"levelo_inurba_marseille","lat":43.23195,"lon":5.3555,"is_reserved":false,"is_disabled":false,"rental_uris":{"android":"levelo://app?vid=2140b6a3-5118-4150-823e-9225aeb56201","ios":"levelo://app?vid=2140b6a3-5118-4150-823e-9225aeb56201"},"vehicle_type_id":"4","last_reported":1729015921,"current_range_meters":8800,"station_id":"ce4bhu92rcd13ifvqi70","pricing_plan_id":"cebpf4jnsgd1na2vs0mg"},{"bike_id":"1576ce93-2963-48b4-8de9-46bccee9dc3a","system_id":"levelo_inurba_marseille","lat":43.29422,"lon":5.38623,"is_reserved":false,"is_disabled":false,"rental_uris":{"android":"levelo://app?vid=1576ce93-2963-48b4-8de9-46bccee9dc3a","ios":"levelo://app?vid=1576ce93-2963-48b4-8de9-46bccee9dc3a"},"vehicle_type_id":"4","last_reported":1729015921,"current_range_meters":8000,"station_id":"ce4bh2h2rcd13ifvqdh0","pricing_plan_id":"cebpf4jnsgd1na2vs0mg"},{"bike_id":"24b1ff42-0f4b-4fac-ad97-b49e81bd85f7","system_id":"levelo_inurba_marseille","lat":43.2693,"lon":5.38919,"is_reserved":false,"is_disabled":false,"rental_uris":{"android":"levelo://app?vid=24b1ff42-0f4b-4fac-ad97-b49e81bd85f7","ios":"levelo://app?vid=24b1ff42-0f4b-4fac-ad97-b49e81bd85f7"},"vehicle_type_id":"4","last_reported":1729015921,"current_range_meters":36000,"station_id":"ce4bhhh2rcd13ifvqfl0","pricing_plan_id":"cebpf4jnsgd1na2vs0mg"},{"bike_id":"03019df0-67f8-4e33-90d7-3694352932e9","system_id":"levelo_inurba_marseille","lat":43.30283,"lon":5.3772,"is_reserved":false,"is_disabled":false,"rental_uris":{"android":"levelo://app?vid=03019df0-67f8-4e33-90d7-3694352932e9","ios":"levelo://app?vid=03019df0-67f8-4e33-90d7-3694352932e9"},"vehicle_type_id":"4","last_reported":1729015921,"current_range_meters":17200,"station_id":"ce4bguh2rcd13ifvqcj0","pricing_plan_id":"cebpf4jnsgd1na2vs0mg"},{"bike_id":"88045875-502e-4fac-a4b2-4a2f10ca8308","system_id":"levelo_inurba_marseille","lat":43.27941,"lon":5.41046,"is_reserved":false,"is_disabled":false,"rental_uris":{"android":"levelo://app?vid=88045875-502e-4fac-a4b2-4a2f10ca8308","ios":"levelo://app?vid=88045875-502e-4fac-a4b2-4a2f10ca8308"},"vehicle_type_id":"4","last_reported":1729015921,"current_range_meters":4800,"station_id":"ce4bhnp2rcd13ifvqh0g","pricing_plan_id":"cebpf4jnsgd1na2vs0mg"},{"bike_id":"2ef7640c-0ce7-4225-943a-0140a011a40d","system_id":"levelo_inurba_marseille","lat":43.29403,"lon":5.37349,"is_reserved":false,"is_disabled":false,"rental_uris":{"android":"levelo://app?vid=2ef7640c-0ce7-4225-943a-0140a011a40d","ios":"levelo://app?vid=2ef7640c-0ce7-4225-943a-0140a011a40d"},"vehicle_type_id":"4","last_reported":1729015921,"current_range_meters":37600,"station_id":"","pricing_plan_id":"cebpf4jnsgd1na2vs0mg"},{"bike_id":"1ac42a68-86d6-496a-8d08-01bc94c380f6","system_id":"levelo_inurba_marseille","lat":43.25579,"lon":5.38232,"is_reserved":false,"is_disabled":false,"rental_uris":{"android":"levelo://app?vid=1ac42a68-86d6-496a-8d08-01bc94c380f6","ios":"levelo://app?vid=1ac42a68-86d6-496a-8d08-01bc94c380f6"},"vehicle_type_id":"4","last_reported":1729015921,"current_range_meters":12400,"station_id":"ce4bhih2rcd13ifvqfs0","pricing_plan_id":"cebpf4jnsgd1na2vs0mg"},{"bike_id":"679f4f3c-0203-4f7d-9836-538010d8d024","system_id":"levelo_inurba_marseille","lat":43.28039,"lon":5.36938,"is_reserved":false,"is_disabled":false,"rental_uris":{"android":"levelo://app?vid=679f4f3c-0203-4f7d-9836-538010d8d024","ios":"levelo://app?vid=679f4f3c-0203-4f7d-9836-538010d8d024"},"vehicle_type_id":"4","last_reported":1729015921,"current_range_meters":4000,"station_id":"ce4bha12rcd13ifvqef0","pricing_plan_id":"cebpf4jnsgd1na2vs0mg"},{"bike_id":"8c18e7a3-256d-4a3b-b531-a11dc24afda6","system_id":"levelo_inurba_marseille","lat":43.31996,"lon":5.38157,"is_reserved":false,"is_disabled":false,"rental_uris":{"android":"levelo://app?vid=8c18e7a3-256d-4a3b-b531-a11dc24afda6","ios":"levelo://app?vid=8c18e7a3-256d-4a3b-b531-a11dc24afda6"},"vehicle_type_id":"4","last_reported":1729015921,"current_range_meters":24800,"station_id":"ce4bhr12rcd13ifvqhpg","pricing_plan_id":"cebpf4jnsgd1na2vs0mg"},{"bike_id":"89211ee2-076f-4df3-92bd-cd8885f2e76d","system_id":"levelo_inurba_marseille","lat":43.23194,"lon":5.35557,"is_reserved":false,"is_disabled":false,"rental_uris":{"android":"levelo://app?vid=89211ee2-076f-4df3-92bd-cd8885f2e76d","ios":"levelo://app?vid=89211ee2-076f-4df3-92bd-cd8885f2e76d"},"vehicle_type_id":"4","last_reported":1729015921,"current_range_meters":38800,"station_id":"ce4bhu92rcd13ifvqi70","pricing_plan_id":"cebpf4jnsgd1na2vs0mg"},{"bike_id":"9dabbb9f-2820-49db-acc7-73662a324005","system_id":"levelo_inurba_marseille","lat":43.3373,"lon":5.39193,"is_reserved":false,"is_disabled":false,"rental_uris":{"android":"levelo://app?vid=9dabbb9f-2820-49db-acc7-73662a324005","ios":"levelo://app?vid=9dabbb9f-2820-49db-acc7-73662a324005"},"vehicle_type_id":"4","last_reported":1729015921,"current_range_meters":36400,"station_id":"ce4bhr92rcd13ifvqhsg","pricing_plan_id":"cebpf4jnsgd1na2vs0mg"},{"bike_id":"67d0ac64-06f3-48af-94da-d2b625fd04cb","system_id":"levelo_inurba_marseille","lat":43.30645,"lon":5.40094,"is_reserved":false,"is_disabled":false,"rental_uris":{"android":"levelo://app?vid=67d0ac64-06f3-48af-94da-d2b625fd04cb","ios":"levelo://app?vid=67d0ac64-06f3-48af-94da-d2b625fd04cb"},"vehicle_type_id":"4","last_reported":1729015921,"current_range_meters":8800,"station_id":"ce4bh112rcd13ifvqda0","pricing_plan_id":"cebpf4jnsgd1na2vs0mg"},{"bike_id":"f8278ac5-d1d7-48a6-8828-cd0ddbd5e94e","system_id":"levelo_inurba_marseille","lat":43.30804,"lon":5.43522,"is_reserved":false,"is_disabled":false,"rental_uris":{"android":"levelo://app?vid=f8278ac5-d1d7-48a6-8828-cd0ddbd5e94e","ios":"levelo://app?vid=f8278ac5-d1d7-48a6-8828-cd0ddbd5e94e"},"vehicle_type_id":"4","last_reported":1729015921,"current_range_meters":12800,"station_id":"ce4bhph2rcd13ifvqheg","pricing_plan_id":"cebpf4jnsgd1na2vs0mg"},{"bike_id":"be0b2582-0595-477f-ac5c-8caf76aa2a68","system_id":"levelo_inurba_marseille","lat":43.29028,"lon":5.3814,"is_reserved":false,"is_disabled":false,"rental_uris":{"android":"levelo://app?vid=be0b2582-0595-477f-ac5c-8caf76aa2a68","ios":"levelo://app?vid=be0b2582-0595-477f-ac5c-8caf76aa2a68"},"vehicle_type_id":"4","last_reported":1729015921,"current_range_meters":8000,"station_id":"ce4bh4p2rcd13ifvqe1g","pricing_plan_id":"cebpf4jnsgd1na2vs0mg"},{"bike_id":"ef9d215e-361b-477f-a1b0-1299122df054","system_id":"levelo_inurba_marseille","lat":43.30809,"lon":5.37664,"is_reserved":false,"is_disabled":false,"rental_uris":{"android":"levelo://app?vid=ef9d215e-361b-477f-a1b0-1299122df054","ios":"levelo://app?vid=ef9d215e-361b-477f-a1b0-1299122df054"},"vehicle_type_id":"4","last_reported":1729015921,"current_range_meters":10000,"station_id":"ce4bgv92rcd13ifvqcq0","pricing_plan_id":"cebpf4jnsgd1na2vs0mg"},{"bike_id":"3fc98a0d-679c-43e1-97cf-db59376d4f6c","system_id":"levelo_inurba_marseille","lat":43.298006,"lon":5.381065,"is_reserved":false,"is_disabled":false,"rental_uris":{"android":"levelo://app?vid=3fc98a0d-679c-43e1-97cf-db59376d4f6c","ios":"levelo://app?vid=3fc98a0d-679c-43e1-97cf-db59376d4f6c"},"vehicle_type_id":"4","last_reported":1729015921,"current_range_meters":22800,"station_id":"ce4bgip2rcd13ifvqbb0","pricing_plan_id":"cebpf4jnsgd1na2vs0mg"},{"bike_id":"eac8d567-f516-4bec-8ea2-a2c1cab86d1c","system_id":"levelo_inurba_marseille","lat":43.24809,"lon":5.37459,"is_reserved":false,"is_disabled":false,"rental_uris":{"android":"levelo://app?vid=eac8d567-f516-4bec-8ea2-a2c1cab86d1c","ios":"levelo://app?vid=eac8d567-f516-4bec-8ea2-a2c1cab86d1c"},"vehicle_type_id":"4","last_reported":1729015921,"current_range_meters":3200,"station_id":"ce4bhgh2rcd13ifvqfb0","pricing_plan_id":"cebpf4jnsgd1na2vs0mg"},{"bike_id":"9e8c9a33-7ca4-4d0f-92fe-d93bcfd480b6","system_id":"levelo_inurba_marseille","lat":43.28713,"lon":5.39983,"is_reserved":false,"is_disabled":false,"rental_uris":{"android":"levelo://app?vid=9e8c9a33-7ca4-4d0f-92fe-d93bcfd480b6","ios":"levelo://app?vid=9e8c9a33-7ca4-4d0f-92fe-d93bcfd480b6"},"vehicle_type_id":"4","last_reported":1729015921,"current_range_meters":9600,"station_id":"ce4bho92rcd13ifvqh3g","pricing_plan_id":"cebpf4jnsgd1na2vs0mg"},{"bike_id":"c045b3ce-b496-4a5e-9e2c-71d7a620fd88","system_id":"levelo_inurba_marseille","lat":43.27943,"lon":5.41044,"is_reserved":false,"is_disabled":false,"rental_uris":{"android":"levelo://app?vid=c045b3ce-b496-4a5e-9e2c-71d7a620fd88","ios":"levelo://app?vid=c045b3ce-b496-4a5e-9e2c-71d7a620fd88"},"vehicle_type_id":"4","last_reported":1729015921,"current_range_meters":38000,"station_id":"ce4bhnp2rcd13ifvqh0g","pricing_plan_id":"cebpf4jnsgd1na2vs0mg"},{"bike_id":"bfe6236b-33bf-4eaa-8a74-a6587f86e48e","system_id":"levelo_inurba_marseille","lat":43.2583,"lon":5.39431,"is_reserved":false,"is_disabled":false,"rental_uris":{"android":"levelo://app?vid=bfe6236b-33bf-4eaa-8a74-a6587f86e48e","ios":"levelo://app?vid=bfe6236b-33bf-4eaa-8a74-a6587f86e48e"},"vehicle_type_id":"4","last_reported":1729015921,"current_range_meters":28000,"station_id":"ce4bhip2rcd13ifvqft0","pricing_plan_id":"cebpf4jnsgd1na2vs0mg"},{"bike_id":"1643d94e-1263-4403-ae53-d258057220f2","system_id":"levelo_inurba_marseille","lat":43.3133,"lon":5.39695,"is_reserved":false,"is_disabled":false,"rental_uris":{"android":"levelo://app?vid=1643d94e-1263-4403-ae53-d258057220f2","ios":"levelo://app?vid=1643d94e-1263-4403-ae53-d258057220f2"},"vehicle_type_id":"4","last_reported":1729015921,"current_range_meters":35600,"station_id":"ce4bgvp2rcd13ifvqcu0","pricing_plan_id":"cebpf4jnsgd1na2vs0mg"},{"bike_id":"f8d77b39-bc01-46c1-aa48-538d6f07a8c2","system_id":"levelo_inurba_marseille","lat":43.269073,"lon":5.393557,"is_reserved":false,"is_disabled":false,"rental_uris":{"android":"levelo://app?vid=f8d77b39-bc01-46c1-aa48-538d6f07a8c2","ios":"levelo://app?vid=f8d77b39-bc01-46c1-aa48-538d6f07a8c2"},"vehicle_type_id":"4","last_reported":1729015921,"current_range_meters":7200,"station_id":"ce4bhh12rcd13ifvqfg0","pricing_plan_id":"cebpf4jnsgd1na2vs0mg"},{"bike_id":"ff96eee3-1ac8-4888-9ae7-e4b6cc8154af","system_id":"levelo_inurba_marseille","lat":43.33739,"lon":5.3746,"is_reserved":false,"is_disabled":false,"rental_uris":{"android":"levelo://app?vid=ff96eee3-1ac8-4888-9ae7-e4b6cc8154af","ios":"levelo://app?vid=ff96eee3-1ac8-4888-9ae7-e4b6cc8154af"},"vehicle_type_id":"4","last_reported":1729015921,"current_range_meters":32800,"station_id":"","pricing_plan_id":"cebpf4jnsgd1na2vs0mg"},{"bike_id":"5d098c1b-4f61-4fa0-b5bf-29729894a9a0","system_id":"levelo_inurba_marseille","lat":43.31121,"lon":5.37782,"is_reserved":false,"is_disabled":false,"rental_uris":{"android":"levelo://app?vid=5d098c1b-4f61-4fa0-b5bf-29729894a9a0","ios":"levelo://app?vid=5d098c1b-4f61-4fa0-b5bf-29729894a9a0"},"vehicle_type_id":"4","last_reported":1729015921,"current_range_meters":28400,"station_id":"ce4bgt92rcd13ifvqcg0","pricing_plan_id":"cebpf4jnsgd1na2vs0mg"},{"bike_id":"f3441ff6-118e-4184-8319-c9ce42e423a8","system_id":"levelo_inurba_marseille","lat":43.27938,"lon":5.41043,"is_reserved":false,"is_disabled":false,"rental_uris":{"android":"levelo://app?vid=f3441ff6-118e-4184-8319-c9ce42e423a8","ios":"levelo://app?vid=f3441ff6-118e-4184-8319-c9ce42e423a8"},"vehicle_type_id":"4","last_reported":1729015921,"current_range_meters":10800,"station_id":"ce4bhnp2rcd13ifvqh0g","pricing_plan_id":"cebpf4jnsgd1na2vs0mg"},{"bike_id":"e8202789-7ead-41ff-832d-0008c4681d53","system_id":"levelo_inurba_marseille","lat":43.304779,"lon":5.393262,"is_reserved":false,"is_disabled":false,"rental_uris":{"android":"levelo://app?vid=e8202789-7ead-41ff-832d-0008c4681d53","ios":"levelo://app?vid=e8202789-7ead-41ff-832d-0008c4681d53"},"vehicle_type_id":"4","last_reported":1729015921,"current_range_meters":22400,"station_id":"ce4bh0p2rcd13ifvqd80","pricing_plan_id":"cebpf4jnsgd1na2vs0mg"},{"bike_id":"0786b704-414a-43ec-b7d5-64823b75e1ea","system_id":"levelo_inurba_marseille","lat":43.31484,"lon":5.37308,"is_reserved":false,"is_disabled":false,"rental_uris":{"android":"levelo://app?vid=0786b704-414a-43ec-b7d5-64823b75e1ea","ios":"levelo://app?vid=0786b704-414a-43ec-b7d5-64823b75e1ea"},"vehicle_type_id":"4","last_reported":1729015921,"current_range_meters":35600,"station_id":"ce4bgt12rcd13ifvqcd0","pricing_plan_id":"cebpf4jnsgd1na2vs0mg"},{"bike_id":"518eae26-0512-481d-a6d0-d16cfd19fb16","system_id":"levelo_inurba_marseille","lat":43.27814,"lon":5.40716,"is_reserved":false,"is_disabled":false,"rental_uris":{"android":"levelo://app?vid=518eae26-0512-481d-a6d0-d16cfd19fb16","ios":"levelo://app?vid=518eae26-0512-481d-a6d0-d16cfd19fb16"},"vehicle_type_id":"4","last_reported":1729015921,"current_range_meters":12000,"station_id":"ce4bhnh2rcd13ifvqgtg","pricing_plan_id":"cebpf4jnsgd1na2vs0mg"},{"bike_id":"054e8c02-561d-4255-acac-543a7942fc41","system_id":"levelo_inurba_marseille","lat":43.3094,"lon":5.40152,"is_reserved":false,"is_disabled":false,"rental_uris":{"android":"levelo://app?vid=054e8c02-561d-4255-acac-543a7942fc41","ios":"levelo://app?vid=054e8c02-561d-4255-acac-543a7942fc41"},"vehicle_type_id":"4","last_reported":1729015921,"current_range_meters":36000,"station_id":"ce4bgvp2rcd13ifvqct0","pricing_plan_id":"cebpf4jnsgd1na2vs0mg"},{"bike_id":"292b9425-1372-40d4-bf0a-fe57aa779a41","system_id":"levelo_inurba_marseille","lat":43.23063,"lon":5.35495,"is_reserved":false,"is_disabled":false,"rental_uris":{"android":"levelo://app?vid=292b9425-1372-40d4-bf0a-fe57aa779a41","ios":"levelo://app?vid=292b9425-1372-40d4-bf0a-fe57aa779a41"},"vehicle_type_id":"4","last_reported":1729015921,"current_range_meters":32400,"station_id":"cpo3342slgdg3j2ifvpg","pricing_plan_id":"cebpf4jnsgd1na2vs0mg"},{"bike_id":"1f74a76c-14d1-4dc1-b972-9ac6a70ef2fb","system_id":"levelo_inurba_marseille","lat":43.29168,"lon":5.37147,"is_reserved":false,"is_disabled":false,"rental_uris":{"android":"levelo://app?vid=1f74a76c-14d1-4dc1-b972-9ac6a70ef2fb","ios":"levelo://app?vid=1f74a76c-14d1-4dc1-b972-9ac6a70ef2fb"},"vehicle_type_id":"4","last_reported":1729015921,"current_range_meters":28400,"station_id":"ce4bha92rcd13ifvqeh0","pricing_plan_id":"cebpf4jnsgd1na2vs0mg"},{"bike_id":"856b08f5-8899-46f9-8bb5-dc85e1a4fb5f","system_id":"levelo_inurba_marseille","lat":43.2573,"lon":5.4111,"is_reserved":false,"is_disabled":false,"rental_uris":{"android":"levelo://app?vid=856b08f5-8899-46f9-8bb5-dc85e1a4fb5f","ios":"levelo://app?vid=856b08f5-8899-46f9-8bb5-dc85e1a4fb5f"},"vehicle_type_id":"4","last_reported":1729015921,"current_range_meters":7200,"station_id":"ce4bhkp2rcd13ifvqgd0","pricing_plan_id":"cebpf4jnsgd1na2vs0mg"},{"bike_id":"a1636881-5425-4211-a193-ac69af1c8de1","system_id":"levelo_inurba_marseille","lat":43.28072,"lon":5.39658,"is_reserved":false,"is_disabled":false,"rental_uris":{"android":"levelo://app?vid=a1636881-5425-4211-a193-ac69af1c8de1","ios":"levelo://app?vid=a1636881-5425-4211-a193-ac69af1c8de1"},"vehicle_type_id":"4","last_reported":1729015921,"current_range_meters":8000,"station_id":"ce4bho12rcd13ifvqh2g","pricing_plan_id":"cebpf4jnsgd1na2vs0mg"},{"bike_id":"1467b5f0-e01c-410e-a655-52e5d6b83569","system_id":"levelo_inurba_marseille","lat":43.25584,"lon":5.38227,"is_reserved":false,"is_disabled":false,"rental_uris":{"android":"levelo://app?vid=1467b5f0-e01c-410e-a655-52e5d6b83569","ios":"levelo://app?vid=1467b5f0-e01c-410e-a655-52e5d6b83569"},"vehicle_type_id":"4","last_reported":1729015921,"current_range_meters":28800,"station_id":"ce4bhih2rcd13ifvqfs0","pricing_plan_id":"cebpf4jnsgd1na2vs0mg"},{"bike_id":"0fba2274-1686-4a52-a4d4-32596364a9db","system_id":"levelo_inurba_marseille","lat":43.28949,"lon":5.384958,"is_reserved":false,"is_disabled":false,"rental_uris":{"android":"levelo://app?vid=0fba2274-1686-4a52-a4d4-32596364a9db","ios":"levelo://app?vid=0fba2274-1686-4a52-a4d4-32596364a9db"},"vehicle_type_id":"4","last_reported":1729015921,"current_range_meters":6400,"station_id":"ce4bh612rcd13ifvqe6g","pricing_plan_id":"cebpf4jnsgd1na2vs0mg"},{"bike_id":"df7acb4d-6a30-48e5-9f4c-47c90a3a855e","system_id":"levelo_inurba_marseille","lat":43.28452,"lon":5.39207,"is_reserved":false,"is_disabled":false,"rental_uris":{"android":"levelo://app?vid=df7acb4d-6a30-48e5-9f4c-47c90a3a855e","ios":"levelo://app?vid=df7acb4d-6a30-48e5-9f4c-47c90a3a855e"},"vehicle_type_id":"4","last_reported":1729015921,"current_range_meters":19200,"station_id":"ce4bhoh2rcd13ifvqh5g","pricing_plan_id":"cebpf4jnsgd1na2vs0mg"},{"bike_id":"d06f24f3-1961-4c39-8b26-c72733863fe9","system_id":"levelo_inurba_marseille","lat":43.33781,"lon":5.37443,"is_reserved":false,"is_disabled":false,"rental_uris":{"android":"levelo://app?vid=d06f24f3-1961-4c39-8b26-c72733863fe9","ios":"levelo://app?vid=d06f24f3-1961-4c39-8b26-c72733863fe9"},"vehicle_type_id":"4","last_reported":1729015921,"current_range_meters":23200,"station_id":"","pricing_plan_id":"cebpf4jnsgd1na2vs0mg"},{"bike_id":"5887ec65-3f99-434d-8da7-2af26f4bedab","system_id":"levelo_inurba_marseille","lat":43.29261,"lon":5.38449,"is_reserved":false,"is_disabled":false,"rental_uris":{"android":"levelo://app?vid=5887ec65-3f99-434d-8da7-2af26f4bedab","ios":"levelo://app?vid=5887ec65-3f99-434d-8da7-2af26f4bedab"},"vehicle_type_id":"4","last_reported":1729015921,"current_range_meters":38000,"station_id":"","pricing_plan_id":"cebpf4jnsgd1na2vs0mg"},{"bike_id":"d8837560-8cf0-4149-b209-b0c74822ec61","system_id":"levelo_inurba_marseille","lat":43.29031,"lon":5.37576,"is_reserved":false,"is_disabled":false,"rental_uris":{"android":"levelo://app?vid=d8837560-8cf0-4149-b209-b0c74822ec61","ios":"levelo://app?vid=d8837560-8cf0-4149-b209-b0c74822ec61"},"vehicle_type_id":"4","last_reported":1729015921,"current_range_meters":14400,"station_id":"ce4bh692rcd13ifvqe90","pricing_plan_id":"cebpf4jnsgd1na2vs0mg"},{"bike_id":"d41309ab-1a1f-4395-acaa-455483c3f8e1","system_id":"levelo_inurba_marseille","lat":43.23195,"lon":5.3555,"is_reserved":false,"is_disabled":false,"rental_uris":{"android":"levelo://app?vid=d41309ab-1a1f-4395-acaa-455483c3f8e1","ios":"levelo://app?vid=d41309ab-1a1f-4395-acaa-455483c3f8e1"},"vehicle_type_id":"4","last_reported":1729015921,"current_range_meters":31200,"station_id":"ce4bhu92rcd13ifvqi70","pricing_plan_id":"cebpf4jnsgd1na2vs0mg"},{"bike_id":"5d1bbf07-be06-486d-96b4-18965eb35a15","system_id":"levelo_inurba_marseille","lat":43.25137,"lon":5.40314,"is_reserved":false,"is_disabled":false,"rental_uris":{"android":"levelo://app?vid=5d1bbf07-be06-486d-96b4-18965eb35a15","ios":"levelo://app?vid=5d1bbf07-be06-486d-96b4-18965eb35a15"},"vehicle_type_id":"4","last_reported":1729015921,"current_range_meters":5600,"station_id":"ce4bhdp2rcd13ifvqf20","pricing_plan_id":"cebpf4jnsgd1na2vs0mg"},{"bike_id":"d4601cdd-feea-4d38-b440-5a9dcff1e71d","system_id":"levelo_inurba_marseille","lat":43.24076,"lon":5.3776,"is_reserved":false,"is_disabled":false,"rental_uris":{"android":"levelo://app?vid=d4601cdd-feea-4d38-b440-5a9dcff1e71d","ios":"levelo://app?vid=d4601cdd-feea-4d38-b440-5a9dcff1e71d"},"vehicle_type_id":"4","last_reported":1729015921,"current_range_meters":22000,"station_id":"ce4bhnp2rcd13ifvqgvg","pricing_plan_id":"cebpf4jnsgd1na2vs0mg"},{"bike_id":"7de988fb-5340-41cc-ab66-ffb70f15913e","system_id":"levelo_inurba_marseille","lat":43.23966,"lon":5.36627,"is_reserved":false,"is_disabled":false,"rental_uris":{"android":"levelo://app?vid=7de988fb-5340-41cc-ab66-ffb70f15913e","ios":"levelo://app?vid=7de988fb-5340-41cc-ab66-ffb70f15913e"},"vehicle_type_id":"4","last_reported":1729015921,"current_range_meters":17200,"station_id":"ce4bhi12rcd13ifvqfp0","pricing_plan_id":"cebpf4jnsgd1na2vs0mg"},{"bike_id":"966757e2-67f3-4d10-b8ac-3a83eb5852c8","system_id":"levelo_inurba_marseille","lat":43.3133,"lon":5.39688,"is_reserved":false,"is_disabled":false,"rental_uris":{"android":"levelo://app?vid=966757e2-67f3-4d10-b8ac-3a83eb5852c8","ios":"levelo://app?vid=966757e2-67f3-4d10-b8ac-3a83eb5852c8"},"vehicle_type_id":"4","last_reported":1729015921,"current_range_meters":22000,"station_id":"ce4bgvp2rcd13ifvqcu0","pricing_plan_id":"cebpf4jnsgd1na2vs0mg"},{"bike_id":"14b281a6-bf9b-4b83-8d28-8292c90a1a0d","system_id":"levelo_inurba_marseille","lat":43.28087,"lon":5.40369,"is_reserved":false,"is_disabled":false,"rental_uris":{"android":"levelo://app?vid=14b281a6-bf9b-4b83-8d28-8292c90a1a0d","ios":"levelo://app?vid=14b281a6-bf9b-4b83-8d28-8292c90a1a0d"},"vehicle_type_id":"4","last_reported":1729015921,"current_range_meters":30000,"station_id":"ce4bhnh2rcd13ifvqgtg","pricing_plan_id":"cebpf4jnsgd1na2vs0mg"},{"bike_id":"1af2813b-98a0-4b62-aaf8-89652b30f639","system_id":"levelo_inurba_marseille","lat":43.22933,"lon":5.35381,"is_reserved":false,"is_disabled":false,"rental_uris":{"android":"levelo://app?vid=1af2813b-98a0-4b62-aaf8-89652b30f639","ios":"levelo://app?vid=1af2813b-98a0-4b62-aaf8-89652b30f639"},"vehicle_type_id":"4","last_reported":1729015921,"current_range_meters":28800,"station_id":"cpo3532slgdg3j2ikp40","pricing_plan_id":"cebpf4jnsgd1na2vs0mg"},{"bike_id":"c5af4ecd-4e19-4991-8d5d-6c1027d6164f","system_id":"levelo_inurba_marseille","lat":43.30798,"lon":5.4353,"is_reserved":false,"is_disabled":false,"rental_uris":{"android":"levelo://app?vid=c5af4ecd-4e19-4991-8d5d-6c1027d6164f","ios":"levelo://app?vid=c5af4ecd-4e19-4991-8d5d-6c1027d6164f"},"vehicle_type_id":"4","last_reported":1729015921,"current_range_meters":16000,"station_id":"ce4bhph2rcd13ifvqheg","pricing_plan_id":"cebpf4jnsgd1na2vs0mg"},{"bike_id":"f93454e1-a669-4c63-a4ca-b572042c7971","system_id":"levelo_inurba_marseille","lat":43.23192,"lon":5.35558,"is_reserved":false,"is_disabled":false,"rental_uris":{"android":"levelo://app?vid=f93454e1-a669-4c63-a4ca-b572042c7971","ios":"levelo://app?vid=f93454e1-a669-4c63-a4ca-b572042c7971"},"vehicle_type_id":"4","last_reported":1729015921,"current_range_meters":24800,"station_id":"ce4bhu92rcd13ifvqi70","pricing_plan_id":"cebpf4jnsgd1na2vs0mg"},{"bike_id":"968e7e53-2dd7-4e02-bc3a-1d0447008087","system_id":"levelo_inurba_marseille","lat":43.25582,"lon":5.38245,"is_reserved":false,"is_disabled":false,"rental_uris":{"android":"levelo://app?vid=968e7e53-2dd7-4e02-bc3a-1d0447008087","ios":"levelo://app?vid=968e7e53-2dd7-4e02-bc3a-1d0447008087"},"vehicle_type_id":"4","last_reported":1729015921,"current_range_meters":7200,"station_id":"ce4bhih2rcd13ifvqfs0","pricing_plan_id":"cebpf4jnsgd1na2vs0mg"},{"bike_id":"32a94ebc-8938-4639-9212-9af60d3a4f59","system_id":"levelo_inurba_marseille","lat":43.25576,"lon":5.38235,"is_reserved":false,"is_disabled":false,"rental_uris":{"android":"levelo://app?vid=32a94ebc-8938-4639-9212-9af60d3a4f59","ios":"levelo://app?vid=32a94ebc-8938-4639-9212-9af60d3a4f59"},"vehicle_type_id":"4","last_reported":1729015921,"current_range_meters":3200,"station_id":"ce4bhih2rcd13ifvqfs0","pricing_plan_id":"cebpf4jnsgd1na2vs0mg"},{"bike_id":"3577d11b-9357-4cac-ad94-5d110db8dacc","system_id":"levelo_inurba_marseille","lat":43.260533,"lon":5.393943,"is_reserved":false,"is_disabled":false,"rental_uris":{"android":"levelo://app?vid=3577d11b-9357-4cac-ad94-5d110db8dacc","ios":"levelo://app?vid=3577d11b-9357-4cac-ad94-5d110db8dacc"},"vehicle_type_id":"4","last_reported":1729015921,"current_range_meters":9600,"station_id":"ce4bhh92rcd13ifvqfj0","pricing_plan_id":"cebpf4jnsgd1na2vs0mg"},{"bike_id":"424d0a4d-b8ce-43ee-925c-888f9923bf67","system_id":"levelo_inurba_marseille","lat":43.2871,"lon":5.39988,"is_reserved":false,"is_disabled":false,"rental_uris":{"android":"levelo://app?vid=424d0a4d-b8ce-43ee-925c-888f9923bf67","ios":"levelo://app?vid=424d0a4d-b8ce-43ee-925c-888f9923bf67"},"vehicle_type_id":"4","last_reported":1729015921,"current_range_meters":36800,"station_id":"ce4bho92rcd13ifvqh3g","pricing_plan_id":"cebpf4jnsgd1na2vs0mg"},{"bike_id":"f064afbf-a426-445a-ad85-2e2117f9c16b","system_id":"levelo_inurba_marseille","lat":43.29536,"lon":5.38549,"is_reserved":false,"is_disabled":false,"rental_uris":{"android":"levelo://app?vid=f064afbf-a426-445a-ad85-2e2117f9c16b","ios":"levelo://app?vid=f064afbf-a426-445a-ad85-2e2117f9c16b"},"vehicle_type_id":"4","last_reported":1729015921,"current_range_meters":34000,"station_id":"ce4bgih2rcd13ifvqba0","pricing_plan_id":"cebpf4jnsgd1na2vs0mg"},{"bike_id":"167a3dcd-afcd-457e-8998-67360ace43c0","system_id":"levelo_inurba_marseille","lat":43.3375,"lon":5.37436,"is_reserved":false,"is_disabled":false,"rental_uris":{"android":"levelo://app?vid=167a3dcd-afcd-457e-8998-67360ace43c0","ios":"levelo://app?vid=167a3dcd-afcd-457e-8998-67360ace43c0"},"vehicle_type_id":"4","last_reported":1729015921,"current_range_meters":33200,"station_id":"","pricing_plan_id":"cebpf4jnsgd1na2vs0mg"},{"bike_id":"24659051-507c-455a-85a0-7624c9b67453","system_id":"levelo_inurba_marseille","lat":43.30647,"lon":5.40079,"is_reserved":false,"is_disabled":false,"rental_uris":{"android":"levelo://app?vid=24659051-507c-455a-85a0-7624c9b67453","ios":"levelo://app?vid=24659051-507c-455a-85a0-7624c9b67453"},"vehicle_type_id":"4","last_reported":1729015921,"current_range_meters":4000,"station_id":"ce4bh112rcd13ifvqda0","pricing_plan_id":"cebpf4jnsgd1na2vs0mg"},{"bike_id":"f3d27077-0b38-4d3c-9d61-111cf8901775","system_id":"levelo_inurba_marseille","lat":43.27943,"lon":5.41047,"is_reserved":false,"is_disabled":false,"rental_uris":{"android":"levelo://app?vid=f3d27077-0b38-4d3c-9d61-111cf8901775","ios":"levelo://app?vid=f3d27077-0b38-4d3c-9d61-111cf8901775"},"vehicle_type_id":"4","last_reported":1729015921,"current_range_meters":8400,"station_id":"ce4bhnp2rcd13ifvqh0g","pricing_plan_id":"cebpf4jnsgd1na2vs0mg"},{"bike_id":"2ae7cb6e-e949-4f32-b410-0e62af4ecc02","system_id":"levelo_inurba_marseille","lat":43.23179,"lon":5.39987,"is_reserved":false,"is_disabled":false,"rental_uris":{"android":"levelo://app?vid=2ae7cb6e-e949-4f32-b410-0e62af4ecc02","ios":"levelo://app?vid=2ae7cb6e-e949-4f32-b410-0e62af4ecc02"},"vehicle_type_id":"4","last_reported":1729015921,"current_range_meters":28000,"station_id":"ce4bhn12rcd13ifvqgqg","pricing_plan_id":"cebpf4jnsgd1na2vs0mg"},{"bike_id":"5dd67e89-1c2d-4572-aaba-bad086a52081","system_id":"levelo_inurba_marseille","lat":43.29603,"lon":5.381,"is_reserved":false,"is_disabled":false,"rental_uris":{"android":"levelo://app?vid=5dd67e89-1c2d-4572-aaba-bad086a52081","ios":"levelo://app?vid=5dd67e89-1c2d-4572-aaba-bad086a52081"},"vehicle_type_id":"4","last_reported":1729015921,"current_range_meters":27600,"station_id":"ce4bgl12rcd13ifvqbo0","pricing_plan_id":"cebpf4jnsgd1na2vs0mg"},{"bike_id":"d0b06fe2-4e24-454b-8cab-da62e6dcc068","system_id":"levelo_inurba_marseille","lat":43.3191,"lon":5.37947,"is_reserved":false,"is_disabled":false,"rental_uris":{"android":"levelo://app?vid=d0b06fe2-4e24-454b-8cab-da62e6dcc068","ios":"levelo://app?vid=d0b06fe2-4e24-454b-8cab-da62e6dcc068"},"vehicle_type_id":"4","last_reported":1729015921,"current_range_meters":30800,"station_id":"ce4bhr12rcd13ifvqhqg","pricing_plan_id":"cebpf4jnsgd1na2vs0mg"},{"bike_id":"09b06658-645c-4a83-9f73-471b8ff3dbe6","system_id":"levelo_inurba_marseille","lat":43.32342,"lon":5.40615,"is_reserved":false,"is_disabled":false,"rental_uris":{"android":"levelo://app?vid=09b06658-645c-4a83-9f73-471b8ff3dbe6","ios":"levelo://app?vid=09b06658-645c-4a83-9f73-471b8ff3dbe6"},"vehicle_type_id":"4","last_reported":1729015921,"current_range_meters":22400,"station_id":"ce4bhq92rcd13ifvqhjg","pricing_plan_id":"cebpf4jnsgd1na2vs0mg"},{"bike_id":"1b87c42d-7c50-4b92-8a66-53344aea6fcd","system_id":"levelo_inurba_marseille","lat":43.29896,"lon":5.4367,"is_reserved":false,"is_disabled":false,"rental_uris":{"android":"levelo://app?vid=1b87c42d-7c50-4b92-8a66-53344aea6fcd","ios":"levelo://app?vid=1b87c42d-7c50-4b92-8a66-53344aea6fcd"},"vehicle_type_id":"4","last_reported":1729015921,"current_range_meters":26800,"station_id":"ce4bhpp2rcd13ifvqhfg","pricing_plan_id":"cebpf4jnsgd1na2vs0mg"},{"bike_id":"176c51f8-dbe6-4a14-9671-48f1da4ce89a","system_id":"levelo_inurba_marseille","lat":43.2803,"lon":5.36952,"is_reserved":false,"is_disabled":false,"rental_uris":{"android":"levelo://app?vid=176c51f8-dbe6-4a14-9671-48f1da4ce89a","ios":"levelo://app?vid=176c51f8-dbe6-4a14-9671-48f1da4ce89a"},"vehicle_type_id":"4","last_reported":1729015921,"current_range_meters":6800,"station_id":"ce4bha12rcd13ifvqef0","pricing_plan_id":"cebpf4jnsgd1na2vs0mg"},{"bike_id":"4ee0d569-bf1a-4724-a6a4-7bffc8b0bc6e","system_id":"levelo_inurba_marseille","lat":43.2856,"lon":5.39489,"is_reserved":false,"is_disabled":false,"rental_uris":{"android":"levelo://app?vid=4ee0d569-bf1a-4724-a6a4-7bffc8b0bc6e","ios":"levelo://app?vid=4ee0d569-bf1a-4724-a6a4-7bffc8b0bc6e"},"vehicle_type_id":"4","last_reported":1729015921,"current_range_meters":10800,"station_id":"ce4bh292rcd13ifvqdg0","pricing_plan_id":"cebpf4jnsgd1na2vs0mg"},{"bike_id":"24d35238-2fa7-4fd0-873f-edfdf1f33d95","system_id":"levelo_inurba_marseille","lat":43.31507,"lon":5.4207,"is_reserved":false,"is_disabled":false,"rental_uris":{"android":"levelo://app?vid=24d35238-2fa7-4fd0-873f-edfdf1f33d95","ios":"levelo://app?vid=24d35238-2fa7-4fd0-873f-edfdf1f33d95"},"vehicle_type_id":"4","last_reported":1729015921,"current_range_meters":30400,"station_id":"ce4bhp92rcd13ifvqhbg","pricing_plan_id":"cebpf4jnsgd1na2vs0mg"},{"bike_id":"f4a35381-3d0c-4801-bd6d-7b3f956fc11a","system_id":"levelo_inurba_marseille","lat":43.27058,"lon":5.40267,"is_reserved":false,"is_disabled":false,"rental_uris":{"android":"levelo://app?vid=f4a35381-3d0c-4801-bd6d-7b3f956fc11a","ios":"levelo://app?vid=f4a35381-3d0c-4801-bd6d-7b3f956fc11a"},"vehicle_type_id":"4","last_reported":1729015921,"current_range_meters":16400,"station_id":"ce4bhk92rcd13ifvqgc0","pricing_plan_id":"cebpf4jnsgd1na2vs0mg"},{"bike_id":"ec118f6a-fcc0-41a9-94fc-dd12b675b87d","system_id":"levelo_inurba_marseille","lat":43.31332,"lon":5.39687,"is_reserved":false,"is_disabled":false,"rental_uris":{"android":"levelo://app?vid=ec118f6a-fcc0-41a9-94fc-dd12b675b87d","ios":"levelo://app?vid=ec118f6a-fcc0-41a9-94fc-dd12b675b87d"},"vehicle_type_id":"4","last_reported":1729015921,"current_range_meters":6000,"station_id":"ce4bgvp2rcd13ifvqcu0","pricing_plan_id":"cebpf4jnsgd1na2vs0mg"},{"bike_id":"c94d3112-017a-46fc-86b5-6a58beef3113","system_id":"levelo_inurba_marseille","lat":43.31756,"lon":5.39012,"is_reserved":false,"is_disabled":false,"rental_uris":{"android":"levelo://app?vid=c94d3112-017a-46fc-86b5-6a58beef3113","ios":"levelo://app?vid=c94d3112-017a-46fc-86b5-6a58beef3113"},"vehicle_type_id":"4","last_reported":1729015921,"current_range_meters":39200,"station_id":"ce4bhqp2rcd13ifvqhng","pricing_plan_id":"cebpf4jnsgd1na2vs0mg"},{"bike_id":"c488208a-db91-4fcd-9415-940c98075649","system_id":"levelo_inurba_marseille","lat":43.28359,"lon":5.38632,"is_reserved":false,"is_disabled":false,"rental_uris":{"android":"levelo://app?vid=c488208a-db91-4fcd-9415-940c98075649","ios":"levelo://app?vid=c488208a-db91-4fcd-9415-940c98075649"},"vehicle_type_id":"4","last_reported":1729015921,"current_range_meters":38000,"station_id":"ce4bh492rcd13ifvqdvg","pricing_plan_id":"cebpf4jnsgd1na2vs0mg"},{"bike_id":"f269126c-1b0b-4a1a-a1d6-f8c3716f5336","system_id":"levelo_inurba_marseille","lat":43.23197,"lon":5.35554,"is_reserved":false,"is_disabled":false,"rental_uris":{"android":"levelo://app?vid=f269126c-1b0b-4a1a-a1d6-f8c3716f5336","ios":"levelo://app?vid=f269126c-1b0b-4a1a-a1d6-f8c3716f5336"},"vehicle_type_id":"4","last_reported":1729015921,"current_range_meters":32000,"station_id":"ce4bhu92rcd13ifvqi70","pricing_plan_id":"cebpf4jnsgd1na2vs0mg"},{"bike_id":"0abcde0b-4ba0-42f6-aa8f-f61d2411481e","system_id":"levelo_inurba_marseille","lat":43.28416,"lon":5.34989,"is_reserved":false,"is_disabled":false,"rental_uris":{"android":"levelo://app?vid=0abcde0b-4ba0-42f6-aa8f-f61d2411481e","ios":"levelo://app?vid=0abcde0b-4ba0-42f6-aa8f-f61d2411481e"},"vehicle_type_id":"4","last_reported":1729015921,"current_range_meters":4000,"station_id":"ce4bhbh2rcd13ifvqepg","pricing_plan_id":"cebpf4jnsgd1na2vs0mg"},{"bike_id":"3064e5e9-de54-44b9-9eb7-6c03ac9cf33b","system_id":"levelo_inurba_marseille","lat":43.33023,"lon":5.39044,"is_reserved":false,"is_disabled":false,"rental_uris":{"android":"levelo://app?vid=3064e5e9-de54-44b9-9eb7-6c03ac9cf33b","ios":"levelo://app?vid=3064e5e9-de54-44b9-9eb7-6c03ac9cf33b"},"vehicle_type_id":"4","last_reported":1729015921,"current_range_meters":28800,"station_id":"ce4bhr92rcd13ifvqhrg","pricing_plan_id":"cebpf4jnsgd1na2vs0mg"},{"bike_id":"7c23cf5e-72fb-4ec7-9ed8-d7aa514c03ee","system_id":"levelo_inurba_marseille","lat":43.28926,"lon":5.38397,"is_reserved":false,"is_disabled":false,"rental_uris":{"android":"levelo://app?vid=7c23cf5e-72fb-4ec7-9ed8-d7aa514c03ee","ios":"levelo://app?vid=7c23cf5e-72fb-4ec7-9ed8-d7aa514c03ee"},"vehicle_type_id":"4","last_reported":1729015921,"current_range_meters":29600,"station_id":"ce4bh612rcd13ifvqe6g","pricing_plan_id":"cebpf4jnsgd1na2vs0mg"},{"bike_id":"46fcab4d-4e56-4221-9ae6-90f2d1ecb826","system_id":"levelo_inurba_marseille","lat":43.26802,"lon":5.40269,"is_reserved":false,"is_disabled":false,"rental_uris":{"android":"levelo://app?vid=46fcab4d-4e56-4221-9ae6-90f2d1ecb826","ios":"levelo://app?vid=46fcab4d-4e56-4221-9ae6-90f2d1ecb826"},"vehicle_type_id":"4","last_reported":1729015921,"current_range_meters":17200,"station_id":"ce501612rcd8frsf0b60","pricing_plan_id":"cebpf4jnsgd1na2vs0mg"},{"bike_id":"b6a13d35-57ac-4d7b-b87a-4e69f460021d","system_id":"levelo_inurba_marseille","lat":43.33723,"lon":5.39181,"is_reserved":false,"is_disabled":false,"rental_uris":{"android":"levelo://app?vid=b6a13d35-57ac-4d7b-b87a-4e69f460021d","ios":"levelo://app?vid=b6a13d35-57ac-4d7b-b87a-4e69f460021d"},"vehicle_type_id":"4","last_reported":1729015921,"current_range_meters":13600,"station_id":"ce4bhr92rcd13ifvqhsg","pricing_plan_id":"cebpf4jnsgd1na2vs0mg"},{"bike_id":"94d48054-be54-488d-a425-2deb433f452c","system_id":"levelo_inurba_marseille","lat":43.29802,"lon":5.36445,"is_reserved":false,"is_disabled":false,"rental_uris":{"android":"levelo://app?vid=94d48054-be54-488d-a425-2deb433f452c","ios":"levelo://app?vid=94d48054-be54-488d-a425-2deb433f452c"},"vehicle_type_id":"4","last_reported":1729015921,"current_range_meters":24000,"station_id":"ce4bgnh2rcd13ifvqc0g","pricing_plan_id":"cebpf4jnsgd1na2vs0mg"},{"bike_id":"59dcc94b-19ea-42f7-a43c-42e31637a570","system_id":"levelo_inurba_marseille","lat":43.29686,"lon":5.37287,"is_reserved":false,"is_disabled":false,"rental_uris":{"android":"levelo://app?vid=59dcc94b-19ea-42f7-a43c-42e31637a570","ios":"levelo://app?vid=59dcc94b-19ea-42f7-a43c-42e31637a570"},"vehicle_type_id":"4","last_reported":1729015921,"current_range_meters":38800,"station_id":"ce4bgk12rcd13ifvqbj0","pricing_plan_id":"cebpf4jnsgd1na2vs0mg"},{"bike_id":"9645dc6d-bd7c-41ba-b741-da969e8d4140","system_id":"levelo_inurba_marseille","lat":43.26805,"lon":5.40275,"is_reserved":false,"is_disabled":false,"rental_uris":{"android":"levelo://app?vid=9645dc6d-bd7c-41ba-b741-da969e8d4140","ios":"levelo://app?vid=9645dc6d-bd7c-41ba-b741-da969e8d4140"},"vehicle_type_id":"4","last_reported":1729015921,"current_range_meters":28400,"station_id":"ce501612rcd8frsf0b60","pricing_plan_id":"cebpf4jnsgd1na2vs0mg"},{"bike_id":"47681c4d-203d-49ec-bbd9-2abc4b3522db","system_id":"levelo_inurba_marseille","lat":43.28695,"lon":5.37397,"is_reserved":false,"is_disabled":false,"rental_uris":{"android":"levelo://app?vid=47681c4d-203d-49ec-bbd9-2abc4b3522db","ios":"levelo://app?vid=47681c4d-203d-49ec-bbd9-2abc4b3522db"},"vehicle_type_id":"4","last_reported":1729015921,"current_range_meters":23200,"station_id":"ce4bh3p2rcd13ifvqdq0","pricing_plan_id":"cebpf4jnsgd1na2vs0mg"},{"bike_id":"1616c9ce-4d58-4b41-a0ce-686df9d6f698","system_id":"levelo_inurba_marseille","lat":43.27814,"lon":5.40726,"is_reserved":false,"is_disabled":false,"rental_uris":{"android":"levelo://app?vid=1616c9ce-4d58-4b41-a0ce-686df9d6f698","ios":"levelo://app?vid=1616c9ce-4d58-4b41-a0ce-686df9d6f698"},"vehicle_type_id":"4","last_reported":1729015921,"current_range_meters":18000,"station_id":"ce4bhnh2rcd13ifvqgtg","pricing_plan_id":"cebpf4jnsgd1na2vs0mg"},{"bike_id":"47aad419-1e35-49b5-a22d-b89c2caf87fc","system_id":"levelo_inurba_marseille","lat":43.2894,"lon":5.36641,"is_reserved":false,"is_disabled":false,"rental_uris":{"android":"levelo://app?vid=47aad419-1e35-49b5-a22d-b89c2caf87fc","ios":"levelo://app?vid=47aad419-1e35-49b5-a22d-b89c2caf87fc"},"vehicle_type_id":"4","last_reported":1729015921,"current_range_meters":4000,"station_id":"ce4bhap2rcd13ifvqek0","pricing_plan_id":"cebpf4jnsgd1na2vs0mg"},{"bike_id":"ceead72c-690a-4ab1-a206-118046b15aa6","system_id":"levelo_inurba_marseille","lat":43.30952,"lon":5.39034,"is_reserved":false,"is_disabled":false,"rental_uris":{"android":"levelo://app?vid=ceead72c-690a-4ab1-a206-118046b15aa6","ios":"levelo://app?vid=ceead72c-690a-4ab1-a206-118046b15aa6"},"vehicle_type_id":"4","last_reported":1729015921,"current_range_meters":33600,"station_id":"ce4bgup2rcd13ifvqco0","pricing_plan_id":"cebpf4jnsgd1na2vs0mg"},{"bike_id":"98a793b2-e0d8-41e6-8de8-242dae209b51","system_id":"levelo_inurba_marseille","lat":43.27568,"lon":5.38417,"is_reserved":false,"is_disabled":false,"rental_uris":{"android":"levelo://app?vid=98a793b2-e0d8-41e6-8de8-242dae209b51","ios":"levelo://app?vid=98a793b2-e0d8-41e6-8de8-242dae209b51"},"vehicle_type_id":"4","last_reported":1729015921,"current_range_meters":38800,"station_id":"ce4bhh92rcd13ifvqfi0","pricing_plan_id":"cebpf4jnsgd1na2vs0mg"},{"bike_id":"2ada95fd-848c-4a5e-8e88-6d31259a0836","system_id":"levelo_inurba_marseille","lat":43.28152,"lon":5.42641,"is_reserved":false,"is_disabled":false,"rental_uris":{"android":"levelo://app?vid=2ada95fd-848c-4a5e-8e88-6d31259a0836","ios":"levelo://app?vid=2ada95fd-848c-4a5e-8e88-6d31259a0836"},"vehicle_type_id":"4","last_reported":1729015921,"current_range_meters":8800,"station_id":"ce4bhnh2rcd13ifvqgug","pricing_plan_id":"cebpf4jnsgd1na2vs0mg"},{"bike_id":"5b3122cf-ff3b-40f7-a2bc-97e6b6a0ad89","system_id":"levelo_inurba_marseille","lat":43.28151,"lon":5.42636,"is_reserved":false,"is_disabled":false,"rental_uris":{"android":"levelo://app?vid=5b3122cf-ff3b-40f7-a2bc-97e6b6a0ad89","ios":"levelo://app?vid=5b3122cf-ff3b-40f7-a2bc-97e6b6a0ad89"},"vehicle_type_id":"4","last_reported":1729015921,"current_range_meters":24800,"station_id":"ce4bhnh2rcd13ifvqgug","pricing_plan_id":"cebpf4jnsgd1na2vs0mg"},{"bike_id":"64eb2e86-e3ce-4686-9988-7faf22f5a551","system_id":"levelo_inurba_marseille","lat":43.29098,"lon":5.38154,"is_reserved":false,"is_disabled":false,"rental_uris":{"android":"levelo://app?vid=64eb2e86-e3ce-4686-9988-7faf22f5a551","ios":"levelo://app?vid=64eb2e86-e3ce-4686-9988-7faf22f5a551"},"vehicle_type_id":"4","last_reported":1729015921,"current_range_meters":18000,"station_id":"ce4bh512rcd13ifvqe2g","pricing_plan_id":"cebpf4jnsgd1na2vs0mg"},{"bike_id":"4ad59948-bc80-42b4-a21a-cd8fca8ce2b3","system_id":"levelo_inurba_marseille","lat":43.25811,"lon":5.3943,"is_reserved":false,"is_disabled":false,"rental_uris":{"android":"levelo://app?vid=4ad59948-bc80-42b4-a21a-cd8fca8ce2b3","ios":"levelo://app?vid=4ad59948-bc80-42b4-a21a-cd8fca8ce2b3"},"vehicle_type_id":"4","last_reported":1729015921,"current_range_meters":8000,"station_id":"ce4bhip2rcd13ifvqft0","pricing_plan_id":"cebpf4jnsgd1na2vs0mg"},{"bike_id":"4c2ad218-3376-4c8d-a2dc-242cea76473c","system_id":"levelo_inurba_marseille","lat":43.31481,"lon":5.37305,"is_reserved":false,"is_disabled":false,"rental_uris":{"android":"levelo://app?vid=4c2ad218-3376-4c8d-a2dc-242cea76473c","ios":"levelo://app?vid=4c2ad218-3376-4c8d-a2dc-242cea76473c"},"vehicle_type_id":"4","last_reported":1729015921,"current_range_meters":27200,"station_id":"ce4bgt12rcd13ifvqcd0","pricing_plan_id":"cebpf4jnsgd1na2vs0mg"},{"bike_id":"0e41df3a-0ace-488c-be65-6a9fd2305448","system_id":"levelo_inurba_marseille","lat":43.33756,"lon":5.37448,"is_reserved":false,"is_disabled":false,"rental_uris":{"android":"levelo://app?vid=0e41df3a-0ace-488c-be65-6a9fd2305448","ios":"levelo://app?vid=0e41df3a-0ace-488c-be65-6a9fd2305448"},"vehicle_type_id":"4","last_reported":1729015921,"current_range_meters":34000,"station_id":"","pricing_plan_id":"cebpf4jnsgd1na2vs0mg"},{"bike_id":"8c5071c8-07b0-4889-acf2-9d404ac5c408","system_id":"levelo_inurba_marseille","lat":43.25083,"lon":5.39525,"is_reserved":false,"is_disabled":false,"rental_uris":{"android":"levelo://app?vid=8c5071c8-07b0-4889-acf2-9d404ac5c408","ios":"levelo://app?vid=8c5071c8-07b0-4889-acf2-9d404ac5c408"},"vehicle_type_id":"4","last_reported":1729015921,"current_range_meters":6000,"station_id":"ce4bhm12rcd13ifvqgkg","pricing_plan_id":"cebpf4jnsgd1na2vs0mg"},{"bike_id":"f5375934-cd8b-4032-9a73-420f23370f32","system_id":"levelo_inurba_marseille","lat":43.2572,"lon":5.41118,"is_reserved":false,"is_disabled":false,"rental_uris":{"android":"levelo://app?vid=f5375934-cd8b-4032-9a73-420f23370f32","ios":"levelo://app?vid=f5375934-cd8b-4032-9a73-420f23370f32"},"vehicle_type_id":"4","last_reported":1729015921,"current_range_meters":8800,"station_id":"ce4bhkp2rcd13ifvqgd0","pricing_plan_id":"cebpf4jnsgd1na2vs0mg"},{"bike_id":"3f1c159c-d37b-4e8a-ae8c-e506cb896f7a","system_id":"levelo_inurba_marseille","lat":43.30787,"lon":5.37644,"is_reserved":false,"is_disabled":false,"rental_uris":{"android":"levelo://app?vid=3f1c159c-d37b-4e8a-ae8c-e506cb896f7a","ios":"levelo://app?vid=3f1c159c-d37b-4e8a-ae8c-e506cb896f7a"},"vehicle_type_id":"4","last_reported":1729015921,"current_range_meters":39200,"station_id":"ce4bgv92rcd13ifvqcq0","pricing_plan_id":"cebpf4jnsgd1na2vs0mg"},{"bike_id":"20e157b9-e3ea-4f3e-932a-40a73d4d2734","system_id":"levelo_inurba_marseille","lat":43.23179,"lon":5.39993,"is_reserved":false,"is_disabled":false,"rental_uris":{"android":"levelo://app?vid=20e157b9-e3ea-4f3e-932a-40a73d4d2734","ios":"levelo://app?vid=20e157b9-e3ea-4f3e-932a-40a73d4d2734"},"vehicle_type_id":"4","last_reported":1729015921,"current_range_meters":10000,"station_id":"ce4bhn12rcd13ifvqgqg","pricing_plan_id":"cebpf4jnsgd1na2vs0mg"},{"bike_id":"e7838990-26eb-492c-ac63-2a965bc41037","system_id":"levelo_inurba_marseille","lat":43.32265,"lon":5.38941,"is_reserved":false,"is_disabled":false,"rental_uris":{"android":"levelo://app?vid=e7838990-26eb-492c-ac63-2a965bc41037","ios":"levelo://app?vid=e7838990-26eb-492c-ac63-2a965bc41037"},"vehicle_type_id":"4","last_reported":1729015921,"current_range_meters":20000,"station_id":"","pricing_plan_id":"cebpf4jnsgd1na2vs0mg"},{"bike_id":"76e32273-383d-4da8-8efb-6d0009819a84","system_id":"levelo_inurba_marseille","lat":43.28081,"lon":5.3966,"is_reserved":false,"is_disabled":false,"rental_uris":{"android":"levelo://app?vid=76e32273-383d-4da8-8efb-6d0009819a84","ios":"levelo://app?vid=76e32273-383d-4da8-8efb-6d0009819a84"},"vehicle_type_id":"4","last_reported":1729015921,"current_range_meters":10000,"station_id":"ce4bho12rcd13ifvqh2g","pricing_plan_id":"cebpf4jnsgd1na2vs0mg"},{"bike_id":"6ed80952-27fa-4112-bdd0-484f62b1fe60","system_id":"levelo_inurba_marseille","lat":43.28059,"lon":5.40983,"is_reserved":false,"is_disabled":false,"rental_uris":{"android":"levelo://app?vid=6ed80952-27fa-4112-bdd0-484f62b1fe60","ios":"levelo://app?vid=6ed80952-27fa-4112-bdd0-484f62b1fe60"},"vehicle_type_id":"4","last_reported":1729015921,"current_range_meters":14400,"station_id":"","pricing_plan_id":"cebpf4jnsgd1na2vs0mg"},{"bike_id":"1b5795e9-268a-4cac-8032-ec4ad6269f71","system_id":"levelo_inurba_marseille","lat":43.29898,"lon":5.43671,"is_reserved":false,"is_disabled":false,"rental_uris":{"android":"levelo://app?vid=1b5795e9-268a-4cac-8032-ec4ad6269f71","ios":"levelo://app?vid=1b5795e9-268a-4cac-8032-ec4ad6269f71"},"vehicle_type_id":"4","last_reported":1729015921,"current_range_meters":17200,"station_id":"ce4bhpp2rcd13ifvqhfg","pricing_plan_id":"cebpf4jnsgd1na2vs0mg"},{"bike_id":"cfc3c698-a97f-4344-8055-51e0a132d7dd","system_id":"levelo_inurba_marseille","lat":43.26028,"lon":5.37549,"is_reserved":false,"is_disabled":false,"rental_uris":{"android":"levelo://app?vid=cfc3c698-a97f-4344-8055-51e0a132d7dd","ios":"levelo://app?vid=cfc3c698-a97f-4344-8055-51e0a132d7dd"},"vehicle_type_id":"4","last_reported":1729015921,"current_range_meters":25200,"station_id":"ce4bhgh2rcd13ifvqfa0","pricing_plan_id":"cebpf4jnsgd1na2vs0mg"},{"bike_id":"330d4c0f-974d-4bcf-809c-1a9dffc31e39","system_id":"levelo_inurba_marseille","lat":43.29711,"lon":5.37703,"is_reserved":false,"is_disabled":false,"rental_uris":{"android":"levelo://app?vid=330d4c0f-974d-4bcf-809c-1a9dffc31e39","ios":"levelo://app?vid=330d4c0f-974d-4bcf-809c-1a9dffc31e39"},"vehicle_type_id":"4","last_reported":1729015921,"current_range_meters":38000,"station_id":"ce4bgkh2rcd13ifvqbl0","pricing_plan_id":"cebpf4jnsgd1na2vs0mg"},{"bike_id":"a1e0278e-920e-4eea-a381-891331e8e403","system_id":"levelo_inurba_marseille","lat":43.2319,"lon":5.3555,"is_reserved":false,"is_disabled":false,"rental_uris":{"android":"levelo://app?vid=a1e0278e-920e-4eea-a381-891331e8e403","ios":"levelo://app?vid=a1e0278e-920e-4eea-a381-891331e8e403"},"vehicle_type_id":"4","last_reported":1729015921,"current_range_meters":4800,"station_id":"ce4bhu92rcd13ifvqi70","pricing_plan_id":"cebpf4jnsgd1na2vs0mg"},{"bike_id":"d59a2779-a14f-476a-aba0-6cd7b5176913","system_id":"levelo_inurba_marseille","lat":43.295288,"lon":5.385438,"is_reserved":false,"is_disabled":false,"rental_uris":{"android":"levelo://app?vid=d59a2779-a14f-476a-aba0-6cd7b5176913","ios":"levelo://app?vid=d59a2779-a14f-476a-aba0-6cd7b5176913"},"vehicle_type_id":"4","last_reported":1729015921,"current_range_meters":3600,"station_id":"ce4bgih2rcd13ifvqba0","pricing_plan_id":"cebpf4jnsgd1na2vs0mg"},{"bike_id":"7b448f81-d704-4178-8831-46e6782f423f","system_id":"levelo_inurba_marseille","lat":43.30632,"lon":5.40093,"is_reserved":false,"is_disabled":false,"rental_uris":{"android":"levelo://app?vid=7b448f81-d704-4178-8831-46e6782f423f","ios":"levelo://app?vid=7b448f81-d704-4178-8831-46e6782f423f"},"vehicle_type_id":"4","last_reported":1729015921,"current_range_meters":11600,"station_id":"ce4bh112rcd13ifvqda0","pricing_plan_id":"cebpf4jnsgd1na2vs0mg"},{"bike_id":"797a130a-0728-4957-a658-5325536d659a","system_id":"levelo_inurba_marseille","lat":43.27951,"lon":5.4105,"is_reserved":false,"is_disabled":false,"rental_uris":{"android":"levelo://app?vid=797a130a-0728-4957-a658-5325536d659a","ios":"levelo://app?vid=797a130a-0728-4957-a658-5325536d659a"},"vehicle_type_id":"4","last_reported":1729015921,"current_range_meters":30000,"station_id":"ce4bhnp2rcd13ifvqh0g","pricing_plan_id":"cebpf4jnsgd1na2vs0mg"},{"bike_id":"40a9f07f-a092-4d6c-a7c6-e193177b62a1","system_id":"levelo_inurba_marseille","lat":43.25717,"lon":5.38237,"is_reserved":false,"is_disabled":false,"rental_uris":{"android":"levelo://app?vid=40a9f07f-a092-4d6c-a7c6-e193177b62a1","ios":"levelo://app?vid=40a9f07f-a092-4d6c-a7c6-e193177b62a1"},"vehicle_type_id":"4","last_reported":1729015921,"current_range_meters":10000,"station_id":"ce4bhih2rcd13ifvqfs0","pricing_plan_id":"cebpf4jnsgd1na2vs0mg"},{"bike_id":"950f6bbf-f722-4f6a-99af-3a8b63c41937","system_id":"levelo_inurba_marseille","lat":43.28484,"lon":5.38557,"is_reserved":false,"is_disabled":false,"rental_uris":{"android":"levelo://app?vid=950f6bbf-f722-4f6a-99af-3a8b63c41937","ios":"levelo://app?vid=950f6bbf-f722-4f6a-99af-3a8b63c41937"},"vehicle_type_id":"4","last_reported":1729015921,"current_range_meters":3200,"station_id":"ce4bh8p2rcd13ifvqeb0","pricing_plan_id":"cebpf4jnsgd1na2vs0mg"},{"bike_id":"c7626b67-8490-47b2-82ea-49347108e9fb","system_id":"levelo_inurba_marseille","lat":43.29421,"lon":5.3861,"is_reserved":false,"is_disabled":false,"rental_uris":{"android":"levelo://app?vid=c7626b67-8490-47b2-82ea-49347108e9fb","ios":"levelo://app?vid=c7626b67-8490-47b2-82ea-49347108e9fb"},"vehicle_type_id":"4","last_reported":1729015921,"current_range_meters":34000,"station_id":"ce4bh2h2rcd13ifvqdh0","pricing_plan_id":"cebpf4jnsgd1na2vs0mg"},{"bike_id":"217f3132-be88-4e7b-bf0e-857a15c0c843","system_id":"levelo_inurba_marseille","lat":43.28941,"lon":5.36404,"is_reserved":false,"is_disabled":false,"rental_uris":{"android":"levelo://app?vid=217f3132-be88-4e7b-bf0e-857a15c0c843","ios":"levelo://app?vid=217f3132-be88-4e7b-bf0e-857a15c0c843"},"vehicle_type_id":"4","last_reported":1729015921,"current_range_meters":35600,"station_id":"ce4bhc92rcd13ifvqetg","pricing_plan_id":"cebpf4jnsgd1na2vs0mg"},{"bike_id":"4eefa1ec-0d89-406a-9ba6-ab04341864b0","system_id":"levelo_inurba_marseille","lat":43.23197,"lon":5.35548,"is_reserved":false,"is_disabled":false,"rental_uris":{"android":"levelo://app?vid=4eefa1ec-0d89-406a-9ba6-ab04341864b0","ios":"levelo://app?vid=4eefa1ec-0d89-406a-9ba6-ab04341864b0"},"vehicle_type_id":"4","last_reported":1729015921,"current_range_meters":40000,"station_id":"ce4bhu92rcd13ifvqi70","pricing_plan_id":"cebpf4jnsgd1na2vs0mg"},{"bike_id":"89e93242-a25c-410f-bd50-0b5709cb6899","system_id":"levelo_inurba_marseille","lat":43.22934,"lon":5.35377,"is_reserved":false,"is_disabled":false,"rental_uris":{"android":"levelo://app?vid=89e93242-a25c-410f-bd50-0b5709cb6899","ios":"levelo://app?vid=89e93242-a25c-410f-bd50-0b5709cb6899"},"vehicle_type_id":"4","last_reported":1729015921,"current_range_meters":8400,"station_id":"cpo3532slgdg3j2ikp40","pricing_plan_id":"cebpf4jnsgd1na2vs0mg"},{"bike_id":"5121818d-6aa4-461f-9c9e-6a3bab7273d0","system_id":"levelo_inurba_marseille","lat":43.28575,"lon":5.39503,"is_reserved":false,"is_disabled":false,"rental_uris":{"android":"levelo://app?vid=5121818d-6aa4-461f-9c9e-6a3bab7273d0","ios":"levelo://app?vid=5121818d-6aa4-461f-9c9e-6a3bab7273d0"},"vehicle_type_id":"4","last_reported":1729015921,"current_range_meters":36000,"station_id":"ce4bh292rcd13ifvqdg0","pricing_plan_id":"cebpf4jnsgd1na2vs0mg"},{"bike_id":"745cb2d4-2172-480a-b892-f555e08e7589","system_id":"levelo_inurba_marseille","lat":43.337444,"lon":5.374475,"is_reserved":false,"is_disabled":false,"rental_uris":{"android":"levelo://app?vid=745cb2d4-2172-480a-b892-f555e08e7589","ios":"levelo://app?vid=745cb2d4-2172-480a-b892-f555e08e7589"},"vehicle_type_id":"4","last_reported":1729015921,"current_range_meters":35600,"station_id":"","pricing_plan_id":"cebpf4jnsgd1na2vs0mg"},{"bike_id":"92a108ac-2914-418a-a021-530e3f2b9cef","system_id":"levelo_inurba_marseille","lat":43.2844,"lon":5.39202,"is_reserved":false,"is_disabled":false,"rental_uris":{"android":"levelo://app?vid=92a108ac-2914-418a-a021-530e3f2b9cef","ios":"levelo://app?vid=92a108ac-2914-418a-a021-530e3f2b9cef"},"vehicle_type_id":"4","last_reported":1729015921,"current_range_meters":6800,"station_id":"ce4bhoh2rcd13ifvqh5g","pricing_plan_id":"cebpf4jnsgd1na2vs0mg"},{"bike_id":"60a228b9-87fa-462a-a071-f77a48b3f8f5","system_id":"levelo_inurba_marseille","lat":43.30801,"lon":5.43527,"is_reserved":false,"is_disabled":false,"rental_uris":{"android":"levelo://app?vid=60a228b9-87fa-462a-a071-f77a48b3f8f5","ios":"levelo://app?vid=60a228b9-87fa-462a-a071-f77a48b3f8f5"},"vehicle_type_id":"4","last_reported":1729015921,"current_range_meters":30800,"station_id":"ce4bhph2rcd13ifvqheg","pricing_plan_id":"cebpf4jnsgd1na2vs0mg"},{"bike_id":"326ffd56-b49e-466a-ad83-8e0294c3d7c4","system_id":"levelo_inurba_marseille","lat":43.30191,"lon":5.36606,"is_reserved":false,"is_disabled":false,"rental_uris":{"android":"levelo://app?vid=326ffd56-b49e-466a-ad83-8e0294c3d7c4","ios":"levelo://app?vid=326ffd56-b49e-466a-ad83-8e0294c3d7c4"},"vehicle_type_id":"4","last_reported":1729015921,"current_range_meters":35600,"station_id":"ce4bgrh2rcd13ifvqc8g","pricing_plan_id":"cebpf4jnsgd1na2vs0mg"},{"bike_id":"3ca0f0c5-86e3-4e8d-9655-7cc734b762c6","system_id":"levelo_inurba_marseille","lat":43.23192,"lon":5.35552,"is_reserved":false,"is_disabled":false,"rental_uris":{"android":"levelo://app?vid=3ca0f0c5-86e3-4e8d-9655-7cc734b762c6","ios":"levelo://app?vid=3ca0f0c5-86e3-4e8d-9655-7cc734b762c6"},"vehicle_type_id":"4","last_reported":1729015921,"current_range_meters":2800,"station_id":"","pricing_plan_id":"cebpf4jnsgd1na2vs0mg"},{"bike_id":"f9ce6141-84d3-4a94-9cf1-33b69bef009c","system_id":"levelo_inurba_marseille","lat":43.28079,"lon":5.39662,"is_reserved":false,"is_disabled":false,"rental_uris":{"android":"levelo://app?vid=f9ce6141-84d3-4a94-9cf1-33b69bef009c","ios":"levelo://app?vid=f9ce6141-84d3-4a94-9cf1-33b69bef009c"},"vehicle_type_id":"4","last_reported":1729015921,"current_range_meters":33200,"station_id":"ce4bho12rcd13ifvqh2g","pricing_plan_id":"cebpf4jnsgd1na2vs0mg"},{"bike_id":"605fd007-fa4d-44d1-bcb3-9d83e65d0994","system_id":"levelo_inurba_marseille","lat":43.33699,"lon":5.37418,"is_reserved":false,"is_disabled":false,"rental_uris":{"android":"levelo://app?vid=605fd007-fa4d-44d1-bcb3-9d83e65d0994","ios":"levelo://app?vid=605fd007-fa4d-44d1-bcb3-9d83e65d0994"},"vehicle_type_id":"4","last_reported":1729015921,"current_range_meters":12400,"station_id":"","pricing_plan_id":"cebpf4jnsgd1na2vs0mg"},{"bike_id":"6f0d6442-6807-44dd-a668-ab09f2f58ffd","system_id":"levelo_inurba_marseille","lat":43.28033,"lon":5.36941,"is_reserved":false,"is_disabled":false,"rental_uris":{"android":"levelo://app?vid=6f0d6442-6807-44dd-a668-ab09f2f58ffd","ios":"levelo://app?vid=6f0d6442-6807-44dd-a668-ab09f2f58ffd"},"vehicle_type_id":"4","last_reported":1729015921,"current_range_meters":35600,"station_id":"ce4bha12rcd13ifvqef0","pricing_plan_id":"cebpf4jnsgd1na2vs0mg"},{"bike_id":"a44d0449-ddf7-447f-89a3-faa488b33d2c","system_id":"levelo_inurba_marseille","lat":43.22967,"lon":5.40028,"is_reserved":false,"is_disabled":false,"rental_uris":{"android":"levelo://app?vid=a44d0449-ddf7-447f-89a3-faa488b33d2c","ios":"levelo://app?vid=a44d0449-ddf7-447f-89a3-faa488b33d2c"},"vehicle_type_id":"4","last_reported":1729015921,"current_range_meters":5600,"station_id":"ce4bhn12rcd13ifvqgqg","pricing_plan_id":"cebpf4jnsgd1na2vs0mg"},{"bike_id":"de980a61-0806-49f4-9802-6fa92a819dee","system_id":"levelo_inurba_marseille","lat":43.2317,"lon":5.39997,"is_reserved":false,"is_disabled":false,"rental_uris":{"android":"levelo://app?vid=de980a61-0806-49f4-9802-6fa92a819dee","ios":"levelo://app?vid=de980a61-0806-49f4-9802-6fa92a819dee"},"vehicle_type_id":"4","last_reported":1729015921,"current_range_meters":8000,"station_id":"ce4bhn12rcd13ifvqgqg","pricing_plan_id":"cebpf4jnsgd1na2vs0mg"},{"bike_id":"c486dd84-dddb-4383-9b49-d3ff8158038d","system_id":"levelo_inurba_marseille","lat":43.32288,"lon":5.38277,"is_reserved":false,"is_disabled":false,"rental_uris":{"android":"levelo://app?vid=c486dd84-dddb-4383-9b49-d3ff8158038d","ios":"levelo://app?vid=c486dd84-dddb-4383-9b49-d3ff8158038d"},"vehicle_type_id":"4","last_reported":1729015921,"current_range_meters":17200,"station_id":"ce4bhr12rcd13ifvqhqg","pricing_plan_id":"cebpf4jnsgd1na2vs0mg"},{"bike_id":"84c778f0-98b4-4058-bfb6-85b8c1f04b8e","system_id":"levelo_inurba_marseille","lat":43.33729,"lon":5.39181,"is_reserved":false,"is_disabled":false,"rental_uris":{"android":"levelo://app?vid=84c778f0-98b4-4058-bfb6-85b8c1f04b8e","ios":"levelo://app?vid=84c778f0-98b4-4058-bfb6-85b8c1f04b8e"},"vehicle_type_id":"4","last_reported":1729015921,"current_range_meters":38000,"station_id":"ce4bhr92rcd13ifvqhsg","pricing_plan_id":"cebpf4jnsgd1na2vs0mg"},{"bike_id":"beb1fc18-f1fa-438e-ae81-8c849af956af","system_id":"levelo_inurba_marseille","lat":43.23181,"lon":5.39988,"is_reserved":false,"is_disabled":false,"rental_uris":{"android":"levelo://app?vid=beb1fc18-f1fa-438e-ae81-8c849af956af","ios":"levelo://app?vid=beb1fc18-f1fa-438e-ae81-8c849af956af"},"vehicle_type_id":"4","last_reported":1729015921,"current_range_meters":40000,"station_id":"ce4bhn12rcd13ifvqgqg","pricing_plan_id":"cebpf4jnsgd1na2vs0mg"},{"bike_id":"321d9aad-d9b7-4fdd-bb02-2874303939e2","system_id":"levelo_inurba_marseille","lat":43.30787,"lon":5.38142,"is_reserved":false,"is_disabled":false,"rental_uris":{"android":"levelo://app?vid=321d9aad-d9b7-4fdd-bb02-2874303939e2","ios":"levelo://app?vid=321d9aad-d9b7-4fdd-bb02-2874303939e2"},"vehicle_type_id":"4","last_reported":1729015921,"current_range_meters":12800,"station_id":"ce4bgt12rcd13ifvqce0","pricing_plan_id":"cebpf4jnsgd1na2vs0mg"},{"bike_id":"c8893795-b594-40a3-a117-61c88a88d11c","system_id":"levelo_inurba_marseille","lat":43.29197,"lon":5.39315,"is_reserved":false,"is_disabled":false,"rental_uris":{"android":"levelo://app?vid=c8893795-b594-40a3-a117-61c88a88d11c","ios":"levelo://app?vid=c8893795-b594-40a3-a117-61c88a88d11c"},"vehicle_type_id":"4","last_reported":1729015921,"current_range_meters":36800,"station_id":"ce4bh192rcd13ifvqdd0","pricing_plan_id":"cebpf4jnsgd1na2vs0mg"},{"bike_id":"62f40efc-b75e-4e83-b148-c2e18fc1e94f","system_id":"levelo_inurba_marseille","lat":43.30781,"lon":5.37651,"is_reserved":false,"is_disabled":false,"rental_uris":{"android":"levelo://app?vid=62f40efc-b75e-4e83-b148-c2e18fc1e94f","ios":"levelo://app?vid=62f40efc-b75e-4e83-b148-c2e18fc1e94f"},"vehicle_type_id":"4","last_reported":1729015921,"current_range_meters":8400,"station_id":"ce4bgv92rcd13ifvqcq0","pricing_plan_id":"cebpf4jnsgd1na2vs0mg"},{"bike_id":"810ebfbd-7fb4-4c28-8846-a936820322df","system_id":"levelo_inurba_marseille","lat":43.25581,"lon":5.38232,"is_reserved":false,"is_disabled":false,"rental_uris":{"android":"levelo://app?vid=810ebfbd-7fb4-4c28-8846-a936820322df","ios":"levelo://app?vid=810ebfbd-7fb4-4c28-8846-a936820322df"},"vehicle_type_id":"4","last_reported":1729015921,"current_range_meters":6400,"station_id":"ce4bhih2rcd13ifvqfs0","pricing_plan_id":"cebpf4jnsgd1na2vs0mg"},{"bike_id":"a7c32a98-c1f5-4fe3-8c83-7f539fe6ada5","system_id":"levelo_inurba_marseille","lat":43.23067,"lon":5.35494,"is_reserved":false,"is_disabled":false,"rental_uris":{"android":"levelo://app?vid=a7c32a98-c1f5-4fe3-8c83-7f539fe6ada5","ios":"levelo://app?vid=a7c32a98-c1f5-4fe3-8c83-7f539fe6ada5"},"vehicle_type_id":"4","last_reported":1729015921,"current_range_meters":8800,"station_id":"cpo3342slgdg3j2ifvpg","pricing_plan_id":"cebpf4jnsgd1na2vs0mg"},{"bike_id":"59f7333c-967a-40a8-8aef-5601c7d8997c","system_id":"levelo_inurba_marseille","lat":43.33722,"lon":5.39184,"is_reserved":false,"is_disabled":false,"rental_uris":{"android":"levelo://app?vid=59f7333c-967a-40a8-8aef-5601c7d8997c","ios":"levelo://app?vid=59f7333c-967a-40a8-8aef-5601c7d8997c"},"vehicle_type_id":"4","last_reported":1729015921,"current_range_meters":22000,"station_id":"ce4bhr92rcd13ifvqhsg","pricing_plan_id":"cebpf4jnsgd1na2vs0mg"},{"bike_id":"2a4a1dc7-3823-4474-a014-21c14cd90481","system_id":"levelo_inurba_marseille","lat":43.28727,"lon":5.36097,"is_reserved":false,"is_disabled":false,"rental_uris":{"android":"levelo://app?vid=2a4a1dc7-3823-4474-a014-21c14cd90481","ios":"levelo://app?vid=2a4a1dc7-3823-4474-a014-21c14cd90481"},"vehicle_type_id":"4","last_reported":1729015921,"current_range_meters":8800,"station_id":"cki0cbj6b192h4jlfktg","pricing_plan_id":"cebpf4jnsgd1na2vs0mg"},{"bike_id":"89f9726c-eea0-4e5f-b895-86b6203cf1b5","system_id":"levelo_inurba_marseille","lat":43.25728,"lon":5.41112,"is_reserved":false,"is_disabled":false,"rental_uris":{"android":"levelo://app?vid=89f9726c-eea0-4e5f-b895-86b6203cf1b5","ios":"levelo://app?vid=89f9726c-eea0-4e5f-b895-86b6203cf1b5"},"vehicle_type_id":"4","last_reported":1729015921,"current_range_meters":8400,"station_id":"ce4bhkp2rcd13ifvqgd0","pricing_plan_id":"cebpf4jnsgd1na2vs0mg"},{"bike_id":"bfc1905c-9cd7-4eb9-810f-c73046a908ce","system_id":"levelo_inurba_marseille","lat":43.30318,"lon":5.4043,"is_reserved":false,"is_disabled":false,"rental_uris":{"android":"levelo://app?vid=bfc1905c-9cd7-4eb9-810f-c73046a908ce","ios":"levelo://app?vid=bfc1905c-9cd7-4eb9-810f-c73046a908ce"},"vehicle_type_id":"4","last_reported":1729015921,"current_range_meters":9200,"station_id":"ce4bh012rcd13ifvqd10","pricing_plan_id":"cebpf4jnsgd1na2vs0mg"},{"bike_id":"82782714-5c52-4a07-aa41-c21b6d297030","system_id":"levelo_inurba_marseille","lat":43.29416,"lon":5.38605,"is_reserved":false,"is_disabled":false,"rental_uris":{"android":"levelo://app?vid=82782714-5c52-4a07-aa41-c21b6d297030","ios":"levelo://app?vid=82782714-5c52-4a07-aa41-c21b6d297030"},"vehicle_type_id":"4","last_reported":1729015921,"current_range_meters":4400,"station_id":"ce4bh2h2rcd13ifvqdh0","pricing_plan_id":"cebpf4jnsgd1na2vs0mg"},{"bike_id":"7db3efe6-8836-4686-9673-3e5ac442bd02","system_id":"levelo_inurba_marseille","lat":43.29259,"lon":5.40902,"is_reserved":false,"is_disabled":false,"rental_uris":{"android":"levelo://app?vid=7db3efe6-8836-4686-9673-3e5ac442bd02","ios":"levelo://app?vid=7db3efe6-8836-4686-9673-3e5ac442bd02"},"vehicle_type_id":"4","last_reported":1729015921,"current_range_meters":16400,"station_id":"ce4bh192rcd13ifvqdc0","pricing_plan_id":"cebpf4jnsgd1na2vs0mg"},{"bike_id":"5f204125-8b22-499d-baf3-178bd4e7f7b4","system_id":"levelo_inurba_marseille","lat":43.31994,"lon":5.38162,"is_reserved":false,"is_disabled":false,"rental_uris":{"android":"levelo://app?vid=5f204125-8b22-499d-baf3-178bd4e7f7b4","ios":"levelo://app?vid=5f204125-8b22-499d-baf3-178bd4e7f7b4"},"vehicle_type_id":"4","last_reported":1729015921,"current_range_meters":16400,"station_id":"ce4bhr12rcd13ifvqhpg","pricing_plan_id":"cebpf4jnsgd1na2vs0mg"},{"bike_id":"1fadaeaf-da14-4492-8d0a-8d29ac040b4e","system_id":"levelo_inurba_marseille","lat":43.33024,"lon":5.39038,"is_reserved":false,"is_disabled":false,"rental_uris":{"android":"levelo://app?vid=1fadaeaf-da14-4492-8d0a-8d29ac040b4e","ios":"levelo://app?vid=1fadaeaf-da14-4492-8d0a-8d29ac040b4e"},"vehicle_type_id":"4","last_reported":1729015921,"current_range_meters":37600,"station_id":"ce4bhr92rcd13ifvqhrg","pricing_plan_id":"cebpf4jnsgd1na2vs0mg"},{"bike_id":"39328288-7eb3-446b-90cb-3b4ba64dd7a9","system_id":"levelo_inurba_marseille","lat":43.28153,"lon":5.42641,"is_reserved":false,"is_disabled":false,"rental_uris":{"android":"levelo://app?vid=39328288-7eb3-446b-90cb-3b4ba64dd7a9","ios":"levelo://app?vid=39328288-7eb3-446b-90cb-3b4ba64dd7a9"},"vehicle_type_id":"4","last_reported":1729015921,"current_range_meters":29600,"station_id":"ce4bhnh2rcd13ifvqgug","pricing_plan_id":"cebpf4jnsgd1na2vs0mg"},{"bike_id":"c483c185-bf64-4e38-b796-298c7b9cf2e8","system_id":"levelo_inurba_marseille","lat":43.289408,"lon":5.36637,"is_reserved":false,"is_disabled":false,"rental_uris":{"android":"levelo://app?vid=c483c185-bf64-4e38-b796-298c7b9cf2e8","ios":"levelo://app?vid=c483c185-bf64-4e38-b796-298c7b9cf2e8"},"vehicle_type_id":"4","last_reported":1729015921,"current_range_meters":6800,"station_id":"ce4bhap2rcd13ifvqek0","pricing_plan_id":"cebpf4jnsgd1na2vs0mg"},{"bike_id":"8cf9107c-c102-4eaf-a634-8bd855ac01b5","system_id":"levelo_inurba_marseille","lat":43.23956,"lon":5.36635,"is_reserved":false,"is_disabled":false,"rental_uris":{"android":"levelo://app?vid=8cf9107c-c102-4eaf-a634-8bd855ac01b5","ios":"levelo://app?vid=8cf9107c-c102-4eaf-a634-8bd855ac01b5"},"vehicle_type_id":"4","last_reported":1729015921,"current_range_meters":3200,"station_id":"ce4bhi12rcd13ifvqfp0","pricing_plan_id":"cebpf4jnsgd1na2vs0mg"},{"bike_id":"761179f6-a8c9-4f87-9892-0af89ff8dceb","system_id":"levelo_inurba_marseille","lat":43.3054,"lon":5.36558,"is_reserved":false,"is_disabled":false,"rental_uris":{"android":"levelo://app?vid=761179f6-a8c9-4f87-9892-0af89ff8dceb","ios":"levelo://app?vid=761179f6-a8c9-4f87-9892-0af89ff8dceb"},"vehicle_type_id":"4","last_reported":1729015921,"current_range_meters":22400,"station_id":"ce4bgs12rcd13ifvqcag","pricing_plan_id":"cebpf4jnsgd1na2vs0mg"},{"bike_id":"a32840e9-8383-4551-9ed3-ca68cf713711","system_id":"levelo_inurba_marseille","lat":43.30297,"lon":5.39208,"is_reserved":false,"is_disabled":false,"rental_uris":{"android":"levelo://app?vid=a32840e9-8383-4551-9ed3-ca68cf713711","ios":"levelo://app?vid=a32840e9-8383-4551-9ed3-ca68cf713711"},"vehicle_type_id":"4","last_reported":1729015921,"current_range_meters":8000,"station_id":"ce4bgkh2rcd13ifvqbk0","pricing_plan_id":"cebpf4jnsgd1na2vs0mg"},{"bike_id":"05564fe3-c7c1-474a-a306-af936587c9f7","system_id":"levelo_inurba_marseille","lat":43.29172,"lon":5.3716,"is_reserved":false,"is_disabled":false,"rental_uris":{"android":"levelo://app?vid=05564fe3-c7c1-474a-a306-af936587c9f7","ios":"levelo://app?vid=05564fe3-c7c1-474a-a306-af936587c9f7"},"vehicle_type_id":"4","last_reported":1729015921,"current_range_meters":38400,"station_id":"ce4bha92rcd13ifvqeh0","pricing_plan_id":"cebpf4jnsgd1na2vs0mg"},{"bike_id":"f4e1ad87-7453-4f65-94ca-11dd5e076661","system_id":"levelo_inurba_marseille","lat":43.24073,"lon":5.37763,"is_reserved":false,"is_disabled":false,"rental_uris":{"android":"levelo://app?vid=f4e1ad87-7453-4f65-94ca-11dd5e076661","ios":"levelo://app?vid=f4e1ad87-7453-4f65-94ca-11dd5e076661"},"vehicle_type_id":"4","last_reported":1729015921,"current_range_meters":36000,"station_id":"ce4bhnp2rcd13ifvqgvg","pricing_plan_id":"cebpf4jnsgd1na2vs0mg"},{"bike_id":"2c32d185-c615-4bf8-9fd3-1b967c28add4","system_id":"levelo_inurba_marseille","lat":43.29417,"lon":5.38624,"is_reserved":false,"is_disabled":false,"rental_uris":{"android":"levelo://app?vid=2c32d185-c615-4bf8-9fd3-1b967c28add4","ios":"levelo://app?vid=2c32d185-c615-4bf8-9fd3-1b967c28add4"},"vehicle_type_id":"4","last_reported":1729015921,"current_range_meters":14800,"station_id":"ce4bh2h2rcd13ifvqdh0","pricing_plan_id":"cebpf4jnsgd1na2vs0mg"},{"bike_id":"776c7d51-4663-4138-beb7-66fbc5feab2a","system_id":"levelo_inurba_marseille","lat":43.258667,"lon":5.398971,"is_reserved":false,"is_disabled":false,"rental_uris":{"android":"levelo://app?vid=776c7d51-4663-4138-beb7-66fbc5feab2a","ios":"levelo://app?vid=776c7d51-4663-4138-beb7-66fbc5feab2a"},"vehicle_type_id":"4","last_reported":1729015921,"current_range_meters":18800,"station_id":"ce4bgkh2rcd13ifvqbk0","pricing_plan_id":"cebpf4jnsgd1na2vs0mg"},{"bike_id":"d6be39e4-a065-42cb-a2dd-5e27d341d5f8","system_id":"levelo_inurba_marseille","lat":43.28679,"lon":5.39996,"is_reserved":false,"is_disabled":false,"rental_uris":{"android":"levelo://app?vid=d6be39e4-a065-42cb-a2dd-5e27d341d5f8","ios":"levelo://app?vid=d6be39e4-a065-42cb-a2dd-5e27d341d5f8"},"vehicle_type_id":"4","last_reported":1729015921,"current_range_meters":35200,"station_id":"","pricing_plan_id":"cebpf4jnsgd1na2vs0mg"},{"bike_id":"73918071-1773-4af7-bab4-cffb66fa20a3","system_id":"levelo_inurba_marseille","lat":43.31327,"lon":5.39691,"is_reserved":false,"is_disabled":false,"rental_uris":{"android":"levelo://app?vid=73918071-1773-4af7-bab4-cffb66fa20a3","ios":"levelo://app?vid=73918071-1773-4af7-bab4-cffb66fa20a3"},"vehicle_type_id":"4","last_reported":1729015921,"current_range_meters":6000,"station_id":"ce4bgvp2rcd13ifvqcu0","pricing_plan_id":"cebpf4jnsgd1na2vs0mg"},{"bike_id":"cb8e1a0f-d2ed-4127-852f-48e0eaf8a5dd","system_id":"levelo_inurba_marseille","lat":43.23957,"lon":5.36628,"is_reserved":false,"is_disabled":false,"rental_uris":{"android":"levelo://app?vid=cb8e1a0f-d2ed-4127-852f-48e0eaf8a5dd","ios":"levelo://app?vid=cb8e1a0f-d2ed-4127-852f-48e0eaf8a5dd"},"vehicle_type_id":"4","last_reported":1729015921,"current_range_meters":17600,"station_id":"ce4bhi12rcd13ifvqfp0","pricing_plan_id":"cebpf4jnsgd1na2vs0mg"},{"bike_id":"81e2d086-dec0-4945-9016-a6afecf8f9ec","system_id":"levelo_inurba_marseille","lat":43.32344,"lon":5.4062,"is_reserved":false,"is_disabled":false,"rental_uris":{"android":"levelo://app?vid=81e2d086-dec0-4945-9016-a6afecf8f9ec","ios":"levelo://app?vid=81e2d086-dec0-4945-9016-a6afecf8f9ec"},"vehicle_type_id":"4","last_reported":1729015921,"current_range_meters":29600,"station_id":"ce4bhq92rcd13ifvqhjg","pricing_plan_id":"cebpf4jnsgd1na2vs0mg"},{"bike_id":"a9fb5790-5ead-4466-aaa5-0b728d395c27","system_id":"levelo_inurba_marseille","lat":43.31682,"lon":5.40479,"is_reserved":false,"is_disabled":false,"rental_uris":{"android":"levelo://app?vid=a9fb5790-5ead-4466-aaa5-0b728d395c27","ios":"levelo://app?vid=a9fb5790-5ead-4466-aaa5-0b728d395c27"},"vehicle_type_id":"4","last_reported":1729015921,"current_range_meters":4000,"station_id":"ce4bh012rcd13ifvqd00","pricing_plan_id":"cebpf4jnsgd1na2vs0mg"},{"bike_id":"f6b29627-10b4-4c61-83dd-6ad90ad72d1e","system_id":"levelo_inurba_marseille","lat":43.29283,"lon":5.36844,"is_reserved":false,"is_disabled":false,"rental_uris":{"android":"levelo://app?vid=f6b29627-10b4-4c61-83dd-6ad90ad72d1e","ios":"levelo://app?vid=f6b29627-10b4-4c61-83dd-6ad90ad72d1e"},"vehicle_type_id":"4","last_reported":1729015921,"current_range_meters":16800,"station_id":"ce4bhbp2rcd13ifvqesg","pricing_plan_id":"cebpf4jnsgd1na2vs0mg"},{"bike_id":"70b4e1df-a557-45ac-bdae-59034ef9a92c","system_id":"levelo_inurba_marseille","lat":43.3134,"lon":5.39692,"is_reserved":false,"is_disabled":false,"rental_uris":{"android":"levelo://app?vid=70b4e1df-a557-45ac-bdae-59034ef9a92c","ios":"levelo://app?vid=70b4e1df-a557-45ac-bdae-59034ef9a92c"},"vehicle_type_id":"4","last_reported":1729015921,"current_range_meters":38800,"station_id":"ce4bgvp2rcd13ifvqcu0","pricing_plan_id":"cebpf4jnsgd1na2vs0mg"},{"bike_id":"3f420125-4e17-49ea-ad68-bd0db47035e0","system_id":"levelo_inurba_marseille","lat":43.31123,"lon":5.37776,"is_reserved":false,"is_disabled":false,"rental_uris":{"android":"levelo://app?vid=3f420125-4e17-49ea-ad68-bd0db47035e0","ios":"levelo://app?vid=3f420125-4e17-49ea-ad68-bd0db47035e0"},"vehicle_type_id":"4","last_reported":1729015921,"current_range_meters":30000,"station_id":"ce4bgt92rcd13ifvqcg0","pricing_plan_id":"cebpf4jnsgd1na2vs0mg"},{"bike_id":"f1f44c7a-e4eb-4c05-a0a5-7c114df4cda5","system_id":"levelo_inurba_marseille","lat":43.22934,"lon":5.35383,"is_reserved":false,"is_disabled":false,"rental_uris":{"android":"levelo://app?vid=f1f44c7a-e4eb-4c05-a0a5-7c114df4cda5","ios":"levelo://app?vid=f1f44c7a-e4eb-4c05-a0a5-7c114df4cda5"},"vehicle_type_id":"4","last_reported":1729015921,"current_range_meters":11200,"station_id":"cpo3532slgdg3j2ikp40","pricing_plan_id":"cebpf4jnsgd1na2vs0mg"},{"bike_id":"245220ed-d4c4-4a13-bcad-61b3a69083e8","system_id":"levelo_inurba_marseille","lat":43.25721,"lon":5.41114,"is_reserved":false,"is_disabled":false,"rental_uris":{"android":"levelo://app?vid=245220ed-d4c4-4a13-bcad-61b3a69083e8","ios":"levelo://app?vid=245220ed-d4c4-4a13-bcad-61b3a69083e8"},"vehicle_type_id":"4","last_reported":1729015921,"current_range_meters":5600,"station_id":"ce4bhkp2rcd13ifvqgd0","pricing_plan_id":"cebpf4jnsgd1na2vs0mg"},{"bike_id":"e8138694-63b8-4013-813e-4c9e9d152017","system_id":"levelo_inurba_marseille","lat":43.29423,"lon":5.38623,"is_reserved":false,"is_disabled":false,"rental_uris":{"android":"levelo://app?vid=e8138694-63b8-4013-813e-4c9e9d152017","ios":"levelo://app?vid=e8138694-63b8-4013-813e-4c9e9d152017"},"vehicle_type_id":"4","last_reported":1729015921,"current_range_meters":11200,"station_id":"ce4bh2h2rcd13ifvqdh0","pricing_plan_id":"cebpf4jnsgd1na2vs0mg"},{"bike_id":"a81be99e-d906-49f4-8566-3cdbadb4432f","system_id":"levelo_inurba_marseille","lat":43.26491,"lon":5.39548,"is_reserved":false,"is_disabled":false,"rental_uris":{"android":"levelo://app?vid=a81be99e-d906-49f4-8566-3cdbadb4432f","ios":"levelo://app?vid=a81be99e-d906-49f4-8566-3cdbadb4432f"},"vehicle_type_id":"4","last_reported":1729015921,"current_range_meters":39200,"station_id":"ce4bhi12rcd13ifvqfq0","pricing_plan_id":"cebpf4jnsgd1na2vs0mg"},{"bike_id":"36ff951c-f827-42ef-92ae-1305cd124595","system_id":"levelo_inurba_marseille","lat":43.33022,"lon":5.39048,"is_reserved":false,"is_disabled":false,"rental_uris":{"android":"levelo://app?vid=36ff951c-f827-42ef-92ae-1305cd124595","ios":"levelo://app?vid=36ff951c-f827-42ef-92ae-1305cd124595"},"vehicle_type_id":"4","last_reported":1729015921,"current_range_meters":40000,"station_id":"ce4bhr92rcd13ifvqhrg","pricing_plan_id":"cebpf4jnsgd1na2vs0mg"},{"bike_id":"4b334314-1880-4284-8e82-2c9fe00cc89a","system_id":"levelo_inurba_marseille","lat":43.28944,"lon":5.36413,"is_reserved":false,"is_disabled":false,"rental_uris":{"android":"levelo://app?vid=4b334314-1880-4284-8e82-2c9fe00cc89a","ios":"levelo://app?vid=4b334314-1880-4284-8e82-2c9fe00cc89a"},"vehicle_type_id":"4","last_reported":1729015921,"current_range_meters":8800,"station_id":"ce4bhc92rcd13ifvqetg","pricing_plan_id":"cebpf4jnsgd1na2vs0mg"},{"bike_id":"54badeba-b7e8-4cd6-9559-090964c94e83","system_id":"levelo_inurba_marseille","lat":43.28725,"lon":5.36095,"is_reserved":false,"is_disabled":false,"rental_uris":{"android":"levelo://app?vid=54badeba-b7e8-4cd6-9559-090964c94e83","ios":"levelo://app?vid=54badeba-b7e8-4cd6-9559-090964c94e83"},"vehicle_type_id":"4","last_reported":1729015921,"current_range_meters":36000,"station_id":"cki0cbj6b192h4jlfktg","pricing_plan_id":"cebpf4jnsgd1na2vs0mg"},{"bike_id":"2ecbe184-1316-4903-81d0-e5b230b14fb2","system_id":"levelo_inurba_marseille","lat":43.33024,"lon":5.39043,"is_reserved":false,"is_disabled":false,"rental_uris":{"android":"levelo://app?vid=2ecbe184-1316-4903-81d0-e5b230b14fb2","ios":"levelo://app?vid=2ecbe184-1316-4903-81d0-e5b230b14fb2"},"vehicle_type_id":"4","last_reported":1729015921,"current_range_meters":38800,"station_id":"ce4bhr92rcd13ifvqhrg","pricing_plan_id":"cebpf4jnsgd1na2vs0mg"},{"bike_id":"1b779333-929f-4929-9c3e-d754f662db42","system_id":"levelo_inurba_marseille","lat":43.27429,"lon":5.39426,"is_reserved":false,"is_disabled":false,"rental_uris":{"android":"levelo://app?vid=1b779333-929f-4929-9c3e-d754f662db42","ios":"levelo://app?vid=1b779333-929f-4929-9c3e-d754f662db42"},"vehicle_type_id":"4","last_reported":1729015921,"current_range_meters":13600,"station_id":"ce4bhdp2rcd13ifvqf20","pricing_plan_id":"cebpf4jnsgd1na2vs0mg"},{"bike_id":"59ccd3a3-4a51-4c82-b637-67048f7f6388","system_id":"levelo_inurba_marseille","lat":43.26192,"lon":5.37925,"is_reserved":false,"is_disabled":false,"rental_uris":{"android":"levelo://app?vid=59ccd3a3-4a51-4c82-b637-67048f7f6388","ios":"levelo://app?vid=59ccd3a3-4a51-4c82-b637-67048f7f6388"},"vehicle_type_id":"4","last_reported":1729015921,"current_range_meters":30000,"station_id":"ce4bhjp2rcd13ifvqg90","pricing_plan_id":"cebpf4jnsgd1na2vs0mg"},{"bike_id":"2150df49-9d3d-48dd-ba0a-72147a37ff59","system_id":"levelo_inurba_marseille","lat":43.30608,"lon":5.37224,"is_reserved":false,"is_disabled":false,"rental_uris":{"android":"levelo://app?vid=2150df49-9d3d-48dd-ba0a-72147a37ff59","ios":"levelo://app?vid=2150df49-9d3d-48dd-ba0a-72147a37ff59"},"vehicle_type_id":"4","last_reported":1729015921,"current_range_meters":26000,"station_id":"ce4bgqh2rcd13ifvqc4g","pricing_plan_id":"cebpf4jnsgd1na2vs0mg"},{"bike_id":"fc33771c-388d-4de1-b023-3a6a73159479","system_id":"levelo_inurba_marseille","lat":43.29171,"lon":5.37178,"is_reserved":false,"is_disabled":false,"rental_uris":{"android":"levelo://app?vid=fc33771c-388d-4de1-b023-3a6a73159479","ios":"levelo://app?vid=fc33771c-388d-4de1-b023-3a6a73159479"},"vehicle_type_id":"4","last_reported":1729015921,"current_range_meters":20000,"station_id":"ce4bha92rcd13ifvqeh0","pricing_plan_id":"cebpf4jnsgd1na2vs0mg"},{"bike_id":"52645a8c-442b-471f-8895-3c79f0b3fbf5","system_id":"levelo_inurba_marseille","lat":43.27422,"lon":5.39418,"is_reserved":false,"is_disabled":false,"rental_uris":{"android":"levelo://app?vid=52645a8c-442b-471f-8895-3c79f0b3fbf5","ios":"levelo://app?vid=52645a8c-442b-471f-8895-3c79f0b3fbf5"},"vehicle_type_id":"4","last_reported":1729015921,"current_range_meters":9200,"station_id":"ce4bhdp2rcd13ifvqf20","pricing_plan_id":"cebpf4jnsgd1na2vs0mg"},{"bike_id":"53608fb3-107b-40b3-b063-9983f42a0c4a","system_id":"levelo_inurba_marseille","lat":43.31756,"lon":5.39021,"is_reserved":false,"is_disabled":false,"rental_uris":{"android":"levelo://app?vid=53608fb3-107b-40b3-b063-9983f42a0c4a","ios":"levelo://app?vid=53608fb3-107b-40b3-b063-9983f42a0c4a"},"vehicle_type_id":"4","last_reported":1729015921,"current_range_meters":30000,"station_id":"ce4bhqp2rcd13ifvqhng","pricing_plan_id":"cebpf4jnsgd1na2vs0mg"},