{"last_updated":1718824028,"ttl":30,"version":"2.2","data":{"bikes":[{"bike_id":"73d54918-746a-4727-8da2-9efe5b4ca58f","system_id":"levelo_inurba_marseille","lat":43.31341,"lon":5.367098,"is_reserved":false,"is_disabled":false,"rental_uris":{"android":"levelo://app?vid=73d54918-746a-4727-8da2-9efe5b4ca58f","ios":"levelo://app?vid=73d54918-746a-4727-8da2-9efe5b4ca58f"},"vehicle_type_id":"4","last_reported":1718824028,"current_range_meters":1600,"station_id":"ce4bgr92rcd13ifvqc6g","pricing_plan_id":"cebpf4jnsgd1na2vs0mg"},{"bike_id":"a4e10cc1-0492-41b4-9e7a-879a1fd5d4bc","system_id":"levelo_inurba_marseille","lat":43.309076,"lon":5.368465,"is_reserved":false,"is_disabled":false,"rental_uris":{"android":"levelo://app?vid=a4e10cc1-0492-41b4-9e7a-879a1fd5d4bc","ios":"levelo://app?vid=a4e10cc1-0492-41b4-9e7a-879a1fd5d4bc"},"vehicle_type_id":"4","last_reported":1718824028,"current_range_meters":19600,"station_id":"ce4bgn92rcd13ifvqbvg","pricing_plan_id":"cebpf4jnsgd1na2vs0mg"},{"bike_id":"acc3d6c4-6084-4f78-92a1-af582ff4a37c","system_id":"levelo_inurba_marseille","lat":43.314811,"lon":5.373103,"is_reserved":false,"is_disabled":false,"rental_uris":{"android":"levelo://app?vid=acc3d6c4-6084-4f78-92a1-af582ff4a37c","ios":"levelo://app?vid=acc3d6c4-6084-4f78-92a1-af582ff4a37c"},"vehicle_type_id":"4","last_reported":1718824028,"current_range_meters":12000,"station_id":"ce4bgt12rcd13ifvqcd0","pricing_plan_id":"cebpf4jnsgd1na2vs0mg"},{"bike_id":"62894f25-7d46-46e9-8a23-b155d0bdee17","system_id":"levelo_inurba_marseille","lat":43.314811,"lon":5.373103,"is_reserved":false,"is_disabled":false,"rental_uris":{"android":"levelo://app?vid=62894f25-7d46-46e9-8a23-b155d0bdee17","ios":"levelo://app?vid=62894f25-7d46-46e9-8a23-b155d0bdee17"},"vehicle_type_id":"4","last_reported":1718824028,"current_range_meters":12800,"station_id":"ce4bgt12rcd13ifvqcd0","pricing_plan_id":"cebpf4jnsgd1na2vs0mg"},{"bike_id":"399a8660-1b39-4ea6-be0e-e326db6970e8","system_id":"levelo_inurba_marseille","lat":43.314811,"lon":5.373104,"is_reserved":false,"is_disabled":false,"rental_uris":{"android":"levelo://app?vid=399a8660-1b39-4ea6-be0e-e326db6970e8","ios":"levelo://app?vid=399a8660-1b39-4ea6-be0e-e326db6970e8"},"vehicle_type_id":"4","last_reported":1718824028,"current_range_meters":1600,"station_id":"ce4bgt12rcd13ifvqcd0","pricing_plan_id":"cebpf4jnsgd1na2vs0mg"},{"bike_id":"274cb773-0abb-475f-a515-5ad12f4597d7","system_id":"levelo_inurba_marseille","lat":43.314811,"lon":5.373104,"is_reserved":false,"is_disabled":false,"rental_uris":{"android":"levelo://app?vid=274cb773-0abb-475f-a515-5ad12f4597d7","ios":"levelo://app?vid=274cb773-0abb-475f-a515-5ad12f4597d7"},"vehicle_type_id":"4","last_reported":1718824028,"current_range_meters":9600,"station_id":"ce4bgt12rcd13ifvqcd0","pricing_plan_id":"cebpf4jnsgd1na2vs0mg"},{"bike_id":"2c4ab990-bf85-4539-81a0-6a5e6c486afc","system_id":"levelo_inurba_marseille","lat":43.31446,"lon":5.37371,"is_reserved":false,"is_disabled":false,"rental_uris":{"android":"levelo://app?vid=2c4ab990-bf85-4539-81a0-6a5e6c486afc","ios":"levelo://app?vid=2c4ab990-bf85-4539-81a0-6a5e6c486afc"},"vehicle_type_id":"4","last_reported":1718824028,"current_range_meters":1600,"station_id":"","pricing_plan_id":"cebpf4jnsgd1na2vs0mg"},{"bike_id":"c7991928-4e9f-4346-b500-5996bedc60f4","system_id":"levelo_inurba_marseille","lat":43.309034,"lon":5.371783,"is_reserved":false,"is_disabled":false,"rental_uris":{"android":"levelo://app?vid=c7991928-4e9f-4346-b500-5996bedc60f4","ios":"levelo://app?vid=c7991928-4e9f-4346-b500-5996bedc60f4"},"vehicle_type_id":"4","last_reported":1718824028,"current_range_meters":16400,"station_id":"ce4bguh2rcd13ifvqckg","pricing_plan_id":"cebpf4jnsgd1na2vs0mg"},{"bike_id":"71cb65b2-81db-4ed0-8068-994299efd4b3","system_id":"levelo_inurba_marseille","lat":43.30541,"lon":5.36738,"is_reserved":false,"is_disabled":false,"rental_uris":{"android":"levelo://app?vid=71cb65b2-81db-4ed0-8068-994299efd4b3","ios":"levelo://app?vid=71cb65b2-81db-4ed0-8068-994299efd4b3"},"vehicle_type_id":"4","last_reported":1718824028,"current_range_meters":28400,"station_id":"ce4bgrp2rcd13ifvqc9g","pricing_plan_id":"cebpf4jnsgd1na2vs0mg"},{"bike_id":"991762e5-b222-430a-a88a-917070eb565f","system_id":"levelo_inurba_marseille","lat":43.30534,"lon":5.36523,"is_reserved":false,"is_disabled":false,"rental_uris":{"android":"levelo://app?vid=991762e5-b222-430a-a88a-917070eb565f","ios":"levelo://app?vid=991762e5-b222-430a-a88a-917070eb565f"},"vehicle_type_id":"4","last_reported":1718824028,"current_range_meters":0,"station_id":"ce4bgs12rcd13ifvqcag","pricing_plan_id":"cebpf4jnsgd1na2vs0mg"},{"bike_id":"40bed86d-41a5-4677-8dd6-1692dc799893","system_id":"levelo_inurba_marseille","lat":43.30514,"lon":5.367045,"is_reserved":false,"is_disabled":false,"rental_uris":{"android":"levelo://app?vid=40bed86d-41a5-4677-8dd6-1692dc799893","ios":"levelo://app?vid=40bed86d-41a5-4677-8dd6-1692dc799893"},"vehicle_type_id":"4","last_reported":1718824028,"current_range_meters":31200,"station_id":"ce4bgrp2rcd13ifvqc9g","pricing_plan_id":"cebpf4jnsgd1na2vs0mg"},{"bike_id":"f2ec0cec-6c5d-4ea2-9c84-88b7d50b4400","system_id":"levelo_inurba_marseille","lat":43.305989,"lon":5.37225,"is_reserved":false,"is_disabled":false,"rental_uris":{"android":"levelo://app?vid=f2ec0cec-6c5d-4ea2-9c84-88b7d50b4400","ios":"levelo://app?vid=f2ec0cec-6c5d-4ea2-9c84-88b7d50b4400"},"vehicle_type_id":"4","last_reported":1718824028,"current_range_meters":6800,"station_id":"ce4bgqh2rcd13ifvqc4g","pricing_plan_id":"cebpf4jnsgd1na2vs0mg"},{"bike_id":"cb22e57b-145b-482b-b24d-1fbce4aeafc2","system_id":"levelo_inurba_marseille","lat":43.319048,"lon":5.373588,"is_reserved":false,"is_disabled":false,"rental_uris":{"android":"levelo://app?vid=cb22e57b-145b-482b-b24d-1fbce4aeafc2","ios":"levelo://app?vid=cb22e57b-145b-482b-b24d-1fbce4aeafc2"},"vehicle_type_id":"4","last_reported":1718824028,"current_range_meters":3600,"station_id":"","pricing_plan_id":"cebpf4jnsgd1na2vs0mg"},{"bike_id":"a9672e6b-fb57-4498-9f2f-782685a52950","system_id":"levelo_inurba_marseille","lat":43.311131,"lon":5.377651,"is_reserved":false,"is_disabled":false,"rental_uris":{"android":"levelo://app?vid=a9672e6b-fb57-4498-9f2f-782685a52950","ios":"levelo://app?vid=a9672e6b-fb57-4498-9f2f-782685a52950"},"vehicle_type_id":"4","last_reported":1718824028,"current_range_meters":26000,"station_id":"ce4bgt92rcd13ifvqcg0","pricing_plan_id":"cebpf4jnsgd1na2vs0mg"},{"bike_id":"6fc4c284-fea3-4ba6-89fc-2a139b784eb1","system_id":"levelo_inurba_marseille","lat":43.31118,"lon":5.377713,"is_reserved":false,"is_disabled":false,"rental_uris":{"android":"levelo://app?vid=6fc4c284-fea3-4ba6-89fc-2a139b784eb1","ios":"levelo://app?vid=6fc4c284-fea3-4ba6-89fc-2a139b784eb1"},"vehicle_type_id":"4","last_reported":1718824028,"current_range_meters":0,"station_id":"ce4bgt92rcd13ifvqcg0","pricing_plan_id":"cebpf4jnsgd1na2vs0mg"},{"bike_id":"db8aba37-9f9d-4ee8-895d-28b57411bf57","system_id":"levelo_inurba_marseille","lat":43.30477,"lon":5.368325,"is_reserved":false,"is_disabled":false,"rental_uris":{"android":"levelo://app?vid=db8aba37-9f9d-4ee8-895d-28b57411bf57","ios":"levelo://app?vid=db8aba37-9f9d-4ee8-895d-28b57411bf57"},"vehicle_type_id":"4","last_reported":1718824028,"current_range_meters":18000,"station_id":"","pricing_plan_id":"cebpf4jnsgd1na2vs0mg"},{"bike_id":"c95fe6ae-d21d-405f-bc36-24a76be4ab44","system_id":"levelo_inurba_marseille","lat":43.311125,"lon":5.377624,"is_reserved":false,"is_disabled":false,"rental_uris":{"android":"levelo://app?vid=c95fe6ae-d21d-405f-bc36-24a76be4ab44","ios":"levelo://app?vid=c95fe6ae-d21d-405f-bc36-24a76be4ab44"},"vehicle_type_id":"4","last_reported":1718824028,"current_range_meters":26400,"station_id":"ce4bgt92rcd13ifvqcg0","pricing_plan_id":"cebpf4jnsgd1na2vs0mg"},{"bike_id":"972c86cd-1bf2-4922-b652-0d48e02ad3cf","system_id":"levelo_inurba_marseille","lat":43.311125,"lon":5.377624,"is_reserved":false,"is_disabled":false,"rental_uris":{"android":"levelo://app?vid=972c86cd-1bf2-4922-b652-0d48e02ad3cf","ios":"levelo://app?vid=972c86cd-1bf2-4922-b652-0d48e02ad3cf"},"vehicle_type_id":"4","last_reported":1718824028,"current_range_meters":15600,"station_id":"ce4bgt92rcd13ifvqcg0","pricing_plan_id":"cebpf4jnsgd1na2vs0mg"},{"bike_id":"808d759f-a7f8-40cb-a8af-69bc1f795454","system_id":"levelo_inurba_marseille","lat":43.30459,"lon":5.36713,"is_reserved":false,"is_disabled":false,"rental_uris":{"android":"levelo://app?vid=808d759f-a7f8-40cb-a8af-69bc1f795454","ios":"levelo://app?vid=808d759f-a7f8-40cb-a8af-69bc1f795454"},"vehicle_type_id":"4","last_reported":1718824028,"current_range_meters":12000,"station_id":"","pricing_plan_id":"cebpf4jnsgd1na2vs0mg"},{"bike_id":"6dd301a9-6563-404e-b0bc-d34184d05457","system_id":"levelo_inurba_marseille","lat":43.30459,"lon":5.36714,"is_reserved":false,"is_disabled":false,"rental_uris":{"android":"levelo://app?vid=6dd301a9-6563-404e-b0bc-d34184d05457","ios":"levelo://app?vid=6dd301a9-6563-404e-b0bc-d34184d05457"},"vehicle_type_id":"4","last_reported":1718824028,"current_range_meters":30000,"station_id":"ce4bgrp2rcd13ifvqc9g","pricing_plan_id":"cebpf4jnsgd1na2vs0mg"},{"bike_id":"8be0500c-5f39-4b17-ba8d-bcc257afd4b8","system_id":"levelo_inurba_marseille","lat":43.31707,"lon":5.37742,"is_reserved":false,"is_disabled":false,"rental_uris":{"android":"levelo://app?vid=8be0500c-5f39-4b17-ba8d-bcc257afd4b8","ios":"levelo://app?vid=8be0500c-5f39-4b17-ba8d-bcc257afd4b8"},"vehicle_type_id":"4","last_reported":1718824028,"current_range_meters":22800,"station_id":"ce4bgth2rcd13ifvqch0","pricing_plan_id":"cebpf4jnsgd1na2vs0mg"},{"bike_id":"e5c4756e-9d5c-4f93-a953-c06424fd3594","system_id":"levelo_inurba_marseille","lat":43.317075,"lon":5.377367,"is_reserved":false,"is_disabled":false,"rental_uris":{"android":"levelo://app?vid=e5c4756e-9d5c-4f93-a953-c06424fd3594","ios":"levelo://app?vid=e5c4756e-9d5c-4f93-a953-c06424fd3594"},"vehicle_type_id":"4","last_reported":1718824028,"current_range_meters":24000,"station_id":"ce4bgth2rcd13ifvqch0","pricing_plan_id":"cebpf4jnsgd1na2vs0mg"},{"bike_id":"f1bff957-b6d2-4e64-9bab-213df62a570b","system_id":"levelo_inurba_marseille","lat":43.313571,"lon":5.384829,"is_reserved":false,"is_disabled":false,"rental_uris":{"android":"levelo://app?vid=f1bff957-b6d2-4e64-9bab-213df62a570b","ios":"levelo://app?vid=f1bff957-b6d2-4e64-9bab-213df62a570b"},"vehicle_type_id":"4","last_reported":1718824028,"current_range_meters":12400,"station_id":"ce4bgt92rcd13ifvqcf0","pricing_plan_id":"cebpf4jnsgd1na2vs0mg"},{"bike_id":"1de4447a-4b85-4fe3-a45c-61e507ce4d92","system_id":"levelo_inurba_marseille","lat":43.317075,"lon":5.377367,"is_reserved":false,"is_disabled":false,"rental_uris":{"android":"levelo://app?vid=1de4447a-4b85-4fe3-a45c-61e507ce4d92","ios":"levelo://app?vid=1de4447a-4b85-4fe3-a45c-61e507ce4d92"},"vehicle_type_id":"4","last_reported":1718824028,"current_range_meters":5600,"station_id":"ce4bgth2rcd13ifvqch0","pricing_plan_id":"cebpf4jnsgd1na2vs0mg"},{"bike_id":"3301afb4-c0ed-4c85-88b8-46ec625fcede","system_id":"levelo_inurba_marseille","lat":43.303046,"lon":5.368981,"is_reserved":false,"is_disabled":false,"rental_uris":{"android":"levelo://app?vid=3301afb4-c0ed-4c85-88b8-46ec625fcede","ios":"levelo://app?vid=3301afb4-c0ed-4c85-88b8-46ec625fcede"},"vehicle_type_id":"4","last_reported":1718824028,"current_range_meters":22000,"station_id":"ce4bgqh2rcd13ifvqc5g","pricing_plan_id":"cebpf4jnsgd1na2vs0mg"},{"bike_id":"cadb1562-784c-4a14-b9e9-118153cfa517","system_id":"levelo_inurba_marseille","lat":43.315289,"lon":5.380349,"is_reserved":false,"is_disabled":false,"rental_uris":{"android":"levelo://app?vid=cadb1562-784c-4a14-b9e9-118153cfa517","ios":"levelo://app?vid=cadb1562-784c-4a14-b9e9-118153cfa517"},"vehicle_type_id":"4","last_reported":1718824028,"current_range_meters":30000,"station_id":"ce4bhsp2rcd13ifvqi50","pricing_plan_id":"cebpf4jnsgd1na2vs0mg"},{"bike_id":"72bed3e3-5b80-4319-80b0-b941a985fac9","system_id":"levelo_inurba_marseille","lat":43.320109,"lon":5.376448,"is_reserved":false,"is_disabled":false,"rental_uris":{"android":"levelo://app?vid=72bed3e3-5b80-4319-80b0-b941a985fac9","ios":"levelo://app?vid=72bed3e3-5b80-4319-80b0-b941a985fac9"},"vehicle_type_id":"4","last_reported":1718824028,"current_range_meters":30400,"station_id":"ce4bhih2rcd13ifvqfs0","pricing_plan_id":"cebpf4jnsgd1na2vs0mg"},{"bike_id":"9a87065f-3674-4f1e-9efe-ee4ba5e5ddf6","system_id":"levelo_inurba_marseille","lat":43.301128,"lon":5.366562,"is_reserved":false,"is_disabled":false,"rental_uris":{"android":"levelo://app?vid=9a87065f-3674-4f1e-9efe-ee4ba5e5ddf6","ios":"levelo://app?vid=9a87065f-3674-4f1e-9efe-ee4ba5e5ddf6"},"vehicle_type_id":"4","last_reported":1718824028,"current_range_meters":26800,"station_id":"","pricing_plan_id":"cebpf4jnsgd1na2vs0mg"},{"bike_id":"71d1e728-1cc8-4472-b29e-b0d58d332cab","system_id":"levelo_inurba_marseille","lat":43.308012,"lon":5.381511,"is_reserved":false,"is_disabled":false,"rental_uris":{"android":"levelo://app?vid=71d1e728-1cc8-4472-b29e-b0d58d332cab","ios":"levelo://app?vid=71d1e728-1cc8-4472-b29e-b0d58d332cab"},"vehicle_type_id":"4","last_reported":1718824028,"current_range_meters":20800,"station_id":"ce4bgt12rcd13ifvqce0","pricing_plan_id":"cebpf4jnsgd1na2vs0mg"},{"bike_id":"0dbb2c23-4611-4c6d-804a-cf7ab2c229d6","system_id":"levelo_inurba_marseille","lat":43.304606,"lon":5.379026,"is_reserved":false,"is_disabled":false,"rental_uris":{"android":"levelo://app?vid=0dbb2c23-4611-4c6d-804a-cf7ab2c229d6","ios":"levelo://app?vid=0dbb2c23-4611-4c6d-804a-cf7ab2c229d6"},"vehicle_type_id":"4","last_reported":1718824028,"current_range_meters":29200,"station_id":"ce4bgup2rcd13ifvqcn0","pricing_plan_id":"cebpf4jnsgd1na2vs0mg"},{"bike_id":"67a742a7-6ed9-461d-b8f9-15bbe938463a","system_id":"levelo_inurba_marseille","lat":43.324771,"lon":5.36557,"is_reserved":false,"is_disabled":false,"rental_uris":{"android":"levelo://app?vid=67a742a7-6ed9-461d-b8f9-15bbe938463a","ios":"levelo://app?vid=67a742a7-6ed9-461d-b8f9-15bbe938463a"},"vehicle_type_id":"4","last_reported":1718824028,"current_range_meters":9200,"station_id":"ce4bhs12rcd13ifvqhvg","pricing_plan_id":"cebpf4jnsgd1na2vs0mg"},{"bike_id":"f512c297-13c4-443e-ab64-2874540dcdd3","system_id":"levelo_inurba_marseille","lat":43.304606,"lon":5.379026,"is_reserved":false,"is_disabled":false,"rental_uris":{"android":"levelo://app?vid=f512c297-13c4-443e-ab64-2874540dcdd3","ios":"levelo://app?vid=f512c297-13c4-443e-ab64-2874540dcdd3"},"vehicle_type_id":"4","last_reported":1718824028,"current_range_meters":31600,"station_id":"ce4bgup2rcd13ifvqcn0","pricing_plan_id":"cebpf4jnsgd1na2vs0mg"},{"bike_id":"8e797e71-b375-4335-a181-1a804118d42d","system_id":"levelo_inurba_marseille","lat":43.324771,"lon":5.36557,"is_reserved":false,"is_disabled":false,"rental_uris":{"android":"levelo://app?vid=8e797e71-b375-4335-a181-1a804118d42d","ios":"levelo://app?vid=8e797e71-b375-4335-a181-1a804118d42d"},"vehicle_type_id":"4","last_reported":1718824028,"current_range_meters":6000,"station_id":"ce4bhs12rcd13ifvqhvg","pricing_plan_id":"cebpf4jnsgd1na2vs0mg"},{"bike_id":"d0e96b73-1565-4f71-bc61-69011d531ef8","system_id":"levelo_inurba_marseille","lat":43.324771,"lon":5.36557,"is_reserved":false,"is_disabled":false,"rental_uris":{"android":"levelo://app?vid=d0e96b73-1565-4f71-bc61-69011d531ef8","ios":"levelo://app?vid=d0e96b73-1565-4f71-bc61-69011d531ef8"},"vehicle_type_id":"4","last_reported":1718824028,"current_range_meters":8800,"station_id":"ce4bhs12rcd13ifvqhvg","pricing_plan_id":"cebpf4jnsgd1na2vs0mg"},{"bike_id":"098ad56a-0bb9-479d-addb-e77a830149a6","system_id":"levelo_inurba_marseille","lat":43.310804,"lon":5.38359,"is_reserved":false,"is_disabled":false,"rental_uris":{"android":"levelo://app?vid=098ad56a-0bb9-479d-addb-e77a830149a6","ios":"levelo://app?vid=098ad56a-0bb9-479d-addb-e77a830149a6"},"vehicle_type_id":"4","last_reported":1718824028,"current_range_meters":0,"station_id":"ce4bgv92rcd13ifvqcr0","pricing_plan_id":"cebpf4jnsgd1na2vs0mg"},{"bike_id":"23fe052f-d157-4331-b934-93ef7844a1c8","system_id":"levelo_inurba_marseille","lat":43.310804,"lon":5.38359,"is_reserved":false,"is_disabled":false,"rental_uris":{"android":"levelo://app?vid=23fe052f-d157-4331-b934-93ef7844a1c8","ios":"levelo://app?vid=23fe052f-d157-4331-b934-93ef7844a1c8"},"vehicle_type_id":"4","last_reported":1718824028,"current_range_meters":400,"station_id":"ce4bgv92rcd13ifvqcr0","pricing_plan_id":"cebpf4jnsgd1na2vs0mg"},{"bike_id":"7d5de36b-a4f3-4910-9ab3-a990b15631aa","system_id":"levelo_inurba_marseille","lat":43.302784,"lon":5.377158,"is_reserved":false,"is_disabled":false,"rental_uris":{"android":"levelo://app?vid=7d5de36b-a4f3-4910-9ab3-a990b15631aa","ios":"levelo://app?vid=7d5de36b-a4f3-4910-9ab3-a990b15631aa"},"vehicle_type_id":"4","last_reported":1718824028,"current_range_meters":17200,"station_id":"ce4bguh2rcd13ifvqcj0","pricing_plan_id":"cebpf4jnsgd1na2vs0mg"},{"bike_id":"08940b84-5501-47ac-892c-e3e757e37ce0","system_id":"levelo_inurba_marseille","lat":43.30033,"lon":5.36673,"is_reserved":false,"is_disabled":false,"rental_uris":{"android":"levelo://app?vid=08940b84-5501-47ac-892c-e3e757e37ce0","ios":"levelo://app?vid=08940b84-5501-47ac-892c-e3e757e37ce0"},"vehicle_type_id":"4","last_reported":1718824028,"current_range_meters":23600,"station_id":"","pricing_plan_id":"cebpf4jnsgd1na2vs0mg"},{"bike_id":"f5ece696-2781-4aed-976d-bff2a173baf1","system_id":"levelo_inurba_marseille","lat":43.302784,"lon":5.377158,"is_reserved":false,"is_disabled":false,"rental_uris":{"android":"levelo://app?vid=f5ece696-2781-4aed-976d-bff2a173baf1","ios":"levelo://app?vid=f5ece696-2781-4aed-976d-bff2a173baf1"},"vehicle_type_id":"4","last_reported":1718824028,"current_range_meters":2000,"station_id":"ce4bguh2rcd13ifvqcj0","pricing_plan_id":"cebpf4jnsgd1na2vs0mg"},{"bike_id":"9ca7514b-f9d6-4734-9d3f-56527ffb94e0","system_id":"levelo_inurba_marseille","lat":43.31989,"lon":5.38131,"is_reserved":false,"is_disabled":false,"rental_uris":{"android":"levelo://app?vid=9ca7514b-f9d6-4734-9d3f-56527ffb94e0","ios":"levelo://app?vid=9ca7514b-f9d6-4734-9d3f-56527ffb94e0"},"vehicle_type_id":"4","last_reported":1718824028,"current_range_meters":0,"station_id":"ce4bhr12rcd13ifvqhpg","pricing_plan_id":"cebpf4jnsgd1na2vs0mg"},{"bike_id":"0d77fd60-f7fa-4c73-8b54-5cc07394592c","system_id":"levelo_inurba_marseille","lat":43.31989,"lon":5.38164,"is_reserved":false,"is_disabled":false,"rental_uris":{"android":"levelo://app?vid=0d77fd60-f7fa-4c73-8b54-5cc07394592c","ios":"levelo://app?vid=0d77fd60-f7fa-4c73-8b54-5cc07394592c"},"vehicle_type_id":"4","last_reported":1718824028,"current_range_meters":17600,"station_id":"ce4bhr12rcd13ifvqhpg","pricing_plan_id":"cebpf4jnsgd1na2vs0mg"},{"bike_id":"9fbac87a-652a-4def-868e-246f052cb14e","system_id":"levelo_inurba_marseille","lat":43.319964,"lon":5.381578,"is_reserved":false,"is_disabled":false,"rental_uris":{"android":"levelo://app?vid=9fbac87a-652a-4def-868e-246f052cb14e","ios":"levelo://app?vid=9fbac87a-652a-4def-868e-246f052cb14e"},"vehicle_type_id":"4","last_reported":1718824028,"current_range_meters":28800,"station_id":"ce4bhr12rcd13ifvqhpg","pricing_plan_id":"cebpf4jnsgd1na2vs0mg"},{"bike_id":"8072d9ee-966a-4320-9045-b5e21c2718c8","system_id":"levelo_inurba_marseille","lat":43.31997,"lon":5.38162,"is_reserved":false,"is_disabled":false,"rental_uris":{"android":"levelo://app?vid=8072d9ee-966a-4320-9045-b5e21c2718c8","ios":"levelo://app?vid=8072d9ee-966a-4320-9045-b5e21c2718c8"},"vehicle_type_id":"4","last_reported":1718824028,"current_range_meters":400,"station_id":"ce4bhr12rcd13ifvqhpg","pricing_plan_id":"cebpf4jnsgd1na2vs0mg"},{"bike_id":"8a07b37f-e5a8-407f-9b9f-894eeb00d8f9","system_id":"levelo_inurba_marseille","lat":43.319973,"lon":5.38166,"is_reserved":false,"is_disabled":false,"rental_uris":{"android":"levelo://app?vid=8a07b37f-e5a8-407f-9b9f-894eeb00d8f9","ios":"levelo://app?vid=8a07b37f-e5a8-407f-9b9f-894eeb00d8f9"},"vehicle_type_id":"4","last_reported":1718824028,"current_range_meters":14400,"station_id":"ce4bhr12rcd13ifvqhpg","pricing_plan_id":"cebpf4jnsgd1na2vs0mg"},{"bike_id":"a0fb88ef-c475-4719-b0c1-cb0601658ba2","system_id":"levelo_inurba_marseille","lat":43.32002,"lon":5.38165,"is_reserved":false,"is_disabled":false,"rental_uris":{"android":"levelo://app?vid=a0fb88ef-c475-4719-b0c1-cb0601658ba2","ios":"levelo://app?vid=a0fb88ef-c475-4719-b0c1-cb0601658ba2"},"vehicle_type_id":"4","last_reported":1718824028,"current_range_meters":22000,"station_id":"ce4bhr12rcd13ifvqhpg","pricing_plan_id":"cebpf4jnsgd1na2vs0mg"},{"bike_id":"adddb5df-251a-4f5a-89f9-7bdf799e20b6","system_id":"levelo_inurba_marseille","lat":43.313571,"lon":5.384829,"is_reserved":false,"is_disabled":false,"rental_uris":{"android":"levelo://app?vid=adddb5df-251a-4f5a-89f9-7bdf799e20b6","ios":"levelo://app?vid=adddb5df-251a-4f5a-89f9-7bdf799e20b6"},"vehicle_type_id":"4","last_reported":1718824028,"current_range_meters":21600,"station_id":"ce4bgt92rcd13ifvqcf0","pricing_plan_id":"cebpf4jnsgd1na2vs0mg"},{"bike_id":"4c64decd-846c-456d-8d30-f894cf38e42e","system_id":"levelo_inurba_marseille","lat":43.313571,"lon":5.384829,"is_reserved":false,"is_disabled":false,"rental_uris":{"android":"levelo://app?vid=4c64decd-846c-456d-8d30-f894cf38e42e","ios":"levelo://app?vid=4c64decd-846c-456d-8d30-f894cf38e42e"},"vehicle_type_id":"4","last_reported":1718824028,"current_range_meters":4000,"station_id":"ce4bgt92rcd13ifvqcf0","pricing_plan_id":"cebpf4jnsgd1na2vs0mg"},{"bike_id":"a079d634-4cbc-47d3-a54d-9d7f6c4698d0","system_id":"levelo_inurba_marseille","lat":43.313571,"lon":5.384829,"is_reserved":false,"is_disabled":false,"rental_uris":{"android":"levelo://app?vid=a079d634-4cbc-47d3-a54d-9d7f6c4698d0","ios":"levelo://app?vid=a079d634-4cbc-47d3-a54d-9d7f6c4698d0"},"vehicle_type_id":"4","last_reported":1718824028,"current_range_meters":17200,"station_id":"ce4bgt92rcd13ifvqcf0","pricing_plan_id":"cebpf4jnsgd1na2vs0mg"},{"bike_id":"2a953da2-de00-4e5d-9b5b-0ac0e154e713","system_id":"levelo_inurba_marseille","lat":43.313571,"lon":5.384829,"is_reserved":false,"is_disabled":false,"rental_uris":{"android":"levelo://app?vid=2a953da2-de00-4e5d-9b5b-0ac0e154e713","ios":"levelo://app?vid=2a953da2-de00-4e5d-9b5b-0ac0e154e713"},"vehicle_type_id":"4","last_reported":1718824028,"current_range_meters":13600,"station_id":"ce4bgt92rcd13ifvqcf0","pricing_plan_id":"cebpf4jnsgd1na2vs0mg"},{"bike_id":"24ae4b4d-f337-46af-8d1d-a3ae6e27c494","system_id":"levelo_inurba_marseille","lat":43.313571,"lon":5.384829,"is_reserved":false,"is_disabled":false,"rental_uris":{"android":"levelo://app?vid=24ae4b4d-f337-46af-8d1d-a3ae6e27c494","ios":"levelo://app?vid=24ae4b4d-f337-46af-8d1d-a3ae6e27c494"},"vehicle_type_id":"4","last_reported":1718824028,"current_range_meters":7600,"station_id":"ce4bgt92rcd13ifvqcf0","pricing_plan_id":"cebpf4jnsgd1na2vs0mg"},{"bike_id":"c1195ea2-b194-4517-9251-d55887a398e4","system_id":"levelo_inurba_marseille","lat":43.303667,"lon":5.381563,"is_reserved":false,"is_disabled":false,"rental_uris":{"android":"levelo://app?vid=c1195ea2-b194-4517-9251-d55887a398e4","ios":"levelo://app?vid=c1195ea2-b194-4517-9251-d55887a398e4"},"vehicle_type_id":"4","last_reported":1718824028,"current_range_meters":400,"station_id":"ce4bh692rcd13ifvqea0","pricing_plan_id":"cebpf4jnsgd1na2vs0mg"},{"bike_id":"8894877d-1d0e-46b7-b58f-9af605c99275","system_id":"levelo_inurba_marseille","lat":43.31199,"lon":5.38667,"is_reserved":false,"is_disabled":false,"rental_uris":{"android":"levelo://app?vid=8894877d-1d0e-46b7-b58f-9af605c99275","ios":"levelo://app?vid=8894877d-1d0e-46b7-b58f-9af605c99275"},"vehicle_type_id":"4","last_reported":1718824028,"current_range_meters":1200,"station_id":"","pricing_plan_id":"cebpf4jnsgd1na2vs0mg"},{"bike_id":"0f669bfd-3a11-4768-a97c-2e8b4945ccbe","system_id":"levelo_inurba_marseille","lat":43.298433,"lon":5.362774,"is_reserved":false,"is_disabled":false,"rental_uris":{"android":"levelo://app?vid=0f669bfd-3a11-4768-a97c-2e8b4945ccbe","ios":"levelo://app?vid=0f669bfd-3a11-4768-a97c-2e8b4945ccbe"},"vehicle_type_id":"4","last_reported":1718824028,"current_range_meters":0,"station_id":"ce4bgpp2rcd13ifvqc3g","pricing_plan_id":"cebpf4jnsgd1na2vs0mg"},{"bike_id":"46b3b7fd-f516-40ba-9058-5c501f71fe85","system_id":"levelo_inurba_marseille","lat":43.298433,"lon":5.362774,"is_reserved":false,"is_disabled":false,"rental_uris":{"android":"levelo://app?vid=46b3b7fd-f516-40ba-9058-5c501f71fe85","ios":"levelo://app?vid=46b3b7fd-f516-40ba-9058-5c501f71fe85"},"vehicle_type_id":"4","last_reported":1718824028,"current_range_meters":16400,"station_id":"ce4bgpp2rcd13ifvqc3g","pricing_plan_id":"cebpf4jnsgd1na2vs0mg"},{"bike_id":"bd8d553a-06f1-4b06-806b-d540d75c2b19","system_id":"levelo_inurba_marseille","lat":43.299243,"lon":5.374807,"is_reserved":false,"is_disabled":false,"rental_uris":{"android":"levelo://app?vid=bd8d553a-06f1-4b06-806b-d540d75c2b19","ios":"levelo://app?vid=bd8d553a-06f1-4b06-806b-d540d75c2b19"},"vehicle_type_id":"4","last_reported":1718824028,"current_range_meters":17200,"station_id":"ce4bgjh2rcd13ifvqbg0","pricing_plan_id":"cebpf4jnsgd1na2vs0mg"},{"bike_id":"08e3bdcb-eb57-45f9-9710-6e2c3e9b076e","system_id":"levelo_inurba_marseille","lat":43.31179,"lon":5.3871,"is_reserved":false,"is_disabled":false,"rental_uris":{"android":"levelo://app?vid=08e3bdcb-eb57-45f9-9710-6e2c3e9b076e","ios":"levelo://app?vid=08e3bdcb-eb57-45f9-9710-6e2c3e9b076e"},"vehicle_type_id":"4","last_reported":1718824028,"current_range_meters":31200,"station_id":"ce4bgv12rcd13ifvqcp0","pricing_plan_id":"cebpf4jnsgd1na2vs0mg"},{"bike_id":"1de1f64b-1563-421b-b360-06aa8b0d2afa","system_id":"levelo_inurba_marseille","lat":43.300093,"lon":5.37725,"is_reserved":false,"is_disabled":false,"rental_uris":{"android":"levelo://app?vid=1de1f64b-1563-421b-b360-06aa8b0d2afa","ios":"levelo://app?vid=1de1f64b-1563-421b-b360-06aa8b0d2afa"},"vehicle_type_id":"4","last_reported":1718824028,"current_range_meters":800,"station_id":"","pricing_plan_id":"cebpf4jnsgd1na2vs0mg"},{"bike_id":"a6749b7a-7918-49a9-beb6-c1942961dfb3","system_id":"levelo_inurba_marseille","lat":43.299243,"lon":5.374807,"is_reserved":false,"is_disabled":false,"rental_uris":{"android":"levelo://app?vid=a6749b7a-7918-49a9-beb6-c1942961dfb3","ios":"levelo://app?vid=a6749b7a-7918-49a9-beb6-c1942961dfb3"},"vehicle_type_id":"4","last_reported":1718824028,"current_range_meters":12000,"station_id":"ce4bgjh2rcd13ifvqbg0","pricing_plan_id":"cebpf4jnsgd1na2vs0mg"},{"bike_id":"6c1f249b-eac2-4906-8eaa-c29f9eafd209","system_id":"levelo_inurba_marseille","lat":43.311722,"lon":5.387247,"is_reserved":false,"is_disabled":false,"rental_uris":{"android":"levelo://app?vid=6c1f249b-eac2-4906-8eaa-c29f9eafd209","ios":"levelo://app?vid=6c1f249b-eac2-4906-8eaa-c29f9eafd209"},"vehicle_type_id":"4","last_reported":1718824028,"current_range_meters":13600,"station_id":"ce4bgv12rcd13ifvqcp0","pricing_plan_id":"cebpf4jnsgd1na2vs0mg"},{"bike_id":"8f462bf3-5fdf-452e-93a5-cb829a98ec7e","system_id":"levelo_inurba_marseille","lat":43.311722,"lon":5.387247,"is_reserved":false,"is_disabled":false,"rental_uris":{"android":"levelo://app?vid=8f462bf3-5fdf-452e-93a5-cb829a98ec7e","ios":"levelo://app?vid=8f462bf3-5fdf-452e-93a5-cb829a98ec7e"},"vehicle_type_id":"4","last_reported":1718824028,"current_range_meters":8400,"station_id":"ce4bgv12rcd13ifvqcp0","pricing_plan_id":"cebpf4jnsgd1na2vs0mg"},{"bike_id":"3d4c32cd-a640-4740-9b25-4da8d1456b3b","system_id":"levelo_inurba_marseille","lat":43.3117,"lon":5.38717,"is_reserved":false,"is_disabled":false,"rental_uris":{"android":"levelo://app?vid=3d4c32cd-a640-4740-9b25-4da8d1456b3b","ios":"levelo://app?vid=3d4c32cd-a640-4740-9b25-4da8d1456b3b"},"vehicle_type_id":"4","last_reported":1718824028,"current_range_meters":400,"station_id":"ce4bgv12rcd13ifvqcp0","pricing_plan_id":"cebpf4jnsgd1na2vs0mg"},{"bike_id":"3f44b875-680f-4c65-9c0c-29f8c7b34f95","system_id":"levelo_inurba_marseille","lat":43.311722,"lon":5.387247,"is_reserved":false,"is_disabled":false,"rental_uris":{"android":"levelo://app?vid=3f44b875-680f-4c65-9c0c-29f8c7b34f95","ios":"levelo://app?vid=3f44b875-680f-4c65-9c0c-29f8c7b34f95"},"vehicle_type_id":"4","last_reported":1718824028,"current_range_meters":6400,"station_id":"ce4bgv12rcd13ifvqcp0","pricing_plan_id":"cebpf4jnsgd1na2vs0mg"},{"bike_id":"8fc8988d-4425-4044-9e6b-080b5f3658e1","system_id":"levelo_inurba_marseille","lat":43.322872,"lon":5.382756,"is_reserved":false,"is_disabled":false,"rental_uris":{"android":"levelo://app?vid=8fc8988d-4425-4044-9e6b-080b5f3658e1","ios":"levelo://app?vid=8fc8988d-4425-4044-9e6b-080b5f3658e1"},"vehicle_type_id":"4","last_reported":1718824028,"current_range_meters":16400,"station_id":"ce4bhr12rcd13ifvqhqg","pricing_plan_id":"cebpf4jnsgd1na2vs0mg"},{"bike_id":"f9511179-10c0-4b25-9495-909ee966754a","system_id":"levelo_inurba_marseille","lat":43.322872,"lon":5.382756,"is_reserved":false,"is_disabled":false,"rental_uris":{"android":"levelo://app?vid=f9511179-10c0-4b25-9495-909ee966754a","ios":"levelo://app?vid=f9511179-10c0-4b25-9495-909ee966754a"},"vehicle_type_id":"4","last_reported":1718824028,"current_range_meters":26400,"station_id":"ce4bhr12rcd13ifvqhqg","pricing_plan_id":"cebpf4jnsgd1na2vs0mg"},{"bike_id":"d5743a27-2e53-4b6e-869a-601cc5809611","system_id":"levelo_inurba_marseille","lat":43.297163,"lon":5.365866,"is_reserved":false,"is_disabled":false,"rental_uris":{"android":"levelo://app?vid=d5743a27-2e53-4b6e-869a-601cc5809611","ios":"levelo://app?vid=d5743a27-2e53-4b6e-869a-601cc5809611"},"vehicle_type_id":"4","last_reported":1718824028,"current_range_meters":6000,"station_id":"ce4bgn12rcd13ifvqbt0","pricing_plan_id":"cebpf4jnsgd1na2vs0mg"},{"bike_id":"781e6200-d773-4a45-9ff7-14e12185b01c","system_id":"levelo_inurba_marseille","lat":43.298725,"lon":5.376705,"is_reserved":false,"is_disabled":false,"rental_uris":{"android":"levelo://app?vid=781e6200-d773-4a45-9ff7-14e12185b01c","ios":"levelo://app?vid=781e6200-d773-4a45-9ff7-14e12185b01c"},"vehicle_type_id":"4","last_reported":1718824028,"current_range_meters":19200,"station_id":"","pricing_plan_id":"cebpf4jnsgd1na2vs0mg"},{"bike_id":"2a42502e-4a26-4730-a36d-a07ad7c25a95","system_id":"levelo_inurba_marseille","lat":43.31829,"lon":5.38749,"is_reserved":false,"is_disabled":false,"rental_uris":{"android":"levelo://app?vid=2a42502e-4a26-4730-a36d-a07ad7c25a95","ios":"levelo://app?vid=2a42502e-4a26-4730-a36d-a07ad7c25a95"},"vehicle_type_id":"4","last_reported":1718824028,"current_range_meters":6000,"station_id":"","pricing_plan_id":"cebpf4jnsgd1na2vs0mg"},{"bike_id":"c96c3e45-1d7f-46c2-b393-b835685e7e31","system_id":"levelo_inurba_marseille","lat":43.327874,"lon":5.359866,"is_reserved":false,"is_disabled":false,"rental_uris":{"android":"levelo://app?vid=c96c3e45-1d7f-46c2-b393-b835685e7e31","ios":"levelo://app?vid=c96c3e45-1d7f-46c2-b393-b835685e7e31"},"vehicle_type_id":"4","last_reported":1718824028,"current_range_meters":21200,"station_id":"","pricing_plan_id":"cebpf4jnsgd1na2vs0mg"},{"bike_id":"6397c2d6-da95-430c-ae93-0ec69a47b3c6","system_id":"levelo_inurba_marseille","lat":43.30184,"lon":5.38338,"is_reserved":false,"is_disabled":false,"rental_uris":{"android":"levelo://app?vid=6397c2d6-da95-430c-ae93-0ec69a47b3c6","ios":"levelo://app?vid=6397c2d6-da95-430c-ae93-0ec69a47b3c6"},"vehicle_type_id":"4","last_reported":1718824028,"current_range_meters":2400,"station_id":"","pricing_plan_id":"cebpf4jnsgd1na2vs0mg"},{"bike_id":"53d9c022-0e6e-4f76-84b9-93958f162191","system_id":"levelo_inurba_marseille","lat":43.315907,"lon":5.389097,"is_reserved":false,"is_disabled":false,"rental_uris":{"android":"levelo://app?vid=53d9c022-0e6e-4f76-84b9-93958f162191","ios":"levelo://app?vid=53d9c022-0e6e-4f76-84b9-93958f162191"},"vehicle_type_id":"4","last_reported":1718824028,"current_range_meters":9200,"station_id":"","pricing_plan_id":"cebpf4jnsgd1na2vs0mg"},{"bike_id":"d1e6e734-1466-41b4-9fba-cc1b02b0f6a5","system_id":"levelo_inurba_marseille","lat":43.296131,"lon":5.370791,"is_reserved":false,"is_disabled":false,"rental_uris":{"android":"levelo://app?vid=d1e6e734-1466-41b4-9fba-cc1b02b0f6a5","ios":"levelo://app?vid=d1e6e734-1466-41b4-9fba-cc1b02b0f6a5"},"vehicle_type_id":"4","last_reported":1718824028,"current_range_meters":2800,"station_id":"ce4bgnh2rcd13ifvqc0g","pricing_plan_id":"cebpf4jnsgd1na2vs0mg"},{"bike_id":"b2c514ff-131d-4d6b-8cfa-4226a54cbef9","system_id":"levelo_inurba_marseille","lat":43.29573,"lon":5.367355,"is_reserved":false,"is_disabled":false,"rental_uris":{"android":"levelo://app?vid=b2c514ff-131d-4d6b-8cfa-4226a54cbef9","ios":"levelo://app?vid=b2c514ff-131d-4d6b-8cfa-4226a54cbef9"},"vehicle_type_id":"4","last_reported":1718824028,"current_range_meters":7200,"station_id":"ce4bgph2rcd13ifvqc2g","pricing_plan_id":"cebpf4jnsgd1na2vs0mg"},{"bike_id":"86e6fd44-8bb1-401b-8611-8b3cffb4e18b","system_id":"levelo_inurba_marseille","lat":43.29573,"lon":5.367355,"is_reserved":false,"is_disabled":false,"rental_uris":{"android":"levelo://app?vid=86e6fd44-8bb1-401b-8611-8b3cffb4e18b","ios":"levelo://app?vid=86e6fd44-8bb1-401b-8611-8b3cffb4e18b"},"vehicle_type_id":"4","last_reported":1718824028,"current_range_meters":2800,"station_id":"ce4bgph2rcd13ifvqc2g","pricing_plan_id":"cebpf4jnsgd1na2vs0mg"},{"bike_id":"2afde492-91e2-468a-bbf3-52611af6d6e6","system_id":"levelo_inurba_marseille","lat":43.299028,"lon":5.381509,"is_reserved":false,"is_disabled":false,"rental_uris":{"android":"levelo://app?vid=2afde492-91e2-468a-bbf3-52611af6d6e6","ios":"levelo://app?vid=2afde492-91e2-468a-bbf3-52611af6d6e6"},"vehicle_type_id":"4","last_reported":1718824028,"current_range_meters":15200,"station_id":"ce4bgj12rcd13ifvqbc0","pricing_plan_id":"cebpf4jnsgd1na2vs0mg"},{"bike_id":"1ad69414-7bd4-446b-a00d-63d6d96001e8","system_id":"levelo_inurba_marseille","lat":43.296921,"lon":5.376579,"is_reserved":false,"is_disabled":false,"rental_uris":{"android":"levelo://app?vid=1ad69414-7bd4-446b-a00d-63d6d96001e8","ios":"levelo://app?vid=1ad69414-7bd4-446b-a00d-63d6d96001e8"},"vehicle_type_id":"4","last_reported":1718824028,"current_range_meters":7600,"station_id":"ce4bgkh2rcd13ifvqbl0","pricing_plan_id":"cebpf4jnsgd1na2vs0mg"},{"bike_id":"815d3e35-3d27-4800-8083-efdb6fc060f5","system_id":"levelo_inurba_marseille","lat":43.296921,"lon":5.376579,"is_reserved":false,"is_disabled":false,"rental_uris":{"android":"levelo://app?vid=815d3e35-3d27-4800-8083-efdb6fc060f5","ios":"levelo://app?vid=815d3e35-3d27-4800-8083-efdb6fc060f5"},"vehicle_type_id":"4","last_reported":1718824028,"current_range_meters":3200,"station_id":"ce4bgkh2rcd13ifvqbl0","pricing_plan_id":"cebpf4jnsgd1na2vs0mg"},{"bike_id":"5bbb555c-9edb-412b-92c1-0d17bb1bf99d","system_id":"levelo_inurba_marseille","lat":43.296935,"lon":5.376544,"is_reserved":false,"is_disabled":false,"rental_uris":{"android":"levelo://app?vid=5bbb555c-9edb-412b-92c1-0d17bb1bf99d","ios":"levelo://app?vid=5bbb555c-9edb-412b-92c1-0d17bb1bf99d"},"vehicle_type_id":"4","last_reported":1718824028,"current_range_meters":6000,"station_id":"ce4bgkh2rcd13ifvqbl0","pricing_plan_id":"cebpf4jnsgd1na2vs0mg"},{"bike_id":"54ab3880-887f-47bc-9be6-2f1ec4af96b9","system_id":"levelo_inurba_marseille","lat":43.296921,"lon":5.376579,"is_reserved":false,"is_disabled":false,"rental_uris":{"android":"levelo://app?vid=54ab3880-887f-47bc-9be6-2f1ec4af96b9","ios":"levelo://app?vid=54ab3880-887f-47bc-9be6-2f1ec4af96b9"},"vehicle_type_id":"4","last_reported":1718824028,"current_range_meters":7600,"station_id":"ce4bgkh2rcd13ifvqbl0","pricing_plan_id":"cebpf4jnsgd1na2vs0mg"},{"bike_id":"365e011f-b38e-4e66-9622-5c843f801a5c","system_id":"levelo_inurba_marseille","lat":43.296935,"lon":5.376544,"is_reserved":false,"is_disabled":false,"rental_uris":{"android":"levelo://app?vid=365e011f-b38e-4e66-9622-5c843f801a5c","ios":"levelo://app?vid=365e011f-b38e-4e66-9622-5c843f801a5c"},"vehicle_type_id":"4","last_reported":1718824028,"current_range_meters":24400,"station_id":"ce4bgkh2rcd13ifvqbl0","pricing_plan_id":"cebpf4jnsgd1na2vs0mg"},{"bike_id":"a3289c65-1e85-418c-ac0d-9fce64e6e67b","system_id":"levelo_inurba_marseille","lat":43.299028,"lon":5.381509,"is_reserved":false,"is_disabled":false,"rental_uris":{"android":"levelo://app?vid=a3289c65-1e85-418c-ac0d-9fce64e6e67b","ios":"levelo://app?vid=a3289c65-1e85-418c-ac0d-9fce64e6e67b"},"vehicle_type_id":"4","last_reported":1718824028,"current_range_meters":24800,"station_id":"ce4bgj12rcd13ifvqbc0","pricing_plan_id":"cebpf4jnsgd1na2vs0mg"},{"bike_id":"2dbd34dd-486a-43c0-8b5d-1dc2604e79cc","system_id":"levelo_inurba_marseille","lat":43.296935,"lon":5.376544,"is_reserved":false,"is_disabled":false,"rental_uris":{"android":"levelo://app?vid=2dbd34dd-486a-43c0-8b5d-1dc2604e79cc","ios":"levelo://app?vid=2dbd34dd-486a-43c0-8b5d-1dc2604e79cc"},"vehicle_type_id":"4","last_reported":1718824028,"current_range_meters":9600,"station_id":"ce4bgkh2rcd13ifvqbl0","pricing_plan_id":"cebpf4jnsgd1na2vs0mg"},{"bike_id":"535d3cac-bcfd-4590-be39-5ac08021b8cb","system_id":"levelo_inurba_marseille","lat":43.299028,"lon":5.381509,"is_reserved":false,"is_disabled":false,"rental_uris":{"android":"levelo://app?vid=535d3cac-bcfd-4590-be39-5ac08021b8cb","ios":"levelo://app?vid=535d3cac-bcfd-4590-be39-5ac08021b8cb"},"vehicle_type_id":"4","last_reported":1718824028,"current_range_meters":30000,"station_id":"ce4bgj12rcd13ifvqbc0","pricing_plan_id":"cebpf4jnsgd1na2vs0mg"},{"bike_id":"8bf16060-c6e9-44cb-b4ae-99ad09ddfdc1","system_id":"levelo_inurba_marseille","lat":43.309589,"lon":5.390258,"is_reserved":false,"is_disabled":false,"rental_uris":{"android":"levelo://app?vid=8bf16060-c6e9-44cb-b4ae-99ad09ddfdc1","ios":"levelo://app?vid=8bf16060-c6e9-44cb-b4ae-99ad09ddfdc1"},"vehicle_type_id":"4","last_reported":1718824028,"current_range_meters":0,"station_id":"ce4bgup2rcd13ifvqco0","pricing_plan_id":"cebpf4jnsgd1na2vs0mg"},{"bike_id":"50dede14-2b3c-45a2-9584-36c225aca495","system_id":"levelo_inurba_marseille","lat":43.317557,"lon":5.390173,"is_reserved":false,"is_disabled":false,"rental_uris":{"android":"levelo://app?vid=50dede14-2b3c-45a2-9584-36c225aca495","ios":"levelo://app?vid=50dede14-2b3c-45a2-9584-36c225aca495"},"vehicle_type_id":"4","last_reported":1718824028,"current_range_meters":0,"station_id":"ce4bhqp2rcd13ifvqhng","pricing_plan_id":"cebpf4jnsgd1na2vs0mg"},{"bike_id":"c80f37b5-bc34-4ed4-8951-76108d71e7a2","system_id":"levelo_inurba_marseille","lat":43.317557,"lon":5.390173,"is_reserved":false,"is_disabled":false,"rental_uris":{"android":"levelo://app?vid=c80f37b5-bc34-4ed4-8951-76108d71e7a2","ios":"levelo://app?vid=c80f37b5-bc34-4ed4-8951-76108d71e7a2"},"vehicle_type_id":"4","last_reported":1718824028,"current_range_meters":28800,"station_id":"ce4bhqp2rcd13ifvqhng","pricing_plan_id":"cebpf4jnsgd1na2vs0mg"},{"bike_id":"f9f37b1f-d114-43fd-8dc9-373198a5e976","system_id":"levelo_inurba_marseille","lat":43.317557,"lon":5.390173,"is_reserved":false,"is_disabled":false,"rental_uris":{"android":"levelo://app?vid=f9f37b1f-d114-43fd-8dc9-373198a5e976","ios":"levelo://app?vid=f9f37b1f-d114-43fd-8dc9-373198a5e976"},"vehicle_type_id":"4","last_reported":1718824028,"current_range_meters":24000,"station_id":"ce4bhqp2rcd13ifvqhng","pricing_plan_id":"cebpf4jnsgd1na2vs0mg"},{"bike_id":"3c6560c0-0b9e-462b-a300-be9e18690a41","system_id":"levelo_inurba_marseille","lat":43.317557,"lon":5.390173,"is_reserved":false,"is_disabled":false,"rental_uris":{"android":"levelo://app?vid=3c6560c0-0b9e-462b-a300-be9e18690a41","ios":"levelo://app?vid=3c6560c0-0b9e-462b-a300-be9e18690a41"},"vehicle_type_id":"4","last_reported":1718824028,"current_range_meters":28800,"station_id":"ce4bhqp2rcd13ifvqhng","pricing_plan_id":"cebpf4jnsgd1na2vs0mg"},{"bike_id":"4c1523fd-e6a9-4e31-919d-418f3377047d","system_id":"levelo_inurba_marseille","lat":43.317557,"lon":5.390173,"is_reserved":false,"is_disabled":false,"rental_uris":{"android":"levelo://app?vid=4c1523fd-e6a9-4e31-919d-418f3377047d","ios":"levelo://app?vid=4c1523fd-e6a9-4e31-919d-418f3377047d"},"vehicle_type_id":"4","last_reported":1718824028,"current_range_meters":16800,"station_id":"ce4bhqp2rcd13ifvqhng","pricing_plan_id":"cebpf4jnsgd1na2vs0mg"},{"bike_id":"03364395-d5aa-4708-b295-4b5f637419c8","system_id":"levelo_inurba_marseille","lat":43.317557,"lon":5.390173,"is_reserved":false,"is_disabled":false,"rental_uris":{"android":"levelo://app?vid=03364395-d5aa-4708-b295-4b5f637419c8","ios":"levelo://app?vid=03364395-d5aa-4708-b295-4b5f637419c8"},"vehicle_type_id":"4","last_reported":1718824028,"current_range_meters":6000,"station_id":"ce4bhqp2rcd13ifvqhng","pricing_plan_id":"cebpf4jnsgd1na2vs0mg"},{"bike_id":"93475e83-fc67-4427-8684-803c6a20b724","system_id":"levelo_inurba_marseille","lat":43.298005,"lon":5.381241,"is_reserved":false,"is_disabled":false,"rental_uris":{"android":"levelo://app?vid=93475e83-fc67-4427-8684-803c6a20b724","ios":"levelo://app?vid=93475e83-fc67-4427-8684-803c6a20b724"},"vehicle_type_id":"4","last_reported":1718824028,"current_range_meters":31200,"station_id":"ce4bgih2rcd13ifvqba0","pricing_plan_id":"cebpf4jnsgd1na2vs0mg"},{"bike_id":"ae4686eb-97b9-4c58-b1a7-0fe174ebaef4","system_id":"levelo_inurba_marseille","lat":43.304274,"lon":5.388873,"is_reserved":false,"is_disabled":false,"rental_uris":{"android":"levelo://app?vid=ae4686eb-97b9-4c58-b1a7-0fe174ebaef4","ios":"levelo://app?vid=ae4686eb-97b9-4c58-b1a7-0fe174ebaef4"},"vehicle_type_id":"4","last_reported":1718824028,"current_range_meters":0,"station_id":"ce4bgk12rcd13ifvqbi0","pricing_plan_id":"cebpf4jnsgd1na2vs0mg"},{"bike_id":"865ca177-1d53-4caa-af46-592d50e956c8","system_id":"levelo_inurba_marseille","lat":43.304274,"lon":5.388873,"is_reserved":false,"is_disabled":false,"rental_uris":{"android":"levelo://app?vid=865ca177-1d53-4caa-af46-592d50e956c8","ios":"levelo://app?vid=865ca177-1d53-4caa-af46-592d50e956c8"},"vehicle_type_id":"4","last_reported":1718824028,"current_range_meters":30000,"station_id":"ce4bgk12rcd13ifvqbi0","pricing_plan_id":"cebpf4jnsgd1na2vs0mg"},{"bike_id":"a74f4c6a-3d49-4a92-8147-bf5b1586c3e0","system_id":"levelo_inurba_marseille","lat":43.304274,"lon":5.388873,"is_reserved":false,"is_disabled":false,"rental_uris":{"android":"levelo://app?vid=a74f4c6a-3d49-4a92-8147-bf5b1586c3e0","ios":"levelo://app?vid=a74f4c6a-3d49-4a92-8147-bf5b1586c3e0"},"vehicle_type_id":"4","last_reported":1718824028,"current_range_meters":8400,"station_id":"ce4bgk12rcd13ifvqbi0","pricing_plan_id":"cebpf4jnsgd1na2vs0mg"},{"bike_id":"acf67eea-4101-4d6b-938b-b5329a3ecc8f","system_id":"levelo_inurba_marseille","lat":43.296277,"lon":5.377108,"is_reserved":false,"is_disabled":false,"rental_uris":{"android":"levelo://app?vid=acf67eea-4101-4d6b-938b-b5329a3ecc8f","ios":"levelo://app?vid=acf67eea-4101-4d6b-938b-b5329a3ecc8f"},"vehicle_type_id":"4","last_reported":1718824028,"current_range_meters":13200,"station_id":"ce4bgi92rcd13ifvqb90","pricing_plan_id":"cebpf4jnsgd1na2vs0mg"},{"bike_id":"8dfb9aa8-9d84-471d-9879-bf58058b322c","system_id":"levelo_inurba_marseille","lat":43.299707,"lon":5.384859,"is_reserved":false,"is_disabled":false,"rental_uris":{"android":"levelo://app?vid=8dfb9aa8-9d84-471d-9879-bf58058b322c","ios":"levelo://app?vid=8dfb9aa8-9d84-471d-9879-bf58058b322c"},"vehicle_type_id":"4","last_reported":1718824028,"current_range_meters":30000,"station_id":"ce4bgj92rcd13ifvqbd0","pricing_plan_id":"cebpf4jnsgd1na2vs0mg"},{"bike_id":"f3a16c36-006f-4a31-80ed-c00e8227e2a7","system_id":"levelo_inurba_marseille","lat":43.299707,"lon":5.384859,"is_reserved":false,"is_disabled":false,"rental_uris":{"android":"levelo://app?vid=f3a16c36-006f-4a31-80ed-c00e8227e2a7","ios":"levelo://app?vid=f3a16c36-006f-4a31-80ed-c00e8227e2a7"},"vehicle_type_id":"4","last_reported":1718824028,"current_range_meters":7200,"station_id":"ce4bgj92rcd13ifvqbd0","pricing_plan_id":"cebpf4jnsgd1na2vs0mg"},{"bike_id":"a33855a5-1408-4145-ba6d-f02a4b9c2100","system_id":"levelo_inurba_marseille","lat":43.299707,"lon":5.384859,"is_reserved":false,"is_disabled":false,"rental_uris":{"android":"levelo://app?vid=a33855a5-1408-4145-ba6d-f02a4b9c2100","ios":"levelo://app?vid=a33855a5-1408-4145-ba6d-f02a4b9c2100"},"vehicle_type_id":"4","last_reported":1718824028,"current_range_meters":18000,"station_id":"ce4bgj92rcd13ifvqbd0","pricing_plan_id":"cebpf4jnsgd1na2vs0mg"},{"bike_id":"0e9b443f-511d-4182-84d8-b88f28cadb99","system_id":"levelo_inurba_marseille","lat":43.32367,"lon":5.388836,"is_reserved":false,"is_disabled":false,"rental_uris":{"android":"levelo://app?vid=0e9b443f-511d-4182-84d8-b88f28cadb99","ios":"levelo://app?vid=0e9b443f-511d-4182-84d8-b88f28cadb99"},"vehicle_type_id":"4","last_reported":1718824028,"current_range_meters":0,"station_id":"ce4bhqp2rcd13ifvqhog","pricing_plan_id":"cebpf4jnsgd1na2vs0mg"},{"bike_id":"a08252dc-0c59-465f-9806-a222022a4c6c","system_id":"levelo_inurba_marseille","lat":43.296,"lon":5.38089,"is_reserved":false,"is_disabled":false,"rental_uris":{"android":"levelo://app?vid=a08252dc-0c59-465f-9806-a222022a4c6c","ios":"levelo://app?vid=a08252dc-0c59-465f-9806-a222022a4c6c"},"vehicle_type_id":"4","last_reported":1718824028,"current_range_meters":30000,"station_id":"ce4bgl12rcd13ifvqbo0","pricing_plan_id":"cebpf4jnsgd1na2vs0mg"},{"bike_id":"522fa437-1066-4333-9e31-de99682c6316","system_id":"levelo_inurba_marseille","lat":43.29602,"lon":5.381084,"is_reserved":false,"is_disabled":false,"rental_uris":{"android":"levelo://app?vid=522fa437-1066-4333-9e31-de99682c6316","ios":"levelo://app?vid=522fa437-1066-4333-9e31-de99682c6316"},"vehicle_type_id":"4","last_reported":1718824028,"current_range_meters":2000,"station_id":"ce4bgl12rcd13ifvqbo0","pricing_plan_id":"cebpf4jnsgd1na2vs0mg"},{"bike_id":"bb7a4051-27ed-4a80-ba2e-aa9d91c56375","system_id":"levelo_inurba_marseille","lat":43.29599,"lon":5.38113,"is_reserved":false,"is_disabled":false,"rental_uris":{"android":"levelo://app?vid=bb7a4051-27ed-4a80-ba2e-aa9d91c56375","ios":"levelo://app?vid=bb7a4051-27ed-4a80-ba2e-aa9d91c56375"},"vehicle_type_id":"4","last_reported":1718824028,"current_range_meters":16400,"station_id":"ce4bgl12rcd13ifvqbo0","pricing_plan_id":"cebpf4jnsgd1na2vs0mg"},{"bike_id":"a4fb0497-3519-49d2-b5fc-f6d117a9b16c","system_id":"levelo_inurba_marseille","lat":43.292749,"lon":5.368402,"is_reserved":false,"is_disabled":false,"rental_uris":{"android":"levelo://app?vid=a4fb0497-3519-49d2-b5fc-f6d117a9b16c","ios":"levelo://app?vid=a4fb0497-3519-49d2-b5fc-f6d117a9b16c"},"vehicle_type_id":"4","last_reported":1718824028,"current_range_meters":6400,"station_id":"ce4bhbp2rcd13ifvqesg","pricing_plan_id":"cebpf4jnsgd1na2vs0mg"},{"bike_id":"47d02bb6-8295-486c-9b16-6534f5477a51","system_id":"levelo_inurba_marseille","lat":43.293259,"lon":5.371586,"is_reserved":false,"is_disabled":false,"rental_uris":{"android":"levelo://app?vid=47d02bb6-8295-486c-9b16-6534f5477a51","ios":"levelo://app?vid=47d02bb6-8295-486c-9b16-6534f5477a51"},"vehicle_type_id":"4","last_reported":1718824028,"current_range_meters":6800,"station_id":"ce4bgh92rcd13ifvqb40","pricing_plan_id":"cebpf4jnsgd1na2vs0mg"},{"bike_id":"ed4309be-d3fc-47ea-9a73-141b239f19b8","system_id":"levelo_inurba_marseille","lat":43.293259,"lon":5.371586,"is_reserved":false,"is_disabled":false,"rental_uris":{"android":"levelo://app?vid=ed4309be-d3fc-47ea-9a73-141b239f19b8","ios":"levelo://app?vid=ed4309be-d3fc-47ea-9a73-141b239f19b8"},"vehicle_type_id":"4","last_reported":1718824028,"current_range_meters":5600,"station_id":"ce4bgh92rcd13ifvqb40","pricing_plan_id":"cebpf4jnsgd1na2vs0mg"},{"bike_id":"51cef71e-6877-443b-a244-21dbe9b72b5f","system_id":"levelo_inurba_marseille","lat":43.293259,"lon":5.371586,"is_reserved":false,"is_disabled":false,"rental_uris":{"android":"levelo://app?vid=51cef71e-6877-443b-a244-21dbe9b72b5f","ios":"levelo://app?vid=51cef71e-6877-443b-a244-21dbe9b72b5f"},"vehicle_type_id":"4","last_reported":1718824028,"current_range_meters":6000,"station_id":"ce4bgh92rcd13ifvqb40","pricing_plan_id":"cebpf4jnsgd1na2vs0mg"},{"bike_id":"904fa23b-75f3-4b9f-bd24-07d55e3fe121","system_id":"levelo_inurba_marseille","lat":43.292749,"lon":5.368402,"is_reserved":false,"is_disabled":false,"rental_uris":{"android":"levelo://app?vid=904fa23b-75f3-4b9f-bd24-07d55e3fe121","ios":"levelo://app?vid=904fa23b-75f3-4b9f-bd24-07d55e3fe121"},"vehicle_type_id":"4","last_reported":1718824028,"current_range_meters":29200,"station_id":"ce4bhbp2rcd13ifvqesg","pricing_plan_id":"cebpf4jnsgd1na2vs0mg"},{"bike_id":"a6c991e1-0b9d-457d-9e59-5528fda16492","system_id":"levelo_inurba_marseille","lat":43.29269,"lon":5.36839,"is_reserved":false,"is_disabled":false,"rental_uris":{"android":"levelo://app?vid=a6c991e1-0b9d-457d-9e59-5528fda16492","ios":"levelo://app?vid=a6c991e1-0b9d-457d-9e59-5528fda16492"},"vehicle_type_id":"4","last_reported":1718824028,"current_range_meters":31200,"station_id":"ce4bhbp2rcd13ifvqesg","pricing_plan_id":"cebpf4jnsgd1na2vs0mg"},{"bike_id":"9d629953-314b-4612-bc50-ba9119340896","system_id":"levelo_inurba_marseille","lat":43.305994,"lon":5.393687,"is_reserved":false,"is_disabled":false,"rental_uris":{"android":"levelo://app?vid=9d629953-314b-4612-bc50-ba9119340896","ios":"levelo://app?vid=9d629953-314b-4612-bc50-ba9119340896"},"vehicle_type_id":"4","last_reported":1718824028,"current_range_meters":22800,"station_id":"ce4bh0p2rcd13ifvqd80","pricing_plan_id":"cebpf4jnsgd1na2vs0mg"},{"bike_id":"87e775ba-7670-42aa-a96b-f61162609373","system_id":"levelo_inurba_marseille","lat":43.305994,"lon":5.393687,"is_reserved":false,"is_disabled":false,"rental_uris":{"android":"levelo://app?vid=87e775ba-7670-42aa-a96b-f61162609373","ios":"levelo://app?vid=87e775ba-7670-42aa-a96b-f61162609373"},"vehicle_type_id":"4","last_reported":1718824028,"current_range_meters":20800,"station_id":"ce4bh0p2rcd13ifvqd80","pricing_plan_id":"cebpf4jnsgd1na2vs0mg"},{"bike_id":"50f2fa5a-e01b-40d3-92e8-131834548301","system_id":"levelo_inurba_marseille","lat":43.305994,"lon":5.393687,"is_reserved":false,"is_disabled":false,"rental_uris":{"android":"levelo://app?vid=50f2fa5a-e01b-40d3-92e8-131834548301","ios":"levelo://app?vid=50f2fa5a-e01b-40d3-92e8-131834548301"},"vehicle_type_id":"4","last_reported":1718824028,"current_range_meters":5200,"station_id":"ce4bh0p2rcd13ifvqd80","pricing_plan_id":"cebpf4jnsgd1na2vs0mg"},{"bike_id":"425c4153-a8e8-4bf1-afb3-d2badfc2f146","system_id":"levelo_inurba_marseille","lat":43.305994,"lon":5.393687,"is_reserved":false,"is_disabled":false,"rental_uris":{"android":"levelo://app?vid=425c4153-a8e8-4bf1-afb3-d2badfc2f146","ios":"levelo://app?vid=425c4153-a8e8-4bf1-afb3-d2badfc2f146"},"vehicle_type_id":"4","last_reported":1718824028,"current_range_meters":22800,"station_id":"ce4bh0p2rcd13ifvqd80","pricing_plan_id":"cebpf4jnsgd1na2vs0mg"},{"bike_id":"a02a84e9-fc11-43d4-9876-13de667ef240","system_id":"levelo_inurba_marseille","lat":43.29298,"lon":5.37461,"is_reserved":false,"is_disabled":false,"rental_uris":{"android":"levelo://app?vid=a02a84e9-fc11-43d4-9876-13de667ef240","ios":"levelo://app?vid=a02a84e9-fc11-43d4-9876-13de667ef240"},"vehicle_type_id":"4","last_reported":1718824028,"current_range_meters":12000,"station_id":"ce4bgi12rcd13ifvqb70","pricing_plan_id":"cebpf4jnsgd1na2vs0mg"},{"bike_id":"682b91e2-e030-4117-a333-80381642f2e6","system_id":"levelo_inurba_marseille","lat":43.29294,"lon":5.3746,"is_reserved":false,"is_disabled":false,"rental_uris":{"android":"levelo://app?vid=682b91e2-e030-4117-a333-80381642f2e6","ios":"levelo://app?vid=682b91e2-e030-4117-a333-80381642f2e6"},"vehicle_type_id":"4","last_reported":1718824028,"current_range_meters":12400,"station_id":"ce4bgi12rcd13ifvqb70","pricing_plan_id":"cebpf4jnsgd1na2vs0mg"},{"bike_id":"1d01f49c-3153-4faf-a052-8e769f52c817","system_id":"levelo_inurba_marseille","lat":43.305994,"lon":5.393687,"is_reserved":false,"is_disabled":false,"rental_uris":{"android":"levelo://app?vid=1d01f49c-3153-4faf-a052-8e769f52c817","ios":"levelo://app?vid=1d01f49c-3153-4faf-a052-8e769f52c817"},"vehicle_type_id":"4","last_reported":1718824028,"current_range_meters":26000,"station_id":"ce4bh0p2rcd13ifvqd80","pricing_plan_id":"cebpf4jnsgd1na2vs0mg"},{"bike_id":"f8b8a559-68dd-4335-a94f-55c5bdb4f9eb","system_id":"levelo_inurba_marseille","lat":43.305994,"lon":5.393687,"is_reserved":false,"is_disabled":false,"rental_uris":{"android":"levelo://app?vid=f8b8a559-68dd-4335-a94f-55c5bdb4f9eb","ios":"levelo://app?vid=f8b8a559-68dd-4335-a94f-55c5bdb4f9eb"},"vehicle_type_id":"4","last_reported":1718824028,"current_range_meters":400,"station_id":"ce4bh0p2rcd13ifvqd80","pricing_plan_id":"cebpf4jnsgd1na2vs0mg"},{"bike_id":"984a9f62-1c14-404d-a607-57506cf27c92","system_id":"levelo_inurba_marseille","lat":43.305994,"lon":5.393687,"is_reserved":false,"is_disabled":false,"rental_uris":{"android":"levelo://app?vid=984a9f62-1c14-404d-a607-57506cf27c92","ios":"levelo://app?vid=984a9f62-1c14-404d-a607-57506cf27c92"},"vehicle_type_id":"4","last_reported":1718824028,"current_range_meters":0,"station_id":"ce4bh0p2rcd13ifvqd80","pricing_plan_id":"cebpf4jnsgd1na2vs0mg"},{"bike_id":"fd69553e-145f-400a-9d4f-cb12c0ad7ff5","system_id":"levelo_inurba_marseille","lat":43.29289,"lon":5.37457,"is_reserved":false,"is_disabled":false,"rental_uris":{"android":"levelo://app?vid=fd69553e-145f-400a-9d4f-cb12c0ad7ff5","ios":"levelo://app?vid=fd69553e-145f-400a-9d4f-cb12c0ad7ff5"},"vehicle_type_id":"4","last_reported":1718824028,"current_range_meters":30000,"station_id":"ce4bgi12rcd13ifvqb70","pricing_plan_id":"cebpf4jnsgd1na2vs0mg"},{"bike_id":"6881d682-a81e-405d-9543-2f02bd2c7b93","system_id":"levelo_inurba_marseille","lat":43.2936,"lon":5.37835,"is_reserved":false,"is_disabled":false,"rental_uris":{"android":"levelo://app?vid=6881d682-a81e-405d-9543-2f02bd2c7b93","ios":"levelo://app?vid=6881d682-a81e-405d-9543-2f02bd2c7b93"},"vehicle_type_id":"4","last_reported":1718824028,"current_range_meters":0,"station_id":"ce4bgjh2rcd13ifvqbf0","pricing_plan_id":"cebpf4jnsgd1na2vs0mg"},{"bike_id":"761a2716-4181-4200-890b-e5862fefa7c6","system_id":"levelo_inurba_marseille","lat":43.292311,"lon":5.360731,"is_reserved":false,"is_disabled":false,"rental_uris":{"android":"levelo://app?vid=761a2716-4181-4200-890b-e5862fefa7c6","ios":"levelo://app?vid=761a2716-4181-4200-890b-e5862fefa7c6"},"vehicle_type_id":"4","last_reported":1718824028,"current_range_meters":24400,"station_id":"ce4bhbh2rcd13ifvqeqg","pricing_plan_id":"cebpf4jnsgd1na2vs0mg"},{"bike_id":"c34d01d5-5d9b-4a0d-917a-baedcefb008d","system_id":"levelo_inurba_marseille","lat":43.292311,"lon":5.360731,"is_reserved":false,"is_disabled":false,"rental_uris":{"android":"levelo://app?vid=c34d01d5-5d9b-4a0d-917a-baedcefb008d","ios":"levelo://app?vid=c34d01d5-5d9b-4a0d-917a-baedcefb008d"},"vehicle_type_id":"4","last_reported":1718824028,"current_range_meters":3200,"station_id":"ce4bhbh2rcd13ifvqeqg","pricing_plan_id":"cebpf4jnsgd1na2vs0mg"},{"bike_id":"0c757e23-8eca-4472-9e99-b6d4f3973ccd","system_id":"levelo_inurba_marseille","lat":43.292311,"lon":5.360731,"is_reserved":false,"is_disabled":false,"rental_uris":{"android":"levelo://app?vid=0c757e23-8eca-4472-9e99-b6d4f3973ccd","ios":"levelo://app?vid=0c757e23-8eca-4472-9e99-b6d4f3973ccd"},"vehicle_type_id":"4","last_reported":1718824028,"current_range_meters":14400,"station_id":"ce4bhbh2rcd13ifvqeqg","pricing_plan_id":"cebpf4jnsgd1na2vs0mg"},{"bike_id":"b57c01b6-419a-474b-8e18-b0ae60003572","system_id":"levelo_inurba_marseille","lat":43.300852,"lon":5.390859,"is_reserved":false,"is_disabled":false,"rental_uris":{"android":"levelo://app?vid=b57c01b6-419a-474b-8e18-b0ae60003572","ios":"levelo://app?vid=b57c01b6-419a-474b-8e18-b0ae60003572"},"vehicle_type_id":"4","last_reported":1718824028,"current_range_meters":17200,"station_id":"ce4bh192rcd13ifvqdb0","pricing_plan_id":"cebpf4jnsgd1na2vs0mg"},{"bike_id":"91b38351-0109-4362-bb7c-b37095b16ab9","system_id":"levelo_inurba_marseille","lat":43.300852,"lon":5.390859,"is_reserved":false,"is_disabled":false,"rental_uris":{"android":"levelo://app?vid=91b38351-0109-4362-bb7c-b37095b16ab9","ios":"levelo://app?vid=91b38351-0109-4362-bb7c-b37095b16ab9"},"vehicle_type_id":"4","last_reported":1718824028,"current_range_meters":9200,"station_id":"ce4bh192rcd13ifvqdb0","pricing_plan_id":"cebpf4jnsgd1na2vs0mg"},{"bike_id":"23dcb0d6-e6fa-4d23-aa18-92f025d25235","system_id":"levelo_inurba_marseille","lat":43.298764,"lon":5.388973,"is_reserved":false,"is_disabled":false,"rental_uris":{"android":"levelo://app?vid=23dcb0d6-e6fa-4d23-aa18-92f025d25235","ios":"levelo://app?vid=23dcb0d6-e6fa-4d23-aa18-92f025d25235"},"vehicle_type_id":"4","last_reported":1718824028,"current_range_meters":30800,"station_id":"ce4bh392rcd13ifvqdl0","pricing_plan_id":"cebpf4jnsgd1na2vs0mg"},{"bike_id":"2177e023-d380-450c-9e36-a2630d6082b6","system_id":"levelo_inurba_marseille","lat":43.298764,"lon":5.388973,"is_reserved":false,"is_disabled":false,"rental_uris":{"android":"levelo://app?vid=2177e023-d380-450c-9e36-a2630d6082b6","ios":"levelo://app?vid=2177e023-d380-450c-9e36-a2630d6082b6"},"vehicle_type_id":"4","last_reported":1718824028,"current_range_meters":28000,"station_id":"ce4bh392rcd13ifvqdl0","pricing_plan_id":"cebpf4jnsgd1na2vs0mg"},{"bike_id":"4a113933-c800-401b-aeeb-aa0824f65182","system_id":"levelo_inurba_marseille","lat":43.30085,"lon":5.390856,"is_reserved":false,"is_disabled":false,"rental_uris":{"android":"levelo://app?vid=4a113933-c800-401b-aeeb-aa0824f65182","ios":"levelo://app?vid=4a113933-c800-401b-aeeb-aa0824f65182"},"vehicle_type_id":"4","last_reported":1718824028,"current_range_meters":31200,"station_id":"ce4bh192rcd13ifvqdb0","pricing_plan_id":"cebpf4jnsgd1na2vs0mg"},{"bike_id":"4af9c348-5cf0-499a-a2fc-34fb7bf7528e","system_id":"levelo_inurba_marseille","lat":43.298764,"lon":5.388973,"is_reserved":false,"is_disabled":false,"rental_uris":{"android":"levelo://app?vid=4af9c348-5cf0-499a-a2fc-34fb7bf7528e","ios":"levelo://app?vid=4af9c348-5cf0-499a-a2fc-34fb7bf7528e"},"vehicle_type_id":"4","last_reported":1718824028,"current_range_meters":19200,"station_id":"ce4bh392rcd13ifvqdl0","pricing_plan_id":"cebpf4jnsgd1na2vs0mg"},{"bike_id":"80b7490f-116a-478a-b432-c47fdb17a83e","system_id":"levelo_inurba_marseille","lat":43.313291,"lon":5.396838,"is_reserved":false,"is_disabled":false,"rental_uris":{"android":"levelo://app?vid=80b7490f-116a-478a-b432-c47fdb17a83e","ios":"levelo://app?vid=80b7490f-116a-478a-b432-c47fdb17a83e"},"vehicle_type_id":"4","last_reported":1718824028,"current_range_meters":10000,"station_id":"ce4bgvp2rcd13ifvqcu0","pricing_plan_id":"cebpf4jnsgd1na2vs0mg"},{"bike_id":"10153587-a411-493a-8e4e-1f02bc32ab45","system_id":"levelo_inurba_marseille","lat":43.29201,"lon":5.35792,"is_reserved":false,"is_disabled":false,"rental_uris":{"android":"levelo://app?vid=10153587-a411-493a-8e4e-1f02bc32ab45","ios":"levelo://app?vid=10153587-a411-493a-8e4e-1f02bc32ab45"},"vehicle_type_id":"4","last_reported":1718824028,"current_range_meters":1200,"station_id":"ce4bhb12rcd13ifvqel0","pricing_plan_id":"cebpf4jnsgd1na2vs0mg"},{"bike_id":"91b8adad-f9a2-4b3c-b1d6-0687fdd15b25","system_id":"levelo_inurba_marseille","lat":43.30879,"lon":5.39636,"is_reserved":false,"is_disabled":false,"rental_uris":{"android":"levelo://app?vid=91b8adad-f9a2-4b3c-b1d6-0687fdd15b25","ios":"levelo://app?vid=91b8adad-f9a2-4b3c-b1d6-0687fdd15b25"},"vehicle_type_id":"4","last_reported":1718824028,"current_range_meters":0,"station_id":"ce4bh012rcd13ifvqcv0","pricing_plan_id":"cebpf4jnsgd1na2vs0mg"},{"bike_id":"c1430802-ce01-461a-9f9c-da8ef1e85e92","system_id":"levelo_inurba_marseille","lat":43.30885,"lon":5.39641,"is_reserved":false,"is_disabled":false,"rental_uris":{"android":"levelo://app?vid=c1430802-ce01-461a-9f9c-da8ef1e85e92","ios":"levelo://app?vid=c1430802-ce01-461a-9f9c-da8ef1e85e92"},"vehicle_type_id":"4","last_reported":1718824028,"current_range_meters":0,"station_id":"ce4bh012rcd13ifvqcv0","pricing_plan_id":"cebpf4jnsgd1na2vs0mg"},{"bike_id":"a1f8b10c-9b1c-42c5-a287-8c268daadb27","system_id":"levelo_inurba_marseille","lat":43.313291,"lon":5.396838,"is_reserved":false,"is_disabled":false,"rental_uris":{"android":"levelo://app?vid=a1f8b10c-9b1c-42c5-a287-8c268daadb27","ios":"levelo://app?vid=a1f8b10c-9b1c-42c5-a287-8c268daadb27"},"vehicle_type_id":"4","last_reported":1718824028,"current_range_meters":3200,"station_id":"ce4bgvp2rcd13ifvqcu0","pricing_plan_id":"cebpf4jnsgd1na2vs0mg"},{"bike_id":"6706279e-1384-4122-a965-20c32596fd66","system_id":"levelo_inurba_marseille","lat":43.3089,"lon":5.396477,"is_reserved":false,"is_disabled":false,"rental_uris":{"android":"levelo://app?vid=6706279e-1384-4122-a965-20c32596fd66","ios":"levelo://app?vid=6706279e-1384-4122-a965-20c32596fd66"},"vehicle_type_id":"4","last_reported":1718824028,"current_range_meters":0,"station_id":"ce4bh012rcd13ifvqcv0","pricing_plan_id":"cebpf4jnsgd1na2vs0mg"},{"bike_id":"4d063b08-445e-4cc6-9c28-c12514444266","system_id":"levelo_inurba_marseille","lat":43.313291,"lon":5.396838,"is_reserved":false,"is_disabled":false,"rental_uris":{"android":"levelo://app?vid=4d063b08-445e-4cc6-9c28-c12514444266","ios":"levelo://app?vid=4d063b08-445e-4cc6-9c28-c12514444266"},"vehicle_type_id":"4","last_reported":1718824028,"current_range_meters":31200,"station_id":"ce4bgvp2rcd13ifvqcu0","pricing_plan_id":"cebpf4jnsgd1na2vs0mg"},{"bike_id":"1fed1e08-deb3-4eaa-9551-4566ab619bbf","system_id":"levelo_inurba_marseille","lat":43.292005,"lon":5.357875,"is_reserved":false,"is_disabled":false,"rental_uris":{"android":"levelo://app?vid=1fed1e08-deb3-4eaa-9551-4566ab619bbf","ios":"levelo://app?vid=1fed1e08-deb3-4eaa-9551-4566ab619bbf"},"vehicle_type_id":"4","last_reported":1718824028,"current_range_meters":0,"station_id":"ce4bhb12rcd13ifvqel0","pricing_plan_id":"cebpf4jnsgd1na2vs0mg"},{"bike_id":"e324cbdf-d88c-411a-809d-90b97ed9bbeb","system_id":"levelo_inurba_marseille","lat":43.302992,"lon":5.392136,"is_reserved":false,"is_disabled":false,"rental_uris":{"android":"levelo://app?vid=e324cbdf-d88c-411a-809d-90b97ed9bbeb","ios":"levelo://app?vid=e324cbdf-d88c-411a-809d-90b97ed9bbeb"},"vehicle_type_id":"4","last_reported":1718824028,"current_range_meters":7200,"station_id":"ce4bgkh2rcd13ifvqbk0","pricing_plan_id":"cebpf4jnsgd1na2vs0mg"},{"bike_id":"c7beba68-cd29-4b56-ad4d-2d2bbaa89b3a","system_id":"levelo_inurba_marseille","lat":43.31325,"lon":5.39699,"is_reserved":false,"is_disabled":false,"rental_uris":{"android":"levelo://app?vid=c7beba68-cd29-4b56-ad4d-2d2bbaa89b3a","ios":"levelo://app?vid=c7beba68-cd29-4b56-ad4d-2d2bbaa89b3a"},"vehicle_type_id":"4","last_reported":1718824028,"current_range_meters":0,"station_id":"ce4bgvp2rcd13ifvqcu0","pricing_plan_id":"cebpf4jnsgd1na2vs0mg"},{"bike_id":"51728fac-5b79-4dbe-b624-03820c737519","system_id":"levelo_inurba_marseille","lat":43.29529,"lon":5.385581,"is_reserved":false,"is_disabled":false,"rental_uris":{"android":"levelo://app?vid=51728fac-5b79-4dbe-b624-03820c737519","ios":"levelo://app?vid=51728fac-5b79-4dbe-b624-03820c737519"},"vehicle_type_id":"4","last_reported":1718824028,"current_range_meters":30000,"station_id":"ce4bgih2rcd13ifvqba0","pricing_plan_id":"cebpf4jnsgd1na2vs0mg"},{"bike_id":"62916482-787b-4aa2-80f7-728b8b51ccaf","system_id":"levelo_inurba_marseille","lat":43.29529,"lon":5.38535,"is_reserved":false,"is_disabled":false,"rental_uris":{"android":"levelo://app?vid=62916482-787b-4aa2-80f7-728b8b51ccaf","ios":"levelo://app?vid=62916482-787b-4aa2-80f7-728b8b51ccaf"},"vehicle_type_id":"4","last_reported":1718824028,"current_range_meters":10800,"station_id":"ce4bgih2rcd13ifvqba0","pricing_plan_id":"cebpf4jnsgd1na2vs0mg"},{"bike_id":"abbf55c5-16bd-4ed9-9e66-308071863aa3","system_id":"levelo_inurba_marseille","lat":43.2953,"lon":5.38537,"is_reserved":false,"is_disabled":false,"rental_uris":{"android":"levelo://app?vid=abbf55c5-16bd-4ed9-9e66-308071863aa3","ios":"levelo://app?vid=abbf55c5-16bd-4ed9-9e66-308071863aa3"},"vehicle_type_id":"4","last_reported":1718824028,"current_range_meters":31200,"station_id":"ce4bgih2rcd13ifvqba0","pricing_plan_id":"cebpf4jnsgd1na2vs0mg"},{"bike_id":"761ec36f-f6cd-44ca-bcb5-e5f6d57ae7f7","system_id":"levelo_inurba_marseille","lat":43.29529,"lon":5.385581,"is_reserved":false,"is_disabled":false,"rental_uris":{"android":"levelo://app?vid=761ec36f-f6cd-44ca-bcb5-e5f6d57ae7f7","ios":"levelo://app?vid=761ec36f-f6cd-44ca-bcb5-e5f6d57ae7f7"},"vehicle_type_id":"4","last_reported":1718824028,"current_range_meters":25200,"station_id":"ce4bgih2rcd13ifvqba0","pricing_plan_id":"cebpf4jnsgd1na2vs0mg"},{"bike_id":"f211d9ed-7a07-4789-939a-a8316bff51f3","system_id":"levelo_inurba_marseille","lat":43.29529,"lon":5.385581,"is_reserved":false,"is_disabled":false,"rental_uris":{"android":"levelo://app?vid=f211d9ed-7a07-4789-939a-a8316bff51f3","ios":"levelo://app?vid=f211d9ed-7a07-4789-939a-a8316bff51f3"},"vehicle_type_id":"4","last_reported":1718824028,"current_range_meters":20800,"station_id":"ce4bgih2rcd13ifvqba0","pricing_plan_id":"cebpf4jnsgd1na2vs0mg"},{"bike_id":"45b5b6df-4787-401a-9102-08ecb0243a51","system_id":"levelo_inurba_marseille","lat":43.29536,"lon":5.38551,"is_reserved":false,"is_disabled":false,"rental_uris":{"android":"levelo://app?vid=45b5b6df-4787-401a-9102-08ecb0243a51","ios":"levelo://app?vid=45b5b6df-4787-401a-9102-08ecb0243a51"},"vehicle_type_id":"4","last_reported":1718824028,"current_range_meters":8000,"station_id":"ce4bgih2rcd13ifvqba0","pricing_plan_id":"cebpf4jnsgd1na2vs0mg"},{"bike_id":"6ed7c517-92ca-46eb-976e-b3627ab6119f","system_id":"levelo_inurba_marseille","lat":43.29529,"lon":5.385581,"is_reserved":false,"is_disabled":false,"rental_uris":{"android":"levelo://app?vid=6ed7c517-92ca-46eb-976e-b3627ab6119f","ios":"levelo://app?vid=6ed7c517-92ca-46eb-976e-b3627ab6119f"},"vehicle_type_id":"4","last_reported":1718824028,"current_range_meters":31200,"station_id":"ce4bgih2rcd13ifvqba0","pricing_plan_id":"cebpf4jnsgd1na2vs0mg"},{"bike_id":"082bfb04-b73a-4629-80a2-0a11b8df4d04","system_id":"levelo_inurba_marseille","lat":43.29529,"lon":5.385581,"is_reserved":false,"is_disabled":false,"rental_uris":{"android":"levelo://app?vid=082bfb04-b73a-4629-80a2-0a11b8df4d04","ios":"levelo://app?vid=082bfb04-b73a-4629-80a2-0a11b8df4d04"},"vehicle_type_id":"4","last_reported":1718824028,"current_range_meters":9200,"station_id":"ce4bgih2rcd13ifvqba0","pricing_plan_id":"cebpf4jnsgd1na2vs0mg"},{"bike_id":"207870eb-dba0-48be-a6f9-046c616be7cd","system_id":"levelo_inurba_marseille","lat":43.2953,"lon":5.38547,"is_reserved":false,"is_disabled":false,"rental_uris":{"android":"levelo://app?vid=207870eb-dba0-48be-a6f9-046c616be7cd","ios":"levelo://app?vid=207870eb-dba0-48be-a6f9-046c616be7cd"},"vehicle_type_id":"4","last_reported":1718824028,"current_range_meters":9600,"station_id":"ce4bgih2rcd13ifvqba0","pricing_plan_id":"cebpf4jnsgd1na2vs0mg"},{"bike_id":"c523d241-f7cb-4dfa-a6b3-3e466ddd663f","system_id":"levelo_inurba_marseille","lat":43.29529,"lon":5.385581,"is_reserved":false,"is_disabled":false,"rental_uris":{"android":"levelo://app?vid=c523d241-f7cb-4dfa-a6b3-3e466ddd663f","ios":"levelo://app?vid=c523d241-f7cb-4dfa-a6b3-3e466ddd663f"},"vehicle_type_id":"4","last_reported":1718824028,"current_range_meters":16000,"station_id":"ce4bgih2rcd13ifvqba0","pricing_plan_id":"cebpf4jnsgd1na2vs0mg"},{"bike_id":"9f6caed0-72ad-458b-93be-69ceb79ec6a6","system_id":"levelo_inurba_marseille","lat":43.29529,"lon":5.385581,"is_reserved":false,"is_disabled":false,"rental_uris":{"android":"levelo://app?vid=9f6caed0-72ad-458b-93be-69ceb79ec6a6","ios":"levelo://app?vid=9f6caed0-72ad-458b-93be-69ceb79ec6a6"},"vehicle_type_id":"4","last_reported":1718824028,"current_range_meters":9200,"station_id":"ce4bgih2rcd13ifvqba0","pricing_plan_id":"cebpf4jnsgd1na2vs0mg"},{"bike_id":"8b5d03ef-dadb-4a3b-9e40-a9813f4d88dd","system_id":"levelo_inurba_marseille","lat":43.29529,"lon":5.385581,"is_reserved":false,"is_disabled":false,"rental_uris":{"android":"levelo://app?vid=8b5d03ef-dadb-4a3b-9e40-a9813f4d88dd","ios":"levelo://app?vid=8b5d03ef-dadb-4a3b-9e40-a9813f4d88dd"},"vehicle_type_id":"4","last_reported":1718824028,"current_range_meters":14800,"station_id":"ce4bgih2rcd13ifvqba0","pricing_plan_id":"cebpf4jnsgd1na2vs0mg"},{"bike_id":"e6f97e9f-c4e3-43ad-9ccc-295850a21d19","system_id":"levelo_inurba_marseille","lat":43.2952,"lon":5.3855,"is_reserved":false,"is_disabled":false,"rental_uris":{"android":"levelo://app?vid=e6f97e9f-c4e3-43ad-9ccc-295850a21d19","ios":"levelo://app?vid=e6f97e9f-c4e3-43ad-9ccc-295850a21d19"},"vehicle_type_id":"4","last_reported":1718824028,"current_range_meters":24400,"station_id":"ce4bgih2rcd13ifvqba0","pricing_plan_id":"cebpf4jnsgd1na2vs0mg"},{"bike_id":"7f8babac-dc64-41c5-9a65-2d6dfc8b828a","system_id":"levelo_inurba_marseille","lat":43.290779,"lon":5.371482,"is_reserved":false,"is_disabled":false,"rental_uris":{"android":"levelo://app?vid=7f8babac-dc64-41c5-9a65-2d6dfc8b828a","ios":"levelo://app?vid=7f8babac-dc64-41c5-9a65-2d6dfc8b828a"},"vehicle_type_id":"4","last_reported":1718824028,"current_range_meters":20800,"station_id":"ce4bh5p2rcd13ifvqe4g","pricing_plan_id":"cebpf4jnsgd1na2vs0mg"},{"bike_id":"95819c6c-d981-4b96-9463-8c80eea896bd","system_id":"levelo_inurba_marseille","lat":43.290623,"lon":5.371533,"is_reserved":false,"is_disabled":false,"rental_uris":{"android":"levelo://app?vid=95819c6c-d981-4b96-9463-8c80eea896bd","ios":"levelo://app?vid=95819c6c-d981-4b96-9463-8c80eea896bd"},"vehicle_type_id":"4","last_reported":1718824028,"current_range_meters":31200,"station_id":"ce4bh5p2rcd13ifvqe4g","pricing_plan_id":"cebpf4jnsgd1na2vs0mg"},{"bike_id":"23f361e8-f123-47f3-81d2-e2f6a8f9f94a","system_id":"levelo_inurba_marseille","lat":43.302008,"lon":5.394694,"is_reserved":false,"is_disabled":false,"rental_uris":{"android":"levelo://app?vid=23f361e8-f123-47f3-81d2-e2f6a8f9f94a","ios":"levelo://app?vid=23f361e8-f123-47f3-81d2-e2f6a8f9f94a"},"vehicle_type_id":"4","last_reported":1718824028,"current_range_meters":15200,"station_id":"ce4bh0p2rcd13ifvqd70","pricing_plan_id":"cebpf4jnsgd1na2vs0mg"},{"bike_id":"ed6a324c-be42-4a42-b691-ba3d36e5fc9b","system_id":"levelo_inurba_marseille","lat":43.290624,"lon":5.359245,"is_reserved":false,"is_disabled":false,"rental_uris":{"android":"levelo://app?vid=ed6a324c-be42-4a42-b691-ba3d36e5fc9b","ios":"levelo://app?vid=ed6a324c-be42-4a42-b691-ba3d36e5fc9b"},"vehicle_type_id":"4","last_reported":1718824028,"current_range_meters":12000,"station_id":"ce4bha92rcd13ifvqeg0","pricing_plan_id":"cebpf4jnsgd1na2vs0mg"},{"bike_id":"ff221131-1a53-4ee1-9482-1e749a6bfd3f","system_id":"levelo_inurba_marseille","lat":43.290624,"lon":5.359245,"is_reserved":false,"is_disabled":false,"rental_uris":{"android":"levelo://app?vid=ff221131-1a53-4ee1-9482-1e749a6bfd3f","ios":"levelo://app?vid=ff221131-1a53-4ee1-9482-1e749a6bfd3f"},"vehicle_type_id":"4","last_reported":1718824028,"current_range_meters":18800,"station_id":"ce4bha92rcd13ifvqeg0","pricing_plan_id":"cebpf4jnsgd1na2vs0mg"},{"bike_id":"839dc824-f2db-42c8-af6a-d6c2155a44c0","system_id":"levelo_inurba_marseille","lat":43.290631,"lon":5.359244,"is_reserved":false,"is_disabled":false,"rental_uris":{"android":"levelo://app?vid=839dc824-f2db-42c8-af6a-d6c2155a44c0","ios":"levelo://app?vid=839dc824-f2db-42c8-af6a-d6c2155a44c0"},"vehicle_type_id":"4","last_reported":1718824028,"current_range_meters":14400,"station_id":"ce4bha92rcd13ifvqeg0","pricing_plan_id":"cebpf4jnsgd1na2vs0mg"},{"bike_id":"30a1184d-1511-40b2-ac96-d85830dcacd2","system_id":"levelo_inurba_marseille","lat":43.290624,"lon":5.359245,"is_reserved":false,"is_disabled":false,"rental_uris":{"android":"levelo://app?vid=30a1184d-1511-40b2-ac96-d85830dcacd2","ios":"levelo://app?vid=30a1184d-1511-40b2-ac96-d85830dcacd2"},"vehicle_type_id":"4","last_reported":1718824028,"current_range_meters":10400,"station_id":"ce4bha92rcd13ifvqeg0","pricing_plan_id":"cebpf4jnsgd1na2vs0mg"},{"bike_id":"97b98a5c-236a-45f2-b6e5-b45b0176be1f","system_id":"levelo_inurba_marseille","lat":43.294153,"lon":5.386305,"is_reserved":false,"is_disabled":false,"rental_uris":{"android":"levelo://app?vid=97b98a5c-236a-45f2-b6e5-b45b0176be1f","ios":"levelo://app?vid=97b98a5c-236a-45f2-b6e5-b45b0176be1f"},"vehicle_type_id":"4","last_reported":1718824028,"current_range_meters":20400,"station_id":"ce4bh2h2rcd13ifvqdh0","pricing_plan_id":"cebpf4jnsgd1na2vs0mg"},{"bike_id":"bc785d54-2220-440c-8b45-852ba18401f7","system_id":"levelo_inurba_marseille","lat":43.290327,"lon":5.375711,"is_reserved":false,"is_disabled":false,"rental_uris":{"android":"levelo://app?vid=bc785d54-2220-440c-8b45-852ba18401f7","ios":"levelo://app?vid=bc785d54-2220-440c-8b45-852ba18401f7"},"vehicle_type_id":"4","last_reported":1718824028,"current_range_meters":27200,"station_id":"ce4bh692rcd13ifvqe90","pricing_plan_id":"cebpf4jnsgd1na2vs0mg"},{"bike_id":"477a6c43-a13e-4eaf-b439-dbfc2e1e430a","system_id":"levelo_inurba_marseille","lat":43.294153,"lon":5.386305,"is_reserved":false,"is_disabled":false,"rental_uris":{"android":"levelo://app?vid=477a6c43-a13e-4eaf-b439-dbfc2e1e430a","ios":"levelo://app?vid=477a6c43-a13e-4eaf-b439-dbfc2e1e430a"},"vehicle_type_id":"4","last_reported":1718824028,"current_range_meters":31600,"station_id":"ce4bh2h2rcd13ifvqdh0","pricing_plan_id":"cebpf4jnsgd1na2vs0mg"},{"bike_id":"a28acead-4ba9-4c99-9fec-c006270dacc8","system_id":"levelo_inurba_marseille","lat":43.29423,"lon":5.3862,"is_reserved":false,"is_disabled":false,"rental_uris":{"android":"levelo://app?vid=a28acead-4ba9-4c99-9fec-c006270dacc8","ios":"levelo://app?vid=a28acead-4ba9-4c99-9fec-c006270dacc8"},"vehicle_type_id":"4","last_reported":1718824028,"current_range_meters":3200,"station_id":"ce4bh2h2rcd13ifvqdh0","pricing_plan_id":"cebpf4jnsgd1na2vs0mg"},{"bike_id":"631508a1-550f-49d0-9748-852d2bf92fca","system_id":"levelo_inurba_marseille","lat":43.29424,"lon":5.38622,"is_reserved":false,"is_disabled":false,"rental_uris":{"android":"levelo://app?vid=631508a1-550f-49d0-9748-852d2bf92fca","ios":"levelo://app?vid=631508a1-550f-49d0-9748-852d2bf92fca"},"vehicle_type_id":"4","last_reported":1718824028,"current_range_meters":11600,"station_id":"ce4bh2h2rcd13ifvqdh0","pricing_plan_id":"cebpf4jnsgd1na2vs0mg"},{"bike_id":"0037fd50-f4b9-4a85-918d-3d3a53b873f6","system_id":"levelo_inurba_marseille","lat":43.294162,"lon":5.386292,"is_reserved":false,"is_disabled":false,"rental_uris":{"android":"levelo://app?vid=0037fd50-f4b9-4a85-918d-3d3a53b873f6","ios":"levelo://app?vid=0037fd50-f4b9-4a85-918d-3d3a53b873f6"},"vehicle_type_id":"4","last_reported":1718824028,"current_range_meters":11600,"station_id":"ce4bh2h2rcd13ifvqdh0","pricing_plan_id":"cebpf4jnsgd1na2vs0mg"},{"bike_id":"826d5529-cd39-4bdb-940f-a3d3e78bf05d","system_id":"levelo_inurba_marseille","lat":43.294183,"lon":5.386132,"is_reserved":false,"is_disabled":false,"rental_uris":{"android":"levelo://app?vid=826d5529-cd39-4bdb-940f-a3d3e78bf05d","ios":"levelo://app?vid=826d5529-cd39-4bdb-940f-a3d3e78bf05d"},"vehicle_type_id":"4","last_reported":1718824028,"current_range_meters":21200,"station_id":"ce4bh2h2rcd13ifvqdh0","pricing_plan_id":"cebpf4jnsgd1na2vs0mg"},{"bike_id":"5b2d84b7-277b-4ab2-a58c-7c21cd1b2be0","system_id":"levelo_inurba_marseille","lat":43.294183,"lon":5.386132,"is_reserved":false,"is_disabled":false,"rental_uris":{"android":"levelo://app?vid=5b2d84b7-277b-4ab2-a58c-7c21cd1b2be0","ios":"levelo://app?vid=5b2d84b7-277b-4ab2-a58c-7c21cd1b2be0"},"vehicle_type_id":"4","last_reported":1718824028,"current_range_meters":6800,"station_id":"ce4bh2h2rcd13ifvqdh0","pricing_plan_id":"cebpf4jnsgd1na2vs0mg"},{"bike_id":"bfdc898f-3d28-4765-a9ed-e8f9196e0047","system_id":"levelo_inurba_marseille","lat":43.294187,"lon":5.386173,"is_reserved":false,"is_disabled":false,"rental_uris":{"android":"levelo://app?vid=bfdc898f-3d28-4765-a9ed-e8f9196e0047","ios":"levelo://app?vid=bfdc898f-3d28-4765-a9ed-e8f9196e0047"},"vehicle_type_id":"4","last_reported":1718824028,"current_range_meters":4400,"station_id":"ce4bh2h2rcd13ifvqdh0","pricing_plan_id":"cebpf4jnsgd1na2vs0mg"},{"bike_id":"3ab3e32c-0d38-4c8e-bb3e-4567713c58ea","system_id":"levelo_inurba_marseille","lat":43.2942,"lon":5.3862,"is_reserved":false,"is_disabled":false,"rental_uris":{"android":"levelo://app?vid=3ab3e32c-0d38-4c8e-bb3e-4567713c58ea","ios":"levelo://app?vid=3ab3e32c-0d38-4c8e-bb3e-4567713c58ea"},"vehicle_type_id":"4","last_reported":1718824028,"current_range_meters":2000,"station_id":"ce4bh2h2rcd13ifvqdh0","pricing_plan_id":"cebpf4jnsgd1na2vs0mg"},{"bike_id":"6b568bb8-9d0a-4e66-b4b3-ebef542790b8","system_id":"levelo_inurba_marseille","lat":43.2942,"lon":5.38621,"is_reserved":false,"is_disabled":false,"rental_uris":{"android":"levelo://app?vid=6b568bb8-9d0a-4e66-b4b3-ebef542790b8","ios":"levelo://app?vid=6b568bb8-9d0a-4e66-b4b3-ebef542790b8"},"vehicle_type_id":"4","last_reported":1718824028,"current_range_meters":0,"station_id":"ce4bh2h2rcd13ifvqdh0","pricing_plan_id":"cebpf4jnsgd1na2vs0mg"},{"bike_id":"f21118d7-c434-4b99-b3d4-abe2fecbe6c0","system_id":"levelo_inurba_marseille","lat":43.2942,"lon":5.386247,"is_reserved":false,"is_disabled":false,"rental_uris":{"android":"levelo://app?vid=f21118d7-c434-4b99-b3d4-abe2fecbe6c0","ios":"levelo://app?vid=f21118d7-c434-4b99-b3d4-abe2fecbe6c0"},"vehicle_type_id":"4","last_reported":1718824028,"current_range_meters":8400,"station_id":"ce4bh2h2rcd13ifvqdh0","pricing_plan_id":"cebpf4jnsgd1na2vs0mg"},{"bike_id":"68dfb5e6-a3b8-482f-ba40-2d5a7d7d050c","system_id":"levelo_inurba_marseille","lat":43.29416,"lon":5.38619,"is_reserved":false,"is_disabled":false,"rental_uris":{"android":"levelo://app?vid=68dfb5e6-a3b8-482f-ba40-2d5a7d7d050c","ios":"levelo://app?vid=68dfb5e6-a3b8-482f-ba40-2d5a7d7d050c"},"vehicle_type_id":"4","last_reported":1718824028,"current_range_meters":400,"station_id":"ce4bh2h2rcd13ifvqdh0","pricing_plan_id":"cebpf4jnsgd1na2vs0mg"},{"bike_id":"3b2ecff5-6f4e-40c0-8920-af44fb8d1e09","system_id":"levelo_inurba_marseille","lat":43.289184,"lon":5.366408,"is_reserved":false,"is_disabled":false,"rental_uris":{"android":"levelo://app?vid=3b2ecff5-6f4e-40c0-8920-af44fb8d1e09","ios":"levelo://app?vid=3b2ecff5-6f4e-40c0-8920-af44fb8d1e09"},"vehicle_type_id":"4","last_reported":1718824028,"current_range_meters":4400,"station_id":"ce4bhap2rcd13ifvqek0","pricing_plan_id":"cebpf4jnsgd1na2vs0mg"},{"bike_id":"cea33c47-7c97-4a6f-ab51-6a157731c1f3","system_id":"levelo_inurba_marseille","lat":43.29419,"lon":5.38625,"is_reserved":false,"is_disabled":false,"rental_uris":{"android":"levelo://app?vid=cea33c47-7c97-4a6f-ab51-6a157731c1f3","ios":"levelo://app?vid=cea33c47-7c97-4a6f-ab51-6a157731c1f3"},"vehicle_type_id":"4","last_reported":1718824028,"current_range_meters":14000,"station_id":"ce4bh2h2rcd13ifvqdh0","pricing_plan_id":"cebpf4jnsgd1na2vs0mg"},{"bike_id":"d06216d5-9b8f-4340-a768-4c3ef4ed32cc","system_id":"levelo_inurba_marseille","lat":43.29419,"lon":5.38625,"is_reserved":false,"is_disabled":false,"rental_uris":{"android":"levelo://app?vid=d06216d5-9b8f-4340-a768-4c3ef4ed32cc","ios":"levelo://app?vid=d06216d5-9b8f-4340-a768-4c3ef4ed32cc"},"vehicle_type_id":"4","last_reported":1718824028,"current_range_meters":30800,"station_id":"ce4bh2h2rcd13ifvqdh0","pricing_plan_id":"cebpf4jnsgd1na2vs0mg"},{"bike_id":"d7288744-d9e2-4993-97b3-ab55e347557b","system_id":"levelo_inurba_marseille","lat":43.294168,"lon":5.386212,"is_reserved":false,"is_disabled":false,"rental_uris":{"android":"levelo://app?vid=d7288744-d9e2-4993-97b3-ab55e347557b","ios":"levelo://app?vid=d7288744-d9e2-4993-97b3-ab55e347557b"},"vehicle_type_id":"4","last_reported":1718824028,"current_range_meters":26800,"station_id":"ce4bh2h2rcd13ifvqdh0","pricing_plan_id":"cebpf4jnsgd1na2vs0mg"},{"bike_id":"7282daec-6782-49d4-93e8-7101222df9ea","system_id":"levelo_inurba_marseille","lat":43.29418,"lon":5.386247,"is_reserved":false,"is_disabled":false,"rental_uris":{"android":"levelo://app?vid=7282daec-6782-49d4-93e8-7101222df9ea","ios":"levelo://app?vid=7282daec-6782-49d4-93e8-7101222df9ea"},"vehicle_type_id":"4","last_reported":1718824028,"current_range_meters":24400,"station_id":"ce4bh2h2rcd13ifvqdh0","pricing_plan_id":"cebpf4jnsgd1na2vs0mg"},{"bike_id":"2d99ace4-9647-4ee0-9755-a5bd47c48487","system_id":"levelo_inurba_marseille","lat":43.294081,"lon":5.386074,"is_reserved":false,"is_disabled":false,"rental_uris":{"android":"levelo://app?vid=2d99ace4-9647-4ee0-9755-a5bd47c48487","ios":"levelo://app?vid=2d99ace4-9647-4ee0-9755-a5bd47c48487"},"vehicle_type_id":"4","last_reported":1718824028,"current_range_meters":31200,"station_id":"ce4bh2h2rcd13ifvqdh0","pricing_plan_id":"cebpf4jnsgd1na2vs0mg"},{"bike_id":"b9cb1b0d-2c7a-4ee0-b89e-4789e81532f1","system_id":"levelo_inurba_marseille","lat":43.29413,"lon":5.386177,"is_reserved":false,"is_disabled":false,"rental_uris":{"android":"levelo://app?vid=b9cb1b0d-2c7a-4ee0-b89e-4789e81532f1","ios":"levelo://app?vid=b9cb1b0d-2c7a-4ee0-b89e-4789e81532f1"},"vehicle_type_id":"4","last_reported":1718824028,"current_range_meters":31200,"station_id":"ce4bh2h2rcd13ifvqdh0","pricing_plan_id":"cebpf4jnsgd1na2vs0mg"},{"bike_id":"97e78418-7d18-4acc-9bc4-7cd20a93001e","system_id":"levelo_inurba_marseille","lat":43.29417,"lon":5.38627,"is_reserved":false,"is_disabled":false,"rental_uris":{"android":"levelo://app?vid=97e78418-7d18-4acc-9bc4-7cd20a93001e","ios":"levelo://app?vid=97e78418-7d18-4acc-9bc4-7cd20a93001e"},"vehicle_type_id":"4","last_reported":1718824028,"current_range_meters":31200,"station_id":"ce4bh2h2rcd13ifvqdh0","pricing_plan_id":"cebpf4jnsgd1na2vs0mg"},{"bike_id":"a82b0d35-0baf-4998-8c2b-70030c5f2416","system_id":"levelo_inurba_marseille","lat":43.289184,"lon":5.366408,"is_reserved":false,"is_disabled":false,"rental_uris":{"android":"levelo://app?vid=a82b0d35-0baf-4998-8c2b-70030c5f2416","ios":"levelo://app?vid=a82b0d35-0baf-4998-8c2b-70030c5f2416"},"vehicle_type_id":"4","last_reported":1718824028,"current_range_meters":6000,"station_id":"ce4bhap2rcd13ifvqek0","pricing_plan_id":"cebpf4jnsgd1na2vs0mg"},{"bike_id":"c405bc05-84a8-4f28-90b0-f7fab6205915","system_id":"levelo_inurba_marseille","lat":43.29417,"lon":5.38628,"is_reserved":false,"is_disabled":false,"rental_uris":{"android":"levelo://app?vid=c405bc05-84a8-4f28-90b0-f7fab6205915","ios":"levelo://app?vid=c405bc05-84a8-4f28-90b0-f7fab6205915"},"vehicle_type_id":"4","last_reported":1718824028,"current_range_meters":24000,"station_id":"ce4bh2h2rcd13ifvqdh0","pricing_plan_id":"cebpf4jnsgd1na2vs0mg"},{"bike_id":"8f1711aa-dfa6-49a6-b144-b5e2c7c3689f","system_id":"levelo_inurba_marseille","lat":43.29414,"lon":5.38623,"is_reserved":false,"is_disabled":false,"rental_uris":{"android":"levelo://app?vid=8f1711aa-dfa6-49a6-b144-b5e2c7c3689f","ios":"levelo://app?vid=8f1711aa-dfa6-49a6-b144-b5e2c7c3689f"},"vehicle_type_id":"4","last_reported":1718824028,"current_range_meters":5200,"station_id":"ce4bh2h2rcd13ifvqdh0","pricing_plan_id":"cebpf4jnsgd1na2vs0mg"},{"bike_id":"443ed780-a498-4d21-9543-8916083ba2e6","system_id":"levelo_inurba_marseille","lat":43.289184,"lon":5.366408,"is_reserved":false,"is_disabled":false,"rental_uris":{"android":"levelo://app?vid=443ed780-a498-4d21-9543-8916083ba2e6","ios":"levelo://app?vid=443ed780-a498-4d21-9543-8916083ba2e6"},"vehicle_type_id":"4","last_reported":1718824028,"current_range_meters":29200,"station_id":"ce4bhap2rcd13ifvqek0","pricing_plan_id":"cebpf4jnsgd1na2vs0mg"},{"bike_id":"130f1c0d-f54c-4e2f-98cf-c05ae24c83f4","system_id":"levelo_inurba_marseille","lat":43.29418,"lon":5.38632,"is_reserved":false,"is_disabled":false,"rental_uris":{"android":"levelo://app?vid=130f1c0d-f54c-4e2f-98cf-c05ae24c83f4","ios":"levelo://app?vid=130f1c0d-f54c-4e2f-98cf-c05ae24c83f4"},"vehicle_type_id":"4","last_reported":1718824028,"current_range_meters":20400,"station_id":"ce4bh2h2rcd13ifvqdh0","pricing_plan_id":"cebpf4jnsgd1na2vs0mg"},{"bike_id":"82847534-6ae9-4d50-a6fa-189a52e8d919","system_id":"levelo_inurba_marseille","lat":43.294174,"lon":5.386312,"is_reserved":false,"is_disabled":false,"rental_uris":{"android":"levelo://app?vid=82847534-6ae9-4d50-a6fa-189a52e8d919","ios":"levelo://app?vid=82847534-6ae9-4d50-a6fa-189a52e8d919"},"vehicle_type_id":"4","last_reported":1718824028,"current_range_meters":3600,"station_id":"ce4bh2h2rcd13ifvqdh0","pricing_plan_id":"cebpf4jnsgd1na2vs0mg"},{"bike_id":"1a8189f6-626e-4833-abc0-db31724b5e90","system_id":"levelo_inurba_marseille","lat":43.29413,"lon":5.38624,"is_reserved":false,"is_disabled":false,"rental_uris":{"android":"levelo://app?vid=1a8189f6-626e-4833-abc0-db31724b5e90","ios":"levelo://app?vid=1a8189f6-626e-4833-abc0-db31724b5e90"},"vehicle_type_id":"4","last_reported":1718824028,"current_range_meters":19600,"station_id":"ce4bh2h2rcd13ifvqdh0","pricing_plan_id":"cebpf4jnsgd1na2vs0mg"},{"bike_id":"7dddc0ef-b062-4a73-a4ed-1d528bc7202a","system_id":"levelo_inurba_marseille","lat":43.29413,"lon":5.38625,"is_reserved":false,"is_disabled":false,"rental_uris":{"android":"levelo://app?vid=7dddc0ef-b062-4a73-a4ed-1d528bc7202a","ios":"levelo://app?vid=7dddc0ef-b062-4a73-a4ed-1d528bc7202a"},"vehicle_type_id":"4","last_reported":1718824028,"current_range_meters":16800,"station_id":"ce4bh2h2rcd13ifvqdh0","pricing_plan_id":"cebpf4jnsgd1na2vs0mg"},{"bike_id":"beef2980-af13-4983-9b32-a811d3e0cdea","system_id":"levelo_inurba_marseille","lat":43.29416,"lon":5.38631,"is_reserved":false,"is_disabled":false,"rental_uris":{"android":"levelo://app?vid=beef2980-af13-4983-9b32-a811d3e0cdea","ios":"levelo://app?vid=beef2980-af13-4983-9b32-a811d3e0cdea"},"vehicle_type_id":"4","last_reported":1718824028,"current_range_meters":2800,"station_id":"ce4bh2h2rcd13ifvqdh0","pricing_plan_id":"cebpf4jnsgd1na2vs0mg"},{"bike_id":"d140454f-0f44-4e91-b2db-f97187e214f2","system_id":"levelo_inurba_marseille","lat":43.289184,"lon":5.366408,"is_reserved":false,"is_disabled":false,"rental_uris":{"android":"levelo://app?vid=d140454f-0f44-4e91-b2db-f97187e214f2","ios":"levelo://app?vid=d140454f-0f44-4e91-b2db-f97187e214f2"},"vehicle_type_id":"4","last_reported":1718824028,"current_range_meters":0,"station_id":"ce4bhap2rcd13ifvqek0","pricing_plan_id":"cebpf4jnsgd1na2vs0mg"},{"bike_id":"3239ff12-2faa-4e03-b4e6-0fe0e5c8530b","system_id":"levelo_inurba_marseille","lat":43.29413,"lon":5.38628,"is_reserved":false,"is_disabled":false,"rental_uris":{"android":"levelo://app?vid=3239ff12-2faa-4e03-b4e6-0fe0e5c8530b","ios":"levelo://app?vid=3239ff12-2faa-4e03-b4e6-0fe0e5c8530b"},"vehicle_type_id":"4","last_reported":1718824028,"current_range_meters":29600,"station_id":"ce4bh2h2rcd13ifvqdh0","pricing_plan_id":"cebpf4jnsgd1na2vs0mg"},{"bike_id":"2fd8f4bb-421f-495b-9b18-8096abb2d445","system_id":"levelo_inurba_marseille","lat":43.289184,"lon":5.366408,"is_reserved":false,"is_disabled":false,"rental_uris":{"android":"levelo://app?vid=2fd8f4bb-421f-495b-9b18-8096abb2d445","ios":"levelo://app?vid=2fd8f4bb-421f-495b-9b18-8096abb2d445"},"vehicle_type_id":"4","last_reported":1718824028,"current_range_meters":5600,"station_id":"ce4bhap2rcd13ifvqek0","pricing_plan_id":"cebpf4jnsgd1na2vs0mg"},{"bike_id":"2079a32c-4ae4-40ea-ac44-80425017129e","system_id":"levelo_inurba_marseille","lat":43.29413,"lon":5.3863,"is_reserved":false,"is_disabled":false,"rental_uris":{"android":"levelo://app?vid=2079a32c-4ae4-40ea-ac44-80425017129e","ios":"levelo://app?vid=2079a32c-4ae4-40ea-ac44-80425017129e"},"vehicle_type_id":"4","last_reported":1718824028,"current_range_meters":20400,"station_id":"ce4bh2h2rcd13ifvqdh0","pricing_plan_id":"cebpf4jnsgd1na2vs0mg"},{"bike_id":"46e01bd4-5ab9-42f5-ad94-2894a2c34a7c","system_id":"levelo_inurba_marseille","lat":43.294153,"lon":5.386305,"is_reserved":false,"is_disabled":false,"rental_uris":{"android":"levelo://app?vid=46e01bd4-5ab9-42f5-ad94-2894a2c34a7c","ios":"levelo://app?vid=46e01bd4-5ab9-42f5-ad94-2894a2c34a7c"},"vehicle_type_id":"4","last_reported":1718824028,"current_range_meters":30000,"station_id":"ce4bh2h2rcd13ifvqdh0","pricing_plan_id":"cebpf4jnsgd1na2vs0mg"},{"bike_id":"6d49d4e7-f1fb-4cb4-a5a2-960398db450f","system_id":"levelo_inurba_marseille","lat":43.289184,"lon":5.366408,"is_reserved":false,"is_disabled":false,"rental_uris":{"android":"levelo://app?vid=6d49d4e7-f1fb-4cb4-a5a2-960398db450f","ios":"levelo://app?vid=6d49d4e7-f1fb-4cb4-a5a2-960398db450f"},"vehicle_type_id":"4","last_reported":1718824028,"current_range_meters":11600,"station_id":"ce4bhap2rcd13ifvqek0","pricing_plan_id":"cebpf4jnsgd1na2vs0mg"},{"bike_id":"0f50f2af-5314-4a47-8473-cfb3ad01b9f3","system_id":"levelo_inurba_marseille","lat":43.289468,"lon":5.363719,"is_reserved":false,"is_disabled":false,"rental_uris":{"android":"levelo://app?vid=0f50f2af-5314-4a47-8473-cfb3ad01b9f3","ios":"levelo://app?vid=0f50f2af-5314-4a47-8473-cfb3ad01b9f3"},"vehicle_type_id":"4","last_reported":1718824028,"current_range_meters":10400,"station_id":"ce4bhc92rcd13ifvqetg","pricing_plan_id":"cebpf4jnsgd1na2vs0mg"},{"bike_id":"af39dbcc-5760-4613-ab3c-acbcd4d9ab9e","system_id":"levelo_inurba_marseille","lat":43.29412,"lon":5.3863,"is_reserved":false,"is_disabled":false,"rental_uris":{"android":"levelo://app?vid=af39dbcc-5760-4613-ab3c-acbcd4d9ab9e","ios":"levelo://app?vid=af39dbcc-5760-4613-ab3c-acbcd4d9ab9e"},"vehicle_type_id":"4","last_reported":1718824028,"current_range_meters":15200,"station_id":"ce4bh2h2rcd13ifvqdh0","pricing_plan_id":"cebpf4jnsgd1na2vs0mg"},{"bike_id":"a3f867ee-5b08-4345-8760-7ad361314edb","system_id":"levelo_inurba_marseille","lat":43.289184,"lon":5.366408,"is_reserved":false,"is_disabled":false,"rental_uris":{"android":"levelo://app?vid=a3f867ee-5b08-4345-8760-7ad361314edb","ios":"levelo://app?vid=a3f867ee-5b08-4345-8760-7ad361314edb"},"vehicle_type_id":"4","last_reported":1718824028,"current_range_meters":9200,"station_id":"ce4bhap2rcd13ifvqek0","pricing_plan_id":"cebpf4jnsgd1na2vs0mg"},{"bike_id":"f63ae6e9-6bd1-451f-8d6d-870c40751fd5","system_id":"levelo_inurba_marseille","lat":43.289468,"lon":5.363719,"is_reserved":false,"is_disabled":false,"rental_uris":{"android":"levelo://app?vid=f63ae6e9-6bd1-451f-8d6d-870c40751fd5","ios":"levelo://app?vid=f63ae6e9-6bd1-451f-8d6d-870c40751fd5"},"vehicle_type_id":"4","last_reported":1718824028,"current_range_meters":30000,"station_id":"ce4bhc92rcd13ifvqetg","pricing_plan_id":"cebpf4jnsgd1na2vs0mg"},{"bike_id":"d2bd5ef1-ff30-486a-9b34-f71b72c5c37a","system_id":"levelo_inurba_marseille","lat":43.28937,"lon":5.366294,"is_reserved":false,"is_disabled":false,"rental_uris":{"android":"levelo://app?vid=d2bd5ef1-ff30-486a-9b34-f71b72c5c37a","ios":"levelo://app?vid=d2bd5ef1-ff30-486a-9b34-f71b72c5c37a"},"vehicle_type_id":"4","last_reported":1718824028,"current_range_meters":24000,"station_id":"ce4bhap2rcd13ifvqek0","pricing_plan_id":"cebpf4jnsgd1na2vs0mg"},{"bike_id":"718ebdc7-eb96-4c6f-a999-ff460e10c173","system_id":"levelo_inurba_marseille","lat":43.28934,"lon":5.36637,"is_reserved":false,"is_disabled":false,"rental_uris":{"android":"levelo://app?vid=718ebdc7-eb96-4c6f-a999-ff460e10c173","ios":"levelo://app?vid=718ebdc7-eb96-4c6f-a999-ff460e10c173"},"vehicle_type_id":"4","last_reported":1718824028,"current_range_meters":23200,"station_id":"ce4bhap2rcd13ifvqek0","pricing_plan_id":"cebpf4jnsgd1na2vs0mg"},{"bike_id":"a4ad1614-2276-4aee-addb-71566c6f06dc","system_id":"levelo_inurba_marseille","lat":43.289468,"lon":5.363719,"is_reserved":false,"is_disabled":false,"rental_uris":{"android":"levelo://app?vid=a4ad1614-2276-4aee-addb-71566c6f06dc","ios":"levelo://app?vid=a4ad1614-2276-4aee-addb-71566c6f06dc"},"vehicle_type_id":"4","last_reported":1718824028,"current_range_meters":26800,"station_id":"ce4bhc92rcd13ifvqetg","pricing_plan_id":"cebpf4jnsgd1na2vs0mg"},{"bike_id":"c35337e2-5e70-4dba-9489-ced5bdf912c9","system_id":"levelo_inurba_marseille","lat":43.289468,"lon":5.363719,"is_reserved":false,"is_disabled":false,"rental_uris":{"android":"levelo://app?vid=c35337e2-5e70-4dba-9489-ced5bdf912c9","ios":"levelo://app?vid=c35337e2-5e70-4dba-9489-ced5bdf912c9"},"vehicle_type_id":"4","last_reported":1718824028,"current_range_meters":6400,"station_id":"ce4bhc92rcd13ifvqetg","pricing_plan_id":"cebpf4jnsgd1na2vs0mg"},{"bike_id":"b8239ba3-f3e6-4af1-9237-724c05950c14","system_id":"levelo_inurba_marseille","lat":43.28932,"lon":5.36632,"is_reserved":false,"is_disabled":false,"rental_uris":{"android":"levelo://app?vid=b8239ba3-f3e6-4af1-9237-724c05950c14","ios":"levelo://app?vid=b8239ba3-f3e6-4af1-9237-724c05950c14"},"vehicle_type_id":"4","last_reported":1718824028,"current_range_meters":31200,"station_id":"ce4bhap2rcd13ifvqek0","pricing_plan_id":"cebpf4jnsgd1na2vs0mg"},{"bike_id":"ecbf1576-9f48-4a64-9450-96f935bac9a3","system_id":"levelo_inurba_marseille","lat":43.292644,"lon":5.384257,"is_reserved":false,"is_disabled":false,"rental_uris":{"android":"levelo://app?vid=ecbf1576-9f48-4a64-9450-96f935bac9a3","ios":"levelo://app?vid=ecbf1576-9f48-4a64-9450-96f935bac9a3"},"vehicle_type_id":"4","last_reported":1718824028,"current_range_meters":3600,"station_id":"ce4bh692rcd13ifvqea0","pricing_plan_id":"cebpf4jnsgd1na2vs0mg"},{"bike_id":"1e03caa5-97d5-4272-a0e9-3c4af610f31b","system_id":"levelo_inurba_marseille","lat":43.29271,"lon":5.38441,"is_reserved":false,"is_disabled":false,"rental_uris":{"android":"levelo://app?vid=1e03caa5-97d5-4272-a0e9-3c4af610f31b","ios":"levelo://app?vid=1e03caa5-97d5-4272-a0e9-3c4af610f31b"},"vehicle_type_id":"4","last_reported":1718824028,"current_range_meters":28800,"station_id":"ce4bh692rcd13ifvqea0","pricing_plan_id":"cebpf4jnsgd1na2vs0mg"},{"bike_id":"76ff24ea-fb35-4679-a21b-3ce8600d880f","system_id":"levelo_inurba_marseille","lat":43.29265,"lon":5.38437,"is_reserved":false,"is_disabled":false,"rental_uris":{"android":"levelo://app?vid=76ff24ea-fb35-4679-a21b-3ce8600d880f","ios":"levelo://app?vid=76ff24ea-fb35-4679-a21b-3ce8600d880f"},"vehicle_type_id":"4","last_reported":1718824028,"current_range_meters":7600,"station_id":"ce4bh692rcd13ifvqea0","pricing_plan_id":"cebpf4jnsgd1na2vs0mg"},{"bike_id":"6524b7da-f480-4dd9-85c8-443856668bd8","system_id":"levelo_inurba_marseille","lat":43.29264,"lon":5.38435,"is_reserved":false,"is_disabled":false,"rental_uris":{"android":"levelo://app?vid=6524b7da-f480-4dd9-85c8-443856668bd8","ios":"levelo://app?vid=6524b7da-f480-4dd9-85c8-443856668bd8"},"vehicle_type_id":"4","last_reported":1718824028,"current_range_meters":2400,"station_id":"ce4bh692rcd13ifvqea0","pricing_plan_id":"cebpf4jnsgd1na2vs0mg"},{"bike_id":"e8a1a40b-98ab-478e-8a2c-034f31ad1226","system_id":"levelo_inurba_marseille","lat":43.29266,"lon":5.38441,"is_reserved":false,"is_disabled":false,"rental_uris":{"android":"levelo://app?vid=e8a1a40b-98ab-478e-8a2c-034f31ad1226","ios":"levelo://app?vid=e8a1a40b-98ab-478e-8a2c-034f31ad1226"},"vehicle_type_id":"4","last_reported":1718824028,"current_range_meters":14400,"station_id":"ce4bh692rcd13ifvqea0","pricing_plan_id":"cebpf4jnsgd1na2vs0mg"},{"bike_id":"e5d7cfae-ac5f-4451-a4b2-91f37326afaf","system_id":"levelo_inurba_marseille","lat":43.29263,"lon":5.38438,"is_reserved":false,"is_disabled":false,"rental_uris":{"android":"levelo://app?vid=e5d7cfae-ac5f-4451-a4b2-91f37326afaf","ios":"levelo://app?vid=e5d7cfae-ac5f-4451-a4b2-91f37326afaf"},"vehicle_type_id":"4","last_reported":1718824028,"current_range_meters":7600,"station_id":"ce4bh692rcd13ifvqea0","pricing_plan_id":"cebpf4jnsgd1na2vs0mg"},{"bike_id":"a5017dd4-a46f-4a06-8556-b61377d5d6a3","system_id":"levelo_inurba_marseille","lat":43.292642,"lon":5.384254,"is_reserved":false,"is_disabled":false,"rental_uris":{"android":"levelo://app?vid=a5017dd4-a46f-4a06-8556-b61377d5d6a3","ios":"levelo://app?vid=a5017dd4-a46f-4a06-8556-b61377d5d6a3"},"vehicle_type_id":"4","last_reported":1718824028,"current_range_meters":1200,"station_id":"ce4bh692rcd13ifvqea0","pricing_plan_id":"cebpf4jnsgd1na2vs0mg"},{"bike_id":"a5e9291d-0275-4b7b-af0f-5f1e9f771464","system_id":"levelo_inurba_marseille","lat":43.292642,"lon":5.384254,"is_reserved":false,"is_disabled":false,"rental_uris":{"android":"levelo://app?vid=a5e9291d-0275-4b7b-af0f-5f1e9f771464","ios":"levelo://app?vid=a5e9291d-0275-4b7b-af0f-5f1e9f771464"},"vehicle_type_id":"4","last_reported":1718824028,"current_range_meters":31200,"station_id":"ce4bh692rcd13ifvqea0","pricing_plan_id":"cebpf4jnsgd1na2vs0mg"},{"bike_id":"114958fc-000b-4d44-a4b5-972f7440bcfd","system_id":"levelo_inurba_marseille","lat":43.304296,"lon":5.397513,"is_reserved":false,"is_disabled":false,"rental_uris":{"android":"levelo://app?vid=114958fc-000b-4d44-a4b5-972f7440bcfd","ios":"levelo://app?vid=114958fc-000b-4d44-a4b5-972f7440bcfd"},"vehicle_type_id":"4","last_reported":1718824028,"current_range_meters":18400,"station_id":"ce4bh092rcd13ifvqd20","pricing_plan_id":"cebpf4jnsgd1na2vs0mg"},{"bike_id":"92bfdcf1-02d3-424d-aebf-49cb9317709a","system_id":"levelo_inurba_marseille","lat":43.304274,"lon":5.397513,"is_reserved":false,"is_disabled":false,"rental_uris":{"android":"levelo://app?vid=92bfdcf1-02d3-424d-aebf-49cb9317709a","ios":"levelo://app?vid=92bfdcf1-02d3-424d-aebf-49cb9317709a"},"vehicle_type_id":"4","last_reported":1718824028,"current_range_meters":0,"station_id":"ce4bh092rcd13ifvqd20","pricing_plan_id":"cebpf4jnsgd1na2vs0mg"},{"bike_id":"c1756ec5-476c-49d7-858c-cd799d59170a","system_id":"levelo_inurba_marseille","lat":43.29264,"lon":5.38447,"is_reserved":false,"is_disabled":false,"rental_uris":{"android":"levelo://app?vid=c1756ec5-476c-49d7-858c-cd799d59170a","ios":"levelo://app?vid=c1756ec5-476c-49d7-858c-cd799d59170a"},"vehicle_type_id":"4","last_reported":1718824028,"current_range_meters":16800,"station_id":"ce4bh692rcd13ifvqea0","pricing_plan_id":"cebpf4jnsgd1na2vs0mg"},{"bike_id":"3856a90f-2576-4da7-9c1f-193ba072d398","system_id":"levelo_inurba_marseille","lat":43.292644,"lon":5.384257,"is_reserved":false,"is_disabled":false,"rental_uris":{"android":"levelo://app?vid=3856a90f-2576-4da7-9c1f-193ba072d398","ios":"levelo://app?vid=3856a90f-2576-4da7-9c1f-193ba072d398"},"vehicle_type_id":"4","last_reported":1718824028,"current_range_meters":3200,"station_id":"ce4bh692rcd13ifvqea0","pricing_plan_id":"cebpf4jnsgd1na2vs0mg"},{"bike_id":"c3b2af31-1bdb-433c-b1f0-c479b34c7d49","system_id":"levelo_inurba_marseille","lat":43.29262,"lon":5.38446,"is_reserved":false,"is_disabled":false,"rental_uris":{"android":"levelo://app?vid=c3b2af31-1bdb-433c-b1f0-c479b34c7d49","ios":"levelo://app?vid=c3b2af31-1bdb-433c-b1f0-c479b34c7d49"},"vehicle_type_id":"4","last_reported":1718824028,"current_range_meters":0,"station_id":"ce4bh692rcd13ifvqea0","pricing_plan_id":"cebpf4jnsgd1na2vs0mg"},{"bike_id":"a7425be0-8098-462f-8d0a-596f27bc919e","system_id":"levelo_inurba_marseille","lat":43.29257,"lon":5.38436,"is_reserved":false,"is_disabled":false,"rental_uris":{"android":"levelo://app?vid=a7425be0-8098-462f-8d0a-596f27bc919e","ios":"levelo://app?vid=a7425be0-8098-462f-8d0a-596f27bc919e"},"vehicle_type_id":"4","last_reported":1718824028,"current_range_meters":22000,"station_id":"ce4bh692rcd13ifvqea0","pricing_plan_id":"cebpf4jnsgd1na2vs0mg"},{"bike_id":"1399cecf-8ecf-4b70-82d2-b5808bba1c2e","system_id":"levelo_inurba_marseille","lat":43.2926,"lon":5.38444,"is_reserved":false,"is_disabled":false,"rental_uris":{"android":"levelo://app?vid=1399cecf-8ecf-4b70-82d2-b5808bba1c2e","ios":"levelo://app?vid=1399cecf-8ecf-4b70-82d2-b5808bba1c2e"},"vehicle_type_id":"4","last_reported":1718824028,"current_range_meters":6000,"station_id":"ce4bh692rcd13ifvqea0","pricing_plan_id":"cebpf4jnsgd1na2vs0mg"},{"bike_id":"6393fe2b-8c92-4eb1-ae57-c55adaab241c","system_id":"levelo_inurba_marseille","lat":43.29263,"lon":5.38451,"is_reserved":false,"is_disabled":false,"rental_uris":{"android":"levelo://app?vid=6393fe2b-8c92-4eb1-ae57-c55adaab241c","ios":"levelo://app?vid=6393fe2b-8c92-4eb1-ae57-c55adaab241c"},"vehicle_type_id":"4","last_reported":1718824028,"current_range_meters":28400,"station_id":"ce4bh692rcd13ifvqea0","pricing_plan_id":"cebpf4jnsgd1na2vs0mg"},{"bike_id":"43e75a11-0bb1-40a3-8a61-f7e3e8ee4f54","system_id":"levelo_inurba_marseille","lat":43.29255,"lon":5.38436,"is_reserved":false,"is_disabled":false,"rental_uris":{"android":"levelo://app?vid=43e75a11-0bb1-40a3-8a61-f7e3e8ee4f54","ios":"levelo://app?vid=43e75a11-0bb1-40a3-8a61-f7e3e8ee4f54"},"vehicle_type_id":"4","last_reported":1718824028,"current_range_meters":11600,"station_id":"ce4bh692rcd13ifvqea0","pricing_plan_id":"cebpf4jnsgd1na2vs0mg"},