{"last_updated":1707325587,"ttl":30,"version":"2.2","data":{"bikes":[{"bike_id":"c213c441-6a63-4e72-98f0-b1e005d37a35","system_id":"levelo_inurba_marseille","lat":43.31344,"lon":5.3672,"is_reserved":false,"is_disabled":false,"rental_uris":{"android":"levelo://app?vid=c213c441-6a63-4e72-98f0-b1e005d37a35","ios":"levelo://app?vid=c213c441-6a63-4e72-98f0-b1e005d37a35"},"vehicle_type_id":"4","last_reported":1707325587,"current_range_meters":0,"station_id":"ce4bgr92rcd13ifvqc6g","pricing_plan_id":"free"},{"bike_id":"9b7f0d51-e174-4bbd-aeba-867c9ed008b2","system_id":"levelo_inurba_marseille","lat":43.312275,"lon":5.368607,"is_reserved":false,"is_disabled":false,"rental_uris":{"android":"levelo://app?vid=9b7f0d51-e174-4bbd-aeba-867c9ed008b2","ios":"levelo://app?vid=9b7f0d51-e174-4bbd-aeba-867c9ed008b2"},"vehicle_type_id":"4","last_reported":1707325587,"current_range_meters":10000,"station_id":"ce4bgl92rcd13ifvqbq0","pricing_plan_id":"free"},{"bike_id":"8a33542d-79c9-4f26-abcd-eed64a3827d1","system_id":"levelo_inurba_marseille","lat":43.309076,"lon":5.368465,"is_reserved":false,"is_disabled":false,"rental_uris":{"android":"levelo://app?vid=8a33542d-79c9-4f26-abcd-eed64a3827d1","ios":"levelo://app?vid=8a33542d-79c9-4f26-abcd-eed64a3827d1"},"vehicle_type_id":"4","last_reported":1707325587,"current_range_meters":12800,"station_id":"ce4bgn92rcd13ifvqbvg","pricing_plan_id":"free"},{"bike_id":"b5fb8a72-f57f-4ca1-b1fd-28f2be128d30","system_id":"levelo_inurba_marseille","lat":43.309076,"lon":5.368465,"is_reserved":false,"is_disabled":false,"rental_uris":{"android":"levelo://app?vid=b5fb8a72-f57f-4ca1-b1fd-28f2be128d30","ios":"levelo://app?vid=b5fb8a72-f57f-4ca1-b1fd-28f2be128d30"},"vehicle_type_id":"4","last_reported":1707325587,"current_range_meters":31600,"station_id":"ce4bgn92rcd13ifvqbvg","pricing_plan_id":"free"},{"bike_id":"68ce7cdd-7ecc-48a5-ac8e-b4dc5d8ff4ed","system_id":"levelo_inurba_marseille","lat":43.309076,"lon":5.368465,"is_reserved":false,"is_disabled":false,"rental_uris":{"android":"levelo://app?vid=68ce7cdd-7ecc-48a5-ac8e-b4dc5d8ff4ed","ios":"levelo://app?vid=68ce7cdd-7ecc-48a5-ac8e-b4dc5d8ff4ed"},"vehicle_type_id":"4","last_reported":1707325587,"current_range_meters":28000,"station_id":"ce4bgn92rcd13ifvqbvg","pricing_plan_id":"free"},{"bike_id":"d8a01387-0d92-4ad7-ae62-431c8d80e78a","system_id":"levelo_inurba_marseille","lat":43.314811,"lon":5.373103,"is_reserved":false,"is_disabled":false,"rental_uris":{"android":"levelo://app?vid=d8a01387-0d92-4ad7-ae62-431c8d80e78a","ios":"levelo://app?vid=d8a01387-0d92-4ad7-ae62-431c8d80e78a"},"vehicle_type_id":"4","last_reported":1707325587,"current_range_meters":20000,"station_id":"ce4bgt12rcd13ifvqcd0","pricing_plan_id":"free"},{"bike_id":"93bc5c5b-e422-4dea-8bf4-e32781f8fafd","system_id":"levelo_inurba_marseille","lat":43.314811,"lon":5.373103,"is_reserved":false,"is_disabled":false,"rental_uris":{"android":"levelo://app?vid=93bc5c5b-e422-4dea-8bf4-e32781f8fafd","ios":"levelo://app?vid=93bc5c5b-e422-4dea-8bf4-e32781f8fafd"},"vehicle_type_id":"4","last_reported":1707325587,"current_range_meters":2800,"station_id":"ce4bgt12rcd13ifvqcd0","pricing_plan_id":"free"},{"bike_id":"7f2d230f-d43c-49a7-a7b2-05199e0e3c3b","system_id":"levelo_inurba_marseille","lat":43.314811,"lon":5.373103,"is_reserved":false,"is_disabled":false,"rental_uris":{"android":"levelo://app?vid=7f2d230f-d43c-49a7-a7b2-05199e0e3c3b","ios":"levelo://app?vid=7f2d230f-d43c-49a7-a7b2-05199e0e3c3b"},"vehicle_type_id":"4","last_reported":1707325587,"current_range_meters":8000,"station_id":"ce4bgt12rcd13ifvqcd0","pricing_plan_id":"free"},{"bike_id":"bc7c53c8-d2a2-4e7d-a62a-7ff77112fed6","system_id":"levelo_inurba_marseille","lat":43.314811,"lon":5.373104,"is_reserved":false,"is_disabled":false,"rental_uris":{"android":"levelo://app?vid=bc7c53c8-d2a2-4e7d-a62a-7ff77112fed6","ios":"levelo://app?vid=bc7c53c8-d2a2-4e7d-a62a-7ff77112fed6"},"vehicle_type_id":"4","last_reported":1707325587,"current_range_meters":14000,"station_id":"ce4bgt12rcd13ifvqcd0","pricing_plan_id":"free"},{"bike_id":"366c4168-73b7-4b5e-a1fb-97f2aaf5f773","system_id":"levelo_inurba_marseille","lat":43.314811,"lon":5.373103,"is_reserved":false,"is_disabled":false,"rental_uris":{"android":"levelo://app?vid=366c4168-73b7-4b5e-a1fb-97f2aaf5f773","ios":"levelo://app?vid=366c4168-73b7-4b5e-a1fb-97f2aaf5f773"},"vehicle_type_id":"4","last_reported":1707325587,"current_range_meters":800,"station_id":"ce4bgt12rcd13ifvqcd0","pricing_plan_id":"free"},{"bike_id":"b715cd30-0b6d-419b-9827-c12d5a0186fc","system_id":"levelo_inurba_marseille","lat":43.314811,"lon":5.373103,"is_reserved":false,"is_disabled":false,"rental_uris":{"android":"levelo://app?vid=b715cd30-0b6d-419b-9827-c12d5a0186fc","ios":"levelo://app?vid=b715cd30-0b6d-419b-9827-c12d5a0186fc"},"vehicle_type_id":"4","last_reported":1707325587,"current_range_meters":20000,"station_id":"ce4bgt12rcd13ifvqcd0","pricing_plan_id":"free"},{"bike_id":"9c84f79b-06b9-4f78-a4a5-fb0d8b724ba3","system_id":"levelo_inurba_marseille","lat":43.309039,"lon":5.371797,"is_reserved":false,"is_disabled":false,"rental_uris":{"android":"levelo://app?vid=9c84f79b-06b9-4f78-a4a5-fb0d8b724ba3","ios":"levelo://app?vid=9c84f79b-06b9-4f78-a4a5-fb0d8b724ba3"},"vehicle_type_id":"4","last_reported":1707325587,"current_range_meters":23600,"station_id":"ce4bguh2rcd13ifvqckg","pricing_plan_id":"free"},{"bike_id":"8baab488-f5ac-48f5-bf07-2cbc4d32fc95","system_id":"levelo_inurba_marseille","lat":43.311131,"lon":5.377651,"is_reserved":false,"is_disabled":false,"rental_uris":{"android":"levelo://app?vid=8baab488-f5ac-48f5-bf07-2cbc4d32fc95","ios":"levelo://app?vid=8baab488-f5ac-48f5-bf07-2cbc4d32fc95"},"vehicle_type_id":"4","last_reported":1707325587,"current_range_meters":1600,"station_id":"ce4bgt92rcd13ifvqcg0","pricing_plan_id":"free"},{"bike_id":"7f2262e7-325a-4915-a3b7-607b97c72500","system_id":"levelo_inurba_marseille","lat":43.305706,"lon":5.365654,"is_reserved":false,"is_disabled":false,"rental_uris":{"android":"levelo://app?vid=7f2262e7-325a-4915-a3b7-607b97c72500","ios":"levelo://app?vid=7f2262e7-325a-4915-a3b7-607b97c72500"},"vehicle_type_id":"4","last_reported":1707325587,"current_range_meters":2400,"station_id":"ce4bgs12rcd13ifvqcag","pricing_plan_id":"free"},{"bike_id":"44acbb70-c615-47d7-841a-6bb78c958ab9","system_id":"levelo_inurba_marseille","lat":43.305714,"lon":5.365633,"is_reserved":false,"is_disabled":false,"rental_uris":{"android":"levelo://app?vid=44acbb70-c615-47d7-841a-6bb78c958ab9","ios":"levelo://app?vid=44acbb70-c615-47d7-841a-6bb78c958ab9"},"vehicle_type_id":"4","last_reported":1707325587,"current_range_meters":9600,"station_id":"ce4bgs12rcd13ifvqcag","pricing_plan_id":"free"},{"bike_id":"76560bb9-b4e2-453a-9959-38aa8cfa0001","system_id":"levelo_inurba_marseille","lat":43.30545,"lon":5.36538,"is_reserved":false,"is_disabled":false,"rental_uris":{"android":"levelo://app?vid=76560bb9-b4e2-453a-9959-38aa8cfa0001","ios":"levelo://app?vid=76560bb9-b4e2-453a-9959-38aa8cfa0001"},"vehicle_type_id":"4","last_reported":1707325587,"current_range_meters":24800,"station_id":"ce4bgs12rcd13ifvqcag","pricing_plan_id":"free"},{"bike_id":"255a1de2-6135-4209-a877-f907f9c7db85","system_id":"levelo_inurba_marseille","lat":43.305714,"lon":5.365633,"is_reserved":false,"is_disabled":false,"rental_uris":{"android":"levelo://app?vid=255a1de2-6135-4209-a877-f907f9c7db85","ios":"levelo://app?vid=255a1de2-6135-4209-a877-f907f9c7db85"},"vehicle_type_id":"4","last_reported":1707325587,"current_range_meters":5200,"station_id":"ce4bgs12rcd13ifvqcag","pricing_plan_id":"free"},{"bike_id":"2e75f6fd-06c9-4616-8f91-05dcf354daf6","system_id":"levelo_inurba_marseille","lat":43.30543,"lon":5.36532,"is_reserved":false,"is_disabled":false,"rental_uris":{"android":"levelo://app?vid=2e75f6fd-06c9-4616-8f91-05dcf354daf6","ios":"levelo://app?vid=2e75f6fd-06c9-4616-8f91-05dcf354daf6"},"vehicle_type_id":"4","last_reported":1707325587,"current_range_meters":20000,"station_id":"ce4bgs12rcd13ifvqcag","pricing_plan_id":"free"},{"bike_id":"7aa48c78-bd1e-4f99-bf4e-f2d046ee8fa9","system_id":"levelo_inurba_marseille","lat":43.305368,"lon":5.367343,"is_reserved":false,"is_disabled":false,"rental_uris":{"android":"levelo://app?vid=7aa48c78-bd1e-4f99-bf4e-f2d046ee8fa9","ios":"levelo://app?vid=7aa48c78-bd1e-4f99-bf4e-f2d046ee8fa9"},"vehicle_type_id":"4","last_reported":1707325587,"current_range_meters":4800,"station_id":"ce4bgrp2rcd13ifvqc9g","pricing_plan_id":"free"},{"bike_id":"b876fddb-dc67-4f03-9bd6-364ef6f7df47","system_id":"levelo_inurba_marseille","lat":43.305706,"lon":5.365654,"is_reserved":false,"is_disabled":false,"rental_uris":{"android":"levelo://app?vid=b876fddb-dc67-4f03-9bd6-364ef6f7df47","ios":"levelo://app?vid=b876fddb-dc67-4f03-9bd6-364ef6f7df47"},"vehicle_type_id":"4","last_reported":1707325587,"current_range_meters":6000,"station_id":"ce4bgs12rcd13ifvqcag","pricing_plan_id":"free"},{"bike_id":"383f672f-fbc8-4fbe-9a69-15d386c48d6b","system_id":"levelo_inurba_marseille","lat":43.30537,"lon":5.36549,"is_reserved":false,"is_disabled":false,"rental_uris":{"android":"levelo://app?vid=383f672f-fbc8-4fbe-9a69-15d386c48d6b","ios":"levelo://app?vid=383f672f-fbc8-4fbe-9a69-15d386c48d6b"},"vehicle_type_id":"4","last_reported":1707325587,"current_range_meters":31200,"station_id":"ce4bgs12rcd13ifvqcag","pricing_plan_id":"free"},{"bike_id":"4fd09a77-d19b-4e3f-8f91-bedc0e75fe1f","system_id":"levelo_inurba_marseille","lat":43.305706,"lon":5.365654,"is_reserved":false,"is_disabled":false,"rental_uris":{"android":"levelo://app?vid=4fd09a77-d19b-4e3f-8f91-bedc0e75fe1f","ios":"levelo://app?vid=4fd09a77-d19b-4e3f-8f91-bedc0e75fe1f"},"vehicle_type_id":"4","last_reported":1707325587,"current_range_meters":4400,"station_id":"ce4bgs12rcd13ifvqcag","pricing_plan_id":"free"},{"bike_id":"d9124fe5-a0cf-43cb-b468-22e620265a2e","system_id":"levelo_inurba_marseille","lat":43.305706,"lon":5.365654,"is_reserved":false,"is_disabled":false,"rental_uris":{"android":"levelo://app?vid=d9124fe5-a0cf-43cb-b468-22e620265a2e","ios":"levelo://app?vid=d9124fe5-a0cf-43cb-b468-22e620265a2e"},"vehicle_type_id":"4","last_reported":1707325587,"current_range_meters":29600,"station_id":"ce4bgs12rcd13ifvqcag","pricing_plan_id":"free"},{"bike_id":"ea96f304-bd13-4af9-b23f-0645f2f8a317","system_id":"levelo_inurba_marseille","lat":43.305989,"lon":5.37225,"is_reserved":false,"is_disabled":false,"rental_uris":{"android":"levelo://app?vid=ea96f304-bd13-4af9-b23f-0645f2f8a317","ios":"levelo://app?vid=ea96f304-bd13-4af9-b23f-0645f2f8a317"},"vehicle_type_id":"4","last_reported":1707325587,"current_range_meters":25600,"station_id":"ce4bgqh2rcd13ifvqc4g","pricing_plan_id":"free"},{"bike_id":"7d3b87ed-bbc8-43bf-877a-9997a1af3ddf","system_id":"levelo_inurba_marseille","lat":43.305989,"lon":5.37225,"is_reserved":false,"is_disabled":false,"rental_uris":{"android":"levelo://app?vid=7d3b87ed-bbc8-43bf-877a-9997a1af3ddf","ios":"levelo://app?vid=7d3b87ed-bbc8-43bf-877a-9997a1af3ddf"},"vehicle_type_id":"4","last_reported":1707325587,"current_range_meters":21200,"station_id":"ce4bgqh2rcd13ifvqc4g","pricing_plan_id":"free"},{"bike_id":"71f29d07-98f4-4905-9e3d-4b2898ed8036","system_id":"levelo_inurba_marseille","lat":43.305989,"lon":5.37225,"is_reserved":false,"is_disabled":false,"rental_uris":{"android":"levelo://app?vid=71f29d07-98f4-4905-9e3d-4b2898ed8036","ios":"levelo://app?vid=71f29d07-98f4-4905-9e3d-4b2898ed8036"},"vehicle_type_id":"4","last_reported":1707325587,"current_range_meters":0,"station_id":"ce4bgqh2rcd13ifvqc4g","pricing_plan_id":"free"},{"bike_id":"1a281304-bc56-458e-a39f-595c845dae42","system_id":"levelo_inurba_marseille","lat":43.305989,"lon":5.37225,"is_reserved":false,"is_disabled":false,"rental_uris":{"android":"levelo://app?vid=1a281304-bc56-458e-a39f-595c845dae42","ios":"levelo://app?vid=1a281304-bc56-458e-a39f-595c845dae42"},"vehicle_type_id":"4","last_reported":1707325587,"current_range_meters":29600,"station_id":"ce4bgqh2rcd13ifvqc4g","pricing_plan_id":"free"},{"bike_id":"0ce3b5b5-22c7-4271-9a4c-c3df1ea36936","system_id":"levelo_inurba_marseille","lat":43.305989,"lon":5.37225,"is_reserved":false,"is_disabled":false,"rental_uris":{"android":"levelo://app?vid=0ce3b5b5-22c7-4271-9a4c-c3df1ea36936","ios":"levelo://app?vid=0ce3b5b5-22c7-4271-9a4c-c3df1ea36936"},"vehicle_type_id":"4","last_reported":1707325587,"current_range_meters":29600,"station_id":"ce4bgqh2rcd13ifvqc4g","pricing_plan_id":"free"},{"bike_id":"a9ff46f1-653b-4737-abb3-02631b035bbc","system_id":"levelo_inurba_marseille","lat":43.31913,"lon":5.37335,"is_reserved":false,"is_disabled":false,"rental_uris":{"android":"levelo://app?vid=a9ff46f1-653b-4737-abb3-02631b035bbc","ios":"levelo://app?vid=a9ff46f1-653b-4737-abb3-02631b035bbc"},"vehicle_type_id":"4","last_reported":1707325587,"current_range_meters":0,"station_id":"","pricing_plan_id":"free"},{"bike_id":"baca1e45-5a89-45c7-bc91-96b5994e16b7","system_id":"levelo_inurba_marseille","lat":43.311177,"lon":5.377627,"is_reserved":false,"is_disabled":false,"rental_uris":{"android":"levelo://app?vid=baca1e45-5a89-45c7-bc91-96b5994e16b7","ios":"levelo://app?vid=baca1e45-5a89-45c7-bc91-96b5994e16b7"},"vehicle_type_id":"4","last_reported":1707325587,"current_range_meters":6400,"station_id":"ce4bgt92rcd13ifvqcg0","pricing_plan_id":"free"},{"bike_id":"28facc23-24bd-48c2-a2c0-07d49593d1c1","system_id":"levelo_inurba_marseille","lat":43.31119,"lon":5.37765,"is_reserved":false,"is_disabled":false,"rental_uris":{"android":"levelo://app?vid=28facc23-24bd-48c2-a2c0-07d49593d1c1","ios":"levelo://app?vid=28facc23-24bd-48c2-a2c0-07d49593d1c1"},"vehicle_type_id":"4","last_reported":1707325587,"current_range_meters":0,"station_id":"ce4bgt92rcd13ifvqcg0","pricing_plan_id":"free"},{"bike_id":"31460b5d-46ef-4487-8d10-cb792853ee31","system_id":"levelo_inurba_marseille","lat":43.311131,"lon":5.377651,"is_reserved":false,"is_disabled":false,"rental_uris":{"android":"levelo://app?vid=31460b5d-46ef-4487-8d10-cb792853ee31","ios":"levelo://app?vid=31460b5d-46ef-4487-8d10-cb792853ee31"},"vehicle_type_id":"4","last_reported":1707325587,"current_range_meters":0,"station_id":"ce4bgt92rcd13ifvqcg0","pricing_plan_id":"free"},{"bike_id":"0caebcf5-e901-4f30-8c0e-38fd0ba4c18f","system_id":"levelo_inurba_marseille","lat":43.311131,"lon":5.377651,"is_reserved":false,"is_disabled":false,"rental_uris":{"android":"levelo://app?vid=0caebcf5-e901-4f30-8c0e-38fd0ba4c18f","ios":"levelo://app?vid=0caebcf5-e901-4f30-8c0e-38fd0ba4c18f"},"vehicle_type_id":"4","last_reported":1707325587,"current_range_meters":0,"station_id":"ce4bgt92rcd13ifvqcg0","pricing_plan_id":"free"},{"bike_id":"61bc1548-d804-40b7-90f4-ddd8839f4e40","system_id":"levelo_inurba_marseille","lat":43.311131,"lon":5.377651,"is_reserved":false,"is_disabled":false,"rental_uris":{"android":"levelo://app?vid=61bc1548-d804-40b7-90f4-ddd8839f4e40","ios":"levelo://app?vid=61bc1548-d804-40b7-90f4-ddd8839f4e40"},"vehicle_type_id":"4","last_reported":1707325587,"current_range_meters":5600,"station_id":"ce4bgt92rcd13ifvqcg0","pricing_plan_id":"free"},{"bike_id":"b277ce11-3ee2-4344-9bdd-c6ebf8483f50","system_id":"levelo_inurba_marseille","lat":43.30791,"lon":5.37641,"is_reserved":false,"is_disabled":false,"rental_uris":{"android":"levelo://app?vid=b277ce11-3ee2-4344-9bdd-c6ebf8483f50","ios":"levelo://app?vid=b277ce11-3ee2-4344-9bdd-c6ebf8483f50"},"vehicle_type_id":"4","last_reported":1707325587,"current_range_meters":2000,"station_id":"","pricing_plan_id":"free"},{"bike_id":"160fa472-e097-439f-b9c5-a860917c2272","system_id":"levelo_inurba_marseille","lat":43.307945,"lon":5.376487,"is_reserved":false,"is_disabled":false,"rental_uris":{"android":"levelo://app?vid=160fa472-e097-439f-b9c5-a860917c2272","ios":"levelo://app?vid=160fa472-e097-439f-b9c5-a860917c2272"},"vehicle_type_id":"4","last_reported":1707325587,"current_range_meters":18800,"station_id":"ce4bgv92rcd13ifvqcq0","pricing_plan_id":"free"},{"bike_id":"323cc24f-0a93-4e30-987d-1b63aeb146b6","system_id":"levelo_inurba_marseille","lat":43.317072,"lon":5.377528,"is_reserved":false,"is_disabled":false,"rental_uris":{"android":"levelo://app?vid=323cc24f-0a93-4e30-987d-1b63aeb146b6","ios":"levelo://app?vid=323cc24f-0a93-4e30-987d-1b63aeb146b6"},"vehicle_type_id":"4","last_reported":1707325587,"current_range_meters":23600,"station_id":"ce4bgth2rcd13ifvqch0","pricing_plan_id":"free"},{"bike_id":"dca02982-a8ca-4f8f-99aa-c4c50c3dc6cf","system_id":"levelo_inurba_marseille","lat":43.32235,"lon":5.3678,"is_reserved":false,"is_disabled":false,"rental_uris":{"android":"levelo://app?vid=dca02982-a8ca-4f8f-99aa-c4c50c3dc6cf","ios":"levelo://app?vid=dca02982-a8ca-4f8f-99aa-c4c50c3dc6cf"},"vehicle_type_id":"4","last_reported":1707325587,"current_range_meters":29600,"station_id":"","pricing_plan_id":"free"},{"bike_id":"af35b7a5-4fff-4f02-b18a-d9309b5471c8","system_id":"levelo_inurba_marseille","lat":43.30304,"lon":5.368987,"is_reserved":false,"is_disabled":false,"rental_uris":{"android":"levelo://app?vid=af35b7a5-4fff-4f02-b18a-d9309b5471c8","ios":"levelo://app?vid=af35b7a5-4fff-4f02-b18a-d9309b5471c8"},"vehicle_type_id":"4","last_reported":1707325587,"current_range_meters":3200,"station_id":"ce4bgqh2rcd13ifvqc5g","pricing_plan_id":"free"},{"bike_id":"17a82f80-4867-43c1-95f7-77649d07b813","system_id":"levelo_inurba_marseille","lat":43.31529,"lon":5.38037,"is_reserved":false,"is_disabled":false,"rental_uris":{"android":"levelo://app?vid=17a82f80-4867-43c1-95f7-77649d07b813","ios":"levelo://app?vid=17a82f80-4867-43c1-95f7-77649d07b813"},"vehicle_type_id":"4","last_reported":1707325587,"current_range_meters":20800,"station_id":"","pricing_plan_id":"free"},{"bike_id":"e00daf42-3914-43ac-bbd4-f6a6812c2a16","system_id":"levelo_inurba_marseille","lat":43.301939,"lon":5.366286,"is_reserved":false,"is_disabled":false,"rental_uris":{"android":"levelo://app?vid=e00daf42-3914-43ac-bbd4-f6a6812c2a16","ios":"levelo://app?vid=e00daf42-3914-43ac-bbd4-f6a6812c2a16"},"vehicle_type_id":"4","last_reported":1707325587,"current_range_meters":23200,"station_id":"ce4bgrh2rcd13ifvqc8g","pricing_plan_id":"free"},{"bike_id":"2bfdf76b-6c06-459f-a508-d993e490b5d1","system_id":"levelo_inurba_marseille","lat":43.301939,"lon":5.366286,"is_reserved":false,"is_disabled":false,"rental_uris":{"android":"levelo://app?vid=2bfdf76b-6c06-459f-a508-d993e490b5d1","ios":"levelo://app?vid=2bfdf76b-6c06-459f-a508-d993e490b5d1"},"vehicle_type_id":"4","last_reported":1707325587,"current_range_meters":27200,"station_id":"ce4bgrh2rcd13ifvqc8g","pricing_plan_id":"free"},{"bike_id":"df67b953-a169-4a44-a466-f78a2190b3bc","system_id":"levelo_inurba_marseille","lat":43.301939,"lon":5.366286,"is_reserved":false,"is_disabled":false,"rental_uris":{"android":"levelo://app?vid=df67b953-a169-4a44-a466-f78a2190b3bc","ios":"levelo://app?vid=df67b953-a169-4a44-a466-f78a2190b3bc"},"vehicle_type_id":"4","last_reported":1707325587,"current_range_meters":27200,"station_id":"ce4bgrh2rcd13ifvqc8g","pricing_plan_id":"free"},{"bike_id":"b746cac5-a669-4394-a5b8-7fba88e33559","system_id":"levelo_inurba_marseille","lat":43.301939,"lon":5.366286,"is_reserved":false,"is_disabled":false,"rental_uris":{"android":"levelo://app?vid=b746cac5-a669-4394-a5b8-7fba88e33559","ios":"levelo://app?vid=b746cac5-a669-4394-a5b8-7fba88e33559"},"vehicle_type_id":"4","last_reported":1707325587,"current_range_meters":24800,"station_id":"ce4bgrh2rcd13ifvqc8g","pricing_plan_id":"free"},{"bike_id":"9033db9c-dfe8-4983-94cd-6e57c5530c24","system_id":"levelo_inurba_marseille","lat":43.301939,"lon":5.366286,"is_reserved":false,"is_disabled":false,"rental_uris":{"android":"levelo://app?vid=9033db9c-dfe8-4983-94cd-6e57c5530c24","ios":"levelo://app?vid=9033db9c-dfe8-4983-94cd-6e57c5530c24"},"vehicle_type_id":"4","last_reported":1707325587,"current_range_meters":18800,"station_id":"ce4bgrh2rcd13ifvqc8g","pricing_plan_id":"free"},{"bike_id":"f404e4c4-fda8-48e9-a97c-9831ea93728e","system_id":"levelo_inurba_marseille","lat":43.301939,"lon":5.366286,"is_reserved":false,"is_disabled":false,"rental_uris":{"android":"levelo://app?vid=f404e4c4-fda8-48e9-a97c-9831ea93728e","ios":"levelo://app?vid=f404e4c4-fda8-48e9-a97c-9831ea93728e"},"vehicle_type_id":"4","last_reported":1707325587,"current_range_meters":14800,"station_id":"ce4bgrh2rcd13ifvqc8g","pricing_plan_id":"free"},{"bike_id":"2ebe6767-51ea-404c-b222-fb4f1e2b028a","system_id":"levelo_inurba_marseille","lat":43.301939,"lon":5.366286,"is_reserved":false,"is_disabled":false,"rental_uris":{"android":"levelo://app?vid=2ebe6767-51ea-404c-b222-fb4f1e2b028a","ios":"levelo://app?vid=2ebe6767-51ea-404c-b222-fb4f1e2b028a"},"vehicle_type_id":"4","last_reported":1707325587,"current_range_meters":31200,"station_id":"ce4bgrh2rcd13ifvqc8g","pricing_plan_id":"free"},{"bike_id":"8bdca1a6-ea85-442e-9d1b-48fa50916e80","system_id":"levelo_inurba_marseille","lat":43.301939,"lon":5.366286,"is_reserved":false,"is_disabled":false,"rental_uris":{"android":"levelo://app?vid=8bdca1a6-ea85-442e-9d1b-48fa50916e80","ios":"levelo://app?vid=8bdca1a6-ea85-442e-9d1b-48fa50916e80"},"vehicle_type_id":"4","last_reported":1707325587,"current_range_meters":17600,"station_id":"ce4bgrh2rcd13ifvqc8g","pricing_plan_id":"free"},{"bike_id":"cef3c27b-fea4-4b35-8271-6483c840f2d7","system_id":"levelo_inurba_marseille","lat":43.301939,"lon":5.366286,"is_reserved":false,"is_disabled":false,"rental_uris":{"android":"levelo://app?vid=cef3c27b-fea4-4b35-8271-6483c840f2d7","ios":"levelo://app?vid=cef3c27b-fea4-4b35-8271-6483c840f2d7"},"vehicle_type_id":"4","last_reported":1707325587,"current_range_meters":28400,"station_id":"ce4bgrh2rcd13ifvqc8g","pricing_plan_id":"free"},{"bike_id":"63ee19ad-a5c5-496e-acb5-d89bedfb17c2","system_id":"levelo_inurba_marseille","lat":43.301939,"lon":5.366286,"is_reserved":false,"is_disabled":false,"rental_uris":{"android":"levelo://app?vid=63ee19ad-a5c5-496e-acb5-d89bedfb17c2","ios":"levelo://app?vid=63ee19ad-a5c5-496e-acb5-d89bedfb17c2"},"vehicle_type_id":"4","last_reported":1707325587,"current_range_meters":31200,"station_id":"ce4bgrh2rcd13ifvqc8g","pricing_plan_id":"free"},{"bike_id":"5b609ee1-8a9e-4ab1-b070-5c0e0ffc032e","system_id":"levelo_inurba_marseille","lat":43.301939,"lon":5.366286,"is_reserved":false,"is_disabled":false,"rental_uris":{"android":"levelo://app?vid=5b609ee1-8a9e-4ab1-b070-5c0e0ffc032e","ios":"levelo://app?vid=5b609ee1-8a9e-4ab1-b070-5c0e0ffc032e"},"vehicle_type_id":"4","last_reported":1707325587,"current_range_meters":17200,"station_id":"ce4bgrh2rcd13ifvqc8g","pricing_plan_id":"free"},{"bike_id":"d3bbaa1c-bd42-4480-83af-1675f959224a","system_id":"levelo_inurba_marseille","lat":43.3221,"lon":5.3751,"is_reserved":false,"is_disabled":false,"rental_uris":{"android":"levelo://app?vid=d3bbaa1c-bd42-4480-83af-1675f959224a","ios":"levelo://app?vid=d3bbaa1c-bd42-4480-83af-1675f959224a"},"vehicle_type_id":"4","last_reported":1707325587,"current_range_meters":18400,"station_id":"","pricing_plan_id":"free"},{"bike_id":"8475ef54-2b83-4515-9153-4b603cb25a6b","system_id":"levelo_inurba_marseille","lat":43.308012,"lon":5.381511,"is_reserved":false,"is_disabled":false,"rental_uris":{"android":"levelo://app?vid=8475ef54-2b83-4515-9153-4b603cb25a6b","ios":"levelo://app?vid=8475ef54-2b83-4515-9153-4b603cb25a6b"},"vehicle_type_id":"4","last_reported":1707325587,"current_range_meters":1600,"station_id":"ce4bgt12rcd13ifvqce0","pricing_plan_id":"free"},{"bike_id":"3e30704f-affd-4c78-aaca-6571a8cf5a55","system_id":"levelo_inurba_marseille","lat":43.308012,"lon":5.381511,"is_reserved":false,"is_disabled":false,"rental_uris":{"android":"levelo://app?vid=3e30704f-affd-4c78-aaca-6571a8cf5a55","ios":"levelo://app?vid=3e30704f-affd-4c78-aaca-6571a8cf5a55"},"vehicle_type_id":"4","last_reported":1707325587,"current_range_meters":16000,"station_id":"ce4bgt12rcd13ifvqce0","pricing_plan_id":"free"},{"bike_id":"4fa081f0-aed2-4d07-8bf8-d2180542e185","system_id":"levelo_inurba_marseille","lat":43.308012,"lon":5.381511,"is_reserved":false,"is_disabled":false,"rental_uris":{"android":"levelo://app?vid=4fa081f0-aed2-4d07-8bf8-d2180542e185","ios":"levelo://app?vid=4fa081f0-aed2-4d07-8bf8-d2180542e185"},"vehicle_type_id":"4","last_reported":1707325587,"current_range_meters":19200,"station_id":"ce4bgt12rcd13ifvqce0","pricing_plan_id":"free"},{"bike_id":"cf26984a-a640-4431-9d12-8b6e8108afe2","system_id":"levelo_inurba_marseille","lat":43.308012,"lon":5.381511,"is_reserved":false,"is_disabled":false,"rental_uris":{"android":"levelo://app?vid=cf26984a-a640-4431-9d12-8b6e8108afe2","ios":"levelo://app?vid=cf26984a-a640-4431-9d12-8b6e8108afe2"},"vehicle_type_id":"4","last_reported":1707325587,"current_range_meters":15600,"station_id":"ce4bgt12rcd13ifvqce0","pricing_plan_id":"free"},{"bike_id":"f61c63f8-f3ea-4260-a195-a3bf0bb680cb","system_id":"levelo_inurba_marseille","lat":43.30795,"lon":5.38158,"is_reserved":false,"is_disabled":false,"rental_uris":{"android":"levelo://app?vid=f61c63f8-f3ea-4260-a195-a3bf0bb680cb","ios":"levelo://app?vid=f61c63f8-f3ea-4260-a195-a3bf0bb680cb"},"vehicle_type_id":"4","last_reported":1707325587,"current_range_meters":20000,"station_id":"ce4bgt12rcd13ifvqce0","pricing_plan_id":"free"},{"bike_id":"8893b99c-e097-425b-96ea-5b4951ce813c","system_id":"levelo_inurba_marseille","lat":43.30809,"lon":5.38177,"is_reserved":false,"is_disabled":false,"rental_uris":{"android":"levelo://app?vid=8893b99c-e097-425b-96ea-5b4951ce813c","ios":"levelo://app?vid=8893b99c-e097-425b-96ea-5b4951ce813c"},"vehicle_type_id":"4","last_reported":1707325587,"current_range_meters":21600,"station_id":"","pricing_plan_id":"free"},{"bike_id":"413d48cf-3fa6-46c6-b493-afe1fb3827fa","system_id":"levelo_inurba_marseille","lat":43.30798,"lon":5.38175,"is_reserved":false,"is_disabled":false,"rental_uris":{"android":"levelo://app?vid=413d48cf-3fa6-46c6-b493-afe1fb3827fa","ios":"levelo://app?vid=413d48cf-3fa6-46c6-b493-afe1fb3827fa"},"vehicle_type_id":"4","last_reported":1707325587,"current_range_meters":8800,"station_id":"ce4bgt12rcd13ifvqce0","pricing_plan_id":"free"},{"bike_id":"673fdb89-f7c3-4a48-93f1-57b0bb501c32","system_id":"levelo_inurba_marseille","lat":43.304606,"lon":5.379026,"is_reserved":false,"is_disabled":false,"rental_uris":{"android":"levelo://app?vid=673fdb89-f7c3-4a48-93f1-57b0bb501c32","ios":"levelo://app?vid=673fdb89-f7c3-4a48-93f1-57b0bb501c32"},"vehicle_type_id":"4","last_reported":1707325587,"current_range_meters":6000,"station_id":"ce4bgup2rcd13ifvqcn0","pricing_plan_id":"free"},{"bike_id":"e3fbc8e7-1136-4e64-bacd-3da395810691","system_id":"levelo_inurba_marseille","lat":43.304606,"lon":5.379026,"is_reserved":false,"is_disabled":false,"rental_uris":{"android":"levelo://app?vid=e3fbc8e7-1136-4e64-bacd-3da395810691","ios":"levelo://app?vid=e3fbc8e7-1136-4e64-bacd-3da395810691"},"vehicle_type_id":"4","last_reported":1707325587,"current_range_meters":31200,"station_id":"ce4bgup2rcd13ifvqcn0","pricing_plan_id":"free"},{"bike_id":"9d656a4b-bccb-48f4-ae28-bf7ab75f06fa","system_id":"levelo_inurba_marseille","lat":43.304606,"lon":5.379026,"is_reserved":false,"is_disabled":false,"rental_uris":{"android":"levelo://app?vid=9d656a4b-bccb-48f4-ae28-bf7ab75f06fa","ios":"levelo://app?vid=9d656a4b-bccb-48f4-ae28-bf7ab75f06fa"},"vehicle_type_id":"4","last_reported":1707325587,"current_range_meters":28800,"station_id":"ce4bgup2rcd13ifvqcn0","pricing_plan_id":"free"},{"bike_id":"97f71f75-d414-4d74-9636-20377fab8590","system_id":"levelo_inurba_marseille","lat":43.324771,"lon":5.36557,"is_reserved":false,"is_disabled":false,"rental_uris":{"android":"levelo://app?vid=97f71f75-d414-4d74-9636-20377fab8590","ios":"levelo://app?vid=97f71f75-d414-4d74-9636-20377fab8590"},"vehicle_type_id":"4","last_reported":1707325587,"current_range_meters":27200,"station_id":"ce4bhs12rcd13ifvqhvg","pricing_plan_id":"free"},{"bike_id":"5e3f4117-bf71-4295-8fac-b33a9c44e6b6","system_id":"levelo_inurba_marseille","lat":43.324771,"lon":5.36557,"is_reserved":false,"is_disabled":false,"rental_uris":{"android":"levelo://app?vid=5e3f4117-bf71-4295-8fac-b33a9c44e6b6","ios":"levelo://app?vid=5e3f4117-bf71-4295-8fac-b33a9c44e6b6"},"vehicle_type_id":"4","last_reported":1707325587,"current_range_meters":19600,"station_id":"ce4bhs12rcd13ifvqhvg","pricing_plan_id":"free"},{"bike_id":"91c66a19-a3c7-49c3-af5d-2beaa8d69313","system_id":"levelo_inurba_marseille","lat":43.32486,"lon":5.36565,"is_reserved":false,"is_disabled":false,"rental_uris":{"android":"levelo://app?vid=91c66a19-a3c7-49c3-af5d-2beaa8d69313","ios":"levelo://app?vid=91c66a19-a3c7-49c3-af5d-2beaa8d69313"},"vehicle_type_id":"4","last_reported":1707325587,"current_range_meters":14800,"station_id":"ce4bhs12rcd13ifvqhvg","pricing_plan_id":"free"},{"bike_id":"062174b0-ca97-46ec-971a-12143f8370a3","system_id":"levelo_inurba_marseille","lat":43.30287,"lon":5.37707,"is_reserved":false,"is_disabled":false,"rental_uris":{"android":"levelo://app?vid=062174b0-ca97-46ec-971a-12143f8370a3","ios":"levelo://app?vid=062174b0-ca97-46ec-971a-12143f8370a3"},"vehicle_type_id":"4","last_reported":1707325587,"current_range_meters":19200,"station_id":"ce4bguh2rcd13ifvqcj0","pricing_plan_id":"free"},{"bike_id":"a85645d5-ca40-4d5e-b02a-3852aec0d77b","system_id":"levelo_inurba_marseille","lat":43.319896,"lon":5.381513,"is_reserved":false,"is_disabled":false,"rental_uris":{"android":"levelo://app?vid=a85645d5-ca40-4d5e-b02a-3852aec0d77b","ios":"levelo://app?vid=a85645d5-ca40-4d5e-b02a-3852aec0d77b"},"vehicle_type_id":"4","last_reported":1707325587,"current_range_meters":9600,"station_id":"ce4bhr12rcd13ifvqhpg","pricing_plan_id":"free"},{"bike_id":"740003d4-55d5-4974-b418-57fb3f4d1ce4","system_id":"levelo_inurba_marseille","lat":43.319931,"lon":5.381565,"is_reserved":false,"is_disabled":false,"rental_uris":{"android":"levelo://app?vid=740003d4-55d5-4974-b418-57fb3f4d1ce4","ios":"levelo://app?vid=740003d4-55d5-4974-b418-57fb3f4d1ce4"},"vehicle_type_id":"4","last_reported":1707325587,"current_range_meters":17600,"station_id":"ce4bhr12rcd13ifvqhpg","pricing_plan_id":"free"},{"bike_id":"c14e0de5-a491-44cf-b181-f2263f10cd76","system_id":"levelo_inurba_marseille","lat":43.31998,"lon":5.38165,"is_reserved":false,"is_disabled":false,"rental_uris":{"android":"levelo://app?vid=c14e0de5-a491-44cf-b181-f2263f10cd76","ios":"levelo://app?vid=c14e0de5-a491-44cf-b181-f2263f10cd76"},"vehicle_type_id":"4","last_reported":1707325587,"current_range_meters":4000,"station_id":"ce4bhr12rcd13ifvqhpg","pricing_plan_id":"free"},{"bike_id":"4c002ef2-a3fc-445a-96bd-84190b8fef33","system_id":"levelo_inurba_marseille","lat":43.299222,"lon":5.365554,"is_reserved":false,"is_disabled":false,"rental_uris":{"android":"levelo://app?vid=4c002ef2-a3fc-445a-96bd-84190b8fef33","ios":"levelo://app?vid=4c002ef2-a3fc-445a-96bd-84190b8fef33"},"vehicle_type_id":"4","last_reported":1707325587,"current_range_meters":15200,"station_id":"ce4bgm92rcd13ifvqbr0","pricing_plan_id":"free"},{"bike_id":"91c11bde-2625-42ef-890c-e8e924857d8e","system_id":"levelo_inurba_marseille","lat":43.299222,"lon":5.365554,"is_reserved":false,"is_disabled":false,"rental_uris":{"android":"levelo://app?vid=91c11bde-2625-42ef-890c-e8e924857d8e","ios":"levelo://app?vid=91c11bde-2625-42ef-890c-e8e924857d8e"},"vehicle_type_id":"4","last_reported":1707325587,"current_range_meters":24400,"station_id":"ce4bgm92rcd13ifvqbr0","pricing_plan_id":"free"},{"bike_id":"5fb0d045-7ca6-4ad8-9119-d9b05b8e3d00","system_id":"levelo_inurba_marseille","lat":43.299724,"lon":5.371829,"is_reserved":false,"is_disabled":false,"rental_uris":{"android":"levelo://app?vid=5fb0d045-7ca6-4ad8-9119-d9b05b8e3d00","ios":"levelo://app?vid=5fb0d045-7ca6-4ad8-9119-d9b05b8e3d00"},"vehicle_type_id":"4","last_reported":1707325587,"current_range_meters":28000,"station_id":"ce4bgr92rcd13ifvqc7g","pricing_plan_id":"free"},{"bike_id":"7715a4ca-886b-4065-bd9a-a6c2c9aef5e8","system_id":"levelo_inurba_marseille","lat":43.299222,"lon":5.365554,"is_reserved":false,"is_disabled":false,"rental_uris":{"android":"levelo://app?vid=7715a4ca-886b-4065-bd9a-a6c2c9aef5e8","ios":"levelo://app?vid=7715a4ca-886b-4065-bd9a-a6c2c9aef5e8"},"vehicle_type_id":"4","last_reported":1707325587,"current_range_meters":5600,"station_id":"ce4bgm92rcd13ifvqbr0","pricing_plan_id":"free"},{"bike_id":"5bfbd475-813d-47e7-9ef0-a88a7d93fca3","system_id":"levelo_inurba_marseille","lat":43.299724,"lon":5.371829,"is_reserved":false,"is_disabled":false,"rental_uris":{"android":"levelo://app?vid=5bfbd475-813d-47e7-9ef0-a88a7d93fca3","ios":"levelo://app?vid=5bfbd475-813d-47e7-9ef0-a88a7d93fca3"},"vehicle_type_id":"4","last_reported":1707325587,"current_range_meters":10400,"station_id":"ce4bgr92rcd13ifvqc7g","pricing_plan_id":"free"},{"bike_id":"d73908e2-2bfd-489b-804e-d4e95fac72d2","system_id":"levelo_inurba_marseille","lat":43.326525,"lon":5.36078,"is_reserved":false,"is_disabled":false,"rental_uris":{"android":"levelo://app?vid=d73908e2-2bfd-489b-804e-d4e95fac72d2","ios":"levelo://app?vid=d73908e2-2bfd-489b-804e-d4e95fac72d2"},"vehicle_type_id":"4","last_reported":1707325587,"current_range_meters":10000,"station_id":"","pricing_plan_id":"free"},{"bike_id":"fc3b00fd-5e72-4c64-bd92-a7eb2b993a61","system_id":"levelo_inurba_marseille","lat":43.29851,"lon":5.36282,"is_reserved":false,"is_disabled":false,"rental_uris":{"android":"levelo://app?vid=fc3b00fd-5e72-4c64-bd92-a7eb2b993a61","ios":"levelo://app?vid=fc3b00fd-5e72-4c64-bd92-a7eb2b993a61"},"vehicle_type_id":"4","last_reported":1707325587,"current_range_meters":31200,"station_id":"ce4bgpp2rcd13ifvqc3g","pricing_plan_id":"free"},{"bike_id":"2974b84a-01a7-4efb-a03e-8dd3d772dcaf","system_id":"levelo_inurba_marseille","lat":43.29845,"lon":5.36277,"is_reserved":false,"is_disabled":false,"rental_uris":{"android":"levelo://app?vid=2974b84a-01a7-4efb-a03e-8dd3d772dcaf","ios":"levelo://app?vid=2974b84a-01a7-4efb-a03e-8dd3d772dcaf"},"vehicle_type_id":"4","last_reported":1707325587,"current_range_meters":25600,"station_id":"ce4bgpp2rcd13ifvqc3g","pricing_plan_id":"free"},{"bike_id":"1ab07198-3a59-423d-9b1e-6d704a262e82","system_id":"levelo_inurba_marseille","lat":43.298433,"lon":5.362774,"is_reserved":false,"is_disabled":false,"rental_uris":{"android":"levelo://app?vid=1ab07198-3a59-423d-9b1e-6d704a262e82","ios":"levelo://app?vid=1ab07198-3a59-423d-9b1e-6d704a262e82"},"vehicle_type_id":"4","last_reported":1707325587,"current_range_meters":31200,"station_id":"ce4bgpp2rcd13ifvqc3g","pricing_plan_id":"free"},{"bike_id":"daad767b-a767-4a28-b55d-5cd5d081c2f2","system_id":"levelo_inurba_marseille","lat":43.298433,"lon":5.362774,"is_reserved":false,"is_disabled":false,"rental_uris":{"android":"levelo://app?vid=daad767b-a767-4a28-b55d-5cd5d081c2f2","ios":"levelo://app?vid=daad767b-a767-4a28-b55d-5cd5d081c2f2"},"vehicle_type_id":"4","last_reported":1707325587,"current_range_meters":31200,"station_id":"ce4bgpp2rcd13ifvqc3g","pricing_plan_id":"free"},{"bike_id":"867a7e36-d153-4291-a21e-34b84c500fb4","system_id":"levelo_inurba_marseille","lat":43.298433,"lon":5.362774,"is_reserved":false,"is_disabled":false,"rental_uris":{"android":"levelo://app?vid=867a7e36-d153-4291-a21e-34b84c500fb4","ios":"levelo://app?vid=867a7e36-d153-4291-a21e-34b84c500fb4"},"vehicle_type_id":"4","last_reported":1707325587,"current_range_meters":31200,"station_id":"ce4bgpp2rcd13ifvqc3g","pricing_plan_id":"free"},{"bike_id":"a8d2d21b-3427-4f6e-87ef-988bc6839881","system_id":"levelo_inurba_marseille","lat":43.298433,"lon":5.362774,"is_reserved":false,"is_disabled":false,"rental_uris":{"android":"levelo://app?vid=a8d2d21b-3427-4f6e-87ef-988bc6839881","ios":"levelo://app?vid=a8d2d21b-3427-4f6e-87ef-988bc6839881"},"vehicle_type_id":"4","last_reported":1707325587,"current_range_meters":31200,"station_id":"ce4bgpp2rcd13ifvqc3g","pricing_plan_id":"free"},{"bike_id":"7a482ca8-4b4a-48d6-938d-a3636c988087","system_id":"levelo_inurba_marseille","lat":43.311722,"lon":5.387247,"is_reserved":false,"is_disabled":false,"rental_uris":{"android":"levelo://app?vid=7a482ca8-4b4a-48d6-938d-a3636c988087","ios":"levelo://app?vid=7a482ca8-4b4a-48d6-938d-a3636c988087"},"vehicle_type_id":"4","last_reported":1707325587,"current_range_meters":10800,"station_id":"ce4bgv12rcd13ifvqcp0","pricing_plan_id":"free"},{"bike_id":"a32a8a31-c14a-4104-b5e3-65efbe9a2f37","system_id":"levelo_inurba_marseille","lat":43.297163,"lon":5.365866,"is_reserved":false,"is_disabled":false,"rental_uris":{"android":"levelo://app?vid=a32a8a31-c14a-4104-b5e3-65efbe9a2f37","ios":"levelo://app?vid=a32a8a31-c14a-4104-b5e3-65efbe9a2f37"},"vehicle_type_id":"4","last_reported":1707325587,"current_range_meters":14400,"station_id":"ce4bgn12rcd13ifvqbt0","pricing_plan_id":"free"},{"bike_id":"d18e31e4-4ffb-4505-8526-6ad32d2b8284","system_id":"levelo_inurba_marseille","lat":43.322872,"lon":5.382756,"is_reserved":false,"is_disabled":false,"rental_uris":{"android":"levelo://app?vid=d18e31e4-4ffb-4505-8526-6ad32d2b8284","ios":"levelo://app?vid=d18e31e4-4ffb-4505-8526-6ad32d2b8284"},"vehicle_type_id":"4","last_reported":1707325587,"current_range_meters":26800,"station_id":"ce4bhr12rcd13ifvqhqg","pricing_plan_id":"free"},{"bike_id":"7e1b2a77-71b5-4003-b54e-450ad3f3f9d1","system_id":"levelo_inurba_marseille","lat":43.322872,"lon":5.382756,"is_reserved":false,"is_disabled":false,"rental_uris":{"android":"levelo://app?vid=7e1b2a77-71b5-4003-b54e-450ad3f3f9d1","ios":"levelo://app?vid=7e1b2a77-71b5-4003-b54e-450ad3f3f9d1"},"vehicle_type_id":"4","last_reported":1707325587,"current_range_meters":31600,"station_id":"ce4bhr12rcd13ifvqhqg","pricing_plan_id":"free"},{"bike_id":"72871506-5c8d-4246-b6ff-5c1fd4ecd534","system_id":"levelo_inurba_marseille","lat":43.322872,"lon":5.382756,"is_reserved":false,"is_disabled":false,"rental_uris":{"android":"levelo://app?vid=72871506-5c8d-4246-b6ff-5c1fd4ecd534","ios":"levelo://app?vid=72871506-5c8d-4246-b6ff-5c1fd4ecd534"},"vehicle_type_id":"4","last_reported":1707325587,"current_range_meters":8400,"station_id":"ce4bhr12rcd13ifvqhqg","pricing_plan_id":"free"},{"bike_id":"eefe6e9a-bb51-44f7-a644-f94de5a43093","system_id":"levelo_inurba_marseille","lat":43.322872,"lon":5.382756,"is_reserved":false,"is_disabled":false,"rental_uris":{"android":"levelo://app?vid=eefe6e9a-bb51-44f7-a644-f94de5a43093","ios":"levelo://app?vid=eefe6e9a-bb51-44f7-a644-f94de5a43093"},"vehicle_type_id":"4","last_reported":1707325587,"current_range_meters":16800,"station_id":"ce4bhr12rcd13ifvqhqg","pricing_plan_id":"free"},{"bike_id":"e9931e11-7f7d-405e-b611-f5c0a6974b86","system_id":"levelo_inurba_marseille","lat":43.32821,"lon":5.366863,"is_reserved":false,"is_disabled":false,"rental_uris":{"android":"levelo://app?vid=e9931e11-7f7d-405e-b611-f5c0a6974b86","ios":"levelo://app?vid=e9931e11-7f7d-405e-b611-f5c0a6974b86"},"vehicle_type_id":"4","last_reported":1707325587,"current_range_meters":8000,"station_id":"ce4bhs92rcd13ifvqi0g","pricing_plan_id":"free"},{"bike_id":"65df82d7-13cf-47f7-a772-c822c5154c08","system_id":"levelo_inurba_marseille","lat":43.32825,"lon":5.36697,"is_reserved":false,"is_disabled":false,"rental_uris":{"android":"levelo://app?vid=65df82d7-13cf-47f7-a772-c822c5154c08","ios":"levelo://app?vid=65df82d7-13cf-47f7-a772-c822c5154c08"},"vehicle_type_id":"4","last_reported":1707325587,"current_range_meters":7200,"station_id":"ce4bhs92rcd13ifvqi0g","pricing_plan_id":"free"},{"bike_id":"fe778e3d-01c2-4885-a600-56239ff1ba86","system_id":"levelo_inurba_marseille","lat":43.328371,"lon":5.366909,"is_reserved":false,"is_disabled":false,"rental_uris":{"android":"levelo://app?vid=fe778e3d-01c2-4885-a600-56239ff1ba86","ios":"levelo://app?vid=fe778e3d-01c2-4885-a600-56239ff1ba86"},"vehicle_type_id":"4","last_reported":1707325587,"current_range_meters":22400,"station_id":"ce4bhs92rcd13ifvqi0g","pricing_plan_id":"free"},{"bike_id":"1900e2ea-9239-49b1-933e-57903fa99707","system_id":"levelo_inurba_marseille","lat":43.32826,"lon":5.36695,"is_reserved":false,"is_disabled":false,"rental_uris":{"android":"levelo://app?vid=1900e2ea-9239-49b1-933e-57903fa99707","ios":"levelo://app?vid=1900e2ea-9239-49b1-933e-57903fa99707"},"vehicle_type_id":"4","last_reported":1707325587,"current_range_meters":0,"station_id":"ce4bhs92rcd13ifvqi0g","pricing_plan_id":"free"},{"bike_id":"4d078c0d-a907-4b5c-9379-68a567d01d45","system_id":"levelo_inurba_marseille","lat":43.328371,"lon":5.366909,"is_reserved":false,"is_disabled":false,"rental_uris":{"android":"levelo://app?vid=4d078c0d-a907-4b5c-9379-68a567d01d45","ios":"levelo://app?vid=4d078c0d-a907-4b5c-9379-68a567d01d45"},"vehicle_type_id":"4","last_reported":1707325587,"current_range_meters":22800,"station_id":"ce4bhs92rcd13ifvqi0g","pricing_plan_id":"free"},{"bike_id":"2c9e2bae-75ab-4fcb-a45a-bb416a6935c9","system_id":"levelo_inurba_marseille","lat":43.297163,"lon":5.365866,"is_reserved":false,"is_disabled":false,"rental_uris":{"android":"levelo://app?vid=2c9e2bae-75ab-4fcb-a45a-bb416a6935c9","ios":"levelo://app?vid=2c9e2bae-75ab-4fcb-a45a-bb416a6935c9"},"vehicle_type_id":"4","last_reported":1707325587,"current_range_meters":18000,"station_id":"ce4bgn12rcd13ifvqbt0","pricing_plan_id":"free"},{"bike_id":"927f0a30-2109-48e1-b358-9b5d4758d791","system_id":"levelo_inurba_marseille","lat":43.297163,"lon":5.365866,"is_reserved":false,"is_disabled":false,"rental_uris":{"android":"levelo://app?vid=927f0a30-2109-48e1-b358-9b5d4758d791","ios":"levelo://app?vid=927f0a30-2109-48e1-b358-9b5d4758d791"},"vehicle_type_id":"4","last_reported":1707325587,"current_range_meters":31200,"station_id":"ce4bgn12rcd13ifvqbt0","pricing_plan_id":"free"},{"bike_id":"0a207bf4-8a86-4ad9-8452-7a89b240a867","system_id":"levelo_inurba_marseille","lat":43.297163,"lon":5.365866,"is_reserved":false,"is_disabled":false,"rental_uris":{"android":"levelo://app?vid=0a207bf4-8a86-4ad9-8452-7a89b240a867","ios":"levelo://app?vid=0a207bf4-8a86-4ad9-8452-7a89b240a867"},"vehicle_type_id":"4","last_reported":1707325587,"current_range_meters":20400,"station_id":"ce4bgn12rcd13ifvqbt0","pricing_plan_id":"free"},{"bike_id":"04359a30-e6ae-4bf7-9221-b3e8c0b0c299","system_id":"levelo_inurba_marseille","lat":43.297163,"lon":5.365866,"is_reserved":false,"is_disabled":false,"rental_uris":{"android":"levelo://app?vid=04359a30-e6ae-4bf7-9221-b3e8c0b0c299","ios":"levelo://app?vid=04359a30-e6ae-4bf7-9221-b3e8c0b0c299"},"vehicle_type_id":"4","last_reported":1707325587,"current_range_meters":26400,"station_id":"ce4bgn12rcd13ifvqbt0","pricing_plan_id":"free"},{"bike_id":"6cab000d-8e7b-4b69-bb41-615e1cee47b7","system_id":"levelo_inurba_marseille","lat":43.297163,"lon":5.365866,"is_reserved":false,"is_disabled":false,"rental_uris":{"android":"levelo://app?vid=6cab000d-8e7b-4b69-bb41-615e1cee47b7","ios":"levelo://app?vid=6cab000d-8e7b-4b69-bb41-615e1cee47b7"},"vehicle_type_id":"4","last_reported":1707325587,"current_range_meters":21600,"station_id":"ce4bgn12rcd13ifvqbt0","pricing_plan_id":"free"},{"bike_id":"e4e5b0ce-a2f5-495b-b220-5b83695fdcd6","system_id":"levelo_inurba_marseille","lat":43.29704,"lon":5.36616,"is_reserved":false,"is_disabled":false,"rental_uris":{"android":"levelo://app?vid=e4e5b0ce-a2f5-495b-b220-5b83695fdcd6","ios":"levelo://app?vid=e4e5b0ce-a2f5-495b-b220-5b83695fdcd6"},"vehicle_type_id":"4","last_reported":1707325587,"current_range_meters":400,"station_id":"ce4bgn12rcd13ifvqbt0","pricing_plan_id":"free"},{"bike_id":"efcdef76-7b46-4573-8d38-ad6c77c88b98","system_id":"levelo_inurba_marseille","lat":43.2968,"lon":5.37291,"is_reserved":false,"is_disabled":false,"rental_uris":{"android":"levelo://app?vid=efcdef76-7b46-4573-8d38-ad6c77c88b98","ios":"levelo://app?vid=efcdef76-7b46-4573-8d38-ad6c77c88b98"},"vehicle_type_id":"4","last_reported":1707325587,"current_range_meters":24000,"station_id":"ce4bgk12rcd13ifvqbj0","pricing_plan_id":"free"},{"bike_id":"2433e313-6aa9-494e-b1dc-a995ba2850dc","system_id":"levelo_inurba_marseille","lat":43.296775,"lon":5.372871,"is_reserved":false,"is_disabled":false,"rental_uris":{"android":"levelo://app?vid=2433e313-6aa9-494e-b1dc-a995ba2850dc","ios":"levelo://app?vid=2433e313-6aa9-494e-b1dc-a995ba2850dc"},"vehicle_type_id":"4","last_reported":1707325587,"current_range_meters":31200,"station_id":"ce4bgk12rcd13ifvqbj0","pricing_plan_id":"free"},{"bike_id":"a101cb5f-e620-4042-a21f-0ffff1fe29aa","system_id":"levelo_inurba_marseille","lat":43.304274,"lon":5.388873,"is_reserved":false,"is_disabled":false,"rental_uris":{"android":"levelo://app?vid=a101cb5f-e620-4042-a21f-0ffff1fe29aa","ios":"levelo://app?vid=a101cb5f-e620-4042-a21f-0ffff1fe29aa"},"vehicle_type_id":"4","last_reported":1707325587,"current_range_meters":4800,"station_id":"ce4bgk12rcd13ifvqbi0","pricing_plan_id":"free"},{"bike_id":"fa16b9da-3306-48f9-88c5-680b7331f8c0","system_id":"levelo_inurba_marseille","lat":43.29573,"lon":5.367355,"is_reserved":false,"is_disabled":false,"rental_uris":{"android":"levelo://app?vid=fa16b9da-3306-48f9-88c5-680b7331f8c0","ios":"levelo://app?vid=fa16b9da-3306-48f9-88c5-680b7331f8c0"},"vehicle_type_id":"4","last_reported":1707325587,"current_range_meters":12800,"station_id":"ce4bgph2rcd13ifvqc2g","pricing_plan_id":"free"},{"bike_id":"12df9f9c-df22-4e77-a0a8-79a1996a2b2b","system_id":"levelo_inurba_marseille","lat":43.296129,"lon":5.370777,"is_reserved":false,"is_disabled":false,"rental_uris":{"android":"levelo://app?vid=12df9f9c-df22-4e77-a0a8-79a1996a2b2b","ios":"levelo://app?vid=12df9f9c-df22-4e77-a0a8-79a1996a2b2b"},"vehicle_type_id":"4","last_reported":1707325587,"current_range_meters":25200,"station_id":"ce4bgnh2rcd13ifvqc0g","pricing_plan_id":"free"},{"bike_id":"12e460b1-dd09-48d3-9652-d8843f3c760f","system_id":"levelo_inurba_marseille","lat":43.29573,"lon":5.367355,"is_reserved":false,"is_disabled":false,"rental_uris":{"android":"levelo://app?vid=12e460b1-dd09-48d3-9652-d8843f3c760f","ios":"levelo://app?vid=12e460b1-dd09-48d3-9652-d8843f3c760f"},"vehicle_type_id":"4","last_reported":1707325587,"current_range_meters":31200,"station_id":"ce4bgph2rcd13ifvqc2g","pricing_plan_id":"free"},{"bike_id":"5973d584-c01a-4347-9de4-25d3e44a2e68","system_id":"levelo_inurba_marseille","lat":43.2962,"lon":5.3717,"is_reserved":false,"is_disabled":false,"rental_uris":{"android":"levelo://app?vid=5973d584-c01a-4347-9de4-25d3e44a2e68","ios":"levelo://app?vid=5973d584-c01a-4347-9de4-25d3e44a2e68"},"vehicle_type_id":"4","last_reported":1707325587,"current_range_meters":28000,"station_id":"ce4bgnh2rcd13ifvqc0g","pricing_plan_id":"free"},{"bike_id":"050b7b45-56cd-4944-99ef-4558c038587e","system_id":"levelo_inurba_marseille","lat":43.29619,"lon":5.37168,"is_reserved":false,"is_disabled":false,"rental_uris":{"android":"levelo://app?vid=050b7b45-56cd-4944-99ef-4558c038587e","ios":"levelo://app?vid=050b7b45-56cd-4944-99ef-4558c038587e"},"vehicle_type_id":"4","last_reported":1707325587,"current_range_meters":5200,"station_id":"ce4bgnh2rcd13ifvqc0g","pricing_plan_id":"free"},{"bike_id":"2c9401c8-8adf-4e34-8d6a-79399c872c0b","system_id":"levelo_inurba_marseille","lat":43.29619,"lon":5.3717,"is_reserved":false,"is_disabled":false,"rental_uris":{"android":"levelo://app?vid=2c9401c8-8adf-4e34-8d6a-79399c872c0b","ios":"levelo://app?vid=2c9401c8-8adf-4e34-8d6a-79399c872c0b"},"vehicle_type_id":"4","last_reported":1707325587,"current_range_meters":26400,"station_id":"ce4bgnh2rcd13ifvqc0g","pricing_plan_id":"free"},{"bike_id":"8f7161d1-88a0-43ca-90b1-da5d6f1cded4","system_id":"levelo_inurba_marseille","lat":43.29573,"lon":5.367355,"is_reserved":false,"is_disabled":false,"rental_uris":{"android":"levelo://app?vid=8f7161d1-88a0-43ca-90b1-da5d6f1cded4","ios":"levelo://app?vid=8f7161d1-88a0-43ca-90b1-da5d6f1cded4"},"vehicle_type_id":"4","last_reported":1707325587,"current_range_meters":26400,"station_id":"ce4bgph2rcd13ifvqc2g","pricing_plan_id":"free"},{"bike_id":"9c2c3a47-56b4-48ee-a7df-729ba855b8bd","system_id":"levelo_inurba_marseille","lat":43.296935,"lon":5.376544,"is_reserved":false,"is_disabled":false,"rental_uris":{"android":"levelo://app?vid=9c2c3a47-56b4-48ee-a7df-729ba855b8bd","ios":"levelo://app?vid=9c2c3a47-56b4-48ee-a7df-729ba855b8bd"},"vehicle_type_id":"4","last_reported":1707325587,"current_range_meters":1600,"station_id":"ce4bgkh2rcd13ifvqbl0","pricing_plan_id":"free"},{"bike_id":"6ee31b39-4be9-4aff-96c6-99b0a2c939db","system_id":"levelo_inurba_marseille","lat":43.299028,"lon":5.381509,"is_reserved":false,"is_disabled":false,"rental_uris":{"android":"levelo://app?vid=6ee31b39-4be9-4aff-96c6-99b0a2c939db","ios":"levelo://app?vid=6ee31b39-4be9-4aff-96c6-99b0a2c939db"},"vehicle_type_id":"4","last_reported":1707325587,"current_range_meters":28800,"station_id":"ce4bgj12rcd13ifvqbc0","pricing_plan_id":"free"},{"bike_id":"87b1125b-6282-4f54-8e90-c86bfc09cb42","system_id":"levelo_inurba_marseille","lat":43.311722,"lon":5.387247,"is_reserved":false,"is_disabled":false,"rental_uris":{"android":"levelo://app?vid=87b1125b-6282-4f54-8e90-c86bfc09cb42","ios":"levelo://app?vid=87b1125b-6282-4f54-8e90-c86bfc09cb42"},"vehicle_type_id":"4","last_reported":1707325587,"current_range_meters":17200,"station_id":"ce4bgv12rcd13ifvqcp0","pricing_plan_id":"free"},{"bike_id":"2eff7440-8efd-4363-9d41-f62f38bc8ca5","system_id":"levelo_inurba_marseille","lat":43.296935,"lon":5.376544,"is_reserved":false,"is_disabled":false,"rental_uris":{"android":"levelo://app?vid=2eff7440-8efd-4363-9d41-f62f38bc8ca5","ios":"levelo://app?vid=2eff7440-8efd-4363-9d41-f62f38bc8ca5"},"vehicle_type_id":"4","last_reported":1707325587,"current_range_meters":5600,"station_id":"ce4bgkh2rcd13ifvqbl0","pricing_plan_id":"free"},{"bike_id":"dd13a608-7457-4d4e-b1b4-6c7e8f661026","system_id":"levelo_inurba_marseille","lat":43.299028,"lon":5.381509,"is_reserved":false,"is_disabled":false,"rental_uris":{"android":"levelo://app?vid=dd13a608-7457-4d4e-b1b4-6c7e8f661026","ios":"levelo://app?vid=dd13a608-7457-4d4e-b1b4-6c7e8f661026"},"vehicle_type_id":"4","last_reported":1707325587,"current_range_meters":14000,"station_id":"ce4bgj12rcd13ifvqbc0","pricing_plan_id":"free"},{"bike_id":"b393e380-9b9a-4239-8934-e30e3f7bac4e","system_id":"levelo_inurba_marseille","lat":43.317418,"lon":5.390028,"is_reserved":false,"is_disabled":false,"rental_uris":{"android":"levelo://app?vid=b393e380-9b9a-4239-8934-e30e3f7bac4e","ios":"levelo://app?vid=b393e380-9b9a-4239-8934-e30e3f7bac4e"},"vehicle_type_id":"4","last_reported":1707325587,"current_range_meters":11200,"station_id":"ce4bhqp2rcd13ifvqhng","pricing_plan_id":"free"},{"bike_id":"a65680f1-b3cf-4a61-b0ee-2a9e0277a0af","system_id":"levelo_inurba_marseille","lat":43.317592,"lon":5.390116,"is_reserved":false,"is_disabled":false,"rental_uris":{"android":"levelo://app?vid=a65680f1-b3cf-4a61-b0ee-2a9e0277a0af","ios":"levelo://app?vid=a65680f1-b3cf-4a61-b0ee-2a9e0277a0af"},"vehicle_type_id":"4","last_reported":1707325587,"current_range_meters":12800,"station_id":"ce4bhqp2rcd13ifvqhng","pricing_plan_id":"free"},{"bike_id":"3ccd3931-8811-4b7f-a846-c32a0a6915a2","system_id":"levelo_inurba_marseille","lat":43.317557,"lon":5.390173,"is_reserved":false,"is_disabled":false,"rental_uris":{"android":"levelo://app?vid=3ccd3931-8811-4b7f-a846-c32a0a6915a2","ios":"levelo://app?vid=3ccd3931-8811-4b7f-a846-c32a0a6915a2"},"vehicle_type_id":"4","last_reported":1707325587,"current_range_meters":28800,"station_id":"ce4bhqp2rcd13ifvqhng","pricing_plan_id":"free"},{"bike_id":"28bba395-38ae-46b0-8bda-5604032e994c","system_id":"levelo_inurba_marseille","lat":43.317557,"lon":5.390173,"is_reserved":false,"is_disabled":false,"rental_uris":{"android":"levelo://app?vid=28bba395-38ae-46b0-8bda-5604032e994c","ios":"levelo://app?vid=28bba395-38ae-46b0-8bda-5604032e994c"},"vehicle_type_id":"4","last_reported":1707325587,"current_range_meters":15200,"station_id":"ce4bhqp2rcd13ifvqhng","pricing_plan_id":"free"},{"bike_id":"8236458b-34ca-49b5-ab60-c4f12ac61945","system_id":"levelo_inurba_marseille","lat":43.31759,"lon":5.39018,"is_reserved":false,"is_disabled":false,"rental_uris":{"android":"levelo://app?vid=8236458b-34ca-49b5-ab60-c4f12ac61945","ios":"levelo://app?vid=8236458b-34ca-49b5-ab60-c4f12ac61945"},"vehicle_type_id":"4","last_reported":1707325587,"current_range_meters":12000,"station_id":"ce4bhqp2rcd13ifvqhng","pricing_plan_id":"free"},{"bike_id":"f9e71f25-83c3-4ad2-95f8-b63267492ced","system_id":"levelo_inurba_marseille","lat":43.317557,"lon":5.390173,"is_reserved":false,"is_disabled":false,"rental_uris":{"android":"levelo://app?vid=f9e71f25-83c3-4ad2-95f8-b63267492ced","ios":"levelo://app?vid=f9e71f25-83c3-4ad2-95f8-b63267492ced"},"vehicle_type_id":"4","last_reported":1707325587,"current_range_meters":26400,"station_id":"ce4bhqp2rcd13ifvqhng","pricing_plan_id":"free"},{"bike_id":"5803286d-bc09-4cb9-b050-80f335e1e221","system_id":"levelo_inurba_marseille","lat":43.317557,"lon":5.390173,"is_reserved":false,"is_disabled":false,"rental_uris":{"android":"levelo://app?vid=5803286d-bc09-4cb9-b050-80f335e1e221","ios":"levelo://app?vid=5803286d-bc09-4cb9-b050-80f335e1e221"},"vehicle_type_id":"4","last_reported":1707325587,"current_range_meters":21600,"station_id":"ce4bhqp2rcd13ifvqhng","pricing_plan_id":"free"},{"bike_id":"36530bef-b0a9-4557-bc82-752d439888bc","system_id":"levelo_inurba_marseille","lat":43.317557,"lon":5.390173,"is_reserved":false,"is_disabled":false,"rental_uris":{"android":"levelo://app?vid=36530bef-b0a9-4557-bc82-752d439888bc","ios":"levelo://app?vid=36530bef-b0a9-4557-bc82-752d439888bc"},"vehicle_type_id":"4","last_reported":1707325587,"current_range_meters":14800,"station_id":"ce4bhqp2rcd13ifvqhng","pricing_plan_id":"free"},{"bike_id":"c6311209-b17e-4096-b517-f681d98f256d","system_id":"levelo_inurba_marseille","lat":43.284538,"lon":5.358657,"is_reserved":false,"is_disabled":false,"rental_uris":{"android":"levelo://app?vid=c6311209-b17e-4096-b517-f681d98f256d","ios":"levelo://app?vid=c6311209-b17e-4096-b517-f681d98f256d"},"vehicle_type_id":"4","last_reported":1707325587,"current_range_meters":30000,"station_id":"ce4bhah2rcd13ifvqei0","pricing_plan_id":"free"},{"bike_id":"fc276ed7-a65b-4dfd-85ca-e57d999ca381","system_id":"levelo_inurba_marseille","lat":43.298137,"lon":5.380971,"is_reserved":false,"is_disabled":false,"rental_uris":{"android":"levelo://app?vid=fc276ed7-a65b-4dfd-85ca-e57d999ca381","ios":"levelo://app?vid=fc276ed7-a65b-4dfd-85ca-e57d999ca381"},"vehicle_type_id":"4","last_reported":1707325587,"current_range_meters":29600,"station_id":"ce4bgip2rcd13ifvqbb0","pricing_plan_id":"free"},{"bike_id":"cb635b8e-4428-48a6-a35c-53ebd4353a4e","system_id":"levelo_inurba_marseille","lat":43.298037,"lon":5.381066,"is_reserved":false,"is_disabled":false,"rental_uris":{"android":"levelo://app?vid=cb635b8e-4428-48a6-a35c-53ebd4353a4e","ios":"levelo://app?vid=cb635b8e-4428-48a6-a35c-53ebd4353a4e"},"vehicle_type_id":"4","last_reported":1707325587,"current_range_meters":6000,"station_id":"ce4bgip2rcd13ifvqbb0","pricing_plan_id":"free"},{"bike_id":"786ea097-1836-43e0-bc0f-d942dfc782bc","system_id":"levelo_inurba_marseille","lat":43.298037,"lon":5.381066,"is_reserved":false,"is_disabled":false,"rental_uris":{"android":"levelo://app?vid=786ea097-1836-43e0-bc0f-d942dfc782bc","ios":"levelo://app?vid=786ea097-1836-43e0-bc0f-d942dfc782bc"},"vehicle_type_id":"4","last_reported":1707325587,"current_range_meters":26400,"station_id":"ce4bgip2rcd13ifvqbb0","pricing_plan_id":"free"},{"bike_id":"7f32b1e8-b9b1-42a7-95ad-558e067d8b41","system_id":"levelo_inurba_marseille","lat":43.29579,"lon":5.37524,"is_reserved":false,"is_disabled":false,"rental_uris":{"android":"levelo://app?vid=7f32b1e8-b9b1-42a7-95ad-558e067d8b41","ios":"levelo://app?vid=7f32b1e8-b9b1-42a7-95ad-558e067d8b41"},"vehicle_type_id":"4","last_reported":1707325587,"current_range_meters":0,"station_id":"ce4bgh92rcd13ifvqb50","pricing_plan_id":"free"},{"bike_id":"4319f0d9-b173-40d4-8d28-a6ea514e7f4a","system_id":"levelo_inurba_marseille","lat":43.298037,"lon":5.381066,"is_reserved":false,"is_disabled":false,"rental_uris":{"android":"levelo://app?vid=4319f0d9-b173-40d4-8d28-a6ea514e7f4a","ios":"levelo://app?vid=4319f0d9-b173-40d4-8d28-a6ea514e7f4a"},"vehicle_type_id":"4","last_reported":1707325587,"current_range_meters":24800,"station_id":"ce4bgip2rcd13ifvqbb0","pricing_plan_id":"free"},{"bike_id":"548571c3-90b8-4dde-8493-6cc0012a4828","system_id":"levelo_inurba_marseille","lat":43.304278,"lon":5.388868,"is_reserved":false,"is_disabled":false,"rental_uris":{"android":"levelo://app?vid=548571c3-90b8-4dde-8493-6cc0012a4828","ios":"levelo://app?vid=548571c3-90b8-4dde-8493-6cc0012a4828"},"vehicle_type_id":"4","last_reported":1707325587,"current_range_meters":800,"station_id":"ce4bgk12rcd13ifvqbi0","pricing_plan_id":"free"},{"bike_id":"399b4be7-ac9a-473c-8bc3-c480556c8917","system_id":"levelo_inurba_marseille","lat":43.299717,"lon":5.384845,"is_reserved":false,"is_disabled":false,"rental_uris":{"android":"levelo://app?vid=399b4be7-ac9a-473c-8bc3-c480556c8917","ios":"levelo://app?vid=399b4be7-ac9a-473c-8bc3-c480556c8917"},"vehicle_type_id":"4","last_reported":1707325587,"current_range_meters":0,"station_id":"ce4bgj92rcd13ifvqbd0","pricing_plan_id":"free"},{"bike_id":"30c4ca3a-bc89-4d9c-8097-9fc1b0740ced","system_id":"levelo_inurba_marseille","lat":43.299707,"lon":5.384859,"is_reserved":false,"is_disabled":false,"rental_uris":{"android":"levelo://app?vid=30c4ca3a-bc89-4d9c-8097-9fc1b0740ced","ios":"levelo://app?vid=30c4ca3a-bc89-4d9c-8097-9fc1b0740ced"},"vehicle_type_id":"4","last_reported":1707325587,"current_range_meters":20400,"station_id":"ce4bgj92rcd13ifvqbd0","pricing_plan_id":"free"},{"bike_id":"ff657752-da49-4dd1-aefd-c23e4cf92ccc","system_id":"levelo_inurba_marseille","lat":43.299707,"lon":5.384859,"is_reserved":false,"is_disabled":false,"rental_uris":{"android":"levelo://app?vid=ff657752-da49-4dd1-aefd-c23e4cf92ccc","ios":"levelo://app?vid=ff657752-da49-4dd1-aefd-c23e4cf92ccc"},"vehicle_type_id":"4","last_reported":1707325587,"current_range_meters":16800,"station_id":"ce4bgj92rcd13ifvqbd0","pricing_plan_id":"free"},{"bike_id":"67c7877a-12f6-4343-ad9a-262a0c78fed7","system_id":"levelo_inurba_marseille","lat":43.299724,"lon":5.384848,"is_reserved":false,"is_disabled":false,"rental_uris":{"android":"levelo://app?vid=67c7877a-12f6-4343-ad9a-262a0c78fed7","ios":"levelo://app?vid=67c7877a-12f6-4343-ad9a-262a0c78fed7"},"vehicle_type_id":"4","last_reported":1707325587,"current_range_meters":9600,"station_id":"ce4bgj92rcd13ifvqbd0","pricing_plan_id":"free"},{"bike_id":"7d9d8002-3317-4509-bc4f-6e14664d4bf6","system_id":"levelo_inurba_marseille","lat":43.299707,"lon":5.384859,"is_reserved":false,"is_disabled":false,"rental_uris":{"android":"levelo://app?vid=7d9d8002-3317-4509-bc4f-6e14664d4bf6","ios":"levelo://app?vid=7d9d8002-3317-4509-bc4f-6e14664d4bf6"},"vehicle_type_id":"4","last_reported":1707325587,"current_range_meters":26800,"station_id":"ce4bgj92rcd13ifvqbd0","pricing_plan_id":"free"},{"bike_id":"6fc9cf37-ecec-4c91-8570-1b2b0a9ff623","system_id":"levelo_inurba_marseille","lat":43.32362,"lon":5.38873,"is_reserved":false,"is_disabled":false,"rental_uris":{"android":"levelo://app?vid=6fc9cf37-ecec-4c91-8570-1b2b0a9ff623","ios":"levelo://app?vid=6fc9cf37-ecec-4c91-8570-1b2b0a9ff623"},"vehicle_type_id":"4","last_reported":1707325587,"current_range_meters":0,"station_id":"ce4bhqp2rcd13ifvqhog","pricing_plan_id":"free"},{"bike_id":"e46e8ff3-6efb-422c-88bb-36c5e9ce66e4","system_id":"levelo_inurba_marseille","lat":43.323619,"lon":5.388793,"is_reserved":false,"is_disabled":false,"rental_uris":{"android":"levelo://app?vid=e46e8ff3-6efb-422c-88bb-36c5e9ce66e4","ios":"levelo://app?vid=e46e8ff3-6efb-422c-88bb-36c5e9ce66e4"},"vehicle_type_id":"4","last_reported":1707325587,"current_range_meters":18000,"station_id":"ce4bhqp2rcd13ifvqhog","pricing_plan_id":"free"},{"bike_id":"ed5d3f68-f6ae-4628-a68b-31e6c4c8b97c","system_id":"levelo_inurba_marseille","lat":43.32362,"lon":5.38881,"is_reserved":false,"is_disabled":false,"rental_uris":{"android":"levelo://app?vid=ed5d3f68-f6ae-4628-a68b-31e6c4c8b97c","ios":"levelo://app?vid=ed5d3f68-f6ae-4628-a68b-31e6c4c8b97c"},"vehicle_type_id":"4","last_reported":1707325587,"current_range_meters":28000,"station_id":"ce4bhqp2rcd13ifvqhog","pricing_plan_id":"free"},{"bike_id":"2699b29a-e584-4936-892c-96f311fc0314","system_id":"levelo_inurba_marseille","lat":43.323658,"lon":5.388775,"is_reserved":false,"is_disabled":false,"rental_uris":{"android":"levelo://app?vid=2699b29a-e584-4936-892c-96f311fc0314","ios":"levelo://app?vid=2699b29a-e584-4936-892c-96f311fc0314"},"vehicle_type_id":"4","last_reported":1707325587,"current_range_meters":29600,"station_id":"ce4bhqp2rcd13ifvqhog","pricing_plan_id":"free"},{"bike_id":"606777c4-4d1f-4822-a9c7-ca190e9d7ac9","system_id":"levelo_inurba_marseille","lat":43.32364,"lon":5.3888,"is_reserved":false,"is_disabled":false,"rental_uris":{"android":"levelo://app?vid=606777c4-4d1f-4822-a9c7-ca190e9d7ac9","ios":"levelo://app?vid=606777c4-4d1f-4822-a9c7-ca190e9d7ac9"},"vehicle_type_id":"4","last_reported":1707325587,"current_range_meters":29600,"station_id":"ce4bhqp2rcd13ifvqhog","pricing_plan_id":"free"},{"bike_id":"27e7d923-81e0-4c18-9a4b-aeb5de43f55c","system_id":"levelo_inurba_marseille","lat":43.32364,"lon":5.38881,"is_reserved":false,"is_disabled":false,"rental_uris":{"android":"levelo://app?vid=27e7d923-81e0-4c18-9a4b-aeb5de43f55c","ios":"levelo://app?vid=27e7d923-81e0-4c18-9a4b-aeb5de43f55c"},"vehicle_type_id":"4","last_reported":1707325587,"current_range_meters":14400,"station_id":"ce4bhqp2rcd13ifvqhog","pricing_plan_id":"free"},{"bike_id":"69e0ab03-3f4e-4375-b305-57e86da379c2","system_id":"levelo_inurba_marseille","lat":43.32364,"lon":5.38883,"is_reserved":false,"is_disabled":false,"rental_uris":{"android":"levelo://app?vid=69e0ab03-3f4e-4375-b305-57e86da379c2","ios":"levelo://app?vid=69e0ab03-3f4e-4375-b305-57e86da379c2"},"vehicle_type_id":"4","last_reported":1707325587,"current_range_meters":25200,"station_id":"ce4bhqp2rcd13ifvqhog","pricing_plan_id":"free"},{"bike_id":"4ed82d55-1ab5-438c-9810-a3b555b1727f","system_id":"levelo_inurba_marseille","lat":43.32367,"lon":5.38882,"is_reserved":false,"is_disabled":false,"rental_uris":{"android":"levelo://app?vid=4ed82d55-1ab5-438c-9810-a3b555b1727f","ios":"levelo://app?vid=4ed82d55-1ab5-438c-9810-a3b555b1727f"},"vehicle_type_id":"4","last_reported":1707325587,"current_range_meters":1200,"station_id":"ce4bhqp2rcd13ifvqhog","pricing_plan_id":"free"},{"bike_id":"a0aa05c1-c367-4ebc-8cf6-da8757c8f007","system_id":"levelo_inurba_marseille","lat":43.32365,"lon":5.38884,"is_reserved":false,"is_disabled":false,"rental_uris":{"android":"levelo://app?vid=a0aa05c1-c367-4ebc-8cf6-da8757c8f007","ios":"levelo://app?vid=a0aa05c1-c367-4ebc-8cf6-da8757c8f007"},"vehicle_type_id":"4","last_reported":1707325587,"current_range_meters":1600,"station_id":"ce4bhqp2rcd13ifvqhog","pricing_plan_id":"free"},{"bike_id":"4959c146-d61a-49c8-91fe-a12867023059","system_id":"levelo_inurba_marseille","lat":43.323669,"lon":5.388842,"is_reserved":false,"is_disabled":false,"rental_uris":{"android":"levelo://app?vid=4959c146-d61a-49c8-91fe-a12867023059","ios":"levelo://app?vid=4959c146-d61a-49c8-91fe-a12867023059"},"vehicle_type_id":"4","last_reported":1707325587,"current_range_meters":29200,"station_id":"ce4bhqp2rcd13ifvqhog","pricing_plan_id":"free"},{"bike_id":"1518e53d-eb94-4406-bc34-6493c7c75fd6","system_id":"levelo_inurba_marseille","lat":43.32364,"lon":5.38888,"is_reserved":false,"is_disabled":false,"rental_uris":{"android":"levelo://app?vid=1518e53d-eb94-4406-bc34-6493c7c75fd6","ios":"levelo://app?vid=1518e53d-eb94-4406-bc34-6493c7c75fd6"},"vehicle_type_id":"4","last_reported":1707325587,"current_range_meters":24400,"station_id":"ce4bhqp2rcd13ifvqhog","pricing_plan_id":"free"},{"bike_id":"a08a26fe-546a-4630-aced-98e496243792","system_id":"levelo_inurba_marseille","lat":43.32364,"lon":5.38888,"is_reserved":false,"is_disabled":false,"rental_uris":{"android":"levelo://app?vid=a08a26fe-546a-4630-aced-98e496243792","ios":"levelo://app?vid=a08a26fe-546a-4630-aced-98e496243792"},"vehicle_type_id":"4","last_reported":1707325587,"current_range_meters":23200,"station_id":"ce4bhqp2rcd13ifvqhog","pricing_plan_id":"free"},{"bike_id":"cc6530d2-5676-4593-9ee5-59ecbcd8f6a5","system_id":"levelo_inurba_marseille","lat":43.32369,"lon":5.38885,"is_reserved":false,"is_disabled":false,"rental_uris":{"android":"levelo://app?vid=cc6530d2-5676-4593-9ee5-59ecbcd8f6a5","ios":"levelo://app?vid=cc6530d2-5676-4593-9ee5-59ecbcd8f6a5"},"vehicle_type_id":"4","last_reported":1707325587,"current_range_meters":19200,"station_id":"ce4bhqp2rcd13ifvqhog","pricing_plan_id":"free"},{"bike_id":"bc85f4cd-0ffe-4ec0-9c96-dc31a76087c8","system_id":"levelo_inurba_marseille","lat":43.3237,"lon":5.38886,"is_reserved":false,"is_disabled":false,"rental_uris":{"android":"levelo://app?vid=bc85f4cd-0ffe-4ec0-9c96-dc31a76087c8","ios":"levelo://app?vid=bc85f4cd-0ffe-4ec0-9c96-dc31a76087c8"},"vehicle_type_id":"4","last_reported":1707325587,"current_range_meters":24000,"station_id":"ce4bhqp2rcd13ifvqhog","pricing_plan_id":"free"},{"bike_id":"593326ed-2cc1-41f5-9d97-b4674f983682","system_id":"levelo_inurba_marseille","lat":43.32365,"lon":5.38892,"is_reserved":false,"is_disabled":false,"rental_uris":{"android":"levelo://app?vid=593326ed-2cc1-41f5-9d97-b4674f983682","ios":"levelo://app?vid=593326ed-2cc1-41f5-9d97-b4674f983682"},"vehicle_type_id":"4","last_reported":1707325587,"current_range_meters":30400,"station_id":"ce4bhqp2rcd13ifvqhog","pricing_plan_id":"free"},{"bike_id":"677d41b0-014a-4316-8317-70222515831c","system_id":"levelo_inurba_marseille","lat":43.29602,"lon":5.381084,"is_reserved":false,"is_disabled":false,"rental_uris":{"android":"levelo://app?vid=677d41b0-014a-4316-8317-70222515831c","ios":"levelo://app?vid=677d41b0-014a-4316-8317-70222515831c"},"vehicle_type_id":"4","last_reported":1707325587,"current_range_meters":14400,"station_id":"ce4bgl12rcd13ifvqbo0","pricing_plan_id":"free"},{"bike_id":"0bba998d-b9bd-4a07-a0e1-95af87dbac14","system_id":"levelo_inurba_marseille","lat":43.29602,"lon":5.381084,"is_reserved":false,"is_disabled":false,"rental_uris":{"android":"levelo://app?vid=0bba998d-b9bd-4a07-a0e1-95af87dbac14","ios":"levelo://app?vid=0bba998d-b9bd-4a07-a0e1-95af87dbac14"},"vehicle_type_id":"4","last_reported":1707325587,"current_range_meters":0,"station_id":"ce4bgl12rcd13ifvqbo0","pricing_plan_id":"free"},{"bike_id":"8f9fa792-1f60-4e2b-881a-9464485ec570","system_id":"levelo_inurba_marseille","lat":43.29602,"lon":5.381084,"is_reserved":false,"is_disabled":false,"rental_uris":{"android":"levelo://app?vid=8f9fa792-1f60-4e2b-881a-9464485ec570","ios":"levelo://app?vid=8f9fa792-1f60-4e2b-881a-9464485ec570"},"vehicle_type_id":"4","last_reported":1707325587,"current_range_meters":5200,"station_id":"ce4bgl12rcd13ifvqbo0","pricing_plan_id":"free"},{"bike_id":"1ac577fa-83f2-474c-a869-81e0a3307184","system_id":"levelo_inurba_marseille","lat":43.29602,"lon":5.381084,"is_reserved":false,"is_disabled":false,"rental_uris":{"android":"levelo://app?vid=1ac577fa-83f2-474c-a869-81e0a3307184","ios":"levelo://app?vid=1ac577fa-83f2-474c-a869-81e0a3307184"},"vehicle_type_id":"4","last_reported":1707325587,"current_range_meters":28400,"station_id":"ce4bgl12rcd13ifvqbo0","pricing_plan_id":"free"},{"bike_id":"b7d7df76-3a05-4119-8e4b-1b2a3d3e7e1a","system_id":"levelo_inurba_marseille","lat":43.292749,"lon":5.368402,"is_reserved":false,"is_disabled":false,"rental_uris":{"android":"levelo://app?vid=b7d7df76-3a05-4119-8e4b-1b2a3d3e7e1a","ios":"levelo://app?vid=b7d7df76-3a05-4119-8e4b-1b2a3d3e7e1a"},"vehicle_type_id":"4","last_reported":1707325587,"current_range_meters":23200,"station_id":"ce4bhbp2rcd13ifvqesg","pricing_plan_id":"free"},{"bike_id":"d7a73422-dc22-489a-b77f-a358b2f12276","system_id":"levelo_inurba_marseille","lat":43.292749,"lon":5.368402,"is_reserved":false,"is_disabled":false,"rental_uris":{"android":"levelo://app?vid=d7a73422-dc22-489a-b77f-a358b2f12276","ios":"levelo://app?vid=d7a73422-dc22-489a-b77f-a358b2f12276"},"vehicle_type_id":"4","last_reported":1707325587,"current_range_meters":27200,"station_id":"ce4bhbp2rcd13ifvqesg","pricing_plan_id":"free"},{"bike_id":"ecb5ac36-6d4f-4ef7-94ca-fb8777226f80","system_id":"levelo_inurba_marseille","lat":43.293259,"lon":5.371586,"is_reserved":false,"is_disabled":false,"rental_uris":{"android":"levelo://app?vid=ecb5ac36-6d4f-4ef7-94ca-fb8777226f80","ios":"levelo://app?vid=ecb5ac36-6d4f-4ef7-94ca-fb8777226f80"},"vehicle_type_id":"4","last_reported":1707325587,"current_range_meters":21600,"station_id":"ce4bgh92rcd13ifvqb40","pricing_plan_id":"free"},{"bike_id":"8aec410e-1973-4d44-b86e-0e3734b9279e","system_id":"levelo_inurba_marseille","lat":43.29273,"lon":5.36859,"is_reserved":false,"is_disabled":false,"rental_uris":{"android":"levelo://app?vid=8aec410e-1973-4d44-b86e-0e3734b9279e","ios":"levelo://app?vid=8aec410e-1973-4d44-b86e-0e3734b9279e"},"vehicle_type_id":"4","last_reported":1707325587,"current_range_meters":0,"station_id":"ce4bhbp2rcd13ifvqesg","pricing_plan_id":"free"},{"bike_id":"2962a6fa-1df2-4b8e-b382-89caebb3aeb4","system_id":"levelo_inurba_marseille","lat":43.293249,"lon":5.371578,"is_reserved":false,"is_disabled":false,"rental_uris":{"android":"levelo://app?vid=2962a6fa-1df2-4b8e-b382-89caebb3aeb4","ios":"levelo://app?vid=2962a6fa-1df2-4b8e-b382-89caebb3aeb4"},"vehicle_type_id":"4","last_reported":1707325587,"current_range_meters":10800,"station_id":"ce4bgh92rcd13ifvqb40","pricing_plan_id":"free"},{"bike_id":"58ce6322-a791-48f0-8bcc-95a1314180fc","system_id":"levelo_inurba_marseille","lat":43.29543,"lon":5.38168,"is_reserved":false,"is_disabled":false,"rental_uris":{"android":"levelo://app?vid=58ce6322-a791-48f0-8bcc-95a1314180fc","ios":"levelo://app?vid=58ce6322-a791-48f0-8bcc-95a1314180fc"},"vehicle_type_id":"4","last_reported":1707325587,"current_range_meters":2800,"station_id":"","pricing_plan_id":"free"},{"bike_id":"627cf860-fa21-4ec5-8cf3-fbbcb5179242","system_id":"levelo_inurba_marseille","lat":43.29224,"lon":5.36616,"is_reserved":false,"is_disabled":false,"rental_uris":{"android":"levelo://app?vid=627cf860-fa21-4ec5-8cf3-fbbcb5179242","ios":"levelo://app?vid=627cf860-fa21-4ec5-8cf3-fbbcb5179242"},"vehicle_type_id":"4","last_reported":1707325587,"current_range_meters":1200,"station_id":"","pricing_plan_id":"free"},{"bike_id":"484808c0-0dea-4671-85f7-33f201e9001b","system_id":"levelo_inurba_marseille","lat":43.305994,"lon":5.393687,"is_reserved":false,"is_disabled":false,"rental_uris":{"android":"levelo://app?vid=484808c0-0dea-4671-85f7-33f201e9001b","ios":"levelo://app?vid=484808c0-0dea-4671-85f7-33f201e9001b"},"vehicle_type_id":"4","last_reported":1707325587,"current_range_meters":0,"station_id":"ce4bh0p2rcd13ifvqd80","pricing_plan_id":"free"},{"bike_id":"582a6719-69a3-4713-a14e-ba2b8e9f8845","system_id":"levelo_inurba_marseille","lat":43.2932,"lon":5.37698,"is_reserved":false,"is_disabled":false,"rental_uris":{"android":"levelo://app?vid=582a6719-69a3-4713-a14e-ba2b8e9f8845","ios":"levelo://app?vid=582a6719-69a3-4713-a14e-ba2b8e9f8845"},"vehicle_type_id":"4","last_reported":1707325587,"current_range_meters":0,"station_id":"","pricing_plan_id":"free"},{"bike_id":"b59c91a6-b37b-4c5c-8915-ec0611b202f0","system_id":"levelo_inurba_marseille","lat":43.2936,"lon":5.37835,"is_reserved":false,"is_disabled":false,"rental_uris":{"android":"levelo://app?vid=b59c91a6-b37b-4c5c-8915-ec0611b202f0","ios":"levelo://app?vid=b59c91a6-b37b-4c5c-8915-ec0611b202f0"},"vehicle_type_id":"4","last_reported":1707325587,"current_range_meters":0,"station_id":"ce4bgjh2rcd13ifvqbf0","pricing_plan_id":"free"},{"bike_id":"0e90b5ba-8569-4638-aa9a-ea3c8451fa09","system_id":"levelo_inurba_marseille","lat":43.29232,"lon":5.36061,"is_reserved":false,"is_disabled":false,"rental_uris":{"android":"levelo://app?vid=0e90b5ba-8569-4638-aa9a-ea3c8451fa09","ios":"levelo://app?vid=0e90b5ba-8569-4638-aa9a-ea3c8451fa09"},"vehicle_type_id":"4","last_reported":1707325587,"current_range_meters":26000,"station_id":"ce4bhbh2rcd13ifvqeqg","pricing_plan_id":"free"},{"bike_id":"be6fcad7-4794-4733-aa36-e1e667c944f8","system_id":"levelo_inurba_marseille","lat":43.300852,"lon":5.390859,"is_reserved":false,"is_disabled":false,"rental_uris":{"android":"levelo://app?vid=be6fcad7-4794-4733-aa36-e1e667c944f8","ios":"levelo://app?vid=be6fcad7-4794-4733-aa36-e1e667c944f8"},"vehicle_type_id":"4","last_reported":1707325587,"current_range_meters":0,"station_id":"ce4bh192rcd13ifvqdb0","pricing_plan_id":"free"},{"bike_id":"4aaa2a19-5636-4d91-b4ca-22e034135509","system_id":"levelo_inurba_marseille","lat":43.29218,"lon":5.36045,"is_reserved":false,"is_disabled":false,"rental_uris":{"android":"levelo://app?vid=4aaa2a19-5636-4d91-b4ca-22e034135509","ios":"levelo://app?vid=4aaa2a19-5636-4d91-b4ca-22e034135509"},"vehicle_type_id":"4","last_reported":1707325587,"current_range_meters":22800,"station_id":"ce4bhbh2rcd13ifvqeqg","pricing_plan_id":"free"},{"bike_id":"f879cf82-23d8-4fbd-8508-2572916759ca","system_id":"levelo_inurba_marseille","lat":43.29217,"lon":5.36047,"is_reserved":false,"is_disabled":false,"rental_uris":{"android":"levelo://app?vid=f879cf82-23d8-4fbd-8508-2572916759ca","ios":"levelo://app?vid=f879cf82-23d8-4fbd-8508-2572916759ca"},"vehicle_type_id":"4","last_reported":1707325587,"current_range_meters":16800,"station_id":"ce4bhbh2rcd13ifvqeqg","pricing_plan_id":"free"},{"bike_id":"911fb41e-b586-469b-b789-537555276898","system_id":"levelo_inurba_marseille","lat":43.29215,"lon":5.36052,"is_reserved":false,"is_disabled":false,"rental_uris":{"android":"levelo://app?vid=911fb41e-b586-469b-b789-537555276898","ios":"levelo://app?vid=911fb41e-b586-469b-b789-537555276898"},"vehicle_type_id":"4","last_reported":1707325587,"current_range_meters":18800,"station_id":"ce4bhbh2rcd13ifvqeqg","pricing_plan_id":"free"},{"bike_id":"202d0e0e-8ff8-45ae-b5f7-4a47b30d53b1","system_id":"levelo_inurba_marseille","lat":43.29214,"lon":5.36044,"is_reserved":false,"is_disabled":false,"rental_uris":{"android":"levelo://app?vid=202d0e0e-8ff8-45ae-b5f7-4a47b30d53b1","ios":"levelo://app?vid=202d0e0e-8ff8-45ae-b5f7-4a47b30d53b1"},"vehicle_type_id":"4","last_reported":1707325587,"current_range_meters":14000,"station_id":"ce4bhbh2rcd13ifvqeqg","pricing_plan_id":"free"},{"bike_id":"2f6d5904-e6c7-4ba2-9490-9b235f9d40a0","system_id":"levelo_inurba_marseille","lat":43.293009,"lon":5.374584,"is_reserved":false,"is_disabled":false,"rental_uris":{"android":"levelo://app?vid=2f6d5904-e6c7-4ba2-9490-9b235f9d40a0","ios":"levelo://app?vid=2f6d5904-e6c7-4ba2-9490-9b235f9d40a0"},"vehicle_type_id":"4","last_reported":1707325587,"current_range_meters":16400,"station_id":"ce4bgi12rcd13ifvqb70","pricing_plan_id":"free"},{"bike_id":"d2f641cc-12ae-485a-b9c4-cfdb3990ef1f","system_id":"levelo_inurba_marseille","lat":43.300852,"lon":5.390859,"is_reserved":false,"is_disabled":false,"rental_uris":{"android":"levelo://app?vid=d2f641cc-12ae-485a-b9c4-cfdb3990ef1f","ios":"levelo://app?vid=d2f641cc-12ae-485a-b9c4-cfdb3990ef1f"},"vehicle_type_id":"4","last_reported":1707325587,"current_range_meters":18000,"station_id":"ce4bh192rcd13ifvqdb0","pricing_plan_id":"free"},{"bike_id":"2bedf567-e1b4-4c29-867e-85b5b3435c95","system_id":"levelo_inurba_marseille","lat":43.298764,"lon":5.388973,"is_reserved":false,"is_disabled":false,"rental_uris":{"android":"levelo://app?vid=2bedf567-e1b4-4c29-867e-85b5b3435c95","ios":"levelo://app?vid=2bedf567-e1b4-4c29-867e-85b5b3435c95"},"vehicle_type_id":"4","last_reported":1707325587,"current_range_meters":26400,"station_id":"ce4bh392rcd13ifvqdl0","pricing_plan_id":"free"},{"bike_id":"d7b198be-e80c-48e2-b4ab-947246d3bbc3","system_id":"levelo_inurba_marseille","lat":43.298764,"lon":5.388973,"is_reserved":false,"is_disabled":false,"rental_uris":{"android":"levelo://app?vid=d7b198be-e80c-48e2-b4ab-947246d3bbc3","ios":"levelo://app?vid=d7b198be-e80c-48e2-b4ab-947246d3bbc3"},"vehicle_type_id":"4","last_reported":1707325587,"current_range_meters":29600,"station_id":"ce4bh392rcd13ifvqdl0","pricing_plan_id":"free"},{"bike_id":"b4f76d6c-3b52-487f-8d8a-5b4916424bb0","system_id":"levelo_inurba_marseille","lat":43.298764,"lon":5.388973,"is_reserved":false,"is_disabled":false,"rental_uris":{"android":"levelo://app?vid=b4f76d6c-3b52-487f-8d8a-5b4916424bb0","ios":"levelo://app?vid=b4f76d6c-3b52-487f-8d8a-5b4916424bb0"},"vehicle_type_id":"4","last_reported":1707325587,"current_range_meters":12400,"station_id":"ce4bh392rcd13ifvqdl0","pricing_plan_id":"free"},{"bike_id":"43a1b760-3e6d-4f26-b95d-97beca7d2877","system_id":"levelo_inurba_marseille","lat":43.291675,"lon":5.371583,"is_reserved":false,"is_disabled":false,"rental_uris":{"android":"levelo://app?vid=43a1b760-3e6d-4f26-b95d-97beca7d2877","ios":"levelo://app?vid=43a1b760-3e6d-4f26-b95d-97beca7d2877"},"vehicle_type_id":"4","last_reported":1707325587,"current_range_meters":16000,"station_id":"ce4bha92rcd13ifvqeh0","pricing_plan_id":"free"},{"bike_id":"6b4924f4-d9c7-4070-8c7b-a280b586a894","system_id":"levelo_inurba_marseille","lat":43.291675,"lon":5.371583,"is_reserved":false,"is_disabled":false,"rental_uris":{"android":"levelo://app?vid=6b4924f4-d9c7-4070-8c7b-a280b586a894","ios":"levelo://app?vid=6b4924f4-d9c7-4070-8c7b-a280b586a894"},"vehicle_type_id":"4","last_reported":1707325587,"current_range_meters":11200,"station_id":"ce4bha92rcd13ifvqeh0","pricing_plan_id":"free"},{"bike_id":"1e70f6d9-101e-428e-814b-367280ddcf42","system_id":"levelo_inurba_marseille","lat":43.298764,"lon":5.388973,"is_reserved":false,"is_disabled":false,"rental_uris":{"android":"levelo://app?vid=1e70f6d9-101e-428e-814b-367280ddcf42","ios":"levelo://app?vid=1e70f6d9-101e-428e-814b-367280ddcf42"},"vehicle_type_id":"4","last_reported":1707325587,"current_range_meters":31200,"station_id":"ce4bh392rcd13ifvqdl0","pricing_plan_id":"free"},{"bike_id":"7af9cff3-fa80-4d42-9745-7a1b59b35e7f","system_id":"levelo_inurba_marseille","lat":43.291671,"lon":5.371575,"is_reserved":false,"is_disabled":false,"rental_uris":{"android":"levelo://app?vid=7af9cff3-fa80-4d42-9745-7a1b59b35e7f","ios":"levelo://app?vid=7af9cff3-fa80-4d42-9745-7a1b59b35e7f"},"vehicle_type_id":"4","last_reported":1707325587,"current_range_meters":0,"station_id":"ce4bha92rcd13ifvqeh0","pricing_plan_id":"free"},{"bike_id":"82a4d5e1-fd4f-42bf-9856-82aa7f788ad2","system_id":"levelo_inurba_marseille","lat":43.298764,"lon":5.388973,"is_reserved":false,"is_disabled":false,"rental_uris":{"android":"levelo://app?vid=82a4d5e1-fd4f-42bf-9856-82aa7f788ad2","ios":"levelo://app?vid=82a4d5e1-fd4f-42bf-9856-82aa7f788ad2"},"vehicle_type_id":"4","last_reported":1707325587,"current_range_meters":29600,"station_id":"ce4bh392rcd13ifvqdl0","pricing_plan_id":"free"},{"bike_id":"c8b26088-df21-4025-9b7c-533858cd331d","system_id":"levelo_inurba_marseille","lat":43.291994,"lon":5.357886,"is_reserved":false,"is_disabled":false,"rental_uris":{"android":"levelo://app?vid=c8b26088-df21-4025-9b7c-533858cd331d","ios":"levelo://app?vid=c8b26088-df21-4025-9b7c-533858cd331d"},"vehicle_type_id":"4","last_reported":1707325587,"current_range_meters":0,"station_id":"ce4bhb12rcd13ifvqel0","pricing_plan_id":"free"},{"bike_id":"0618f6d6-ac92-4a4f-bb29-24a165edf3d8","system_id":"levelo_inurba_marseille","lat":43.308902,"lon":5.396598,"is_reserved":false,"is_disabled":false,"rental_uris":{"android":"levelo://app?vid=0618f6d6-ac92-4a4f-bb29-24a165edf3d8","ios":"levelo://app?vid=0618f6d6-ac92-4a4f-bb29-24a165edf3d8"},"vehicle_type_id":"4","last_reported":1707325587,"current_range_meters":7600,"station_id":"ce4bh012rcd13ifvqcv0","pricing_plan_id":"free"},{"bike_id":"26f67b13-4e44-46c6-8586-90d041af89b4","system_id":"levelo_inurba_marseille","lat":43.29529,"lon":5.385581,"is_reserved":false,"is_disabled":false,"rental_uris":{"android":"levelo://app?vid=26f67b13-4e44-46c6-8586-90d041af89b4","ios":"levelo://app?vid=26f67b13-4e44-46c6-8586-90d041af89b4"},"vehicle_type_id":"4","last_reported":1707325587,"current_range_meters":3200,"station_id":"ce4bgih2rcd13ifvqba0","pricing_plan_id":"free"},{"bike_id":"c8d94fa6-b75b-4007-bb2d-d9032f77e994","system_id":"levelo_inurba_marseille","lat":43.29532,"lon":5.38546,"is_reserved":false,"is_disabled":false,"rental_uris":{"android":"levelo://app?vid=c8d94fa6-b75b-4007-bb2d-d9032f77e994","ios":"levelo://app?vid=c8d94fa6-b75b-4007-bb2d-d9032f77e994"},"vehicle_type_id":"4","last_reported":1707325587,"current_range_meters":16000,"station_id":"ce4bgih2rcd13ifvqba0","pricing_plan_id":"free"},{"bike_id":"2be882e6-ca82-4735-9bad-d4fcb8104fee","system_id":"levelo_inurba_marseille","lat":43.29534,"lon":5.38551,"is_reserved":false,"is_disabled":false,"rental_uris":{"android":"levelo://app?vid=2be882e6-ca82-4735-9bad-d4fcb8104fee","ios":"levelo://app?vid=2be882e6-ca82-4735-9bad-d4fcb8104fee"},"vehicle_type_id":"4","last_reported":1707325587,"current_range_meters":10400,"station_id":"ce4bgih2rcd13ifvqba0","pricing_plan_id":"free"},{"bike_id":"4051ed86-d79c-43ca-8919-df96785b91f8","system_id":"levelo_inurba_marseille","lat":43.29529,"lon":5.385581,"is_reserved":false,"is_disabled":false,"rental_uris":{"android":"levelo://app?vid=4051ed86-d79c-43ca-8919-df96785b91f8","ios":"levelo://app?vid=4051ed86-d79c-43ca-8919-df96785b91f8"},"vehicle_type_id":"4","last_reported":1707325587,"current_range_meters":18800,"station_id":"ce4bgih2rcd13ifvqba0","pricing_plan_id":"free"},{"bike_id":"dc743b11-5759-4f3e-a86f-07a443d775d7","system_id":"levelo_inurba_marseille","lat":43.29529,"lon":5.38555,"is_reserved":false,"is_disabled":false,"rental_uris":{"android":"levelo://app?vid=dc743b11-5759-4f3e-a86f-07a443d775d7","ios":"levelo://app?vid=dc743b11-5759-4f3e-a86f-07a443d775d7"},"vehicle_type_id":"4","last_reported":1707325587,"current_range_meters":16400,"station_id":"ce4bgih2rcd13ifvqba0","pricing_plan_id":"free"},{"bike_id":"6cac537d-63b7-48ad-9ebb-8fc2fed1d5a9","system_id":"levelo_inurba_marseille","lat":43.29529,"lon":5.385581,"is_reserved":false,"is_disabled":false,"rental_uris":{"android":"levelo://app?vid=6cac537d-63b7-48ad-9ebb-8fc2fed1d5a9","ios":"levelo://app?vid=6cac537d-63b7-48ad-9ebb-8fc2fed1d5a9"},"vehicle_type_id":"4","last_reported":1707325587,"current_range_meters":30400,"station_id":"ce4bgih2rcd13ifvqba0","pricing_plan_id":"free"},{"bike_id":"49c8022d-ce10-40f1-b6fb-f7dfdaa02e0b","system_id":"levelo_inurba_marseille","lat":43.290779,"lon":5.371482,"is_reserved":false,"is_disabled":false,"rental_uris":{"android":"levelo://app?vid=49c8022d-ce10-40f1-b6fb-f7dfdaa02e0b","ios":"levelo://app?vid=49c8022d-ce10-40f1-b6fb-f7dfdaa02e0b"},"vehicle_type_id":"4","last_reported":1707325587,"current_range_meters":20400,"station_id":"ce4bh5p2rcd13ifvqe4g","pricing_plan_id":"free"},{"bike_id":"6e921cb9-45f5-4419-8c5a-04abcd0e66a4","system_id":"levelo_inurba_marseille","lat":43.290668,"lon":5.372754,"is_reserved":false,"is_disabled":false,"rental_uris":{"android":"levelo://app?vid=6e921cb9-45f5-4419-8c5a-04abcd0e66a4","ios":"levelo://app?vid=6e921cb9-45f5-4419-8c5a-04abcd0e66a4"},"vehicle_type_id":"4","last_reported":1707325587,"current_range_meters":21600,"station_id":"ce4bh5p2rcd13ifvqe4g","pricing_plan_id":"free"},{"bike_id":"dbe48590-c220-4dfd-86d6-8e0a077ba63e","system_id":"levelo_inurba_marseille","lat":43.290319,"lon":5.375732,"is_reserved":false,"is_disabled":false,"rental_uris":{"android":"levelo://app?vid=dbe48590-c220-4dfd-86d6-8e0a077ba63e","ios":"levelo://app?vid=dbe48590-c220-4dfd-86d6-8e0a077ba63e"},"vehicle_type_id":"4","last_reported":1707325587,"current_range_meters":400,"station_id":"ce4bh692rcd13ifvqe90","pricing_plan_id":"free"},{"bike_id":"e0e7c233-5bfb-4d27-9630-6457d34a8cd7","system_id":"levelo_inurba_marseille","lat":43.29529,"lon":5.385581,"is_reserved":false,"is_disabled":false,"rental_uris":{"android":"levelo://app?vid=e0e7c233-5bfb-4d27-9630-6457d34a8cd7","ios":"levelo://app?vid=e0e7c233-5bfb-4d27-9630-6457d34a8cd7"},"vehicle_type_id":"4","last_reported":1707325587,"current_range_meters":17600,"station_id":"ce4bgih2rcd13ifvqba0","pricing_plan_id":"free"},{"bike_id":"8a10ec6f-c9cd-4ab2-852b-d9271972fcac","system_id":"levelo_inurba_marseille","lat":43.302008,"lon":5.394694,"is_reserved":false,"is_disabled":false,"rental_uris":{"android":"levelo://app?vid=8a10ec6f-c9cd-4ab2-852b-d9271972fcac","ios":"levelo://app?vid=8a10ec6f-c9cd-4ab2-852b-d9271972fcac"},"vehicle_type_id":"4","last_reported":1707325587,"current_range_meters":15200,"station_id":"ce4bh0p2rcd13ifvqd70","pricing_plan_id":"free"},{"bike_id":"b6d07ffb-2a89-4483-8f0c-886421a7a591","system_id":"levelo_inurba_marseille","lat":43.290631,"lon":5.359244,"is_reserved":false,"is_disabled":false,"rental_uris":{"android":"levelo://app?vid=b6d07ffb-2a89-4483-8f0c-886421a7a591","ios":"levelo://app?vid=b6d07ffb-2a89-4483-8f0c-886421a7a591"},"vehicle_type_id":"4","last_reported":1707325587,"current_range_meters":12800,"station_id":"ce4bha92rcd13ifvqeg0","pricing_plan_id":"free"},{"bike_id":"10180ad2-ac16-42b6-b45b-c210911d01d1","system_id":"levelo_inurba_marseille","lat":43.28963,"lon":5.365565,"is_reserved":false,"is_disabled":false,"rental_uris":{"android":"levelo://app?vid=10180ad2-ac16-42b6-b45b-c210911d01d1","ios":"levelo://app?vid=10180ad2-ac16-42b6-b45b-c210911d01d1"},"vehicle_type_id":"4","last_reported":1707325587,"current_range_meters":29200,"station_id":"ce4bhbh2rcd13ifvqeqg","pricing_plan_id":"free"},{"bike_id":"24055144-72b0-4238-b13d-6ef058a74371","system_id":"levelo_inurba_marseille","lat":43.29419,"lon":5.38628,"is_reserved":false,"is_disabled":false,"rental_uris":{"android":"levelo://app?vid=24055144-72b0-4238-b13d-6ef058a74371","ios":"levelo://app?vid=24055144-72b0-4238-b13d-6ef058a74371"},"vehicle_type_id":"4","last_reported":1707325587,"current_range_meters":0,"station_id":"ce4bh2h2rcd13ifvqdh0","pricing_plan_id":"free"},{"bike_id":"5e4cfd22-6feb-44f3-a064-1855109917fd","system_id":"levelo_inurba_marseille","lat":43.28945,"lon":5.36643,"is_reserved":false,"is_disabled":false,"rental_uris":{"android":"levelo://app?vid=5e4cfd22-6feb-44f3-a064-1855109917fd","ios":"levelo://app?vid=5e4cfd22-6feb-44f3-a064-1855109917fd"},"vehicle_type_id":"4","last_reported":1707325587,"current_range_meters":0,"station_id":"ce4bhap2rcd13ifvqek0","pricing_plan_id":"free"},{"bike_id":"4012fde9-7dc3-4526-8694-63e6a7f72a5c","system_id":"levelo_inurba_marseille","lat":43.289184,"lon":5.366408,"is_reserved":false,"is_disabled":false,"rental_uris":{"android":"levelo://app?vid=4012fde9-7dc3-4526-8694-63e6a7f72a5c","ios":"levelo://app?vid=4012fde9-7dc3-4526-8694-63e6a7f72a5c"},"vehicle_type_id":"4","last_reported":1707325587,"current_range_meters":18000,"station_id":"ce4bhap2rcd13ifvqek0","pricing_plan_id":"free"},{"bike_id":"326f4fa5-5595-475a-a572-8df175a408b7","system_id":"levelo_inurba_marseille","lat":43.294162,"lon":5.386292,"is_reserved":false,"is_disabled":false,"rental_uris":{"android":"levelo://app?vid=326f4fa5-5595-475a-a572-8df175a408b7","ios":"levelo://app?vid=326f4fa5-5595-475a-a572-8df175a408b7"},"vehicle_type_id":"4","last_reported":1707325587,"current_range_meters":8800,"station_id":"ce4bh2h2rcd13ifvqdh0","pricing_plan_id":"free"},{"bike_id":"c2b89fb2-3aa2-4d5f-b76e-ea6996fa2da4","system_id":"levelo_inurba_marseille","lat":43.294162,"lon":5.386292,"is_reserved":false,"is_disabled":false,"rental_uris":{"android":"levelo://app?vid=c2b89fb2-3aa2-4d5f-b76e-ea6996fa2da4","ios":"levelo://app?vid=c2b89fb2-3aa2-4d5f-b76e-ea6996fa2da4"},"vehicle_type_id":"4","last_reported":1707325587,"current_range_meters":800,"station_id":"ce4bh2h2rcd13ifvqdh0","pricing_plan_id":"free"},{"bike_id":"9b56431b-9859-4e10-8283-504cee74fbef","system_id":"levelo_inurba_marseille","lat":43.289184,"lon":5.366408,"is_reserved":false,"is_disabled":false,"rental_uris":{"android":"levelo://app?vid=9b56431b-9859-4e10-8283-504cee74fbef","ios":"levelo://app?vid=9b56431b-9859-4e10-8283-504cee74fbef"},"vehicle_type_id":"4","last_reported":1707325587,"current_range_meters":2400,"station_id":"ce4bhap2rcd13ifvqek0","pricing_plan_id":"free"},{"bike_id":"a72bf07a-878d-4337-9a43-49f3e614c9e9","system_id":"levelo_inurba_marseille","lat":43.289468,"lon":5.363719,"is_reserved":false,"is_disabled":false,"rental_uris":{"android":"levelo://app?vid=a72bf07a-878d-4337-9a43-49f3e614c9e9","ios":"levelo://app?vid=a72bf07a-878d-4337-9a43-49f3e614c9e9"},"vehicle_type_id":"4","last_reported":1707325587,"current_range_meters":20400,"station_id":"ce4bhc92rcd13ifvqetg","pricing_plan_id":"free"},{"bike_id":"4573bcba-2d2f-457c-88cf-d8027228f298","system_id":"levelo_inurba_marseille","lat":43.292644,"lon":5.384257,"is_reserved":false,"is_disabled":false,"rental_uris":{"android":"levelo://app?vid=4573bcba-2d2f-457c-88cf-d8027228f298","ios":"levelo://app?vid=4573bcba-2d2f-457c-88cf-d8027228f298"},"vehicle_type_id":"4","last_reported":1707325587,"current_range_meters":20800,"station_id":"ce4bh692rcd13ifvqea0","pricing_plan_id":"free"},{"bike_id":"843e1f2a-eb64-4207-b914-73cdabe9cbb6","system_id":"levelo_inurba_marseille","lat":43.292644,"lon":5.384257,"is_reserved":false,"is_disabled":false,"rental_uris":{"android":"levelo://app?vid=843e1f2a-eb64-4207-b914-73cdabe9cbb6","ios":"levelo://app?vid=843e1f2a-eb64-4207-b914-73cdabe9cbb6"},"vehicle_type_id":"4","last_reported":1707325587,"current_range_meters":31200,"station_id":"ce4bh692rcd13ifvqea0","pricing_plan_id":"free"},{"bike_id":"10d352b0-5249-4489-8ba9-6b9611d9ac34","system_id":"levelo_inurba_marseille","lat":43.290104,"lon":5.356111,"is_reserved":false,"is_disabled":false,"rental_uris":{"android":"levelo://app?vid=10d352b0-5249-4489-8ba9-6b9611d9ac34","ios":"levelo://app?vid=10d352b0-5249-4489-8ba9-6b9611d9ac34"},"vehicle_type_id":"4","last_reported":1707325587,"current_range_meters":2400,"station_id":"ce4bhb92rcd13ifvqen0","pricing_plan_id":"free"},{"bike_id":"9ae75c8b-4279-427f-864e-02146bcb9a28","system_id":"levelo_inurba_marseille","lat":43.290104,"lon":5.356111,"is_reserved":false,"is_disabled":false,"rental_uris":{"android":"levelo://app?vid=9ae75c8b-4279-427f-864e-02146bcb9a28","ios":"levelo://app?vid=9ae75c8b-4279-427f-864e-02146bcb9a28"},"vehicle_type_id":"4","last_reported":1707325587,"current_range_meters":14400,"station_id":"ce4bhb92rcd13ifvqen0","pricing_plan_id":"free"},{"bike_id":"4234a5c4-7b5e-4b9b-a6a2-740b834c15b2","system_id":"levelo_inurba_marseille","lat":43.290104,"lon":5.356111,"is_reserved":false,"is_disabled":false,"rental_uris":{"android":"levelo://app?vid=4234a5c4-7b5e-4b9b-a6a2-740b834c15b2","ios":"levelo://app?vid=4234a5c4-7b5e-4b9b-a6a2-740b834c15b2"},"vehicle_type_id":"4","last_reported":1707325587,"current_range_meters":17200,"station_id":"ce4bhb92rcd13ifvqen0","pricing_plan_id":"free"},{"bike_id":"919f0800-7253-4c9a-a1ea-ae6418568442","system_id":"levelo_inurba_marseille","lat":43.290103,"lon":5.356114,"is_reserved":false,"is_disabled":false,"rental_uris":{"android":"levelo://app?vid=919f0800-7253-4c9a-a1ea-ae6418568442","ios":"levelo://app?vid=919f0800-7253-4c9a-a1ea-ae6418568442"},"vehicle_type_id":"4","last_reported":1707325587,"current_range_meters":0,"station_id":"ce4bhb92rcd13ifvqen0","pricing_plan_id":"free"},{"bike_id":"cbd60486-3e71-4a27-90fe-9b444787f862","system_id":"levelo_inurba_marseille","lat":43.290104,"lon":5.356111,"is_reserved":false,"is_disabled":false,"rental_uris":{"android":"levelo://app?vid=cbd60486-3e71-4a27-90fe-9b444787f862","ios":"levelo://app?vid=cbd60486-3e71-4a27-90fe-9b444787f862"},"vehicle_type_id":"4","last_reported":1707325587,"current_range_meters":7200,"station_id":"ce4bhb92rcd13ifvqen0","pricing_plan_id":"free"},{"bike_id":"e91c67ac-8a4b-4018-ac3a-0652dbd04b25","system_id":"levelo_inurba_marseille","lat":43.290103,"lon":5.356114,"is_reserved":false,"is_disabled":false,"rental_uris":{"android":"levelo://app?vid=e91c67ac-8a4b-4018-ac3a-0652dbd04b25","ios":"levelo://app?vid=e91c67ac-8a4b-4018-ac3a-0652dbd04b25"},"vehicle_type_id":"4","last_reported":1707325587,"current_range_meters":22800,"station_id":"ce4bhb92rcd13ifvqen0","pricing_plan_id":"free"},{"bike_id":"a5e1234e-c366-44b4-9dff-84dfd8f83c81","system_id":"levelo_inurba_marseille","lat":43.290103,"lon":5.356114,"is_reserved":false,"is_disabled":false,"rental_uris":{"android":"levelo://app?vid=a5e1234e-c366-44b4-9dff-84dfd8f83c81","ios":"levelo://app?vid=a5e1234e-c366-44b4-9dff-84dfd8f83c81"},"vehicle_type_id":"4","last_reported":1707325587,"current_range_meters":21600,"station_id":"ce4bhb92rcd13ifvqen0","pricing_plan_id":"free"},{"bike_id":"51fbfd8a-fad2-4ab8-825d-b2cb4b8517e4","system_id":"levelo_inurba_marseille","lat":43.290104,"lon":5.356111,"is_reserved":false,"is_disabled":false,"rental_uris":{"android":"levelo://app?vid=51fbfd8a-fad2-4ab8-825d-b2cb4b8517e4","ios":"levelo://app?vid=51fbfd8a-fad2-4ab8-825d-b2cb4b8517e4"},"vehicle_type_id":"4","last_reported":1707325587,"current_range_meters":4800,"station_id":"ce4bhb92rcd13ifvqen0","pricing_plan_id":"free"},{"bike_id":"1fec6c30-5256-4f4c-8a45-5a2013668b9a","system_id":"levelo_inurba_marseille","lat":43.290995,"lon":5.381361,"is_reserved":false,"is_disabled":false,"rental_uris":{"android":"levelo://app?vid=1fec6c30-5256-4f4c-8a45-5a2013668b9a","ios":"levelo://app?vid=1fec6c30-5256-4f4c-8a45-5a2013668b9a"},"vehicle_type_id":"4","last_reported":1707325587,"current_range_meters":16800,"station_id":"ce4bh512rcd13ifvqe2g","pricing_plan_id":"free"},{"bike_id":"ecf6e431-9840-4023-8386-363229d2d078","system_id":"levelo_inurba_marseille","lat":43.290995,"lon":5.381361,"is_reserved":false,"is_disabled":false,"rental_uris":{"android":"levelo://app?vid=ecf6e431-9840-4023-8386-363229d2d078","ios":"levelo://app?vid=ecf6e431-9840-4023-8386-363229d2d078"},"vehicle_type_id":"4","last_reported":1707325587,"current_range_meters":7200,"station_id":"ce4bh512rcd13ifvqe2g","pricing_plan_id":"free"},{"bike_id":"cfc7a70d-492e-42ff-8ff1-e5a5a54d3862","system_id":"levelo_inurba_marseille","lat":43.290995,"lon":5.381361,"is_reserved":false,"is_disabled":false,"rental_uris":{"android":"levelo://app?vid=cfc7a70d-492e-42ff-8ff1-e5a5a54d3862","ios":"levelo://app?vid=cfc7a70d-492e-42ff-8ff1-e5a5a54d3862"},"vehicle_type_id":"4","last_reported":1707325587,"current_range_meters":8000,"station_id":"ce4bh512rcd13ifvqe2g","pricing_plan_id":"free"},{"bike_id":"a36e5475-604d-4ee9-bcd4-a4f9969e0ba3","system_id":"levelo_inurba_marseille","lat":43.29789,"lon":5.39341,"is_reserved":false,"is_disabled":false,"rental_uris":{"android":"levelo://app?vid=a36e5475-604d-4ee9-bcd4-a4f9969e0ba3","ios":"levelo://app?vid=a36e5475-604d-4ee9-bcd4-a4f9969e0ba3"},"vehicle_type_id":"4","last_reported":1707325587,"current_range_meters":11200,"station_id":"chh1huq6cuj3fo74tm60","pricing_plan_id":"free"},{"bike_id":"2ff23efb-b9a0-4f3a-993d-3b32a8378963","system_id":"levelo_inurba_marseille","lat":43.297815,"lon":5.393548,"is_reserved":false,"is_disabled":false,"rental_uris":{"android":"levelo://app?vid=2ff23efb-b9a0-4f3a-993d-3b32a8378963","ios":"levelo://app?vid=2ff23efb-b9a0-4f3a-993d-3b32a8378963"},"vehicle_type_id":"4","last_reported":1707325587,"current_range_meters":20400,"station_id":"chh1huq6cuj3fo74tm60","pricing_plan_id":"free"},{"bike_id":"91da58fc-f365-42b6-b480-778a34082c31","system_id":"levelo_inurba_marseille","lat":43.295169,"lon":5.390426,"is_reserved":false,"is_disabled":false,"rental_uris":{"android":"levelo://app?vid=91da58fc-f365-42b6-b480-778a34082c31","ios":"levelo://app?vid=91da58fc-f365-42b6-b480-778a34082c31"},"vehicle_type_id":"4","last_reported":1707325587,"current_range_meters":16000,"station_id":"ce4bh3p2rcd13ifvqdp0","pricing_plan_id":"free"},{"bike_id":"0c7672e0-9abf-4ea1-b00b-d3fdbca772ee","system_id":"levelo_inurba_marseille","lat":43.297815,"lon":5.393548,"is_reserved":false,"is_disabled":false,"rental_uris":{"android":"levelo://app?vid=0c7672e0-9abf-4ea1-b00b-d3fdbca772ee","ios":"levelo://app?vid=0c7672e0-9abf-4ea1-b00b-d3fdbca772ee"},"vehicle_type_id":"4","last_reported":1707325587,"current_range_meters":23200,"station_id":"chh1huq6cuj3fo74tm60","pricing_plan_id":"free"},{"bike_id":"2d57fb24-3cbb-4dee-9f44-cdac705734ec","system_id":"levelo_inurba_marseille","lat":43.297815,"lon":5.393548,"is_reserved":false,"is_disabled":false,"rental_uris":{"android":"levelo://app?vid=2d57fb24-3cbb-4dee-9f44-cdac705734ec","ios":"levelo://app?vid=2d57fb24-3cbb-4dee-9f44-cdac705734ec"},"vehicle_type_id":"4","last_reported":1707325587,"current_range_meters":0,"station_id":"chh1huq6cuj3fo74tm60","pricing_plan_id":"free"},{"bike_id":"62ca35d7-f049-4885-9fd9-beb6af1eb797","system_id":"levelo_inurba_marseille","lat":43.33022,"lon":5.39038,"is_reserved":false,"is_disabled":false,"rental_uris":{"android":"levelo://app?vid=62ca35d7-f049-4885-9fd9-beb6af1eb797","ios":"levelo://app?vid=62ca35d7-f049-4885-9fd9-beb6af1eb797"},"vehicle_type_id":"4","last_reported":1707325587,"current_range_meters":8400,"station_id":"ce4bhr92rcd13ifvqhrg","pricing_plan_id":"free"},{"bike_id":"d6c7f053-4d6e-47a3-8b08-6d165ecceebf","system_id":"levelo_inurba_marseille","lat":43.33023,"lon":5.39038,"is_reserved":false,"is_disabled":false,"rental_uris":{"android":"levelo://app?vid=d6c7f053-4d6e-47a3-8b08-6d165ecceebf","ios":"levelo://app?vid=d6c7f053-4d6e-47a3-8b08-6d165ecceebf"},"vehicle_type_id":"4","last_reported":1707325587,"current_range_meters":2400,"station_id":"ce4bhr92rcd13ifvqhrg","pricing_plan_id":"free"},{"bike_id":"e3cdd8db-1a8c-42b0-8a1d-74e27724a81e","system_id":"levelo_inurba_marseille","lat":43.33021,"lon":5.39041,"is_reserved":false,"is_disabled":false,"rental_uris":{"android":"levelo://app?vid=e3cdd8db-1a8c-42b0-8a1d-74e27724a81e","ios":"levelo://app?vid=e3cdd8db-1a8c-42b0-8a1d-74e27724a81e"},"vehicle_type_id":"4","last_reported":1707325587,"current_range_meters":25600,"station_id":"ce4bhr92rcd13ifvqhrg","pricing_plan_id":"free"},{"bike_id":"397db575-5859-4e88-b680-c446f72b852d","system_id":"levelo_inurba_marseille","lat":43.330442,"lon":5.389148,"is_reserved":false,"is_disabled":false,"rental_uris":{"android":"levelo://app?vid=397db575-5859-4e88-b680-c446f72b852d","ios":"levelo://app?vid=397db575-5859-4e88-b680-c446f72b852d"},"vehicle_type_id":"4","last_reported":1707325587,"current_range_meters":0,"station_id":"ce4bhr92rcd13ifvqhrg","pricing_plan_id":"free"},{"bike_id":"6eabe077-2849-47a8-8abe-001d3af6a89b","system_id":"levelo_inurba_marseille","lat":43.33022,"lon":5.3904,"is_reserved":false,"is_disabled":false,"rental_uris":{"android":"levelo://app?vid=6eabe077-2849-47a8-8abe-001d3af6a89b","ios":"levelo://app?vid=6eabe077-2849-47a8-8abe-001d3af6a89b"},"vehicle_type_id":"4","last_reported":1707325587,"current_range_meters":3600,"station_id":"ce4bhr92rcd13ifvqhrg","pricing_plan_id":"free"},{"bike_id":"9be19af2-00eb-4adf-afc6-6b25dc013c2f","system_id":"levelo_inurba_marseille","lat":43.33022,"lon":5.39042,"is_reserved":false,"is_disabled":false,"rental_uris":{"android":"levelo://app?vid=9be19af2-00eb-4adf-afc6-6b25dc013c2f","ios":"levelo://app?vid=9be19af2-00eb-4adf-afc6-6b25dc013c2f"},"vehicle_type_id":"4","last_reported":1707325587,"current_range_meters":0,"station_id":"ce4bhr92rcd13ifvqhrg","pricing_plan_id":"free"},{"bike_id":"ba7895df-fdf0-43d4-b40a-e7e64d29137d","system_id":"levelo_inurba_marseille","lat":43.330442,"lon":5.389148,"is_reserved":false,"is_disabled":false,"rental_uris":{"android":"levelo://app?vid=ba7895df-fdf0-43d4-b40a-e7e64d29137d","ios":"levelo://app?vid=ba7895df-fdf0-43d4-b40a-e7e64d29137d"},"vehicle_type_id":"4","last_reported":1707325587,"current_range_meters":18800,"station_id":"ce4bhr92rcd13ifvqhrg","pricing_plan_id":"free"},{"bike_id":"2553f60b-f5b0-450b-8315-15dca10dc92e","system_id":"levelo_inurba_marseille","lat":43.295262,"lon":5.390438,"is_reserved":false,"is_disabled":false,"rental_uris":{"android":"levelo://app?vid=2553f60b-f5b0-450b-8315-15dca10dc92e","ios":"levelo://app?vid=2553f60b-f5b0-450b-8315-15dca10dc92e"},"vehicle_type_id":"4","last_reported":1707325587,"current_range_meters":17600,"station_id":"ce4bh3p2rcd13ifvqdp0","pricing_plan_id":"free"},{"bike_id":"404d98cc-1242-441f-84ec-afba5cda36fc","system_id":"levelo_inurba_marseille","lat":43.33024,"lon":5.39042,"is_reserved":false,"is_disabled":false,"rental_uris":{"android":"levelo://app?vid=404d98cc-1242-441f-84ec-afba5cda36fc","ios":"levelo://app?vid=404d98cc-1242-441f-84ec-afba5cda36fc"},