{"last_updated":1739984933,"ttl":60,"version":"2.2","data":{"bikes":[{"bike_id":"afb1d55a-3085-4dc5-a9fd-f5abb002f208","system_id":"levelo_inurba_marseille","lat":43.25669,"lon":5.40008,"is_reserved":false,"is_disabled":false,"rental_uris":{"android":"levelo://app?vid=afb1d55a-3085-4dc5-a9fd-f5abb002f208","ios":"levelo://app?vid=afb1d55a-3085-4dc5-a9fd-f5abb002f208"},"vehicle_type_id":"4","last_reported":1739984933,"current_range_meters":2800,"station_id":"","pricing_plan_id":"cebpf4jnsgd1na2vs0mg"},{"bike_id":"22356b67-a001-4d92-91af-076d9a6253ca","system_id":"levelo_inurba_marseille","lat":43.28666,"lon":5.36356,"is_reserved":false,"is_disabled":false,"rental_uris":{"android":"levelo://app?vid=22356b67-a001-4d92-91af-076d9a6253ca","ios":"levelo://app?vid=22356b67-a001-4d92-91af-076d9a6253ca"},"vehicle_type_id":"4","last_reported":1739984933,"current_range_meters":2800,"station_id":"ce4bhah2rcd13ifvqej0","pricing_plan_id":"cebpf4jnsgd1na2vs0mg"},{"bike_id":"49dda0cb-07cc-42d8-9016-e66f38a111d2","system_id":"levelo_inurba_marseille","lat":43.30534,"lon":5.38421,"is_reserved":false,"is_disabled":false,"rental_uris":{"android":"levelo://app?vid=49dda0cb-07cc-42d8-9016-e66f38a111d2","ios":"levelo://app?vid=49dda0cb-07cc-42d8-9016-e66f38a111d2"},"vehicle_type_id":"4","last_reported":1739984933,"current_range_meters":2800,"station_id":"ce4bgg92rcd13ifvqb30","pricing_plan_id":"cebpf4jnsgd1na2vs0mg"},{"bike_id":"202e4be1-1ba8-4505-8ad7-0135fcfc3b52","system_id":"levelo_inurba_marseille","lat":43.26056,"lon":5.3937,"is_reserved":false,"is_disabled":false,"rental_uris":{"android":"levelo://app?vid=202e4be1-1ba8-4505-8ad7-0135fcfc3b52","ios":"levelo://app?vid=202e4be1-1ba8-4505-8ad7-0135fcfc3b52"},"vehicle_type_id":"4","last_reported":1739984933,"current_range_meters":2800,"station_id":"","pricing_plan_id":"cebpf4jnsgd1na2vs0mg"},{"bike_id":"1913ef47-7de4-47b7-bc13-20a7e4a2ac98","system_id":"levelo_inurba_marseille","lat":43.27942,"lon":5.41045,"is_reserved":false,"is_disabled":false,"rental_uris":{"android":"levelo://app?vid=1913ef47-7de4-47b7-bc13-20a7e4a2ac98","ios":"levelo://app?vid=1913ef47-7de4-47b7-bc13-20a7e4a2ac98"},"vehicle_type_id":"4","last_reported":1739984933,"current_range_meters":3200,"station_id":"ce4bhnp2rcd13ifvqh0g","pricing_plan_id":"cebpf4jnsgd1na2vs0mg"},{"bike_id":"0b23b2a1-df08-46fa-ba60-f761ad55355e","system_id":"levelo_inurba_marseille","lat":43.2315,"lon":5.43717,"is_reserved":false,"is_disabled":false,"rental_uris":{"android":"levelo://app?vid=0b23b2a1-df08-46fa-ba60-f761ad55355e","ios":"levelo://app?vid=0b23b2a1-df08-46fa-ba60-f761ad55355e"},"vehicle_type_id":"4","last_reported":1739984933,"current_range_meters":2800,"station_id":"ce4bhmp2rcd13ifvqgog","pricing_plan_id":"cebpf4jnsgd1na2vs0mg"},{"bike_id":"918cc3a8-c8a1-498f-9575-f4a20fd22360","system_id":"levelo_inurba_marseille","lat":43.3014,"lon":5.38063,"is_reserved":false,"is_disabled":false,"rental_uris":{"android":"levelo://app?vid=918cc3a8-c8a1-498f-9575-f4a20fd22360","ios":"levelo://app?vid=918cc3a8-c8a1-498f-9575-f4a20fd22360"},"vehicle_type_id":"4","last_reported":1739984933,"current_range_meters":2800,"station_id":"ce4bgjp2rcd13ifvqbh0","pricing_plan_id":"cebpf4jnsgd1na2vs0mg"},{"bike_id":"020f9db3-6048-4a83-8c59-4acc533112c8","system_id":"levelo_inurba_marseille","lat":43.2816,"lon":5.42631,"is_reserved":false,"is_disabled":false,"rental_uris":{"android":"levelo://app?vid=020f9db3-6048-4a83-8c59-4acc533112c8","ios":"levelo://app?vid=020f9db3-6048-4a83-8c59-4acc533112c8"},"vehicle_type_id":"4","last_reported":1739984933,"current_range_meters":3200,"station_id":"ce4bhnh2rcd13ifvqgug","pricing_plan_id":"cebpf4jnsgd1na2vs0mg"},{"bike_id":"01e54d23-af65-4207-a4dd-1c0b69b7c6af","system_id":"levelo_inurba_marseille","lat":43.3032,"lon":5.4043,"is_reserved":false,"is_disabled":false,"rental_uris":{"android":"levelo://app?vid=01e54d23-af65-4207-a4dd-1c0b69b7c6af","ios":"levelo://app?vid=01e54d23-af65-4207-a4dd-1c0b69b7c6af"},"vehicle_type_id":"4","last_reported":1739984933,"current_range_meters":2800,"station_id":"ce4bh012rcd13ifvqd10","pricing_plan_id":"cebpf4jnsgd1na2vs0mg"},{"bike_id":"741d3cc3-7f50-49a2-8e34-1e72ee6af436","system_id":"levelo_inurba_marseille","lat":43.29194,"lon":5.35799,"is_reserved":false,"is_disabled":false,"rental_uris":{"android":"levelo://app?vid=741d3cc3-7f50-49a2-8e34-1e72ee6af436","ios":"levelo://app?vid=741d3cc3-7f50-49a2-8e34-1e72ee6af436"},"vehicle_type_id":"4","last_reported":1739984933,"current_range_meters":3600,"station_id":"ce4bhb12rcd13ifvqel0","pricing_plan_id":"cebpf4jnsgd1na2vs0mg"},{"bike_id":"7389ec0e-aefa-4cc7-bff0-27a69e586dc5","system_id":"levelo_inurba_marseille","lat":43.30297,"lon":5.39207,"is_reserved":false,"is_disabled":false,"rental_uris":{"android":"levelo://app?vid=7389ec0e-aefa-4cc7-bff0-27a69e586dc5","ios":"levelo://app?vid=7389ec0e-aefa-4cc7-bff0-27a69e586dc5"},"vehicle_type_id":"4","last_reported":1739984933,"current_range_meters":0,"station_id":"ce4bgkh2rcd13ifvqbk0","pricing_plan_id":"cebpf4jnsgd1na2vs0mg"},{"bike_id":"146125fc-c424-429a-85db-b3dd8acdef43","system_id":"levelo_inurba_marseille","lat":43.26679,"lon":5.38267,"is_reserved":false,"is_disabled":false,"rental_uris":{"android":"levelo://app?vid=146125fc-c424-429a-85db-b3dd8acdef43","ios":"levelo://app?vid=146125fc-c424-429a-85db-b3dd8acdef43"},"vehicle_type_id":"4","last_reported":1739984933,"current_range_meters":4000,"station_id":"ce4bhg92rcd13ifvqf90","pricing_plan_id":"cebpf4jnsgd1na2vs0mg"},{"bike_id":"d77e93a3-1942-4673-9d62-bccb324610f2","system_id":"levelo_inurba_marseille","lat":43.31692,"lon":5.37733,"is_reserved":false,"is_disabled":false,"rental_uris":{"android":"levelo://app?vid=d77e93a3-1942-4673-9d62-bccb324610f2","ios":"levelo://app?vid=d77e93a3-1942-4673-9d62-bccb324610f2"},"vehicle_type_id":"4","last_reported":1739984933,"current_range_meters":4400,"station_id":"ce4bgth2rcd13ifvqch0","pricing_plan_id":"cebpf4jnsgd1na2vs0mg"},{"bike_id":"811901b7-6a39-4b98-9209-f363e05c2482","system_id":"levelo_inurba_marseille","lat":43.2815,"lon":5.42642,"is_reserved":false,"is_disabled":false,"rental_uris":{"android":"levelo://app?vid=811901b7-6a39-4b98-9209-f363e05c2482","ios":"levelo://app?vid=811901b7-6a39-4b98-9209-f363e05c2482"},"vehicle_type_id":"4","last_reported":1739984933,"current_range_meters":4000,"station_id":"ce4bhnh2rcd13ifvqgug","pricing_plan_id":"cebpf4jnsgd1na2vs0mg"},{"bike_id":"eccdef40-5502-463f-ad5e-5d57ccb2c01b","system_id":"levelo_inurba_marseille","lat":43.31485,"lon":5.37313,"is_reserved":false,"is_disabled":false,"rental_uris":{"android":"levelo://app?vid=eccdef40-5502-463f-ad5e-5d57ccb2c01b","ios":"levelo://app?vid=eccdef40-5502-463f-ad5e-5d57ccb2c01b"},"vehicle_type_id":"4","last_reported":1739984933,"current_range_meters":4000,"station_id":"ce4bgt12rcd13ifvqcd0","pricing_plan_id":"cebpf4jnsgd1na2vs0mg"},{"bike_id":"927ebb98-5d46-4da2-bf30-bf407004e309","system_id":"levelo_inurba_marseille","lat":43.30932,"lon":5.40142,"is_reserved":false,"is_disabled":false,"rental_uris":{"android":"levelo://app?vid=927ebb98-5d46-4da2-bf30-bf407004e309","ios":"levelo://app?vid=927ebb98-5d46-4da2-bf30-bf407004e309"},"vehicle_type_id":"4","last_reported":1739984933,"current_range_meters":4000,"station_id":"ce4bgvp2rcd13ifvqct0","pricing_plan_id":"cebpf4jnsgd1na2vs0mg"},{"bike_id":"014b8e45-f512-4599-8010-13d3a14cb99c","system_id":"levelo_inurba_marseille","lat":43.29414,"lon":5.38628,"is_reserved":false,"is_disabled":false,"rental_uris":{"android":"levelo://app?vid=014b8e45-f512-4599-8010-13d3a14cb99c","ios":"levelo://app?vid=014b8e45-f512-4599-8010-13d3a14cb99c"},"vehicle_type_id":"4","last_reported":1739984933,"current_range_meters":4000,"station_id":"ce4bh2h2rcd13ifvqdh0","pricing_plan_id":"cebpf4jnsgd1na2vs0mg"},{"bike_id":"6528e792-6c2b-41ab-b102-37d30001a0e7","system_id":"levelo_inurba_marseille","lat":43.27221,"lon":5.40107,"is_reserved":false,"is_disabled":false,"rental_uris":{"android":"levelo://app?vid=6528e792-6c2b-41ab-b102-37d30001a0e7","ios":"levelo://app?vid=6528e792-6c2b-41ab-b102-37d30001a0e7"},"vehicle_type_id":"4","last_reported":1739984933,"current_range_meters":4400,"station_id":"","pricing_plan_id":"cebpf4jnsgd1na2vs0mg"},{"bike_id":"92ddd9eb-0e49-4f27-a47e-cb0ed87ae0ba","system_id":"levelo_inurba_marseille","lat":43.30802,"lon":5.38144,"is_reserved":false,"is_disabled":false,"rental_uris":{"android":"levelo://app?vid=92ddd9eb-0e49-4f27-a47e-cb0ed87ae0ba","ios":"levelo://app?vid=92ddd9eb-0e49-4f27-a47e-cb0ed87ae0ba"},"vehicle_type_id":"4","last_reported":1739984933,"current_range_meters":4400,"station_id":"ce4bgt12rcd13ifvqce0","pricing_plan_id":"cebpf4jnsgd1na2vs0mg"},{"bike_id":"cd11be65-99ab-4ed8-a873-2bdf92b5b050","system_id":"levelo_inurba_marseille","lat":43.29005,"lon":5.35623,"is_reserved":false,"is_disabled":false,"rental_uris":{"android":"levelo://app?vid=cd11be65-99ab-4ed8-a873-2bdf92b5b050","ios":"levelo://app?vid=cd11be65-99ab-4ed8-a873-2bdf92b5b050"},"vehicle_type_id":"4","last_reported":1739984933,"current_range_meters":5600,"station_id":"ce4bhb92rcd13ifvqen0","pricing_plan_id":"cebpf4jnsgd1na2vs0mg"},{"bike_id":"79117895-aa7e-4663-b8e3-fbea6d872b69","system_id":"levelo_inurba_marseille","lat":43.29374,"lon":5.37833,"is_reserved":false,"is_disabled":false,"rental_uris":{"android":"levelo://app?vid=79117895-aa7e-4663-b8e3-fbea6d872b69","ios":"levelo://app?vid=79117895-aa7e-4663-b8e3-fbea6d872b69"},"vehicle_type_id":"4","last_reported":1739984933,"current_range_meters":5600,"station_id":"ce4bgjh2rcd13ifvqbf0","pricing_plan_id":"cebpf4jnsgd1na2vs0mg"},{"bike_id":"54054037-b4de-4190-aa12-71b245fc1f85","system_id":"levelo_inurba_marseille","lat":43.33058,"lon":5.39056,"is_reserved":false,"is_disabled":false,"rental_uris":{"android":"levelo://app?vid=54054037-b4de-4190-aa12-71b245fc1f85","ios":"levelo://app?vid=54054037-b4de-4190-aa12-71b245fc1f85"},"vehicle_type_id":"4","last_reported":1739984933,"current_range_meters":5600,"station_id":"ce4bhr92rcd13ifvqhrg","pricing_plan_id":"cebpf4jnsgd1na2vs0mg"},{"bike_id":"c726b5c9-6de7-4ec5-845d-f4e7ff4872b9","system_id":"levelo_inurba_marseille","lat":43.29293,"lon":5.37459,"is_reserved":false,"is_disabled":false,"rental_uris":{"android":"levelo://app?vid=c726b5c9-6de7-4ec5-845d-f4e7ff4872b9","ios":"levelo://app?vid=c726b5c9-6de7-4ec5-845d-f4e7ff4872b9"},"vehicle_type_id":"4","last_reported":1739984933,"current_range_meters":6000,"station_id":"ce4bgi12rcd13ifvqb70","pricing_plan_id":"cebpf4jnsgd1na2vs0mg"},{"bike_id":"55949e23-cd51-4e89-8b50-ed693746dd78","system_id":"levelo_inurba_marseille","lat":43.25864,"lon":5.398999,"is_reserved":false,"is_disabled":false,"rental_uris":{"android":"levelo://app?vid=55949e23-cd51-4e89-8b50-ed693746dd78","ios":"levelo://app?vid=55949e23-cd51-4e89-8b50-ed693746dd78"},"vehicle_type_id":"4","last_reported":1739984933,"current_range_meters":6000,"station_id":"ce4bhdp2rcd13ifvqf20","pricing_plan_id":"cebpf4jnsgd1na2vs0mg"},{"bike_id":"7c2a14ab-ecda-4bcd-9c84-6695775662ca","system_id":"levelo_inurba_marseille","lat":43.30431,"lon":5.38891,"is_reserved":false,"is_disabled":false,"rental_uris":{"android":"levelo://app?vid=7c2a14ab-ecda-4bcd-9c84-6695775662ca","ios":"levelo://app?vid=7c2a14ab-ecda-4bcd-9c84-6695775662ca"},"vehicle_type_id":"4","last_reported":1739984933,"current_range_meters":6000,"station_id":"ce4bgk12rcd13ifvqbi0","pricing_plan_id":"cebpf4jnsgd1na2vs0mg"},{"bike_id":"219557c3-133c-4171-b454-69afa7181eeb","system_id":"levelo_inurba_marseille","lat":43.28454,"lon":5.38195,"is_reserved":false,"is_disabled":false,"rental_uris":{"android":"levelo://app?vid=219557c3-133c-4171-b454-69afa7181eeb","ios":"levelo://app?vid=219557c3-133c-4171-b454-69afa7181eeb"},"vehicle_type_id":"4","last_reported":1739984933,"current_range_meters":6400,"station_id":"ce4bh412rcd13ifvqdr0","pricing_plan_id":"cebpf4jnsgd1na2vs0mg"},{"bike_id":"9eae540f-54ca-4a57-a431-8fcf98238a1b","system_id":"levelo_inurba_marseille","lat":43.28615,"lon":5.35105,"is_reserved":false,"is_disabled":false,"rental_uris":{"android":"levelo://app?vid=9eae540f-54ca-4a57-a431-8fcf98238a1b","ios":"levelo://app?vid=9eae540f-54ca-4a57-a431-8fcf98238a1b"},"vehicle_type_id":"4","last_reported":1739984933,"current_range_meters":6400,"station_id":"ce4bhch2rcd13ifvqeug","pricing_plan_id":"cebpf4jnsgd1na2vs0mg"},{"bike_id":"bce1a30a-37bb-41fc-80c9-0d5c8ac4632a","system_id":"levelo_inurba_marseille","lat":43.27919,"lon":5.39578,"is_reserved":false,"is_disabled":false,"rental_uris":{"android":"levelo://app?vid=bce1a30a-37bb-41fc-80c9-0d5c8ac4632a","ios":"levelo://app?vid=bce1a30a-37bb-41fc-80c9-0d5c8ac4632a"},"vehicle_type_id":"4","last_reported":1739984933,"current_range_meters":6400,"station_id":"ce4bhf92rcd13ifvqf40","pricing_plan_id":"cebpf4jnsgd1na2vs0mg"},{"bike_id":"989a1c05-c74a-4632-af21-81b3f55f7909","system_id":"levelo_inurba_marseille","lat":43.29201,"lon":5.36083,"is_reserved":false,"is_disabled":true,"rental_uris":{"android":"levelo://app?vid=989a1c05-c74a-4632-af21-81b3f55f7909","ios":"levelo://app?vid=989a1c05-c74a-4632-af21-81b3f55f7909"},"vehicle_type_id":"4","last_reported":1739984933,"current_range_meters":6400,"station_id":"","pricing_plan_id":"cebpf4jnsgd1na2vs0mg"},{"bike_id":"f75bf69a-f7e4-401e-9045-93a576bf9e08","system_id":"levelo_inurba_marseille","lat":43.29037,"lon":5.3757,"is_reserved":false,"is_disabled":false,"rental_uris":{"android":"levelo://app?vid=f75bf69a-f7e4-401e-9045-93a576bf9e08","ios":"levelo://app?vid=f75bf69a-f7e4-401e-9045-93a576bf9e08"},"vehicle_type_id":"4","last_reported":1739984933,"current_range_meters":6400,"station_id":"ce4bh692rcd13ifvqe90","pricing_plan_id":"cebpf4jnsgd1na2vs0mg"},{"bike_id":"81b44ef5-e6ee-4626-b60e-35a81504d608","system_id":"levelo_inurba_marseille","lat":43.30146,"lon":5.38089,"is_reserved":false,"is_disabled":false,"rental_uris":{"android":"levelo://app?vid=81b44ef5-e6ee-4626-b60e-35a81504d608","ios":"levelo://app?vid=81b44ef5-e6ee-4626-b60e-35a81504d608"},"vehicle_type_id":"4","last_reported":1739984933,"current_range_meters":6800,"station_id":"ce4bgjp2rcd13ifvqbh0","pricing_plan_id":"cebpf4jnsgd1na2vs0mg"},{"bike_id":"1df8f38f-b6c5-4951-ab2c-b99645ea4d30","system_id":"levelo_inurba_marseille","lat":43.29272,"lon":5.36838,"is_reserved":false,"is_disabled":false,"rental_uris":{"android":"levelo://app?vid=1df8f38f-b6c5-4951-ab2c-b99645ea4d30","ios":"levelo://app?vid=1df8f38f-b6c5-4951-ab2c-b99645ea4d30"},"vehicle_type_id":"4","last_reported":1739984933,"current_range_meters":6800,"station_id":"","pricing_plan_id":"cebpf4jnsgd1na2vs0mg"},{"bike_id":"4228273d-88b0-40ca-ae48-c6d5d7e46874","system_id":"levelo_inurba_marseille","lat":43.29022,"lon":5.38648,"is_reserved":false,"is_disabled":false,"rental_uris":{"android":"levelo://app?vid=4228273d-88b0-40ca-ae48-c6d5d7e46874","ios":"levelo://app?vid=4228273d-88b0-40ca-ae48-c6d5d7e46874"},"vehicle_type_id":"4","last_reported":1739984933,"current_range_meters":6800,"station_id":"ce4bh4p2rcd13ifvqe0g","pricing_plan_id":"cebpf4jnsgd1na2vs0mg"},{"bike_id":"6beaa31c-65c1-4be0-a8bd-6756ff6b9a4c","system_id":"levelo_inurba_marseille","lat":43.26678,"lon":5.38269,"is_reserved":false,"is_disabled":false,"rental_uris":{"android":"levelo://app?vid=6beaa31c-65c1-4be0-a8bd-6756ff6b9a4c","ios":"levelo://app?vid=6beaa31c-65c1-4be0-a8bd-6756ff6b9a4c"},"vehicle_type_id":"4","last_reported":1739984933,"current_range_meters":7200,"station_id":"ce4bhg92rcd13ifvqf90","pricing_plan_id":"cebpf4jnsgd1na2vs0mg"},{"bike_id":"737b3de7-500d-44cb-bbfa-4f741077c3a9","system_id":"levelo_inurba_marseille","lat":43.27311,"lon":5.39079,"is_reserved":false,"is_disabled":false,"rental_uris":{"android":"levelo://app?vid=737b3de7-500d-44cb-bbfa-4f741077c3a9","ios":"levelo://app?vid=737b3de7-500d-44cb-bbfa-4f741077c3a9"},"vehicle_type_id":"4","last_reported":1739984933,"current_range_meters":6800,"station_id":"ce4bhgp2rcd13ifvqfe0","pricing_plan_id":"cebpf4jnsgd1na2vs0mg"},{"bike_id":"56834599-2949-4368-8c7c-ea0cffd718b2","system_id":"levelo_inurba_marseille","lat":43.27055,"lon":5.42205,"is_reserved":false,"is_disabled":false,"rental_uris":{"android":"levelo://app?vid=56834599-2949-4368-8c7c-ea0cffd718b2","ios":"levelo://app?vid=56834599-2949-4368-8c7c-ea0cffd718b2"},"vehicle_type_id":"4","last_reported":1739984933,"current_range_meters":7200,"station_id":"ce4bhk92rcd13ifvqgb0","pricing_plan_id":"cebpf4jnsgd1na2vs0mg"},{"bike_id":"d4b67613-af43-4367-9644-4153b605583f","system_id":"levelo_inurba_marseille","lat":43.29796,"lon":5.38092,"is_reserved":false,"is_disabled":false,"rental_uris":{"android":"levelo://app?vid=d4b67613-af43-4367-9644-4153b605583f","ios":"levelo://app?vid=d4b67613-af43-4367-9644-4153b605583f"},"vehicle_type_id":"4","last_reported":1739984933,"current_range_meters":7200,"station_id":"ce4bgip2rcd13ifvqbb0","pricing_plan_id":"cebpf4jnsgd1na2vs0mg"},{"bike_id":"bb852df7-dd74-43f4-8582-0650a376dfcb","system_id":"levelo_inurba_marseille","lat":43.27501,"lon":5.42465,"is_reserved":false,"is_disabled":false,"rental_uris":{"android":"levelo://app?vid=bb852df7-dd74-43f4-8582-0650a376dfcb","ios":"levelo://app?vid=bb852df7-dd74-43f4-8582-0650a376dfcb"},"vehicle_type_id":"4","last_reported":1739984933,"current_range_meters":8000,"station_id":"ce4bhn92rcd13ifvqgrg","pricing_plan_id":"cebpf4jnsgd1na2vs0mg"},{"bike_id":"f132c26b-a0b7-4a7e-a4a4-e96fad5d51ff","system_id":"levelo_inurba_marseille","lat":43.28704,"lon":5.39988,"is_reserved":false,"is_disabled":true,"rental_uris":{"android":"levelo://app?vid=f132c26b-a0b7-4a7e-a4a4-e96fad5d51ff","ios":"levelo://app?vid=f132c26b-a0b7-4a7e-a4a4-e96fad5d51ff"},"vehicle_type_id":"4","last_reported":1739984933,"current_range_meters":7200,"station_id":"ce4bho92rcd13ifvqh3g","pricing_plan_id":"cebpf4jnsgd1na2vs0mg"},{"bike_id":"29adea99-6335-4ddd-b427-ecf270bbf6cc","system_id":"levelo_inurba_marseille","lat":43.28716,"lon":5.37934,"is_reserved":false,"is_disabled":false,"rental_uris":{"android":"levelo://app?vid=29adea99-6335-4ddd-b427-ecf270bbf6cc","ios":"levelo://app?vid=29adea99-6335-4ddd-b427-ecf270bbf6cc"},"vehicle_type_id":"4","last_reported":1739984933,"current_range_meters":0,"station_id":"","pricing_plan_id":"cebpf4jnsgd1na2vs0mg"},{"bike_id":"61c673fe-f10b-4399-8b5a-360edb95722d","system_id":"levelo_inurba_marseille","lat":43.2842,"lon":5.34987,"is_reserved":false,"is_disabled":false,"rental_uris":{"android":"levelo://app?vid=61c673fe-f10b-4399-8b5a-360edb95722d","ios":"levelo://app?vid=61c673fe-f10b-4399-8b5a-360edb95722d"},"vehicle_type_id":"4","last_reported":1739984933,"current_range_meters":8000,"station_id":"ce4bhbh2rcd13ifvqepg","pricing_plan_id":"cebpf4jnsgd1na2vs0mg"},{"bike_id":"977b2036-1be8-48b1-8a24-ae1b30cdf558","system_id":"levelo_inurba_marseille","lat":43.28434,"lon":5.39193,"is_reserved":false,"is_disabled":false,"rental_uris":{"android":"levelo://app?vid=977b2036-1be8-48b1-8a24-ae1b30cdf558","ios":"levelo://app?vid=977b2036-1be8-48b1-8a24-ae1b30cdf558"},"vehicle_type_id":"4","last_reported":1739984933,"current_range_meters":8000,"station_id":"ce4bhoh2rcd13ifvqh5g","pricing_plan_id":"cebpf4jnsgd1na2vs0mg"},{"bike_id":"4e196b90-ab7d-481d-9880-0bf62dd15dbf","system_id":"levelo_inurba_marseille","lat":43.28406,"lon":5.37516,"is_reserved":false,"is_disabled":false,"rental_uris":{"android":"levelo://app?vid=4e196b90-ab7d-481d-9880-0bf62dd15dbf","ios":"levelo://app?vid=4e196b90-ab7d-481d-9880-0bf62dd15dbf"},"vehicle_type_id":"4","last_reported":1739984933,"current_range_meters":8000,"station_id":"ce4bh412rcd13ifvqds0","pricing_plan_id":"cebpf4jnsgd1na2vs0mg"},{"bike_id":"cf64b7cd-4626-4d79-afac-2611db88ce28","system_id":"levelo_inurba_marseille","lat":43.27993,"lon":5.41667,"is_reserved":false,"is_disabled":false,"rental_uris":{"android":"levelo://app?vid=cf64b7cd-4626-4d79-afac-2611db88ce28","ios":"levelo://app?vid=cf64b7cd-4626-4d79-afac-2611db88ce28"},"vehicle_type_id":"4","last_reported":1739984933,"current_range_meters":8000,"station_id":"ce4bho12rcd13ifvqh1g","pricing_plan_id":"cebpf4jnsgd1na2vs0mg"},{"bike_id":"fcb6818d-fa36-4abf-a9a2-915314187cc2","system_id":"levelo_inurba_marseille","lat":43.26058,"lon":5.39394,"is_reserved":false,"is_disabled":false,"rental_uris":{"android":"levelo://app?vid=fcb6818d-fa36-4abf-a9a2-915314187cc2","ios":"levelo://app?vid=fcb6818d-fa36-4abf-a9a2-915314187cc2"},"vehicle_type_id":"4","last_reported":1739984933,"current_range_meters":8000,"station_id":"ce4bhh92rcd13ifvqfj0","pricing_plan_id":"cebpf4jnsgd1na2vs0mg"},{"bike_id":"4089f1a0-cd12-42d3-a6c3-01d445970a86","system_id":"levelo_inurba_marseille","lat":43.31289,"lon":5.37422,"is_reserved":false,"is_disabled":false,"rental_uris":{"android":"levelo://app?vid=4089f1a0-cd12-42d3-a6c3-01d445970a86","ios":"levelo://app?vid=4089f1a0-cd12-42d3-a6c3-01d445970a86"},"vehicle_type_id":"4","last_reported":1739984933,"current_range_meters":8000,"station_id":"","pricing_plan_id":"cebpf4jnsgd1na2vs0mg"},{"bike_id":"adb3d6df-7149-4295-84c9-8f4cb47f9c0e","system_id":"levelo_inurba_marseille","lat":43.27429,"lon":5.41022,"is_reserved":false,"is_disabled":false,"rental_uris":{"android":"levelo://app?vid=adb3d6df-7149-4295-84c9-8f4cb47f9c0e","ios":"levelo://app?vid=adb3d6df-7149-4295-84c9-8f4cb47f9c0e"},"vehicle_type_id":"4","last_reported":1739984933,"current_range_meters":8000,"station_id":"","pricing_plan_id":"cebpf4jnsgd1na2vs0mg"},{"bike_id":"76e10743-9166-4fa6-aae7-88c43f6db9cd","system_id":"levelo_inurba_marseille","lat":43.29024,"lon":5.38645,"is_reserved":false,"is_disabled":false,"rental_uris":{"android":"levelo://app?vid=76e10743-9166-4fa6-aae7-88c43f6db9cd","ios":"levelo://app?vid=76e10743-9166-4fa6-aae7-88c43f6db9cd"},"vehicle_type_id":"4","last_reported":1739984933,"current_range_meters":8000,"station_id":"ce4bh4p2rcd13ifvqe0g","pricing_plan_id":"cebpf4jnsgd1na2vs0mg"},{"bike_id":"4391ae73-d7ce-4930-bac4-306eca66be35","system_id":"levelo_inurba_marseille","lat":43.23961,"lon":5.36638,"is_reserved":false,"is_disabled":false,"rental_uris":{"android":"levelo://app?vid=4391ae73-d7ce-4930-bac4-306eca66be35","ios":"levelo://app?vid=4391ae73-d7ce-4930-bac4-306eca66be35"},"vehicle_type_id":"4","last_reported":1739984933,"current_range_meters":8000,"station_id":"ce4bhi12rcd13ifvqfp0","pricing_plan_id":"cebpf4jnsgd1na2vs0mg"},{"bike_id":"e79d1c03-ea93-4ee5-8cb2-ecdeca48b0aa","system_id":"levelo_inurba_marseille","lat":43.23164,"lon":5.43695,"is_reserved":false,"is_disabled":true,"rental_uris":{"android":"levelo://app?vid=e79d1c03-ea93-4ee5-8cb2-ecdeca48b0aa","ios":"levelo://app?vid=e79d1c03-ea93-4ee5-8cb2-ecdeca48b0aa"},"vehicle_type_id":"4","last_reported":1739984933,"current_range_meters":8000,"station_id":"ce4bhmp2rcd13ifvqgog","pricing_plan_id":"cebpf4jnsgd1na2vs0mg"},{"bike_id":"c43d0bff-4791-4b47-ae58-a69b2e6ca057","system_id":"levelo_inurba_marseille","lat":43.29313,"lon":5.37181,"is_reserved":false,"is_disabled":false,"rental_uris":{"android":"levelo://app?vid=c43d0bff-4791-4b47-ae58-a69b2e6ca057","ios":"levelo://app?vid=c43d0bff-4791-4b47-ae58-a69b2e6ca057"},"vehicle_type_id":"4","last_reported":1739984933,"current_range_meters":7200,"station_id":"ce4bgh92rcd13ifvqb40","pricing_plan_id":"cebpf4jnsgd1na2vs0mg"},{"bike_id":"18fe3d06-df15-4747-b0a1-d25df88e009c","system_id":"levelo_inurba_marseille","lat":43.28153,"lon":5.42656,"is_reserved":false,"is_disabled":false,"rental_uris":{"android":"levelo://app?vid=18fe3d06-df15-4747-b0a1-d25df88e009c","ios":"levelo://app?vid=18fe3d06-df15-4747-b0a1-d25df88e009c"},"vehicle_type_id":"4","last_reported":1739984933,"current_range_meters":8000,"station_id":"ce4bhnh2rcd13ifvqgug","pricing_plan_id":"cebpf4jnsgd1na2vs0mg"},{"bike_id":"09aaa4e6-5c76-4bb6-bb55-e0f312f04d0a","system_id":"levelo_inurba_marseille","lat":43.27936,"lon":5.41043,"is_reserved":false,"is_disabled":false,"rental_uris":{"android":"levelo://app?vid=09aaa4e6-5c76-4bb6-bb55-e0f312f04d0a","ios":"levelo://app?vid=09aaa4e6-5c76-4bb6-bb55-e0f312f04d0a"},"vehicle_type_id":"4","last_reported":1739984933,"current_range_meters":8000,"station_id":"ce4bhnp2rcd13ifvqh0g","pricing_plan_id":"cebpf4jnsgd1na2vs0mg"},{"bike_id":"2e4638a8-6824-4739-916d-6e80baa0204e","system_id":"levelo_inurba_marseille","lat":43.29787,"lon":5.39353,"is_reserved":false,"is_disabled":false,"rental_uris":{"android":"levelo://app?vid=2e4638a8-6824-4739-916d-6e80baa0204e","ios":"levelo://app?vid=2e4638a8-6824-4739-916d-6e80baa0204e"},"vehicle_type_id":"4","last_reported":1739984933,"current_range_meters":8400,"station_id":"chh1huq6cuj3fo74tm60","pricing_plan_id":"cebpf4jnsgd1na2vs0mg"},{"bike_id":"700397fb-e890-4899-ad11-3cf40ac27dc3","system_id":"levelo_inurba_marseille","lat":43.27314,"lon":5.39061,"is_reserved":false,"is_disabled":false,"rental_uris":{"android":"levelo://app?vid=700397fb-e890-4899-ad11-3cf40ac27dc3","ios":"levelo://app?vid=700397fb-e890-4899-ad11-3cf40ac27dc3"},"vehicle_type_id":"4","last_reported":1739984933,"current_range_meters":8000,"station_id":"ce4bhgp2rcd13ifvqfe0","pricing_plan_id":"cebpf4jnsgd1na2vs0mg"},{"bike_id":"97da2850-30e4-49a9-aed9-3fabc78dad21","system_id":"levelo_inurba_marseille","lat":43.33765,"lon":5.37485,"is_reserved":false,"is_disabled":false,"rental_uris":{"android":"levelo://app?vid=97da2850-30e4-49a9-aed9-3fabc78dad21","ios":"levelo://app?vid=97da2850-30e4-49a9-aed9-3fabc78dad21"},"vehicle_type_id":"4","last_reported":1739984933,"current_range_meters":8400,"station_id":"","pricing_plan_id":"cebpf4jnsgd1na2vs0mg"},{"bike_id":"9198c6ef-bd5b-45d9-bd7b-e058d791d44b","system_id":"levelo_inurba_marseille","lat":43.24808,"lon":5.37471,"is_reserved":false,"is_disabled":false,"rental_uris":{"android":"levelo://app?vid=9198c6ef-bd5b-45d9-bd7b-e058d791d44b","ios":"levelo://app?vid=9198c6ef-bd5b-45d9-bd7b-e058d791d44b"},"vehicle_type_id":"4","last_reported":1739984933,"current_range_meters":8400,"station_id":"ce4bhgh2rcd13ifvqfb0","pricing_plan_id":"cebpf4jnsgd1na2vs0mg"},{"bike_id":"f0f61fdf-e262-479f-a259-1997ef9b3f40","system_id":"levelo_inurba_marseille","lat":43.28153,"lon":5.42647,"is_reserved":false,"is_disabled":false,"rental_uris":{"android":"levelo://app?vid=f0f61fdf-e262-479f-a259-1997ef9b3f40","ios":"levelo://app?vid=f0f61fdf-e262-479f-a259-1997ef9b3f40"},"vehicle_type_id":"4","last_reported":1739984933,"current_range_meters":8400,"station_id":"","pricing_plan_id":"cebpf4jnsgd1na2vs0mg"},{"bike_id":"ec2a2a80-692c-4e61-b758-ee418e5968e4","system_id":"levelo_inurba_marseille","lat":43.23962,"lon":5.36633,"is_reserved":false,"is_disabled":false,"rental_uris":{"android":"levelo://app?vid=ec2a2a80-692c-4e61-b758-ee418e5968e4","ios":"levelo://app?vid=ec2a2a80-692c-4e61-b758-ee418e5968e4"},"vehicle_type_id":"4","last_reported":1739984933,"current_range_meters":8400,"station_id":"ce4bhi12rcd13ifvqfp0","pricing_plan_id":"cebpf4jnsgd1na2vs0mg"},{"bike_id":"df22fd13-a669-49fb-b029-cbd4e4aeefd5","system_id":"levelo_inurba_marseille","lat":43.2797,"lon":5.3874,"is_reserved":false,"is_disabled":false,"rental_uris":{"android":"levelo://app?vid=df22fd13-a669-49fb-b029-cbd4e4aeefd5","ios":"levelo://app?vid=df22fd13-a669-49fb-b029-cbd4e4aeefd5"},"vehicle_type_id":"4","last_reported":1739984933,"current_range_meters":8400,"station_id":"ce4bhg12rcd13ifvqf80","pricing_plan_id":"cebpf4jnsgd1na2vs0mg"},{"bike_id":"175ecf74-5c83-4015-890f-841d3b7e5716","system_id":"levelo_inurba_marseille","lat":43.249918,"lon":5.389445,"is_reserved":false,"is_disabled":false,"rental_uris":{"android":"levelo://app?vid=175ecf74-5c83-4015-890f-841d3b7e5716","ios":"levelo://app?vid=175ecf74-5c83-4015-890f-841d3b7e5716"},"vehicle_type_id":"4","last_reported":1739984933,"current_range_meters":8800,"station_id":"","pricing_plan_id":"cebpf4jnsgd1na2vs0mg"},{"bike_id":"994432e2-0355-49a3-a5ed-d7f7c8d88011","system_id":"levelo_inurba_marseille","lat":43.31186,"lon":5.39606,"is_reserved":false,"is_disabled":false,"rental_uris":{"android":"levelo://app?vid=994432e2-0355-49a3-a5ed-d7f7c8d88011","ios":"levelo://app?vid=994432e2-0355-49a3-a5ed-d7f7c8d88011"},"vehicle_type_id":"4","last_reported":1739984933,"current_range_meters":8800,"station_id":"ce4bhr92rcd13ifvqhsg","pricing_plan_id":"cebpf4jnsgd1na2vs0mg"},{"bike_id":"e531ef7d-084a-4d03-897c-147f73878c05","system_id":"levelo_inurba_marseille","lat":43.30434,"lon":5.38883,"is_reserved":false,"is_disabled":false,"rental_uris":{"android":"levelo://app?vid=e531ef7d-084a-4d03-897c-147f73878c05","ios":"levelo://app?vid=e531ef7d-084a-4d03-897c-147f73878c05"},"vehicle_type_id":"4","last_reported":1739984933,"current_range_meters":8800,"station_id":"ce4bgk12rcd13ifvqbi0","pricing_plan_id":"cebpf4jnsgd1na2vs0mg"},{"bike_id":"f884d1e7-4e51-4344-b28b-ae9aec3fdd7c","system_id":"levelo_inurba_marseille","lat":43.26919,"lon":5.40255,"is_reserved":false,"is_disabled":false,"rental_uris":{"android":"levelo://app?vid=f884d1e7-4e51-4344-b28b-ae9aec3fdd7c","ios":"levelo://app?vid=f884d1e7-4e51-4344-b28b-ae9aec3fdd7c"},"vehicle_type_id":"4","last_reported":1739984933,"current_range_meters":8800,"station_id":"cjm6bp8fraef2m0cb0m0","pricing_plan_id":"cebpf4jnsgd1na2vs0mg"},{"bike_id":"bfe12dbe-a1e3-4f2e-b802-a7ee7c0786d2","system_id":"levelo_inurba_marseille","lat":43.29534,"lon":5.39398,"is_reserved":false,"is_disabled":false,"rental_uris":{"android":"levelo://app?vid=bfe12dbe-a1e3-4f2e-b802-a7ee7c0786d2","ios":"levelo://app?vid=bfe12dbe-a1e3-4f2e-b802-a7ee7c0786d2"},"vehicle_type_id":"4","last_reported":1739984933,"current_range_meters":8800,"station_id":"","pricing_plan_id":"cebpf4jnsgd1na2vs0mg"},{"bike_id":"fb2dcb56-a41a-4581-91e7-410d4fea982c","system_id":"levelo_inurba_marseille","lat":43.28475,"lon":5.3843,"is_reserved":false,"is_disabled":false,"rental_uris":{"android":"levelo://app?vid=fb2dcb56-a41a-4581-91e7-410d4fea982c","ios":"levelo://app?vid=fb2dcb56-a41a-4581-91e7-410d4fea982c"},"vehicle_type_id":"4","last_reported":1739984933,"current_range_meters":8800,"station_id":"ce4bh512rcd13ifvqe3g","pricing_plan_id":"cebpf4jnsgd1na2vs0mg"},{"bike_id":"92b698f7-32bc-4834-b315-a8f6246911d7","system_id":"levelo_inurba_marseille","lat":43.27984,"lon":5.41651,"is_reserved":false,"is_disabled":false,"rental_uris":{"android":"levelo://app?vid=92b698f7-32bc-4834-b315-a8f6246911d7","ios":"levelo://app?vid=92b698f7-32bc-4834-b315-a8f6246911d7"},"vehicle_type_id":"4","last_reported":1739984933,"current_range_meters":9200,"station_id":"ce4bho12rcd13ifvqh1g","pricing_plan_id":"cebpf4jnsgd1na2vs0mg"},{"bike_id":"90de8971-db22-4d27-8c08-4575a12860f9","system_id":"levelo_inurba_marseille","lat":43.27178,"lon":5.41,"is_reserved":false,"is_disabled":false,"rental_uris":{"android":"levelo://app?vid=90de8971-db22-4d27-8c08-4575a12860f9","ios":"levelo://app?vid=90de8971-db22-4d27-8c08-4575a12860f9"},"vehicle_type_id":"4","last_reported":1739984933,"current_range_meters":9200,"station_id":"ce4bhl12rcd13ifvqgf0","pricing_plan_id":"cebpf4jnsgd1na2vs0mg"},{"bike_id":"c2896a85-bd03-44af-9ec9-88cf4b2c2bef","system_id":"levelo_inurba_marseille","lat":43.27369,"lon":5.36246,"is_reserved":false,"is_disabled":false,"rental_uris":{"android":"levelo://app?vid=c2896a85-bd03-44af-9ec9-88cf4b2c2bef","ios":"levelo://app?vid=c2896a85-bd03-44af-9ec9-88cf4b2c2bef"},"vehicle_type_id":"4","last_reported":1739984933,"current_range_meters":9200,"station_id":"","pricing_plan_id":"cebpf4jnsgd1na2vs0mg"},{"bike_id":"5f262edd-a26f-4ae1-a5fc-4a5751f16974","system_id":"levelo_inurba_marseille","lat":43.27565,"lon":5.38423,"is_reserved":false,"is_disabled":false,"rental_uris":{"android":"levelo://app?vid=5f262edd-a26f-4ae1-a5fc-4a5751f16974","ios":"levelo://app?vid=5f262edd-a26f-4ae1-a5fc-4a5751f16974"},"vehicle_type_id":"4","last_reported":1739984933,"current_range_meters":6000,"station_id":"ce4bhh92rcd13ifvqfi0","pricing_plan_id":"cebpf4jnsgd1na2vs0mg"},{"bike_id":"ea1519e7-b5fe-42ac-aa41-a04f66c121d4","system_id":"levelo_inurba_marseille","lat":43.24065,"lon":5.3771,"is_reserved":false,"is_disabled":false,"rental_uris":{"android":"levelo://app?vid=ea1519e7-b5fe-42ac-aa41-a04f66c121d4","ios":"levelo://app?vid=ea1519e7-b5fe-42ac-aa41-a04f66c121d4"},"vehicle_type_id":"4","last_reported":1739984933,"current_range_meters":9200,"station_id":"ce4bhnp2rcd13ifvqgvg","pricing_plan_id":"cebpf4jnsgd1na2vs0mg"},{"bike_id":"7f2b235d-b54a-4ba7-9884-b541f6dd74e7","system_id":"levelo_inurba_marseille","lat":43.2717,"lon":5.40995,"is_reserved":false,"is_disabled":false,"rental_uris":{"android":"levelo://app?vid=7f2b235d-b54a-4ba7-9884-b541f6dd74e7","ios":"levelo://app?vid=7f2b235d-b54a-4ba7-9884-b541f6dd74e7"},"vehicle_type_id":"4","last_reported":1739984933,"current_range_meters":9200,"station_id":"","pricing_plan_id":"cebpf4jnsgd1na2vs0mg"},{"bike_id":"e28843be-a33b-41ca-b991-9b53cffb4db8","system_id":"levelo_inurba_marseille","lat":43.28154,"lon":5.42635,"is_reserved":false,"is_disabled":false,"rental_uris":{"android":"levelo://app?vid=e28843be-a33b-41ca-b991-9b53cffb4db8","ios":"levelo://app?vid=e28843be-a33b-41ca-b991-9b53cffb4db8"},"vehicle_type_id":"4","last_reported":1739984933,"current_range_meters":9600,"station_id":"ce4bhnh2rcd13ifvqgug","pricing_plan_id":"cebpf4jnsgd1na2vs0mg"},{"bike_id":"3d9cf6a6-a0d0-4bd0-8945-b8b397d04077","system_id":"levelo_inurba_marseille","lat":43.2862,"lon":5.351,"is_reserved":false,"is_disabled":false,"rental_uris":{"android":"levelo://app?vid=3d9cf6a6-a0d0-4bd0-8945-b8b397d04077","ios":"levelo://app?vid=3d9cf6a6-a0d0-4bd0-8945-b8b397d04077"},"vehicle_type_id":"4","last_reported":1739984933,"current_range_meters":9600,"station_id":"ce4bhch2rcd13ifvqeug","pricing_plan_id":"cebpf4jnsgd1na2vs0mg"},{"bike_id":"2aa23d50-c11f-4e50-a18f-0ff6951b60d3","system_id":"levelo_inurba_marseille","lat":43.28704,"lon":5.37385,"is_reserved":false,"is_disabled":false,"rental_uris":{"android":"levelo://app?vid=2aa23d50-c11f-4e50-a18f-0ff6951b60d3","ios":"levelo://app?vid=2aa23d50-c11f-4e50-a18f-0ff6951b60d3"},"vehicle_type_id":"4","last_reported":1739984933,"current_range_meters":11200,"station_id":"ce4bh3p2rcd13ifvqdq0","pricing_plan_id":"cebpf4jnsgd1na2vs0mg"},{"bike_id":"13a547cb-0c78-4556-85bf-cb55264b388b","system_id":"levelo_inurba_marseille","lat":43.30882,"lon":5.39649,"is_reserved":false,"is_disabled":false,"rental_uris":{"android":"levelo://app?vid=13a547cb-0c78-4556-85bf-cb55264b388b","ios":"levelo://app?vid=13a547cb-0c78-4556-85bf-cb55264b388b"},"vehicle_type_id":"4","last_reported":1739984933,"current_range_meters":8400,"station_id":"","pricing_plan_id":"cebpf4jnsgd1na2vs0mg"},{"bike_id":"4e1eedec-ed9f-4393-b363-5aa82bc35d39","system_id":"levelo_inurba_marseille","lat":43.27994,"lon":5.41666,"is_reserved":false,"is_disabled":false,"rental_uris":{"android":"levelo://app?vid=4e1eedec-ed9f-4393-b363-5aa82bc35d39","ios":"levelo://app?vid=4e1eedec-ed9f-4393-b363-5aa82bc35d39"},"vehicle_type_id":"4","last_reported":1739984933,"current_range_meters":9600,"station_id":"ce4bho12rcd13ifvqh1g","pricing_plan_id":"cebpf4jnsgd1na2vs0mg"},{"bike_id":"701df2d9-b0e7-41eb-b799-b1776bafebdd","system_id":"levelo_inurba_marseille","lat":43.31084,"lon":5.38345,"is_reserved":false,"is_disabled":false,"rental_uris":{"android":"levelo://app?vid=701df2d9-b0e7-41eb-b799-b1776bafebdd","ios":"levelo://app?vid=701df2d9-b0e7-41eb-b799-b1776bafebdd"},"vehicle_type_id":"4","last_reported":1739984933,"current_range_meters":9600,"station_id":"ce4bgv92rcd13ifvqcr0","pricing_plan_id":"cebpf4jnsgd1na2vs0mg"},{"bike_id":"efc80d1c-380e-4051-ad6a-6b46ae8013c4","system_id":"levelo_inurba_marseille","lat":43.28347,"lon":5.38102,"is_reserved":false,"is_disabled":false,"rental_uris":{"android":"levelo://app?vid=efc80d1c-380e-4051-ad6a-6b46ae8013c4","ios":"levelo://app?vid=efc80d1c-380e-4051-ad6a-6b46ae8013c4"},"vehicle_type_id":"4","last_reported":1739984933,"current_range_meters":9600,"station_id":"","pricing_plan_id":"cebpf4jnsgd1na2vs0mg"},{"bike_id":"9940b6d2-dfd3-4d48-948e-046925c04672","system_id":"levelo_inurba_marseille","lat":43.31117,"lon":5.37783,"is_reserved":false,"is_disabled":false,"rental_uris":{"android":"levelo://app?vid=9940b6d2-dfd3-4d48-948e-046925c04672","ios":"levelo://app?vid=9940b6d2-dfd3-4d48-948e-046925c04672"},"vehicle_type_id":"4","last_reported":1739984933,"current_range_meters":9200,"station_id":"ce4bgt92rcd13ifvqcg0","pricing_plan_id":"cebpf4jnsgd1na2vs0mg"},{"bike_id":"fd714c49-3cae-48d5-a6a6-1b0efdf4c115","system_id":"levelo_inurba_marseille","lat":43.29196,"lon":5.39314,"is_reserved":false,"is_disabled":false,"rental_uris":{"android":"levelo://app?vid=fd714c49-3cae-48d5-a6a6-1b0efdf4c115","ios":"levelo://app?vid=fd714c49-3cae-48d5-a6a6-1b0efdf4c115"},"vehicle_type_id":"4","last_reported":1739984933,"current_range_meters":10000,"station_id":"ce4bh192rcd13ifvqdd0","pricing_plan_id":"cebpf4jnsgd1na2vs0mg"},{"bike_id":"f027fe38-3f5d-42fa-b16a-68ca60104c09","system_id":"levelo_inurba_marseille","lat":43.24173,"lon":5.36406,"is_reserved":false,"is_disabled":false,"rental_uris":{"android":"levelo://app?vid=f027fe38-3f5d-42fa-b16a-68ca60104c09","ios":"levelo://app?vid=f027fe38-3f5d-42fa-b16a-68ca60104c09"},"vehicle_type_id":"4","last_reported":1739984933,"current_range_meters":10000,"station_id":"","pricing_plan_id":"cebpf4jnsgd1na2vs0mg"},{"bike_id":"f8a1eefe-5190-4327-95c3-8138f343fe57","system_id":"levelo_inurba_marseille","lat":43.31179,"lon":5.39345,"is_reserved":false,"is_disabled":false,"rental_uris":{"android":"levelo://app?vid=f8a1eefe-5190-4327-95c3-8138f343fe57","ios":"levelo://app?vid=f8a1eefe-5190-4327-95c3-8138f343fe57"},"vehicle_type_id":"4","last_reported":1739984933,"current_range_meters":10000,"station_id":"","pricing_plan_id":"cebpf4jnsgd1na2vs0mg"},{"bike_id":"4e4afca6-f9d5-43dd-8f6e-b842fe2660b9","system_id":"levelo_inurba_marseille","lat":43.29228,"lon":5.36047,"is_reserved":false,"is_disabled":false,"rental_uris":{"android":"levelo://app?vid=4e4afca6-f9d5-43dd-8f6e-b842fe2660b9","ios":"levelo://app?vid=4e4afca6-f9d5-43dd-8f6e-b842fe2660b9"},"vehicle_type_id":"4","last_reported":1739984933,"current_range_meters":10800,"station_id":"","pricing_plan_id":"cebpf4jnsgd1na2vs0mg"},{"bike_id":"ba0a4dbe-d370-492e-a789-44c6ef69c02b","system_id":"levelo_inurba_marseille","lat":43.28621,"lon":5.35105,"is_reserved":false,"is_disabled":true,"rental_uris":{"android":"levelo://app?vid=ba0a4dbe-d370-492e-a789-44c6ef69c02b","ios":"levelo://app?vid=ba0a4dbe-d370-492e-a789-44c6ef69c02b"},"vehicle_type_id":"4","last_reported":1739984933,"current_range_meters":10800,"station_id":"ce4bhch2rcd13ifvqeug","pricing_plan_id":"cebpf4jnsgd1na2vs0mg"},{"bike_id":"63c4cf47-dbff-4d5e-a88a-080b99df99de","system_id":"levelo_inurba_marseille","lat":43.29509,"lon":5.389,"is_reserved":false,"is_disabled":true,"rental_uris":{"android":"levelo://app?vid=63c4cf47-dbff-4d5e-a88a-080b99df99de","ios":"levelo://app?vid=63c4cf47-dbff-4d5e-a88a-080b99df99de"},"vehicle_type_id":"4","last_reported":1739984933,"current_range_meters":10800,"station_id":"","pricing_plan_id":"cebpf4jnsgd1na2vs0mg"},{"bike_id":"1d63a175-89ef-49ff-9ead-dfe9ed6c22cf","system_id":"levelo_inurba_marseille","lat":43.24693,"lon":5.39437,"is_reserved":false,"is_disabled":false,"rental_uris":{"android":"levelo://app?vid=1d63a175-89ef-49ff-9ead-dfe9ed6c22cf","ios":"levelo://app?vid=1d63a175-89ef-49ff-9ead-dfe9ed6c22cf"},"vehicle_type_id":"4","last_reported":1739984933,"current_range_meters":11200,"station_id":"","pricing_plan_id":"cebpf4jnsgd1na2vs0mg"},{"bike_id":"0d6991fe-3492-4ab6-94b6-d6419f0c3a15","system_id":"levelo_inurba_marseille","lat":43.29265,"lon":5.38449,"is_reserved":false,"is_disabled":false,"rental_uris":{"android":"levelo://app?vid=0d6991fe-3492-4ab6-94b6-d6419f0c3a15","ios":"levelo://app?vid=0d6991fe-3492-4ab6-94b6-d6419f0c3a15"},"vehicle_type_id":"4","last_reported":1739984933,"current_range_meters":10800,"station_id":"ce4bh692rcd13ifvqea0","pricing_plan_id":"cebpf4jnsgd1na2vs0mg"},{"bike_id":"87a627da-e4b0-4a18-8633-fd19bb219ca1","system_id":"levelo_inurba_marseille","lat":43.25014,"lon":5.38894,"is_reserved":false,"is_disabled":false,"rental_uris":{"android":"levelo://app?vid=87a627da-e4b0-4a18-8633-fd19bb219ca1","ios":"levelo://app?vid=87a627da-e4b0-4a18-8633-fd19bb219ca1"},"vehicle_type_id":"4","last_reported":1739984933,"current_range_meters":10800,"station_id":"ce4bhgp2rcd13ifvqfd0","pricing_plan_id":"cebpf4jnsgd1na2vs0mg"},{"bike_id":"3eb011a0-1be5-405c-ba04-527fcbe17bed","system_id":"levelo_inurba_marseille","lat":43.29417,"lon":5.38628,"is_reserved":false,"is_disabled":false,"rental_uris":{"android":"levelo://app?vid=3eb011a0-1be5-405c-ba04-527fcbe17bed","ios":"levelo://app?vid=3eb011a0-1be5-405c-ba04-527fcbe17bed"},"vehicle_type_id":"4","last_reported":1739984933,"current_range_meters":10800,"station_id":"ce4bh2h2rcd13ifvqdh0","pricing_plan_id":"cebpf4jnsgd1na2vs0mg"},{"bike_id":"f4ab7cfc-05ab-4336-ba45-a6bec37325a0","system_id":"levelo_inurba_marseille","lat":43.29524,"lon":5.39049,"is_reserved":false,"is_disabled":false,"rental_uris":{"android":"levelo://app?vid=f4ab7cfc-05ab-4336-ba45-a6bec37325a0","ios":"levelo://app?vid=f4ab7cfc-05ab-4336-ba45-a6bec37325a0"},"vehicle_type_id":"4","last_reported":1739984933,"current_range_meters":10800,"station_id":"ce4bh3p2rcd13ifvqdp0","pricing_plan_id":"cebpf4jnsgd1na2vs0mg"},{"bike_id":"416bf925-8b40-4a86-8c99-164b9c5f1016","system_id":"levelo_inurba_marseille","lat":43.29968,"lon":5.38502,"is_reserved":false,"is_disabled":false,"rental_uris":{"android":"levelo://app?vid=416bf925-8b40-4a86-8c99-164b9c5f1016","ios":"levelo://app?vid=416bf925-8b40-4a86-8c99-164b9c5f1016"},"vehicle_type_id":"4","last_reported":1739984933,"current_range_meters":11200,"station_id":"ce4bgj92rcd13ifvqbd0","pricing_plan_id":"cebpf4jnsgd1na2vs0mg"},{"bike_id":"c67fb496-8441-458a-af2d-8f07c087bdd0","system_id":"levelo_inurba_marseille","lat":43.24179,"lon":5.36394,"is_reserved":false,"is_disabled":true,"rental_uris":{"android":"levelo://app?vid=c67fb496-8441-458a-af2d-8f07c087bdd0","ios":"levelo://app?vid=c67fb496-8441-458a-af2d-8f07c087bdd0"},"vehicle_type_id":"4","last_reported":1739984933,"current_range_meters":11600,"station_id":"","pricing_plan_id":"cebpf4jnsgd1na2vs0mg"},{"bike_id":"2bea66f5-9ac8-4f4c-ab71-f140c00abaff","system_id":"levelo_inurba_marseille","lat":43.29705,"lon":5.36615,"is_reserved":false,"is_disabled":false,"rental_uris":{"android":"levelo://app?vid=2bea66f5-9ac8-4f4c-ab71-f140c00abaff","ios":"levelo://app?vid=2bea66f5-9ac8-4f4c-ab71-f140c00abaff"},"vehicle_type_id":"4","last_reported":1739984933,"current_range_meters":11200,"station_id":"ce4bgn12rcd13ifvqbt0","pricing_plan_id":"cebpf4jnsgd1na2vs0mg"},{"bike_id":"0b1a3b32-459a-4ff9-a388-d16482304482","system_id":"levelo_inurba_marseille","lat":43.28007,"lon":5.39984,"is_reserved":false,"is_disabled":false,"rental_uris":{"android":"levelo://app?vid=0b1a3b32-459a-4ff9-a388-d16482304482","ios":"levelo://app?vid=0b1a3b32-459a-4ff9-a388-d16482304482"},"vehicle_type_id":"4","last_reported":1739984933,"current_range_meters":11600,"station_id":"","pricing_plan_id":"cebpf4jnsgd1na2vs0mg"},{"bike_id":"a00fb5cd-e0d2-4f96-befb-5275c0df0c87","system_id":"levelo_inurba_marseille","lat":43.27991,"lon":5.41662,"is_reserved":false,"is_disabled":false,"rental_uris":{"android":"levelo://app?vid=a00fb5cd-e0d2-4f96-befb-5275c0df0c87","ios":"levelo://app?vid=a00fb5cd-e0d2-4f96-befb-5275c0df0c87"},"vehicle_type_id":"4","last_reported":1739984933,"current_range_meters":11600,"station_id":"ce4bho12rcd13ifvqh1g","pricing_plan_id":"cebpf4jnsgd1na2vs0mg"},{"bike_id":"24dd12c1-4d8a-40c0-b521-a98d2d462c41","system_id":"levelo_inurba_marseille","lat":43.24168,"lon":5.36411,"is_reserved":false,"is_disabled":false,"rental_uris":{"android":"levelo://app?vid=24dd12c1-4d8a-40c0-b521-a98d2d462c41","ios":"levelo://app?vid=24dd12c1-4d8a-40c0-b521-a98d2d462c41"},"vehicle_type_id":"4","last_reported":1739984933,"current_range_meters":11600,"station_id":"","pricing_plan_id":"cebpf4jnsgd1na2vs0mg"},{"bike_id":"ab2ed1d4-97c0-4ceb-9bd7-a33152f09ee8","system_id":"levelo_inurba_marseille","lat":43.2952,"lon":5.37508,"is_reserved":false,"is_disabled":false,"rental_uris":{"android":"levelo://app?vid=ab2ed1d4-97c0-4ceb-9bd7-a33152f09ee8","ios":"levelo://app?vid=ab2ed1d4-97c0-4ceb-9bd7-a33152f09ee8"},"vehicle_type_id":"4","last_reported":1739984933,"current_range_meters":11200,"station_id":"ce4bgkp2rcd13ifvqbmg","pricing_plan_id":"cebpf4jnsgd1na2vs0mg"},{"bike_id":"8e168360-906c-46d1-a5e8-2f11e37e18f2","system_id":"levelo_inurba_marseille","lat":43.2923,"lon":5.36075,"is_reserved":false,"is_disabled":false,"rental_uris":{"android":"levelo://app?vid=8e168360-906c-46d1-a5e8-2f11e37e18f2","ios":"levelo://app?vid=8e168360-906c-46d1-a5e8-2f11e37e18f2"},"vehicle_type_id":"4","last_reported":1739984933,"current_range_meters":12000,"station_id":"ce4bhbh2rcd13ifvqeqg","pricing_plan_id":"cebpf4jnsgd1na2vs0mg"},{"bike_id":"76b1f416-ca79-431d-b280-d4fedf24fe05","system_id":"levelo_inurba_marseille","lat":43.25872,"lon":5.39897,"is_reserved":false,"is_disabled":false,"rental_uris":{"android":"levelo://app?vid=76b1f416-ca79-431d-b280-d4fedf24fe05","ios":"levelo://app?vid=76b1f416-ca79-431d-b280-d4fedf24fe05"},"vehicle_type_id":"4","last_reported":1739984933,"current_range_meters":11600,"station_id":"ce4bhl92rcd13ifvqghg","pricing_plan_id":"cebpf4jnsgd1na2vs0mg"},{"bike_id":"d931b3aa-1545-4d14-b119-8a54d7bb174d","system_id":"levelo_inurba_marseille","lat":43.23194,"lon":5.35554,"is_reserved":false,"is_disabled":false,"rental_uris":{"android":"levelo://app?vid=d931b3aa-1545-4d14-b119-8a54d7bb174d","ios":"levelo://app?vid=d931b3aa-1545-4d14-b119-8a54d7bb174d"},"vehicle_type_id":"4","last_reported":1739984933,"current_range_meters":12000,"station_id":"ce4bhu92rcd13ifvqi70","pricing_plan_id":"cebpf4jnsgd1na2vs0mg"},{"bike_id":"c323e2ff-640f-47b0-bbfe-fac4271a621c","system_id":"levelo_inurba_marseille","lat":43.28429,"lon":5.34993,"is_reserved":false,"is_disabled":true,"rental_uris":{"android":"levelo://app?vid=c323e2ff-640f-47b0-bbfe-fac4271a621c","ios":"levelo://app?vid=c323e2ff-640f-47b0-bbfe-fac4271a621c"},"vehicle_type_id":"4","last_reported":1739984933,"current_range_meters":12400,"station_id":"ce4bhbh2rcd13ifvqepg","pricing_plan_id":"cebpf4jnsgd1na2vs0mg"},{"bike_id":"2bb5e12c-460f-4b13-8951-82c45b079bcd","system_id":"levelo_inurba_marseille","lat":43.26203,"lon":5.37916,"is_reserved":false,"is_disabled":false,"rental_uris":{"android":"levelo://app?vid=2bb5e12c-460f-4b13-8951-82c45b079bcd","ios":"levelo://app?vid=2bb5e12c-460f-4b13-8951-82c45b079bcd"},"vehicle_type_id":"4","last_reported":1739984933,"current_range_meters":12000,"station_id":"ce4bhjp2rcd13ifvqg90","pricing_plan_id":"cebpf4jnsgd1na2vs0mg"},{"bike_id":"39f13087-46d6-40d8-a152-f0dbe5015030","system_id":"levelo_inurba_marseille","lat":43.26212,"lon":5.37441,"is_reserved":false,"is_disabled":false,"rental_uris":{"android":"levelo://app?vid=39f13087-46d6-40d8-a152-f0dbe5015030","ios":"levelo://app?vid=39f13087-46d6-40d8-a152-f0dbe5015030"},"vehicle_type_id":"4","last_reported":1739984933,"current_range_meters":12400,"station_id":"ce4bhgp2rcd13ifvqfc0","pricing_plan_id":"cebpf4jnsgd1na2vs0mg"},{"bike_id":"3fa131c8-d3bf-4fb9-b400-1daf371dcaa7","system_id":"levelo_inurba_marseille","lat":43.27178,"lon":5.40985,"is_reserved":false,"is_disabled":false,"rental_uris":{"android":"levelo://app?vid=3fa131c8-d3bf-4fb9-b400-1daf371dcaa7","ios":"levelo://app?vid=3fa131c8-d3bf-4fb9-b400-1daf371dcaa7"},"vehicle_type_id":"4","last_reported":1739984933,"current_range_meters":12400,"station_id":"ce4bhl12rcd13ifvqgf0","pricing_plan_id":"cebpf4jnsgd1na2vs0mg"},{"bike_id":"e2596add-e568-49b6-a063-b6868f5c61f8","system_id":"levelo_inurba_marseille","lat":43.24822,"lon":5.37464,"is_reserved":false,"is_disabled":false,"rental_uris":{"android":"levelo://app?vid=e2596add-e568-49b6-a063-b6868f5c61f8","ios":"levelo://app?vid=e2596add-e568-49b6-a063-b6868f5c61f8"},"vehicle_type_id":"4","last_reported":1739984933,"current_range_meters":12400,"station_id":"ce4bhgh2rcd13ifvqfb0","pricing_plan_id":"cebpf4jnsgd1na2vs0mg"},{"bike_id":"d0efeee3-2426-46b0-89ff-13ba0740dc10","system_id":"levelo_inurba_marseille","lat":43.26561,"lon":5.39019,"is_reserved":false,"is_disabled":false,"rental_uris":{"android":"levelo://app?vid=d0efeee3-2426-46b0-89ff-13ba0740dc10","ios":"levelo://app?vid=d0efeee3-2426-46b0-89ff-13ba0740dc10"},"vehicle_type_id":"4","last_reported":1739984933,"current_range_meters":12400,"station_id":"ce4bhe12rcd13ifvqf30","pricing_plan_id":"cebpf4jnsgd1na2vs0mg"},{"bike_id":"34d14ec0-9a1d-4d07-8158-52ff5d0c0371","system_id":"levelo_inurba_marseille","lat":43.29421,"lon":5.38043,"is_reserved":false,"is_disabled":false,"rental_uris":{"android":"levelo://app?vid=34d14ec0-9a1d-4d07-8158-52ff5d0c0371","ios":"levelo://app?vid=34d14ec0-9a1d-4d07-8158-52ff5d0c0371"},"vehicle_type_id":"4","last_reported":1739984933,"current_range_meters":12400,"station_id":"","pricing_plan_id":"cebpf4jnsgd1na2vs0mg"},{"bike_id":"2d501f2b-876d-4ebc-927d-8c42a258944b","system_id":"levelo_inurba_marseille","lat":43.271815,"lon":5.409953,"is_reserved":false,"is_disabled":false,"rental_uris":{"android":"levelo://app?vid=2d501f2b-876d-4ebc-927d-8c42a258944b","ios":"levelo://app?vid=2d501f2b-876d-4ebc-927d-8c42a258944b"},"vehicle_type_id":"4","last_reported":1739984933,"current_range_meters":12400,"station_id":"ce4bhl12rcd13ifvqgf0","pricing_plan_id":"cebpf4jnsgd1na2vs0mg"},{"bike_id":"fc971b16-bef3-4b6d-813c-ffc8ffa48842","system_id":"levelo_inurba_marseille","lat":43.2841,"lon":5.34986,"is_reserved":false,"is_disabled":true,"rental_uris":{"android":"levelo://app?vid=fc971b16-bef3-4b6d-813c-ffc8ffa48842","ios":"levelo://app?vid=fc971b16-bef3-4b6d-813c-ffc8ffa48842"},"vehicle_type_id":"4","last_reported":1739984933,"current_range_meters":12400,"station_id":"","pricing_plan_id":"cebpf4jnsgd1na2vs0mg"},{"bike_id":"5180f318-4948-4085-aaf1-5f3160b57dbe","system_id":"levelo_inurba_marseille","lat":43.27619,"lon":5.36107,"is_reserved":false,"is_disabled":true,"rental_uris":{"android":"levelo://app?vid=5180f318-4948-4085-aaf1-5f3160b57dbe","ios":"levelo://app?vid=5180f318-4948-4085-aaf1-5f3160b57dbe"},"vehicle_type_id":"4","last_reported":1739984933,"current_range_meters":12400,"station_id":"","pricing_plan_id":"cebpf4jnsgd1na2vs0mg"},{"bike_id":"5089bb88-a0cd-4434-a1a9-f3d5b67361c6","system_id":"levelo_inurba_marseille","lat":43.24369,"lon":5.38745,"is_reserved":false,"is_disabled":false,"rental_uris":{"android":"levelo://app?vid=5089bb88-a0cd-4434-a1a9-f3d5b67361c6","ios":"levelo://app?vid=5089bb88-a0cd-4434-a1a9-f3d5b67361c6"},"vehicle_type_id":"4","last_reported":1739984933,"current_range_meters":12800,"station_id":"","pricing_plan_id":"cebpf4jnsgd1na2vs0mg"},{"bike_id":"48f9340b-ca18-4bc9-a65e-e98e04a02f2b","system_id":"levelo_inurba_marseille","lat":43.31689,"lon":5.40476,"is_reserved":false,"is_disabled":false,"rental_uris":{"android":"levelo://app?vid=48f9340b-ca18-4bc9-a65e-e98e04a02f2b","ios":"levelo://app?vid=48f9340b-ca18-4bc9-a65e-e98e04a02f2b"},"vehicle_type_id":"4","last_reported":1739984933,"current_range_meters":12800,"station_id":"ce4bh012rcd13ifvqd00","pricing_plan_id":"cebpf4jnsgd1na2vs0mg"},{"bike_id":"b64778c2-2434-4409-b125-e965a1fd469a","system_id":"levelo_inurba_marseille","lat":43.30303,"lon":5.36663,"is_reserved":false,"is_disabled":false,"rental_uris":{"android":"levelo://app?vid=b64778c2-2434-4409-b125-e965a1fd469a","ios":"levelo://app?vid=b64778c2-2434-4409-b125-e965a1fd469a"},"vehicle_type_id":"4","last_reported":1739984933,"current_range_meters":12800,"station_id":"ce4bgs12rcd13ifvqcag","pricing_plan_id":"cebpf4jnsgd1na2vs0mg"},{"bike_id":"6005a7bf-fce7-440d-a11a-9dbca74cb175","system_id":"levelo_inurba_marseille","lat":43.26932,"lon":5.40255,"is_reserved":false,"is_disabled":false,"rental_uris":{"android":"levelo://app?vid=6005a7bf-fce7-440d-a11a-9dbca74cb175","ios":"levelo://app?vid=6005a7bf-fce7-440d-a11a-9dbca74cb175"},"vehicle_type_id":"4","last_reported":1739984933,"current_range_meters":13600,"station_id":"cjm6bp8fraef2m0cb0m0","pricing_plan_id":"cebpf4jnsgd1na2vs0mg"},{"bike_id":"2bd93817-1f74-4f96-b3d8-59a41275adc5","system_id":"levelo_inurba_marseille","lat":43.30127,"lon":5.38779,"is_reserved":false,"is_disabled":false,"rental_uris":{"android":"levelo://app?vid=2bd93817-1f74-4f96-b3d8-59a41275adc5","ios":"levelo://app?vid=2bd93817-1f74-4f96-b3d8-59a41275adc5"},"vehicle_type_id":"4","last_reported":1739984933,"current_range_meters":13600,"station_id":"ce4bghh2rcd13ifvqb60","pricing_plan_id":"cebpf4jnsgd1na2vs0mg"},{"bike_id":"adc46bee-b612-4525-afde-32972de07315","system_id":"levelo_inurba_marseille","lat":43.28927,"lon":5.36634,"is_reserved":false,"is_disabled":false,"rental_uris":{"android":"levelo://app?vid=adc46bee-b612-4525-afde-32972de07315","ios":"levelo://app?vid=adc46bee-b612-4525-afde-32972de07315"},"vehicle_type_id":"4","last_reported":1739984933,"current_range_meters":13600,"station_id":"ce4bhap2rcd13ifvqek0","pricing_plan_id":"cebpf4jnsgd1na2vs0mg"},{"bike_id":"f58e2a98-1119-454f-8dd0-e07177b7b59c","system_id":"levelo_inurba_marseille","lat":43.2892,"lon":5.38388,"is_reserved":false,"is_disabled":false,"rental_uris":{"android":"levelo://app?vid=f58e2a98-1119-454f-8dd0-e07177b7b59c","ios":"levelo://app?vid=f58e2a98-1119-454f-8dd0-e07177b7b59c"},"vehicle_type_id":"4","last_reported":1739984933,"current_range_meters":13600,"station_id":"ce4bh612rcd13ifvqe6g","pricing_plan_id":"cebpf4jnsgd1na2vs0mg"},{"bike_id":"e5863c2f-b1ea-42eb-9a0d-d292be92de01","system_id":"levelo_inurba_marseille","lat":43.29312,"lon":5.37174,"is_reserved":false,"is_disabled":false,"rental_uris":{"android":"levelo://app?vid=e5863c2f-b1ea-42eb-9a0d-d292be92de01","ios":"levelo://app?vid=e5863c2f-b1ea-42eb-9a0d-d292be92de01"},"vehicle_type_id":"4","last_reported":1739984933,"current_range_meters":13600,"station_id":"","pricing_plan_id":"cebpf4jnsgd1na2vs0mg"},{"bike_id":"7e92b6ba-0bde-4467-9679-a632c05baab0","system_id":"levelo_inurba_marseille","lat":43.27941,"lon":5.41048,"is_reserved":false,"is_disabled":false,"rental_uris":{"android":"levelo://app?vid=7e92b6ba-0bde-4467-9679-a632c05baab0","ios":"levelo://app?vid=7e92b6ba-0bde-4467-9679-a632c05baab0"},"vehicle_type_id":"4","last_reported":1739984933,"current_range_meters":13600,"station_id":"","pricing_plan_id":"cebpf4jnsgd1na2vs0mg"},{"bike_id":"0735ae82-0199-4ac9-990c-36a5d2e6c53d","system_id":"levelo_inurba_marseille","lat":43.285723,"lon":5.394989,"is_reserved":false,"is_disabled":false,"rental_uris":{"android":"levelo://app?vid=0735ae82-0199-4ac9-990c-36a5d2e6c53d","ios":"levelo://app?vid=0735ae82-0199-4ac9-990c-36a5d2e6c53d"},"vehicle_type_id":"4","last_reported":1739984933,"current_range_meters":12800,"station_id":"ce4bh292rcd13ifvqdg0","pricing_plan_id":"cebpf4jnsgd1na2vs0mg"},{"bike_id":"38f18a26-3850-4e2c-abb2-e413f686ddec","system_id":"levelo_inurba_marseille","lat":43.28481,"lon":5.38431,"is_reserved":false,"is_disabled":false,"rental_uris":{"android":"levelo://app?vid=38f18a26-3850-4e2c-abb2-e413f686ddec","ios":"levelo://app?vid=38f18a26-3850-4e2c-abb2-e413f686ddec"},"vehicle_type_id":"4","last_reported":1739984933,"current_range_meters":13600,"station_id":"ce4bh512rcd13ifvqe3g","pricing_plan_id":"cebpf4jnsgd1na2vs0mg"},{"bike_id":"ae8b38ba-b786-4de2-81b4-4fdb22432575","system_id":"levelo_inurba_marseille","lat":43.29056,"lon":5.37561,"is_reserved":false,"is_disabled":false,"rental_uris":{"android":"levelo://app?vid=ae8b38ba-b786-4de2-81b4-4fdb22432575","ios":"levelo://app?vid=ae8b38ba-b786-4de2-81b4-4fdb22432575"},"vehicle_type_id":"4","last_reported":1739984933,"current_range_meters":14000,"station_id":"ce4bh692rcd13ifvqe90","pricing_plan_id":"cebpf4jnsgd1na2vs0mg"},{"bike_id":"ecf026df-2bc3-4b40-a624-0ee840e0bf6b","system_id":"levelo_inurba_marseille","lat":43.29966,"lon":5.38497,"is_reserved":false,"is_disabled":false,"rental_uris":{"android":"levelo://app?vid=ecf026df-2bc3-4b40-a624-0ee840e0bf6b","ios":"levelo://app?vid=ecf026df-2bc3-4b40-a624-0ee840e0bf6b"},"vehicle_type_id":"4","last_reported":1739984933,"current_range_meters":14000,"station_id":"ce4bgj92rcd13ifvqbd0","pricing_plan_id":"cebpf4jnsgd1na2vs0mg"},{"bike_id":"516bafe0-5ae1-4584-8a28-800d99267cec","system_id":"levelo_inurba_marseille","lat":43.2794,"lon":5.41036,"is_reserved":false,"is_disabled":false,"rental_uris":{"android":"levelo://app?vid=516bafe0-5ae1-4584-8a28-800d99267cec","ios":"levelo://app?vid=516bafe0-5ae1-4584-8a28-800d99267cec"},"vehicle_type_id":"4","last_reported":1739984933,"current_range_meters":14000,"station_id":"ce4bhnp2rcd13ifvqh0g","pricing_plan_id":"cebpf4jnsgd1na2vs0mg"},{"bike_id":"bb337e70-622e-45f4-8548-138a58817be6","system_id":"levelo_inurba_marseille","lat":43.29528,"lon":5.39048,"is_reserved":false,"is_disabled":false,"rental_uris":{"android":"levelo://app?vid=bb337e70-622e-45f4-8548-138a58817be6","ios":"levelo://app?vid=bb337e70-622e-45f4-8548-138a58817be6"},"vehicle_type_id":"4","last_reported":1739984933,"current_range_meters":14000,"station_id":"ce4bh3p2rcd13ifvqdp0","pricing_plan_id":"cebpf4jnsgd1na2vs0mg"},{"bike_id":"2040ca60-957f-41b0-8f14-6e6d305e0eb0","system_id":"levelo_inurba_marseille","lat":43.29552,"lon":5.42295,"is_reserved":false,"is_disabled":false,"rental_uris":{"android":"levelo://app?vid=2040ca60-957f-41b0-8f14-6e6d305e0eb0","ios":"levelo://app?vid=2040ca60-957f-41b0-8f14-6e6d305e0eb0"},"vehicle_type_id":"4","last_reported":1739984933,"current_range_meters":13600,"station_id":"ce4bhph2rcd13ifvqhdg","pricing_plan_id":"cebpf4jnsgd1na2vs0mg"},{"bike_id":"3860bb6a-6016-4bfe-b3c5-5b64398b66ef","system_id":"levelo_inurba_marseille","lat":43.29509,"lon":5.39419,"is_reserved":false,"is_disabled":false,"rental_uris":{"android":"levelo://app?vid=3860bb6a-6016-4bfe-b3c5-5b64398b66ef","ios":"levelo://app?vid=3860bb6a-6016-4bfe-b3c5-5b64398b66ef"},"vehicle_type_id":"4","last_reported":1739984933,"current_range_meters":14000,"station_id":"ce4bh292rcd13ifvqdf0","pricing_plan_id":"cebpf4jnsgd1na2vs0mg"},{"bike_id":"79b3df49-fc42-4374-8de7-1ea3841d735e","system_id":"levelo_inurba_marseille","lat":43.28612,"lon":5.35102,"is_reserved":false,"is_disabled":false,"rental_uris":{"android":"levelo://app?vid=79b3df49-fc42-4374-8de7-1ea3841d735e","ios":"levelo://app?vid=79b3df49-fc42-4374-8de7-1ea3841d735e"},"vehicle_type_id":"4","last_reported":1739984933,"current_range_meters":14000,"station_id":"ce4bhch2rcd13ifvqeug","pricing_plan_id":"cebpf4jnsgd1na2vs0mg"},{"bike_id":"9fc0862e-fdaa-4007-a370-56b09c93b5ad","system_id":"levelo_inurba_marseille","lat":43.28421,"lon":5.34985,"is_reserved":false,"is_disabled":false,"rental_uris":{"android":"levelo://app?vid=9fc0862e-fdaa-4007-a370-56b09c93b5ad","ios":"levelo://app?vid=9fc0862e-fdaa-4007-a370-56b09c93b5ad"},"vehicle_type_id":"4","last_reported":1739984933,"current_range_meters":14000,"station_id":"","pricing_plan_id":"cebpf4jnsgd1na2vs0mg"},{"bike_id":"5f9ede52-c720-4107-a864-980fb2608395","system_id":"levelo_inurba_marseille","lat":43.24093,"lon":5.38683,"is_reserved":false,"is_disabled":false,"rental_uris":{"android":"levelo://app?vid=5f9ede52-c720-4107-a864-980fb2608395","ios":"levelo://app?vid=5f9ede52-c720-4107-a864-980fb2608395"},"vehicle_type_id":"4","last_reported":1739984933,"current_range_meters":14400,"station_id":"ce4bhb92rcd13ifvqen0","pricing_plan_id":"cebpf4jnsgd1na2vs0mg"},{"bike_id":"0693a902-cb6a-4926-a992-ab47f488379e","system_id":"levelo_inurba_marseille","lat":43.26028,"lon":5.37553,"is_reserved":false,"is_disabled":false,"rental_uris":{"android":"levelo://app?vid=0693a902-cb6a-4926-a992-ab47f488379e","ios":"levelo://app?vid=0693a902-cb6a-4926-a992-ab47f488379e"},"vehicle_type_id":"4","last_reported":1739984933,"current_range_meters":14000,"station_id":"ce4bhgh2rcd13ifvqfa0","pricing_plan_id":"cebpf4jnsgd1na2vs0mg"},{"bike_id":"165a9c74-4b5b-456f-ab13-8994754ee276","system_id":"levelo_inurba_marseille","lat":43.28029,"lon":5.36947,"is_reserved":false,"is_disabled":false,"rental_uris":{"android":"levelo://app?vid=165a9c74-4b5b-456f-ab13-8994754ee276","ios":"levelo://app?vid=165a9c74-4b5b-456f-ab13-8994754ee276"},"vehicle_type_id":"4","last_reported":1739984933,"current_range_meters":14400,"station_id":"ce4bha12rcd13ifvqef0","pricing_plan_id":"cebpf4jnsgd1na2vs0mg"},{"bike_id":"024b6e9c-f57c-43cd-ad16-b4f7101f1f2a","system_id":"levelo_inurba_marseille","lat":43.29421,"lon":5.38621,"is_reserved":false,"is_disabled":false,"rental_uris":{"android":"levelo://app?vid=024b6e9c-f57c-43cd-ad16-b4f7101f1f2a","ios":"levelo://app?vid=024b6e9c-f57c-43cd-ad16-b4f7101f1f2a"},"vehicle_type_id":"4","last_reported":1739984933,"current_range_meters":14400,"station_id":"ce4bh2h2rcd13ifvqdh0","pricing_plan_id":"cebpf4jnsgd1na2vs0mg"},{"bike_id":"9cfc4cc3-b27b-4b5a-8200-8f933e7c4ef5","system_id":"levelo_inurba_marseille","lat":43.32363,"lon":5.38883,"is_reserved":false,"is_disabled":false,"rental_uris":{"android":"levelo://app?vid=9cfc4cc3-b27b-4b5a-8200-8f933e7c4ef5","ios":"levelo://app?vid=9cfc4cc3-b27b-4b5a-8200-8f933e7c4ef5"},"vehicle_type_id":"4","last_reported":1739984933,"current_range_meters":14400,"station_id":"ce4bhqp2rcd13ifvqhog","pricing_plan_id":"cebpf4jnsgd1na2vs0mg"},{"bike_id":"058213af-b61b-486b-8e0a-0a8fd78595de","system_id":"levelo_inurba_marseille","lat":43.23186,"lon":5.39987,"is_reserved":false,"is_disabled":false,"rental_uris":{"android":"levelo://app?vid=058213af-b61b-486b-8e0a-0a8fd78595de","ios":"levelo://app?vid=058213af-b61b-486b-8e0a-0a8fd78595de"},"vehicle_type_id":"4","last_reported":1739984933,"current_range_meters":14400,"station_id":"ce4bhn12rcd13ifvqgqg","pricing_plan_id":"cebpf4jnsgd1na2vs0mg"},{"bike_id":"b85644ed-f65a-4039-a397-da921e97276e","system_id":"levelo_inurba_marseille","lat":43.23971,"lon":5.36629,"is_reserved":false,"is_disabled":false,"rental_uris":{"android":"levelo://app?vid=b85644ed-f65a-4039-a397-da921e97276e","ios":"levelo://app?vid=b85644ed-f65a-4039-a397-da921e97276e"},"vehicle_type_id":"4","last_reported":1739984933,"current_range_meters":14800,"station_id":"ce4bhi12rcd13ifvqfp0","pricing_plan_id":"cebpf4jnsgd1na2vs0mg"},{"bike_id":"a0af3547-0f5a-4ee7-a39d-23ed992db956","system_id":"levelo_inurba_marseille","lat":43.23418,"lon":5.40452,"is_reserved":false,"is_disabled":false,"rental_uris":{"android":"levelo://app?vid=a0af3547-0f5a-4ee7-a39d-23ed992db956","ios":"levelo://app?vid=a0af3547-0f5a-4ee7-a39d-23ed992db956"},"vehicle_type_id":"4","last_reported":1739984933,"current_range_meters":14800,"station_id":"","pricing_plan_id":"cebpf4jnsgd1na2vs0mg"},{"bike_id":"3ce0da4b-6be5-405d-ab23-09c18b300dec","system_id":"levelo_inurba_marseille","lat":43.30604,"lon":5.37229,"is_reserved":false,"is_disabled":false,"rental_uris":{"android":"levelo://app?vid=3ce0da4b-6be5-405d-ab23-09c18b300dec","ios":"levelo://app?vid=3ce0da4b-6be5-405d-ab23-09c18b300dec"},"vehicle_type_id":"4","last_reported":1739984933,"current_range_meters":14400,"station_id":"ce4bgqh2rcd13ifvqc4g","pricing_plan_id":"cebpf4jnsgd1na2vs0mg"},{"bike_id":"4aa6abe0-80c5-41a3-96bc-38b60fcdc5bd","system_id":"levelo_inurba_marseille","lat":43.28847,"lon":5.39311,"is_reserved":false,"is_disabled":false,"rental_uris":{"android":"levelo://app?vid=4aa6abe0-80c5-41a3-96bc-38b60fcdc5bd","ios":"levelo://app?vid=4aa6abe0-80c5-41a3-96bc-38b60fcdc5bd"},"vehicle_type_id":"4","last_reported":1739984933,"current_range_meters":14800,"station_id":"ce4bh2p2rcd13ifvqdi0","pricing_plan_id":"cebpf4jnsgd1na2vs0mg"},{"bike_id":"0d8988ee-12cd-4e51-afd5-bbfa6a97f9e4","system_id":"levelo_inurba_marseille","lat":43.2953,"lon":5.38536,"is_reserved":false,"is_disabled":false,"rental_uris":{"android":"levelo://app?vid=0d8988ee-12cd-4e51-afd5-bbfa6a97f9e4","ios":"levelo://app?vid=0d8988ee-12cd-4e51-afd5-bbfa6a97f9e4"},"vehicle_type_id":"4","last_reported":1739984933,"current_range_meters":14800,"station_id":"ce4bgih2rcd13ifvqba0","pricing_plan_id":"cebpf4jnsgd1na2vs0mg"},{"bike_id":"1615986c-6a0b-41ce-bde5-29ec43b29072","system_id":"levelo_inurba_marseille","lat":43.29313,"lon":5.37185,"is_reserved":false,"is_disabled":false,"rental_uris":{"android":"levelo://app?vid=1615986c-6a0b-41ce-bde5-29ec43b29072","ios":"levelo://app?vid=1615986c-6a0b-41ce-bde5-29ec43b29072"},"vehicle_type_id":"4","last_reported":1739984933,"current_range_meters":14800,"station_id":"ce4bgh92rcd13ifvqb40","pricing_plan_id":"cebpf4jnsgd1na2vs0mg"},{"bike_id":"880db9c7-ba19-41c4-9bf5-cbac874771de","system_id":"levelo_inurba_marseille","lat":43.29969,"lon":5.38494,"is_reserved":false,"is_disabled":false,"rental_uris":{"android":"levelo://app?vid=880db9c7-ba19-41c4-9bf5-cbac874771de","ios":"levelo://app?vid=880db9c7-ba19-41c4-9bf5-cbac874771de"},"vehicle_type_id":"4","last_reported":1739984933,"current_range_meters":14800,"station_id":"ce4bgj92rcd13ifvqbd0","pricing_plan_id":"cebpf4jnsgd1na2vs0mg"},{"bike_id":"5f7bf164-2dd9-4258-9ca3-00f06942bfe8","system_id":"levelo_inurba_marseille","lat":43.3065,"lon":5.40105,"is_reserved":false,"is_disabled":false,"rental_uris":{"android":"levelo://app?vid=5f7bf164-2dd9-4258-9ca3-00f06942bfe8","ios":"levelo://app?vid=5f7bf164-2dd9-4258-9ca3-00f06942bfe8"},"vehicle_type_id":"4","last_reported":1739984933,"current_range_meters":14800,"station_id":"ce4bh112rcd13ifvqda0","pricing_plan_id":"cebpf4jnsgd1na2vs0mg"},{"bike_id":"4da6cc22-4d46-4a7c-8914-7b17d72dd95a","system_id":"levelo_inurba_marseille","lat":43.27176,"lon":5.41003,"is_reserved":false,"is_disabled":false,"rental_uris":{"android":"levelo://app?vid=4da6cc22-4d46-4a7c-8914-7b17d72dd95a","ios":"levelo://app?vid=4da6cc22-4d46-4a7c-8914-7b17d72dd95a"},"vehicle_type_id":"4","last_reported":1739984933,"current_range_meters":14800,"station_id":"ce4bhl12rcd13ifvqgf0","pricing_plan_id":"cebpf4jnsgd1na2vs0mg"},{"bike_id":"1709e476-bef8-4278-9c51-e7f61fd03515","system_id":"levelo_inurba_marseille","lat":43.29788,"lon":5.4039,"is_reserved":false,"is_disabled":false,"rental_uris":{"android":"levelo://app?vid=1709e476-bef8-4278-9c51-e7f61fd03515","ios":"levelo://app?vid=1709e476-bef8-4278-9c51-e7f61fd03515"},"vehicle_type_id":"4","last_reported":1739984933,"current_range_meters":15200,"station_id":"ce4bh112rcd13ifvqd90","pricing_plan_id":"cebpf4jnsgd1na2vs0mg"},{"bike_id":"5428c4a6-2268-45c5-aff9-a5f8e308d92b","system_id":"levelo_inurba_marseille","lat":43.30924,"lon":5.37277,"is_reserved":false,"is_disabled":false,"rental_uris":{"android":"levelo://app?vid=5428c4a6-2268-45c5-aff9-a5f8e308d92b","ios":"levelo://app?vid=5428c4a6-2268-45c5-aff9-a5f8e308d92b"},"vehicle_type_id":"4","last_reported":1739984933,"current_range_meters":15200,"station_id":"ce4bguh2rcd13ifvqckg","pricing_plan_id":"cebpf4jnsgd1na2vs0mg"},{"bike_id":"b390b788-aa53-49e8-92de-c2b58aa681f2","system_id":"levelo_inurba_marseille","lat":43.295748,"lon":5.375043,"is_reserved":false,"is_disabled":false,"rental_uris":{"android":"levelo://app?vid=b390b788-aa53-49e8-92de-c2b58aa681f2","ios":"levelo://app?vid=b390b788-aa53-49e8-92de-c2b58aa681f2"},"vehicle_type_id":"4","last_reported":1739984933,"current_range_meters":15200,"station_id":"","pricing_plan_id":"cebpf4jnsgd1na2vs0mg"},{"bike_id":"c6e8c3b9-ec5c-4133-b203-e4e47c146fe1","system_id":"levelo_inurba_marseille","lat":43.30317,"lon":5.40426,"is_reserved":false,"is_disabled":false,"rental_uris":{"android":"levelo://app?vid=c6e8c3b9-ec5c-4133-b203-e4e47c146fe1","ios":"levelo://app?vid=c6e8c3b9-ec5c-4133-b203-e4e47c146fe1"},"vehicle_type_id":"4","last_reported":1739984933,"current_range_meters":15200,"station_id":"","pricing_plan_id":"cebpf4jnsgd1na2vs0mg"},{"bike_id":"b7ab5be7-26a6-41e9-ac90-414c0b784258","system_id":"levelo_inurba_marseille","lat":43.296,"lon":5.38105,"is_reserved":false,"is_disabled":false,"rental_uris":{"android":"levelo://app?vid=b7ab5be7-26a6-41e9-ac90-414c0b784258","ios":"levelo://app?vid=b7ab5be7-26a6-41e9-ac90-414c0b784258"},"vehicle_type_id":"4","last_reported":1739984933,"current_range_meters":15200,"station_id":"","pricing_plan_id":"cebpf4jnsgd1na2vs0mg"},{"bike_id":"12de31d8-f320-41cd-b081-8464f09fdf94","system_id":"levelo_inurba_marseille","lat":43.29581,"lon":5.36741,"is_reserved":false,"is_disabled":true,"rental_uris":{"android":"levelo://app?vid=12de31d8-f320-41cd-b081-8464f09fdf94","ios":"levelo://app?vid=12de31d8-f320-41cd-b081-8464f09fdf94"},"vehicle_type_id":"4","last_reported":1739984933,"current_range_meters":15200,"station_id":"ce4bgph2rcd13ifvqc2g","pricing_plan_id":"cebpf4jnsgd1na2vs0mg"},{"bike_id":"bd354dd3-6006-4e9f-90f1-63f0410f8583","system_id":"levelo_inurba_marseille","lat":43.27365,"lon":5.36234,"is_reserved":false,"is_disabled":false,"rental_uris":{"android":"levelo://app?vid=bd354dd3-6006-4e9f-90f1-63f0410f8583","ios":"levelo://app?vid=bd354dd3-6006-4e9f-90f1-63f0410f8583"},"vehicle_type_id":"4","last_reported":1739984933,"current_range_meters":15200,"station_id":"ce4bhbh2rcd13ifvqeo0","pricing_plan_id":"cebpf4jnsgd1na2vs0mg"},{"bike_id":"69d83863-ba3f-44d3-b444-b2034cf1c759","system_id":"levelo_inurba_marseille","lat":43.28707,"lon":5.37932,"is_reserved":false,"is_disabled":false,"rental_uris":{"android":"levelo://app?vid=69d83863-ba3f-44d3-b444-b2034cf1c759","ios":"levelo://app?vid=69d83863-ba3f-44d3-b444-b2034cf1c759"},"vehicle_type_id":"4","last_reported":1739984933,"current_range_meters":15200,"station_id":"","pricing_plan_id":"cebpf4jnsgd1na2vs0mg"},{"bike_id":"0ac05ae1-7086-444b-8d5d-b025aa746b5c","system_id":"levelo_inurba_marseille","lat":43.28157,"lon":5.426493,"is_reserved":false,"is_disabled":false,"rental_uris":{"android":"levelo://app?vid=0ac05ae1-7086-444b-8d5d-b025aa746b5c","ios":"levelo://app?vid=0ac05ae1-7086-444b-8d5d-b025aa746b5c"},"vehicle_type_id":"4","last_reported":1739984933,"current_range_meters":14800,"station_id":"ce4bhnh2rcd13ifvqgug","pricing_plan_id":"cebpf4jnsgd1na2vs0mg"},{"bike_id":"409809aa-4fd7-4bf4-a70b-75abe280245e","system_id":"levelo_inurba_marseille","lat":43.30144,"lon":5.39873,"is_reserved":false,"is_disabled":false,"rental_uris":{"android":"levelo://app?vid=409809aa-4fd7-4bf4-a70b-75abe280245e","ios":"levelo://app?vid=409809aa-4fd7-4bf4-a70b-75abe280245e"},"vehicle_type_id":"4","last_reported":1739984933,"current_range_meters":16000,"station_id":"","pricing_plan_id":"cebpf4jnsgd1na2vs0mg"},{"bike_id":"ba379239-9216-4e46-a96c-a73988d910ff","system_id":"levelo_inurba_marseille","lat":43.26489,"lon":5.37146,"is_reserved":false,"is_disabled":false,"rental_uris":{"android":"levelo://app?vid=ba379239-9216-4e46-a96c-a73988d910ff","ios":"levelo://app?vid=ba379239-9216-4e46-a96c-a73988d910ff"},"vehicle_type_id":"4","last_reported":1739984933,"current_range_meters":16000,"station_id":"","pricing_plan_id":"cebpf4jnsgd1na2vs0mg"},{"bike_id":"73f087d5-1513-4d15-bd7d-47d2846f4d16","system_id":"levelo_inurba_marseille","lat":43.29422,"lon":5.38625,"is_reserved":false,"is_disabled":false,"rental_uris":{"android":"levelo://app?vid=73f087d5-1513-4d15-bd7d-47d2846f4d16","ios":"levelo://app?vid=73f087d5-1513-4d15-bd7d-47d2846f4d16"},"vehicle_type_id":"4","last_reported":1739984933,"current_range_meters":16000,"station_id":"ce4bh2h2rcd13ifvqdh0","pricing_plan_id":"cebpf4jnsgd1na2vs0mg"},{"bike_id":"87bfb215-c131-466c-86fa-09b8635eb6a6","system_id":"levelo_inurba_marseille","lat":43.25505,"lon":5.37647,"is_reserved":false,"is_disabled":false,"rental_uris":{"android":"levelo://app?vid=87bfb215-c131-466c-86fa-09b8635eb6a6","ios":"levelo://app?vid=87bfb215-c131-466c-86fa-09b8635eb6a6"},"vehicle_type_id":"4","last_reported":1739984933,"current_range_meters":16000,"station_id":"ce4bhh12rcd13ifvqff0","pricing_plan_id":"cebpf4jnsgd1na2vs0mg"},{"bike_id":"3ad9bcd0-749e-4538-9940-1c6c6fb1aee7","system_id":"levelo_inurba_marseille","lat":43.23178,"lon":5.39988,"is_reserved":false,"is_disabled":false,"rental_uris":{"android":"levelo://app?vid=3ad9bcd0-749e-4538-9940-1c6c6fb1aee7","ios":"levelo://app?vid=3ad9bcd0-749e-4538-9940-1c6c6fb1aee7"},"vehicle_type_id":"4","last_reported":1739984933,"current_range_meters":16000,"station_id":"ce4bhn12rcd13ifvqgqg","pricing_plan_id":"cebpf4jnsgd1na2vs0mg"},{"bike_id":"91b65d6c-4a0d-4f72-adf3-7b0efceda63d","system_id":"levelo_inurba_marseille","lat":43.28153,"lon":5.42665,"is_reserved":false,"is_disabled":false,"rental_uris":{"android":"levelo://app?vid=91b65d6c-4a0d-4f72-adf3-7b0efceda63d","ios":"levelo://app?vid=91b65d6c-4a0d-4f72-adf3-7b0efceda63d"},"vehicle_type_id":"4","last_reported":1739984933,"current_range_meters":16000,"station_id":"ce4bhnh2rcd13ifvqgug","pricing_plan_id":"cebpf4jnsgd1na2vs0mg"},{"bike_id":"a43efb56-516e-4ac1-bd72-d7c9a872e30d","system_id":"levelo_inurba_marseille","lat":43.29339,"lon":5.37129,"is_reserved":false,"is_disabled":false,"rental_uris":{"android":"levelo://app?vid=a43efb56-516e-4ac1-bd72-d7c9a872e30d","ios":"levelo://app?vid=a43efb56-516e-4ac1-bd72-d7c9a872e30d"},"vehicle_type_id":"4","last_reported":1739984933,"current_range_meters":16000,"station_id":"ce4bgh92rcd13ifvqb40","pricing_plan_id":"cebpf4jnsgd1na2vs0mg"},{"bike_id":"810fa50c-c079-4282-9347-f8693da01560","system_id":"levelo_inurba_marseille","lat":43.29555,"lon":5.385713,"is_reserved":false,"is_disabled":false,"rental_uris":{"android":"levelo://app?vid=810fa50c-c079-4282-9347-f8693da01560","ios":"levelo://app?vid=810fa50c-c079-4282-9347-f8693da01560"},"vehicle_type_id":"4","last_reported":1739984933,"current_range_meters":15200,"station_id":"cjm6bp8fraef2m0cb0m0","pricing_plan_id":"cebpf4jnsgd1na2vs0mg"},{"bike_id":"bb1a4c2a-340a-4f5b-b8fd-fd20852a249e","system_id":"levelo_inurba_marseille","lat":43.27635,"lon":5.36117,"is_reserved":false,"is_disabled":false,"rental_uris":{"android":"levelo://app?vid=bb1a4c2a-340a-4f5b-b8fd-fd20852a249e","ios":"levelo://app?vid=bb1a4c2a-340a-4f5b-b8fd-fd20852a249e"},"vehicle_type_id":"4","last_reported":1739984933,"current_range_meters":16000,"station_id":"ce4bgj92rcd13ifvqbe0","pricing_plan_id":"cebpf4jnsgd1na2vs0mg"},{"bike_id":"314f26f7-4bc1-4584-b2c1-8a7e672348f8","system_id":"levelo_inurba_marseille","lat":43.28615,"lon":5.35107,"is_reserved":false,"is_disabled":false,"rental_uris":{"android":"levelo://app?vid=314f26f7-4bc1-4584-b2c1-8a7e672348f8","ios":"levelo://app?vid=314f26f7-4bc1-4584-b2c1-8a7e672348f8"},"vehicle_type_id":"4","last_reported":1739984933,"current_range_meters":16000,"station_id":"ce4bhch2rcd13ifvqeug","pricing_plan_id":"cebpf4jnsgd1na2vs0mg"},{"bike_id":"521c07ee-8f56-418c-9167-93791e255dc4","system_id":"levelo_inurba_marseille","lat":43.28716,"lon":5.37934,"is_reserved":false,"is_disabled":false,"rental_uris":{"android":"levelo://app?vid=521c07ee-8f56-418c-9167-93791e255dc4","ios":"levelo://app?vid=521c07ee-8f56-418c-9167-93791e255dc4"},"vehicle_type_id":"4","last_reported":1739984933,"current_range_meters":16000,"station_id":"ce4bh9p2rcd13ifvqec0","pricing_plan_id":"cebpf4jnsgd1na2vs0mg"},{"bike_id":"c445496b-1882-48af-8df4-1bf8a25b98fc","system_id":"levelo_inurba_marseille","lat":43.31334,"lon":5.39696,"is_reserved":false,"is_disabled":false,"rental_uris":{"android":"levelo://app?vid=c445496b-1882-48af-8df4-1bf8a25b98fc","ios":"levelo://app?vid=c445496b-1882-48af-8df4-1bf8a25b98fc"},"vehicle_type_id":"4","last_reported":1739984933,"current_range_meters":16000,"station_id":"ce4bgvp2rcd13ifvqcu0","pricing_plan_id":"cebpf4jnsgd1na2vs0mg"},{"bike_id":"98d0b29a-b9e0-4585-aece-0e1df278015d","system_id":"levelo_inurba_marseille","lat":43.29783,"lon":5.39367,"is_reserved":false,"is_disabled":false,"rental_uris":{"android":"levelo://app?vid=98d0b29a-b9e0-4585-aece-0e1df278015d","ios":"levelo://app?vid=98d0b29a-b9e0-4585-aece-0e1df278015d"},"vehicle_type_id":"4","last_reported":1739984933,"current_range_meters":16400,"station_id":"chh1huq6cuj3fo74tm60","pricing_plan_id":"cebpf4jnsgd1na2vs0mg"},{"bike_id":"94ce4c1f-b676-43e1-9e28-ed9f6f6c8e2b","system_id":"levelo_inurba_marseille","lat":43.23626,"lon":5.39187,"is_reserved":false,"is_disabled":false,"rental_uris":{"android":"levelo://app?vid=94ce4c1f-b676-43e1-9e28-ed9f6f6c8e2b","ios":"levelo://app?vid=94ce4c1f-b676-43e1-9e28-ed9f6f6c8e2b"},"vehicle_type_id":"4","last_reported":1739984933,"current_range_meters":16400,"station_id":"","pricing_plan_id":"cebpf4jnsgd1na2vs0mg"},{"bike_id":"47791117-3a41-4066-814b-35aaccc0540b","system_id":"levelo_inurba_marseille","lat":43.29879,"lon":5.39731,"is_reserved":false,"is_disabled":false,"rental_uris":{"android":"levelo://app?vid=47791117-3a41-4066-814b-35aaccc0540b","ios":"levelo://app?vid=47791117-3a41-4066-814b-35aaccc0540b"},"vehicle_type_id":"4","last_reported":1739984933,"current_range_meters":16400,"station_id":"ce4bh0h2rcd13ifvqd50","pricing_plan_id":"cebpf4jnsgd1na2vs0mg"},{"bike_id":"014ffc93-64a2-48d7-9e39-bbf14956782c","system_id":"levelo_inurba_marseille","lat":43.27375,"lon":5.3627,"is_reserved":false,"is_disabled":false,"rental_uris":{"android":"levelo://app?vid=014ffc93-64a2-48d7-9e39-bbf14956782c","ios":"levelo://app?vid=014ffc93-64a2-48d7-9e39-bbf14956782c"},"vehicle_type_id":"4","last_reported":1739984933,"current_range_meters":16400,"station_id":"ce4bhbh2rcd13ifvqeo0","pricing_plan_id":"cebpf4jnsgd1na2vs0mg"},{"bike_id":"c9dd56c5-4808-4c92-806e-3728f2d3bee7","system_id":"levelo_inurba_marseille","lat":43.29033,"lon":5.39965,"is_reserved":false,"is_disabled":false,"rental_uris":{"android":"levelo://app?vid=c9dd56c5-4808-4c92-806e-3728f2d3bee7","ios":"levelo://app?vid=c9dd56c5-4808-4c92-806e-3728f2d3bee7"},"vehicle_type_id":"4","last_reported":1739984933,"current_range_meters":16400,"station_id":"ce4bh392rcd13ifvqdm0","pricing_plan_id":"cebpf4jnsgd1na2vs0mg"},{"bike_id":"b76bf30b-8b78-4be0-9668-2a20d616845e","system_id":"levelo_inurba_marseille","lat":43.26582,"lon":5.39032,"is_reserved":false,"is_disabled":false,"rental_uris":{"android":"levelo://app?vid=b76bf30b-8b78-4be0-9668-2a20d616845e","ios":"levelo://app?vid=b76bf30b-8b78-4be0-9668-2a20d616845e"},"vehicle_type_id":"4","last_reported":1739984933,"current_range_meters":16400,"station_id":"ce4bhe12rcd13ifvqf30","pricing_plan_id":"cebpf4jnsgd1na2vs0mg"},{"bike_id":"ea617c3c-16ce-4798-b40b-ce321f9a4ecf","system_id":"levelo_inurba_marseille","lat":43.26065,"lon":5.39392,"is_reserved":false,"is_disabled":false,"rental_uris":{"android":"levelo://app?vid=ea617c3c-16ce-4798-b40b-ce321f9a4ecf","ios":"levelo://app?vid=ea617c3c-16ce-4798-b40b-ce321f9a4ecf"},"vehicle_type_id":"4","last_reported":1739984933,"current_range_meters":16400,"station_id":"ce4bhh92rcd13ifvqfj0","pricing_plan_id":"cebpf4jnsgd1na2vs0mg"},{"bike_id":"efb58bf1-4403-4b9f-b67d-a8970e8c3a7f","system_id":"levelo_inurba_marseille","lat":43.25013,"lon":5.3891,"is_reserved":false,"is_disabled":false,"rental_uris":{"android":"levelo://app?vid=efb58bf1-4403-4b9f-b67d-a8970e8c3a7f","ios":"levelo://app?vid=efb58bf1-4403-4b9f-b67d-a8970e8c3a7f"},"vehicle_type_id":"4","last_reported":1739984933,"current_range_meters":16400,"station_id":"ce4bhgp2rcd13ifvqfd0","pricing_plan_id":"cebpf4jnsgd1na2vs0mg"},{"bike_id":"477ac2db-8f8c-4cbc-8427-0ab644b57a7a","system_id":"levelo_inurba_marseille","lat":43.25011,"lon":5.38909,"is_reserved":false,"is_disabled":false,"rental_uris":{"android":"levelo://app?vid=477ac2db-8f8c-4cbc-8427-0ab644b57a7a","ios":"levelo://app?vid=477ac2db-8f8c-4cbc-8427-0ab644b57a7a"},"vehicle_type_id":"4","last_reported":1739984933,"current_range_meters":16400,"station_id":"ce4bhgp2rcd13ifvqfd0","pricing_plan_id":"cebpf4jnsgd1na2vs0mg"},{"bike_id":"f2766e20-6216-4db5-b598-6cf1b2e2cc30","system_id":"levelo_inurba_marseille","lat":43.29265,"lon":5.38438,"is_reserved":false,"is_disabled":false,"rental_uris":{"android":"levelo://app?vid=f2766e20-6216-4db5-b598-6cf1b2e2cc30","ios":"levelo://app?vid=f2766e20-6216-4db5-b598-6cf1b2e2cc30"},"vehicle_type_id":"4","last_reported":1739984933,"current_range_meters":16400,"station_id":"ce4bh692rcd13ifvqea0","pricing_plan_id":"cebpf4jnsgd1na2vs0mg"},{"bike_id":"bb7326fc-eacf-4a13-8113-3fa0b679fdf5","system_id":"levelo_inurba_marseille","lat":43.30448,"lon":5.38896,"is_reserved":false,"is_disabled":false,"rental_uris":{"android":"levelo://app?vid=bb7326fc-eacf-4a13-8113-3fa0b679fdf5","ios":"levelo://app?vid=bb7326fc-eacf-4a13-8113-3fa0b679fdf5"},"vehicle_type_id":"4","last_reported":1739984933,"current_range_meters":16400,"station_id":"ce4bgk12rcd13ifvqbi0","pricing_plan_id":"cebpf4jnsgd1na2vs0mg"},{"bike_id":"ded0db1a-8604-4a66-a55e-3d2e1afd59a3","system_id":"levelo_inurba_marseille","lat":43.28661,"lon":5.38662,"is_reserved":false,"is_disabled":false,"rental_uris":{"android":"levelo://app?vid=ded0db1a-8604-4a66-a55e-3d2e1afd59a3","ios":"levelo://app?vid=ded0db1a-8604-4a66-a55e-3d2e1afd59a3"},"vehicle_type_id":"4","last_reported":1739984933,"current_range_meters":16400,"station_id":"","pricing_plan_id":"cebpf4jnsgd1na2vs0mg"},{"bike_id":"b7e96173-67d0-4b22-b8f4-4f5e273edc2e","system_id":"levelo_inurba_marseille","lat":43.30841,"lon":5.37329,"is_reserved":false,"is_disabled":false,"rental_uris":{"android":"levelo://app?vid=b7e96173-67d0-4b22-b8f4-4f5e273edc2e","ios":"levelo://app?vid=b7e96173-67d0-4b22-b8f4-4f5e273edc2e"},"vehicle_type_id":"4","last_reported":1739984933,"current_range_meters":16800,"station_id":"","pricing_plan_id":"cebpf4jnsgd1na2vs0mg"},{"bike_id":"4d1248da-d5d9-447e-9080-1ca7ebcc133c","system_id":"levelo_inurba_marseille","lat":43.28006,"lon":5.4168,"is_reserved":false,"is_disabled":false,"rental_uris":{"android":"levelo://app?vid=4d1248da-d5d9-447e-9080-1ca7ebcc133c","ios":"levelo://app?vid=4d1248da-d5d9-447e-9080-1ca7ebcc133c"},"vehicle_type_id":"4","last_reported":1739984933,"current_range_meters":16800,"station_id":"","pricing_plan_id":"cebpf4jnsgd1na2vs0mg"},{"bike_id":"61d78db8-fe38-4198-af1c-c03568f56b3e","system_id":"levelo_inurba_marseille","lat":43.28267,"lon":5.35055,"is_reserved":false,"is_disabled":false,"rental_uris":{"android":"levelo://app?vid=61d78db8-fe38-4198-af1c-c03568f56b3e","ios":"levelo://app?vid=61d78db8-fe38-4198-af1c-c03568f56b3e"},"vehicle_type_id":"4","last_reported":1739984933,"current_range_meters":16800,"station_id":"ce4bhbp2rcd13ifvqerg","pricing_plan_id":"cebpf4jnsgd1na2vs0mg"},{"bike_id":"27d0fd84-d3b6-4a37-9f45-032ef8642608","system_id":"levelo_inurba_marseille","lat":43.27622,"lon":5.361,"is_reserved":false,"is_disabled":false,"rental_uris":{"android":"levelo://app?vid=27d0fd84-d3b6-4a37-9f45-032ef8642608","ios":"levelo://app?vid=27d0fd84-d3b6-4a37-9f45-032ef8642608"},"vehicle_type_id":"4","last_reported":1739984933,"current_range_meters":16800,"station_id":"","pricing_plan_id":"cebpf4jnsgd1na2vs0mg"},{"bike_id":"ad83c156-1bc9-4559-81c1-13cc14a8fb0b","system_id":"levelo_inurba_marseille","lat":43.27937,"lon":5.41047,"is_reserved":false,"is_disabled":false,"rental_uris":{"android":"levelo://app?vid=ad83c156-1bc9-4559-81c1-13cc14a8fb0b","ios":"levelo://app?vid=ad83c156-1bc9-4559-81c1-13cc14a8fb0b"},"vehicle_type_id":"4","last_reported":1739984933,"current_range_meters":16800,"station_id":"ce4bhnp2rcd13ifvqh0g","pricing_plan_id":"cebpf4jnsgd1na2vs0mg"},{"bike_id":"0ebe3bbe-3312-4854-8c5c-e41de3dd3614","system_id":"levelo_inurba_marseille","lat":43.27934,"lon":5.38686,"is_reserved":false,"is_disabled":false,"rental_uris":{"android":"levelo://app?vid=0ebe3bbe-3312-4854-8c5c-e41de3dd3614","ios":"levelo://app?vid=0ebe3bbe-3312-4854-8c5c-e41de3dd3614"},"vehicle_type_id":"4","last_reported":1739984933,"current_range_meters":16800,"station_id":"","pricing_plan_id":"cebpf4jnsgd1na2vs0mg"},{"bike_id":"9bcbb914-a73f-43bf-ad9e-8c0cd62ece95","system_id":"levelo_inurba_marseille","lat":43.29158,"lon":5.37165,"is_reserved":false,"is_disabled":false,"rental_uris":{"android":"levelo://app?vid=9bcbb914-a73f-43bf-ad9e-8c0cd62ece95","ios":"levelo://app?vid=9bcbb914-a73f-43bf-ad9e-8c0cd62ece95"},"vehicle_type_id":"4","last_reported":1739984933,"current_range_meters":16800,"station_id":"ce4bha92rcd13ifvqeh0","pricing_plan_id":"cebpf4jnsgd1na2vs0mg"},{"bike_id":"120b247a-507b-4235-b1ec-6e042bead08a","system_id":"levelo_inurba_marseille","lat":43.30531,"lon":5.3671,"is_reserved":false,"is_disabled":false,"rental_uris":{"android":"levelo://app?vid=120b247a-507b-4235-b1ec-6e042bead08a","ios":"levelo://app?vid=120b247a-507b-4235-b1ec-6e042bead08a"},"vehicle_type_id":"4","last_reported":1739984933,"current_range_meters":16400,"station_id":"ce4bgrp2rcd13ifvqc9g","pricing_plan_id":"cebpf4jnsgd1na2vs0mg"},{"bike_id":"10d9049b-1c9b-44e3-8b92-100ce5e9a489","system_id":"levelo_inurba_marseille","lat":43.24806,"lon":5.37458,"is_reserved":false,"is_disabled":false,"rental_uris":{"android":"levelo://app?vid=10d9049b-1c9b-44e3-8b92-100ce5e9a489","ios":"levelo://app?vid=10d9049b-1c9b-44e3-8b92-100ce5e9a489"},"vehicle_type_id":"4","last_reported":1739984933,"current_range_meters":16800,"station_id":"ce4bhgh2rcd13ifvqfb0","pricing_plan_id":"cebpf4jnsgd1na2vs0mg"},{"bike_id":"a1a2b460-b478-43af-913b-5e3f11e44138","system_id":"levelo_inurba_marseille","lat":43.27189,"lon":5.38274,"is_reserved":false,"is_disabled":false,"rental_uris":{"android":"levelo://app?vid=a1a2b460-b478-43af-913b-5e3f11e44138","ios":"levelo://app?vid=a1a2b460-b478-43af-913b-5e3f11e44138"},"vehicle_type_id":"4","last_reported":1739984933,"current_range_meters":17200,"station_id":"","pricing_plan_id":"cebpf4jnsgd1na2vs0mg"},{"bike_id":"70b29375-6369-4c56-96c2-6d8be4e5d1b3","system_id":"levelo_inurba_marseille","lat":43.29586,"lon":5.36743,"is_reserved":false,"is_disabled":false,"rental_uris":{"android":"levelo://app?vid=70b29375-6369-4c56-96c2-6d8be4e5d1b3","ios":"levelo://app?vid=70b29375-6369-4c56-96c2-6d8be4e5d1b3"},"vehicle_type_id":"4","last_reported":1739984933,"current_range_meters":16800,"station_id":"ce4bgph2rcd13ifvqc2g","pricing_plan_id":"cebpf4jnsgd1na2vs0mg"},{"bike_id":"d9102e21-6294-472e-8da2-16dfb746ec2b","system_id":"levelo_inurba_marseille","lat":43.28138,"lon":5.4457,"is_reserved":false,"is_disabled":false,"rental_uris":{"android":"levelo://app?vid=d9102e21-6294-472e-8da2-16dfb746ec2b","ios":"levelo://app?vid=d9102e21-6294-472e-8da2-16dfb746ec2b"},"vehicle_type_id":"4","last_reported":1739984933,"current_range_meters":16800,"station_id":"ce4bhnh2rcd13ifvqgtg","pricing_plan_id":"cebpf4jnsgd1na2vs0mg"},{"bike_id":"8becd64c-893d-4a08-8876-b1598e031c70","system_id":"levelo_inurba_marseille","lat":43.27952,"lon":5.387,"is_reserved":false,"is_disabled":true,"rental_uris":{"android":"levelo://app?vid=8becd64c-893d-4a08-8876-b1598e031c70","ios":"levelo://app?vid=8becd64c-893d-4a08-8876-b1598e031c70"},"vehicle_type_id":"4","last_reported":1739984933,"current_range_meters":17200,"station_id":"","pricing_plan_id":"cebpf4jnsgd1na2vs0mg"},{"bike_id":"b992f9c6-8cd4-4847-bf21-0b493529cfb3","system_id":"levelo_inurba_marseille","lat":43.27487,"lon":5.42459,"is_reserved":false,"is_disabled":false,"rental_uris":{"android":"levelo://app?vid=b992f9c6-8cd4-4847-bf21-0b493529cfb3","ios":"levelo://app?vid=b992f9c6-8cd4-4847-bf21-0b493529cfb3"},"vehicle_type_id":"4","last_reported":1739984933,"current_range_meters":17200,"station_id":"ce4bhn92rcd13ifvqgrg","pricing_plan_id":"cebpf4jnsgd1na2vs0mg"},{"bike_id":"943618dd-7514-4f47-83fd-27b10f2d6c29","system_id":"levelo_inurba_marseille","lat":43.28455,"lon":5.35892,"is_reserved":false,"is_disabled":false,"rental_uris":{"android":"levelo://app?vid=943618dd-7514-4f47-83fd-27b10f2d6c29","ios":"levelo://app?vid=943618dd-7514-4f47-83fd-27b10f2d6c29"},"vehicle_type_id":"4","last_reported":1739984933,"current_range_meters":17200,"station_id":"ce4bhah2rcd13ifvqei0","pricing_plan_id":"cebpf4jnsgd1na2vs0mg"},{"bike_id":"987de0c2-b9bd-4bef-ba52-5ce350e4cb1b","system_id":"levelo_inurba_marseille","lat":43.27975,"lon":5.41645,"is_reserved":false,"is_disabled":false,"rental_uris":{"android":"levelo://app?vid=987de0c2-b9bd-4bef-ba52-5ce350e4cb1b","ios":"levelo://app?vid=987de0c2-b9bd-4bef-ba52-5ce350e4cb1b"},"vehicle_type_id":"4","last_reported":1739984933,"current_range_meters":17200,"station_id":"ce4bho12rcd13ifvqh1g","pricing_plan_id":"cebpf4jnsgd1na2vs0mg"},{"bike_id":"52cf7aa2-427a-4edb-b05e-19231b34b4b2","system_id":"levelo_inurba_marseille","lat":43.27912,"lon":5.38007,"is_reserved":false,"is_disabled":false,"rental_uris":{"android":"levelo://app?vid=52cf7aa2-427a-4edb-b05e-19231b34b4b2","ios":"levelo://app?vid=52cf7aa2-427a-4edb-b05e-19231b34b4b2"},"vehicle_type_id":"4","last_reported":1739984933,"current_range_meters":17200,"station_id":"ce4bhf92rcd13ifvqf50","pricing_plan_id":"cebpf4jnsgd1na2vs0mg"},{"bike_id":"66b5a43e-2798-4c72-8acc-33d23152963b","system_id":"levelo_inurba_marseille","lat":43.27172,"lon":5.41003,"is_reserved":false,"is_disabled":false,"rental_uris":{"android":"levelo://app?vid=66b5a43e-2798-4c72-8acc-33d23152963b","ios":"levelo://app?vid=66b5a43e-2798-4c72-8acc-33d23152963b"},"vehicle_type_id":"4","last_reported":1739984933,"current_range_meters":17600,"station_id":"ce4bhl12rcd13ifvqgf0","pricing_plan_id":"cebpf4jnsgd1na2vs0mg"},{"bike_id":"52155fa7-954b-4dc8-8b56-6d021fcbd504","system_id":"levelo_inurba_marseille","lat":43.28456,"lon":5.35897,"is_reserved":false,"is_disabled":false,"rental_uris":{"android":"levelo://app?vid=52155fa7-954b-4dc8-8b56-6d021fcbd504","ios":"levelo://app?vid=52155fa7-954b-4dc8-8b56-6d021fcbd504"},"vehicle_type_id":"4","last_reported":1739984933,"current_range_meters":17200,"station_id":"","pricing_plan_id":"cebpf4jnsgd1na2vs0mg"},{"bike_id":"635050f9-a2c9-4910-8267-ff5a32e2982d","system_id":"levelo_inurba_marseille","lat":43.24796,"lon":5.3748,"is_reserved":false,"is_disabled":false,"rental_uris":{"android":"levelo://app?vid=635050f9-a2c9-4910-8267-ff5a32e2982d","ios":"levelo://app?vid=635050f9-a2c9-4910-8267-ff5a32e2982d"},"vehicle_type_id":"4","last_reported":1739984933,"current_range_meters":17200,"station_id":"ce4bhgh2rcd13ifvqfb0","pricing_plan_id":"cebpf4jnsgd1na2vs0mg"},{"bike_id":"89120731-9eaf-49d1-b6f6-cea5adc1682f","system_id":"levelo_inurba_marseille","lat":43.28745,"lon":5.3829,"is_reserved":false,"is_disabled":false,"rental_uris":{"android":"levelo://app?vid=89120731-9eaf-49d1-b6f6-cea5adc1682f","ios":"levelo://app?vid=89120731-9eaf-49d1-b6f6-cea5adc1682f"},"vehicle_type_id":"4","last_reported":1739984933,"current_range_meters":17600,"station_id":"","pricing_plan_id":"cebpf4jnsgd1na2vs0mg"},{"bike_id":"02294ecb-63f1-466c-86e6-f94378485dff","system_id":"levelo_inurba_marseille","lat":43.28153,"lon":5.42637,"is_reserved":false,"is_disabled":false,"rental_uris":{"android":"levelo://app?vid=02294ecb-63f1-466c-86e6-f94378485dff","ios":"levelo://app?vid=02294ecb-63f1-466c-86e6-f94378485dff"},"vehicle_type_id":"4","last_reported":1739984933,"current_range_meters":17600,"station_id":"ce4bhnh2rcd13ifvqgug","pricing_plan_id":"cebpf4jnsgd1na2vs0mg"},{"bike_id":"e956489c-4de5-4355-bd47-a7412cd3df33","system_id":"levelo_inurba_marseille","lat":43.29031,"lon":5.38649,"is_reserved":false,"is_disabled":false,"rental_uris":{"android":"levelo://app?vid=e956489c-4de5-4355-bd47-a7412cd3df33","ios":"levelo://app?vid=e956489c-4de5-4355-bd47-a7412cd3df33"},"vehicle_type_id":"4","last_reported":1739984933,"current_range_meters":17600,"station_id":"ce4bh4p2rcd13ifvqe0g","pricing_plan_id":"cebpf4jnsgd1na2vs0mg"},{"bike_id":"75673006-1fda-46a1-a573-0e1cfeae28aa","system_id":"levelo_inurba_marseille","lat":43.29485,"lon":5.38274,"is_reserved":false,"is_disabled":false,"rental_uris":{"android":"levelo://app?vid=75673006-1fda-46a1-a573-0e1cfeae28aa","ios":"levelo://app?vid=75673006-1fda-46a1-a573-0e1cfeae28aa"},"vehicle_type_id":"4","last_reported":1739984933,"current_range_meters":17600,"station_id":"","pricing_plan_id":"cebpf4jnsgd1na2vs0mg"},{"bike_id":"d3d9202f-22fc-4bb8-b90c-22f4482bdc39","system_id":"levelo_inurba_marseille","lat":43.29364,"lon":5.42836,"is_reserved":false,"is_disabled":false,"rental_uris":{"android":"levelo://app?vid=d3d9202f-22fc-4bb8-b90c-22f4482bdc39","ios":"levelo://app?vid=d3d9202f-22fc-4bb8-b90c-22f4482bdc39"},"vehicle_type_id":"4","last_reported":1739984933,"current_range_meters":17600,"station_id":"","pricing_plan_id":"cebpf4jnsgd1na2vs0mg"},{"bike_id":"4e48984c-bdf0-48b5-981b-4d98b5680fd4","system_id":"levelo_inurba_marseille","lat":43.28993,"lon":5.3783,"is_reserved":false,"is_disabled":false,"rental_uris":{"android":"levelo://app?vid=4e48984c-bdf0-48b5-981b-4d98b5680fd4","ios":"levelo://app?vid=4e48984c-bdf0-48b5-981b-4d98b5680fd4"},"vehicle_type_id":"4","last_reported":1739984933,"current_range_meters":17200,"station_id":"ce4bh9p2rcd13ifvqed0","pricing_plan_id":"cebpf4jnsgd1na2vs0mg"},{"bike_id":"0f119bb9-42f5-484d-a273-90a601312646","system_id":"levelo_inurba_marseille","lat":43.27072,"lon":5.42302,"is_reserved":false,"is_disabled":false,"rental_uris":{"android":"levelo://app?vid=0f119bb9-42f5-484d-a273-90a601312646","ios":"levelo://app?vid=0f119bb9-42f5-484d-a273-90a601312646"},"vehicle_type_id":"4","last_reported":1739984933,"current_range_meters":17600,"station_id":"ce4bhk92rcd13ifvqgb0","pricing_plan_id":"cebpf4jnsgd1na2vs0mg"},{"bike_id":"3bad0b07-fa7a-4cc7-9650-b1214bfaef19","system_id":"levelo_inurba_marseille","lat":43.28155,"lon":5.42631,"is_reserved":false,"is_disabled":false,"rental_uris":{"android":"levelo://app?vid=3bad0b07-fa7a-4cc7-9650-b1214bfaef19","ios":"levelo://app?vid=3bad0b07-fa7a-4cc7-9650-b1214bfaef19"},"vehicle_type_id":"4","last_reported":1739984933,"current_range_meters":18000,"station_id":"ce4bhnh2rcd13ifvqgug","pricing_plan_id":"cebpf4jnsgd1na2vs0mg"},{"bike_id":"f3ebb227-5c43-44a3-8891-0958fbfe05f7","system_id":"levelo_inurba_marseille","lat":43.28153,"lon":5.4264,"is_reserved":false,"is_disabled":false,"rental_uris":{"android":"levelo://app?vid=f3ebb227-5c43-44a3-8891-0958fbfe05f7","ios":"levelo://app?vid=f3ebb227-5c43-44a3-8891-0958fbfe05f7"},"vehicle_type_id":"4","last_reported":1739984933,"current_range_meters":18000,"station_id":"ce4bhnh2rcd13ifvqgug","pricing_plan_id":"cebpf4jnsgd1na2vs0mg"},{"bike_id":"acc4b452-e0c9-41b2-a5ff-d1b691aad6af","system_id":"levelo_inurba_marseille","lat":43.28975,"lon":5.37828,"is_reserved":false,"is_disabled":false,"rental_uris":{"android":"levelo://app?vid=acc4b452-e0c9-41b2-a5ff-d1b691aad6af","ios":"levelo://app?vid=acc4b452-e0c9-41b2-a5ff-d1b691aad6af"},"vehicle_type_id":"4","last_reported":1739984933,"current_range_meters":18000,"station_id":"ce4bh9p2rcd13ifvqed0","pricing_plan_id":"cebpf4jnsgd1na2vs0mg"},{"bike_id":"378a21a7-b1ec-4051-850d-b470f3510d96","system_id":"levelo_inurba_marseille","lat":43.26787,"lon":5.40247,"is_reserved":false,"is_disabled":true,"rental_uris":{"android":"levelo://app?vid=378a21a7-b1ec-4051-850d-b470f3510d96","ios":"levelo://app?vid=378a21a7-b1ec-4051-850d-b470f3510d96"},"vehicle_type_id":"4","last_reported":1739984933,"current_range_meters":18000,"station_id":"ce501612rcd8frsf0b60","pricing_plan_id":"cebpf4jnsgd1na2vs0mg"},{"bike_id":"867e49ca-1fcf-4c4a-b641-c20eee771353","system_id":"levelo_inurba_marseille","lat":43.28178,"lon":5.42606,"is_reserved":false,"is_disabled":false,"rental_uris":{"android":"levelo://app?vid=867e49ca-1fcf-4c4a-b641-c20eee771353","ios":"levelo://app?vid=867e49ca-1fcf-4c4a-b641-c20eee771353"},"vehicle_type_id":"4","last_reported":1739984933,"current_range_meters":18000,"station_id":"","pricing_plan_id":"cebpf4jnsgd1na2vs0mg"},{"bike_id":"304b9cfa-70a7-4934-bcbe-21408de9d9aa","system_id":"levelo_inurba_marseille","lat":43.337444,"lon":5.374475,"is_reserved":false,"is_disabled":false,"rental_uris":{"android":"levelo://app?vid=304b9cfa-70a7-4934-bcbe-21408de9d9aa","ios":"levelo://app?vid=304b9cfa-70a7-4934-bcbe-21408de9d9aa"},"vehicle_type_id":"4","last_reported":1739984933,"current_range_meters":18000,"station_id":"","pricing_plan_id":"cebpf4jnsgd1na2vs0mg"},{"bike_id":"9017b728-f7fc-4589-9f6c-11332b186e17","system_id":"levelo_inurba_marseille","lat":43.28621,"lon":5.35108,"is_reserved":false,"is_disabled":false,"rental_uris":{"android":"levelo://app?vid=9017b728-f7fc-4589-9f6c-11332b186e17","ios":"levelo://app?vid=9017b728-f7fc-4589-9f6c-11332b186e17"},"vehicle_type_id":"4","last_reported":1739984933,"current_range_meters":18000,"station_id":"ce4bhch2rcd13ifvqeug","pricing_plan_id":"cebpf4jnsgd1na2vs0mg"},{"bike_id":"03bb80d2-2d58-477e-8d77-d8a9b94a8f21","system_id":"levelo_inurba_marseille","lat":43.23769,"lon":5.40331,"is_reserved":false,"is_disabled":false,"rental_uris":{"android":"levelo://app?vid=03bb80d2-2d58-477e-8d77-d8a9b94a8f21","ios":"levelo://app?vid=03bb80d2-2d58-477e-8d77-d8a9b94a8f21"},"vehicle_type_id":"4","last_reported":1739984933,"current_range_meters":18000,"station_id":"","pricing_plan_id":"cebpf4jnsgd1na2vs0mg"},{"bike_id":"3addd8d2-327f-4e60-8639-267e28d7c956","system_id":"levelo_inurba_marseille","lat":43.28684,"lon":5.38659,"is_reserved":false,"is_disabled":true,"rental_uris":{"android":"levelo://app?vid=3addd8d2-327f-4e60-8639-267e28d7c956","ios":"levelo://app?vid=3addd8d2-327f-4e60-8639-267e28d7c956"},"vehicle_type_id":"4","last_reported":1739984933,"current_range_meters":18000,"station_id":"","pricing_plan_id":"cebpf4jnsgd1na2vs0mg"},{"bike_id":"341eda14-d478-4084-a980-a1fd1bb4813d","system_id":"levelo_inurba_marseille","lat":43.29866,"lon":5.39743,"is_reserved":false,"is_disabled":false,"rental_uris":{"android":"levelo://app?vid=341eda14-d478-4084-a980-a1fd1bb4813d","ios":"levelo://app?vid=341eda14-d478-4084-a980-a1fd1bb4813d"},"vehicle_type_id":"4","last_reported":1739984933,"current_range_meters":18000,"station_id":"ce4bh0h2rcd13ifvqd50","pricing_plan_id":"cebpf4jnsgd1na2vs0mg"},{"bike_id":"1c1b6190-8f87-4e62-9ee5-52109eb9bd65","system_id":"levelo_inurba_marseille","lat":43.29091,"lon":5.38149,"is_reserved":false,"is_disabled":false,"rental_uris":{"android":"levelo://app?vid=1c1b6190-8f87-4e62-9ee5-52109eb9bd65","ios":"levelo://app?vid=1c1b6190-8f87-4e62-9ee5-52109eb9bd65"},"vehicle_type_id":"4","last_reported":1739984933,"current_range_meters":18000,"station_id":"ce4bh512rcd13ifvqe2g","pricing_plan_id":"cebpf4jnsgd1na2vs0mg"},{"bike_id":"24b034ae-81d8-4b0e-9d7b-9309f18a47ae","system_id":"levelo_inurba_marseille","lat":43.29142,"lon":5.3722,"is_reserved":false,"is_disabled":false,"rental_uris":{"android":"levelo://app?vid=24b034ae-81d8-4b0e-9d7b-9309f18a47ae","ios":"levelo://app?vid=24b034ae-81d8-4b0e-9d7b-9309f18a47ae"},"vehicle_type_id":"4","last_reported":1739984933,"current_range_meters":18800,"station_id":"","pricing_plan_id":"cebpf4jnsgd1na2vs0mg"},{"bike_id":"8eae0fcf-0a46-4111-95a0-cbaaf0f91e6b","system_id":"levelo_inurba_marseille","lat":43.2655,"lon":5.38991,"is_reserved":false,"is_disabled":false,"rental_uris":{"android":"levelo://app?vid=8eae0fcf-0a46-4111-95a0-cbaaf0f91e6b","ios":"levelo://app?vid=8eae0fcf-0a46-4111-95a0-cbaaf0f91e6b"},"vehicle_type_id":"4","last_reported":1739984933,"current_range_meters":18800,"station_id":"ce4bhe12rcd13ifvqf30","pricing_plan_id":"cebpf4jnsgd1na2vs0mg"},{"bike_id":"f802167e-d16e-41e3-84f4-84ca4123d2a1","system_id":"levelo_inurba_marseille","lat":43.30429,"lon":5.38887,"is_reserved":false,"is_disabled":false,"rental_uris":{"android":"levelo://app?vid=f802167e-d16e-41e3-84f4-84ca4123d2a1","ios":"levelo://app?vid=f802167e-d16e-41e3-84f4-84ca4123d2a1"},"vehicle_type_id":"4","last_reported":1739984933,"current_range_meters":18800,"station_id":"ce4bgk12rcd13ifvqbi0","pricing_plan_id":"cebpf4jnsgd1na2vs0mg"},{"bike_id":"332a3b8a-e8cc-413f-b839-9b8886a5a0d7","system_id":"levelo_inurba_marseille","lat":43.27327,"lon":5.39077,"is_reserved":false,"is_disabled":false,"rental_uris":{"android":"levelo://app?vid=332a3b8a-e8cc-413f-b839-9b8886a5a0d7","ios":"levelo://app?vid=332a3b8a-e8cc-413f-b839-9b8886a5a0d7"},"vehicle_type_id":"4","last_reported":1739984933,"current_range_meters":18800,"station_id":"ce4bhgp2rcd13ifvqfe0","pricing_plan_id":"cebpf4jnsgd1na2vs0mg"},{"bike_id":"88d9ddc6-5e29-4162-be9f-7100a02ebaf2","system_id":"levelo_inurba_marseille","lat":43.28958,"lon":5.36424,"is_reserved":false,"is_disabled":false,"rental_uris":{"android":"levelo://app?vid=88d9ddc6-5e29-4162-be9f-7100a02ebaf2","ios":"levelo://app?vid=88d9ddc6-5e29-4162-be9f-7100a02ebaf2"},"vehicle_type_id":"4","last_reported":1739984933,"current_range_meters":18800,"station_id":"ce4bhc92rcd13ifvqetg","pricing_plan_id":"cebpf4jnsgd1na2vs0mg"},