{"last_updated":1678918023,"ttl":30,"version":"2.2","data":{"bikes":[{"bike_id":"d5303c33-c264-4c8e-b4a7-af4efce063e8","system_id":"levelo_inurba_marseille","lat":43.309076,"lon":5.368465,"is_reserved":false,"is_disabled":false,"rental_uris":{"android":"levelo://app?vid=d5303c33-c264-4c8e-b4a7-af4efce063e8","ios":"levelo://app?vid=d5303c33-c264-4c8e-b4a7-af4efce063e8"},"vehicle_type_id":"4","last_reported":1678918024,"current_range_meters":13200,"station_id":"ce4bgn92rcd13ifvqbvg","pricing_plan_id":"free"},{"bike_id":"2545c870-b5c1-4109-a878-063585f31bfb","system_id":"levelo_inurba_marseille","lat":43.314811,"lon":5.373103,"is_reserved":false,"is_disabled":false,"rental_uris":{"android":"levelo://app?vid=2545c870-b5c1-4109-a878-063585f31bfb","ios":"levelo://app?vid=2545c870-b5c1-4109-a878-063585f31bfb"},"vehicle_type_id":"4","last_reported":1678918024,"current_range_meters":0,"station_id":"ce4bgt12rcd13ifvqcd0","pricing_plan_id":"free"},{"bike_id":"e3f1e178-e954-4c4c-a19b-de7fa9acc09b","system_id":"levelo_inurba_marseille","lat":43.308614,"lon":5.372098,"is_reserved":false,"is_disabled":false,"rental_uris":{"android":"levelo://app?vid=e3f1e178-e954-4c4c-a19b-de7fa9acc09b","ios":"levelo://app?vid=e3f1e178-e954-4c4c-a19b-de7fa9acc09b"},"vehicle_type_id":"4","last_reported":1678918024,"current_range_meters":1600,"station_id":"ce4bguh2rcd13ifvqckg","pricing_plan_id":"free"},{"bike_id":"7b24eb50-39f3-4e58-b91a-44546fcd7185","system_id":"levelo_inurba_marseille","lat":43.31705,"lon":5.37755,"is_reserved":false,"is_disabled":false,"rental_uris":{"android":"levelo://app?vid=7b24eb50-39f3-4e58-b91a-44546fcd7185","ios":"levelo://app?vid=7b24eb50-39f3-4e58-b91a-44546fcd7185"},"vehicle_type_id":"4","last_reported":1678918024,"current_range_meters":31600,"station_id":"ce4bgth2rcd13ifvqch0","pricing_plan_id":"free"},{"bike_id":"591c58d8-2723-46a9-b188-96cf2d3843fd","system_id":"levelo_inurba_marseille","lat":43.308012,"lon":5.381511,"is_reserved":false,"is_disabled":false,"rental_uris":{"android":"levelo://app?vid=591c58d8-2723-46a9-b188-96cf2d3843fd","ios":"levelo://app?vid=591c58d8-2723-46a9-b188-96cf2d3843fd"},"vehicle_type_id":"4","last_reported":1678918024,"current_range_meters":15600,"station_id":"ce4bgt12rcd13ifvqce0","pricing_plan_id":"free"},{"bike_id":"07a30e55-96b7-4368-b3b7-f3f8478a9f13","system_id":"levelo_inurba_marseille","lat":43.308012,"lon":5.381511,"is_reserved":false,"is_disabled":false,"rental_uris":{"android":"levelo://app?vid=07a30e55-96b7-4368-b3b7-f3f8478a9f13","ios":"levelo://app?vid=07a30e55-96b7-4368-b3b7-f3f8478a9f13"},"vehicle_type_id":"4","last_reported":1678918024,"current_range_meters":21200,"station_id":"ce4bgt12rcd13ifvqce0","pricing_plan_id":"free"},{"bike_id":"8e833ab3-c841-4135-a4a7-734e73901675","system_id":"levelo_inurba_marseille","lat":43.308012,"lon":5.381511,"is_reserved":false,"is_disabled":false,"rental_uris":{"android":"levelo://app?vid=8e833ab3-c841-4135-a4a7-734e73901675","ios":"levelo://app?vid=8e833ab3-c841-4135-a4a7-734e73901675"},"vehicle_type_id":"4","last_reported":1678918024,"current_range_meters":14000,"station_id":"ce4bgt12rcd13ifvqce0","pricing_plan_id":"free"},{"bike_id":"9f2895c5-7213-41b2-97f8-13fb0c2d26a9","system_id":"levelo_inurba_marseille","lat":43.313571,"lon":5.384829,"is_reserved":false,"is_disabled":false,"rental_uris":{"android":"levelo://app?vid=9f2895c5-7213-41b2-97f8-13fb0c2d26a9","ios":"levelo://app?vid=9f2895c5-7213-41b2-97f8-13fb0c2d26a9"},"vehicle_type_id":"4","last_reported":1678918024,"current_range_meters":2400,"station_id":"ce4bgt92rcd13ifvqcf0","pricing_plan_id":"free"},{"bike_id":"a6b2f9dd-5c1b-47b9-951f-d0bdf363bff0","system_id":"levelo_inurba_marseille","lat":43.313571,"lon":5.384829,"is_reserved":false,"is_disabled":false,"rental_uris":{"android":"levelo://app?vid=a6b2f9dd-5c1b-47b9-951f-d0bdf363bff0","ios":"levelo://app?vid=a6b2f9dd-5c1b-47b9-951f-d0bdf363bff0"},"vehicle_type_id":"4","last_reported":1678918024,"current_range_meters":1600,"station_id":"ce4bgt92rcd13ifvqcf0","pricing_plan_id":"free"},{"bike_id":"d29cc535-5471-4a42-9238-9a9825bc55b1","system_id":"levelo_inurba_marseille","lat":43.313571,"lon":5.384829,"is_reserved":false,"is_disabled":false,"rental_uris":{"android":"levelo://app?vid=d29cc535-5471-4a42-9238-9a9825bc55b1","ios":"levelo://app?vid=d29cc535-5471-4a42-9238-9a9825bc55b1"},"vehicle_type_id":"4","last_reported":1678918024,"current_range_meters":11200,"station_id":"ce4bgt92rcd13ifvqcf0","pricing_plan_id":"free"},{"bike_id":"812aee92-56dd-4892-af2e-66642d1e07ea","system_id":"levelo_inurba_marseille","lat":43.313571,"lon":5.384829,"is_reserved":false,"is_disabled":false,"rental_uris":{"android":"levelo://app?vid=812aee92-56dd-4892-af2e-66642d1e07ea","ios":"levelo://app?vid=812aee92-56dd-4892-af2e-66642d1e07ea"},"vehicle_type_id":"4","last_reported":1678918024,"current_range_meters":400,"station_id":"ce4bgt92rcd13ifvqcf0","pricing_plan_id":"free"},{"bike_id":"97ce188d-8059-426a-80a5-d786e69bd632","system_id":"levelo_inurba_marseille","lat":43.313571,"lon":5.384829,"is_reserved":false,"is_disabled":false,"rental_uris":{"android":"levelo://app?vid=97ce188d-8059-426a-80a5-d786e69bd632","ios":"levelo://app?vid=97ce188d-8059-426a-80a5-d786e69bd632"},"vehicle_type_id":"4","last_reported":1678918024,"current_range_meters":6000,"station_id":"ce4bgt92rcd13ifvqcf0","pricing_plan_id":"free"},{"bike_id":"359a0f77-0a60-41f7-b72a-0214a6bf3c63","system_id":"levelo_inurba_marseille","lat":43.305393,"lon":5.383699,"is_reserved":false,"is_disabled":false,"rental_uris":{"android":"levelo://app?vid=359a0f77-0a60-41f7-b72a-0214a6bf3c63","ios":"levelo://app?vid=359a0f77-0a60-41f7-b72a-0214a6bf3c63"},"vehicle_type_id":"4","last_reported":1678918024,"current_range_meters":0,"station_id":"","pricing_plan_id":"free"},{"bike_id":"9086a0cb-3266-41ff-906f-aff4c300acb5","system_id":"levelo_inurba_marseille","lat":43.311722,"lon":5.387247,"is_reserved":false,"is_disabled":false,"rental_uris":{"android":"levelo://app?vid=9086a0cb-3266-41ff-906f-aff4c300acb5","ios":"levelo://app?vid=9086a0cb-3266-41ff-906f-aff4c300acb5"},"vehicle_type_id":"4","last_reported":1678918024,"current_range_meters":1200,"station_id":"ce4bgv12rcd13ifvqcp0","pricing_plan_id":"free"},{"bike_id":"9f3219ac-2278-49c0-8ac5-4a78bce711fd","system_id":"levelo_inurba_marseille","lat":43.31172,"lon":5.38717,"is_reserved":false,"is_disabled":false,"rental_uris":{"android":"levelo://app?vid=9f3219ac-2278-49c0-8ac5-4a78bce711fd","ios":"levelo://app?vid=9f3219ac-2278-49c0-8ac5-4a78bce711fd"},"vehicle_type_id":"4","last_reported":1678918024,"current_range_meters":12800,"station_id":"","pricing_plan_id":"free"},{"bike_id":"6f1fe1b6-a4e8-4600-bb94-e030a4b23ce9","system_id":"levelo_inurba_marseille","lat":43.311722,"lon":5.387247,"is_reserved":false,"is_disabled":false,"rental_uris":{"android":"levelo://app?vid=6f1fe1b6-a4e8-4600-bb94-e030a4b23ce9","ios":"levelo://app?vid=6f1fe1b6-a4e8-4600-bb94-e030a4b23ce9"},"vehicle_type_id":"4","last_reported":1678918024,"current_range_meters":6000,"station_id":"ce4bgv12rcd13ifvqcp0","pricing_plan_id":"free"},{"bike_id":"f89f7ccd-5b15-4549-9c84-15ab44b7f263","system_id":"levelo_inurba_marseille","lat":43.328371,"lon":5.366912,"is_reserved":false,"is_disabled":false,"rental_uris":{"android":"levelo://app?vid=f89f7ccd-5b15-4549-9c84-15ab44b7f263","ios":"levelo://app?vid=f89f7ccd-5b15-4549-9c84-15ab44b7f263"},"vehicle_type_id":"4","last_reported":1678918024,"current_range_meters":23200,"station_id":"ce4bhs92rcd13ifvqi0g","pricing_plan_id":"free"},{"bike_id":"31b50ec1-1c20-4b95-9946-353c3c9367e0","system_id":"levelo_inurba_marseille","lat":43.328371,"lon":5.366912,"is_reserved":false,"is_disabled":false,"rental_uris":{"android":"levelo://app?vid=31b50ec1-1c20-4b95-9946-353c3c9367e0","ios":"levelo://app?vid=31b50ec1-1c20-4b95-9946-353c3c9367e0"},"vehicle_type_id":"4","last_reported":1678918024,"current_range_meters":15600,"station_id":"ce4bhs92rcd13ifvqi0g","pricing_plan_id":"free"},{"bike_id":"91079053-0468-4c93-b6be-71cc35eab07a","system_id":"levelo_inurba_marseille","lat":43.328371,"lon":5.366912,"is_reserved":false,"is_disabled":false,"rental_uris":{"android":"levelo://app?vid=91079053-0468-4c93-b6be-71cc35eab07a","ios":"levelo://app?vid=91079053-0468-4c93-b6be-71cc35eab07a"},"vehicle_type_id":"4","last_reported":1678918024,"current_range_meters":5200,"station_id":"ce4bhs92rcd13ifvqi0g","pricing_plan_id":"free"},{"bike_id":"d894811d-ad94-44b8-89ff-52a7d770de8e","system_id":"levelo_inurba_marseille","lat":43.32827,"lon":5.3669,"is_reserved":false,"is_disabled":false,"rental_uris":{"android":"levelo://app?vid=d894811d-ad94-44b8-89ff-52a7d770de8e","ios":"levelo://app?vid=d894811d-ad94-44b8-89ff-52a7d770de8e"},"vehicle_type_id":"4","last_reported":1678918024,"current_range_meters":1600,"station_id":"","pricing_plan_id":"free"},{"bike_id":"3f1ecbd0-cf15-4224-9648-75f1ceebf9d1","system_id":"levelo_inurba_marseille","lat":43.328371,"lon":5.366912,"is_reserved":false,"is_disabled":false,"rental_uris":{"android":"levelo://app?vid=3f1ecbd0-cf15-4224-9648-75f1ceebf9d1","ios":"levelo://app?vid=3f1ecbd0-cf15-4224-9648-75f1ceebf9d1"},"vehicle_type_id":"4","last_reported":1678918024,"current_range_meters":1200,"station_id":"ce4bhs92rcd13ifvqi0g","pricing_plan_id":"free"},{"bike_id":"61276a3b-a248-47d7-a858-9e09345028d8","system_id":"levelo_inurba_marseille","lat":43.328296,"lon":5.36688,"is_reserved":false,"is_disabled":false,"rental_uris":{"android":"levelo://app?vid=61276a3b-a248-47d7-a858-9e09345028d8","ios":"levelo://app?vid=61276a3b-a248-47d7-a858-9e09345028d8"},"vehicle_type_id":"4","last_reported":1678918024,"current_range_meters":4400,"station_id":"","pricing_plan_id":"free"},{"bike_id":"a068649e-e639-48d5-b474-32fc330f3063","system_id":"levelo_inurba_marseille","lat":43.32831,"lon":5.36687,"is_reserved":false,"is_disabled":false,"rental_uris":{"android":"levelo://app?vid=a068649e-e639-48d5-b474-32fc330f3063","ios":"levelo://app?vid=a068649e-e639-48d5-b474-32fc330f3063"},"vehicle_type_id":"4","last_reported":1678918024,"current_range_meters":22800,"station_id":"","pricing_plan_id":"free"},{"bike_id":"61e87ae3-1630-4850-b4a1-3247adcaaef1","system_id":"levelo_inurba_marseille","lat":43.328327,"lon":5.366869,"is_reserved":false,"is_disabled":false,"rental_uris":{"android":"levelo://app?vid=61e87ae3-1630-4850-b4a1-3247adcaaef1","ios":"levelo://app?vid=61e87ae3-1630-4850-b4a1-3247adcaaef1"},"vehicle_type_id":"4","last_reported":1678918024,"current_range_meters":5600,"station_id":"","pricing_plan_id":"free"},{"bike_id":"e6fb870b-cee7-42b3-bb98-8c6c23c1e1aa","system_id":"levelo_inurba_marseille","lat":43.296838,"lon":5.372882,"is_reserved":false,"is_disabled":false,"rental_uris":{"android":"levelo://app?vid=e6fb870b-cee7-42b3-bb98-8c6c23c1e1aa","ios":"levelo://app?vid=e6fb870b-cee7-42b3-bb98-8c6c23c1e1aa"},"vehicle_type_id":"4","last_reported":1678918024,"current_range_meters":4800,"station_id":"ce4bgk12rcd13ifvqbj0","pricing_plan_id":"free"},{"bike_id":"a78cdea2-36d8-471a-b51f-af0b5d19a498","system_id":"levelo_inurba_marseille","lat":43.29573,"lon":5.367355,"is_reserved":false,"is_disabled":false,"rental_uris":{"android":"levelo://app?vid=a78cdea2-36d8-471a-b51f-af0b5d19a498","ios":"levelo://app?vid=a78cdea2-36d8-471a-b51f-af0b5d19a498"},"vehicle_type_id":"4","last_reported":1678918024,"current_range_meters":8800,"station_id":"ce4bgph2rcd13ifvqc2g","pricing_plan_id":"free"},{"bike_id":"b8aa4f64-da9c-4e36-8fbd-a582e727d758","system_id":"levelo_inurba_marseille","lat":43.29573,"lon":5.367355,"is_reserved":false,"is_disabled":false,"rental_uris":{"android":"levelo://app?vid=b8aa4f64-da9c-4e36-8fbd-a582e727d758","ios":"levelo://app?vid=b8aa4f64-da9c-4e36-8fbd-a582e727d758"},"vehicle_type_id":"4","last_reported":1678918024,"current_range_meters":400,"station_id":"ce4bgph2rcd13ifvqc2g","pricing_plan_id":"free"},{"bike_id":"8c0a356f-b082-4b2a-b85c-3b4b166de03f","system_id":"levelo_inurba_marseille","lat":43.29573,"lon":5.367355,"is_reserved":false,"is_disabled":false,"rental_uris":{"android":"levelo://app?vid=8c0a356f-b082-4b2a-b85c-3b4b166de03f","ios":"levelo://app?vid=8c0a356f-b082-4b2a-b85c-3b4b166de03f"},"vehicle_type_id":"4","last_reported":1678918024,"current_range_meters":23200,"station_id":"ce4bgph2rcd13ifvqc2g","pricing_plan_id":"free"},{"bike_id":"db781b33-b2df-405c-9639-6f0876b17aa8","system_id":"levelo_inurba_marseille","lat":43.29573,"lon":5.367355,"is_reserved":false,"is_disabled":false,"rental_uris":{"android":"levelo://app?vid=db781b33-b2df-405c-9639-6f0876b17aa8","ios":"levelo://app?vid=db781b33-b2df-405c-9639-6f0876b17aa8"},"vehicle_type_id":"4","last_reported":1678918024,"current_range_meters":19200,"station_id":"ce4bgph2rcd13ifvqc2g","pricing_plan_id":"free"},{"bike_id":"bcea1318-d192-45ce-91cc-8fcb87ec3454","system_id":"levelo_inurba_marseille","lat":43.29573,"lon":5.367355,"is_reserved":false,"is_disabled":false,"rental_uris":{"android":"levelo://app?vid=bcea1318-d192-45ce-91cc-8fcb87ec3454","ios":"levelo://app?vid=bcea1318-d192-45ce-91cc-8fcb87ec3454"},"vehicle_type_id":"4","last_reported":1678918024,"current_range_meters":27200,"station_id":"ce4bgph2rcd13ifvqc2g","pricing_plan_id":"free"},{"bike_id":"8fd8e5f9-2cdb-49ad-94b4-7de338493782","system_id":"levelo_inurba_marseille","lat":43.299028,"lon":5.381509,"is_reserved":false,"is_disabled":false,"rental_uris":{"android":"levelo://app?vid=8fd8e5f9-2cdb-49ad-94b4-7de338493782","ios":"levelo://app?vid=8fd8e5f9-2cdb-49ad-94b4-7de338493782"},"vehicle_type_id":"4","last_reported":1678918024,"current_range_meters":22800,"station_id":"ce4bgj12rcd13ifvqbc0","pricing_plan_id":"free"},{"bike_id":"72e10966-999a-44d8-8e52-13a582592e0d","system_id":"levelo_inurba_marseille","lat":43.317557,"lon":5.390173,"is_reserved":false,"is_disabled":false,"rental_uris":{"android":"levelo://app?vid=72e10966-999a-44d8-8e52-13a582592e0d","ios":"levelo://app?vid=72e10966-999a-44d8-8e52-13a582592e0d"},"vehicle_type_id":"4","last_reported":1678918024,"current_range_meters":24000,"station_id":"ce4bhqp2rcd13ifvqhng","pricing_plan_id":"free"},{"bike_id":"771cbea9-e7f5-49c9-afa7-282b00fe185d","system_id":"levelo_inurba_marseille","lat":43.317557,"lon":5.390173,"is_reserved":false,"is_disabled":false,"rental_uris":{"android":"levelo://app?vid=771cbea9-e7f5-49c9-afa7-282b00fe185d","ios":"levelo://app?vid=771cbea9-e7f5-49c9-afa7-282b00fe185d"},"vehicle_type_id":"4","last_reported":1678918024,"current_range_meters":0,"station_id":"ce4bhqp2rcd13ifvqhng","pricing_plan_id":"free"},{"bike_id":"478ef1ad-9ebb-4eb8-bd70-f097b078c4f6","system_id":"levelo_inurba_marseille","lat":43.317557,"lon":5.390173,"is_reserved":false,"is_disabled":false,"rental_uris":{"android":"levelo://app?vid=478ef1ad-9ebb-4eb8-bd70-f097b078c4f6","ios":"levelo://app?vid=478ef1ad-9ebb-4eb8-bd70-f097b078c4f6"},"vehicle_type_id":"4","last_reported":1678918024,"current_range_meters":6400,"station_id":"ce4bhqp2rcd13ifvqhng","pricing_plan_id":"free"},{"bike_id":"823480f7-dc3a-427f-8a5d-72bc73dd423c","system_id":"levelo_inurba_marseille","lat":43.317557,"lon":5.390173,"is_reserved":false,"is_disabled":false,"rental_uris":{"android":"levelo://app?vid=823480f7-dc3a-427f-8a5d-72bc73dd423c","ios":"levelo://app?vid=823480f7-dc3a-427f-8a5d-72bc73dd423c"},"vehicle_type_id":"4","last_reported":1678918024,"current_range_meters":0,"station_id":"ce4bhqp2rcd13ifvqhng","pricing_plan_id":"free"},{"bike_id":"2f50c063-7b3c-4d89-927e-f2b22e94c9e4","system_id":"levelo_inurba_marseille","lat":43.295635,"lon":5.374318,"is_reserved":false,"is_disabled":false,"rental_uris":{"android":"levelo://app?vid=2f50c063-7b3c-4d89-927e-f2b22e94c9e4","ios":"levelo://app?vid=2f50c063-7b3c-4d89-927e-f2b22e94c9e4"},"vehicle_type_id":"4","last_reported":1678918024,"current_range_meters":0,"station_id":"","pricing_plan_id":"free"},{"bike_id":"d4dc2a4c-4772-4686-b4eb-d053a8b92c0f","system_id":"levelo_inurba_marseille","lat":43.304274,"lon":5.388873,"is_reserved":false,"is_disabled":false,"rental_uris":{"android":"levelo://app?vid=d4dc2a4c-4772-4686-b4eb-d053a8b92c0f","ios":"levelo://app?vid=d4dc2a4c-4772-4686-b4eb-d053a8b92c0f"},"vehicle_type_id":"4","last_reported":1678918024,"current_range_meters":20000,"station_id":"ce4bgk12rcd13ifvqbi0","pricing_plan_id":"free"},{"bike_id":"1e6594ad-28e2-4ada-9e13-ce9748322b3f","system_id":"levelo_inurba_marseille","lat":43.30428,"lon":5.38884,"is_reserved":false,"is_disabled":false,"rental_uris":{"android":"levelo://app?vid=1e6594ad-28e2-4ada-9e13-ce9748322b3f","ios":"levelo://app?vid=1e6594ad-28e2-4ada-9e13-ce9748322b3f"},"vehicle_type_id":"4","last_reported":1678918024,"current_range_meters":5600,"station_id":"ce4bgk12rcd13ifvqbi0","pricing_plan_id":"free"},{"bike_id":"56789fa7-c468-4f9e-b507-0def62b5ecae","system_id":"levelo_inurba_marseille","lat":43.299734,"lon":5.384671,"is_reserved":false,"is_disabled":false,"rental_uris":{"android":"levelo://app?vid=56789fa7-c468-4f9e-b507-0def62b5ecae","ios":"levelo://app?vid=56789fa7-c468-4f9e-b507-0def62b5ecae"},"vehicle_type_id":"4","last_reported":1678918024,"current_range_meters":22800,"station_id":"","pricing_plan_id":"free"},{"bike_id":"12304543-d264-4f55-a029-a025fb27852c","system_id":"levelo_inurba_marseille","lat":43.2943,"lon":5.37408,"is_reserved":false,"is_disabled":false,"rental_uris":{"android":"levelo://app?vid=12304543-d264-4f55-a029-a025fb27852c","ios":"levelo://app?vid=12304543-d264-4f55-a029-a025fb27852c"},"vehicle_type_id":"4","last_reported":1678918024,"current_range_meters":1600,"station_id":"","pricing_plan_id":"free"},{"bike_id":"83ac2e38-1ea8-40f0-bc0d-30d7ec38c593","system_id":"levelo_inurba_marseille","lat":43.32364,"lon":5.38877,"is_reserved":false,"is_disabled":false,"rental_uris":{"android":"levelo://app?vid=83ac2e38-1ea8-40f0-bc0d-30d7ec38c593","ios":"levelo://app?vid=83ac2e38-1ea8-40f0-bc0d-30d7ec38c593"},"vehicle_type_id":"4","last_reported":1678918024,"current_range_meters":31600,"station_id":"","pricing_plan_id":"free"},{"bike_id":"f14d1489-4623-4ab1-8049-1fdfcfb9c634","system_id":"levelo_inurba_marseille","lat":43.32367,"lon":5.388836,"is_reserved":false,"is_disabled":false,"rental_uris":{"android":"levelo://app?vid=f14d1489-4623-4ab1-8049-1fdfcfb9c634","ios":"levelo://app?vid=f14d1489-4623-4ab1-8049-1fdfcfb9c634"},"vehicle_type_id":"4","last_reported":1678918024,"current_range_meters":11600,"station_id":"ce4bhqp2rcd13ifvqhog","pricing_plan_id":"free"},{"bike_id":"8456916d-eef8-48e9-9e53-b7ead72ab421","system_id":"levelo_inurba_marseille","lat":43.323675,"lon":5.388755,"is_reserved":false,"is_disabled":false,"rental_uris":{"android":"levelo://app?vid=8456916d-eef8-48e9-9e53-b7ead72ab421","ios":"levelo://app?vid=8456916d-eef8-48e9-9e53-b7ead72ab421"},"vehicle_type_id":"4","last_reported":1678918024,"current_range_meters":28400,"station_id":"ce4bhqp2rcd13ifvqhog","pricing_plan_id":"free"},{"bike_id":"21942cec-8a6e-4b01-8f9c-0d9cac4488d0","system_id":"levelo_inurba_marseille","lat":43.32367,"lon":5.38876,"is_reserved":false,"is_disabled":false,"rental_uris":{"android":"levelo://app?vid=21942cec-8a6e-4b01-8f9c-0d9cac4488d0","ios":"levelo://app?vid=21942cec-8a6e-4b01-8f9c-0d9cac4488d0"},"vehicle_type_id":"4","last_reported":1678918024,"current_range_meters":14000,"station_id":"ce4bhqp2rcd13ifvqhog","pricing_plan_id":"free"},{"bike_id":"549fad61-9ac4-4575-ba3b-e2faca3d183c","system_id":"levelo_inurba_marseille","lat":43.3236,"lon":5.38884,"is_reserved":false,"is_disabled":false,"rental_uris":{"android":"levelo://app?vid=549fad61-9ac4-4575-ba3b-e2faca3d183c","ios":"levelo://app?vid=549fad61-9ac4-4575-ba3b-e2faca3d183c"},"vehicle_type_id":"4","last_reported":1678918024,"current_range_meters":2000,"station_id":"","pricing_plan_id":"free"},{"bike_id":"ca4979e8-5add-49c4-9fc3-398ccaa932c9","system_id":"levelo_inurba_marseille","lat":43.32365,"lon":5.3888,"is_reserved":false,"is_disabled":false,"rental_uris":{"android":"levelo://app?vid=ca4979e8-5add-49c4-9fc3-398ccaa932c9","ios":"levelo://app?vid=ca4979e8-5add-49c4-9fc3-398ccaa932c9"},"vehicle_type_id":"4","last_reported":1678918024,"current_range_meters":0,"station_id":"","pricing_plan_id":"free"},{"bike_id":"5cb919a4-5d1d-40a5-8dba-8480b4c1463a","system_id":"levelo_inurba_marseille","lat":43.32366,"lon":5.38882,"is_reserved":false,"is_disabled":false,"rental_uris":{"android":"levelo://app?vid=5cb919a4-5d1d-40a5-8dba-8480b4c1463a","ios":"levelo://app?vid=5cb919a4-5d1d-40a5-8dba-8480b4c1463a"},"vehicle_type_id":"4","last_reported":1678918024,"current_range_meters":0,"station_id":"ce4bhqp2rcd13ifvqhog","pricing_plan_id":"free"},{"bike_id":"4c25f8c8-9b8c-4089-8843-c728edae5513","system_id":"levelo_inurba_marseille","lat":43.32367,"lon":5.388836,"is_reserved":false,"is_disabled":false,"rental_uris":{"android":"levelo://app?vid=4c25f8c8-9b8c-4089-8843-c728edae5513","ios":"levelo://app?vid=4c25f8c8-9b8c-4089-8843-c728edae5513"},"vehicle_type_id":"4","last_reported":1678918024,"current_range_meters":16000,"station_id":"ce4bhqp2rcd13ifvqhog","pricing_plan_id":"free"},{"bike_id":"addf4342-2a0b-4fca-9dcf-e4cdaf425f82","system_id":"levelo_inurba_marseille","lat":43.32367,"lon":5.388836,"is_reserved":false,"is_disabled":false,"rental_uris":{"android":"levelo://app?vid=addf4342-2a0b-4fca-9dcf-e4cdaf425f82","ios":"levelo://app?vid=addf4342-2a0b-4fca-9dcf-e4cdaf425f82"},"vehicle_type_id":"4","last_reported":1678918024,"current_range_meters":18000,"station_id":"ce4bhqp2rcd13ifvqhog","pricing_plan_id":"free"},{"bike_id":"e38ef56d-2c54-4da4-9cdb-a655aa337559","system_id":"levelo_inurba_marseille","lat":43.32367,"lon":5.38884,"is_reserved":false,"is_disabled":false,"rental_uris":{"android":"levelo://app?vid=e38ef56d-2c54-4da4-9cdb-a655aa337559","ios":"levelo://app?vid=e38ef56d-2c54-4da4-9cdb-a655aa337559"},"vehicle_type_id":"4","last_reported":1678918024,"current_range_meters":5200,"station_id":"","pricing_plan_id":"free"},{"bike_id":"a808b8d9-6228-4724-84f4-46578b1508c9","system_id":"levelo_inurba_marseille","lat":43.323677,"lon":5.38884,"is_reserved":false,"is_disabled":false,"rental_uris":{"android":"levelo://app?vid=a808b8d9-6228-4724-84f4-46578b1508c9","ios":"levelo://app?vid=a808b8d9-6228-4724-84f4-46578b1508c9"},"vehicle_type_id":"4","last_reported":1678918024,"current_range_meters":400,"station_id":"","pricing_plan_id":"free"},{"bike_id":"b390b54b-bd09-4ac9-acb7-e1f37473b1e8","system_id":"levelo_inurba_marseille","lat":43.32364,"lon":5.38888,"is_reserved":false,"is_disabled":false,"rental_uris":{"android":"levelo://app?vid=b390b54b-bd09-4ac9-acb7-e1f37473b1e8","ios":"levelo://app?vid=b390b54b-bd09-4ac9-acb7-e1f37473b1e8"},"vehicle_type_id":"4","last_reported":1678918024,"current_range_meters":8800,"station_id":"ce4bhqp2rcd13ifvqhog","pricing_plan_id":"free"},{"bike_id":"5dde24e7-a417-4401-84fd-2cc260753013","system_id":"levelo_inurba_marseille","lat":43.3237,"lon":5.38888,"is_reserved":false,"is_disabled":false,"rental_uris":{"android":"levelo://app?vid=5dde24e7-a417-4401-84fd-2cc260753013","ios":"levelo://app?vid=5dde24e7-a417-4401-84fd-2cc260753013"},"vehicle_type_id":"4","last_reported":1678918024,"current_range_meters":9600,"station_id":"","pricing_plan_id":"free"},{"bike_id":"0f152686-2c8c-4e87-a1ff-704fdf25ab5b","system_id":"levelo_inurba_marseille","lat":43.305994,"lon":5.393687,"is_reserved":false,"is_disabled":false,"rental_uris":{"android":"levelo://app?vid=0f152686-2c8c-4e87-a1ff-704fdf25ab5b","ios":"levelo://app?vid=0f152686-2c8c-4e87-a1ff-704fdf25ab5b"},"vehicle_type_id":"4","last_reported":1678918024,"current_range_meters":27600,"station_id":"ce4bh0p2rcd13ifvqd80","pricing_plan_id":"free"},{"bike_id":"215c2d46-d7fa-4969-b3e7-09c63d6a813c","system_id":"levelo_inurba_marseille","lat":43.293009,"lon":5.374584,"is_reserved":false,"is_disabled":false,"rental_uris":{"android":"levelo://app?vid=215c2d46-d7fa-4969-b3e7-09c63d6a813c","ios":"levelo://app?vid=215c2d46-d7fa-4969-b3e7-09c63d6a813c"},"vehicle_type_id":"4","last_reported":1678918024,"current_range_meters":26400,"station_id":"ce4bgi12rcd13ifvqb70","pricing_plan_id":"free"},{"bike_id":"8f805ca1-2879-41e7-9eac-5bc9b9a72c89","system_id":"levelo_inurba_marseille","lat":43.29268,"lon":5.35957,"is_reserved":false,"is_disabled":false,"rental_uris":{"android":"levelo://app?vid=8f805ca1-2879-41e7-9eac-5bc9b9a72c89","ios":"levelo://app?vid=8f805ca1-2879-41e7-9eac-5bc9b9a72c89"},"vehicle_type_id":"4","last_reported":1678918024,"current_range_meters":5600,"station_id":"","pricing_plan_id":"free"},{"bike_id":"025935fa-cfb8-4e7e-87a9-7b4ce72e6fb8","system_id":"levelo_inurba_marseille","lat":43.292311,"lon":5.360731,"is_reserved":false,"is_disabled":false,"rental_uris":{"android":"levelo://app?vid=025935fa-cfb8-4e7e-87a9-7b4ce72e6fb8","ios":"levelo://app?vid=025935fa-cfb8-4e7e-87a9-7b4ce72e6fb8"},"vehicle_type_id":"4","last_reported":1678918024,"current_range_meters":0,"station_id":"ce4bhbh2rcd13ifvqeqg","pricing_plan_id":"free"},{"bike_id":"269b0ea0-c75f-4bb0-b917-1aab0e0414c6","system_id":"levelo_inurba_marseille","lat":43.298764,"lon":5.388973,"is_reserved":false,"is_disabled":false,"rental_uris":{"android":"levelo://app?vid=269b0ea0-c75f-4bb0-b917-1aab0e0414c6","ios":"levelo://app?vid=269b0ea0-c75f-4bb0-b917-1aab0e0414c6"},"vehicle_type_id":"4","last_reported":1678918024,"current_range_meters":25600,"station_id":"ce4bh392rcd13ifvqdl0","pricing_plan_id":"free"},{"bike_id":"ff98540f-5a09-4d3e-8751-7ce3b875a8ba","system_id":"levelo_inurba_marseille","lat":43.298764,"lon":5.388973,"is_reserved":false,"is_disabled":false,"rental_uris":{"android":"levelo://app?vid=ff98540f-5a09-4d3e-8751-7ce3b875a8ba","ios":"levelo://app?vid=ff98540f-5a09-4d3e-8751-7ce3b875a8ba"},"vehicle_type_id":"4","last_reported":1678918024,"current_range_meters":4800,"station_id":"ce4bh392rcd13ifvqdl0","pricing_plan_id":"free"},{"bike_id":"62f65aae-b1b1-4b41-a420-3ed4002ba227","system_id":"levelo_inurba_marseille","lat":43.31335,"lon":5.3969,"is_reserved":false,"is_disabled":false,"rental_uris":{"android":"levelo://app?vid=62f65aae-b1b1-4b41-a420-3ed4002ba227","ios":"levelo://app?vid=62f65aae-b1b1-4b41-a420-3ed4002ba227"},"vehicle_type_id":"4","last_reported":1678918024,"current_range_meters":0,"station_id":"","pricing_plan_id":"free"},{"bike_id":"78531d0c-5186-4c7e-9eb9-e753eb344aaf","system_id":"levelo_inurba_marseille","lat":43.3133,"lon":5.39691,"is_reserved":false,"is_disabled":false,"rental_uris":{"android":"levelo://app?vid=78531d0c-5186-4c7e-9eb9-e753eb344aaf","ios":"levelo://app?vid=78531d0c-5186-4c7e-9eb9-e753eb344aaf"},"vehicle_type_id":"4","last_reported":1678918024,"current_range_meters":4000,"station_id":"ce4bgvp2rcd13ifvqcu0","pricing_plan_id":"free"},{"bike_id":"ec3144fc-1874-4f8c-a438-a7ca92572ed5","system_id":"levelo_inurba_marseille","lat":43.313291,"lon":5.396838,"is_reserved":false,"is_disabled":false,"rental_uris":{"android":"levelo://app?vid=ec3144fc-1874-4f8c-a438-a7ca92572ed5","ios":"levelo://app?vid=ec3144fc-1874-4f8c-a438-a7ca92572ed5"},"vehicle_type_id":"4","last_reported":1678918024,"current_range_meters":26000,"station_id":"ce4bgvp2rcd13ifvqcu0","pricing_plan_id":"free"},{"bike_id":"3c00b7d5-223d-41d5-8044-d600f6f8fd45","system_id":"levelo_inurba_marseille","lat":43.313291,"lon":5.396838,"is_reserved":false,"is_disabled":false,"rental_uris":{"android":"levelo://app?vid=3c00b7d5-223d-41d5-8044-d600f6f8fd45","ios":"levelo://app?vid=3c00b7d5-223d-41d5-8044-d600f6f8fd45"},"vehicle_type_id":"4","last_reported":1678918024,"current_range_meters":30400,"station_id":"ce4bgvp2rcd13ifvqcu0","pricing_plan_id":"free"},{"bike_id":"c5a27208-8cf8-465c-a8fb-0f24e7308cb1","system_id":"levelo_inurba_marseille","lat":43.313291,"lon":5.396838,"is_reserved":false,"is_disabled":false,"rental_uris":{"android":"levelo://app?vid=c5a27208-8cf8-465c-a8fb-0f24e7308cb1","ios":"levelo://app?vid=c5a27208-8cf8-465c-a8fb-0f24e7308cb1"},"vehicle_type_id":"4","last_reported":1678918024,"current_range_meters":16000,"station_id":"ce4bgvp2rcd13ifvqcu0","pricing_plan_id":"free"},{"bike_id":"52d38384-a5b4-4a29-a89b-5c782e2e133a","system_id":"levelo_inurba_marseille","lat":43.313291,"lon":5.396838,"is_reserved":false,"is_disabled":false,"rental_uris":{"android":"levelo://app?vid=52d38384-a5b4-4a29-a89b-5c782e2e133a","ios":"levelo://app?vid=52d38384-a5b4-4a29-a89b-5c782e2e133a"},"vehicle_type_id":"4","last_reported":1678918024,"current_range_meters":21600,"station_id":"ce4bgvp2rcd13ifvqcu0","pricing_plan_id":"free"},{"bike_id":"52f4fea3-1a73-4251-b90d-8d291db4a608","system_id":"levelo_inurba_marseille","lat":43.313291,"lon":5.396838,"is_reserved":false,"is_disabled":false,"rental_uris":{"android":"levelo://app?vid=52f4fea3-1a73-4251-b90d-8d291db4a608","ios":"levelo://app?vid=52f4fea3-1a73-4251-b90d-8d291db4a608"},"vehicle_type_id":"4","last_reported":1678918024,"current_range_meters":30800,"station_id":"ce4bgvp2rcd13ifvqcu0","pricing_plan_id":"free"},{"bike_id":"16711969-60b4-4679-9eef-51a675ff8475","system_id":"levelo_inurba_marseille","lat":43.290319,"lon":5.375732,"is_reserved":false,"is_disabled":false,"rental_uris":{"android":"levelo://app?vid=16711969-60b4-4679-9eef-51a675ff8475","ios":"levelo://app?vid=16711969-60b4-4679-9eef-51a675ff8475"},"vehicle_type_id":"4","last_reported":1678918024,"current_range_meters":17600,"station_id":"ce4bh692rcd13ifvqe90","pricing_plan_id":"free"},{"bike_id":"9499f99b-814f-4ee1-86eb-3b7caa21244d","system_id":"levelo_inurba_marseille","lat":43.289184,"lon":5.366408,"is_reserved":false,"is_disabled":false,"rental_uris":{"android":"levelo://app?vid=9499f99b-814f-4ee1-86eb-3b7caa21244d","ios":"levelo://app?vid=9499f99b-814f-4ee1-86eb-3b7caa21244d"},"vehicle_type_id":"4","last_reported":1678918024,"current_range_meters":27600,"station_id":"ce4bhap2rcd13ifvqek0","pricing_plan_id":"free"},{"bike_id":"bba506a7-1437-4139-9504-369de38a2002","system_id":"levelo_inurba_marseille","lat":43.289184,"lon":5.366408,"is_reserved":false,"is_disabled":false,"rental_uris":{"android":"levelo://app?vid=bba506a7-1437-4139-9504-369de38a2002","ios":"levelo://app?vid=bba506a7-1437-4139-9504-369de38a2002"},"vehicle_type_id":"4","last_reported":1678918024,"current_range_meters":12800,"station_id":"ce4bhap2rcd13ifvqek0","pricing_plan_id":"free"},{"bike_id":"39cdeb8b-8daa-4cd1-a543-91d30aaa6359","system_id":"levelo_inurba_marseille","lat":43.30429,"lon":5.39754,"is_reserved":false,"is_disabled":false,"rental_uris":{"android":"levelo://app?vid=39cdeb8b-8daa-4cd1-a543-91d30aaa6359","ios":"levelo://app?vid=39cdeb8b-8daa-4cd1-a543-91d30aaa6359"},"vehicle_type_id":"4","last_reported":1678918024,"current_range_meters":12800,"station_id":"","pricing_plan_id":"free"},{"bike_id":"d8f2d3f8-b589-4cf5-a92d-4164088d31ac","system_id":"levelo_inurba_marseille","lat":43.29092,"lon":5.38124,"is_reserved":false,"is_disabled":false,"rental_uris":{"android":"levelo://app?vid=d8f2d3f8-b589-4cf5-a92d-4164088d31ac","ios":"levelo://app?vid=d8f2d3f8-b589-4cf5-a92d-4164088d31ac"},"vehicle_type_id":"4","last_reported":1678918024,"current_range_meters":5200,"station_id":"ce4bh512rcd13ifvqe2g","pricing_plan_id":"free"},{"bike_id":"fba49929-2027-4261-ade6-66f3fe34b544","system_id":"levelo_inurba_marseille","lat":43.295169,"lon":5.390426,"is_reserved":false,"is_disabled":false,"rental_uris":{"android":"levelo://app?vid=fba49929-2027-4261-ade6-66f3fe34b544","ios":"levelo://app?vid=fba49929-2027-4261-ade6-66f3fe34b544"},"vehicle_type_id":"4","last_reported":1678918024,"current_range_meters":2800,"station_id":"ce4bh3p2rcd13ifvqdp0","pricing_plan_id":"free"},{"bike_id":"dde9fb14-9d49-49f5-a2ef-021fa14b7cb0","system_id":"levelo_inurba_marseille","lat":43.295169,"lon":5.390426,"is_reserved":false,"is_disabled":false,"rental_uris":{"android":"levelo://app?vid=dde9fb14-9d49-49f5-a2ef-021fa14b7cb0","ios":"levelo://app?vid=dde9fb14-9d49-49f5-a2ef-021fa14b7cb0"},"vehicle_type_id":"4","last_reported":1678918024,"current_range_meters":7200,"station_id":"ce4bh3p2rcd13ifvqdp0","pricing_plan_id":"free"},{"bike_id":"12702636-6e5a-4ad5-ba9d-5abd76c46a24","system_id":"levelo_inurba_marseille","lat":43.295169,"lon":5.390426,"is_reserved":false,"is_disabled":false,"rental_uris":{"android":"levelo://app?vid=12702636-6e5a-4ad5-ba9d-5abd76c46a24","ios":"levelo://app?vid=12702636-6e5a-4ad5-ba9d-5abd76c46a24"},"vehicle_type_id":"4","last_reported":1678918024,"current_range_meters":15200,"station_id":"ce4bh3p2rcd13ifvqdp0","pricing_plan_id":"free"},{"bike_id":"1e52995d-f5ec-462c-bbd9-f5007142ab36","system_id":"levelo_inurba_marseille","lat":43.28856,"lon":5.358371,"is_reserved":false,"is_disabled":false,"rental_uris":{"android":"levelo://app?vid=1e52995d-f5ec-462c-bbd9-f5007142ab36","ios":"levelo://app?vid=1e52995d-f5ec-462c-bbd9-f5007142ab36"},"vehicle_type_id":"4","last_reported":1678918024,"current_range_meters":0,"station_id":"ce4bhb12rcd13ifvqem0","pricing_plan_id":"free"},{"bike_id":"0dbf783c-31fd-499e-8ebc-c337379481d6","system_id":"levelo_inurba_marseille","lat":43.30642,"lon":5.401031,"is_reserved":false,"is_disabled":false,"rental_uris":{"android":"levelo://app?vid=0dbf783c-31fd-499e-8ebc-c337379481d6","ios":"levelo://app?vid=0dbf783c-31fd-499e-8ebc-c337379481d6"},"vehicle_type_id":"4","last_reported":1678918024,"current_range_meters":14800,"station_id":"ce4bh112rcd13ifvqda0","pricing_plan_id":"free"},{"bike_id":"b37c9b88-5770-4d91-80e6-fcf5d1ca448f","system_id":"levelo_inurba_marseille","lat":43.337549,"lon":5.37443,"is_reserved":false,"is_disabled":false,"rental_uris":{"android":"levelo://app?vid=b37c9b88-5770-4d91-80e6-fcf5d1ca448f","ios":"levelo://app?vid=b37c9b88-5770-4d91-80e6-fcf5d1ca448f"},"vehicle_type_id":"4","last_reported":1678918024,"current_range_meters":26800,"station_id":"","pricing_plan_id":"free"},{"bike_id":"98fc2e7d-5bf6-4abb-95ac-b2738a1bc39b","system_id":"levelo_inurba_marseille","lat":43.30642,"lon":5.401031,"is_reserved":false,"is_disabled":false,"rental_uris":{"android":"levelo://app?vid=98fc2e7d-5bf6-4abb-95ac-b2738a1bc39b","ios":"levelo://app?vid=98fc2e7d-5bf6-4abb-95ac-b2738a1bc39b"},"vehicle_type_id":"4","last_reported":1678918024,"current_range_meters":16800,"station_id":"ce4bh112rcd13ifvqda0","pricing_plan_id":"free"},{"bike_id":"502e7f3c-3e21-4181-9167-67c48be7f282","system_id":"levelo_inurba_marseille","lat":43.30642,"lon":5.401031,"is_reserved":false,"is_disabled":false,"rental_uris":{"android":"levelo://app?vid=502e7f3c-3e21-4181-9167-67c48be7f282","ios":"levelo://app?vid=502e7f3c-3e21-4181-9167-67c48be7f282"},"vehicle_type_id":"4","last_reported":1678918024,"current_range_meters":14400,"station_id":"ce4bh112rcd13ifvqda0","pricing_plan_id":"free"},{"bike_id":"1798ae0d-9807-4294-bdc9-3b29ac8bc4cf","system_id":"levelo_inurba_marseille","lat":43.301117,"lon":5.398795,"is_reserved":false,"is_disabled":false,"rental_uris":{"android":"levelo://app?vid=1798ae0d-9807-4294-bdc9-3b29ac8bc4cf","ios":"levelo://app?vid=1798ae0d-9807-4294-bdc9-3b29ac8bc4cf"},"vehicle_type_id":"4","last_reported":1678918024,"current_range_meters":20000,"station_id":"ce4bh0h2rcd13ifvqd40","pricing_plan_id":"free"},{"bike_id":"7ad2f54f-922c-429a-b2c8-486f7b8fe164","system_id":"levelo_inurba_marseille","lat":43.30642,"lon":5.401031,"is_reserved":false,"is_disabled":false,"rental_uris":{"android":"levelo://app?vid=7ad2f54f-922c-429a-b2c8-486f7b8fe164","ios":"levelo://app?vid=7ad2f54f-922c-429a-b2c8-486f7b8fe164"},"vehicle_type_id":"4","last_reported":1678918024,"current_range_meters":6000,"station_id":"ce4bh112rcd13ifvqda0","pricing_plan_id":"free"},{"bike_id":"f3703038-5d5f-4c17-aec6-6ba76d71435c","system_id":"levelo_inurba_marseille","lat":43.301117,"lon":5.398795,"is_reserved":false,"is_disabled":false,"rental_uris":{"android":"levelo://app?vid=f3703038-5d5f-4c17-aec6-6ba76d71435c","ios":"levelo://app?vid=f3703038-5d5f-4c17-aec6-6ba76d71435c"},"vehicle_type_id":"4","last_reported":1678918024,"current_range_meters":18800,"station_id":"ce4bh0h2rcd13ifvqd40","pricing_plan_id":"free"},{"bike_id":"3ba2b0ca-6a7f-4529-91de-b89cd429b88b","system_id":"levelo_inurba_marseille","lat":43.301117,"lon":5.398795,"is_reserved":false,"is_disabled":false,"rental_uris":{"android":"levelo://app?vid=3ba2b0ca-6a7f-4529-91de-b89cd429b88b","ios":"levelo://app?vid=3ba2b0ca-6a7f-4529-91de-b89cd429b88b"},"vehicle_type_id":"4","last_reported":1678918024,"current_range_meters":20400,"station_id":"ce4bh0h2rcd13ifvqd40","pricing_plan_id":"free"},{"bike_id":"62b0e384-2a9f-493b-80e1-c69b07ea352c","system_id":"levelo_inurba_marseille","lat":43.301117,"lon":5.398795,"is_reserved":false,"is_disabled":false,"rental_uris":{"android":"levelo://app?vid=62b0e384-2a9f-493b-80e1-c69b07ea352c","ios":"levelo://app?vid=62b0e384-2a9f-493b-80e1-c69b07ea352c"},"vehicle_type_id":"4","last_reported":1678918024,"current_range_meters":9600,"station_id":"ce4bh0h2rcd13ifvqd40","pricing_plan_id":"free"},{"bike_id":"284dfa71-6642-47ac-8e75-0408bee06d4c","system_id":"levelo_inurba_marseille","lat":43.286593,"lon":5.363346,"is_reserved":false,"is_disabled":false,"rental_uris":{"android":"levelo://app?vid=284dfa71-6642-47ac-8e75-0408bee06d4c","ios":"levelo://app?vid=284dfa71-6642-47ac-8e75-0408bee06d4c"},"vehicle_type_id":"4","last_reported":1678918024,"current_range_meters":7600,"station_id":"ce4bhah2rcd13ifvqej0","pricing_plan_id":"free"},{"bike_id":"3eddc584-e3d3-45f2-a5a4-7554ecbad844","system_id":"levelo_inurba_marseille","lat":43.298681,"lon":5.397225,"is_reserved":false,"is_disabled":false,"rental_uris":{"android":"levelo://app?vid=3eddc584-e3d3-45f2-a5a4-7554ecbad844","ios":"levelo://app?vid=3eddc584-e3d3-45f2-a5a4-7554ecbad844"},"vehicle_type_id":"4","last_reported":1678918024,"current_range_meters":29200,"station_id":"ce4bh0h2rcd13ifvqd50","pricing_plan_id":"free"},{"bike_id":"8e73db91-121a-41e2-93c6-4d80d6876e46","system_id":"levelo_inurba_marseille","lat":43.298681,"lon":5.397225,"is_reserved":false,"is_disabled":false,"rental_uris":{"android":"levelo://app?vid=8e73db91-121a-41e2-93c6-4d80d6876e46","ios":"levelo://app?vid=8e73db91-121a-41e2-93c6-4d80d6876e46"},"vehicle_type_id":"4","last_reported":1678918024,"current_range_meters":3200,"station_id":"ce4bh0h2rcd13ifvqd50","pricing_plan_id":"free"},{"bike_id":"6b4102ff-2f3d-406f-8045-5402d6673a1e","system_id":"levelo_inurba_marseille","lat":43.29526,"lon":5.39395,"is_reserved":false,"is_disabled":false,"rental_uris":{"android":"levelo://app?vid=6b4102ff-2f3d-406f-8045-5402d6673a1e","ios":"levelo://app?vid=6b4102ff-2f3d-406f-8045-5402d6673a1e"},"vehicle_type_id":"4","last_reported":1678918024,"current_range_meters":6000,"station_id":"ce4bh212rcd13ifvqde0","pricing_plan_id":"free"},{"bike_id":"fe504fdf-ab05-481a-9798-da13079459ea","system_id":"levelo_inurba_marseille","lat":43.29526,"lon":5.39399,"is_reserved":false,"is_disabled":false,"rental_uris":{"android":"levelo://app?vid=fe504fdf-ab05-481a-9798-da13079459ea","ios":"levelo://app?vid=fe504fdf-ab05-481a-9798-da13079459ea"},"vehicle_type_id":"4","last_reported":1678918024,"current_range_meters":31600,"station_id":"ce4bh212rcd13ifvqde0","pricing_plan_id":"free"},{"bike_id":"9991a574-7eff-460d-af65-223f414b1a0a","system_id":"levelo_inurba_marseille","lat":43.29524,"lon":5.394009,"is_reserved":false,"is_disabled":false,"rental_uris":{"android":"levelo://app?vid=9991a574-7eff-460d-af65-223f414b1a0a","ios":"levelo://app?vid=9991a574-7eff-460d-af65-223f414b1a0a"},"vehicle_type_id":"4","last_reported":1678918024,"current_range_meters":23600,"station_id":"ce4bh212rcd13ifvqde0","pricing_plan_id":"free"},{"bike_id":"529b15c4-12b2-478a-82a5-c26afdb223f7","system_id":"levelo_inurba_marseille","lat":43.295257,"lon":5.394039,"is_reserved":false,"is_disabled":false,"rental_uris":{"android":"levelo://app?vid=529b15c4-12b2-478a-82a5-c26afdb223f7","ios":"levelo://app?vid=529b15c4-12b2-478a-82a5-c26afdb223f7"},"vehicle_type_id":"4","last_reported":1678918024,"current_range_meters":19600,"station_id":"ce4bh212rcd13ifvqde0","pricing_plan_id":"free"},{"bike_id":"25baed7f-8e12-4886-bbee-9bcfaa862745","system_id":"levelo_inurba_marseille","lat":43.29521,"lon":5.39399,"is_reserved":false,"is_disabled":false,"rental_uris":{"android":"levelo://app?vid=25baed7f-8e12-4886-bbee-9bcfaa862745","ios":"levelo://app?vid=25baed7f-8e12-4886-bbee-9bcfaa862745"},"vehicle_type_id":"4","last_reported":1678918024,"current_range_meters":2400,"station_id":"ce4bh212rcd13ifvqde0","pricing_plan_id":"free"},{"bike_id":"d7e42621-0f37-4e01-af86-dedce9e62433","system_id":"levelo_inurba_marseille","lat":43.29516,"lon":5.393967,"is_reserved":false,"is_disabled":false,"rental_uris":{"android":"levelo://app?vid=d7e42621-0f37-4e01-af86-dedce9e62433","ios":"levelo://app?vid=d7e42621-0f37-4e01-af86-dedce9e62433"},"vehicle_type_id":"4","last_reported":1678918024,"current_range_meters":6000,"station_id":"ce4bh292rcd13ifvqdf0","pricing_plan_id":"free"},{"bike_id":"369ea765-e720-4e78-894a-f4383e4b2f30","system_id":"levelo_inurba_marseille","lat":43.295202,"lon":5.394038,"is_reserved":false,"is_disabled":false,"rental_uris":{"android":"levelo://app?vid=369ea765-e720-4e78-894a-f4383e4b2f30","ios":"levelo://app?vid=369ea765-e720-4e78-894a-f4383e4b2f30"},"vehicle_type_id":"4","last_reported":1678918024,"current_range_meters":0,"station_id":"ce4bh292rcd13ifvqdf0","pricing_plan_id":"free"},{"bike_id":"d51eef36-b864-428d-9595-47669f019992","system_id":"levelo_inurba_marseille","lat":43.29521,"lon":5.39405,"is_reserved":false,"is_disabled":false,"rental_uris":{"android":"levelo://app?vid=d51eef36-b864-428d-9595-47669f019992","ios":"levelo://app?vid=d51eef36-b864-428d-9595-47669f019992"},"vehicle_type_id":"4","last_reported":1678918024,"current_range_meters":20800,"station_id":"","pricing_plan_id":"free"},{"bike_id":"015715a7-30fb-44fe-ab0a-e15c8f9e0e20","system_id":"levelo_inurba_marseille","lat":43.29519,"lon":5.39411,"is_reserved":false,"is_disabled":false,"rental_uris":{"android":"levelo://app?vid=015715a7-30fb-44fe-ab0a-e15c8f9e0e20","ios":"levelo://app?vid=015715a7-30fb-44fe-ab0a-e15c8f9e0e20"},"vehicle_type_id":"4","last_reported":1678918024,"current_range_meters":31600,"station_id":"ce4bh212rcd13ifvqde0","pricing_plan_id":"free"},{"bike_id":"44418c4b-562d-4c33-9451-fdc58d80d97f","system_id":"levelo_inurba_marseille","lat":43.302759,"lon":5.400793,"is_reserved":false,"is_disabled":false,"rental_uris":{"android":"levelo://app?vid=44418c4b-562d-4c33-9451-fdc58d80d97f","ios":"levelo://app?vid=44418c4b-562d-4c33-9451-fdc58d80d97f"},"vehicle_type_id":"4","last_reported":1678918024,"current_range_meters":19600,"station_id":"ce4bgvh2rcd13ifvqcs0","pricing_plan_id":"free"},{"bike_id":"aad08c56-5709-4a1d-89a5-81ae38f12f18","system_id":"levelo_inurba_marseille","lat":43.302759,"lon":5.400793,"is_reserved":false,"is_disabled":false,"rental_uris":{"android":"levelo://app?vid=aad08c56-5709-4a1d-89a5-81ae38f12f18","ios":"levelo://app?vid=aad08c56-5709-4a1d-89a5-81ae38f12f18"},"vehicle_type_id":"4","last_reported":1678918024,"current_range_meters":27200,"station_id":"ce4bgvh2rcd13ifvqcs0","pricing_plan_id":"free"},{"bike_id":"d4d7f0f0-92c7-4b49-bfc0-5f8e5d2b5b74","system_id":"levelo_inurba_marseille","lat":43.286039,"lon":5.370679,"is_reserved":false,"is_disabled":false,"rental_uris":{"android":"levelo://app?vid=d4d7f0f0-92c7-4b49-bfc0-5f8e5d2b5b74","ios":"levelo://app?vid=d4d7f0f0-92c7-4b49-bfc0-5f8e5d2b5b74"},"vehicle_type_id":"4","last_reported":1678918024,"current_range_meters":2000,"station_id":"ce4bht12rcd13ifvqi60","pricing_plan_id":"free"},{"bike_id":"5aec40be-5fc9-46c1-a250-dec83849fc98","system_id":"levelo_inurba_marseille","lat":43.286039,"lon":5.370679,"is_reserved":false,"is_disabled":false,"rental_uris":{"android":"levelo://app?vid=5aec40be-5fc9-46c1-a250-dec83849fc98","ios":"levelo://app?vid=5aec40be-5fc9-46c1-a250-dec83849fc98"},"vehicle_type_id":"4","last_reported":1678918024,"current_range_meters":1200,"station_id":"ce4bht12rcd13ifvqi60","pricing_plan_id":"free"},{"bike_id":"f7af8d6b-ce6b-4eab-acb1-9b05edeca1aa","system_id":"levelo_inurba_marseille","lat":43.31648,"lon":5.40435,"is_reserved":false,"is_disabled":false,"rental_uris":{"android":"levelo://app?vid=f7af8d6b-ce6b-4eab-acb1-9b05edeca1aa","ios":"levelo://app?vid=f7af8d6b-ce6b-4eab-acb1-9b05edeca1aa"},"vehicle_type_id":"4","last_reported":1678918024,"current_range_meters":6400,"station_id":"","pricing_plan_id":"free"},{"bike_id":"59f1d4ee-1ac3-43cd-8930-42a79c7a6a31","system_id":"levelo_inurba_marseille","lat":43.316517,"lon":5.404375,"is_reserved":false,"is_disabled":false,"rental_uris":{"android":"levelo://app?vid=59f1d4ee-1ac3-43cd-8930-42a79c7a6a31","ios":"levelo://app?vid=59f1d4ee-1ac3-43cd-8930-42a79c7a6a31"},"vehicle_type_id":"4","last_reported":1678918024,"current_range_meters":17600,"station_id":"ce4bh012rcd13ifvqd00","pricing_plan_id":"free"},{"bike_id":"8e868719-bd9d-47cd-83a3-7745510c11ac","system_id":"levelo_inurba_marseille","lat":43.316517,"lon":5.404375,"is_reserved":false,"is_disabled":false,"rental_uris":{"android":"levelo://app?vid=8e868719-bd9d-47cd-83a3-7745510c11ac","ios":"levelo://app?vid=8e868719-bd9d-47cd-83a3-7745510c11ac"},"vehicle_type_id":"4","last_reported":1678918024,"current_range_meters":20000,"station_id":"ce4bh012rcd13ifvqd00","pricing_plan_id":"free"},{"bike_id":"a4311828-e2ab-4f66-aab4-2d510d848faf","system_id":"levelo_inurba_marseille","lat":43.31648,"lon":5.40439,"is_reserved":false,"is_disabled":false,"rental_uris":{"android":"levelo://app?vid=a4311828-e2ab-4f66-aab4-2d510d848faf","ios":"levelo://app?vid=a4311828-e2ab-4f66-aab4-2d510d848faf"},"vehicle_type_id":"4","last_reported":1678918024,"current_range_meters":6400,"station_id":"ce4bh012rcd13ifvqd00","pricing_plan_id":"free"},{"bike_id":"043aabb7-6b04-4935-88ba-619e7ddc9881","system_id":"levelo_inurba_marseille","lat":43.316517,"lon":5.404375,"is_reserved":false,"is_disabled":false,"rental_uris":{"android":"levelo://app?vid=043aabb7-6b04-4935-88ba-619e7ddc9881","ios":"levelo://app?vid=043aabb7-6b04-4935-88ba-619e7ddc9881"},"vehicle_type_id":"4","last_reported":1678918024,"current_range_meters":15200,"station_id":"ce4bh012rcd13ifvqd00","pricing_plan_id":"free"},{"bike_id":"cc62a288-1807-468b-8f75-6969099622df","system_id":"levelo_inurba_marseille","lat":43.284534,"lon":5.358662,"is_reserved":false,"is_disabled":false,"rental_uris":{"android":"levelo://app?vid=cc62a288-1807-468b-8f75-6969099622df","ios":"levelo://app?vid=cc62a288-1807-468b-8f75-6969099622df"},"vehicle_type_id":"4","last_reported":1678918024,"current_range_meters":4800,"station_id":"ce4bhah2rcd13ifvqei0","pricing_plan_id":"free"},{"bike_id":"38515a76-1577-4cbc-8a24-68d386a8a4c2","system_id":"levelo_inurba_marseille","lat":43.284646,"lon":5.358933,"is_reserved":false,"is_disabled":false,"rental_uris":{"android":"levelo://app?vid=38515a76-1577-4cbc-8a24-68d386a8a4c2","ios":"levelo://app?vid=38515a76-1577-4cbc-8a24-68d386a8a4c2"},"vehicle_type_id":"4","last_reported":1678918024,"current_range_meters":0,"station_id":"ce4bhah2rcd13ifvqei0","pricing_plan_id":"free"},{"bike_id":"b0594579-eea9-4155-97a5-dc0e0c253c84","system_id":"levelo_inurba_marseille","lat":43.284534,"lon":5.358662,"is_reserved":false,"is_disabled":false,"rental_uris":{"android":"levelo://app?vid=b0594579-eea9-4155-97a5-dc0e0c253c84","ios":"levelo://app?vid=b0594579-eea9-4155-97a5-dc0e0c253c84"},"vehicle_type_id":"4","last_reported":1678918024,"current_range_meters":0,"station_id":"ce4bhah2rcd13ifvqei0","pricing_plan_id":"free"},{"bike_id":"7bdcf89e-def5-452b-8e0a-e3cc10b1f7ea","system_id":"levelo_inurba_marseille","lat":43.284534,"lon":5.358662,"is_reserved":false,"is_disabled":false,"rental_uris":{"android":"levelo://app?vid=7bdcf89e-def5-452b-8e0a-e3cc10b1f7ea","ios":"levelo://app?vid=7bdcf89e-def5-452b-8e0a-e3cc10b1f7ea"},"vehicle_type_id":"4","last_reported":1678918024,"current_range_meters":12000,"station_id":"ce4bhah2rcd13ifvqei0","pricing_plan_id":"free"},{"bike_id":"7b6fa71b-3cfd-4322-a8d6-cb6fd8f1341b","system_id":"levelo_inurba_marseille","lat":43.284534,"lon":5.358662,"is_reserved":false,"is_disabled":false,"rental_uris":{"android":"levelo://app?vid=7b6fa71b-3cfd-4322-a8d6-cb6fd8f1341b","ios":"levelo://app?vid=7b6fa71b-3cfd-4322-a8d6-cb6fd8f1341b"},"vehicle_type_id":"4","last_reported":1678918024,"current_range_meters":24000,"station_id":"ce4bhah2rcd13ifvqei0","pricing_plan_id":"free"},{"bike_id":"6c86db45-cb62-42ba-ab47-63485ca1a647","system_id":"levelo_inurba_marseille","lat":43.284534,"lon":5.358662,"is_reserved":false,"is_disabled":false,"rental_uris":{"android":"levelo://app?vid=6c86db45-cb62-42ba-ab47-63485ca1a647","ios":"levelo://app?vid=6c86db45-cb62-42ba-ab47-63485ca1a647"},"vehicle_type_id":"4","last_reported":1678918024,"current_range_meters":18400,"station_id":"ce4bhah2rcd13ifvqei0","pricing_plan_id":"free"},{"bike_id":"6ad02cbb-083c-401d-9fe2-62b99ca5356c","system_id":"levelo_inurba_marseille","lat":43.284581,"lon":5.35898,"is_reserved":false,"is_disabled":false,"rental_uris":{"android":"levelo://app?vid=6ad02cbb-083c-401d-9fe2-62b99ca5356c","ios":"levelo://app?vid=6ad02cbb-083c-401d-9fe2-62b99ca5356c"},"vehicle_type_id":"4","last_reported":1678918024,"current_range_meters":20400,"station_id":"ce4bhah2rcd13ifvqei0","pricing_plan_id":"free"},{"bike_id":"f602a9b4-8dfb-4aa8-a4db-6856e75b7a83","system_id":"levelo_inurba_marseille","lat":43.284534,"lon":5.358662,"is_reserved":false,"is_disabled":false,"rental_uris":{"android":"levelo://app?vid=f602a9b4-8dfb-4aa8-a4db-6856e75b7a83","ios":"levelo://app?vid=f602a9b4-8dfb-4aa8-a4db-6856e75b7a83"},"vehicle_type_id":"4","last_reported":1678918024,"current_range_meters":400,"station_id":"ce4bhah2rcd13ifvqei0","pricing_plan_id":"free"},{"bike_id":"ce0d4665-c41f-481f-8ad4-f8d6796bae07","system_id":"levelo_inurba_marseille","lat":43.284534,"lon":5.358662,"is_reserved":false,"is_disabled":false,"rental_uris":{"android":"levelo://app?vid=ce0d4665-c41f-481f-8ad4-f8d6796bae07","ios":"levelo://app?vid=ce0d4665-c41f-481f-8ad4-f8d6796bae07"},"vehicle_type_id":"4","last_reported":1678918024,"current_range_meters":14400,"station_id":"ce4bhah2rcd13ifvqei0","pricing_plan_id":"free"},{"bike_id":"facf2475-b1e8-4a1b-b9c4-23daf07dbc4b","system_id":"levelo_inurba_marseille","lat":43.284534,"lon":5.358662,"is_reserved":false,"is_disabled":false,"rental_uris":{"android":"levelo://app?vid=facf2475-b1e8-4a1b-b9c4-23daf07dbc4b","ios":"levelo://app?vid=facf2475-b1e8-4a1b-b9c4-23daf07dbc4b"},"vehicle_type_id":"4","last_reported":1678918024,"current_range_meters":18400,"station_id":"ce4bhah2rcd13ifvqei0","pricing_plan_id":"free"},{"bike_id":"5829f9ca-6c06-4c3f-b2a3-680568a3192e","system_id":"levelo_inurba_marseille","lat":43.284534,"lon":5.358662,"is_reserved":false,"is_disabled":false,"rental_uris":{"android":"levelo://app?vid=5829f9ca-6c06-4c3f-b2a3-680568a3192e","ios":"levelo://app?vid=5829f9ca-6c06-4c3f-b2a3-680568a3192e"},"vehicle_type_id":"4","last_reported":1678918024,"current_range_meters":18000,"station_id":"ce4bhah2rcd13ifvqei0","pricing_plan_id":"free"},{"bike_id":"540155df-12d4-4b0b-93e8-6386c91c6cb2","system_id":"levelo_inurba_marseille","lat":43.284534,"lon":5.358662,"is_reserved":false,"is_disabled":false,"rental_uris":{"android":"levelo://app?vid=540155df-12d4-4b0b-93e8-6386c91c6cb2","ios":"levelo://app?vid=540155df-12d4-4b0b-93e8-6386c91c6cb2"},"vehicle_type_id":"4","last_reported":1678918024,"current_range_meters":12800,"station_id":"ce4bhah2rcd13ifvqei0","pricing_plan_id":"free"},{"bike_id":"2600e51d-299a-4ed4-af68-0cf7ccf6d39b","system_id":"levelo_inurba_marseille","lat":43.29575,"lon":5.39977,"is_reserved":false,"is_disabled":false,"rental_uris":{"android":"levelo://app?vid=2600e51d-299a-4ed4-af68-0cf7ccf6d39b","ios":"levelo://app?vid=2600e51d-299a-4ed4-af68-0cf7ccf6d39b"},"vehicle_type_id":"4","last_reported":1678918024,"current_range_meters":26400,"station_id":"","pricing_plan_id":"free"},{"bike_id":"b929e7fb-9d74-4141-b64d-679891af37cf","system_id":"levelo_inurba_marseille","lat":43.295713,"lon":5.399639,"is_reserved":false,"is_disabled":false,"rental_uris":{"android":"levelo://app?vid=b929e7fb-9d74-4141-b64d-679891af37cf","ios":"levelo://app?vid=b929e7fb-9d74-4141-b64d-679891af37cf"},"vehicle_type_id":"4","last_reported":1678918024,"current_range_meters":16000,"station_id":"ce4bh312rcd13ifvqdj0","pricing_plan_id":"free"},{"bike_id":"549a55c7-c1f2-4d78-b5de-5b78034cfbc8","system_id":"levelo_inurba_marseille","lat":43.295713,"lon":5.399639,"is_reserved":false,"is_disabled":false,"rental_uris":{"android":"levelo://app?vid=549a55c7-c1f2-4d78-b5de-5b78034cfbc8","ios":"levelo://app?vid=549a55c7-c1f2-4d78-b5de-5b78034cfbc8"},"vehicle_type_id":"4","last_reported":1678918024,"current_range_meters":17200,"station_id":"ce4bh312rcd13ifvqdj0","pricing_plan_id":"free"},{"bike_id":"15df1050-e905-43ff-99b8-0146d350e97e","system_id":"levelo_inurba_marseille","lat":43.33717,"lon":5.391857,"is_reserved":false,"is_disabled":false,"rental_uris":{"android":"levelo://app?vid=15df1050-e905-43ff-99b8-0146d350e97e","ios":"levelo://app?vid=15df1050-e905-43ff-99b8-0146d350e97e"},"vehicle_type_id":"4","last_reported":1678918024,"current_range_meters":25600,"station_id":"ce4bhr92rcd13ifvqhsg","pricing_plan_id":"free"},{"bike_id":"42896b38-34ac-492d-ad87-9574b998f595","system_id":"levelo_inurba_marseille","lat":43.323364,"lon":5.406108,"is_reserved":false,"is_disabled":false,"rental_uris":{"android":"levelo://app?vid=42896b38-34ac-492d-ad87-9574b998f595","ios":"levelo://app?vid=42896b38-34ac-492d-ad87-9574b998f595"},"vehicle_type_id":"4","last_reported":1678918024,"current_range_meters":30400,"station_id":"","pricing_plan_id":"free"},{"bike_id":"67e83027-2f79-4b3d-8f8f-a61a8db40ddc","system_id":"levelo_inurba_marseille","lat":43.33717,"lon":5.391857,"is_reserved":false,"is_disabled":false,"rental_uris":{"android":"levelo://app?vid=67e83027-2f79-4b3d-8f8f-a61a8db40ddc","ios":"levelo://app?vid=67e83027-2f79-4b3d-8f8f-a61a8db40ddc"},"vehicle_type_id":"4","last_reported":1678918024,"current_range_meters":15200,"station_id":"ce4bhr92rcd13ifvqhsg","pricing_plan_id":"free"},{"bike_id":"d0aa1e4c-312a-41c0-b187-587e4460478d","system_id":"levelo_inurba_marseille","lat":43.32342,"lon":5.40613,"is_reserved":false,"is_disabled":false,"rental_uris":{"android":"levelo://app?vid=d0aa1e4c-312a-41c0-b187-587e4460478d","ios":"levelo://app?vid=d0aa1e4c-312a-41c0-b187-587e4460478d"},"vehicle_type_id":"4","last_reported":1678918024,"current_range_meters":9200,"station_id":"ce4rr2p2rcd13i802rgg","pricing_plan_id":"free"},{"bike_id":"34b7b8d0-079e-43aa-9abd-0106fac3b082","system_id":"levelo_inurba_marseille","lat":43.33723,"lon":5.39182,"is_reserved":false,"is_disabled":false,"rental_uris":{"android":"levelo://app?vid=34b7b8d0-079e-43aa-9abd-0106fac3b082","ios":"levelo://app?vid=34b7b8d0-079e-43aa-9abd-0106fac3b082"},"vehicle_type_id":"4","last_reported":1678918024,"current_range_meters":31600,"station_id":"","pricing_plan_id":"free"},{"bike_id":"d9466597-903e-43a8-bbfd-13356f62acdc","system_id":"levelo_inurba_marseille","lat":43.33717,"lon":5.391857,"is_reserved":false,"is_disabled":false,"rental_uris":{"android":"levelo://app?vid=d9466597-903e-43a8-bbfd-13356f62acdc","ios":"levelo://app?vid=d9466597-903e-43a8-bbfd-13356f62acdc"},"vehicle_type_id":"4","last_reported":1678918024,"current_range_meters":0,"station_id":"ce4bhr92rcd13ifvqhsg","pricing_plan_id":"free"},{"bike_id":"3a6f38b9-b9cc-4171-9bd6-c985d4a0ccc5","system_id":"levelo_inurba_marseille","lat":43.33717,"lon":5.391857,"is_reserved":false,"is_disabled":false,"rental_uris":{"android":"levelo://app?vid=3a6f38b9-b9cc-4171-9bd6-c985d4a0ccc5","ios":"levelo://app?vid=3a6f38b9-b9cc-4171-9bd6-c985d4a0ccc5"},"vehicle_type_id":"4","last_reported":1678918024,"current_range_meters":24400,"station_id":"ce4bhr92rcd13ifvqhsg","pricing_plan_id":"free"},{"bike_id":"7602820e-a98d-42a0-90f2-9a2b257ac9e9","system_id":"levelo_inurba_marseille","lat":43.33717,"lon":5.391857,"is_reserved":false,"is_disabled":false,"rental_uris":{"android":"levelo://app?vid=7602820e-a98d-42a0-90f2-9a2b257ac9e9","ios":"levelo://app?vid=7602820e-a98d-42a0-90f2-9a2b257ac9e9"},"vehicle_type_id":"4","last_reported":1678918024,"current_range_meters":11600,"station_id":"ce4bhr92rcd13ifvqhsg","pricing_plan_id":"free"},{"bike_id":"7e527013-48c8-43b3-92b5-c0280bdc931c","system_id":"levelo_inurba_marseille","lat":43.33724,"lon":5.39185,"is_reserved":false,"is_disabled":false,"rental_uris":{"android":"levelo://app?vid=7e527013-48c8-43b3-92b5-c0280bdc931c","ios":"levelo://app?vid=7e527013-48c8-43b3-92b5-c0280bdc931c"},"vehicle_type_id":"4","last_reported":1678918024,"current_range_meters":19200,"station_id":"ce4bhr92rcd13ifvqhsg","pricing_plan_id":"free"},{"bike_id":"0ca02bf8-9760-47db-8ebd-6c6e6e5c741c","system_id":"levelo_inurba_marseille","lat":43.3234,"lon":5.4062,"is_reserved":false,"is_disabled":false,"rental_uris":{"android":"levelo://app?vid=0ca02bf8-9760-47db-8ebd-6c6e6e5c741c","ios":"levelo://app?vid=0ca02bf8-9760-47db-8ebd-6c6e6e5c741c"},"vehicle_type_id":"4","last_reported":1678918024,"current_range_meters":9200,"station_id":"ce4rr2p2rcd13i802rgg","pricing_plan_id":"free"},{"bike_id":"fb475c56-a592-455f-972f-ec9c5f4dc6af","system_id":"levelo_inurba_marseille","lat":43.33727,"lon":5.39184,"is_reserved":false,"is_disabled":false,"rental_uris":{"android":"levelo://app?vid=fb475c56-a592-455f-972f-ec9c5f4dc6af","ios":"levelo://app?vid=fb475c56-a592-455f-972f-ec9c5f4dc6af"},"vehicle_type_id":"4","last_reported":1678918024,"current_range_meters":26000,"station_id":"ce4bhr92rcd13ifvqhsg","pricing_plan_id":"free"},{"bike_id":"dc36b888-c12e-496f-b05c-f1f98a68fb93","system_id":"levelo_inurba_marseille","lat":43.32337,"lon":5.40622,"is_reserved":false,"is_disabled":false,"rental_uris":{"android":"levelo://app?vid=dc36b888-c12e-496f-b05c-f1f98a68fb93","ios":"levelo://app?vid=dc36b888-c12e-496f-b05c-f1f98a68fb93"},"vehicle_type_id":"4","last_reported":1678918024,"current_range_meters":31200,"station_id":"","pricing_plan_id":"free"},{"bike_id":"339853a6-89f4-4b3b-9100-a20aa9d5d2ac","system_id":"levelo_inurba_marseille","lat":43.32341,"lon":5.4062,"is_reserved":false,"is_disabled":false,"rental_uris":{"android":"levelo://app?vid=339853a6-89f4-4b3b-9100-a20aa9d5d2ac","ios":"levelo://app?vid=339853a6-89f4-4b3b-9100-a20aa9d5d2ac"},"vehicle_type_id":"4","last_reported":1678918024,"current_range_meters":26800,"station_id":"","pricing_plan_id":"free"},{"bike_id":"c32ce35c-a207-458a-a59c-e17e51f695a3","system_id":"levelo_inurba_marseille","lat":43.33729,"lon":5.39185,"is_reserved":false,"is_disabled":false,"rental_uris":{"android":"levelo://app?vid=c32ce35c-a207-458a-a59c-e17e51f695a3","ios":"levelo://app?vid=c32ce35c-a207-458a-a59c-e17e51f695a3"},"vehicle_type_id":"4","last_reported":1678918024,"current_range_meters":20400,"station_id":"ce4bhr92rcd13ifvqhsg","pricing_plan_id":"free"},{"bike_id":"4bd797f9-7454-4f80-aa0c-bf48d3a8d990","system_id":"levelo_inurba_marseille","lat":43.33727,"lon":5.39191,"is_reserved":false,"is_disabled":false,"rental_uris":{"android":"levelo://app?vid=4bd797f9-7454-4f80-aa0c-bf48d3a8d990","ios":"levelo://app?vid=4bd797f9-7454-4f80-aa0c-bf48d3a8d990"},"vehicle_type_id":"4","last_reported":1678918024,"current_range_meters":21600,"station_id":"ce4bhr92rcd13ifvqhsg","pricing_plan_id":"free"},{"bike_id":"d0c7feb2-bfdc-4875-a862-7fe128d8ff4d","system_id":"levelo_inurba_marseille","lat":43.323398,"lon":5.40628,"is_reserved":false,"is_disabled":false,"rental_uris":{"android":"levelo://app?vid=d0c7feb2-bfdc-4875-a862-7fe128d8ff4d","ios":"levelo://app?vid=d0c7feb2-bfdc-4875-a862-7fe128d8ff4d"},"vehicle_type_id":"4","last_reported":1678918024,"current_range_meters":14000,"station_id":"ce4rr2p2rcd13i802rgg","pricing_plan_id":"free"},{"bike_id":"8401fb18-1c16-4ec8-9470-ad62ba406ddb","system_id":"levelo_inurba_marseille","lat":43.284219,"lon":5.3497,"is_reserved":false,"is_disabled":false,"rental_uris":{"android":"levelo://app?vid=8401fb18-1c16-4ec8-9470-ad62ba406ddb","ios":"levelo://app?vid=8401fb18-1c16-4ec8-9470-ad62ba406ddb"},"vehicle_type_id":"4","last_reported":1678918024,"current_range_meters":19200,"station_id":"ce4bhbh2rcd13ifvqepg","pricing_plan_id":"free"},{"bike_id":"ea3e7dca-da16-441c-89ce-ed63e0bec06f","system_id":"levelo_inurba_marseille","lat":43.284219,"lon":5.3497,"is_reserved":false,"is_disabled":false,"rental_uris":{"android":"levelo://app?vid=ea3e7dca-da16-441c-89ce-ed63e0bec06f","ios":"levelo://app?vid=ea3e7dca-da16-441c-89ce-ed63e0bec06f"},"vehicle_type_id":"4","last_reported":1678918024,"current_range_meters":31600,"station_id":"ce4bhbh2rcd13ifvqepg","pricing_plan_id":"free"},{"bike_id":"355236a6-d794-4ef3-b1a5-c760337d7ff9","system_id":"levelo_inurba_marseille","lat":43.284233,"lon":5.349938,"is_reserved":false,"is_disabled":false,"rental_uris":{"android":"levelo://app?vid=355236a6-d794-4ef3-b1a5-c760337d7ff9","ios":"levelo://app?vid=355236a6-d794-4ef3-b1a5-c760337d7ff9"},"vehicle_type_id":"4","last_reported":1678918024,"current_range_meters":26000,"station_id":"ce4bhbh2rcd13ifvqepg","pricing_plan_id":"free"},{"bike_id":"419f2412-30e8-4a75-8caa-a5b53c3bde39","system_id":"levelo_inurba_marseille","lat":43.284247,"lon":5.349849,"is_reserved":false,"is_disabled":false,"rental_uris":{"android":"levelo://app?vid=419f2412-30e8-4a75-8caa-a5b53c3bde39","ios":"levelo://app?vid=419f2412-30e8-4a75-8caa-a5b53c3bde39"},"vehicle_type_id":"4","last_reported":1678918024,"current_range_meters":31200,"station_id":"ce4bhbh2rcd13ifvqepg","pricing_plan_id":"free"},{"bike_id":"8579fdb6-246d-438a-b198-b051963e2622","system_id":"levelo_inurba_marseille","lat":43.28424,"lon":5.349844,"is_reserved":false,"is_disabled":false,"rental_uris":{"android":"levelo://app?vid=8579fdb6-246d-438a-b198-b051963e2622","ios":"levelo://app?vid=8579fdb6-246d-438a-b198-b051963e2622"},"vehicle_type_id":"4","last_reported":1678918024,"current_range_meters":30800,"station_id":"ce4bhbh2rcd13ifvqepg","pricing_plan_id":"free"},{"bike_id":"17a11a64-66d2-4b19-9e7a-5d9ca54e4669","system_id":"levelo_inurba_marseille","lat":43.284219,"lon":5.3497,"is_reserved":false,"is_disabled":false,"rental_uris":{"android":"levelo://app?vid=17a11a64-66d2-4b19-9e7a-5d9ca54e4669","ios":"levelo://app?vid=17a11a64-66d2-4b19-9e7a-5d9ca54e4669"},"vehicle_type_id":"4","last_reported":1678918024,"current_range_meters":1600,"station_id":"ce4bhbh2rcd13ifvqepg","pricing_plan_id":"free"},{"bike_id":"8015f583-b3ba-4d27-ba3c-eeffd174323e","system_id":"levelo_inurba_marseille","lat":43.289363,"lon":5.396322,"is_reserved":false,"is_disabled":false,"rental_uris":{"android":"levelo://app?vid=8015f583-b3ba-4d27-ba3c-eeffd174323e","ios":"levelo://app?vid=8015f583-b3ba-4d27-ba3c-eeffd174323e"},"vehicle_type_id":"4","last_reported":1678918024,"current_range_meters":15600,"station_id":"ce4bh3h2rcd13ifvqdn0","pricing_plan_id":"free"},{"bike_id":"d491d943-4664-48e1-a56b-61c9665ce404","system_id":"levelo_inurba_marseille","lat":43.282744,"lon":5.350533,"is_reserved":false,"is_disabled":false,"rental_uris":{"android":"levelo://app?vid=d491d943-4664-48e1-a56b-61c9665ce404","ios":"levelo://app?vid=d491d943-4664-48e1-a56b-61c9665ce404"},"vehicle_type_id":"4","last_reported":1678918024,"current_range_meters":7600,"station_id":"ce4bhbp2rcd13ifvqerg","pricing_plan_id":"free"},{"bike_id":"cb570bca-6fd2-4044-96b7-d0de8a896b42","system_id":"levelo_inurba_marseille","lat":43.282744,"lon":5.350533,"is_reserved":false,"is_disabled":false,"rental_uris":{"android":"levelo://app?vid=cb570bca-6fd2-4044-96b7-d0de8a896b42","ios":"levelo://app?vid=cb570bca-6fd2-4044-96b7-d0de8a896b42"},"vehicle_type_id":"4","last_reported":1678918024,"current_range_meters":14800,"station_id":"ce4bhbp2rcd13ifvqerg","pricing_plan_id":"free"},{"bike_id":"dc22176d-8fc3-41bd-9182-9e0682dbb3af","system_id":"levelo_inurba_marseille","lat":43.28039,"lon":5.369297,"is_reserved":false,"is_disabled":false,"rental_uris":{"android":"levelo://app?vid=dc22176d-8fc3-41bd-9182-9e0682dbb3af","ios":"levelo://app?vid=dc22176d-8fc3-41bd-9182-9e0682dbb3af"},"vehicle_type_id":"4","last_reported":1678918024,"current_range_meters":26800,"station_id":"ce4bha12rcd13ifvqef0","pricing_plan_id":"free"},{"bike_id":"fbd81724-0b1b-4143-95dc-ca9086439d49","system_id":"levelo_inurba_marseille","lat":43.281758,"lon":5.352776,"is_reserved":false,"is_disabled":false,"rental_uris":{"android":"levelo://app?vid=fbd81724-0b1b-4143-95dc-ca9086439d49","ios":"levelo://app?vid=fbd81724-0b1b-4143-95dc-ca9086439d49"},"vehicle_type_id":"4","last_reported":1678918024,"current_range_meters":5200,"station_id":"","pricing_plan_id":"free"},{"bike_id":"1536f2cf-214b-4914-9797-4890f4b3f266","system_id":"levelo_inurba_marseille","lat":43.281149,"lon":5.378256,"is_reserved":false,"is_disabled":false,"rental_uris":{"android":"levelo://app?vid=1536f2cf-214b-4914-9797-4890f4b3f266","ios":"levelo://app?vid=1536f2cf-214b-4914-9797-4890f4b3f266"},"vehicle_type_id":"4","last_reported":1678918024,"current_range_meters":25600,"station_id":"ce4bha12rcd13ifvqee0","pricing_plan_id":"free"},{"bike_id":"41824ba0-6d84-4f3f-80dd-090f4d7dae2e","system_id":"levelo_inurba_marseille","lat":43.281044,"lon":5.378308,"is_reserved":false,"is_disabled":false,"rental_uris":{"android":"levelo://app?vid=41824ba0-6d84-4f3f-80dd-090f4d7dae2e","ios":"levelo://app?vid=41824ba0-6d84-4f3f-80dd-090f4d7dae2e"},"vehicle_type_id":"4","last_reported":1678918024,"current_range_meters":13600,"station_id":"ce4bha12rcd13ifvqee0","pricing_plan_id":"free"},{"bike_id":"5aee5c07-628a-467c-9e28-859ec88dac68","system_id":"levelo_inurba_marseille","lat":43.281044,"lon":5.378308,"is_reserved":false,"is_disabled":false,"rental_uris":{"android":"levelo://app?vid=5aee5c07-628a-467c-9e28-859ec88dac68","ios":"levelo://app?vid=5aee5c07-628a-467c-9e28-859ec88dac68"},"vehicle_type_id":"4","last_reported":1678918024,"current_range_meters":11600,"station_id":"ce4bha12rcd13ifvqee0","pricing_plan_id":"free"},{"bike_id":"eabce44f-edcc-43cd-b933-cbc1add29404","system_id":"levelo_inurba_marseille","lat":43.281044,"lon":5.378308,"is_reserved":false,"is_disabled":false,"rental_uris":{"android":"levelo://app?vid=eabce44f-edcc-43cd-b933-cbc1add29404","ios":"levelo://app?vid=eabce44f-edcc-43cd-b933-cbc1add29404"},"vehicle_type_id":"4","last_reported":1678918024,"current_range_meters":16000,"station_id":"ce4bha12rcd13ifvqee0","pricing_plan_id":"free"},{"bike_id":"62d175db-338a-4d4a-bead-91159698825e","system_id":"levelo_inurba_marseille","lat":43.281044,"lon":5.378308,"is_reserved":false,"is_disabled":false,"rental_uris":{"android":"levelo://app?vid=62d175db-338a-4d4a-bead-91159698825e","ios":"levelo://app?vid=62d175db-338a-4d4a-bead-91159698825e"},"vehicle_type_id":"4","last_reported":1678918024,"current_range_meters":0,"station_id":"ce4bha12rcd13ifvqee0","pricing_plan_id":"free"},{"bike_id":"85866fb6-658d-47b2-b93e-427b0d627c1d","system_id":"levelo_inurba_marseille","lat":43.281044,"lon":5.378308,"is_reserved":false,"is_disabled":false,"rental_uris":{"android":"levelo://app?vid=85866fb6-658d-47b2-b93e-427b0d627c1d","ios":"levelo://app?vid=85866fb6-658d-47b2-b93e-427b0d627c1d"},"vehicle_type_id":"4","last_reported":1678918024,"current_range_meters":24400,"station_id":"ce4bha12rcd13ifvqee0","pricing_plan_id":"free"},{"bike_id":"505733f8-8500-4344-8088-65d9c7e40321","system_id":"levelo_inurba_marseille","lat":43.296263,"lon":5.40601,"is_reserved":false,"is_disabled":false,"rental_uris":{"android":"levelo://app?vid=505733f8-8500-4344-8088-65d9c7e40321","ios":"levelo://app?vid=505733f8-8500-4344-8088-65d9c7e40321"},"vehicle_type_id":"4","last_reported":1678918024,"current_range_meters":24400,"station_id":"ce4bh0h2rcd13ifvqd60","pricing_plan_id":"free"},{"bike_id":"0be069c4-7141-469e-a29a-cdf76dc00f2a","system_id":"levelo_inurba_marseille","lat":43.280994,"lon":5.378485,"is_reserved":false,"is_disabled":false,"rental_uris":{"android":"levelo://app?vid=0be069c4-7141-469e-a29a-cdf76dc00f2a","ios":"levelo://app?vid=0be069c4-7141-469e-a29a-cdf76dc00f2a"},"vehicle_type_id":"4","last_reported":1678918024,"current_range_meters":31200,"station_id":"ce4bha12rcd13ifvqee0","pricing_plan_id":"free"},{"bike_id":"ef4007f1-ebf9-4fa4-b984-d0af2f1c6bbf","system_id":"levelo_inurba_marseille","lat":43.283323,"lon":5.38901,"is_reserved":false,"is_disabled":false,"rental_uris":{"android":"levelo://app?vid=ef4007f1-ebf9-4fa4-b984-d0af2f1c6bbf","ios":"levelo://app?vid=ef4007f1-ebf9-4fa4-b984-d0af2f1c6bbf"},"vehicle_type_id":"4","last_reported":1678918024,"current_range_meters":19200,"station_id":"","pricing_plan_id":"free"},{"bike_id":"fb7f6dfb-7f2f-4237-80c5-e442d5db35d2","system_id":"levelo_inurba_marseille","lat":43.284462,"lon":5.392121,"is_reserved":false,"is_disabled":false,"rental_uris":{"android":"levelo://app?vid=fb7f6dfb-7f2f-4237-80c5-e442d5db35d2","ios":"levelo://app?vid=fb7f6dfb-7f2f-4237-80c5-e442d5db35d2"},"vehicle_type_id":"4","last_reported":1678918024,"current_range_meters":31600,"station_id":"ce4bhoh2rcd13ifvqh5g","pricing_plan_id":"free"},{"bike_id":"bb21d759-1a29-4afc-ab72-3d384f138efb","system_id":"levelo_inurba_marseille","lat":43.284462,"lon":5.392121,"is_reserved":false,"is_disabled":false,"rental_uris":{"android":"levelo://app?vid=bb21d759-1a29-4afc-ab72-3d384f138efb","ios":"levelo://app?vid=bb21d759-1a29-4afc-ab72-3d384f138efb"},"vehicle_type_id":"4","last_reported":1678918024,"current_range_meters":25200,"station_id":"ce4bhoh2rcd13ifvqh5g","pricing_plan_id":"free"},{"bike_id":"4f46ae5f-7c37-48f5-9058-35f692ebdb81","system_id":"levelo_inurba_marseille","lat":43.284462,"lon":5.392121,"is_reserved":false,"is_disabled":false,"rental_uris":{"android":"levelo://app?vid=4f46ae5f-7c37-48f5-9058-35f692ebdb81","ios":"levelo://app?vid=4f46ae5f-7c37-48f5-9058-35f692ebdb81"},"vehicle_type_id":"4","last_reported":1678918024,"current_range_meters":22400,"station_id":"ce4bhoh2rcd13ifvqh5g","pricing_plan_id":"free"},{"bike_id":"3952b980-bc7f-40c1-b3dd-26d64a781d84","system_id":"levelo_inurba_marseille","lat":43.284462,"lon":5.392121,"is_reserved":false,"is_disabled":false,"rental_uris":{"android":"levelo://app?vid=3952b980-bc7f-40c1-b3dd-26d64a781d84","ios":"levelo://app?vid=3952b980-bc7f-40c1-b3dd-26d64a781d84"},"vehicle_type_id":"4","last_reported":1678918024,"current_range_meters":6400,"station_id":"ce4bhoh2rcd13ifvqh5g","pricing_plan_id":"free"},{"bike_id":"ff556860-2b3f-4f2f-ba48-3b0f1bab815d","system_id":"levelo_inurba_marseille","lat":43.287154,"lon":5.399979,"is_reserved":false,"is_disabled":false,"rental_uris":{"android":"levelo://app?vid=ff556860-2b3f-4f2f-ba48-3b0f1bab815d","ios":"levelo://app?vid=ff556860-2b3f-4f2f-ba48-3b0f1bab815d"},"vehicle_type_id":"4","last_reported":1678918024,"current_range_meters":28000,"station_id":"ce4bho92rcd13ifvqh3g","pricing_plan_id":"free"},{"bike_id":"b2a0df99-4ec8-435d-bbce-668760f14bc9","system_id":"levelo_inurba_marseille","lat":43.287154,"lon":5.399979,"is_reserved":false,"is_disabled":false,"rental_uris":{"android":"levelo://app?vid=b2a0df99-4ec8-435d-bbce-668760f14bc9","ios":"levelo://app?vid=b2a0df99-4ec8-435d-bbce-668760f14bc9"},"vehicle_type_id":"4","last_reported":1678918024,"current_range_meters":31600,"station_id":"ce4bho92rcd13ifvqh3g","pricing_plan_id":"free"},{"bike_id":"c91be2ee-a976-48d9-9350-04ced2dbfa30","system_id":"levelo_inurba_marseille","lat":43.28704,"lon":5.39992,"is_reserved":false,"is_disabled":false,"rental_uris":{"android":"levelo://app?vid=c91be2ee-a976-48d9-9350-04ced2dbfa30","ios":"levelo://app?vid=c91be2ee-a976-48d9-9350-04ced2dbfa30"},"vehicle_type_id":"4","last_reported":1678918024,"current_range_meters":0,"station_id":"ce4bho92rcd13ifvqh3g","pricing_plan_id":"free"},{"bike_id":"d42a9bb4-09aa-4e42-83ff-d0d65b0bf6e6","system_id":"levelo_inurba_marseille","lat":43.28707,"lon":5.39997,"is_reserved":false,"is_disabled":false,"rental_uris":{"android":"levelo://app?vid=d42a9bb4-09aa-4e42-83ff-d0d65b0bf6e6","ios":"levelo://app?vid=d42a9bb4-09aa-4e42-83ff-d0d65b0bf6e6"},"vehicle_type_id":"4","last_reported":1678918024,"current_range_meters":25600,"station_id":"","pricing_plan_id":"free"},{"bike_id":"aea02ae5-2f40-4e3c-827b-6fa97ac1401e","system_id":"levelo_inurba_marseille","lat":43.320045,"lon":5.415048,"is_reserved":false,"is_disabled":false,"rental_uris":{"android":"levelo://app?vid=aea02ae5-2f40-4e3c-827b-6fa97ac1401e","ios":"levelo://app?vid=aea02ae5-2f40-4e3c-827b-6fa97ac1401e"},"vehicle_type_id":"4","last_reported":1678918024,"current_range_meters":1200,"station_id":"ce4bhq92rcd13ifvqhkg","pricing_plan_id":"free"},{"bike_id":"be15fc15-611f-44bb-9e7e-a898afe4c469","system_id":"levelo_inurba_marseille","lat":43.320045,"lon":5.415048,"is_reserved":false,"is_disabled":false,"rental_uris":{"android":"levelo://app?vid=be15fc15-611f-44bb-9e7e-a898afe4c469","ios":"levelo://app?vid=be15fc15-611f-44bb-9e7e-a898afe4c469"},"vehicle_type_id":"4","last_reported":1678918024,"current_range_meters":8800,"station_id":"ce4bhq92rcd13ifvqhkg","pricing_plan_id":"free"},{"bike_id":"dae80b35-0655-4565-b1a1-c6f9bde81f13","system_id":"levelo_inurba_marseille","lat":43.320045,"lon":5.415048,"is_reserved":false,"is_disabled":false,"rental_uris":{"android":"levelo://app?vid=dae80b35-0655-4565-b1a1-c6f9bde81f13","ios":"levelo://app?vid=dae80b35-0655-4565-b1a1-c6f9bde81f13"},"vehicle_type_id":"4","last_reported":1678918024,"current_range_meters":0,"station_id":"ce4bhq92rcd13ifvqhkg","pricing_plan_id":"free"},{"bike_id":"4ccf5116-56ac-46b8-b13d-8a975fd22200","system_id":"levelo_inurba_marseille","lat":43.320045,"lon":5.415048,"is_reserved":false,"is_disabled":false,"rental_uris":{"android":"levelo://app?vid=4ccf5116-56ac-46b8-b13d-8a975fd22200","ios":"levelo://app?vid=4ccf5116-56ac-46b8-b13d-8a975fd22200"},"vehicle_type_id":"4","last_reported":1678918024,"current_range_meters":30400,"station_id":"ce4bhq92rcd13ifvqhkg","pricing_plan_id":"free"},{"bike_id":"18748e66-c446-4b52-820e-c6c0a5239b64","system_id":"levelo_inurba_marseille","lat":43.29986,"lon":5.41361,"is_reserved":false,"is_disabled":false,"rental_uris":{"android":"levelo://app?vid=18748e66-c446-4b52-820e-c6c0a5239b64","ios":"levelo://app?vid=18748e66-c446-4b52-820e-c6c0a5239b64"},"vehicle_type_id":"4","last_reported":1678918024,"current_range_meters":22800,"station_id":"","pricing_plan_id":"free"},{"bike_id":"124b51a5-c4ec-4bc9-acfa-5ca6df1a4a93","system_id":"levelo_inurba_marseille","lat":43.292571,"lon":5.409107,"is_reserved":false,"is_disabled":false,"rental_uris":{"android":"levelo://app?vid=124b51a5-c4ec-4bc9-acfa-5ca6df1a4a93","ios":"levelo://app?vid=124b51a5-c4ec-4bc9-acfa-5ca6df1a4a93"},"vehicle_type_id":"4","last_reported":1678918024,"current_range_meters":12000,"station_id":"ce4bh192rcd13ifvqdc0","pricing_plan_id":"free"},{"bike_id":"4710e668-322b-4cc2-82ae-e24b8e70f886","system_id":"levelo_inurba_marseille","lat":43.325243,"lon":5.414326,"is_reserved":false,"is_disabled":false,"rental_uris":{"android":"levelo://app?vid=4710e668-322b-4cc2-82ae-e24b8e70f886","ios":"levelo://app?vid=4710e668-322b-4cc2-82ae-e24b8e70f886"},"vehicle_type_id":"4","last_reported":1678918024,"current_range_meters":26400,"station_id":"ce4bhq12rcd13ifvqhhg","pricing_plan_id":"free"},{"bike_id":"469a25b0-3a5b-46da-97e9-c656ae8a6663","system_id":"levelo_inurba_marseille","lat":43.325233,"lon":5.414318,"is_reserved":false,"is_disabled":false,"rental_uris":{"android":"levelo://app?vid=469a25b0-3a5b-46da-97e9-c656ae8a6663","ios":"levelo://app?vid=469a25b0-3a5b-46da-97e9-c656ae8a6663"},"vehicle_type_id":"4","last_reported":1678918024,"current_range_meters":30400,"station_id":"ce4bhq12rcd13ifvqhhg","pricing_plan_id":"free"},{"bike_id":"7b72843c-84a2-4397-9ba7-d1635d220645","system_id":"levelo_inurba_marseille","lat":43.325233,"lon":5.414318,"is_reserved":false,"is_disabled":false,"rental_uris":{"android":"levelo://app?vid=7b72843c-84a2-4397-9ba7-d1635d220645","ios":"levelo://app?vid=7b72843c-84a2-4397-9ba7-d1635d220645"},"vehicle_type_id":"4","last_reported":1678918024,"current_range_meters":28000,"station_id":"ce4bhq12rcd13ifvqhhg","pricing_plan_id":"free"},{"bike_id":"ba90f40d-133c-4f05-8f63-fc18dc680875","system_id":"levelo_inurba_marseille","lat":43.325483,"lon":5.414607,"is_reserved":false,"is_disabled":false,"rental_uris":{"android":"levelo://app?vid=ba90f40d-133c-4f05-8f63-fc18dc680875","ios":"levelo://app?vid=ba90f40d-133c-4f05-8f63-fc18dc680875"},"vehicle_type_id":"4","last_reported":1678918024,"current_range_meters":23200,"station_id":"ce4bhq12rcd13ifvqhhg","pricing_plan_id":"free"},{"bike_id":"56063d18-f345-4859-883d-d6cd2eddb872","system_id":"levelo_inurba_marseille","lat":43.280845,"lon":5.396417,"is_reserved":false,"is_disabled":false,"rental_uris":{"android":"levelo://app?vid=56063d18-f345-4859-883d-d6cd2eddb872","ios":"levelo://app?vid=56063d18-f345-4859-883d-d6cd2eddb872"},"vehicle_type_id":"4","last_reported":1678918024,"current_range_meters":30000,"station_id":"ce4bho12rcd13ifvqh2g","pricing_plan_id":"free"},{"bike_id":"ae25805e-8f76-408f-94cd-7b002108bfd5","system_id":"levelo_inurba_marseille","lat":43.28086,"lon":5.39651,"is_reserved":false,"is_disabled":false,"rental_uris":{"android":"levelo://app?vid=ae25805e-8f76-408f-94cd-7b002108bfd5","ios":"levelo://app?vid=ae25805e-8f76-408f-94cd-7b002108bfd5"},"vehicle_type_id":"4","last_reported":1678918024,"current_range_meters":4800,"station_id":"","pricing_plan_id":"free"},{"bike_id":"4aee179b-4bdb-4ef5-914a-f04a499a36db","system_id":"levelo_inurba_marseille","lat":43.2809,"lon":5.3966,"is_reserved":false,"is_disabled":false,"rental_uris":{"android":"levelo://app?vid=4aee179b-4bdb-4ef5-914a-f04a499a36db","ios":"levelo://app?vid=4aee179b-4bdb-4ef5-914a-f04a499a36db"},"vehicle_type_id":"4","last_reported":1678918024,"current_range_meters":6000,"station_id":"ce4bho12rcd13ifvqh2g","pricing_plan_id":"free"},{"bike_id":"c8d6dc36-f745-4c55-ad20-d0c751ac4a42","system_id":"levelo_inurba_marseille","lat":43.336134,"lon":5.410341,"is_reserved":false,"is_disabled":false,"rental_uris":{"android":"levelo://app?vid=c8d6dc36-f745-4c55-ad20-d0c751ac4a42","ios":"levelo://app?vid=c8d6dc36-f745-4c55-ad20-d0c751ac4a42"},"vehicle_type_id":"4","last_reported":1678918024,"current_range_meters":23200,"station_id":"ce4bhqh2rcd13ifvqhmg","pricing_plan_id":"free"},{"bike_id":"1aa1ba83-fdc2-4f21-b279-c18fe7ceeaed","system_id":"levelo_inurba_marseille","lat":43.280805,"lon":5.396525,"is_reserved":false,"is_disabled":false,"rental_uris":{"android":"levelo://app?vid=1aa1ba83-fdc2-4f21-b279-c18fe7ceeaed","ios":"levelo://app?vid=1aa1ba83-fdc2-4f21-b279-c18fe7ceeaed"},"vehicle_type_id":"4","last_reported":1678918024,"current_range_meters":1600,"station_id":"","pricing_plan_id":"free"},{"bike_id":"34fd5fe3-a308-4729-af65-8ed714567bd2","system_id":"levelo_inurba_marseille","lat":43.280784,"lon":5.396622,"is_reserved":false,"is_disabled":false,"rental_uris":{"android":"levelo://app?vid=34fd5fe3-a308-4729-af65-8ed714567bd2","ios":"levelo://app?vid=34fd5fe3-a308-4729-af65-8ed714567bd2"},"vehicle_type_id":"4","last_reported":1678918024,"current_range_meters":4800,"station_id":"ce4bho12rcd13ifvqh2g","pricing_plan_id":"free"},{"bike_id":"985081f9-e182-4f70-acf7-9b2a0bc7af7b","system_id":"levelo_inurba_marseille","lat":43.28082,"lon":5.396575,"is_reserved":false,"is_disabled":false,"rental_uris":{"android":"levelo://app?vid=985081f9-e182-4f70-acf7-9b2a0bc7af7b","ios":"levelo://app?vid=985081f9-e182-4f70-acf7-9b2a0bc7af7b"},"vehicle_type_id":"4","last_reported":1678918024,"current_range_meters":5600,"station_id":"","pricing_plan_id":"free"},{"bike_id":"a57054b4-3944-411e-9bb4-e348cd1f9b6c","system_id":"levelo_inurba_marseille","lat":43.28076,"lon":5.39658,"is_reserved":false,"is_disabled":false,"rental_uris":{"android":"levelo://app?vid=a57054b4-3944-411e-9bb4-e348cd1f9b6c","ios":"levelo://app?vid=a57054b4-3944-411e-9bb4-e348cd1f9b6c"},"vehicle_type_id":"4","last_reported":1678918024,"current_range_meters":0,"station_id":"","pricing_plan_id":"free"},{"bike_id":"c6c78d7f-e32b-44ca-a63d-a2a1b8674ed2","system_id":"levelo_inurba_marseille","lat":43.280784,"lon":5.396622,"is_reserved":false,"is_disabled":false,"rental_uris":{"android":"levelo://app?vid=c6c78d7f-e32b-44ca-a63d-a2a1b8674ed2","ios":"levelo://app?vid=c6c78d7f-e32b-44ca-a63d-a2a1b8674ed2"},"vehicle_type_id":"4","last_reported":1678918024,"current_range_meters":2000,"station_id":"ce4bho12rcd13ifvqh2g","pricing_plan_id":"free"},{"bike_id":"0d65cf68-9e3c-4f75-aa57-dd331cfc64fb","system_id":"levelo_inurba_marseille","lat":43.273613,"lon":5.362705,"is_reserved":false,"is_disabled":false,"rental_uris":{"android":"levelo://app?vid=0d65cf68-9e3c-4f75-aa57-dd331cfc64fb","ios":"levelo://app?vid=0d65cf68-9e3c-4f75-aa57-dd331cfc64fb"},"vehicle_type_id":"4","last_reported":1678918024,"current_range_meters":31600,"station_id":"ce4bhbh2rcd13ifvqeo0","pricing_plan_id":"free"},{"bike_id":"fed67d13-cd19-41a8-b7c9-28172b0c2266","system_id":"levelo_inurba_marseille","lat":43.273613,"lon":5.362705,"is_reserved":false,"is_disabled":false,"rental_uris":{"android":"levelo://app?vid=fed67d13-cd19-41a8-b7c9-28172b0c2266","ios":"levelo://app?vid=fed67d13-cd19-41a8-b7c9-28172b0c2266"},"vehicle_type_id":"4","last_reported":1678918024,"current_range_meters":30000,"station_id":"ce4bhbh2rcd13ifvqeo0","pricing_plan_id":"free"},{"bike_id":"923d8507-12c3-40fd-b22f-c57feba2b4fe","system_id":"levelo_inurba_marseille","lat":43.273613,"lon":5.362705,"is_reserved":false,"is_disabled":false,"rental_uris":{"android":"levelo://app?vid=923d8507-12c3-40fd-b22f-c57feba2b4fe","ios":"levelo://app?vid=923d8507-12c3-40fd-b22f-c57feba2b4fe"},"vehicle_type_id":"4","last_reported":1678918024,"current_range_meters":28000,"station_id":"ce4bhbh2rcd13ifvqeo0","pricing_plan_id":"free"},{"bike_id":"6ec05a53-8a13-4418-932e-ca3661ae3af4","system_id":"levelo_inurba_marseille","lat":43.273613,"lon":5.362705,"is_reserved":false,"is_disabled":false,"rental_uris":{"android":"levelo://app?vid=6ec05a53-8a13-4418-932e-ca3661ae3af4","ios":"levelo://app?vid=6ec05a53-8a13-4418-932e-ca3661ae3af4"},"vehicle_type_id":"4","last_reported":1678918024,"current_range_meters":29200,"station_id":"ce4bhbh2rcd13ifvqeo0","pricing_plan_id":"free"},{"bike_id":"536e0f45-325d-443f-bea7-4114006c3f94","system_id":"levelo_inurba_marseille","lat":43.273613,"lon":5.362705,"is_reserved":false,"is_disabled":false,"rental_uris":{"android":"levelo://app?vid=536e0f45-325d-443f-bea7-4114006c3f94","ios":"levelo://app?vid=536e0f45-325d-443f-bea7-4114006c3f94"},"vehicle_type_id":"4","last_reported":1678918024,"current_range_meters":30400,"station_id":"ce4bhbh2rcd13ifvqeo0","pricing_plan_id":"free"},{"bike_id":"8d9be07a-6be3-4aff-be6e-cb563df5f0e8","system_id":"levelo_inurba_marseille","lat":43.273613,"lon":5.362705,"is_reserved":false,"is_disabled":false,"rental_uris":{"android":"levelo://app?vid=8d9be07a-6be3-4aff-be6e-cb563df5f0e8","ios":"levelo://app?vid=8d9be07a-6be3-4aff-be6e-cb563df5f0e8"},"vehicle_type_id":"4","last_reported":1678918024,"current_range_meters":23600,"station_id":"ce4bhbh2rcd13ifvqeo0","pricing_plan_id":"free"},{"bike_id":"07585d5b-f490-4106-95ae-63d3ce04dd54","system_id":"levelo_inurba_marseille","lat":43.273613,"lon":5.362705,"is_reserved":false,"is_disabled":false,"rental_uris":{"android":"levelo://app?vid=07585d5b-f490-4106-95ae-63d3ce04dd54","ios":"levelo://app?vid=07585d5b-f490-4106-95ae-63d3ce04dd54"},"vehicle_type_id":"4","last_reported":1678918024,"current_range_meters":6000,"station_id":"ce4bhbh2rcd13ifvqeo0","pricing_plan_id":"free"},{"bike_id":"0aa5fc87-3d2e-40bb-9e32-7b66c02088eb","system_id":"levelo_inurba_marseille","lat":43.273613,"lon":5.362705,"is_reserved":false,"is_disabled":false,"rental_uris":{"android":"levelo://app?vid=0aa5fc87-3d2e-40bb-9e32-7b66c02088eb","ios":"levelo://app?vid=0aa5fc87-3d2e-40bb-9e32-7b66c02088eb"},"vehicle_type_id":"4","last_reported":1678918024,"current_range_meters":19200,"station_id":"ce4bhbh2rcd13ifvqeo0","pricing_plan_id":"free"},{"bike_id":"3cb0cf11-7213-47b0-b35e-15bb3d7e4a83","system_id":"levelo_inurba_marseille","lat":43.273613,"lon":5.362705,"is_reserved":false,"is_disabled":false,"rental_uris":{"android":"levelo://app?vid=3cb0cf11-7213-47b0-b35e-15bb3d7e4a83","ios":"levelo://app?vid=3cb0cf11-7213-47b0-b35e-15bb3d7e4a83"},"vehicle_type_id":"4","last_reported":1678918024,"current_range_meters":25600,"station_id":"ce4bhbh2rcd13ifvqeo0","pricing_plan_id":"free"},{"bike_id":"cc5fd69f-584a-47b4-a535-ce57865fa0d6","system_id":"levelo_inurba_marseille","lat":43.273613,"lon":5.362705,"is_reserved":false,"is_disabled":false,"rental_uris":{"android":"levelo://app?vid=cc5fd69f-584a-47b4-a535-ce57865fa0d6","ios":"levelo://app?vid=cc5fd69f-584a-47b4-a535-ce57865fa0d6"},"vehicle_type_id":"4","last_reported":1678918024,"current_range_meters":24400,"station_id":"ce4bhbh2rcd13ifvqeo0","pricing_plan_id":"free"},{"bike_id":"80e6e7fc-2611-466a-bad7-099b0ef4c34d","system_id":"levelo_inurba_marseille","lat":43.336134,"lon":5.410341,"is_reserved":false,"is_disabled":false,"rental_uris":{"android":"levelo://app?vid=80e6e7fc-2611-466a-bad7-099b0ef4c34d","ios":"levelo://app?vid=80e6e7fc-2611-466a-bad7-099b0ef4c34d"},"vehicle_type_id":"4","last_reported":1678918024,"current_range_meters":6000,"station_id":"ce4bhqh2rcd13ifvqhmg","pricing_plan_id":"free"},{"bike_id":"14625d7b-3ab3-47b9-9a8a-02bd14120c1e","system_id":"levelo_inurba_marseille","lat":43.336134,"lon":5.410341,"is_reserved":false,"is_disabled":false,"rental_uris":{"android":"levelo://app?vid=14625d7b-3ab3-47b9-9a8a-02bd14120c1e","ios":"levelo://app?vid=14625d7b-3ab3-47b9-9a8a-02bd14120c1e"},"vehicle_type_id":"4","last_reported":1678918024,"current_range_meters":22000,"station_id":"ce4bhqh2rcd13ifvqhmg","pricing_plan_id":"free"},{"bike_id":"ddf2a235-42e0-47e0-9c2e-2d3ef747a613","system_id":"levelo_inurba_marseille","lat":43.336134,"lon":5.410341,"is_reserved":false,"is_disabled":false,"rental_uris":{"android":"levelo://app?vid=ddf2a235-42e0-47e0-9c2e-2d3ef747a613","ios":"levelo://app?vid=ddf2a235-42e0-47e0-9c2e-2d3ef747a613"},"vehicle_type_id":"4","last_reported":1678918024,"current_range_meters":23200,"station_id":"ce4bhqh2rcd13ifvqhmg","pricing_plan_id":"free"},{"bike_id":"bd196805-466c-4d1c-82b2-b64f2f01e95a","system_id":"levelo_inurba_marseille","lat":43.336134,"lon":5.410341,"is_reserved":false,"is_disabled":false,"rental_uris":{"android":"levelo://app?vid=bd196805-466c-4d1c-82b2-b64f2f01e95a","ios":"levelo://app?vid=bd196805-466c-4d1c-82b2-b64f2f01e95a"},"vehicle_type_id":"4","last_reported":1678918024,"current_range_meters":6800,"station_id":"ce4bhqh2rcd13ifvqhmg","pricing_plan_id":"free"},{"bike_id":"ba60c7d0-88a5-467b-91b0-6fc1a46b612d","system_id":"levelo_inurba_marseille","lat":43.276683,"lon":5.389043,"is_reserved":false,"is_disabled":false,"rental_uris":{"android":"levelo://app?vid=ba60c7d0-88a5-467b-91b0-6fc1a46b612d","ios":"levelo://app?vid=ba60c7d0-88a5-467b-91b0-6fc1a46b612d"},"vehicle_type_id":"4","last_reported":1678918024,"current_range_meters":0,"station_id":"","pricing_plan_id":"free"},{"bike_id":"4de02cdf-c69d-4ca6-a020-8ecb8e0dcffd","system_id":"levelo_inurba_marseille","lat":43.317121,"lon":5.423936,"is_reserved":false,"is_disabled":false,"rental_uris":{"android":"levelo://app?vid=4de02cdf-c69d-4ca6-a020-8ecb8e0dcffd","ios":"levelo://app?vid=4de02cdf-c69d-4ca6-a020-8ecb8e0dcffd"},"vehicle_type_id":"4","last_reported":1678918024,"current_range_meters":27600,"station_id":"ce4bhp92rcd13ifvqhbg","pricing_plan_id":"free"},{"bike_id":"63dee804-3724-4c91-8499-c6b93aaeb9df","system_id":"levelo_inurba_marseille","lat":43.310785,"lon":5.424305,"is_reserved":false,"is_disabled":false,"rental_uris":{"android":"levelo://app?vid=63dee804-3724-4c91-8499-c6b93aaeb9df","ios":"levelo://app?vid=63dee804-3724-4c91-8499-c6b93aaeb9df"},"vehicle_type_id":"4","last_reported":1678918024,"current_range_meters":27200,"station_id":"ce4bhp92rcd13ifvqhag","pricing_plan_id":"free"},{"bike_id":"5ca7eeef-835e-4096-9d96-5f0f1cfd3e1f","system_id":"levelo_inurba_marseille","lat":43.269319,"lon":5.389397,"is_reserved":false,"is_disabled":false,"rental_uris":{"android":"levelo://app?vid=5ca7eeef-835e-4096-9d96-5f0f1cfd3e1f","ios":"levelo://app?vid=5ca7eeef-835e-4096-9d96-5f0f1cfd3e1f"},"vehicle_type_id":"4","last_reported":1678918024,"current_range_meters":0,"station_id":"ce4bhhh2rcd13ifvqfl0","pricing_plan_id":"free"},{"bike_id":"64896969-7398-48e4-9267-ae27e722b0ab","system_id":"levelo_inurba_marseille","lat":43.295523,"lon":5.422926,"is_reserved":false,"is_disabled":false,"rental_uris":{"android":"levelo://app?vid=64896969-7398-48e4-9267-ae27e722b0ab","ios":"levelo://app?vid=64896969-7398-48e4-9267-ae27e722b0ab"},"vehicle_type_id":"4","last_reported":1678918024,"current_range_meters":0,"station_id":"ce4bhph2rcd13ifvqhdg","pricing_plan_id":"free"},{"bike_id":"d5d264fa-7a75-47af-8e5d-cdec1091e656","system_id":"levelo_inurba_marseille","lat":43.29548,"lon":5.42277,"is_reserved":false,"is_disabled":false,"rental_uris":{"android":"levelo://app?vid=d5d264fa-7a75-47af-8e5d-cdec1091e656","ios":"levelo://app?vid=d5d264fa-7a75-47af-8e5d-cdec1091e656"},"vehicle_type_id":"4","last_reported":1678918024,"current_range_meters":6000,"station_id":"","pricing_plan_id":"free"},{"bike_id":"9b4a94c1-6fc1-48e9-94ed-b56d20dcafa8","system_id":"levelo_inurba_marseille","lat":43.29556,"lon":5.42295,"is_reserved":false,"is_disabled":false,"rental_uris":{"android":"levelo://app?vid=9b4a94c1-6fc1-48e9-94ed-b56d20dcafa8","ios":"levelo://app?vid=9b4a94c1-6fc1-48e9-94ed-b56d20dcafa8"},"vehicle_type_id":"4","last_reported":1678918024,"current_range_meters":8400,"station_id":"","pricing_plan_id":"free"},{"bike_id":"8a2f0ac5-c638-49fd-af37-a4fc7581f247","system_id":"levelo_inurba_marseille","lat":43.272118,"lon":5.391758,"is_reserved":false,"is_disabled":false,"rental_uris":{"android":"levelo://app?vid=8a2f0ac5-c638-49fd-af37-a4fc7581f247","ios":"levelo://app?vid=8a2f0ac5-c638-49fd-af37-a4fc7581f247"},"vehicle_type_id":"4","last_reported":1678918024,"current_range_meters":10000,"station_id":"ce4bhhp2rcd13ifvqfm0","pricing_plan_id":"free"},{"bike_id":"d4d9d318-e59d-4289-8052-7890564e8dfd","system_id":"levelo_inurba_marseille","lat":43.272118,"lon":5.391758,"is_reserved":false,"is_disabled":false,"rental_uris":{"android":"levelo://app?vid=d4d9d318-e59d-4289-8052-7890564e8dfd","ios":"levelo://app?vid=d4d9d318-e59d-4289-8052-7890564e8dfd"},"vehicle_type_id":"4","last_reported":1678918024,"current_range_meters":12800,"station_id":"ce4bhhp2rcd13ifvqfm0","pricing_plan_id":"free"},{"bike_id":"b7a966c9-d93f-48c4-b909-0e08ba968dac","system_id":"levelo_inurba_marseille","lat":43.278128,"lon":5.407195,"is_reserved":false,"is_disabled":false,"rental_uris":{"android":"levelo://app?vid=b7a966c9-d93f-48c4-b909-0e08ba968dac","ios":"levelo://app?vid=b7a966c9-d93f-48c4-b909-0e08ba968dac"},"vehicle_type_id":"4","last_reported":1678918024,"current_range_meters":31600,"station_id":"ce4bhnh2rcd13ifvqgtg","pricing_plan_id":"free"},{"bike_id":"f0228e3c-d686-4bcb-821d-4040ebbb9f09","system_id":"levelo_inurba_marseille","lat":43.278128,"lon":5.407195,"is_reserved":false,"is_disabled":false,"rental_uris":{"android":"levelo://app?vid=f0228e3c-d686-4bcb-821d-4040ebbb9f09","ios":"levelo://app?vid=f0228e3c-d686-4bcb-821d-4040ebbb9f09"},"vehicle_type_id":"4","last_reported":1678918024,"current_range_meters":29200,"station_id":"ce4bhnh2rcd13ifvqgtg","pricing_plan_id":"free"},{"bike_id":"5afefb2c-1776-4fb5-9927-c7719642ec5a","system_id":"levelo_inurba_marseille","lat":43.278128,"lon":5.407195,"is_reserved":false,"is_disabled":false,"rental_uris":{"android":"levelo://app?vid=5afefb2c-1776-4fb5-9927-c7719642ec5a","ios":"levelo://app?vid=5afefb2c-1776-4fb5-9927-c7719642ec5a"},"vehicle_type_id":"4","last_reported":1678918024,"current_range_meters":20400,"station_id":"ce4bhnh2rcd13ifvqgtg","pricing_plan_id":"free"},{"bike_id":"a7fdd23b-5d53-4286-99bc-c45cf2848843","system_id":"levelo_inurba_marseille","lat":43.278128,"lon":5.407195,"is_reserved":false,"is_disabled":false,"rental_uris":{"android":"levelo://app?vid=a7fdd23b-5d53-4286-99bc-c45cf2848843","ios":"levelo://app?vid=a7fdd23b-5d53-4286-99bc-c45cf2848843"},"vehicle_type_id":"4","last_reported":1678918024,"current_range_meters":12800,"station_id":"ce4bhnh2rcd13ifvqgtg","pricing_plan_id":"free"},{"bike_id":"bcad4114-a88c-4e86-922e-845339c4d011","system_id":"levelo_inurba_marseille","lat":43.265714,"lon":5.372891,"is_reserved":false,"is_disabled":false,"rental_uris":{"android":"levelo://app?vid=bcad4114-a88c-4e86-922e-845339c4d011","ios":"levelo://app?vid=bcad4114-a88c-4e86-922e-845339c4d011"},"vehicle_type_id":"4","last_reported":1678918024,"current_range_meters":31600,"station_id":"ce4bhg12rcd13ifvqf70","pricing_plan_id":"free"},{"bike_id":"838dd8fe-ec7c-415e-8f4c-b6b039251b6e","system_id":"levelo_inurba_marseille","lat":43.26679,"lon":5.38268,"is_reserved":false,"is_disabled":false,"rental_uris":{"android":"levelo://app?vid=838dd8fe-ec7c-415e-8f4c-b6b039251b6e","ios":"levelo://app?vid=838dd8fe-ec7c-415e-8f4c-b6b039251b6e"},"vehicle_type_id":"4","last_reported":1678918024,"current_range_meters":13600,"station_id":"ce4bhg92rcd13ifvqf90","pricing_plan_id":"free"},{"bike_id":"dc18b17d-e141-4e12-9adc-ce826bdfe190","system_id":"levelo_inurba_marseille","lat":43.265714,"lon":5.372891,"is_reserved":false,"is_disabled":false,"rental_uris":{"android":"levelo://app?vid=dc18b17d-e141-4e12-9adc-ce826bdfe190","ios":"levelo://app?vid=dc18b17d-e141-4e12-9adc-ce826bdfe190"},"vehicle_type_id":"4","last_reported":1678918024,"current_range_meters":5600,"station_id":"ce4bhg12rcd13ifvqf70","pricing_plan_id":"free"},{"bike_id":"3b1ddc9d-4e34-4359-b677-cc90d3b18930","system_id":"levelo_inurba_marseille","lat":43.265714,"lon":5.372891,"is_reserved":false,"is_disabled":false,"rental_uris":{"android":"levelo://app?vid=3b1ddc9d-4e34-4359-b677-cc90d3b18930","ios":"levelo://app?vid=3b1ddc9d-4e34-4359-b677-cc90d3b18930"},"vehicle_type_id":"4","last_reported":1678918024,"current_range_meters":23600,"station_id":"ce4bhg12rcd13ifvqf70","pricing_plan_id":"free"},{"bike_id":"ac2a3231-74ba-4c50-b3c2-150f9b436ae5","system_id":"levelo_inurba_marseille","lat":43.279352,"lon":5.414961,"is_reserved":false,"is_disabled":false,"rental_uris":{"android":"levelo://app?vid=ac2a3231-74ba-4c50-b3c2-150f9b436ae5","ios":"levelo://app?vid=ac2a3231-74ba-4c50-b3c2-150f9b436ae5"},"vehicle_type_id":"4","last_reported":1678918024,"current_range_meters":0,"station_id":"","pricing_plan_id":"free"},{"bike_id":"ce966a5e-784c-49f3-a959-f34b3e73f4c8","system_id":"levelo_inurba_marseille","lat":43.27997,"lon":5.4166,"is_reserved":false,"is_disabled":false,"rental_uris":{"android":"levelo://app?vid=ce966a5e-784c-49f3-a959-f34b3e73f4c8","ios":"levelo://app?vid=ce966a5e-784c-49f3-a959-f34b3e73f4c8"},"vehicle_type_id":"4","last_reported":1678918024,"current_range_meters":7600,"station_id":"","pricing_plan_id":"free"},{"bike_id":"35fcbc71-4d6e-4e31-ac69-34107d646b75","system_id":"levelo_inurba_marseille","lat":43.27995,"lon":5.41659,"is_reserved":false,"is_disabled":false,"rental_uris":{"android":"levelo://app?vid=35fcbc71-4d6e-4e31-ac69-34107d646b75","ios":"levelo://app?vid=35fcbc71-4d6e-4e31-ac69-34107d646b75"},"vehicle_type_id":"4","last_reported":1678918024,"current_range_meters":29200,"station_id":"ce4bho12rcd13ifvqh1g","pricing_plan_id":"free"},{"bike_id":"a2b1aaa2-122b-4268-93ad-4ee88667a20a","system_id":"levelo_inurba_marseille","lat":43.27993,"lon":5.41659,"is_reserved":false,"is_disabled":false,"rental_uris":{"android":"levelo://app?vid=a2b1aaa2-122b-4268-93ad-4ee88667a20a","ios":"levelo://app?vid=a2b1aaa2-122b-4268-93ad-4ee88667a20a"},"vehicle_type_id":"4","last_reported":1678918024,"current_range_meters":0,"station_id":"","pricing_plan_id":"free"},{"bike_id":"7ee3b5e8-36dd-4fee-bf2a-baa08be7adb6","system_id":"levelo_inurba_marseille","lat":43.27996,"lon":5.416624,"is_reserved":false,"is_disabled":false,"rental_uris":{"android":"levelo://app?vid=7ee3b5e8-36dd-4fee-bf2a-baa08be7adb6","ios":"levelo://app?vid=7ee3b5e8-36dd-4fee-bf2a-baa08be7adb6"},"vehicle_type_id":"4","last_reported":1678918024,"current_range_meters":4400,"station_id":"ce4bho12rcd13ifvqh1g","pricing_plan_id":"free"},{"bike_id":"29ee4140-f05a-483a-ba14-a574596f748d","system_id":"levelo_inurba_marseille","lat":43.308051,"lon":5.43527,"is_reserved":false,"is_disabled":false,"rental_uris":{"android":"levelo://app?vid=29ee4140-f05a-483a-ba14-a574596f748d","ios":"levelo://app?vid=29ee4140-f05a-483a-ba14-a574596f748d"},"vehicle_type_id":"4","last_reported":1678918024,"current_range_meters":20000,"station_id":"ce4bhph2rcd13ifvqheg","pricing_plan_id":"free"},{"bike_id":"3a2710ca-cd01-4131-83f3-ac91d4e0887c","system_id":"levelo_inurba_marseille","lat":43.307976,"lon":5.435313,"is_reserved":false,"is_disabled":false,"rental_uris":{"android":"levelo://app?vid=3a2710ca-cd01-4131-83f3-ac91d4e0887c","ios":"levelo://app?vid=3a2710ca-cd01-4131-83f3-ac91d4e0887c"},"vehicle_type_id":"4","last_reported":1678918024,"current_range_meters":19600,"station_id":"","pricing_plan_id":"free"},{"bike_id":"e944a890-68a6-4215-926e-7f88f389ac5a","system_id":"levelo_inurba_marseille","lat":43.261782,"lon":5.374515,"is_reserved":false,"is_disabled":false,"rental_uris":{"android":"levelo://app?vid=e944a890-68a6-4215-926e-7f88f389ac5a","ios":"levelo://app?vid=e944a890-68a6-4215-926e-7f88f389ac5a"},"vehicle_type_id":"4","last_reported":1678918024,"current_range_meters":20400,"station_id":"ce4bhgp2rcd13ifvqfc0","pricing_plan_id":"free"},{"bike_id":"897b75b6-66bd-4cbe-a687-d5f462314b53","system_id":"levelo_inurba_marseille","lat":43.317104,"lon":5.436818,"is_reserved":false,"is_disabled":false,"rental_uris":{"android":"levelo://app?vid=897b75b6-66bd-4cbe-a687-d5f462314b53","ios":"levelo://app?vid=897b75b6-66bd-4cbe-a687-d5f462314b53"},"vehicle_type_id":"4","last_reported":1678918024,"current_range_meters":16800,"station_id":"ce4bhp92rcd13ifvqhcg","pricing_plan_id":"free"},{"bike_id":"9d878540-089b-4ea8-b42d-fe003e60de0d","system_id":"levelo_inurba_marseille","lat":43.317104,"lon":5.436818,"is_reserved":false,"is_disabled":false,"rental_uris":{"android":"levelo://app?vid=9d878540-089b-4ea8-b42d-fe003e60de0d","ios":"levelo://app?vid=9d878540-089b-4ea8-b42d-fe003e60de0d"},"vehicle_type_id":"4","last_reported":1678918024,"current_range_meters":4400,"station_id":"ce4bhp92rcd13ifvqhcg","pricing_plan_id":"free"},{"bike_id":"32101b9f-c9d5-4a7a-aae6-fd496633ec0e","system_id":"levelo_inurba_marseille","lat":43.262012,"lon":5.379307,"is_reserved":false,"is_disabled":false,"rental_uris":{"android":"levelo://app?vid=32101b9f-c9d5-4a7a-aae6-fd496633ec0e","ios":"levelo://app?vid=32101b9f-c9d5-4a7a-aae6-fd496633ec0e"},"vehicle_type_id":"4","last_reported":1678918024,"current_range_meters":16000,"station_id":"ce4bhjp2rcd13ifvqg90","pricing_plan_id":"free"},{"bike_id":"07a0319b-c433-408d-ac89-7526c0e3f128","system_id":"levelo_inurba_marseille","lat":43.280273,"lon":5.426031,"is_reserved":false,"is_disabled":false,"rental_uris":{"android":"levelo://app?vid=07a0319b-c433-408d-ac89-7526c0e3f128","ios":"levelo://app?vid=07a0319b-c433-408d-ac89-7526c0e3f128"},"vehicle_type_id":"4","last_reported":1678918024,"current_range_meters":0,"station_id":"","pricing_plan_id":"free"},{"bike_id":"7381adce-a363-4900-8877-e7263485750d","system_id":"levelo_inurba_marseille","lat":43.26089,"lon":5.39764,"is_reserved":false,"is_disabled":false,"rental_uris":{"android":"levelo://app?vid=7381adce-a363-4900-8877-e7263485750d","ios":"levelo://app?vid=7381adce-a363-4900-8877-e7263485750d"},"vehicle_type_id":"4","last_reported":1678918024,"current_range_meters":14000,"station_id":"ce4bhi12rcd13ifvqfq0","pricing_plan_id":"free"},{"bike_id":"cdb38068-8399-4c03-8d2f-daf4e2aa5670","system_id":"levelo_inurba_marseille","lat":43.26081,"lon":5.39766,"is_reserved":false,"is_disabled":false,"rental_uris":{"android":"levelo://app?vid=cdb38068-8399-4c03-8d2f-daf4e2aa5670","ios":"levelo://app?vid=cdb38068-8399-4c03-8d2f-daf4e2aa5670"},"vehicle_type_id":"4","last_reported":1678918024,"current_range_meters":0,"station_id":"ce4bhi12rcd13ifvqfq0","pricing_plan_id":"free"},