{"last_updated":1753331957,"ttl":60,"version":"2.2","data":{"bikes":[{"bike_id":"be195ba6-1e0f-4159-bc72-9a3ba69b5a56","system_id":"levelo_inurba_marseille","lat":43.313649,"lon":5.391513,"is_reserved":false,"is_disabled":false,"rental_uris":{"android":"levelo://app?vid=be195ba6-1e0f-4159-bc72-9a3ba69b5a56","ios":"levelo://app?vid=be195ba6-1e0f-4159-bc72-9a3ba69b5a56"},"vehicle_type_id":"4","last_reported":1753331958,"current_range_meters":3200,"station_id":"","pricing_plan_id":"cebpf4jnsgd1na2vs0mg"},{"bike_id":"3e672a12-a06c-421d-8d90-001874a4fd84","system_id":"levelo_inurba_marseille","lat":43.30208,"lon":5.39455,"is_reserved":false,"is_disabled":true,"rental_uris":{"android":"levelo://app?vid=3e672a12-a06c-421d-8d90-001874a4fd84","ios":"levelo://app?vid=3e672a12-a06c-421d-8d90-001874a4fd84"},"vehicle_type_id":"4","last_reported":1753331958,"current_range_meters":3200,"station_id":"ce4bh0p2rcd13ifvqd70","pricing_plan_id":"cebpf4jnsgd1na2vs0mg"},{"bike_id":"83766871-d64f-4fc8-9d3b-2ceaf03b1036","system_id":"levelo_inurba_marseille","lat":43.211965,"lon":5.350712,"is_reserved":false,"is_disabled":false,"rental_uris":{"android":"levelo://app?vid=83766871-d64f-4fc8-9d3b-2ceaf03b1036","ios":"levelo://app?vid=83766871-d64f-4fc8-9d3b-2ceaf03b1036"},"vehicle_type_id":"4","last_reported":1753331958,"current_range_meters":3600,"station_id":"st_cvj6sg6p6f1abm77japg","pricing_plan_id":"cebpf4jnsgd1na2vs0mg"},{"bike_id":"1466337a-ac7e-4d01-8713-ab8364809360","system_id":"levelo_inurba_marseille","lat":43.29526,"lon":5.37514,"is_reserved":false,"is_disabled":false,"rental_uris":{"android":"levelo://app?vid=1466337a-ac7e-4d01-8713-ab8364809360","ios":"levelo://app?vid=1466337a-ac7e-4d01-8713-ab8364809360"},"vehicle_type_id":"4","last_reported":1753331958,"current_range_meters":3600,"station_id":"ce4bgkp2rcd13ifvqbmg","pricing_plan_id":"cebpf4jnsgd1na2vs0mg"},{"bike_id":"a97ea489-5dfc-41f2-b140-b67c72bc77f3","system_id":"levelo_inurba_marseille","lat":43.2953,"lon":5.39042,"is_reserved":false,"is_disabled":false,"rental_uris":{"android":"levelo://app?vid=a97ea489-5dfc-41f2-b140-b67c72bc77f3","ios":"levelo://app?vid=a97ea489-5dfc-41f2-b140-b67c72bc77f3"},"vehicle_type_id":"4","last_reported":1753331958,"current_range_meters":4000,"station_id":"ce4bh3p2rcd13ifvqdp0","pricing_plan_id":"cebpf4jnsgd1na2vs0mg"},{"bike_id":"ec0adf83-6184-4d63-a8bd-8a4c46331101","system_id":"levelo_inurba_marseille","lat":43.26068,"lon":5.39407,"is_reserved":false,"is_disabled":true,"rental_uris":{"android":"levelo://app?vid=ec0adf83-6184-4d63-a8bd-8a4c46331101","ios":"levelo://app?vid=ec0adf83-6184-4d63-a8bd-8a4c46331101"},"vehicle_type_id":"4","last_reported":1753331958,"current_range_meters":4000,"station_id":"ce4bhh92rcd13ifvqfj0","pricing_plan_id":"cebpf4jnsgd1na2vs0mg"},{"bike_id":"b84a0cb7-2934-4e46-91ed-f5deb84fef74","system_id":"levelo_inurba_marseille","lat":43.30356,"lon":5.41864,"is_reserved":false,"is_disabled":false,"rental_uris":{"android":"levelo://app?vid=b84a0cb7-2934-4e46-91ed-f5deb84fef74","ios":"levelo://app?vid=b84a0cb7-2934-4e46-91ed-f5deb84fef74"},"vehicle_type_id":"4","last_reported":1753331958,"current_range_meters":4400,"station_id":"ce4bhop2rcd13ifvqh7g","pricing_plan_id":"cebpf4jnsgd1na2vs0mg"},{"bike_id":"ad0a0b67-8a0b-4ea8-a741-02a3acd98b67","system_id":"levelo_inurba_marseille","lat":43.27062,"lon":5.40254,"is_reserved":false,"is_disabled":false,"rental_uris":{"android":"levelo://app?vid=ad0a0b67-8a0b-4ea8-a741-02a3acd98b67","ios":"levelo://app?vid=ad0a0b67-8a0b-4ea8-a741-02a3acd98b67"},"vehicle_type_id":"4","last_reported":1753331958,"current_range_meters":4800,"station_id":"ce4bhk92rcd13ifvqgc0","pricing_plan_id":"cebpf4jnsgd1na2vs0mg"},{"bike_id":"c746d50a-9346-4f26-868c-553f6649b13e","system_id":"levelo_inurba_marseille","lat":43.28357,"lon":5.38109,"is_reserved":false,"is_disabled":false,"rental_uris":{"android":"levelo://app?vid=c746d50a-9346-4f26-868c-553f6649b13e","ios":"levelo://app?vid=c746d50a-9346-4f26-868c-553f6649b13e"},"vehicle_type_id":"4","last_reported":1753331958,"current_range_meters":5600,"station_id":"ce4bh412rcd13ifvqdr0","pricing_plan_id":"cebpf4jnsgd1na2vs0mg"},{"bike_id":"d07f0755-aca6-4050-807e-9c5aaf0dd619","system_id":"levelo_inurba_marseille","lat":43.296823,"lon":5.372723,"is_reserved":false,"is_disabled":true,"rental_uris":{"android":"levelo://app?vid=d07f0755-aca6-4050-807e-9c5aaf0dd619","ios":"levelo://app?vid=d07f0755-aca6-4050-807e-9c5aaf0dd619"},"vehicle_type_id":"4","last_reported":1753331958,"current_range_meters":6000,"station_id":"ce4bgk12rcd13ifvqbj0","pricing_plan_id":"cebpf4jnsgd1na2vs0mg"},{"bike_id":"9ae7d50c-a3ea-4136-8080-315c191e000a","system_id":"levelo_inurba_marseille","lat":43.2877,"lon":5.38425,"is_reserved":false,"is_disabled":false,"rental_uris":{"android":"levelo://app?vid=9ae7d50c-a3ea-4136-8080-315c191e000a","ios":"levelo://app?vid=9ae7d50c-a3ea-4136-8080-315c191e000a"},"vehicle_type_id":"4","last_reported":1753331958,"current_range_meters":6000,"station_id":"","pricing_plan_id":"cebpf4jnsgd1na2vs0mg"},{"bike_id":"be1e7bd7-2292-4277-82c8-43ced60568bf","system_id":"levelo_inurba_marseille","lat":43.308933,"lon":5.3965,"is_reserved":false,"is_disabled":false,"rental_uris":{"android":"levelo://app?vid=be1e7bd7-2292-4277-82c8-43ced60568bf","ios":"levelo://app?vid=be1e7bd7-2292-4277-82c8-43ced60568bf"},"vehicle_type_id":"4","last_reported":1753331958,"current_range_meters":6000,"station_id":"ce4bh012rcd13ifvqcv0","pricing_plan_id":"cebpf4jnsgd1na2vs0mg"},{"bike_id":"0f623a3e-0498-44ff-9b64-82548999efff","system_id":"levelo_inurba_marseille","lat":43.28724,"lon":5.39992,"is_reserved":false,"is_disabled":false,"rental_uris":{"android":"levelo://app?vid=0f623a3e-0498-44ff-9b64-82548999efff","ios":"levelo://app?vid=0f623a3e-0498-44ff-9b64-82548999efff"},"vehicle_type_id":"4","last_reported":1753331958,"current_range_meters":6400,"station_id":"ce4bho92rcd13ifvqh3g","pricing_plan_id":"cebpf4jnsgd1na2vs0mg"},{"bike_id":"cec54183-4175-4e4a-8f8a-f4fafb6e7dc0","system_id":"levelo_inurba_marseille","lat":43.27986,"lon":5.38993,"is_reserved":false,"is_disabled":false,"rental_uris":{"android":"levelo://app?vid=cec54183-4175-4e4a-8f8a-f4fafb6e7dc0","ios":"levelo://app?vid=cec54183-4175-4e4a-8f8a-f4fafb6e7dc0"},"vehicle_type_id":"4","last_reported":1753331958,"current_range_meters":6400,"station_id":"","pricing_plan_id":"cebpf4jnsgd1na2vs0mg"},{"bike_id":"c8cbe188-8c80-4aac-881d-65feb870e521","system_id":"levelo_inurba_marseille","lat":43.33019,"lon":5.38044,"is_reserved":false,"is_disabled":false,"rental_uris":{"android":"levelo://app?vid=c8cbe188-8c80-4aac-881d-65feb870e521","ios":"levelo://app?vid=c8cbe188-8c80-4aac-881d-65feb870e521"},"vehicle_type_id":"4","last_reported":1753331958,"current_range_meters":6400,"station_id":"","pricing_plan_id":"cebpf4jnsgd1na2vs0mg"},{"bike_id":"9c948a30-8975-498b-b9d4-0baebee67a83","system_id":"levelo_inurba_marseille","lat":43.26207,"lon":5.37448,"is_reserved":false,"is_disabled":true,"rental_uris":{"android":"levelo://app?vid=9c948a30-8975-498b-b9d4-0baebee67a83","ios":"levelo://app?vid=9c948a30-8975-498b-b9d4-0baebee67a83"},"vehicle_type_id":"4","last_reported":1753331958,"current_range_meters":6800,"station_id":"ce4bhgp2rcd13ifvqfc0","pricing_plan_id":"cebpf4jnsgd1na2vs0mg"},{"bike_id":"778edaec-857e-4d28-a0e6-80b81bf5c91c","system_id":"levelo_inurba_marseille","lat":43.30414,"lon":5.41273,"is_reserved":false,"is_disabled":false,"rental_uris":{"android":"levelo://app?vid=778edaec-857e-4d28-a0e6-80b81bf5c91c","ios":"levelo://app?vid=778edaec-857e-4d28-a0e6-80b81bf5c91c"},"vehicle_type_id":"4","last_reported":1753331958,"current_range_meters":7200,"station_id":"ce4bhop2rcd13ifvqh8g","pricing_plan_id":"cebpf4jnsgd1na2vs0mg"},{"bike_id":"d26a4141-f76e-4ed9-9c35-1e6a340df9c7","system_id":"levelo_inurba_marseille","lat":43.30465,"lon":5.38911,"is_reserved":false,"is_disabled":false,"rental_uris":{"android":"levelo://app?vid=d26a4141-f76e-4ed9-9c35-1e6a340df9c7","ios":"levelo://app?vid=d26a4141-f76e-4ed9-9c35-1e6a340df9c7"},"vehicle_type_id":"4","last_reported":1753331958,"current_range_meters":7200,"station_id":"ce4bgk12rcd13ifvqbi0","pricing_plan_id":"cebpf4jnsgd1na2vs0mg"},{"bike_id":"a5f1f0d6-c678-45f4-9b29-96eaa29a3e36","system_id":"levelo_inurba_marseille","lat":43.25148,"lon":5.37334,"is_reserved":false,"is_disabled":true,"rental_uris":{"android":"levelo://app?vid=a5f1f0d6-c678-45f4-9b29-96eaa29a3e36","ios":"levelo://app?vid=a5f1f0d6-c678-45f4-9b29-96eaa29a3e36"},"vehicle_type_id":"4","last_reported":1753331958,"current_range_meters":7200,"station_id":"","pricing_plan_id":"cebpf4jnsgd1na2vs0mg"},{"bike_id":"93902f24-f8e2-4c06-9c98-4306399f8c55","system_id":"levelo_inurba_marseille","lat":43.30815,"lon":5.38126,"is_reserved":false,"is_disabled":false,"rental_uris":{"android":"levelo://app?vid=93902f24-f8e2-4c06-9c98-4306399f8c55","ios":"levelo://app?vid=93902f24-f8e2-4c06-9c98-4306399f8c55"},"vehicle_type_id":"4","last_reported":1753331958,"current_range_meters":8000,"station_id":"ce4bgt12rcd13ifvqce0","pricing_plan_id":"cebpf4jnsgd1na2vs0mg"},{"bike_id":"7d09b13c-ebc2-4748-a807-033d4cb42b76","system_id":"levelo_inurba_marseille","lat":43.28682,"lon":5.37408,"is_reserved":false,"is_disabled":false,"rental_uris":{"android":"levelo://app?vid=7d09b13c-ebc2-4748-a807-033d4cb42b76","ios":"levelo://app?vid=7d09b13c-ebc2-4748-a807-033d4cb42b76"},"vehicle_type_id":"4","last_reported":1753331958,"current_range_meters":8000,"station_id":"ce4bh3p2rcd13ifvqdq0","pricing_plan_id":"cebpf4jnsgd1na2vs0mg"},{"bike_id":"c9dbd36b-479c-4a5c-b200-3aa7673340d9","system_id":"levelo_inurba_marseille","lat":43.241448,"lon":5.363743,"is_reserved":false,"is_disabled":true,"rental_uris":{"android":"levelo://app?vid=c9dbd36b-479c-4a5c-b200-3aa7673340d9","ios":"levelo://app?vid=c9dbd36b-479c-4a5c-b200-3aa7673340d9"},"vehicle_type_id":"4","last_reported":1753331958,"current_range_meters":8000,"station_id":"","pricing_plan_id":"cebpf4jnsgd1na2vs0mg"},{"bike_id":"8e98eab0-66ab-41cb-865f-913b58891b39","system_id":"levelo_inurba_marseille","lat":43.225122,"lon":5.347687,"is_reserved":false,"is_disabled":false,"rental_uris":{"android":"levelo://app?vid=8e98eab0-66ab-41cb-865f-913b58891b39","ios":"levelo://app?vid=8e98eab0-66ab-41cb-865f-913b58891b39"},"vehicle_type_id":"4","last_reported":1753331958,"current_range_meters":8000,"station_id":"st_cvj5dfep6f1abm77gieg","pricing_plan_id":"cebpf4jnsgd1na2vs0mg"},{"bike_id":"aa5097b6-6968-4aec-b711-e7780938924b","system_id":"levelo_inurba_marseille","lat":43.32971,"lon":5.35887,"is_reserved":false,"is_disabled":false,"rental_uris":{"android":"levelo://app?vid=aa5097b6-6968-4aec-b711-e7780938924b","ios":"levelo://app?vid=aa5097b6-6968-4aec-b711-e7780938924b"},"vehicle_type_id":"4","last_reported":1753331958,"current_range_meters":8000,"station_id":"","pricing_plan_id":"cebpf4jnsgd1na2vs0mg"},{"bike_id":"c8b34952-825d-44b2-8c39-75d5985701d9","system_id":"levelo_inurba_marseille","lat":43.30246,"lon":5.40043,"is_reserved":false,"is_disabled":false,"rental_uris":{"android":"levelo://app?vid=c8b34952-825d-44b2-8c39-75d5985701d9","ios":"levelo://app?vid=c8b34952-825d-44b2-8c39-75d5985701d9"},"vehicle_type_id":"4","last_reported":1753331958,"current_range_meters":8400,"station_id":"ce4bgvh2rcd13ifvqcs0","pricing_plan_id":"cebpf4jnsgd1na2vs0mg"},{"bike_id":"49817bfa-2976-4626-b9b0-d6e3f4481d9b","system_id":"levelo_inurba_marseille","lat":43.30378,"lon":5.42481,"is_reserved":false,"is_disabled":false,"rental_uris":{"android":"levelo://app?vid=49817bfa-2976-4626-b9b0-d6e3f4481d9b","ios":"levelo://app?vid=49817bfa-2976-4626-b9b0-d6e3f4481d9b"},"vehicle_type_id":"4","last_reported":1753331958,"current_range_meters":8400,"station_id":"ce4bhoh2rcd13ifvqh6g","pricing_plan_id":"cebpf4jnsgd1na2vs0mg"},{"bike_id":"141869e7-c231-4f40-b632-e539bdd2515a","system_id":"levelo_inurba_marseille","lat":43.28417,"lon":5.37516,"is_reserved":false,"is_disabled":false,"rental_uris":{"android":"levelo://app?vid=141869e7-c231-4f40-b632-e539bdd2515a","ios":"levelo://app?vid=141869e7-c231-4f40-b632-e539bdd2515a"},"vehicle_type_id":"4","last_reported":1753331958,"current_range_meters":8400,"station_id":"ce4bh412rcd13ifvqds0","pricing_plan_id":"cebpf4jnsgd1na2vs0mg"},{"bike_id":"da053e6a-15f2-492e-8bc1-42b1d66cc329","system_id":"levelo_inurba_marseille","lat":43.28387,"lon":5.43251,"is_reserved":false,"is_disabled":false,"rental_uris":{"android":"levelo://app?vid=da053e6a-15f2-492e-8bc1-42b1d66cc329","ios":"levelo://app?vid=da053e6a-15f2-492e-8bc1-42b1d66cc329"},"vehicle_type_id":"4","last_reported":1753331958,"current_range_meters":8800,"station_id":"","pricing_plan_id":"cebpf4jnsgd1na2vs0mg"},{"bike_id":"ab87e1f7-abe2-4879-8847-579f441a056a","system_id":"levelo_inurba_marseille","lat":43.31102,"lon":5.42458,"is_reserved":false,"is_disabled":false,"rental_uris":{"android":"levelo://app?vid=ab87e1f7-abe2-4879-8847-579f441a056a","ios":"levelo://app?vid=ab87e1f7-abe2-4879-8847-579f441a056a"},"vehicle_type_id":"4","last_reported":1753331958,"current_range_meters":8800,"station_id":"ce4bhp92rcd13ifvqhag","pricing_plan_id":"cebpf4jnsgd1na2vs0mg"},{"bike_id":"3faf6c26-a82d-4ccc-bb56-f50b2f537733","system_id":"levelo_inurba_marseille","lat":43.28467,"lon":5.35845,"is_reserved":false,"is_disabled":false,"rental_uris":{"android":"levelo://app?vid=3faf6c26-a82d-4ccc-bb56-f50b2f537733","ios":"levelo://app?vid=3faf6c26-a82d-4ccc-bb56-f50b2f537733"},"vehicle_type_id":"4","last_reported":1753331958,"current_range_meters":8800,"station_id":"ce4bhah2rcd13ifvqei0","pricing_plan_id":"cebpf4jnsgd1na2vs0mg"},{"bike_id":"68154b5b-0847-4926-b20a-1421e3d04487","system_id":"levelo_inurba_marseille","lat":43.28481,"lon":5.3588,"is_reserved":false,"is_disabled":false,"rental_uris":{"android":"levelo://app?vid=68154b5b-0847-4926-b20a-1421e3d04487","ios":"levelo://app?vid=68154b5b-0847-4926-b20a-1421e3d04487"},"vehicle_type_id":"4","last_reported":1753331958,"current_range_meters":9200,"station_id":"ce4bhah2rcd13ifvqei0","pricing_plan_id":"cebpf4jnsgd1na2vs0mg"},{"bike_id":"564dcebd-8e46-4922-bbf2-7b720049e377","system_id":"levelo_inurba_marseille","lat":43.31288,"lon":5.40178,"is_reserved":false,"is_disabled":false,"rental_uris":{"android":"levelo://app?vid=564dcebd-8e46-4922-bbf2-7b720049e377","ios":"levelo://app?vid=564dcebd-8e46-4922-bbf2-7b720049e377"},"vehicle_type_id":"4","last_reported":1753331958,"current_range_meters":9200,"station_id":"ce4bh092rcd13ifvqd30","pricing_plan_id":"cebpf4jnsgd1na2vs0mg"},{"bike_id":"c3b4c842-89f1-49ff-abb9-fc4b30df4519","system_id":"levelo_inurba_marseille","lat":43.25576,"lon":5.3823,"is_reserved":false,"is_disabled":true,"rental_uris":{"android":"levelo://app?vid=c3b4c842-89f1-49ff-abb9-fc4b30df4519","ios":"levelo://app?vid=c3b4c842-89f1-49ff-abb9-fc4b30df4519"},"vehicle_type_id":"4","last_reported":1753331958,"current_range_meters":9200,"station_id":"ce4bhih2rcd13ifvqfs0","pricing_plan_id":"cebpf4jnsgd1na2vs0mg"},{"bike_id":"c4ab8b6f-b9e7-4d47-91c0-82fcf9196b75","system_id":"levelo_inurba_marseille","lat":43.30226,"lon":5.40044,"is_reserved":false,"is_disabled":true,"rental_uris":{"android":"levelo://app?vid=c4ab8b6f-b9e7-4d47-91c0-82fcf9196b75","ios":"levelo://app?vid=c4ab8b6f-b9e7-4d47-91c0-82fcf9196b75"},"vehicle_type_id":"4","last_reported":1753331958,"current_range_meters":9200,"station_id":"ce4bgvh2rcd13ifvqcs0","pricing_plan_id":"cebpf4jnsgd1na2vs0mg"},{"bike_id":"b277c68a-cbc3-4d71-b3a1-1394deefd1e7","system_id":"levelo_inurba_marseille","lat":43.304127,"lon":5.412892,"is_reserved":false,"is_disabled":false,"rental_uris":{"android":"levelo://app?vid=b277c68a-cbc3-4d71-b3a1-1394deefd1e7","ios":"levelo://app?vid=b277c68a-cbc3-4d71-b3a1-1394deefd1e7"},"vehicle_type_id":"4","last_reported":1753331958,"current_range_meters":9200,"station_id":"ce4bhop2rcd13ifvqh8g","pricing_plan_id":"cebpf4jnsgd1na2vs0mg"},{"bike_id":"4361b381-371f-46aa-8973-9782051f3e79","system_id":"levelo_inurba_marseille","lat":43.31496,"lon":5.37301,"is_reserved":false,"is_disabled":false,"rental_uris":{"android":"levelo://app?vid=4361b381-371f-46aa-8973-9782051f3e79","ios":"levelo://app?vid=4361b381-371f-46aa-8973-9782051f3e79"},"vehicle_type_id":"4","last_reported":1753331958,"current_range_meters":9600,"station_id":"ce4bgt12rcd13ifvqcd0","pricing_plan_id":"cebpf4jnsgd1na2vs0mg"},{"bike_id":"e4761578-ae86-4dfa-b146-0428e5d8cca7","system_id":"levelo_inurba_marseille","lat":43.24166,"lon":5.36398,"is_reserved":false,"is_disabled":true,"rental_uris":{"android":"levelo://app?vid=e4761578-ae86-4dfa-b146-0428e5d8cca7","ios":"levelo://app?vid=e4761578-ae86-4dfa-b146-0428e5d8cca7"},"vehicle_type_id":"4","last_reported":1753331958,"current_range_meters":9600,"station_id":"cpo36qri1sfpv3e86is0","pricing_plan_id":"cebpf4jnsgd1na2vs0mg"},{"bike_id":"f9062784-0417-4840-bb15-81c56a64826f","system_id":"levelo_inurba_marseille","lat":43.22504,"lon":5.3478,"is_reserved":false,"is_disabled":false,"rental_uris":{"android":"levelo://app?vid=f9062784-0417-4840-bb15-81c56a64826f","ios":"levelo://app?vid=f9062784-0417-4840-bb15-81c56a64826f"},"vehicle_type_id":"4","last_reported":1753331958,"current_range_meters":9600,"station_id":"","pricing_plan_id":"cebpf4jnsgd1na2vs0mg"},{"bike_id":"1e950214-5ec7-41dc-930c-a36b04d15ef9","system_id":"levelo_inurba_marseille","lat":43.30151,"lon":5.38082,"is_reserved":false,"is_disabled":false,"rental_uris":{"android":"levelo://app?vid=1e950214-5ec7-41dc-930c-a36b04d15ef9","ios":"levelo://app?vid=1e950214-5ec7-41dc-930c-a36b04d15ef9"},"vehicle_type_id":"4","last_reported":1753331958,"current_range_meters":9600,"station_id":"ce4bgjp2rcd13ifvqbh0","pricing_plan_id":"cebpf4jnsgd1na2vs0mg"},{"bike_id":"c99b32ef-25d9-480e-99d0-ca980f77a836","system_id":"levelo_inurba_marseille","lat":43.323577,"lon":5.367496,"is_reserved":false,"is_disabled":false,"rental_uris":{"android":"levelo://app?vid=c99b32ef-25d9-480e-99d0-ca980f77a836","ios":"levelo://app?vid=c99b32ef-25d9-480e-99d0-ca980f77a836"},"vehicle_type_id":"4","last_reported":1753331958,"current_range_meters":10000,"station_id":"ce4bhsh2rcd13ifvqi2g","pricing_plan_id":"cebpf4jnsgd1na2vs0mg"},{"bike_id":"b982e5a3-88f5-4403-a53a-38d90073ed80","system_id":"levelo_inurba_marseille","lat":43.29442,"lon":5.43232,"is_reserved":false,"is_disabled":false,"rental_uris":{"android":"levelo://app?vid=b982e5a3-88f5-4403-a53a-38d90073ed80","ios":"levelo://app?vid=b982e5a3-88f5-4403-a53a-38d90073ed80"},"vehicle_type_id":"4","last_reported":1753331958,"current_range_meters":10000,"station_id":"","pricing_plan_id":"cebpf4jnsgd1na2vs0mg"},{"bike_id":"9414fea0-7c6e-4c39-95f1-457a63a631b4","system_id":"levelo_inurba_marseille","lat":43.22515,"lon":5.3478,"is_reserved":false,"is_disabled":true,"rental_uris":{"android":"levelo://app?vid=9414fea0-7c6e-4c39-95f1-457a63a631b4","ios":"levelo://app?vid=9414fea0-7c6e-4c39-95f1-457a63a631b4"},"vehicle_type_id":"4","last_reported":1753331958,"current_range_meters":10000,"station_id":"st_cvj5dfep6f1abm77gieg","pricing_plan_id":"cebpf4jnsgd1na2vs0mg"},{"bike_id":"19ae0cd7-4304-49d0-bac8-92bd5d08f99c","system_id":"levelo_inurba_marseille","lat":43.3096,"lon":5.37938,"is_reserved":false,"is_disabled":false,"rental_uris":{"android":"levelo://app?vid=19ae0cd7-4304-49d0-bac8-92bd5d08f99c","ios":"levelo://app?vid=19ae0cd7-4304-49d0-bac8-92bd5d08f99c"},"vehicle_type_id":"4","last_reported":1753331958,"current_range_meters":10000,"station_id":"","pricing_plan_id":"cebpf4jnsgd1na2vs0mg"},{"bike_id":"eb954183-4e28-47d1-a5c2-d40cd268372d","system_id":"levelo_inurba_marseille","lat":43.28846,"lon":5.35832,"is_reserved":false,"is_disabled":true,"rental_uris":{"android":"levelo://app?vid=eb954183-4e28-47d1-a5c2-d40cd268372d","ios":"levelo://app?vid=eb954183-4e28-47d1-a5c2-d40cd268372d"},"vehicle_type_id":"4","last_reported":1753331958,"current_range_meters":10000,"station_id":"ce4bhb12rcd13ifvqem0","pricing_plan_id":"cebpf4jnsgd1na2vs0mg"},{"bike_id":"9f3ed220-9e9e-4bc8-a5f6-aeb6066011ca","system_id":"levelo_inurba_marseille","lat":43.26205,"lon":5.37437,"is_reserved":false,"is_disabled":false,"rental_uris":{"android":"levelo://app?vid=9f3ed220-9e9e-4bc8-a5f6-aeb6066011ca","ios":"levelo://app?vid=9f3ed220-9e9e-4bc8-a5f6-aeb6066011ca"},"vehicle_type_id":"4","last_reported":1753331958,"current_range_meters":10000,"station_id":"ce4bhgp2rcd13ifvqfc0","pricing_plan_id":"cebpf4jnsgd1na2vs0mg"},{"bike_id":"d55aa035-104e-4b4d-89aa-92e1a1bc9ad6","system_id":"levelo_inurba_marseille","lat":43.30635,"lon":5.40067,"is_reserved":false,"is_disabled":false,"rental_uris":{"android":"levelo://app?vid=d55aa035-104e-4b4d-89aa-92e1a1bc9ad6","ios":"levelo://app?vid=d55aa035-104e-4b4d-89aa-92e1a1bc9ad6"},"vehicle_type_id":"4","last_reported":1753331958,"current_range_meters":10800,"station_id":"ce4bh112rcd13ifvqda0","pricing_plan_id":"cebpf4jnsgd1na2vs0mg"},{"bike_id":"8006020a-6cfe-4131-82ca-a6c8f07671d2","system_id":"levelo_inurba_marseille","lat":43.311882,"lon":5.377211,"is_reserved":false,"is_disabled":false,"rental_uris":{"android":"levelo://app?vid=8006020a-6cfe-4131-82ca-a6c8f07671d2","ios":"levelo://app?vid=8006020a-6cfe-4131-82ca-a6c8f07671d2"},"vehicle_type_id":"4","last_reported":1753331958,"current_range_meters":10800,"station_id":"","pricing_plan_id":"cebpf4jnsgd1na2vs0mg"},{"bike_id":"f1d097b0-c8a4-4367-9aff-51329a8098f3","system_id":"levelo_inurba_marseille","lat":43.30934,"lon":5.40151,"is_reserved":false,"is_disabled":false,"rental_uris":{"android":"levelo://app?vid=f1d097b0-c8a4-4367-9aff-51329a8098f3","ios":"levelo://app?vid=f1d097b0-c8a4-4367-9aff-51329a8098f3"},"vehicle_type_id":"4","last_reported":1753331958,"current_range_meters":10800,"station_id":"ce4bgvp2rcd13ifvqct0","pricing_plan_id":"cebpf4jnsgd1na2vs0mg"},{"bike_id":"bbc2b271-396f-4875-9f1d-0fcc163d87b6","system_id":"levelo_inurba_marseille","lat":43.29087,"lon":5.39928,"is_reserved":false,"is_disabled":false,"rental_uris":{"android":"levelo://app?vid=bbc2b271-396f-4875-9f1d-0fcc163d87b6","ios":"levelo://app?vid=bbc2b271-396f-4875-9f1d-0fcc163d87b6"},"vehicle_type_id":"4","last_reported":1753331958,"current_range_meters":11200,"station_id":"","pricing_plan_id":"cebpf4jnsgd1na2vs0mg"},{"bike_id":"649a6524-8390-4653-8bcf-9537fff11e28","system_id":"levelo_inurba_marseille","lat":43.28458,"lon":5.359,"is_reserved":false,"is_disabled":false,"rental_uris":{"android":"levelo://app?vid=649a6524-8390-4653-8bcf-9537fff11e28","ios":"levelo://app?vid=649a6524-8390-4653-8bcf-9537fff11e28"},"vehicle_type_id":"4","last_reported":1753331958,"current_range_meters":11200,"station_id":"ce4bhah2rcd13ifvqei0","pricing_plan_id":"cebpf4jnsgd1na2vs0mg"},{"bike_id":"396dbd6b-bd12-4fba-a413-85741f08daa2","system_id":"levelo_inurba_marseille","lat":43.230604,"lon":5.354961,"is_reserved":false,"is_disabled":false,"rental_uris":{"android":"levelo://app?vid=396dbd6b-bd12-4fba-a413-85741f08daa2","ios":"levelo://app?vid=396dbd6b-bd12-4fba-a413-85741f08daa2"},"vehicle_type_id":"4","last_reported":1753331958,"current_range_meters":11200,"station_id":"cpo3342slgdg3j2ifvpg","pricing_plan_id":"cebpf4jnsgd1na2vs0mg"},{"bike_id":"7851951d-7efd-4983-bcf8-36b084ea5f31","system_id":"levelo_inurba_marseille","lat":43.31689,"lon":5.40371,"is_reserved":false,"is_disabled":false,"rental_uris":{"android":"levelo://app?vid=7851951d-7efd-4983-bcf8-36b084ea5f31","ios":"levelo://app?vid=7851951d-7efd-4983-bcf8-36b084ea5f31"},"vehicle_type_id":"4","last_reported":1753331958,"current_range_meters":11200,"station_id":"ce4bh012rcd13ifvqd00","pricing_plan_id":"cebpf4jnsgd1na2vs0mg"},{"bike_id":"072249e0-6b31-4d65-814c-3886177b7a41","system_id":"levelo_inurba_marseille","lat":43.31755,"lon":5.39034,"is_reserved":false,"is_disabled":false,"rental_uris":{"android":"levelo://app?vid=072249e0-6b31-4d65-814c-3886177b7a41","ios":"levelo://app?vid=072249e0-6b31-4d65-814c-3886177b7a41"},"vehicle_type_id":"4","last_reported":1753331958,"current_range_meters":11200,"station_id":"ce4bhqp2rcd13ifvqhng","pricing_plan_id":"cebpf4jnsgd1na2vs0mg"},{"bike_id":"f9c9ff83-8548-4acb-a33b-495af4adeef4","system_id":"levelo_inurba_marseille","lat":43.32365,"lon":5.36749,"is_reserved":false,"is_disabled":false,"rental_uris":{"android":"levelo://app?vid=f9c9ff83-8548-4acb-a33b-495af4adeef4","ios":"levelo://app?vid=f9c9ff83-8548-4acb-a33b-495af4adeef4"},"vehicle_type_id":"4","last_reported":1753331958,"current_range_meters":11600,"station_id":"ce4bhsh2rcd13ifvqi2g","pricing_plan_id":"cebpf4jnsgd1na2vs0mg"},{"bike_id":"fec3b07e-037a-4fea-a191-679ee2b99950","system_id":"levelo_inurba_marseille","lat":43.241662,"lon":5.363887,"is_reserved":false,"is_disabled":false,"rental_uris":{"android":"levelo://app?vid=fec3b07e-037a-4fea-a191-679ee2b99950","ios":"levelo://app?vid=fec3b07e-037a-4fea-a191-679ee2b99950"},"vehicle_type_id":"4","last_reported":1753331958,"current_range_meters":11600,"station_id":"cpo36qri1sfpv3e86is0","pricing_plan_id":"cebpf4jnsgd1na2vs0mg"},{"bike_id":"be73e0c3-1fcd-4852-b65a-d69995cb5cc9","system_id":"levelo_inurba_marseille","lat":43.323515,"lon":5.406209,"is_reserved":false,"is_disabled":true,"rental_uris":{"android":"levelo://app?vid=be73e0c3-1fcd-4852-b65a-d69995cb5cc9","ios":"levelo://app?vid=be73e0c3-1fcd-4852-b65a-d69995cb5cc9"},"vehicle_type_id":"4","last_reported":1753331958,"current_range_meters":11600,"station_id":"ce4bhq92rcd13ifvqhjg","pricing_plan_id":"cebpf4jnsgd1na2vs0mg"},{"bike_id":"d8dc20bc-067a-4d02-b472-160a7f6f646b","system_id":"levelo_inurba_marseille","lat":43.2406,"lon":5.37757,"is_reserved":false,"is_disabled":false,"rental_uris":{"android":"levelo://app?vid=d8dc20bc-067a-4d02-b472-160a7f6f646b","ios":"levelo://app?vid=d8dc20bc-067a-4d02-b472-160a7f6f646b"},"vehicle_type_id":"4","last_reported":1753331958,"current_range_meters":11600,"station_id":"ce4bhnp2rcd13ifvqgvg","pricing_plan_id":"cebpf4jnsgd1na2vs0mg"},{"bike_id":"b1611388-74da-4bd8-aa35-2fd1ff7cb76e","system_id":"levelo_inurba_marseille","lat":43.27073,"lon":5.42283,"is_reserved":false,"is_disabled":false,"rental_uris":{"android":"levelo://app?vid=b1611388-74da-4bd8-aa35-2fd1ff7cb76e","ios":"levelo://app?vid=b1611388-74da-4bd8-aa35-2fd1ff7cb76e"},"vehicle_type_id":"4","last_reported":1753331958,"current_range_meters":12000,"station_id":"ce4bhk92rcd13ifvqgb0","pricing_plan_id":"cebpf4jnsgd1na2vs0mg"},{"bike_id":"28f47f5e-20fb-4458-b7dc-e51ba52b9f79","system_id":"levelo_inurba_marseille","lat":43.302429,"lon":5.400419,"is_reserved":false,"is_disabled":false,"rental_uris":{"android":"levelo://app?vid=28f47f5e-20fb-4458-b7dc-e51ba52b9f79","ios":"levelo://app?vid=28f47f5e-20fb-4458-b7dc-e51ba52b9f79"},"vehicle_type_id":"4","last_reported":1753331958,"current_range_meters":12000,"station_id":"ce4bgvh2rcd13ifvqcs0","pricing_plan_id":"cebpf4jnsgd1na2vs0mg"},{"bike_id":"a0afefc2-e14e-4f0c-92ec-9f69f9510f6e","system_id":"levelo_inurba_marseille","lat":43.29285,"lon":5.40131,"is_reserved":false,"is_disabled":false,"rental_uris":{"android":"levelo://app?vid=a0afefc2-e14e-4f0c-92ec-9f69f9510f6e","ios":"levelo://app?vid=a0afefc2-e14e-4f0c-92ec-9f69f9510f6e"},"vehicle_type_id":"4","last_reported":1753331958,"current_range_meters":12000,"station_id":"ce4bh312rcd13ifvqdk0","pricing_plan_id":"cebpf4jnsgd1na2vs0mg"},{"bike_id":"ba1f0b2a-bef0-4f49-a143-8e2b1ea235c7","system_id":"levelo_inurba_marseille","lat":43.31066,"lon":5.38363,"is_reserved":false,"is_disabled":false,"rental_uris":{"android":"levelo://app?vid=ba1f0b2a-bef0-4f49-a143-8e2b1ea235c7","ios":"levelo://app?vid=ba1f0b2a-bef0-4f49-a143-8e2b1ea235c7"},"vehicle_type_id":"4","last_reported":1753331958,"current_range_meters":12000,"station_id":"ce4bgv92rcd13ifvqcr0","pricing_plan_id":"cebpf4jnsgd1na2vs0mg"},{"bike_id":"b5ce8d93-17c0-45a5-b2b1-eefce45c2d79","system_id":"levelo_inurba_marseille","lat":43.318043,"lon":5.435232,"is_reserved":false,"is_disabled":false,"rental_uris":{"android":"levelo://app?vid=b5ce8d93-17c0-45a5-b2b1-eefce45c2d79","ios":"levelo://app?vid=b5ce8d93-17c0-45a5-b2b1-eefce45c2d79"},"vehicle_type_id":"4","last_reported":1753331958,"current_range_meters":12000,"station_id":"","pricing_plan_id":"cebpf4jnsgd1na2vs0mg"},{"bike_id":"a23567dc-f3a0-4378-b496-90cd12ea77ac","system_id":"levelo_inurba_marseille","lat":43.27387,"lon":5.36268,"is_reserved":false,"is_disabled":false,"rental_uris":{"android":"levelo://app?vid=a23567dc-f3a0-4378-b496-90cd12ea77ac","ios":"levelo://app?vid=a23567dc-f3a0-4378-b496-90cd12ea77ac"},"vehicle_type_id":"4","last_reported":1753331958,"current_range_meters":12000,"station_id":"ce4bhbh2rcd13ifvqeo0","pricing_plan_id":"cebpf4jnsgd1na2vs0mg"},{"bike_id":"a0de01aa-cd68-4a4d-8bab-65fa167b8610","system_id":"levelo_inurba_marseille","lat":43.23182,"lon":5.35554,"is_reserved":false,"is_disabled":false,"rental_uris":{"android":"levelo://app?vid=a0de01aa-cd68-4a4d-8bab-65fa167b8610","ios":"levelo://app?vid=a0de01aa-cd68-4a4d-8bab-65fa167b8610"},"vehicle_type_id":"4","last_reported":1753331958,"current_range_meters":12000,"station_id":"ce4bhu92rcd13ifvqi70","pricing_plan_id":"cebpf4jnsgd1na2vs0mg"},{"bike_id":"0044f8c1-5a70-4840-a7ed-db0b05f30513","system_id":"levelo_inurba_marseille","lat":43.28954,"lon":5.36632,"is_reserved":false,"is_disabled":false,"rental_uris":{"android":"levelo://app?vid=0044f8c1-5a70-4840-a7ed-db0b05f30513","ios":"levelo://app?vid=0044f8c1-5a70-4840-a7ed-db0b05f30513"},"vehicle_type_id":"4","last_reported":1753331958,"current_range_meters":12000,"station_id":"ce4bhap2rcd13ifvqek0","pricing_plan_id":"cebpf4jnsgd1na2vs0mg"},{"bike_id":"8fe1aefe-a7b5-4523-b8ab-ca996458375e","system_id":"levelo_inurba_marseille","lat":43.3109,"lon":5.42428,"is_reserved":false,"is_disabled":false,"rental_uris":{"android":"levelo://app?vid=8fe1aefe-a7b5-4523-b8ab-ca996458375e","ios":"levelo://app?vid=8fe1aefe-a7b5-4523-b8ab-ca996458375e"},"vehicle_type_id":"4","last_reported":1753331958,"current_range_meters":12000,"station_id":"ce4bhp92rcd13ifvqhag","pricing_plan_id":"cebpf4jnsgd1na2vs0mg"},{"bike_id":"7ca0bf5e-2993-45c9-866f-452888c9c143","system_id":"levelo_inurba_marseille","lat":43.28449,"lon":5.35902,"is_reserved":false,"is_disabled":false,"rental_uris":{"android":"levelo://app?vid=7ca0bf5e-2993-45c9-866f-452888c9c143","ios":"levelo://app?vid=7ca0bf5e-2993-45c9-866f-452888c9c143"},"vehicle_type_id":"4","last_reported":1753331958,"current_range_meters":12000,"station_id":"ce4bhah2rcd13ifvqei0","pricing_plan_id":"cebpf4jnsgd1na2vs0mg"},{"bike_id":"9ce312f1-cb07-4159-91d6-c11a68a5ee71","system_id":"levelo_inurba_marseille","lat":43.21208,"lon":5.3505,"is_reserved":false,"is_disabled":false,"rental_uris":{"android":"levelo://app?vid=9ce312f1-cb07-4159-91d6-c11a68a5ee71","ios":"levelo://app?vid=9ce312f1-cb07-4159-91d6-c11a68a5ee71"},"vehicle_type_id":"4","last_reported":1753331958,"current_range_meters":12000,"station_id":"st_cvj6sg6p6f1abm77japg","pricing_plan_id":"cebpf4jnsgd1na2vs0mg"},{"bike_id":"de45d814-b95a-4759-9f6f-a86ee21f1cd5","system_id":"levelo_inurba_marseille","lat":43.28474,"lon":5.39198,"is_reserved":false,"is_disabled":false,"rental_uris":{"android":"levelo://app?vid=de45d814-b95a-4759-9f6f-a86ee21f1cd5","ios":"levelo://app?vid=de45d814-b95a-4759-9f6f-a86ee21f1cd5"},"vehicle_type_id":"4","last_reported":1753331958,"current_range_meters":12400,"station_id":"ce4bhoh2rcd13ifvqh5g","pricing_plan_id":"cebpf4jnsgd1na2vs0mg"},{"bike_id":"541e3f7a-640b-4d8c-977d-949ca2a087ab","system_id":"levelo_inurba_marseille","lat":43.30796,"lon":5.379577,"is_reserved":false,"is_disabled":true,"rental_uris":{"android":"levelo://app?vid=541e3f7a-640b-4d8c-977d-949ca2a087ab","ios":"levelo://app?vid=541e3f7a-640b-4d8c-977d-949ca2a087ab"},"vehicle_type_id":"4","last_reported":1753331958,"current_range_meters":12400,"station_id":"ce4bgt12rcd13ifvqce0","pricing_plan_id":"cebpf4jnsgd1na2vs0mg"},{"bike_id":"e74ce1d2-7467-44e9-8a64-d22833385217","system_id":"levelo_inurba_marseille","lat":43.28149,"lon":5.42651,"is_reserved":false,"is_disabled":false,"rental_uris":{"android":"levelo://app?vid=e74ce1d2-7467-44e9-8a64-d22833385217","ios":"levelo://app?vid=e74ce1d2-7467-44e9-8a64-d22833385217"},"vehicle_type_id":"4","last_reported":1753331958,"current_range_meters":12400,"station_id":"ce4bhnh2rcd13ifvqgug","pricing_plan_id":"cebpf4jnsgd1na2vs0mg"},{"bike_id":"a6fa7053-b6c9-46cc-8a11-72dd0f51c7b7","system_id":"levelo_inurba_marseille","lat":43.2958,"lon":5.39977,"is_reserved":false,"is_disabled":false,"rental_uris":{"android":"levelo://app?vid=a6fa7053-b6c9-46cc-8a11-72dd0f51c7b7","ios":"levelo://app?vid=a6fa7053-b6c9-46cc-8a11-72dd0f51c7b7"},"vehicle_type_id":"4","last_reported":1753331958,"current_range_meters":12400,"station_id":"ce4bh312rcd13ifvqdj0","pricing_plan_id":"cebpf4jnsgd1na2vs0mg"},{"bike_id":"f8232130-db52-4ff5-b354-f78033a04c00","system_id":"levelo_inurba_marseille","lat":43.279421,"lon":5.410519,"is_reserved":false,"is_disabled":false,"rental_uris":{"android":"levelo://app?vid=f8232130-db52-4ff5-b354-f78033a04c00","ios":"levelo://app?vid=f8232130-db52-4ff5-b354-f78033a04c00"},"vehicle_type_id":"4","last_reported":1753331958,"current_range_meters":12400,"station_id":"ce4bhnp2rcd13ifvqh0g","pricing_plan_id":"cebpf4jnsgd1na2vs0mg"},{"bike_id":"c6ff48b4-8e9e-4fb4-9042-426478500eec","system_id":"levelo_inurba_marseille","lat":43.30314,"lon":5.3919,"is_reserved":false,"is_disabled":false,"rental_uris":{"android":"levelo://app?vid=c6ff48b4-8e9e-4fb4-9042-426478500eec","ios":"levelo://app?vid=c6ff48b4-8e9e-4fb4-9042-426478500eec"},"vehicle_type_id":"4","last_reported":1753331958,"current_range_meters":12400,"station_id":"ce4bgkh2rcd13ifvqbk0","pricing_plan_id":"cebpf4jnsgd1na2vs0mg"},{"bike_id":"7fb8774e-0f49-45e8-86ca-072a71476c6c","system_id":"levelo_inurba_marseille","lat":43.27991,"lon":5.4168,"is_reserved":false,"is_disabled":false,"rental_uris":{"android":"levelo://app?vid=7fb8774e-0f49-45e8-86ca-072a71476c6c","ios":"levelo://app?vid=7fb8774e-0f49-45e8-86ca-072a71476c6c"},"vehicle_type_id":"4","last_reported":1753331958,"current_range_meters":12800,"station_id":"ce4bho12rcd13ifvqh1g","pricing_plan_id":"cebpf4jnsgd1na2vs0mg"},{"bike_id":"f3217e35-0bb5-43ab-beb0-dd5e233a7114","system_id":"levelo_inurba_marseille","lat":43.25583,"lon":5.38234,"is_reserved":false,"is_disabled":false,"rental_uris":{"android":"levelo://app?vid=f3217e35-0bb5-43ab-beb0-dd5e233a7114","ios":"levelo://app?vid=f3217e35-0bb5-43ab-beb0-dd5e233a7114"},"vehicle_type_id":"4","last_reported":1753331958,"current_range_meters":12800,"station_id":"ce4bhih2rcd13ifvqfs0","pricing_plan_id":"cebpf4jnsgd1na2vs0mg"},{"bike_id":"1e7d27be-23af-4c7f-9a5e-514152b69086","system_id":"levelo_inurba_marseille","lat":43.293899,"lon":5.409686,"is_reserved":false,"is_disabled":false,"rental_uris":{"android":"levelo://app?vid=1e7d27be-23af-4c7f-9a5e-514152b69086","ios":"levelo://app?vid=1e7d27be-23af-4c7f-9a5e-514152b69086"},"vehicle_type_id":"4","last_reported":1753331958,"current_range_meters":12800,"station_id":"","pricing_plan_id":"cebpf4jnsgd1na2vs0mg"},{"bike_id":"960d25e5-ac27-47de-ad2a-b2dafcb819c7","system_id":"levelo_inurba_marseille","lat":43.2899,"lon":5.35618,"is_reserved":false,"is_disabled":true,"rental_uris":{"android":"levelo://app?vid=960d25e5-ac27-47de-ad2a-b2dafcb819c7","ios":"levelo://app?vid=960d25e5-ac27-47de-ad2a-b2dafcb819c7"},"vehicle_type_id":"4","last_reported":1753331958,"current_range_meters":12800,"station_id":"ce4bhb92rcd13ifvqen0","pricing_plan_id":"cebpf4jnsgd1na2vs0mg"},{"bike_id":"cd029efe-d389-43c3-989c-1a31ab2c8a84","system_id":"levelo_inurba_marseille","lat":43.28829,"lon":5.35866,"is_reserved":false,"is_disabled":false,"rental_uris":{"android":"levelo://app?vid=cd029efe-d389-43c3-989c-1a31ab2c8a84","ios":"levelo://app?vid=cd029efe-d389-43c3-989c-1a31ab2c8a84"},"vehicle_type_id":"4","last_reported":1753331958,"current_range_meters":12800,"station_id":"ce4bhb12rcd13ifvqem0","pricing_plan_id":"cebpf4jnsgd1na2vs0mg"},{"bike_id":"e480bd8b-ab3b-474e-85dc-cd917472d2ed","system_id":"levelo_inurba_marseille","lat":43.2397,"lon":5.36614,"is_reserved":false,"is_disabled":false,"rental_uris":{"android":"levelo://app?vid=e480bd8b-ab3b-474e-85dc-cd917472d2ed","ios":"levelo://app?vid=e480bd8b-ab3b-474e-85dc-cd917472d2ed"},"vehicle_type_id":"4","last_reported":1753331958,"current_range_meters":12800,"station_id":"ce4bhi12rcd13ifvqfp0","pricing_plan_id":"cebpf4jnsgd1na2vs0mg"},{"bike_id":"f9322b84-4311-4472-9e01-0a942613dbdc","system_id":"levelo_inurba_marseille","lat":43.27997,"lon":5.41697,"is_reserved":false,"is_disabled":false,"rental_uris":{"android":"levelo://app?vid=f9322b84-4311-4472-9e01-0a942613dbdc","ios":"levelo://app?vid=f9322b84-4311-4472-9e01-0a942613dbdc"},"vehicle_type_id":"4","last_reported":1753331958,"current_range_meters":13600,"station_id":"ce4bho12rcd13ifvqh1g","pricing_plan_id":"cebpf4jnsgd1na2vs0mg"},{"bike_id":"74667481-5f03-4636-8b5a-495e4f40157d","system_id":"levelo_inurba_marseille","lat":43.309659,"lon":5.373714,"is_reserved":false,"is_disabled":false,"rental_uris":{"android":"levelo://app?vid=74667481-5f03-4636-8b5a-495e4f40157d","ios":"levelo://app?vid=74667481-5f03-4636-8b5a-495e4f40157d"},"vehicle_type_id":"4","last_reported":1753331958,"current_range_meters":13600,"station_id":"","pricing_plan_id":"cebpf4jnsgd1na2vs0mg"},{"bike_id":"ace255a1-6034-44ed-8006-5510d8b33881","system_id":"levelo_inurba_marseille","lat":43.27085,"lon":5.42306,"is_reserved":false,"is_disabled":false,"rental_uris":{"android":"levelo://app?vid=ace255a1-6034-44ed-8006-5510d8b33881","ios":"levelo://app?vid=ace255a1-6034-44ed-8006-5510d8b33881"},"vehicle_type_id":"4","last_reported":1753331958,"current_range_meters":13600,"station_id":"ce4bhk92rcd13ifvqgb0","pricing_plan_id":"cebpf4jnsgd1na2vs0mg"},{"bike_id":"19bf34b9-ccf1-4d85-bdd1-367f86a44629","system_id":"levelo_inurba_marseille","lat":43.31743,"lon":5.39031,"is_reserved":false,"is_disabled":false,"rental_uris":{"android":"levelo://app?vid=19bf34b9-ccf1-4d85-bdd1-367f86a44629","ios":"levelo://app?vid=19bf34b9-ccf1-4d85-bdd1-367f86a44629"},"vehicle_type_id":"4","last_reported":1753331958,"current_range_meters":13600,"station_id":"ce4bhqp2rcd13ifvqhng","pricing_plan_id":"cebpf4jnsgd1na2vs0mg"},{"bike_id":"28324e38-20b9-44d9-9f36-a048f64442cf","system_id":"levelo_inurba_marseille","lat":43.30916,"lon":5.40123,"is_reserved":false,"is_disabled":false,"rental_uris":{"android":"levelo://app?vid=28324e38-20b9-44d9-9f36-a048f64442cf","ios":"levelo://app?vid=28324e38-20b9-44d9-9f36-a048f64442cf"},"vehicle_type_id":"4","last_reported":1753331958,"current_range_meters":13600,"station_id":"ce4bgvp2rcd13ifvqct0","pricing_plan_id":"cebpf4jnsgd1na2vs0mg"},{"bike_id":"70737bad-8214-4681-8a7d-fa98042cf105","system_id":"levelo_inurba_marseille","lat":43.2903,"lon":5.39982,"is_reserved":false,"is_disabled":false,"rental_uris":{"android":"levelo://app?vid=70737bad-8214-4681-8a7d-fa98042cf105","ios":"levelo://app?vid=70737bad-8214-4681-8a7d-fa98042cf105"},"vehicle_type_id":"4","last_reported":1753331958,"current_range_meters":13600,"station_id":"ce4bh392rcd13ifvqdm0","pricing_plan_id":"cebpf4jnsgd1na2vs0mg"},{"bike_id":"0b038d1a-2e18-49ed-bfd0-db9b0c826118","system_id":"levelo_inurba_marseille","lat":43.2869,"lon":5.40008,"is_reserved":false,"is_disabled":false,"rental_uris":{"android":"levelo://app?vid=0b038d1a-2e18-49ed-bfd0-db9b0c826118","ios":"levelo://app?vid=0b038d1a-2e18-49ed-bfd0-db9b0c826118"},"vehicle_type_id":"4","last_reported":1753331958,"current_range_meters":13600,"station_id":"ce4bho92rcd13ifvqh3g","pricing_plan_id":"cebpf4jnsgd1na2vs0mg"},{"bike_id":"75921511-23bf-408f-9470-1062209789d6","system_id":"levelo_inurba_marseille","lat":43.25591,"lon":5.38236,"is_reserved":false,"is_disabled":false,"rental_uris":{"android":"levelo://app?vid=75921511-23bf-408f-9470-1062209789d6","ios":"levelo://app?vid=75921511-23bf-408f-9470-1062209789d6"},"vehicle_type_id":"4","last_reported":1753331958,"current_range_meters":14000,"station_id":"ce4bhih2rcd13ifvqfs0","pricing_plan_id":"cebpf4jnsgd1na2vs0mg"},{"bike_id":"496cac02-0e91-4f64-97b9-cb34cf0ab931","system_id":"levelo_inurba_marseille","lat":43.22519,"lon":5.34763,"is_reserved":false,"is_disabled":false,"rental_uris":{"android":"levelo://app?vid=496cac02-0e91-4f64-97b9-cb34cf0ab931","ios":"levelo://app?vid=496cac02-0e91-4f64-97b9-cb34cf0ab931"},"vehicle_type_id":"4","last_reported":1753331958,"current_range_meters":14000,"station_id":"st_cvj5dfep6f1abm77gieg","pricing_plan_id":"cebpf4jnsgd1na2vs0mg"},{"bike_id":"68b23df6-72cc-481a-a09a-6413f815ff4e","system_id":"levelo_inurba_marseille","lat":43.25504,"lon":5.37643,"is_reserved":false,"is_disabled":true,"rental_uris":{"android":"levelo://app?vid=68b23df6-72cc-481a-a09a-6413f815ff4e","ios":"levelo://app?vid=68b23df6-72cc-481a-a09a-6413f815ff4e"},"vehicle_type_id":"4","last_reported":1753331958,"current_range_meters":14000,"station_id":"ce4bhh12rcd13ifvqff0","pricing_plan_id":"cebpf4jnsgd1na2vs0mg"},{"bike_id":"ae131367-d818-44a0-9e1d-4aa65dcdb16a","system_id":"levelo_inurba_marseille","lat":43.27527,"lon":5.39675,"is_reserved":false,"is_disabled":false,"rental_uris":{"android":"levelo://app?vid=ae131367-d818-44a0-9e1d-4aa65dcdb16a","ios":"levelo://app?vid=ae131367-d818-44a0-9e1d-4aa65dcdb16a"},"vehicle_type_id":"4","last_reported":1753331958,"current_range_meters":14000,"station_id":"","pricing_plan_id":"cebpf4jnsgd1na2vs0mg"},{"bike_id":"0648eb3b-38dc-45ba-994e-ffad74a620d8","system_id":"levelo_inurba_marseille","lat":43.29037,"lon":5.3866,"is_reserved":false,"is_disabled":true,"rental_uris":{"android":"levelo://app?vid=0648eb3b-38dc-45ba-994e-ffad74a620d8","ios":"levelo://app?vid=0648eb3b-38dc-45ba-994e-ffad74a620d8"},"vehicle_type_id":"4","last_reported":1753331958,"current_range_meters":14000,"station_id":"ce4bh4p2rcd13ifvqe0g","pricing_plan_id":"cebpf4jnsgd1na2vs0mg"},{"bike_id":"3cd09fc8-9554-4236-8496-0931a7be09d1","system_id":"levelo_inurba_marseille","lat":43.21203,"lon":5.35073,"is_reserved":false,"is_disabled":false,"rental_uris":{"android":"levelo://app?vid=3cd09fc8-9554-4236-8496-0931a7be09d1","ios":"levelo://app?vid=3cd09fc8-9554-4236-8496-0931a7be09d1"},"vehicle_type_id":"4","last_reported":1753331958,"current_range_meters":14000,"station_id":"st_cvj6sg6p6f1abm77japg","pricing_plan_id":"cebpf4jnsgd1na2vs0mg"},{"bike_id":"b89d6267-55af-48a1-8887-3f0adc5ff195","system_id":"levelo_inurba_marseille","lat":43.301319,"lon":5.39874,"is_reserved":false,"is_disabled":false,"rental_uris":{"android":"levelo://app?vid=b89d6267-55af-48a1-8887-3f0adc5ff195","ios":"levelo://app?vid=b89d6267-55af-48a1-8887-3f0adc5ff195"},"vehicle_type_id":"4","last_reported":1753331958,"current_range_meters":14000,"station_id":"","pricing_plan_id":"cebpf4jnsgd1na2vs0mg"},{"bike_id":"fd806929-766b-4e70-9fda-08bb1966d1c7","system_id":"levelo_inurba_marseille","lat":43.2885,"lon":5.39327,"is_reserved":false,"is_disabled":false,"rental_uris":{"android":"levelo://app?vid=fd806929-766b-4e70-9fda-08bb1966d1c7","ios":"levelo://app?vid=fd806929-766b-4e70-9fda-08bb1966d1c7"},"vehicle_type_id":"4","last_reported":1753331958,"current_range_meters":14000,"station_id":"ce4bh2p2rcd13ifvqdi0","pricing_plan_id":"cebpf4jnsgd1na2vs0mg"},{"bike_id":"2006d6ab-c619-4a15-b9f3-97c1160843f0","system_id":"levelo_inurba_marseille","lat":43.28162,"lon":5.36079,"is_reserved":false,"is_disabled":false,"rental_uris":{"android":"levelo://app?vid=2006d6ab-c619-4a15-b9f3-97c1160843f0","ios":"levelo://app?vid=2006d6ab-c619-4a15-b9f3-97c1160843f0"},"vehicle_type_id":"4","last_reported":1753331958,"current_range_meters":14000,"station_id":"","pricing_plan_id":"cebpf4jnsgd1na2vs0mg"},{"bike_id":"2ee732fb-16c6-4794-9a8e-0c60df4bd4d8","system_id":"levelo_inurba_marseille","lat":43.217479,"lon":5.346024,"is_reserved":false,"is_disabled":false,"rental_uris":{"android":"levelo://app?vid=2ee732fb-16c6-4794-9a8e-0c60df4bd4d8","ios":"levelo://app?vid=2ee732fb-16c6-4794-9a8e-0c60df4bd4d8"},"vehicle_type_id":"4","last_reported":1753331958,"current_range_meters":14000,"station_id":"","pricing_plan_id":"cebpf4jnsgd1na2vs0mg"},{"bike_id":"f9003d10-d9c2-4f36-aaab-0b06e5143ac9","system_id":"levelo_inurba_marseille","lat":43.29947,"lon":5.37396,"is_reserved":false,"is_disabled":true,"rental_uris":{"android":"levelo://app?vid=f9003d10-d9c2-4f36-aaab-0b06e5143ac9","ios":"levelo://app?vid=f9003d10-d9c2-4f36-aaab-0b06e5143ac9"},"vehicle_type_id":"4","last_reported":1753331958,"current_range_meters":14400,"station_id":"","pricing_plan_id":"cebpf4jnsgd1na2vs0mg"},{"bike_id":"17b6befd-1cc6-4c58-ba0e-8a9cc2a0bccb","system_id":"levelo_inurba_marseille","lat":43.22505,"lon":5.34784,"is_reserved":false,"is_disabled":false,"rental_uris":{"android":"levelo://app?vid=17b6befd-1cc6-4c58-ba0e-8a9cc2a0bccb","ios":"levelo://app?vid=17b6befd-1cc6-4c58-ba0e-8a9cc2a0bccb"},"vehicle_type_id":"4","last_reported":1753331958,"current_range_meters":14400,"station_id":"st_cvj5dfep6f1abm77gieg","pricing_plan_id":"cebpf4jnsgd1na2vs0mg"},{"bike_id":"5ac85406-65d0-4336-aa89-4b04b2e6689e","system_id":"levelo_inurba_marseille","lat":43.33251,"lon":5.41984,"is_reserved":false,"is_disabled":false,"rental_uris":{"android":"levelo://app?vid=5ac85406-65d0-4336-aa89-4b04b2e6689e","ios":"levelo://app?vid=5ac85406-65d0-4336-aa89-4b04b2e6689e"},"vehicle_type_id":"4","last_reported":1753331958,"current_range_meters":14400,"station_id":"","pricing_plan_id":"cebpf4jnsgd1na2vs0mg"},{"bike_id":"0d989bd3-3a2a-48ca-a6d7-77c5e7fc1d2e","system_id":"levelo_inurba_marseille","lat":43.23193,"lon":5.39981,"is_reserved":false,"is_disabled":false,"rental_uris":{"android":"levelo://app?vid=0d989bd3-3a2a-48ca-a6d7-77c5e7fc1d2e","ios":"levelo://app?vid=0d989bd3-3a2a-48ca-a6d7-77c5e7fc1d2e"},"vehicle_type_id":"4","last_reported":1753331958,"current_range_meters":14400,"station_id":"ce4bhn12rcd13ifvqgqg","pricing_plan_id":"cebpf4jnsgd1na2vs0mg"},{"bike_id":"6bb1f31c-9335-4f39-9585-31374a4775f9","system_id":"levelo_inurba_marseille","lat":43.325583,"lon":5.379059,"is_reserved":false,"is_disabled":false,"rental_uris":{"android":"levelo://app?vid=6bb1f31c-9335-4f39-9585-31374a4775f9","ios":"levelo://app?vid=6bb1f31c-9335-4f39-9585-31374a4775f9"},"vehicle_type_id":"4","last_reported":1753331958,"current_range_meters":14400,"station_id":"","pricing_plan_id":"cebpf4jnsgd1na2vs0mg"},{"bike_id":"0372d762-aad9-470d-bcac-ca21b9bee4a9","system_id":"levelo_inurba_marseille","lat":43.31081,"lon":5.3836,"is_reserved":false,"is_disabled":true,"rental_uris":{"android":"levelo://app?vid=0372d762-aad9-470d-bcac-ca21b9bee4a9","ios":"levelo://app?vid=0372d762-aad9-470d-bcac-ca21b9bee4a9"},"vehicle_type_id":"4","last_reported":1753331958,"current_range_meters":14400,"station_id":"ce4bgv92rcd13ifvqcr0","pricing_plan_id":"cebpf4jnsgd1na2vs0mg"},{"bike_id":"6a79a396-2f47-4b1c-9dce-b0d5464f72e4","system_id":"levelo_inurba_marseille","lat":43.2293,"lon":5.35366,"is_reserved":false,"is_disabled":false,"rental_uris":{"android":"levelo://app?vid=6a79a396-2f47-4b1c-9dce-b0d5464f72e4","ios":"levelo://app?vid=6a79a396-2f47-4b1c-9dce-b0d5464f72e4"},"vehicle_type_id":"4","last_reported":1753331958,"current_range_meters":14400,"station_id":"cpo3532slgdg3j2ikp40","pricing_plan_id":"cebpf4jnsgd1na2vs0mg"},{"bike_id":"54943e91-61ee-496b-9667-a7c6c3a25bb5","system_id":"levelo_inurba_marseille","lat":43.26215,"lon":5.37428,"is_reserved":false,"is_disabled":false,"rental_uris":{"android":"levelo://app?vid=54943e91-61ee-496b-9667-a7c6c3a25bb5","ios":"levelo://app?vid=54943e91-61ee-496b-9667-a7c6c3a25bb5"},"vehicle_type_id":"4","last_reported":1753331958,"current_range_meters":14400,"station_id":"ce4bhgp2rcd13ifvqfc0","pricing_plan_id":"cebpf4jnsgd1na2vs0mg"},{"bike_id":"efce9bd7-0f84-4c4c-8629-017c0e0428bd","system_id":"levelo_inurba_marseille","lat":43.25584,"lon":5.38244,"is_reserved":false,"is_disabled":false,"rental_uris":{"android":"levelo://app?vid=efce9bd7-0f84-4c4c-8629-017c0e0428bd","ios":"levelo://app?vid=efce9bd7-0f84-4c4c-8629-017c0e0428bd"},"vehicle_type_id":"4","last_reported":1753331958,"current_range_meters":14800,"station_id":"ce4bhih2rcd13ifvqfs0","pricing_plan_id":"cebpf4jnsgd1na2vs0mg"},{"bike_id":"c056311f-78c9-4e18-8685-91c659ddb125","system_id":"levelo_inurba_marseille","lat":43.316036,"lon":5.389753,"is_reserved":false,"is_disabled":false,"rental_uris":{"android":"levelo://app?vid=c056311f-78c9-4e18-8685-91c659ddb125","ios":"levelo://app?vid=c056311f-78c9-4e18-8685-91c659ddb125"},"vehicle_type_id":"4","last_reported":1753331958,"current_range_meters":14800,"station_id":"","pricing_plan_id":"cebpf4jnsgd1na2vs0mg"},{"bike_id":"5e95e580-68ac-4eb0-be4a-a33622d8d2d9","system_id":"levelo_inurba_marseille","lat":43.24637,"lon":5.38902,"is_reserved":false,"is_disabled":false,"rental_uris":{"android":"levelo://app?vid=5e95e580-68ac-4eb0-be4a-a33622d8d2d9","ios":"levelo://app?vid=5e95e580-68ac-4eb0-be4a-a33622d8d2d9"},"vehicle_type_id":"4","last_reported":1753331958,"current_range_meters":14800,"station_id":"ce4bhg12rcd13ifvqf60","pricing_plan_id":"cebpf4jnsgd1na2vs0mg"},{"bike_id":"ce59a62d-17ec-416f-b54d-751bd3f6f3dd","system_id":"levelo_inurba_marseille","lat":43.270752,"lon":5.422732,"is_reserved":false,"is_disabled":false,"rental_uris":{"android":"levelo://app?vid=ce59a62d-17ec-416f-b54d-751bd3f6f3dd","ios":"levelo://app?vid=ce59a62d-17ec-416f-b54d-751bd3f6f3dd"},"vehicle_type_id":"4","last_reported":1753331958,"current_range_meters":14800,"station_id":"ce4bhk92rcd13ifvqgb0","pricing_plan_id":"cebpf4jnsgd1na2vs0mg"},{"bike_id":"80ba3f53-b784-4b3f-a611-4371b6652512","system_id":"levelo_inurba_marseille","lat":43.26923,"lon":5.40241,"is_reserved":false,"is_disabled":false,"rental_uris":{"android":"levelo://app?vid=80ba3f53-b784-4b3f-a611-4371b6652512","ios":"levelo://app?vid=80ba3f53-b784-4b3f-a611-4371b6652512"},"vehicle_type_id":"4","last_reported":1753331958,"current_range_meters":14800,"station_id":"cjm6bp8fraef2m0cb0m0","pricing_plan_id":"cebpf4jnsgd1na2vs0mg"},{"bike_id":"6187391f-e643-40b5-a6a5-5c65e8a00966","system_id":"levelo_inurba_marseille","lat":43.24064,"lon":5.37752,"is_reserved":false,"is_disabled":false,"rental_uris":{"android":"levelo://app?vid=6187391f-e643-40b5-a6a5-5c65e8a00966","ios":"levelo://app?vid=6187391f-e643-40b5-a6a5-5c65e8a00966"},"vehicle_type_id":"4","last_reported":1753331958,"current_range_meters":14800,"station_id":"ce4bhnp2rcd13ifvqgvg","pricing_plan_id":"cebpf4jnsgd1na2vs0mg"},{"bike_id":"8653745e-84f9-4064-b6e8-6e4e8bfce0ff","system_id":"levelo_inurba_marseille","lat":43.23979,"lon":5.36605,"is_reserved":false,"is_disabled":false,"rental_uris":{"android":"levelo://app?vid=8653745e-84f9-4064-b6e8-6e4e8bfce0ff","ios":"levelo://app?vid=8653745e-84f9-4064-b6e8-6e4e8bfce0ff"},"vehicle_type_id":"4","last_reported":1753331958,"current_range_meters":15200,"station_id":"ce4bhi12rcd13ifvqfp0","pricing_plan_id":"cebpf4jnsgd1na2vs0mg"},{"bike_id":"c3b7093a-c6fc-4872-a465-95918521be48","system_id":"levelo_inurba_marseille","lat":43.31489,"lon":5.37297,"is_reserved":false,"is_disabled":false,"rental_uris":{"android":"levelo://app?vid=c3b7093a-c6fc-4872-a465-95918521be48","ios":"levelo://app?vid=c3b7093a-c6fc-4872-a465-95918521be48"},"vehicle_type_id":"4","last_reported":1753331958,"current_range_meters":15200,"station_id":"ce4bgt12rcd13ifvqcd0","pricing_plan_id":"cebpf4jnsgd1na2vs0mg"},{"bike_id":"18b86593-4f21-41ed-81b3-f3a5b378dc91","system_id":"levelo_inurba_marseille","lat":43.31246,"lon":5.38125,"is_reserved":false,"is_disabled":false,"rental_uris":{"android":"levelo://app?vid=18b86593-4f21-41ed-81b3-f3a5b378dc91","ios":"levelo://app?vid=18b86593-4f21-41ed-81b3-f3a5b378dc91"},"vehicle_type_id":"4","last_reported":1753331958,"current_range_meters":15200,"station_id":"","pricing_plan_id":"cebpf4jnsgd1na2vs0mg"},{"bike_id":"13ef3d67-774c-414b-8105-7679f51c53c5","system_id":"levelo_inurba_marseille","lat":43.279131,"lon":5.395821,"is_reserved":false,"is_disabled":false,"rental_uris":{"android":"levelo://app?vid=13ef3d67-774c-414b-8105-7679f51c53c5","ios":"levelo://app?vid=13ef3d67-774c-414b-8105-7679f51c53c5"},"vehicle_type_id":"4","last_reported":1753331958,"current_range_meters":16000,"station_id":"ce4bhf92rcd13ifvqf40","pricing_plan_id":"cebpf4jnsgd1na2vs0mg"},{"bike_id":"0720af3a-bc39-49ab-8d43-7f0423986f0d","system_id":"levelo_inurba_marseille","lat":43.29911,"lon":5.38142,"is_reserved":false,"is_disabled":false,"rental_uris":{"android":"levelo://app?vid=0720af3a-bc39-49ab-8d43-7f0423986f0d","ios":"levelo://app?vid=0720af3a-bc39-49ab-8d43-7f0423986f0d"},"vehicle_type_id":"4","last_reported":1753331958,"current_range_meters":16000,"station_id":"ce4bgj12rcd13ifvqbc0","pricing_plan_id":"cebpf4jnsgd1na2vs0mg"},{"bike_id":"df1db0e5-bddc-476a-88ba-8e262697d768","system_id":"levelo_inurba_marseille","lat":43.2791,"lon":5.39599,"is_reserved":false,"is_disabled":false,"rental_uris":{"android":"levelo://app?vid=df1db0e5-bddc-476a-88ba-8e262697d768","ios":"levelo://app?vid=df1db0e5-bddc-476a-88ba-8e262697d768"},"vehicle_type_id":"4","last_reported":1753331958,"current_range_meters":16000,"station_id":"ce4bhf92rcd13ifvqf40","pricing_plan_id":"cebpf4jnsgd1na2vs0mg"},{"bike_id":"5bf271e9-b85e-4ede-9d32-02d7c28374e7","system_id":"levelo_inurba_marseille","lat":43.324789,"lon":5.365653,"is_reserved":false,"is_disabled":false,"rental_uris":{"android":"levelo://app?vid=5bf271e9-b85e-4ede-9d32-02d7c28374e7","ios":"levelo://app?vid=5bf271e9-b85e-4ede-9d32-02d7c28374e7"},"vehicle_type_id":"4","last_reported":1753331958,"current_range_meters":16000,"station_id":"ce4bhs12rcd13ifvqhvg","pricing_plan_id":"cebpf4jnsgd1na2vs0mg"},{"bike_id":"61cb5b9a-9cee-4d3f-8bba-365148ee2e42","system_id":"levelo_inurba_marseille","lat":43.25854,"lon":5.39904,"is_reserved":false,"is_disabled":false,"rental_uris":{"android":"levelo://app?vid=61cb5b9a-9cee-4d3f-8bba-365148ee2e42","ios":"levelo://app?vid=61cb5b9a-9cee-4d3f-8bba-365148ee2e42"},"vehicle_type_id":"4","last_reported":1753331958,"current_range_meters":16000,"station_id":"ce4bhl92rcd13ifvqghg","pricing_plan_id":"cebpf4jnsgd1na2vs0mg"},{"bike_id":"f6419716-c272-46b5-b908-d91a04b2b53d","system_id":"levelo_inurba_marseille","lat":43.28046,"lon":5.36957,"is_reserved":false,"is_disabled":false,"rental_uris":{"android":"levelo://app?vid=f6419716-c272-46b5-b908-d91a04b2b53d","ios":"levelo://app?vid=f6419716-c272-46b5-b908-d91a04b2b53d"},"vehicle_type_id":"4","last_reported":1753331958,"current_range_meters":16000,"station_id":"ce4bha12rcd13ifvqef0","pricing_plan_id":"cebpf4jnsgd1na2vs0mg"},{"bike_id":"875540a5-76de-4844-93f6-e9d5f549dced","system_id":"levelo_inurba_marseille","lat":43.295987,"lon":5.381056,"is_reserved":false,"is_disabled":false,"rental_uris":{"android":"levelo://app?vid=875540a5-76de-4844-93f6-e9d5f549dced","ios":"levelo://app?vid=875540a5-76de-4844-93f6-e9d5f549dced"},"vehicle_type_id":"4","last_reported":1753331958,"current_range_meters":16000,"station_id":"","pricing_plan_id":"cebpf4jnsgd1na2vs0mg"},{"bike_id":"f0f73c71-7331-4628-b623-754b73a8546a","system_id":"levelo_inurba_marseille","lat":43.30158,"lon":5.39915,"is_reserved":false,"is_disabled":true,"rental_uris":{"android":"levelo://app?vid=f0f73c71-7331-4628-b623-754b73a8546a","ios":"levelo://app?vid=f0f73c71-7331-4628-b623-754b73a8546a"},"vehicle_type_id":"4","last_reported":1753331958,"current_range_meters":16000,"station_id":"","pricing_plan_id":"cebpf4jnsgd1na2vs0mg"},{"bike_id":"c37b739b-c3b7-4643-8428-7a99eb49c6d3","system_id":"levelo_inurba_marseille","lat":43.30604,"lon":5.37216,"is_reserved":false,"is_disabled":false,"rental_uris":{"android":"levelo://app?vid=c37b739b-c3b7-4643-8428-7a99eb49c6d3","ios":"levelo://app?vid=c37b739b-c3b7-4643-8428-7a99eb49c6d3"},"vehicle_type_id":"4","last_reported":1753331958,"current_range_meters":16000,"station_id":"ce4bgqh2rcd13ifvqc4g","pricing_plan_id":"cebpf4jnsgd1na2vs0mg"},{"bike_id":"1ad257b5-7f83-42c1-867f-92635ff1abbf","system_id":"levelo_inurba_marseille","lat":43.229335,"lon":5.353801,"is_reserved":false,"is_disabled":false,"rental_uris":{"android":"levelo://app?vid=1ad257b5-7f83-42c1-867f-92635ff1abbf","ios":"levelo://app?vid=1ad257b5-7f83-42c1-867f-92635ff1abbf"},"vehicle_type_id":"4","last_reported":1753331958,"current_range_meters":16000,"station_id":"cpo3532slgdg3j2ikp40","pricing_plan_id":"cebpf4jnsgd1na2vs0mg"},{"bike_id":"63c5ca57-b2df-4b8b-ad7f-6f2df7343ee7","system_id":"levelo_inurba_marseille","lat":43.28478,"lon":5.38421,"is_reserved":false,"is_disabled":true,"rental_uris":{"android":"levelo://app?vid=63c5ca57-b2df-4b8b-ad7f-6f2df7343ee7","ios":"levelo://app?vid=63c5ca57-b2df-4b8b-ad7f-6f2df7343ee7"},"vehicle_type_id":"4","last_reported":1753331958,"current_range_meters":16400,"station_id":"ce4bh512rcd13ifvqe3g","pricing_plan_id":"cebpf4jnsgd1na2vs0mg"},{"bike_id":"b114f818-6034-4474-908b-ea4780f40b86","system_id":"levelo_inurba_marseille","lat":43.240745,"lon":5.377363,"is_reserved":false,"is_disabled":false,"rental_uris":{"android":"levelo://app?vid=b114f818-6034-4474-908b-ea4780f40b86","ios":"levelo://app?vid=b114f818-6034-4474-908b-ea4780f40b86"},"vehicle_type_id":"4","last_reported":1753331958,"current_range_meters":16400,"station_id":"ce4bhnp2rcd13ifvqgvg","pricing_plan_id":"cebpf4jnsgd1na2vs0mg"},{"bike_id":"2de56c36-fc14-49a8-9ba0-5a35d4423f35","system_id":"levelo_inurba_marseille","lat":43.287092,"lon":5.399793,"is_reserved":false,"is_disabled":false,"rental_uris":{"android":"levelo://app?vid=2de56c36-fc14-49a8-9ba0-5a35d4423f35","ios":"levelo://app?vid=2de56c36-fc14-49a8-9ba0-5a35d4423f35"},"vehicle_type_id":"4","last_reported":1753331958,"current_range_meters":16400,"station_id":"ce4bho92rcd13ifvqh3g","pricing_plan_id":"cebpf4jnsgd1na2vs0mg"},{"bike_id":"1f0838e1-1216-4b69-bade-929e46a8f5b5","system_id":"levelo_inurba_marseille","lat":43.28457,"lon":5.35897,"is_reserved":false,"is_disabled":false,"rental_uris":{"android":"levelo://app?vid=1f0838e1-1216-4b69-bade-929e46a8f5b5","ios":"levelo://app?vid=1f0838e1-1216-4b69-bade-929e46a8f5b5"},"vehicle_type_id":"4","last_reported":1753331958,"current_range_meters":16400,"station_id":"ce4bhah2rcd13ifvqei0","pricing_plan_id":"cebpf4jnsgd1na2vs0mg"},{"bike_id":"76c65f84-3b49-4269-890c-8259fe6ade74","system_id":"levelo_inurba_marseille","lat":43.32294,"lon":5.36734,"is_reserved":false,"is_disabled":false,"rental_uris":{"android":"levelo://app?vid=76c65f84-3b49-4269-890c-8259fe6ade74","ios":"levelo://app?vid=76c65f84-3b49-4269-890c-8259fe6ade74"},"vehicle_type_id":"4","last_reported":1753331958,"current_range_meters":16400,"station_id":"","pricing_plan_id":"cebpf4jnsgd1na2vs0mg"},{"bike_id":"28cfd08e-0c3b-453b-af16-f9bf5a0b0669","system_id":"levelo_inurba_marseille","lat":43.3055,"lon":5.38431,"is_reserved":false,"is_disabled":false,"rental_uris":{"android":"levelo://app?vid=28cfd08e-0c3b-453b-af16-f9bf5a0b0669","ios":"levelo://app?vid=28cfd08e-0c3b-453b-af16-f9bf5a0b0669"},"vehicle_type_id":"4","last_reported":1753331958,"current_range_meters":16400,"station_id":"ce4bgg92rcd13ifvqb30","pricing_plan_id":"cebpf4jnsgd1na2vs0mg"},{"bike_id":"68b4de77-db1d-417a-bdd1-1e415b9a80b2","system_id":"levelo_inurba_marseille","lat":43.31077,"lon":5.38362,"is_reserved":false,"is_disabled":false,"rental_uris":{"android":"levelo://app?vid=68b4de77-db1d-417a-bdd1-1e415b9a80b2","ios":"levelo://app?vid=68b4de77-db1d-417a-bdd1-1e415b9a80b2"},"vehicle_type_id":"4","last_reported":1753331958,"current_range_meters":16400,"station_id":"ce4bgv92rcd13ifvqcr0","pricing_plan_id":"cebpf4jnsgd1na2vs0mg"},{"bike_id":"9437277c-d886-4a0b-9535-11724bd91051","system_id":"levelo_inurba_marseille","lat":43.27081,"lon":5.4229,"is_reserved":false,"is_disabled":false,"rental_uris":{"android":"levelo://app?vid=9437277c-d886-4a0b-9535-11724bd91051","ios":"levelo://app?vid=9437277c-d886-4a0b-9535-11724bd91051"},"vehicle_type_id":"4","last_reported":1753331958,"current_range_meters":16400,"station_id":"ce4bhk92rcd13ifvqgb0","pricing_plan_id":"cebpf4jnsgd1na2vs0mg"},{"bike_id":"ec170b1e-871a-423f-a35c-a5fb89392e96","system_id":"levelo_inurba_marseille","lat":43.279808,"lon":5.387461,"is_reserved":false,"is_disabled":false,"rental_uris":{"android":"levelo://app?vid=ec170b1e-871a-423f-a35c-a5fb89392e96","ios":"levelo://app?vid=ec170b1e-871a-423f-a35c-a5fb89392e96"},"vehicle_type_id":"4","last_reported":1753331958,"current_range_meters":16800,"station_id":"ce4bhg12rcd13ifvqf80","pricing_plan_id":"cebpf4jnsgd1na2vs0mg"},{"bike_id":"ef5ccae1-9193-443e-97a1-179b1a3f86d9","system_id":"levelo_inurba_marseille","lat":43.33026,"lon":5.39038,"is_reserved":false,"is_disabled":false,"rental_uris":{"android":"levelo://app?vid=ef5ccae1-9193-443e-97a1-179b1a3f86d9","ios":"levelo://app?vid=ef5ccae1-9193-443e-97a1-179b1a3f86d9"},"vehicle_type_id":"4","last_reported":1753331958,"current_range_meters":16800,"station_id":"ce4bhr92rcd13ifvqhrg","pricing_plan_id":"cebpf4jnsgd1na2vs0mg"},{"bike_id":"4b8efed3-9e53-47c8-bfa4-f1fb0beb03b1","system_id":"levelo_inurba_marseille","lat":43.295822,"lon":5.367382,"is_reserved":false,"is_disabled":true,"rental_uris":{"android":"levelo://app?vid=4b8efed3-9e53-47c8-bfa4-f1fb0beb03b1","ios":"levelo://app?vid=4b8efed3-9e53-47c8-bfa4-f1fb0beb03b1"},"vehicle_type_id":"4","last_reported":1753331958,"current_range_meters":16800,"station_id":"ce4bgph2rcd13ifvqc2g","pricing_plan_id":"cebpf4jnsgd1na2vs0mg"},{"bike_id":"28c752dc-c0ff-42d7-8ff3-f57e831b854a","system_id":"levelo_inurba_marseille","lat":43.25113,"lon":5.40349,"is_reserved":false,"is_disabled":false,"rental_uris":{"android":"levelo://app?vid=28c752dc-c0ff-42d7-8ff3-f57e831b854a","ios":"levelo://app?vid=28c752dc-c0ff-42d7-8ff3-f57e831b854a"},"vehicle_type_id":"4","last_reported":1753331958,"current_range_meters":16800,"station_id":"ce4bhlh2rcd13ifvqgig","pricing_plan_id":"cebpf4jnsgd1na2vs0mg"},{"bike_id":"ba6c78a8-0600-4e98-928b-05532193ff7e","system_id":"levelo_inurba_marseille","lat":43.28705,"lon":5.39976,"is_reserved":false,"is_disabled":false,"rental_uris":{"android":"levelo://app?vid=ba6c78a8-0600-4e98-928b-05532193ff7e","ios":"levelo://app?vid=ba6c78a8-0600-4e98-928b-05532193ff7e"},"vehicle_type_id":"4","last_reported":1753331958,"current_range_meters":16800,"station_id":"ce4bho92rcd13ifvqh3g","pricing_plan_id":"cebpf4jnsgd1na2vs0mg"},{"bike_id":"5f824980-27aa-4ef2-856d-b766bebead8a","system_id":"levelo_inurba_marseille","lat":43.22502,"lon":5.34771,"is_reserved":false,"is_disabled":false,"rental_uris":{"android":"levelo://app?vid=5f824980-27aa-4ef2-856d-b766bebead8a","ios":"levelo://app?vid=5f824980-27aa-4ef2-856d-b766bebead8a"},"vehicle_type_id":"4","last_reported":1753331958,"current_range_meters":16800,"station_id":"st_cvj5dfep6f1abm77gieg","pricing_plan_id":"cebpf4jnsgd1na2vs0mg"},{"bike_id":"f7f07796-c7c9-4a74-80e9-fb85744448b8","system_id":"levelo_inurba_marseille","lat":43.22927,"lon":5.353723,"is_reserved":false,"is_disabled":false,"rental_uris":{"android":"levelo://app?vid=f7f07796-c7c9-4a74-80e9-fb85744448b8","ios":"levelo://app?vid=f7f07796-c7c9-4a74-80e9-fb85744448b8"},"vehicle_type_id":"4","last_reported":1753331958,"current_range_meters":16800,"station_id":"cpo3532slgdg3j2ikp40","pricing_plan_id":"cebpf4jnsgd1na2vs0mg"},{"bike_id":"35a86048-76dd-4de0-afb2-7da8772fad44","system_id":"levelo_inurba_marseille","lat":43.21534,"lon":5.34727,"is_reserved":false,"is_disabled":false,"rental_uris":{"android":"levelo://app?vid=35a86048-76dd-4de0-afb2-7da8772fad44","ios":"levelo://app?vid=35a86048-76dd-4de0-afb2-7da8772fad44"},"vehicle_type_id":"4","last_reported":1753331958,"current_range_meters":16800,"station_id":"","pricing_plan_id":"cebpf4jnsgd1na2vs0mg"},{"bike_id":"81df7d6f-832b-40f6-ad7c-3d213cee8b09","system_id":"levelo_inurba_marseille","lat":43.24059,"lon":5.37754,"is_reserved":false,"is_disabled":false,"rental_uris":{"android":"levelo://app?vid=81df7d6f-832b-40f6-ad7c-3d213cee8b09","ios":"levelo://app?vid=81df7d6f-832b-40f6-ad7c-3d213cee8b09"},"vehicle_type_id":"4","last_reported":1753331958,"current_range_meters":17200,"station_id":"ce4bhnp2rcd13ifvqgvg","pricing_plan_id":"cebpf4jnsgd1na2vs0mg"},{"bike_id":"085cc398-265e-4402-bcb0-4ca5061b4738","system_id":"levelo_inurba_marseille","lat":43.229363,"lon":5.353861,"is_reserved":false,"is_disabled":false,"rental_uris":{"android":"levelo://app?vid=085cc398-265e-4402-bcb0-4ca5061b4738","ios":"levelo://app?vid=085cc398-265e-4402-bcb0-4ca5061b4738"},"vehicle_type_id":"4","last_reported":1753331958,"current_range_meters":17200,"station_id":"cpo3532slgdg3j2ikp40","pricing_plan_id":"cebpf4jnsgd1na2vs0mg"},{"bike_id":"882dcbe2-a9bc-4a72-8ee5-ee57cb77ef7b","system_id":"levelo_inurba_marseille","lat":43.26949,"lon":5.38933,"is_reserved":false,"is_disabled":false,"rental_uris":{"android":"levelo://app?vid=882dcbe2-a9bc-4a72-8ee5-ee57cb77ef7b","ios":"levelo://app?vid=882dcbe2-a9bc-4a72-8ee5-ee57cb77ef7b"},"vehicle_type_id":"4","last_reported":1753331958,"current_range_meters":17200,"station_id":"ce4bhhh2rcd13ifvqfl0","pricing_plan_id":"cebpf4jnsgd1na2vs0mg"},{"bike_id":"12de7c48-0496-49f9-9a7d-82ed5d4aebd2","system_id":"levelo_inurba_marseille","lat":43.23178,"lon":5.39994,"is_reserved":false,"is_disabled":false,"rental_uris":{"android":"levelo://app?vid=12de7c48-0496-49f9-9a7d-82ed5d4aebd2","ios":"levelo://app?vid=12de7c48-0496-49f9-9a7d-82ed5d4aebd2"},"vehicle_type_id":"4","last_reported":1753331958,"current_range_meters":17200,"station_id":"ce4bhn12rcd13ifvqgqg","pricing_plan_id":"cebpf4jnsgd1na2vs0mg"},{"bike_id":"ad79c827-3159-4406-b6fd-ddd0dfb8b74f","system_id":"levelo_inurba_marseille","lat":43.2921,"lon":5.39324,"is_reserved":false,"is_disabled":false,"rental_uris":{"android":"levelo://app?vid=ad79c827-3159-4406-b6fd-ddd0dfb8b74f","ios":"levelo://app?vid=ad79c827-3159-4406-b6fd-ddd0dfb8b74f"},"vehicle_type_id":"4","last_reported":1753331958,"current_range_meters":17200,"station_id":"ce4bh192rcd13ifvqdd0","pricing_plan_id":"cebpf4jnsgd1na2vs0mg"},{"bike_id":"451c8b55-6be2-42fe-a6f2-5298fefb419a","system_id":"levelo_inurba_marseille","lat":43.28163,"lon":5.42656,"is_reserved":false,"is_disabled":false,"rental_uris":{"android":"levelo://app?vid=451c8b55-6be2-42fe-a6f2-5298fefb419a","ios":"levelo://app?vid=451c8b55-6be2-42fe-a6f2-5298fefb419a"},"vehicle_type_id":"4","last_reported":1753331958,"current_range_meters":17200,"station_id":"ce4bhnh2rcd13ifvqgug","pricing_plan_id":"cebpf4jnsgd1na2vs0mg"},{"bike_id":"eaea15aa-98ae-4f78-b37a-80e2e4524837","system_id":"levelo_inurba_marseille","lat":43.297916,"lon":5.381026,"is_reserved":false,"is_disabled":false,"rental_uris":{"android":"levelo://app?vid=eaea15aa-98ae-4f78-b37a-80e2e4524837","ios":"levelo://app?vid=eaea15aa-98ae-4f78-b37a-80e2e4524837"},"vehicle_type_id":"4","last_reported":1753331958,"current_range_meters":17200,"station_id":"","pricing_plan_id":"cebpf4jnsgd1na2vs0mg"},{"bike_id":"819bb1b6-06bc-4eb2-b94e-4388d87b087b","system_id":"levelo_inurba_marseille","lat":43.29699,"lon":5.3662,"is_reserved":false,"is_disabled":true,"rental_uris":{"android":"levelo://app?vid=819bb1b6-06bc-4eb2-b94e-4388d87b087b","ios":"levelo://app?vid=819bb1b6-06bc-4eb2-b94e-4388d87b087b"},"vehicle_type_id":"4","last_reported":1753331958,"current_range_meters":17200,"station_id":"ce4bgn12rcd13ifvqbt0","pricing_plan_id":"cebpf4jnsgd1na2vs0mg"},{"bike_id":"e9e25d18-373e-4266-9b6b-bfa0bf8acd93","system_id":"levelo_inurba_marseille","lat":43.31895,"lon":5.40736,"is_reserved":false,"is_disabled":false,"rental_uris":{"android":"levelo://app?vid=e9e25d18-373e-4266-9b6b-bfa0bf8acd93","ios":"levelo://app?vid=e9e25d18-373e-4266-9b6b-bfa0bf8acd93"},"vehicle_type_id":"4","last_reported":1753331958,"current_range_meters":16800,"station_id":"ce4bhq12rcd13ifvqhig","pricing_plan_id":"cebpf4jnsgd1na2vs0mg"},{"bike_id":"674df432-eba2-41a5-a16c-d34b13d50f5e","system_id":"levelo_inurba_marseille","lat":43.33932,"lon":5.40696,"is_reserved":false,"is_disabled":false,"rental_uris":{"android":"levelo://app?vid=674df432-eba2-41a5-a16c-d34b13d50f5e","ios":"levelo://app?vid=674df432-eba2-41a5-a16c-d34b13d50f5e"},"vehicle_type_id":"4","last_reported":1753331958,"current_range_meters":17200,"station_id":"","pricing_plan_id":"cebpf4jnsgd1na2vs0mg"},{"bike_id":"d3af3dda-d33c-4980-b090-54aceb5986d7","system_id":"levelo_inurba_marseille","lat":43.30154,"lon":5.37434,"is_reserved":false,"is_disabled":false,"rental_uris":{"android":"levelo://app?vid=d3af3dda-d33c-4980-b090-54aceb5986d7","ios":"levelo://app?vid=d3af3dda-d33c-4980-b090-54aceb5986d7"},"vehicle_type_id":"4","last_reported":1753331958,"current_range_meters":16800,"station_id":"ce4bgs92rcd13ifvqcc0","pricing_plan_id":"cebpf4jnsgd1na2vs0mg"},{"bike_id":"803ebf00-f6f3-4b2e-870b-858bd87e0d3e","system_id":"levelo_inurba_marseille","lat":43.27175,"lon":5.40987,"is_reserved":false,"is_disabled":false,"rental_uris":{"android":"levelo://app?vid=803ebf00-f6f3-4b2e-870b-858bd87e0d3e","ios":"levelo://app?vid=803ebf00-f6f3-4b2e-870b-858bd87e0d3e"},"vehicle_type_id":"4","last_reported":1753331958,"current_range_meters":17200,"station_id":"ce4bhl12rcd13ifvqgf0","pricing_plan_id":"cebpf4jnsgd1na2vs0mg"},{"bike_id":"e401289a-83cf-4377-aa07-419b9b37079e","system_id":"levelo_inurba_marseille","lat":43.23067,"lon":5.355,"is_reserved":false,"is_disabled":false,"rental_uris":{"android":"levelo://app?vid=e401289a-83cf-4377-aa07-419b9b37079e","ios":"levelo://app?vid=e401289a-83cf-4377-aa07-419b9b37079e"},"vehicle_type_id":"4","last_reported":1753331958,"current_range_meters":17200,"station_id":"cpo3342slgdg3j2ifvpg","pricing_plan_id":"cebpf4jnsgd1na2vs0mg"},{"bike_id":"76bd0cc5-807e-4f5b-9cf9-4ef724bfa3cf","system_id":"levelo_inurba_marseille","lat":43.3107,"lon":5.38345,"is_reserved":false,"is_disabled":false,"rental_uris":{"android":"levelo://app?vid=76bd0cc5-807e-4f5b-9cf9-4ef724bfa3cf","ios":"levelo://app?vid=76bd0cc5-807e-4f5b-9cf9-4ef724bfa3cf"},"vehicle_type_id":"4","last_reported":1753331958,"current_range_meters":17200,"station_id":"ce4bgv92rcd13ifvqcr0","pricing_plan_id":"cebpf4jnsgd1na2vs0mg"},{"bike_id":"27b5acbc-b1fd-4385-9be5-bae49e9e4f6a","system_id":"levelo_inurba_marseille","lat":43.24807,"lon":5.37458,"is_reserved":false,"is_disabled":false,"rental_uris":{"android":"levelo://app?vid=27b5acbc-b1fd-4385-9be5-bae49e9e4f6a","ios":"levelo://app?vid=27b5acbc-b1fd-4385-9be5-bae49e9e4f6a"},"vehicle_type_id":"4","last_reported":1753331958,"current_range_meters":17200,"station_id":"ce4bhgh2rcd13ifvqfb0","pricing_plan_id":"cebpf4jnsgd1na2vs0mg"},{"bike_id":"fbda76a5-068e-4d90-b9ba-25721acd9298","system_id":"levelo_inurba_marseille","lat":43.290301,"lon":5.439771,"is_reserved":false,"is_disabled":false,"rental_uris":{"android":"levelo://app?vid=fbda76a5-068e-4d90-b9ba-25721acd9298","ios":"levelo://app?vid=fbda76a5-068e-4d90-b9ba-25721acd9298"},"vehicle_type_id":"4","last_reported":1753331958,"current_range_meters":17600,"station_id":"","pricing_plan_id":"cebpf4jnsgd1na2vs0mg"},{"bike_id":"f2bfae27-1f20-4652-921b-2118ec2e65d1","system_id":"levelo_inurba_marseille","lat":43.24815,"lon":5.37437,"is_reserved":false,"is_disabled":false,"rental_uris":{"android":"levelo://app?vid=f2bfae27-1f20-4652-921b-2118ec2e65d1","ios":"levelo://app?vid=f2bfae27-1f20-4652-921b-2118ec2e65d1"},"vehicle_type_id":"4","last_reported":1753331958,"current_range_meters":17600,"station_id":"ce4bhgh2rcd13ifvqfb0","pricing_plan_id":"cebpf4jnsgd1na2vs0mg"},{"bike_id":"d8881414-524c-4c0e-a866-64a5dfe80a3e","system_id":"levelo_inurba_marseille","lat":43.3206,"lon":5.41529,"is_reserved":false,"is_disabled":false,"rental_uris":{"android":"levelo://app?vid=d8881414-524c-4c0e-a866-64a5dfe80a3e","ios":"levelo://app?vid=d8881414-524c-4c0e-a866-64a5dfe80a3e"},"vehicle_type_id":"4","last_reported":1753331958,"current_range_meters":17600,"station_id":"ce4bhq92rcd13ifvqhkg","pricing_plan_id":"cebpf4jnsgd1na2vs0mg"},{"bike_id":"d4563b33-a839-48a4-883e-a6e44b19ab71","system_id":"levelo_inurba_marseille","lat":43.30808,"lon":5.38168,"is_reserved":false,"is_disabled":false,"rental_uris":{"android":"levelo://app?vid=d4563b33-a839-48a4-883e-a6e44b19ab71","ios":"levelo://app?vid=d4563b33-a839-48a4-883e-a6e44b19ab71"},"vehicle_type_id":"4","last_reported":1753331958,"current_range_meters":17600,"station_id":"ce4bgt12rcd13ifvqce0","pricing_plan_id":"cebpf4jnsgd1na2vs0mg"},{"bike_id":"253a269e-9944-4daf-a54c-679a93fe8e2e","system_id":"levelo_inurba_marseille","lat":43.29568,"lon":5.39955,"is_reserved":false,"is_disabled":false,"rental_uris":{"android":"levelo://app?vid=253a269e-9944-4daf-a54c-679a93fe8e2e","ios":"levelo://app?vid=253a269e-9944-4daf-a54c-679a93fe8e2e"},"vehicle_type_id":"4","last_reported":1753331958,"current_range_meters":17600,"station_id":"ce4bh312rcd13ifvqdj0","pricing_plan_id":"cebpf4jnsgd1na2vs0mg"},{"bike_id":"630f322e-ea39-413c-8ed4-096ccef376bc","system_id":"levelo_inurba_marseille","lat":43.295957,"lon":5.369403,"is_reserved":false,"is_disabled":false,"rental_uris":{"android":"levelo://app?vid=630f322e-ea39-413c-8ed4-096ccef376bc","ios":"levelo://app?vid=630f322e-ea39-413c-8ed4-096ccef376bc"},"vehicle_type_id":"4","last_reported":1753331958,"current_range_meters":17600,"station_id":"","pricing_plan_id":"cebpf4jnsgd1na2vs0mg"},{"bike_id":"a63ae5fb-f78e-4765-8061-5b5e71d0cd8f","system_id":"levelo_inurba_marseille","lat":43.28667,"lon":5.36332,"is_reserved":false,"is_disabled":false,"rental_uris":{"android":"levelo://app?vid=a63ae5fb-f78e-4765-8061-5b5e71d0cd8f","ios":"levelo://app?vid=a63ae5fb-f78e-4765-8061-5b5e71d0cd8f"},"vehicle_type_id":"4","last_reported":1753331958,"current_range_meters":17200,"station_id":"ce4bhah2rcd13ifvqej0","pricing_plan_id":"cebpf4jnsgd1na2vs0mg"},{"bike_id":"80bb352d-bade-4c4c-92d8-00578752655a","system_id":"levelo_inurba_marseille","lat":43.298769,"lon":5.397335,"is_reserved":false,"is_disabled":false,"rental_uris":{"android":"levelo://app?vid=80bb352d-bade-4c4c-92d8-00578752655a","ios":"levelo://app?vid=80bb352d-bade-4c4c-92d8-00578752655a"},"vehicle_type_id":"4","last_reported":1753331958,"current_range_meters":17600,"station_id":"ce4bh0h2rcd13ifvqd50","pricing_plan_id":"cebpf4jnsgd1na2vs0mg"},{"bike_id":"cdd09743-6207-47ee-bf4e-b9d54bffab60","system_id":"levelo_inurba_marseille","lat":43.2835,"lon":5.38115,"is_reserved":false,"is_disabled":false,"rental_uris":{"android":"levelo://app?vid=cdd09743-6207-47ee-bf4e-b9d54bffab60","ios":"levelo://app?vid=cdd09743-6207-47ee-bf4e-b9d54bffab60"},"vehicle_type_id":"4","last_reported":1753331958,"current_range_meters":18000,"station_id":"ce4bh412rcd13ifvqdr0","pricing_plan_id":"cebpf4jnsgd1na2vs0mg"},{"bike_id":"1876e6ab-9d96-4648-9bae-31903550de1f","system_id":"levelo_inurba_marseille","lat":43.31704,"lon":5.40389,"is_reserved":false,"is_disabled":false,"rental_uris":{"android":"levelo://app?vid=1876e6ab-9d96-4648-9bae-31903550de1f","ios":"levelo://app?vid=1876e6ab-9d96-4648-9bae-31903550de1f"},"vehicle_type_id":"4","last_reported":1753331958,"current_range_meters":18000,"station_id":"","pricing_plan_id":"cebpf4jnsgd1na2vs0mg"},{"bike_id":"33ce2ff8-7e21-4229-9288-7ac129269db8","system_id":"levelo_inurba_marseille","lat":43.32131,"lon":5.36787,"is_reserved":false,"is_disabled":false,"rental_uris":{"android":"levelo://app?vid=33ce2ff8-7e21-4229-9288-7ac129269db8","ios":"levelo://app?vid=33ce2ff8-7e21-4229-9288-7ac129269db8"},"vehicle_type_id":"4","last_reported":1753331958,"current_range_meters":18000,"station_id":"ce4bhrh2rcd13ifvqhug","pricing_plan_id":"cebpf4jnsgd1na2vs0mg"},{"bike_id":"e469b930-7864-4a88-b245-b9f07a651c86","system_id":"levelo_inurba_marseille","lat":43.307335,"lon":5.424315,"is_reserved":false,"is_disabled":false,"rental_uris":{"android":"levelo://app?vid=e469b930-7864-4a88-b245-b9f07a651c86","ios":"levelo://app?vid=e469b930-7864-4a88-b245-b9f07a651c86"},"vehicle_type_id":"4","last_reported":1753331958,"current_range_meters":18000,"station_id":"st_cvj6ca6bvosntc0bfgr0","pricing_plan_id":"cebpf4jnsgd1na2vs0mg"},{"bike_id":"0aa2d153-96d1-4d69-83b8-d39119aa9dd5","system_id":"levelo_inurba_marseille","lat":43.33523,"lon":5.36229,"is_reserved":false,"is_disabled":false,"rental_uris":{"android":"levelo://app?vid=0aa2d153-96d1-4d69-83b8-d39119aa9dd5","ios":"levelo://app?vid=0aa2d153-96d1-4d69-83b8-d39119aa9dd5"},"vehicle_type_id":"4","last_reported":1753331958,"current_range_meters":18000,"station_id":"","pricing_plan_id":"cebpf4jnsgd1na2vs0mg"},{"bike_id":"d0a5c40c-d862-4af4-b76f-bb451d0719cc","system_id":"levelo_inurba_marseille","lat":43.2847,"lon":5.35892,"is_reserved":false,"is_disabled":false,"rental_uris":{"android":"levelo://app?vid=d0a5c40c-d862-4af4-b76f-bb451d0719cc","ios":"levelo://app?vid=d0a5c40c-d862-4af4-b76f-bb451d0719cc"},"vehicle_type_id":"4","last_reported":1753331958,"current_range_meters":18000,"station_id":"","pricing_plan_id":"cebpf4jnsgd1na2vs0mg"},{"bike_id":"9e71a50e-df43-4a48-bc37-13460235be7b","system_id":"levelo_inurba_marseille","lat":43.24171,"lon":5.36394,"is_reserved":false,"is_disabled":false,"rental_uris":{"android":"levelo://app?vid=9e71a50e-df43-4a48-bc37-13460235be7b","ios":"levelo://app?vid=9e71a50e-df43-4a48-bc37-13460235be7b"},"vehicle_type_id":"4","last_reported":1753331958,"current_range_meters":18000,"station_id":"cpo36qri1sfpv3e86is0","pricing_plan_id":"cebpf4jnsgd1na2vs0mg"},{"bike_id":"2ac66c49-4e8a-41a0-92fc-7e7a35e37452","system_id":"levelo_inurba_marseille","lat":43.287042,"lon":5.399918,"is_reserved":false,"is_disabled":false,"rental_uris":{"android":"levelo://app?vid=2ac66c49-4e8a-41a0-92fc-7e7a35e37452","ios":"levelo://app?vid=2ac66c49-4e8a-41a0-92fc-7e7a35e37452"},"vehicle_type_id":"4","last_reported":1753331958,"current_range_meters":18000,"station_id":"ce4bho92rcd13ifvqh3g","pricing_plan_id":"cebpf4jnsgd1na2vs0mg"},{"bike_id":"f587eea3-baee-43e2-a306-aded560a8a2f","system_id":"levelo_inurba_marseille","lat":43.30412,"lon":5.41288,"is_reserved":false,"is_disabled":true,"rental_uris":{"android":"levelo://app?vid=f587eea3-baee-43e2-a306-aded560a8a2f","ios":"levelo://app?vid=f587eea3-baee-43e2-a306-aded560a8a2f"},"vehicle_type_id":"4","last_reported":1753331958,"current_range_meters":18800,"station_id":"ce4bhop2rcd13ifvqh8g","pricing_plan_id":"cebpf4jnsgd1na2vs0mg"},{"bike_id":"550ed6ab-d61b-4d61-af6f-62768fec54ac","system_id":"levelo_inurba_marseille","lat":43.30927,"lon":5.4015,"is_reserved":false,"is_disabled":false,"rental_uris":{"android":"levelo://app?vid=550ed6ab-d61b-4d61-af6f-62768fec54ac","ios":"levelo://app?vid=550ed6ab-d61b-4d61-af6f-62768fec54ac"},"vehicle_type_id":"4","last_reported":1753331958,"current_range_meters":18800,"station_id":"ce4bgvp2rcd13ifvqct0","pricing_plan_id":"cebpf4jnsgd1na2vs0mg"},{"bike_id":"7eec308d-3fac-41e8-826b-ab50f25b94c4","system_id":"levelo_inurba_marseille","lat":43.33601,"lon":5.41032,"is_reserved":false,"is_disabled":true,"rental_uris":{"android":"levelo://app?vid=7eec308d-3fac-41e8-826b-ab50f25b94c4","ios":"levelo://app?vid=7eec308d-3fac-41e8-826b-ab50f25b94c4"},"vehicle_type_id":"4","last_reported":1753331958,"current_range_meters":18800,"station_id":"ce4bhqh2rcd13ifvqhmg","pricing_plan_id":"cebpf4jnsgd1na2vs0mg"},{"bike_id":"597ef163-0cc6-4cdb-bc21-b4f32b55b493","system_id":"levelo_inurba_marseille","lat":43.31137,"lon":5.37767,"is_reserved":false,"is_disabled":false,"rental_uris":{"android":"levelo://app?vid=597ef163-0cc6-4cdb-bc21-b4f32b55b493","ios":"levelo://app?vid=597ef163-0cc6-4cdb-bc21-b4f32b55b493"},"vehicle_type_id":"4","last_reported":1753331958,"current_range_meters":18800,"station_id":"ce4bgt92rcd13ifvqcg0","pricing_plan_id":"cebpf4jnsgd1na2vs0mg"},{"bike_id":"270c6910-4397-42f2-99f1-4d519b6317e2","system_id":"levelo_inurba_marseille","lat":43.28697,"lon":5.39996,"is_reserved":false,"is_disabled":false,"rental_uris":{"android":"levelo://app?vid=270c6910-4397-42f2-99f1-4d519b6317e2","ios":"levelo://app?vid=270c6910-4397-42f2-99f1-4d519b6317e2"},"vehicle_type_id":"4","last_reported":1753331958,"current_range_meters":18800,"station_id":"ce4bho92rcd13ifvqh3g","pricing_plan_id":"cebpf4jnsgd1na2vs0mg"},{"bike_id":"c9fa87fb-bb42-4d95-a8cc-6cff58b20d5c","system_id":"levelo_inurba_marseille","lat":43.26185,"lon":5.37445,"is_reserved":false,"is_disabled":false,"rental_uris":{"android":"levelo://app?vid=c9fa87fb-bb42-4d95-a8cc-6cff58b20d5c","ios":"levelo://app?vid=c9fa87fb-bb42-4d95-a8cc-6cff58b20d5c"},"vehicle_type_id":"4","last_reported":1753331958,"current_range_meters":18800,"station_id":"ce4bhgp2rcd13ifvqfc0","pricing_plan_id":"cebpf4jnsgd1na2vs0mg"},{"bike_id":"1914f709-1ea5-4843-ae48-ddb1d0c6f936","system_id":"levelo_inurba_marseille","lat":43.303199,"lon":5.404452,"is_reserved":false,"is_disabled":false,"rental_uris":{"android":"levelo://app?vid=1914f709-1ea5-4843-ae48-ddb1d0c6f936","ios":"levelo://app?vid=1914f709-1ea5-4843-ae48-ddb1d0c6f936"},"vehicle_type_id":"4","last_reported":1753331958,"current_range_meters":18800,"station_id":"ce4bh012rcd13ifvqd10","pricing_plan_id":"cebpf4jnsgd1na2vs0mg"},{"bike_id":"087a8351-2914-4331-91d9-d03dc17223f9","system_id":"levelo_inurba_marseille","lat":43.30604,"lon":5.39342,"is_reserved":false,"is_disabled":false,"rental_uris":{"android":"levelo://app?vid=087a8351-2914-4331-91d9-d03dc17223f9","ios":"levelo://app?vid=087a8351-2914-4331-91d9-d03dc17223f9"},"vehicle_type_id":"4","last_reported":1753331958,"current_range_meters":18800,"station_id":"ce4bh0p2rcd13ifvqd80","pricing_plan_id":"cebpf4jnsgd1na2vs0mg"},{"bike_id":"784eeebd-2893-4f27-84ae-c797089b4166","system_id":"levelo_inurba_marseille","lat":43.22514,"lon":5.34774,"is_reserved":false,"is_disabled":false,"rental_uris":{"android":"levelo://app?vid=784eeebd-2893-4f27-84ae-c797089b4166","ios":"levelo://app?vid=784eeebd-2893-4f27-84ae-c797089b4166"},"vehicle_type_id":"4","last_reported":1753331958,"current_range_meters":18800,"station_id":"st_cvj5dfep6f1abm77gieg","pricing_plan_id":"cebpf4jnsgd1na2vs0mg"},{"bike_id":"d8ab8225-ebfc-48f1-9981-f15e3b9960ea","system_id":"levelo_inurba_marseille","lat":43.22921,"lon":5.35369,"is_reserved":false,"is_disabled":false,"rental_uris":{"android":"levelo://app?vid=d8ab8225-ebfc-48f1-9981-f15e3b9960ea","ios":"levelo://app?vid=d8ab8225-ebfc-48f1-9981-f15e3b9960ea"},"vehicle_type_id":"4","last_reported":1753331958,"current_range_meters":18800,"station_id":"cpo3532slgdg3j2ikp40","pricing_plan_id":"cebpf4jnsgd1na2vs0mg"},{"bike_id":"53a1499d-b6d8-47e4-8394-68310e6c291f","system_id":"levelo_inurba_marseille","lat":43.3149,"lon":5.37302,"is_reserved":false,"is_disabled":false,"rental_uris":{"android":"levelo://app?vid=53a1499d-b6d8-47e4-8394-68310e6c291f","ios":"levelo://app?vid=53a1499d-b6d8-47e4-8394-68310e6c291f"},"vehicle_type_id":"4","last_reported":1753331958,"current_range_meters":18800,"station_id":"ce4bgt12rcd13ifvqcd0","pricing_plan_id":"cebpf4jnsgd1na2vs0mg"},{"bike_id":"481351de-e3d5-4a6f-aa67-c1762e7ed223","system_id":"levelo_inurba_marseille","lat":43.270689,"lon":5.422802,"is_reserved":false,"is_disabled":false,"rental_uris":{"android":"levelo://app?vid=481351de-e3d5-4a6f-aa67-c1762e7ed223","ios":"levelo://app?vid=481351de-e3d5-4a6f-aa67-c1762e7ed223"},"vehicle_type_id":"4","last_reported":1753331958,"current_range_meters":18800,"station_id":"ce4bhk92rcd13ifvqgb0","pricing_plan_id":"cebpf4jnsgd1na2vs0mg"},{"bike_id":"0a7e2862-d8ec-4c77-89d9-cfcdd51f8d75","system_id":"levelo_inurba_marseille","lat":43.311858,"lon":5.378743,"is_reserved":false,"is_disabled":false,"rental_uris":{"android":"levelo://app?vid=0a7e2862-d8ec-4c77-89d9-cfcdd51f8d75","ios":"levelo://app?vid=0a7e2862-d8ec-4c77-89d9-cfcdd51f8d75"},"vehicle_type_id":"4","last_reported":1753331958,"current_range_meters":18800,"station_id":"","pricing_plan_id":"cebpf4jnsgd1na2vs0mg"},{"bike_id":"48711d07-be69-4c50-91d4-43e6f285038e","system_id":"levelo_inurba_marseille","lat":43.24051,"lon":5.37716,"is_reserved":false,"is_disabled":false,"rental_uris":{"android":"levelo://app?vid=48711d07-be69-4c50-91d4-43e6f285038e","ios":"levelo://app?vid=48711d07-be69-4c50-91d4-43e6f285038e"},"vehicle_type_id":"4","last_reported":1753331958,"current_range_meters":18800,"station_id":"ce4bhnp2rcd13ifvqgvg","pricing_plan_id":"cebpf4jnsgd1na2vs0mg"},{"bike_id":"727a2b29-93f2-4697-a65c-6e4b12e4f54d","system_id":"levelo_inurba_marseille","lat":43.27941,"lon":5.4103,"is_reserved":false,"is_disabled":false,"rental_uris":{"android":"levelo://app?vid=727a2b29-93f2-4697-a65c-6e4b12e4f54d","ios":"levelo://app?vid=727a2b29-93f2-4697-a65c-6e4b12e4f54d"},"vehicle_type_id":"4","last_reported":1753331958,"current_range_meters":18800,"station_id":"ce4bhnp2rcd13ifvqh0g","pricing_plan_id":"cebpf4jnsgd1na2vs0mg"},{"bike_id":"44a7b0ca-28d8-42f1-8086-80caa3f9d7ef","system_id":"levelo_inurba_marseille","lat":43.31069,"lon":5.3835,"is_reserved":false,"is_disabled":false,"rental_uris":{"android":"levelo://app?vid=44a7b0ca-28d8-42f1-8086-80caa3f9d7ef","ios":"levelo://app?vid=44a7b0ca-28d8-42f1-8086-80caa3f9d7ef"},"vehicle_type_id":"4","last_reported":1753331958,"current_range_meters":19200,"station_id":"ce4bgv92rcd13ifvqcr0","pricing_plan_id":"cebpf4jnsgd1na2vs0mg"},{"bike_id":"ce193c8e-90e0-4599-95e2-d02b7d163b03","system_id":"levelo_inurba_marseille","lat":43.24058,"lon":5.37728,"is_reserved":false,"is_disabled":false,"rental_uris":{"android":"levelo://app?vid=ce193c8e-90e0-4599-95e2-d02b7d163b03","ios":"levelo://app?vid=ce193c8e-90e0-4599-95e2-d02b7d163b03"},"vehicle_type_id":"4","last_reported":1753331958,"current_range_meters":19200,"station_id":"ce4bhnp2rcd13ifvqgvg","pricing_plan_id":"cebpf4jnsgd1na2vs0mg"},{"bike_id":"261d4bb0-7bb9-4c80-93f3-cd6f68b7285e","system_id":"levelo_inurba_marseille","lat":43.315,"lon":5.36913,"is_reserved":false,"is_disabled":false,"rental_uris":{"android":"levelo://app?vid=261d4bb0-7bb9-4c80-93f3-cd6f68b7285e","ios":"levelo://app?vid=261d4bb0-7bb9-4c80-93f3-cd6f68b7285e"},"vehicle_type_id":"4","last_reported":1753331958,"current_range_meters":19200,"station_id":"","pricing_plan_id":"cebpf4jnsgd1na2vs0mg"},{"bike_id":"80909938-47e1-4ecd-8d47-1b87726af204","system_id":"levelo_inurba_marseille","lat":43.307759,"lon":5.376528,"is_reserved":false,"is_disabled":false,"rental_uris":{"android":"levelo://app?vid=80909938-47e1-4ecd-8d47-1b87726af204","ios":"levelo://app?vid=80909938-47e1-4ecd-8d47-1b87726af204"},"vehicle_type_id":"4","last_reported":1753331958,"current_range_meters":19200,"station_id":"ce4bgv92rcd13ifvqcq0","pricing_plan_id":"cebpf4jnsgd1na2vs0mg"},{"bike_id":"ffea0aa0-4522-45b8-aa83-a64374785660","system_id":"levelo_inurba_marseille","lat":43.29308,"lon":5.40038,"is_reserved":false,"is_disabled":false,"rental_uris":{"android":"levelo://app?vid=ffea0aa0-4522-45b8-aa83-a64374785660","ios":"levelo://app?vid=ffea0aa0-4522-45b8-aa83-a64374785660"},"vehicle_type_id":"4","last_reported":1753331958,"current_range_meters":19200,"station_id":"ce4bh312rcd13ifvqdk0","pricing_plan_id":"cebpf4jnsgd1na2vs0mg"},{"bike_id":"53115114-3d21-4dd2-9257-726404c5e933","system_id":"levelo_inurba_marseille","lat":43.287003,"lon":5.399806,"is_reserved":false,"is_disabled":false,"rental_uris":{"android":"levelo://app?vid=53115114-3d21-4dd2-9257-726404c5e933","ios":"levelo://app?vid=53115114-3d21-4dd2-9257-726404c5e933"},"vehicle_type_id":"4","last_reported":1753331958,"current_range_meters":19200,"station_id":"ce4bho92rcd13ifvqh3g","pricing_plan_id":"cebpf4jnsgd1na2vs0mg"},{"bike_id":"bfddca7c-3825-4dd2-81c9-335257a69f7c","system_id":"levelo_inurba_marseille","lat":43.295785,"lon":5.367516,"is_reserved":false,"is_disabled":false,"rental_uris":{"android":"levelo://app?vid=bfddca7c-3825-4dd2-81c9-335257a69f7c","ios":"levelo://app?vid=bfddca7c-3825-4dd2-81c9-335257a69f7c"},"vehicle_type_id":"4","last_reported":1753331958,"current_range_meters":19600,"station_id":"ce4bgph2rcd13ifvqc2g","pricing_plan_id":"cebpf4jnsgd1na2vs0mg"},{"bike_id":"8bf6bc04-59b8-4183-9853-fb1a045746c9","system_id":"levelo_inurba_marseille","lat":43.28702,"lon":5.37382,"is_reserved":false,"is_disabled":false,"rental_uris":{"android":"levelo://app?vid=8bf6bc04-59b8-4183-9853-fb1a045746c9","ios":"levelo://app?vid=8bf6bc04-59b8-4183-9853-fb1a045746c9"},"vehicle_type_id":"4","last_reported":1753331958,"current_range_meters":19600,"station_id":"ce4bh3p2rcd13ifvqdq0","pricing_plan_id":"cebpf4jnsgd1na2vs0mg"},{"bike_id":"e989862c-69f9-4f39-b21f-c2aea878cf77","system_id":"levelo_inurba_marseille","lat":43.23971,"lon":5.36625,"is_reserved":false,"is_disabled":false,"rental_uris":{"android":"levelo://app?vid=e989862c-69f9-4f39-b21f-c2aea878cf77","ios":"levelo://app?vid=e989862c-69f9-4f39-b21f-c2aea878cf77"},"vehicle_type_id":"4","last_reported":1753331958,"current_range_meters":19600,"station_id":"ce4bhi12rcd13ifvqfp0","pricing_plan_id":"cebpf4jnsgd1na2vs0mg"},{"bike_id":"9421ac7b-d1bd-4c5f-9f28-e04a5719eb0f","system_id":"levelo_inurba_marseille","lat":43.241667,"lon":5.397273,"is_reserved":false,"is_disabled":true,"rental_uris":{"android":"levelo://app?vid=9421ac7b-d1bd-4c5f-9f28-e04a5719eb0f","ios":"levelo://app?vid=9421ac7b-d1bd-4c5f-9f28-e04a5719eb0f"},"vehicle_type_id":"4","last_reported":1753331958,"current_range_meters":19600,"station_id":"ce4bhn12rcd13ifvqgpg","pricing_plan_id":"cebpf4jnsgd1na2vs0mg"},{"bike_id":"22832dd9-6f40-41f0-84f7-20d5b045fc09","system_id":"levelo_inurba_marseille","lat":43.303743,"lon":5.424812,"is_reserved":false,"is_disabled":false,"rental_uris":{"android":"levelo://app?vid=22832dd9-6f40-41f0-84f7-20d5b045fc09","ios":"levelo://app?vid=22832dd9-6f40-41f0-84f7-20d5b045fc09"},"vehicle_type_id":"4","last_reported":1753331958,"current_range_meters":19600,"station_id":"ce4bhoh2rcd13ifvqh6g","pricing_plan_id":"cebpf4jnsgd1na2vs0mg"},{"bike_id":"bae777b5-6ec5-4f97-a7e7-6bd5b3c81f2e","system_id":"levelo_inurba_marseille","lat":43.28456,"lon":5.35888,"is_reserved":false,"is_disabled":false,"rental_uris":{"android":"levelo://app?vid=bae777b5-6ec5-4f97-a7e7-6bd5b3c81f2e","ios":"levelo://app?vid=bae777b5-6ec5-4f97-a7e7-6bd5b3c81f2e"},"vehicle_type_id":"4","last_reported":1753331958,"current_range_meters":19600,"station_id":"ce4bhah2rcd13ifvqei0","pricing_plan_id":"cebpf4jnsgd1na2vs0mg"},{"bike_id":"8c1d0819-f991-43c1-a0ae-15c2c54fdbcd","system_id":"levelo_inurba_marseille","lat":43.27378,"lon":5.36251,"is_reserved":false,"is_disabled":true,"rental_uris":{"android":"levelo://app?vid=8c1d0819-f991-43c1-a0ae-15c2c54fdbcd","ios":"levelo://app?vid=8c1d0819-f991-43c1-a0ae-15c2c54fdbcd"},"vehicle_type_id":"4","last_reported":1753331958,"current_range_meters":20000,"station_id":"ce4bhbh2rcd13ifvqeo0","pricing_plan_id":"cebpf4jnsgd1na2vs0mg"},{"bike_id":"e4c9b708-1f15-4215-89bf-bf3ff540d3c4","system_id":"levelo_inurba_marseille","lat":43.29218,"lon":5.39321,"is_reserved":false,"is_disabled":false,"rental_uris":{"android":"levelo://app?vid=e4c9b708-1f15-4215-89bf-bf3ff540d3c4","ios":"levelo://app?vid=e4c9b708-1f15-4215-89bf-bf3ff540d3c4"},"vehicle_type_id":"4","last_reported":1753331958,"current_range_meters":20000,"station_id":"ce4bh192rcd13ifvqdd0","pricing_plan_id":"cebpf4jnsgd1na2vs0mg"},{"bike_id":"2bab6ace-e383-4689-b9b6-36cafb3d9d04","system_id":"levelo_inurba_marseille","lat":43.28702,"lon":5.39978,"is_reserved":false,"is_disabled":false,"rental_uris":{"android":"levelo://app?vid=2bab6ace-e383-4689-b9b6-36cafb3d9d04","ios":"levelo://app?vid=2bab6ace-e383-4689-b9b6-36cafb3d9d04"},"vehicle_type_id":"4","last_reported":1753331958,"current_range_meters":20000,"station_id":"ce4bho92rcd13ifvqh3g","pricing_plan_id":"cebpf4jnsgd1na2vs0mg"},{"bike_id":"819e50fc-8904-4a49-827e-87624dc8a127","system_id":"levelo_inurba_marseille","lat":43.287016,"lon":5.379494,"is_reserved":false,"is_disabled":false,"rental_uris":{"android":"levelo://app?vid=819e50fc-8904-4a49-827e-87624dc8a127","ios":"levelo://app?vid=819e50fc-8904-4a49-827e-87624dc8a127"},"vehicle_type_id":"4","last_reported":1753331958,"current_range_meters":20000,"station_id":"ce4bh9p2rcd13ifvqec0","pricing_plan_id":"cebpf4jnsgd1na2vs0mg"},{"bike_id":"abef5d44-c70c-4743-99a1-4161f40755dd","system_id":"levelo_inurba_marseille","lat":43.28873,"lon":5.39302,"is_reserved":false,"is_disabled":false,"rental_uris":{"android":"levelo://app?vid=abef5d44-c70c-4743-99a1-4161f40755dd","ios":"levelo://app?vid=abef5d44-c70c-4743-99a1-4161f40755dd"},"vehicle_type_id":"4","last_reported":1753331958,"current_range_meters":20000,"station_id":"ce4bh2p2rcd13ifvqdi0","pricing_plan_id":"cebpf4jnsgd1na2vs0mg"},{"bike_id":"f2ca3887-7e82-498b-8c49-e80cd18a3051","system_id":"levelo_inurba_marseille","lat":43.23974,"lon":5.36628,"is_reserved":false,"is_disabled":false,"rental_uris":{"android":"levelo://app?vid=f2ca3887-7e82-498b-8c49-e80cd18a3051","ios":"levelo://app?vid=f2ca3887-7e82-498b-8c49-e80cd18a3051"},"vehicle_type_id":"4","last_reported":1753331958,"current_range_meters":20400,"station_id":"ce4bhi12rcd13ifvqfp0","pricing_plan_id":"cebpf4jnsgd1na2vs0mg"},{"bike_id":"98bc4236-880d-40c0-a86d-0fac3f83ec0c","system_id":"levelo_inurba_marseille","lat":43.286545,"lon":5.363414,"is_reserved":false,"is_disabled":false,"rental_uris":{"android":"levelo://app?vid=98bc4236-880d-40c0-a86d-0fac3f83ec0c","ios":"levelo://app?vid=98bc4236-880d-40c0-a86d-0fac3f83ec0c"},"vehicle_type_id":"4","last_reported":1753331958,"current_range_meters":20400,"station_id":"ce4bhah2rcd13ifvqej0","pricing_plan_id":"cebpf4jnsgd1na2vs0mg"},{"bike_id":"fb3609f3-1cac-4b26-8e6a-2a166fbaef47","system_id":"levelo_inurba_marseille","lat":43.27978,"lon":5.38727,"is_reserved":false,"is_disabled":false,"rental_uris":{"android":"levelo://app?vid=fb3609f3-1cac-4b26-8e6a-2a166fbaef47","ios":"levelo://app?vid=fb3609f3-1cac-4b26-8e6a-2a166fbaef47"},"vehicle_type_id":"4","last_reported":1753331958,"current_range_meters":20400,"station_id":"ce4bhg12rcd13ifvqf80","pricing_plan_id":"cebpf4jnsgd1na2vs0mg"},{"bike_id":"21bb3fef-81ef-46bb-a48d-d85402757c94","system_id":"levelo_inurba_marseille","lat":43.254468,"lon":5.37983,"is_reserved":false,"is_disabled":false,"rental_uris":{"android":"levelo://app?vid=21bb3fef-81ef-46bb-a48d-d85402757c94","ios":"levelo://app?vid=21bb3fef-81ef-46bb-a48d-d85402757c94"},"vehicle_type_id":"4","last_reported":1753331958,"current_range_meters":20400,"station_id":"","pricing_plan_id":"cebpf4jnsgd1na2vs0mg"},{"bike_id":"3105b080-eaef-462f-9090-9fad060b9946","system_id":"levelo_inurba_marseille","lat":43.25561,"lon":5.38222,"is_reserved":false,"is_disabled":false,"rental_uris":{"android":"levelo://app?vid=3105b080-eaef-462f-9090-9fad060b9946","ios":"levelo://app?vid=3105b080-eaef-462f-9090-9fad060b9946"},"vehicle_type_id":"4","last_reported":1753331958,"current_range_meters":20400,"station_id":"ce4bhih2rcd13ifvqfs0","pricing_plan_id":"cebpf4jnsgd1na2vs0mg"},{"bike_id":"64ffeb29-b580-4ee9-9818-6c5935b8d2d3","system_id":"levelo_inurba_marseille","lat":43.30792,"lon":5.38179,"is_reserved":false,"is_disabled":false,"rental_uris":{"android":"levelo://app?vid=64ffeb29-b580-4ee9-9818-6c5935b8d2d3","ios":"levelo://app?vid=64ffeb29-b580-4ee9-9818-6c5935b8d2d3"},"vehicle_type_id":"4","last_reported":1753331958,"current_range_meters":20400,"station_id":"ce4bgt12rcd13ifvqce0","pricing_plan_id":"cebpf4jnsgd1na2vs0mg"},{"bike_id":"e16dde5d-0cc1-45bc-adc4-fe9d96184d24","system_id":"levelo_inurba_marseille","lat":43.281558,"lon":5.42638,"is_reserved":false,"is_disabled":false,"rental_uris":{"android":"levelo://app?vid=e16dde5d-0cc1-45bc-adc4-fe9d96184d24","ios":"levelo://app?vid=e16dde5d-0cc1-45bc-adc4-fe9d96184d24"},"vehicle_type_id":"4","last_reported":1753331958,"current_range_meters":20400,"station_id":"ce4bhnh2rcd13ifvqgug","pricing_plan_id":"cebpf4jnsgd1na2vs0mg"},{"bike_id":"26b9f1a8-d672-49e2-9f57-678b76515c11","system_id":"levelo_inurba_marseille","lat":43.26556,"lon":5.373,"is_reserved":false,"is_disabled":false,"rental_uris":{"android":"levelo://app?vid=26b9f1a8-d672-49e2-9f57-678b76515c11","ios":"levelo://app?vid=26b9f1a8-d672-49e2-9f57-678b76515c11"},"vehicle_type_id":"4","last_reported":1753331958,"current_range_meters":20800,"station_id":"ce4bhg12rcd13ifvqf70","pricing_plan_id":"cebpf4jnsgd1na2vs0mg"},{"bike_id":"3bb998b9-3627-4c8f-9aad-d3bcbdc7b167","system_id":"levelo_inurba_marseille","lat":43.2973,"lon":5.37232,"is_reserved":false,"is_disabled":false,"rental_uris":{"android":"levelo://app?vid=3bb998b9-3627-4c8f-9aad-d3bcbdc7b167","ios":"levelo://app?vid=3bb998b9-3627-4c8f-9aad-d3bcbdc7b167"},"vehicle_type_id":"4","last_reported":1753331958,"current_range_meters":20800,"station_id":"","pricing_plan_id":"cebpf4jnsgd1na2vs0mg"},{"bike_id":"975621b1-02b2-43ba-95e3-5e639ac7a8db","system_id":"levelo_inurba_marseille","lat":43.2815,"lon":5.42664,"is_reserved":false,"is_disabled":false,"rental_uris":{"android":"levelo://app?vid=975621b1-02b2-43ba-95e3-5e639ac7a8db","ios":"levelo://app?vid=975621b1-02b2-43ba-95e3-5e639ac7a8db"},"vehicle_type_id":"4","last_reported":1753331958,"current_range_meters":20800,"station_id":"ce4bhnh2rcd13ifvqgug","pricing_plan_id":"cebpf4jnsgd1na2vs0mg"},{"bike_id":"577446f9-a7de-4fa6-9f43-16c5920f5097","system_id":"levelo_inurba_marseille","lat":43.297734,"lon":5.381266,"is_reserved":false,"is_disabled":true,"rental_uris":{"android":"levelo://app?vid=577446f9-a7de-4fa6-9f43-16c5920f5097","ios":"levelo://app?vid=577446f9-a7de-4fa6-9f43-16c5920f5097"},"vehicle_type_id":"4","last_reported":1753331958,"current_range_meters":20800,"station_id":"","pricing_plan_id":"cebpf4jnsgd1na2vs0mg"},{"bike_id":"e516a6c3-2ba0-443e-a265-667e43a0b590","system_id":"levelo_inurba_marseille","lat":43.28699,"lon":5.39983,"is_reserved":false,"is_disabled":false,"rental_uris":{"android":"levelo://app?vid=e516a6c3-2ba0-443e-a265-667e43a0b590","ios":"levelo://app?vid=e516a6c3-2ba0-443e-a265-667e43a0b590"},"vehicle_type_id":"4","last_reported":1753331958,"current_range_meters":20800,"station_id":"ce4bho92rcd13ifvqh3g","pricing_plan_id":"cebpf4jnsgd1na2vs0mg"},{"bike_id":"745878ec-ffb4-42f9-8505-9cf8f9ba8d41","system_id":"levelo_inurba_marseille","lat":43.26938,"lon":5.402592,"is_reserved":false,"is_disabled":false,"rental_uris":{"android":"levelo://app?vid=745878ec-ffb4-42f9-8505-9cf8f9ba8d41","ios":"levelo://app?vid=745878ec-ffb4-42f9-8505-9cf8f9ba8d41"},"vehicle_type_id":"4","last_reported":1753331958,"current_range_meters":20800,"station_id":"cjm6bp8fraef2m0cb0m0","pricing_plan_id":"cebpf4jnsgd1na2vs0mg"},{"bike_id":"eb3c30f5-9b37-45c2-be0a-85e9e8c4cd6f","system_id":"levelo_inurba_marseille","lat":43.32358,"lon":5.38891,"is_reserved":false,"is_disabled":false,"rental_uris":{"android":"levelo://app?vid=eb3c30f5-9b37-45c2-be0a-85e9e8c4cd6f","ios":"levelo://app?vid=eb3c30f5-9b37-45c2-be0a-85e9e8c4cd6f"},"vehicle_type_id":"4","last_reported":1753331958,"current_range_meters":20800,"station_id":"ce4bhqp2rcd13ifvqhog","pricing_plan_id":"cebpf4jnsgd1na2vs0mg"},{"bike_id":"baccfbbc-7233-4de7-8685-d388d4258e63","system_id":"levelo_inurba_marseille","lat":43.3156,"lon":5.37164,"is_reserved":false,"is_disabled":false,"rental_uris":{"android":"levelo://app?vid=baccfbbc-7233-4de7-8685-d388d4258e63","ios":"levelo://app?vid=baccfbbc-7233-4de7-8685-d388d4258e63"},"vehicle_type_id":"4","last_reported":1753331958,"current_range_meters":21600,"station_id":"","pricing_plan_id":"cebpf4jnsgd1na2vs0mg"},{"bike_id":"a7b6cee9-09e9-4e52-971e-80c0559cd318","system_id":"levelo_inurba_marseille","lat":43.284596,"lon":5.358876,"is_reserved":false,"is_disabled":false,"rental_uris":{"android":"levelo://app?vid=a7b6cee9-09e9-4e52-971e-80c0559cd318","ios":"levelo://app?vid=a7b6cee9-09e9-4e52-971e-80c0559cd318"},"vehicle_type_id":"4","last_reported":1753331958,"current_range_meters":21600,"station_id":"ce4bhah2rcd13ifvqei0","pricing_plan_id":"cebpf4jnsgd1na2vs0mg"},{"bike_id":"0416e4ab-6fd4-4f32-821d-abcdce7f3c95","system_id":"levelo_inurba_marseille","lat":43.30903,"lon":5.37079,"is_reserved":false,"is_disabled":false,"rental_uris":{"android":"levelo://app?vid=0416e4ab-6fd4-4f32-821d-abcdce7f3c95","ios":"levelo://app?vid=0416e4ab-6fd4-4f32-821d-abcdce7f3c95"},"vehicle_type_id":"4","last_reported":1753331958,"current_range_meters":21600,"station_id":"","pricing_plan_id":"cebpf4jnsgd1na2vs0mg"},