{"last_updated":1741367279,"ttl":60,"version":"2.2","data":{"bikes":[{"bike_id":"4f4c6c8e-23ce-41bc-9710-1adcb4164ac7","system_id":"levelo_inurba_marseille","lat":43.27423,"lon":5.39418,"is_reserved":false,"is_disabled":false,"rental_uris":{"android":"levelo://app?vid=4f4c6c8e-23ce-41bc-9710-1adcb4164ac7","ios":"levelo://app?vid=4f4c6c8e-23ce-41bc-9710-1adcb4164ac7"},"vehicle_type_id":"4","last_reported":1741367279,"current_range_meters":4000,"station_id":"ce4bhdp2rcd13ifvqf20","pricing_plan_id":"cebpf4jnsgd1na2vs0mg"},{"bike_id":"94ae2d2c-7224-440b-ab78-492852db7165","system_id":"levelo_inurba_marseille","lat":43.281612,"lon":5.395498,"is_reserved":false,"is_disabled":false,"rental_uris":{"android":"levelo://app?vid=94ae2d2c-7224-440b-ab78-492852db7165","ios":"levelo://app?vid=94ae2d2c-7224-440b-ab78-492852db7165"},"vehicle_type_id":"4","last_reported":1741367279,"current_range_meters":3200,"station_id":"ce4bh012rcd13ifvqcv0","pricing_plan_id":"cebpf4jnsgd1na2vs0mg"},{"bike_id":"75cd47ad-6879-4330-9b83-94edfc2ab2c2","system_id":"levelo_inurba_marseille","lat":43.239594,"lon":5.366227,"is_reserved":false,"is_disabled":false,"rental_uris":{"android":"levelo://app?vid=75cd47ad-6879-4330-9b83-94edfc2ab2c2","ios":"levelo://app?vid=75cd47ad-6879-4330-9b83-94edfc2ab2c2"},"vehicle_type_id":"4","last_reported":1741367279,"current_range_meters":3600,"station_id":"ce4bhi12rcd13ifvqfp0","pricing_plan_id":"cebpf4jnsgd1na2vs0mg"},{"bike_id":"fa976c84-0b27-4a1c-b083-12766ebeed3d","system_id":"levelo_inurba_marseille","lat":43.30215,"lon":5.39474,"is_reserved":false,"is_disabled":false,"rental_uris":{"android":"levelo://app?vid=fa976c84-0b27-4a1c-b083-12766ebeed3d","ios":"levelo://app?vid=fa976c84-0b27-4a1c-b083-12766ebeed3d"},"vehicle_type_id":"4","last_reported":1741367279,"current_range_meters":6800,"station_id":"ce4bh0p2rcd13ifvqd70","pricing_plan_id":"cebpf4jnsgd1na2vs0mg"},{"bike_id":"4e43bcce-b754-4506-b3b5-d7f1acd2ac32","system_id":"levelo_inurba_marseille","lat":43.29418,"lon":5.38619,"is_reserved":false,"is_disabled":false,"rental_uris":{"android":"levelo://app?vid=4e43bcce-b754-4506-b3b5-d7f1acd2ac32","ios":"levelo://app?vid=4e43bcce-b754-4506-b3b5-d7f1acd2ac32"},"vehicle_type_id":"4","last_reported":1741367279,"current_range_meters":3200,"station_id":"ce4bh2h2rcd13ifvqdh0","pricing_plan_id":"cebpf4jnsgd1na2vs0mg"},{"bike_id":"40e2e695-d552-4542-901f-9cd18e8de670","system_id":"levelo_inurba_marseille","lat":43.26685,"lon":5.38287,"is_reserved":false,"is_disabled":true,"rental_uris":{"android":"levelo://app?vid=40e2e695-d552-4542-901f-9cd18e8de670","ios":"levelo://app?vid=40e2e695-d552-4542-901f-9cd18e8de670"},"vehicle_type_id":"4","last_reported":1741367279,"current_range_meters":3200,"station_id":"ce4bhg92rcd13ifvqf90","pricing_plan_id":"cebpf4jnsgd1na2vs0mg"},{"bike_id":"82f5f41d-88fa-4f53-a94c-23b6ae69612a","system_id":"levelo_inurba_marseille","lat":43.27946,"lon":5.41044,"is_reserved":false,"is_disabled":false,"rental_uris":{"android":"levelo://app?vid=82f5f41d-88fa-4f53-a94c-23b6ae69612a","ios":"levelo://app?vid=82f5f41d-88fa-4f53-a94c-23b6ae69612a"},"vehicle_type_id":"4","last_reported":1741367279,"current_range_meters":3600,"station_id":"ce4bhnp2rcd13ifvqh0g","pricing_plan_id":"cebpf4jnsgd1na2vs0mg"},{"bike_id":"9e0e6e41-5cde-4abe-bae4-412154965118","system_id":"levelo_inurba_marseille","lat":43.2397,"lon":5.36636,"is_reserved":false,"is_disabled":false,"rental_uris":{"android":"levelo://app?vid=9e0e6e41-5cde-4abe-bae4-412154965118","ios":"levelo://app?vid=9e0e6e41-5cde-4abe-bae4-412154965118"},"vehicle_type_id":"4","last_reported":1741367279,"current_range_meters":3200,"station_id":"ce4bhi12rcd13ifvqfp0","pricing_plan_id":"cebpf4jnsgd1na2vs0mg"},{"bike_id":"145e7b0e-20fa-44f3-ab70-c2211379551f","system_id":"levelo_inurba_marseille","lat":43.30874,"lon":5.39654,"is_reserved":false,"is_disabled":false,"rental_uris":{"android":"levelo://app?vid=145e7b0e-20fa-44f3-ab70-c2211379551f","ios":"levelo://app?vid=145e7b0e-20fa-44f3-ab70-c2211379551f"},"vehicle_type_id":"4","last_reported":1741367279,"current_range_meters":3600,"station_id":"ce4bh012rcd13ifvqcv0","pricing_plan_id":"cebpf4jnsgd1na2vs0mg"},{"bike_id":"f7a85f1b-5528-4bd4-98d9-a65f1b6b8628","system_id":"levelo_inurba_marseille","lat":43.2892,"lon":5.3544,"is_reserved":false,"is_disabled":false,"rental_uris":{"android":"levelo://app?vid=f7a85f1b-5528-4bd4-98d9-a65f1b6b8628","ios":"levelo://app?vid=f7a85f1b-5528-4bd4-98d9-a65f1b6b8628"},"vehicle_type_id":"4","last_reported":1741367279,"current_range_meters":3600,"station_id":"","pricing_plan_id":"cebpf4jnsgd1na2vs0mg"},{"bike_id":"b0b3de9d-9e00-4510-8b82-2937353b2b61","system_id":"levelo_inurba_marseille","lat":43.28699,"lon":5.37389,"is_reserved":false,"is_disabled":false,"rental_uris":{"android":"levelo://app?vid=b0b3de9d-9e00-4510-8b82-2937353b2b61","ios":"levelo://app?vid=b0b3de9d-9e00-4510-8b82-2937353b2b61"},"vehicle_type_id":"4","last_reported":1741367279,"current_range_meters":3600,"station_id":"ce4bh3p2rcd13ifvqdq0","pricing_plan_id":"cebpf4jnsgd1na2vs0mg"},{"bike_id":"28aadd97-0590-4969-be74-45a682938cac","system_id":"levelo_inurba_marseille","lat":43.30537,"lon":5.36547,"is_reserved":false,"is_disabled":false,"rental_uris":{"android":"levelo://app?vid=28aadd97-0590-4969-be74-45a682938cac","ios":"levelo://app?vid=28aadd97-0590-4969-be74-45a682938cac"},"vehicle_type_id":"4","last_reported":1741367279,"current_range_meters":3600,"station_id":"ce4bgs12rcd13ifvqcag","pricing_plan_id":"cebpf4jnsgd1na2vs0mg"},{"bike_id":"ed1ff2c4-5cf7-4a9a-ba41-a1fac1130d8b","system_id":"levelo_inurba_marseille","lat":43.28712,"lon":5.37376,"is_reserved":false,"is_disabled":false,"rental_uris":{"android":"levelo://app?vid=ed1ff2c4-5cf7-4a9a-ba41-a1fac1130d8b","ios":"levelo://app?vid=ed1ff2c4-5cf7-4a9a-ba41-a1fac1130d8b"},"vehicle_type_id":"4","last_reported":1741367279,"current_range_meters":3600,"station_id":"ce4bh3p2rcd13ifvqdq0","pricing_plan_id":"cebpf4jnsgd1na2vs0mg"},{"bike_id":"4922c0c8-bf8b-4741-a269-bab7456b9645","system_id":"levelo_inurba_marseille","lat":43.30418,"lon":5.41278,"is_reserved":false,"is_disabled":false,"rental_uris":{"android":"levelo://app?vid=4922c0c8-bf8b-4741-a269-bab7456b9645","ios":"levelo://app?vid=4922c0c8-bf8b-4741-a269-bab7456b9645"},"vehicle_type_id":"4","last_reported":1741367279,"current_range_meters":3600,"station_id":"ce4bhop2rcd13ifvqh8g","pricing_plan_id":"cebpf4jnsgd1na2vs0mg"},{"bike_id":"84fd8a9d-d33c-4402-bbe4-001e62a7f660","system_id":"levelo_inurba_marseille","lat":43.26646,"lon":5.3984,"is_reserved":false,"is_disabled":false,"rental_uris":{"android":"levelo://app?vid=84fd8a9d-d33c-4402-bbe4-001e62a7f660","ios":"levelo://app?vid=84fd8a9d-d33c-4402-bbe4-001e62a7f660"},"vehicle_type_id":"4","last_reported":1741367279,"current_range_meters":4000,"station_id":"","pricing_plan_id":"cebpf4jnsgd1na2vs0mg"},{"bike_id":"377d4310-d031-4b11-9ec0-013307d34d3d","system_id":"levelo_inurba_marseille","lat":43.29531,"lon":5.38542,"is_reserved":false,"is_disabled":false,"rental_uris":{"android":"levelo://app?vid=377d4310-d031-4b11-9ec0-013307d34d3d","ios":"levelo://app?vid=377d4310-d031-4b11-9ec0-013307d34d3d"},"vehicle_type_id":"4","last_reported":1741367279,"current_range_meters":0,"station_id":"ce4bgih2rcd13ifvqba0","pricing_plan_id":"cebpf4jnsgd1na2vs0mg"},{"bike_id":"d572b633-d5af-4df0-87b8-0a5b1819b02b","system_id":"levelo_inurba_marseille","lat":43.24174,"lon":5.39718,"is_reserved":false,"is_disabled":true,"rental_uris":{"android":"levelo://app?vid=d572b633-d5af-4df0-87b8-0a5b1819b02b","ios":"levelo://app?vid=d572b633-d5af-4df0-87b8-0a5b1819b02b"},"vehicle_type_id":"4","last_reported":1741367279,"current_range_meters":4400,"station_id":"ce4bhn12rcd13ifvqgpg","pricing_plan_id":"cebpf4jnsgd1na2vs0mg"},{"bike_id":"133531db-11af-4c76-994e-ce705fb763ef","system_id":"levelo_inurba_marseille","lat":43.24182,"lon":5.39732,"is_reserved":false,"is_disabled":false,"rental_uris":{"android":"levelo://app?vid=133531db-11af-4c76-994e-ce705fb763ef","ios":"levelo://app?vid=133531db-11af-4c76-994e-ce705fb763ef"},"vehicle_type_id":"4","last_reported":1741367279,"current_range_meters":4400,"station_id":"ce4bhn12rcd13ifvqgpg","pricing_plan_id":"cebpf4jnsgd1na2vs0mg"},{"bike_id":"77d0e942-a9b4-4d58-8d58-85534deae8e8","system_id":"levelo_inurba_marseille","lat":43.31264,"lon":5.40163,"is_reserved":false,"is_disabled":false,"rental_uris":{"android":"levelo://app?vid=77d0e942-a9b4-4d58-8d58-85534deae8e8","ios":"levelo://app?vid=77d0e942-a9b4-4d58-8d58-85534deae8e8"},"vehicle_type_id":"4","last_reported":1741367279,"current_range_meters":7200,"station_id":"ce4bh092rcd13ifvqd30","pricing_plan_id":"cebpf4jnsgd1na2vs0mg"},{"bike_id":"922965ec-ad3d-4bcd-8626-3511bd86109a","system_id":"levelo_inurba_marseille","lat":43.23182,"lon":5.39991,"is_reserved":false,"is_disabled":false,"rental_uris":{"android":"levelo://app?vid=922965ec-ad3d-4bcd-8626-3511bd86109a","ios":"levelo://app?vid=922965ec-ad3d-4bcd-8626-3511bd86109a"},"vehicle_type_id":"4","last_reported":1741367279,"current_range_meters":4400,"station_id":"ce4bhn12rcd13ifvqgqg","pricing_plan_id":"cebpf4jnsgd1na2vs0mg"},{"bike_id":"a841eaa6-52db-47d4-aaae-2d4f2da202c6","system_id":"levelo_inurba_marseille","lat":43.28615,"lon":5.37058,"is_reserved":false,"is_disabled":false,"rental_uris":{"android":"levelo://app?vid=a841eaa6-52db-47d4-aaae-2d4f2da202c6","ios":"levelo://app?vid=a841eaa6-52db-47d4-aaae-2d4f2da202c6"},"vehicle_type_id":"4","last_reported":1741367279,"current_range_meters":4400,"station_id":"ce4bht12rcd13ifvqi60","pricing_plan_id":"cebpf4jnsgd1na2vs0mg"},{"bike_id":"c1a0e262-056d-40d4-b242-0a8e8fa927a3","system_id":"levelo_inurba_marseille","lat":43.29908,"lon":5.38152,"is_reserved":false,"is_disabled":false,"rental_uris":{"android":"levelo://app?vid=c1a0e262-056d-40d4-b242-0a8e8fa927a3","ios":"levelo://app?vid=c1a0e262-056d-40d4-b242-0a8e8fa927a3"},"vehicle_type_id":"4","last_reported":1741367279,"current_range_meters":4400,"station_id":"ce4bgj12rcd13ifvqbc0","pricing_plan_id":"cebpf4jnsgd1na2vs0mg"},{"bike_id":"f545460b-1dfd-4e60-ac14-77100a25b474","system_id":"levelo_inurba_marseille","lat":43.26569,"lon":5.39032,"is_reserved":false,"is_disabled":false,"rental_uris":{"android":"levelo://app?vid=f545460b-1dfd-4e60-ac14-77100a25b474","ios":"levelo://app?vid=f545460b-1dfd-4e60-ac14-77100a25b474"},"vehicle_type_id":"4","last_reported":1741367279,"current_range_meters":4800,"station_id":"ce4bhe12rcd13ifvqf30","pricing_plan_id":"cebpf4jnsgd1na2vs0mg"},{"bike_id":"de10dad3-cc48-400a-922c-cca5bf1a3a20","system_id":"levelo_inurba_marseille","lat":43.29938,"lon":5.38831,"is_reserved":false,"is_disabled":true,"rental_uris":{"android":"levelo://app?vid=de10dad3-cc48-400a-922c-cca5bf1a3a20","ios":"levelo://app?vid=de10dad3-cc48-400a-922c-cca5bf1a3a20"},"vehicle_type_id":"4","last_reported":1741367279,"current_range_meters":4800,"station_id":"","pricing_plan_id":"cebpf4jnsgd1na2vs0mg"},{"bike_id":"3df335ba-6322-4806-a07b-55f53bab2ba3","system_id":"levelo_inurba_marseille","lat":43.29297,"lon":5.37458,"is_reserved":false,"is_disabled":false,"rental_uris":{"android":"levelo://app?vid=3df335ba-6322-4806-a07b-55f53bab2ba3","ios":"levelo://app?vid=3df335ba-6322-4806-a07b-55f53bab2ba3"},"vehicle_type_id":"4","last_reported":1741367279,"current_range_meters":4800,"station_id":"ce4bgi12rcd13ifvqb70","pricing_plan_id":"cebpf4jnsgd1na2vs0mg"},{"bike_id":"000a1497-8192-40bb-9d62-2f11c74b70cc","system_id":"levelo_inurba_marseille","lat":43.29192,"lon":5.39312,"is_reserved":false,"is_disabled":false,"rental_uris":{"android":"levelo://app?vid=000a1497-8192-40bb-9d62-2f11c74b70cc","ios":"levelo://app?vid=000a1497-8192-40bb-9d62-2f11c74b70cc"},"vehicle_type_id":"4","last_reported":1741367279,"current_range_meters":4000,"station_id":"ce4bh192rcd13ifvqdd0","pricing_plan_id":"cebpf4jnsgd1na2vs0mg"},{"bike_id":"cb47043e-2b36-4398-963d-22088496551a","system_id":"levelo_inurba_marseille","lat":43.32835,"lon":5.38759,"is_reserved":false,"is_disabled":true,"rental_uris":{"android":"levelo://app?vid=cb47043e-2b36-4398-963d-22088496551a","ios":"levelo://app?vid=cb47043e-2b36-4398-963d-22088496551a"},"vehicle_type_id":"4","last_reported":1741367279,"current_range_meters":5600,"station_id":"","pricing_plan_id":"cebpf4jnsgd1na2vs0mg"},{"bike_id":"191492a1-11b1-4237-b8f2-97e359411dc2","system_id":"levelo_inurba_marseille","lat":43.29088,"lon":5.38131,"is_reserved":false,"is_disabled":false,"rental_uris":{"android":"levelo://app?vid=191492a1-11b1-4237-b8f2-97e359411dc2","ios":"levelo://app?vid=191492a1-11b1-4237-b8f2-97e359411dc2"},"vehicle_type_id":"4","last_reported":1741367279,"current_range_meters":5600,"station_id":"ce4bh512rcd13ifvqe2g","pricing_plan_id":"cebpf4jnsgd1na2vs0mg"},{"bike_id":"991a4b0b-a36a-4aa0-8968-d6dca2b2969d","system_id":"levelo_inurba_marseille","lat":43.28349,"lon":5.38104,"is_reserved":false,"is_disabled":false,"rental_uris":{"android":"levelo://app?vid=991a4b0b-a36a-4aa0-8968-d6dca2b2969d","ios":"levelo://app?vid=991a4b0b-a36a-4aa0-8968-d6dca2b2969d"},"vehicle_type_id":"4","last_reported":1741367279,"current_range_meters":6000,"station_id":"ce4bh412rcd13ifvqdr0","pricing_plan_id":"cebpf4jnsgd1na2vs0mg"},{"bike_id":"7f1905bf-da4d-4f13-af14-c5d46804e585","system_id":"levelo_inurba_marseille","lat":43.23192,"lon":5.35551,"is_reserved":false,"is_disabled":false,"rental_uris":{"android":"levelo://app?vid=7f1905bf-da4d-4f13-af14-c5d46804e585","ios":"levelo://app?vid=7f1905bf-da4d-4f13-af14-c5d46804e585"},"vehicle_type_id":"4","last_reported":1741367279,"current_range_meters":6000,"station_id":"ce4bhu92rcd13ifvqi70","pricing_plan_id":"cebpf4jnsgd1na2vs0mg"},{"bike_id":"1ae838fc-1e80-4cc2-96d4-36fc60df231d","system_id":"levelo_inurba_marseille","lat":43.31171,"lon":5.38723,"is_reserved":false,"is_disabled":false,"rental_uris":{"android":"levelo://app?vid=1ae838fc-1e80-4cc2-96d4-36fc60df231d","ios":"levelo://app?vid=1ae838fc-1e80-4cc2-96d4-36fc60df231d"},"vehicle_type_id":"4","last_reported":1741367279,"current_range_meters":6000,"station_id":"ce4bgv12rcd13ifvqcp0","pricing_plan_id":"cebpf4jnsgd1na2vs0mg"},{"bike_id":"b0c46f81-d67e-436c-9d7e-e572db5a54d0","system_id":"levelo_inurba_marseille","lat":43.285756,"lon":5.394892,"is_reserved":false,"is_disabled":false,"rental_uris":{"android":"levelo://app?vid=b0c46f81-d67e-436c-9d7e-e572db5a54d0","ios":"levelo://app?vid=b0c46f81-d67e-436c-9d7e-e572db5a54d0"},"vehicle_type_id":"4","last_reported":1741367279,"current_range_meters":8000,"station_id":"ce4bh292rcd13ifvqdg0","pricing_plan_id":"cebpf4jnsgd1na2vs0mg"},{"bike_id":"7fc9a836-bb96-4f5c-b263-0b7df3b5b283","system_id":"levelo_inurba_marseille","lat":43.27906,"lon":5.38012,"is_reserved":false,"is_disabled":false,"rental_uris":{"android":"levelo://app?vid=7fc9a836-bb96-4f5c-b263-0b7df3b5b283","ios":"levelo://app?vid=7fc9a836-bb96-4f5c-b263-0b7df3b5b283"},"vehicle_type_id":"4","last_reported":1741367279,"current_range_meters":6000,"station_id":"ce4bhf92rcd13ifvqf50","pricing_plan_id":"cebpf4jnsgd1na2vs0mg"},{"bike_id":"f438bcc4-cb88-426c-a60d-7641c9ce23dc","system_id":"levelo_inurba_marseille","lat":43.30669,"lon":5.40072,"is_reserved":false,"is_disabled":false,"rental_uris":{"android":"levelo://app?vid=f438bcc4-cb88-426c-a60d-7641c9ce23dc","ios":"levelo://app?vid=f438bcc4-cb88-426c-a60d-7641c9ce23dc"},"vehicle_type_id":"4","last_reported":1741367279,"current_range_meters":6400,"station_id":"ce4bh112rcd13ifvqda0","pricing_plan_id":"cebpf4jnsgd1na2vs0mg"},{"bike_id":"d93bdeca-d0ff-402c-a1ae-de5375476d11","system_id":"levelo_inurba_marseille","lat":43.28277,"lon":5.40226,"is_reserved":false,"is_disabled":true,"rental_uris":{"android":"levelo://app?vid=d93bdeca-d0ff-402c-a1ae-de5375476d11","ios":"levelo://app?vid=d93bdeca-d0ff-402c-a1ae-de5375476d11"},"vehicle_type_id":"4","last_reported":1741367279,"current_range_meters":6400,"station_id":"","pricing_plan_id":"cebpf4jnsgd1na2vs0mg"},{"bike_id":"d97b34a5-4a9d-4d9c-b55f-b72c9be6ca47","system_id":"levelo_inurba_marseille","lat":43.25109,"lon":5.4032,"is_reserved":false,"is_disabled":true,"rental_uris":{"android":"levelo://app?vid=d97b34a5-4a9d-4d9c-b55f-b72c9be6ca47","ios":"levelo://app?vid=d97b34a5-4a9d-4d9c-b55f-b72c9be6ca47"},"vehicle_type_id":"4","last_reported":1741367279,"current_range_meters":6400,"station_id":"ce4bhlh2rcd13ifvqgig","pricing_plan_id":"cebpf4jnsgd1na2vs0mg"},{"bike_id":"89e2f6c1-4d5c-451e-94d3-2cab2a6510e5","system_id":"levelo_inurba_marseille","lat":43.26575,"lon":5.39003,"is_reserved":false,"is_disabled":false,"rental_uris":{"android":"levelo://app?vid=89e2f6c1-4d5c-451e-94d3-2cab2a6510e5","ios":"levelo://app?vid=89e2f6c1-4d5c-451e-94d3-2cab2a6510e5"},"vehicle_type_id":"4","last_reported":1741367279,"current_range_meters":6400,"station_id":"ce4bhe12rcd13ifvqf30","pricing_plan_id":"cebpf4jnsgd1na2vs0mg"},{"bike_id":"cf2921b4-2f50-4b9c-82d6-e966eaba93c2","system_id":"levelo_inurba_marseille","lat":43.28436,"lon":5.34981,"is_reserved":false,"is_disabled":false,"rental_uris":{"android":"levelo://app?vid=cf2921b4-2f50-4b9c-82d6-e966eaba93c2","ios":"levelo://app?vid=cf2921b4-2f50-4b9c-82d6-e966eaba93c2"},"vehicle_type_id":"4","last_reported":1741367279,"current_range_meters":6400,"station_id":"ce4bhbh2rcd13ifvqepg","pricing_plan_id":"cebpf4jnsgd1na2vs0mg"},{"bike_id":"9bfe4e82-241b-4620-b471-d226beb88b23","system_id":"levelo_inurba_marseille","lat":43.22921,"lon":5.35371,"is_reserved":false,"is_disabled":false,"rental_uris":{"android":"levelo://app?vid=9bfe4e82-241b-4620-b471-d226beb88b23","ios":"levelo://app?vid=9bfe4e82-241b-4620-b471-d226beb88b23"},"vehicle_type_id":"4","last_reported":1741367279,"current_range_meters":6400,"station_id":"cpo3532slgdg3j2ikp40","pricing_plan_id":"cebpf4jnsgd1na2vs0mg"},{"bike_id":"f88a6cd9-f001-46b4-8023-0ed8105ce083","system_id":"levelo_inurba_marseille","lat":43.28035,"lon":5.36935,"is_reserved":false,"is_disabled":false,"rental_uris":{"android":"levelo://app?vid=f88a6cd9-f001-46b4-8023-0ed8105ce083","ios":"levelo://app?vid=f88a6cd9-f001-46b4-8023-0ed8105ce083"},"vehicle_type_id":"4","last_reported":1741367279,"current_range_meters":6800,"station_id":"ce4bha12rcd13ifvqef0","pricing_plan_id":"cebpf4jnsgd1na2vs0mg"},{"bike_id":"1b34c58c-f011-43f3-baac-47c6cf7523c0","system_id":"levelo_inurba_marseille","lat":43.29927,"lon":5.43648,"is_reserved":false,"is_disabled":false,"rental_uris":{"android":"levelo://app?vid=1b34c58c-f011-43f3-baac-47c6cf7523c0","ios":"levelo://app?vid=1b34c58c-f011-43f3-baac-47c6cf7523c0"},"vehicle_type_id":"4","last_reported":1741367279,"current_range_meters":6800,"station_id":"ce4bhpp2rcd13ifvqhfg","pricing_plan_id":"cebpf4jnsgd1na2vs0mg"},{"bike_id":"a9041e84-c417-4b8e-a4bb-4804d4bfab2b","system_id":"levelo_inurba_marseille","lat":43.27996,"lon":5.40028,"is_reserved":false,"is_disabled":false,"rental_uris":{"android":"levelo://app?vid=a9041e84-c417-4b8e-a4bb-4804d4bfab2b","ios":"levelo://app?vid=a9041e84-c417-4b8e-a4bb-4804d4bfab2b"},"vehicle_type_id":"4","last_reported":1741367279,"current_range_meters":6800,"station_id":"ce4bho92rcd13ifvqh4g","pricing_plan_id":"cebpf4jnsgd1na2vs0mg"},{"bike_id":"23011a84-2a29-4ee5-a128-6d99b74d3d70","system_id":"levelo_inurba_marseille","lat":43.28033,"lon":5.36937,"is_reserved":false,"is_disabled":false,"rental_uris":{"android":"levelo://app?vid=23011a84-2a29-4ee5-a128-6d99b74d3d70","ios":"levelo://app?vid=23011a84-2a29-4ee5-a128-6d99b74d3d70"},"vehicle_type_id":"4","last_reported":1741367279,"current_range_meters":6800,"station_id":"ce4bha12rcd13ifvqef0","pricing_plan_id":"cebpf4jnsgd1na2vs0mg"},{"bike_id":"e1a3d094-fd5a-4b0e-b3fd-06c39e7f4f48","system_id":"levelo_inurba_marseille","lat":43.32853,"lon":5.391,"is_reserved":false,"is_disabled":false,"rental_uris":{"android":"levelo://app?vid=e1a3d094-fd5a-4b0e-b3fd-06c39e7f4f48","ios":"levelo://app?vid=e1a3d094-fd5a-4b0e-b3fd-06c39e7f4f48"},"vehicle_type_id":"4","last_reported":1741367279,"current_range_meters":6800,"station_id":"","pricing_plan_id":"cebpf4jnsgd1na2vs0mg"},{"bike_id":"318f1928-f410-4f35-b93f-2ccc905fee76","system_id":"levelo_inurba_marseille","lat":43.264195,"lon":5.378004,"is_reserved":false,"is_disabled":false,"rental_uris":{"android":"levelo://app?vid=318f1928-f410-4f35-b93f-2ccc905fee76","ios":"levelo://app?vid=318f1928-f410-4f35-b93f-2ccc905fee76"},"vehicle_type_id":"4","last_reported":1741367279,"current_range_meters":6800,"station_id":"ce4bhg12rcd13ifvqf70","pricing_plan_id":"cebpf4jnsgd1na2vs0mg"},{"bike_id":"c5d9a748-fb84-4751-9008-dc4467d9ed9a","system_id":"levelo_inurba_marseille","lat":43.231991,"lon":5.355487,"is_reserved":false,"is_disabled":false,"rental_uris":{"android":"levelo://app?vid=c5d9a748-fb84-4751-9008-dc4467d9ed9a","ios":"levelo://app?vid=c5d9a748-fb84-4751-9008-dc4467d9ed9a"},"vehicle_type_id":"4","last_reported":1741367279,"current_range_meters":6800,"station_id":"ce4bhu92rcd13ifvqi70","pricing_plan_id":"cebpf4jnsgd1na2vs0mg"},{"bike_id":"889d7428-72ab-4419-a062-e45cc2e946b0","system_id":"levelo_inurba_marseille","lat":43.31329,"lon":5.3969,"is_reserved":false,"is_disabled":false,"rental_uris":{"android":"levelo://app?vid=889d7428-72ab-4419-a062-e45cc2e946b0","ios":"levelo://app?vid=889d7428-72ab-4419-a062-e45cc2e946b0"},"vehicle_type_id":"4","last_reported":1741367279,"current_range_meters":6800,"station_id":"ce4bgvp2rcd13ifvqcu0","pricing_plan_id":"cebpf4jnsgd1na2vs0mg"},{"bike_id":"9d41b3db-98d8-4f70-8ea9-8bd4bc02f675","system_id":"levelo_inurba_marseille","lat":43.26554,"lon":5.37282,"is_reserved":false,"is_disabled":false,"rental_uris":{"android":"levelo://app?vid=9d41b3db-98d8-4f70-8ea9-8bd4bc02f675","ios":"levelo://app?vid=9d41b3db-98d8-4f70-8ea9-8bd4bc02f675"},"vehicle_type_id":"4","last_reported":1741367279,"current_range_meters":7200,"station_id":"ce4bhg12rcd13ifvqf70","pricing_plan_id":"cebpf4jnsgd1na2vs0mg"},{"bike_id":"a010df3e-cde9-4d88-a127-45d016c7f864","system_id":"levelo_inurba_marseille","lat":43.2455,"lon":5.39521,"is_reserved":false,"is_disabled":false,"rental_uris":{"android":"levelo://app?vid=a010df3e-cde9-4d88-a127-45d016c7f864","ios":"levelo://app?vid=a010df3e-cde9-4d88-a127-45d016c7f864"},"vehicle_type_id":"4","last_reported":1741367279,"current_range_meters":7200,"station_id":"ce4bhlp2rcd13ifvqgjg","pricing_plan_id":"cebpf4jnsgd1na2vs0mg"},{"bike_id":"399179a5-0f25-46b8-90b8-9e67a3599f77","system_id":"levelo_inurba_marseille","lat":43.296793,"lon":5.372876,"is_reserved":false,"is_disabled":false,"rental_uris":{"android":"levelo://app?vid=399179a5-0f25-46b8-90b8-9e67a3599f77","ios":"levelo://app?vid=399179a5-0f25-46b8-90b8-9e67a3599f77"},"vehicle_type_id":"4","last_reported":1741367279,"current_range_meters":7200,"station_id":"ce4bh512rcd13ifvqe2g","pricing_plan_id":"cebpf4jnsgd1na2vs0mg"},{"bike_id":"7a60d2cb-3bf0-404d-8573-df878562c632","system_id":"levelo_inurba_marseille","lat":43.26199,"lon":5.37929,"is_reserved":false,"is_disabled":false,"rental_uris":{"android":"levelo://app?vid=7a60d2cb-3bf0-404d-8573-df878562c632","ios":"levelo://app?vid=7a60d2cb-3bf0-404d-8573-df878562c632"},"vehicle_type_id":"4","last_reported":1741367279,"current_range_meters":7200,"station_id":"ce4bhjp2rcd13ifvqg90","pricing_plan_id":"cebpf4jnsgd1na2vs0mg"},{"bike_id":"24df224d-ffa5-472e-acc0-380979001d96","system_id":"levelo_inurba_marseille","lat":43.25717,"lon":5.41102,"is_reserved":false,"is_disabled":false,"rental_uris":{"android":"levelo://app?vid=24df224d-ffa5-472e-acc0-380979001d96","ios":"levelo://app?vid=24df224d-ffa5-472e-acc0-380979001d96"},"vehicle_type_id":"4","last_reported":1741367279,"current_range_meters":7200,"station_id":"ce4bhkp2rcd13ifvqgd0","pricing_plan_id":"cebpf4jnsgd1na2vs0mg"},{"bike_id":"6c7ece21-b627-4f74-8609-7383ffebc83d","system_id":"levelo_inurba_marseille","lat":43.27919,"lon":5.39586,"is_reserved":false,"is_disabled":false,"rental_uris":{"android":"levelo://app?vid=6c7ece21-b627-4f74-8609-7383ffebc83d","ios":"levelo://app?vid=6c7ece21-b627-4f74-8609-7383ffebc83d"},"vehicle_type_id":"4","last_reported":1741367279,"current_range_meters":7200,"station_id":"ce4bhf92rcd13ifvqf40","pricing_plan_id":"cebpf4jnsgd1na2vs0mg"},{"bike_id":"5ece6216-c140-461a-8332-f5b985568faf","system_id":"levelo_inurba_marseille","lat":43.27962,"lon":5.38723,"is_reserved":false,"is_disabled":true,"rental_uris":{"android":"levelo://app?vid=5ece6216-c140-461a-8332-f5b985568faf","ios":"levelo://app?vid=5ece6216-c140-461a-8332-f5b985568faf"},"vehicle_type_id":"4","last_reported":1741367279,"current_range_meters":7200,"station_id":"ce4bhg12rcd13ifvqf80","pricing_plan_id":"cebpf4jnsgd1na2vs0mg"},{"bike_id":"2c4d9606-fa65-4213-8e28-7b8e0b47fabc","system_id":"levelo_inurba_marseille","lat":43.28607,"lon":5.37065,"is_reserved":false,"is_disabled":false,"rental_uris":{"android":"levelo://app?vid=2c4d9606-fa65-4213-8e28-7b8e0b47fabc","ios":"levelo://app?vid=2c4d9606-fa65-4213-8e28-7b8e0b47fabc"},"vehicle_type_id":"4","last_reported":1741367279,"current_range_meters":8000,"station_id":"ce4bht12rcd13ifvqi60","pricing_plan_id":"cebpf4jnsgd1na2vs0mg"},{"bike_id":"fb19abff-027f-45f9-be5b-7484d0b36977","system_id":"levelo_inurba_marseille","lat":43.31371,"lon":5.38495,"is_reserved":false,"is_disabled":false,"rental_uris":{"android":"levelo://app?vid=fb19abff-027f-45f9-be5b-7484d0b36977","ios":"levelo://app?vid=fb19abff-027f-45f9-be5b-7484d0b36977"},"vehicle_type_id":"4","last_reported":1741367279,"current_range_meters":7200,"station_id":"ce4bgt92rcd13ifvqcf0","pricing_plan_id":"cebpf4jnsgd1na2vs0mg"},{"bike_id":"a8254080-ec5a-41e9-a690-6e5a90fd9269","system_id":"levelo_inurba_marseille","lat":43.31076,"lon":5.38345,"is_reserved":false,"is_disabled":false,"rental_uris":{"android":"levelo://app?vid=a8254080-ec5a-41e9-a690-6e5a90fd9269","ios":"levelo://app?vid=a8254080-ec5a-41e9-a690-6e5a90fd9269"},"vehicle_type_id":"4","last_reported":1741367279,"current_range_meters":8000,"station_id":"ce4bgv92rcd13ifvqcr0","pricing_plan_id":"cebpf4jnsgd1na2vs0mg"},{"bike_id":"2d28799a-bb7b-4d2b-b2d6-467ca9b67fb9","system_id":"levelo_inurba_marseille","lat":43.31329,"lon":5.39688,"is_reserved":false,"is_disabled":false,"rental_uris":{"android":"levelo://app?vid=2d28799a-bb7b-4d2b-b2d6-467ca9b67fb9","ios":"levelo://app?vid=2d28799a-bb7b-4d2b-b2d6-467ca9b67fb9"},"vehicle_type_id":"4","last_reported":1741367279,"current_range_meters":8000,"station_id":"ce4bgvp2rcd13ifvqcu0","pricing_plan_id":"cebpf4jnsgd1na2vs0mg"},{"bike_id":"143b74fc-ab7b-4910-8495-ffc1ad22971d","system_id":"levelo_inurba_marseille","lat":43.25012,"lon":5.38902,"is_reserved":false,"is_disabled":true,"rental_uris":{"android":"levelo://app?vid=143b74fc-ab7b-4910-8495-ffc1ad22971d","ios":"levelo://app?vid=143b74fc-ab7b-4910-8495-ffc1ad22971d"},"vehicle_type_id":"4","last_reported":1741367279,"current_range_meters":8000,"station_id":"ce4bhgp2rcd13ifvqfd0","pricing_plan_id":"cebpf4jnsgd1na2vs0mg"},{"bike_id":"b1210f3a-c7f4-4482-b30a-f6576eacc631","system_id":"levelo_inurba_marseille","lat":43.27993,"lon":5.41663,"is_reserved":false,"is_disabled":false,"rental_uris":{"android":"levelo://app?vid=b1210f3a-c7f4-4482-b30a-f6576eacc631","ios":"levelo://app?vid=b1210f3a-c7f4-4482-b30a-f6576eacc631"},"vehicle_type_id":"4","last_reported":1741367279,"current_range_meters":8000,"station_id":"ce4bho12rcd13ifvqh1g","pricing_plan_id":"cebpf4jnsgd1na2vs0mg"},{"bike_id":"6433a8b1-5a28-4751-b7fc-25cd9870ee29","system_id":"levelo_inurba_marseille","lat":43.28416,"lon":5.34993,"is_reserved":false,"is_disabled":false,"rental_uris":{"android":"levelo://app?vid=6433a8b1-5a28-4751-b7fc-25cd9870ee29","ios":"levelo://app?vid=6433a8b1-5a28-4751-b7fc-25cd9870ee29"},"vehicle_type_id":"4","last_reported":1741367279,"current_range_meters":8000,"station_id":"ce4bhbh2rcd13ifvqepg","pricing_plan_id":"cebpf4jnsgd1na2vs0mg"},{"bike_id":"357f6b0d-7429-4870-b5b1-c540923d954d","system_id":"levelo_inurba_marseille","lat":43.23063,"lon":5.35515,"is_reserved":false,"is_disabled":false,"rental_uris":{"android":"levelo://app?vid=357f6b0d-7429-4870-b5b1-c540923d954d","ios":"levelo://app?vid=357f6b0d-7429-4870-b5b1-c540923d954d"},"vehicle_type_id":"4","last_reported":1741367279,"current_range_meters":8000,"station_id":"cpo3342slgdg3j2ifvpg","pricing_plan_id":"cebpf4jnsgd1na2vs0mg"},{"bike_id":"dead0b75-225c-4b2f-b132-98bca0fb13dd","system_id":"levelo_inurba_marseille","lat":43.295819,"lon":5.375052,"is_reserved":false,"is_disabled":false,"rental_uris":{"android":"levelo://app?vid=dead0b75-225c-4b2f-b132-98bca0fb13dd","ios":"levelo://app?vid=dead0b75-225c-4b2f-b132-98bca0fb13dd"},"vehicle_type_id":"4","last_reported":1741367279,"current_range_meters":8000,"station_id":"ce4bgh92rcd13ifvqb50","pricing_plan_id":"cebpf4jnsgd1na2vs0mg"},{"bike_id":"b3efa482-ba88-41b4-9fa2-130aeb426a3b","system_id":"levelo_inurba_marseille","lat":43.28038,"lon":5.36935,"is_reserved":false,"is_disabled":false,"rental_uris":{"android":"levelo://app?vid=b3efa482-ba88-41b4-9fa2-130aeb426a3b","ios":"levelo://app?vid=b3efa482-ba88-41b4-9fa2-130aeb426a3b"},"vehicle_type_id":"4","last_reported":1741367279,"current_range_meters":8000,"station_id":"ce4bha12rcd13ifvqef0","pricing_plan_id":"cebpf4jnsgd1na2vs0mg"},{"bike_id":"3814a22c-4a06-4724-bc76-1188698488b5","system_id":"levelo_inurba_marseille","lat":43.31372,"lon":5.38491,"is_reserved":false,"is_disabled":false,"rental_uris":{"android":"levelo://app?vid=3814a22c-4a06-4724-bc76-1188698488b5","ios":"levelo://app?vid=3814a22c-4a06-4724-bc76-1188698488b5"},"vehicle_type_id":"4","last_reported":1741367279,"current_range_meters":10800,"station_id":"ce4bgt92rcd13ifvqcf0","pricing_plan_id":"cebpf4jnsgd1na2vs0mg"},{"bike_id":"b7142f57-3474-49eb-9bc5-8880ee68f74b","system_id":"levelo_inurba_marseille","lat":43.30167,"lon":5.36601,"is_reserved":false,"is_disabled":false,"rental_uris":{"android":"levelo://app?vid=b7142f57-3474-49eb-9bc5-8880ee68f74b","ios":"levelo://app?vid=b7142f57-3474-49eb-9bc5-8880ee68f74b"},"vehicle_type_id":"4","last_reported":1741367279,"current_range_meters":8400,"station_id":"ce4bgrh2rcd13ifvqc8g","pricing_plan_id":"cebpf4jnsgd1na2vs0mg"},{"bike_id":"ef40117d-cf00-4289-beaa-07e7ecf69c05","system_id":"levelo_inurba_marseille","lat":43.26488,"lon":5.39545,"is_reserved":false,"is_disabled":false,"rental_uris":{"android":"levelo://app?vid=ef40117d-cf00-4289-beaa-07e7ecf69c05","ios":"levelo://app?vid=ef40117d-cf00-4289-beaa-07e7ecf69c05"},"vehicle_type_id":"4","last_reported":1741367279,"current_range_meters":8400,"station_id":"ce4bhi12rcd13ifvqfq0","pricing_plan_id":"cebpf4jnsgd1na2vs0mg"},{"bike_id":"bcc7b696-0be2-4887-89cf-e3574cbd1a51","system_id":"levelo_inurba_marseille","lat":43.31445,"lon":5.37311,"is_reserved":false,"is_disabled":false,"rental_uris":{"android":"levelo://app?vid=bcc7b696-0be2-4887-89cf-e3574cbd1a51","ios":"levelo://app?vid=bcc7b696-0be2-4887-89cf-e3574cbd1a51"},"vehicle_type_id":"4","last_reported":1741367279,"current_range_meters":8400,"station_id":"ce4bgt12rcd13ifvqcd0","pricing_plan_id":"cebpf4jnsgd1na2vs0mg"},{"bike_id":"35130f87-b313-43ca-86df-0e44026654c1","system_id":"levelo_inurba_marseille","lat":43.3083,"lon":5.38019,"is_reserved":false,"is_disabled":false,"rental_uris":{"android":"levelo://app?vid=35130f87-b313-43ca-86df-0e44026654c1","ios":"levelo://app?vid=35130f87-b313-43ca-86df-0e44026654c1"},"vehicle_type_id":"4","last_reported":1741367279,"current_range_meters":8400,"station_id":"","pricing_plan_id":"cebpf4jnsgd1na2vs0mg"},{"bike_id":"28437508-fa41-4054-b93c-b2fb98fbe78d","system_id":"levelo_inurba_marseille","lat":43.279139,"lon":5.380147,"is_reserved":false,"is_disabled":false,"rental_uris":{"android":"levelo://app?vid=28437508-fa41-4054-b93c-b2fb98fbe78d","ios":"levelo://app?vid=28437508-fa41-4054-b93c-b2fb98fbe78d"},"vehicle_type_id":"4","last_reported":1741367279,"current_range_meters":8400,"station_id":"ce4bhf92rcd13ifvqf50","pricing_plan_id":"cebpf4jnsgd1na2vs0mg"},{"bike_id":"058f439e-ab1d-4833-8eae-5cdf36a07fb0","system_id":"levelo_inurba_marseille","lat":43.31161,"lon":5.3872,"is_reserved":false,"is_disabled":false,"rental_uris":{"android":"levelo://app?vid=058f439e-ab1d-4833-8eae-5cdf36a07fb0","ios":"levelo://app?vid=058f439e-ab1d-4833-8eae-5cdf36a07fb0"},"vehicle_type_id":"4","last_reported":1741367279,"current_range_meters":8400,"station_id":"ce4bgv12rcd13ifvqcp0","pricing_plan_id":"cebpf4jnsgd1na2vs0mg"},{"bike_id":"b2cada68-d22d-4962-a15a-eab832155af1","system_id":"levelo_inurba_marseille","lat":43.31327,"lon":5.39692,"is_reserved":false,"is_disabled":false,"rental_uris":{"android":"levelo://app?vid=b2cada68-d22d-4962-a15a-eab832155af1","ios":"levelo://app?vid=b2cada68-d22d-4962-a15a-eab832155af1"},"vehicle_type_id":"4","last_reported":1741367279,"current_range_meters":8800,"station_id":"ce4bgvp2rcd13ifvqcu0","pricing_plan_id":"cebpf4jnsgd1na2vs0mg"},{"bike_id":"55f1a346-655d-4ceb-961f-e11c032b07e0","system_id":"levelo_inurba_marseille","lat":43.32682,"lon":5.40264,"is_reserved":false,"is_disabled":false,"rental_uris":{"android":"levelo://app?vid=55f1a346-655d-4ceb-961f-e11c032b07e0","ios":"levelo://app?vid=55f1a346-655d-4ceb-961f-e11c032b07e0"},"vehicle_type_id":"4","last_reported":1741367279,"current_range_meters":8800,"station_id":"","pricing_plan_id":"cebpf4jnsgd1na2vs0mg"},{"bike_id":"6b6968bd-1892-44e8-8577-a6332881b419","system_id":"levelo_inurba_marseille","lat":43.29499,"lon":5.39037,"is_reserved":false,"is_disabled":false,"rental_uris":{"android":"levelo://app?vid=6b6968bd-1892-44e8-8577-a6332881b419","ios":"levelo://app?vid=6b6968bd-1892-44e8-8577-a6332881b419"},"vehicle_type_id":"4","last_reported":1741367279,"current_range_meters":8800,"station_id":"ce4bh3p2rcd13ifvqdp0","pricing_plan_id":"cebpf4jnsgd1na2vs0mg"},{"bike_id":"b4f01b10-b690-4897-b8b2-04082375f3aa","system_id":"levelo_inurba_marseille","lat":43.28279,"lon":5.35077,"is_reserved":false,"is_disabled":false,"rental_uris":{"android":"levelo://app?vid=b4f01b10-b690-4897-b8b2-04082375f3aa","ios":"levelo://app?vid=b4f01b10-b690-4897-b8b2-04082375f3aa"},"vehicle_type_id":"4","last_reported":1741367279,"current_range_meters":8800,"station_id":"ce4bhbp2rcd13ifvqerg","pricing_plan_id":"cebpf4jnsgd1na2vs0mg"},{"bike_id":"e2491ae8-47ff-4654-bb3e-f3df8af62457","system_id":"levelo_inurba_marseille","lat":43.24678,"lon":5.38158,"is_reserved":false,"is_disabled":false,"rental_uris":{"android":"levelo://app?vid=e2491ae8-47ff-4654-bb3e-f3df8af62457","ios":"levelo://app?vid=e2491ae8-47ff-4654-bb3e-f3df8af62457"},"vehicle_type_id":"4","last_reported":1741367279,"current_range_meters":8800,"station_id":"ce4bhih2rcd13ifvqfr0","pricing_plan_id":"cebpf4jnsgd1na2vs0mg"},{"bike_id":"411d544e-0423-439b-95da-97d7ce53ca3d","system_id":"levelo_inurba_marseille","lat":43.30181,"lon":5.36623,"is_reserved":false,"is_disabled":false,"rental_uris":{"android":"levelo://app?vid=411d544e-0423-439b-95da-97d7ce53ca3d","ios":"levelo://app?vid=411d544e-0423-439b-95da-97d7ce53ca3d"},"vehicle_type_id":"4","last_reported":1741367279,"current_range_meters":9200,"station_id":"ce4bgrh2rcd13ifvqc8g","pricing_plan_id":"cebpf4jnsgd1na2vs0mg"},{"bike_id":"a8346857-aeb5-446d-a7c0-256440b8c5b2","system_id":"levelo_inurba_marseille","lat":43.27942,"lon":5.41032,"is_reserved":false,"is_disabled":false,"rental_uris":{"android":"levelo://app?vid=a8346857-aeb5-446d-a7c0-256440b8c5b2","ios":"levelo://app?vid=a8346857-aeb5-446d-a7c0-256440b8c5b2"},"vehicle_type_id":"4","last_reported":1741367279,"current_range_meters":9200,"station_id":"ce4bhnp2rcd13ifvqh0g","pricing_plan_id":"cebpf4jnsgd1na2vs0mg"},{"bike_id":"bb77ae62-b9e3-4432-a093-6f832168f9bd","system_id":"levelo_inurba_marseille","lat":43.32335,"lon":5.4061,"is_reserved":false,"is_disabled":false,"rental_uris":{"android":"levelo://app?vid=bb77ae62-b9e3-4432-a093-6f832168f9bd","ios":"levelo://app?vid=bb77ae62-b9e3-4432-a093-6f832168f9bd"},"vehicle_type_id":"4","last_reported":1741367279,"current_range_meters":9200,"station_id":"ce4bhq92rcd13ifvqhjg","pricing_plan_id":"cebpf4jnsgd1na2vs0mg"},{"bike_id":"cb06b2ef-8447-462e-aa92-50cdb3f0f10d","system_id":"levelo_inurba_marseille","lat":43.29909,"lon":5.38138,"is_reserved":false,"is_disabled":false,"rental_uris":{"android":"levelo://app?vid=cb06b2ef-8447-462e-aa92-50cdb3f0f10d","ios":"levelo://app?vid=cb06b2ef-8447-462e-aa92-50cdb3f0f10d"},"vehicle_type_id":"4","last_reported":1741367279,"current_range_meters":9600,"station_id":"ce4bgj12rcd13ifvqbc0","pricing_plan_id":"cebpf4jnsgd1na2vs0mg"},{"bike_id":"55407847-f077-4fc6-a456-45d8c91c7496","system_id":"levelo_inurba_marseille","lat":43.29514,"lon":5.39396,"is_reserved":false,"is_disabled":false,"rental_uris":{"android":"levelo://app?vid=55407847-f077-4fc6-a456-45d8c91c7496","ios":"levelo://app?vid=55407847-f077-4fc6-a456-45d8c91c7496"},"vehicle_type_id":"4","last_reported":1741367279,"current_range_meters":12800,"station_id":"ce4bh292rcd13ifvqdf0","pricing_plan_id":"cebpf4jnsgd1na2vs0mg"},{"bike_id":"3ef55dc9-9545-4016-817f-560f6fbac83c","system_id":"levelo_inurba_marseille","lat":43.28844,"lon":5.39305,"is_reserved":false,"is_disabled":false,"rental_uris":{"android":"levelo://app?vid=3ef55dc9-9545-4016-817f-560f6fbac83c","ios":"levelo://app?vid=3ef55dc9-9545-4016-817f-560f6fbac83c"},"vehicle_type_id":"4","last_reported":1741367279,"current_range_meters":8800,"station_id":"ce4bh2p2rcd13ifvqdi0","pricing_plan_id":"cebpf4jnsgd1na2vs0mg"},{"bike_id":"50469de2-4237-48b7-ad1b-e3ddb1b7b9cc","system_id":"levelo_inurba_marseille","lat":43.29352,"lon":5.3785,"is_reserved":false,"is_disabled":false,"rental_uris":{"android":"levelo://app?vid=50469de2-4237-48b7-ad1b-e3ddb1b7b9cc","ios":"levelo://app?vid=50469de2-4237-48b7-ad1b-e3ddb1b7b9cc"},"vehicle_type_id":"4","last_reported":1741367279,"current_range_meters":9600,"station_id":"ce4bgjh2rcd13ifvqbf0","pricing_plan_id":"cebpf4jnsgd1na2vs0mg"},{"bike_id":"ee6ac901-ddb1-4aee-835f-73923c9a3251","system_id":"levelo_inurba_marseille","lat":43.23196,"lon":5.35553,"is_reserved":false,"is_disabled":false,"rental_uris":{"android":"levelo://app?vid=ee6ac901-ddb1-4aee-835f-73923c9a3251","ios":"levelo://app?vid=ee6ac901-ddb1-4aee-835f-73923c9a3251"},"vehicle_type_id":"4","last_reported":1741367279,"current_range_meters":10000,"station_id":"ce4bhu92rcd13ifvqi70","pricing_plan_id":"cebpf4jnsgd1na2vs0mg"},{"bike_id":"e4b7e3ae-7116-4270-88a8-190c0075c866","system_id":"levelo_inurba_marseille","lat":43.3205,"lon":5.41552,"is_reserved":false,"is_disabled":false,"rental_uris":{"android":"levelo://app?vid=e4b7e3ae-7116-4270-88a8-190c0075c866","ios":"levelo://app?vid=e4b7e3ae-7116-4270-88a8-190c0075c866"},"vehicle_type_id":"4","last_reported":1741367279,"current_range_meters":10000,"station_id":"ce4bhq92rcd13ifvqhkg","pricing_plan_id":"cebpf4jnsgd1na2vs0mg"},{"bike_id":"42323b44-4776-4993-88db-08c90d643018","system_id":"levelo_inurba_marseille","lat":43.30086,"lon":5.3767,"is_reserved":false,"is_disabled":false,"rental_uris":{"android":"levelo://app?vid=42323b44-4776-4993-88db-08c90d643018","ios":"levelo://app?vid=42323b44-4776-4993-88db-08c90d643018"},"vehicle_type_id":"4","last_reported":1741367279,"current_range_meters":10000,"station_id":"","pricing_plan_id":"cebpf4jnsgd1na2vs0mg"},{"bike_id":"d56ff02f-3b9d-4e50-80c1-373d7d4e8c16","system_id":"levelo_inurba_marseille","lat":43.29585,"lon":5.36739,"is_reserved":false,"is_disabled":false,"rental_uris":{"android":"levelo://app?vid=d56ff02f-3b9d-4e50-80c1-373d7d4e8c16","ios":"levelo://app?vid=d56ff02f-3b9d-4e50-80c1-373d7d4e8c16"},"vehicle_type_id":"4","last_reported":1741367279,"current_range_meters":9600,"station_id":"ce4bgph2rcd13ifvqc2g","pricing_plan_id":"cebpf4jnsgd1na2vs0mg"},{"bike_id":"34c88161-1082-4337-90ec-fb2a20adc28e","system_id":"levelo_inurba_marseille","lat":43.27616,"lon":5.36112,"is_reserved":false,"is_disabled":false,"rental_uris":{"android":"levelo://app?vid=34c88161-1082-4337-90ec-fb2a20adc28e","ios":"levelo://app?vid=34c88161-1082-4337-90ec-fb2a20adc28e"},"vehicle_type_id":"4","last_reported":1741367279,"current_range_meters":10000,"station_id":"ce4bgj92rcd13ifvqbe0","pricing_plan_id":"cebpf4jnsgd1na2vs0mg"},{"bike_id":"f6a9d99b-40e1-4313-955e-fe1045af5dfd","system_id":"levelo_inurba_marseille","lat":43.27637,"lon":5.5307,"is_reserved":false,"is_disabled":false,"rental_uris":{"android":"levelo://app?vid=f6a9d99b-40e1-4313-955e-fe1045af5dfd","ios":"levelo://app?vid=f6a9d99b-40e1-4313-955e-fe1045af5dfd"},"vehicle_type_id":"4","last_reported":1741367279,"current_range_meters":10000,"station_id":"","pricing_plan_id":"cebpf4jnsgd1na2vs0mg"},{"bike_id":"daa48c53-c5de-46aa-94fc-655cbd710c8c","system_id":"levelo_inurba_marseille","lat":43.22944,"lon":5.35356,"is_reserved":false,"is_disabled":false,"rental_uris":{"android":"levelo://app?vid=daa48c53-c5de-46aa-94fc-655cbd710c8c","ios":"levelo://app?vid=daa48c53-c5de-46aa-94fc-655cbd710c8c"},"vehicle_type_id":"4","last_reported":1741367279,"current_range_meters":10000,"station_id":"cpo3532slgdg3j2ikp40","pricing_plan_id":"cebpf4jnsgd1na2vs0mg"},{"bike_id":"7b62c62b-d961-49e1-afe1-b0b21a291801","system_id":"levelo_inurba_marseille","lat":43.27868,"lon":5.41749,"is_reserved":false,"is_disabled":true,"rental_uris":{"android":"levelo://app?vid=7b62c62b-d961-49e1-afe1-b0b21a291801","ios":"levelo://app?vid=7b62c62b-d961-49e1-afe1-b0b21a291801"},"vehicle_type_id":"4","last_reported":1741367279,"current_range_meters":10800,"station_id":"","pricing_plan_id":"cebpf4jnsgd1na2vs0mg"},{"bike_id":"9da935d0-0941-44db-bb4f-7f7e582bd3d3","system_id":"levelo_inurba_marseille","lat":43.24179,"lon":5.36393,"is_reserved":false,"is_disabled":false,"rental_uris":{"android":"levelo://app?vid=9da935d0-0941-44db-bb4f-7f7e582bd3d3","ios":"levelo://app?vid=9da935d0-0941-44db-bb4f-7f7e582bd3d3"},"vehicle_type_id":"4","last_reported":1741367279,"current_range_meters":10800,"station_id":"cpo36qri1sfpv3e86is0","pricing_plan_id":"cebpf4jnsgd1na2vs0mg"},{"bike_id":"ff2b1ae2-6026-4b9f-8b82-6ff0930825ce","system_id":"levelo_inurba_marseille","lat":43.29431,"lon":5.38631,"is_reserved":false,"is_disabled":false,"rental_uris":{"android":"levelo://app?vid=ff2b1ae2-6026-4b9f-8b82-6ff0930825ce","ios":"levelo://app?vid=ff2b1ae2-6026-4b9f-8b82-6ff0930825ce"},"vehicle_type_id":"4","last_reported":1741367279,"current_range_meters":10800,"station_id":"ce4bh2h2rcd13ifvqdh0","pricing_plan_id":"cebpf4jnsgd1na2vs0mg"},{"bike_id":"5a69a9bd-a80d-4ce4-b5c8-bec3b60b93e6","system_id":"levelo_inurba_marseille","lat":43.29,"lon":5.36686,"is_reserved":false,"is_disabled":false,"rental_uris":{"android":"levelo://app?vid=5a69a9bd-a80d-4ce4-b5c8-bec3b60b93e6","ios":"levelo://app?vid=5a69a9bd-a80d-4ce4-b5c8-bec3b60b93e6"},"vehicle_type_id":"4","last_reported":1741367279,"current_range_meters":10800,"station_id":"","pricing_plan_id":"cebpf4jnsgd1na2vs0mg"},{"bike_id":"21ca33ea-7ad0-443d-a7af-31500b5c9392","system_id":"levelo_inurba_marseille","lat":43.27999,"lon":5.36957,"is_reserved":false,"is_disabled":false,"rental_uris":{"android":"levelo://app?vid=21ca33ea-7ad0-443d-a7af-31500b5c9392","ios":"levelo://app?vid=21ca33ea-7ad0-443d-a7af-31500b5c9392"},"vehicle_type_id":"4","last_reported":1741367279,"current_range_meters":10800,"station_id":"ce4bha12rcd13ifvqef0","pricing_plan_id":"cebpf4jnsgd1na2vs0mg"},{"bike_id":"bf8a9241-4b5c-4159-b676-7bd6ab9a0963","system_id":"levelo_inurba_marseille","lat":43.27666,"lon":5.38909,"is_reserved":false,"is_disabled":false,"rental_uris":{"android":"levelo://app?vid=bf8a9241-4b5c-4159-b676-7bd6ab9a0963","ios":"levelo://app?vid=bf8a9241-4b5c-4159-b676-7bd6ab9a0963"},"vehicle_type_id":"4","last_reported":1741367279,"current_range_meters":8800,"station_id":"ce4bhi12rcd13ifvqfo0","pricing_plan_id":"cebpf4jnsgd1na2vs0mg"},{"bike_id":"d5c546c1-3138-45dd-ba71-00465e20affa","system_id":"levelo_inurba_marseille","lat":43.27944,"lon":5.41052,"is_reserved":false,"is_disabled":false,"rental_uris":{"android":"levelo://app?vid=d5c546c1-3138-45dd-ba71-00465e20affa","ios":"levelo://app?vid=d5c546c1-3138-45dd-ba71-00465e20affa"},"vehicle_type_id":"4","last_reported":1741367279,"current_range_meters":10800,"station_id":"ce4bhnp2rcd13ifvqh0g","pricing_plan_id":"cebpf4jnsgd1na2vs0mg"},{"bike_id":"4eeeb26d-00f5-4536-a41a-24230b5e5d28","system_id":"levelo_inurba_marseille","lat":43.30875,"lon":5.39628,"is_reserved":false,"is_disabled":false,"rental_uris":{"android":"levelo://app?vid=4eeeb26d-00f5-4536-a41a-24230b5e5d28","ios":"levelo://app?vid=4eeeb26d-00f5-4536-a41a-24230b5e5d28"},"vehicle_type_id":"4","last_reported":1741367279,"current_range_meters":10800,"station_id":"ce4bh012rcd13ifvqcv0","pricing_plan_id":"cebpf4jnsgd1na2vs0mg"},{"bike_id":"575b4311-968d-49d8-bdac-21014407219b","system_id":"levelo_inurba_marseille","lat":43.30413,"lon":5.41285,"is_reserved":false,"is_disabled":false,"rental_uris":{"android":"levelo://app?vid=575b4311-968d-49d8-bdac-21014407219b","ios":"levelo://app?vid=575b4311-968d-49d8-bdac-21014407219b"},"vehicle_type_id":"4","last_reported":1741367279,"current_range_meters":14000,"station_id":"ce4bhop2rcd13ifvqh8g","pricing_plan_id":"cebpf4jnsgd1na2vs0mg"},{"bike_id":"6c723f95-ac88-4049-8cc8-f8944ae72052","system_id":"levelo_inurba_marseille","lat":43.2839,"lon":5.37513,"is_reserved":false,"is_disabled":false,"rental_uris":{"android":"levelo://app?vid=6c723f95-ac88-4049-8cc8-f8944ae72052","ios":"levelo://app?vid=6c723f95-ac88-4049-8cc8-f8944ae72052"},"vehicle_type_id":"4","last_reported":1741367279,"current_range_meters":11200,"station_id":"ce4bh412rcd13ifvqds0","pricing_plan_id":"cebpf4jnsgd1na2vs0mg"},{"bike_id":"3949e300-2dbd-4203-aa58-eef0b1b0c774","system_id":"levelo_inurba_marseille","lat":43.33794,"lon":5.37428,"is_reserved":false,"is_disabled":false,"rental_uris":{"android":"levelo://app?vid=3949e300-2dbd-4203-aa58-eef0b1b0c774","ios":"levelo://app?vid=3949e300-2dbd-4203-aa58-eef0b1b0c774"},"vehicle_type_id":"4","last_reported":1741367279,"current_range_meters":11200,"station_id":"","pricing_plan_id":"cebpf4jnsgd1na2vs0mg"},{"bike_id":"f690ec42-b7d8-4038-a17c-4980b390643a","system_id":"levelo_inurba_marseille","lat":43.29574,"lon":5.39975,"is_reserved":false,"is_disabled":false,"rental_uris":{"android":"levelo://app?vid=f690ec42-b7d8-4038-a17c-4980b390643a","ios":"levelo://app?vid=f690ec42-b7d8-4038-a17c-4980b390643a"},"vehicle_type_id":"4","last_reported":1741367279,"current_range_meters":9600,"station_id":"ce4bh312rcd13ifvqdj0","pricing_plan_id":"cebpf4jnsgd1na2vs0mg"},{"bike_id":"d30fa9cd-12f6-47e8-93d4-f3251c64196c","system_id":"levelo_inurba_marseille","lat":43.27941,"lon":5.41044,"is_reserved":false,"is_disabled":false,"rental_uris":{"android":"levelo://app?vid=d30fa9cd-12f6-47e8-93d4-f3251c64196c","ios":"levelo://app?vid=d30fa9cd-12f6-47e8-93d4-f3251c64196c"},"vehicle_type_id":"4","last_reported":1741367279,"current_range_meters":11200,"station_id":"ce4bhnp2rcd13ifvqh0g","pricing_plan_id":"cebpf4jnsgd1na2vs0mg"},{"bike_id":"216e76aa-a789-40f4-b406-f1614bfb150e","system_id":"levelo_inurba_marseille","lat":43.3044,"lon":5.38881,"is_reserved":false,"is_disabled":false,"rental_uris":{"android":"levelo://app?vid=216e76aa-a789-40f4-b406-f1614bfb150e","ios":"levelo://app?vid=216e76aa-a789-40f4-b406-f1614bfb150e"},"vehicle_type_id":"4","last_reported":1741367279,"current_range_meters":11600,"station_id":"ce4bgk12rcd13ifvqbi0","pricing_plan_id":"cebpf4jnsgd1na2vs0mg"},{"bike_id":"756c06fc-15c3-4bfc-a190-f56ecc0b34cd","system_id":"levelo_inurba_marseille","lat":43.2873,"lon":5.37942,"is_reserved":false,"is_disabled":false,"rental_uris":{"android":"levelo://app?vid=756c06fc-15c3-4bfc-a190-f56ecc0b34cd","ios":"levelo://app?vid=756c06fc-15c3-4bfc-a190-f56ecc0b34cd"},"vehicle_type_id":"4","last_reported":1741367279,"current_range_meters":11200,"station_id":"ce4bh9p2rcd13ifvqec0","pricing_plan_id":"cebpf4jnsgd1na2vs0mg"},{"bike_id":"db7cd95b-0159-457d-aa08-f78ad0493427","system_id":"levelo_inurba_marseille","lat":43.32364,"lon":5.38886,"is_reserved":false,"is_disabled":false,"rental_uris":{"android":"levelo://app?vid=db7cd95b-0159-457d-aa08-f78ad0493427","ios":"levelo://app?vid=db7cd95b-0159-457d-aa08-f78ad0493427"},"vehicle_type_id":"4","last_reported":1741367279,"current_range_meters":11600,"station_id":"ce4bhqp2rcd13ifvqhog","pricing_plan_id":"cebpf4jnsgd1na2vs0mg"},{"bike_id":"0ede3abe-013e-4c07-8823-2cd51674ee3b","system_id":"levelo_inurba_marseille","lat":43.28482,"lon":5.38567,"is_reserved":false,"is_disabled":false,"rental_uris":{"android":"levelo://app?vid=0ede3abe-013e-4c07-8823-2cd51674ee3b","ios":"levelo://app?vid=0ede3abe-013e-4c07-8823-2cd51674ee3b"},"vehicle_type_id":"4","last_reported":1741367279,"current_range_meters":11600,"station_id":"ce4bh8p2rcd13ifvqeb0","pricing_plan_id":"cebpf4jnsgd1na2vs0mg"},{"bike_id":"075e570d-52ef-4813-a7bd-4645636968e0","system_id":"levelo_inurba_marseille","lat":43.23154,"lon":5.43713,"is_reserved":false,"is_disabled":false,"rental_uris":{"android":"levelo://app?vid=075e570d-52ef-4813-a7bd-4645636968e0","ios":"levelo://app?vid=075e570d-52ef-4813-a7bd-4645636968e0"},"vehicle_type_id":"4","last_reported":1741367279,"current_range_meters":11600,"station_id":"ce4bhmp2rcd13ifvqgog","pricing_plan_id":"cebpf4jnsgd1na2vs0mg"},{"bike_id":"8e4ad9ce-9c69-4479-9c39-4ef5f7dc1b5c","system_id":"levelo_inurba_marseille","lat":43.26057,"lon":5.39395,"is_reserved":false,"is_disabled":true,"rental_uris":{"android":"levelo://app?vid=8e4ad9ce-9c69-4479-9c39-4ef5f7dc1b5c","ios":"levelo://app?vid=8e4ad9ce-9c69-4479-9c39-4ef5f7dc1b5c"},"vehicle_type_id":"4","last_reported":1741367279,"current_range_meters":12000,"station_id":"ce4bhh92rcd13ifvqfj0","pricing_plan_id":"cebpf4jnsgd1na2vs0mg"},{"bike_id":"96a932ad-245f-4804-888c-4b92a6aee1a6","system_id":"levelo_inurba_marseille","lat":43.29809,"lon":5.38099,"is_reserved":false,"is_disabled":false,"rental_uris":{"android":"levelo://app?vid=96a932ad-245f-4804-888c-4b92a6aee1a6","ios":"levelo://app?vid=96a932ad-245f-4804-888c-4b92a6aee1a6"},"vehicle_type_id":"4","last_reported":1741367279,"current_range_meters":11200,"station_id":"ce4bgip2rcd13ifvqbb0","pricing_plan_id":"cebpf4jnsgd1na2vs0mg"},{"bike_id":"25c985de-d9b0-465c-a50f-5d9fedbb2d16","system_id":"levelo_inurba_marseille","lat":43.28842,"lon":5.35865,"is_reserved":false,"is_disabled":false,"rental_uris":{"android":"levelo://app?vid=25c985de-d9b0-465c-a50f-5d9fedbb2d16","ios":"levelo://app?vid=25c985de-d9b0-465c-a50f-5d9fedbb2d16"},"vehicle_type_id":"4","last_reported":1741367279,"current_range_meters":16000,"station_id":"ce4bhb12rcd13ifvqem0","pricing_plan_id":"cebpf4jnsgd1na2vs0mg"},{"bike_id":"c64245c5-b55c-4414-a71c-38615861aef0","system_id":"levelo_inurba_marseille","lat":43.27976,"lon":5.38731,"is_reserved":false,"is_disabled":false,"rental_uris":{"android":"levelo://app?vid=c64245c5-b55c-4414-a71c-38615861aef0","ios":"levelo://app?vid=c64245c5-b55c-4414-a71c-38615861aef0"},"vehicle_type_id":"4","last_reported":1741367279,"current_range_meters":12000,"station_id":"ce4bhg12rcd13ifvqf80","pricing_plan_id":"cebpf4jnsgd1na2vs0mg"},{"bike_id":"9c3f2636-c1e9-4085-8e62-5c37505521d7","system_id":"levelo_inurba_marseille","lat":43.27197,"lon":5.40989,"is_reserved":false,"is_disabled":false,"rental_uris":{"android":"levelo://app?vid=9c3f2636-c1e9-4085-8e62-5c37505521d7","ios":"levelo://app?vid=9c3f2636-c1e9-4085-8e62-5c37505521d7"},"vehicle_type_id":"4","last_reported":1741367279,"current_range_meters":12000,"station_id":"ce4bhl12rcd13ifvqgf0","pricing_plan_id":"cebpf4jnsgd1na2vs0mg"},{"bike_id":"8fa66792-fa6b-4cab-8c4d-c61bc7d21f5f","system_id":"levelo_inurba_marseille","lat":43.27977,"lon":5.38742,"is_reserved":false,"is_disabled":false,"rental_uris":{"android":"levelo://app?vid=8fa66792-fa6b-4cab-8c4d-c61bc7d21f5f","ios":"levelo://app?vid=8fa66792-fa6b-4cab-8c4d-c61bc7d21f5f"},"vehicle_type_id":"4","last_reported":1741367279,"current_range_meters":12000,"station_id":"ce4bhg12rcd13ifvqf80","pricing_plan_id":"cebpf4jnsgd1na2vs0mg"},{"bike_id":"e69143b9-b135-40b8-818d-c5bfff551738","system_id":"levelo_inurba_marseille","lat":43.317128,"lon":5.377517,"is_reserved":false,"is_disabled":false,"rental_uris":{"android":"levelo://app?vid=e69143b9-b135-40b8-818d-c5bfff551738","ios":"levelo://app?vid=e69143b9-b135-40b8-818d-c5bfff551738"},"vehicle_type_id":"4","last_reported":1741367279,"current_range_meters":12000,"station_id":"ce4bgth2rcd13ifvqch0","pricing_plan_id":"cebpf4jnsgd1na2vs0mg"},{"bike_id":"e6472cf0-0ad7-491d-9b42-ba9a1b7210e2","system_id":"levelo_inurba_marseille","lat":43.29889,"lon":5.43683,"is_reserved":false,"is_disabled":false,"rental_uris":{"android":"levelo://app?vid=e6472cf0-0ad7-491d-9b42-ba9a1b7210e2","ios":"levelo://app?vid=e6472cf0-0ad7-491d-9b42-ba9a1b7210e2"},"vehicle_type_id":"4","last_reported":1741367279,"current_range_meters":12400,"station_id":"ce4bhpp2rcd13ifvqhfg","pricing_plan_id":"cebpf4jnsgd1na2vs0mg"},{"bike_id":"93ee5eb5-bc07-4fa4-84ef-fcef721c938d","system_id":"levelo_inurba_marseille","lat":43.28275,"lon":5.35085,"is_reserved":false,"is_disabled":false,"rental_uris":{"android":"levelo://app?vid=93ee5eb5-bc07-4fa4-84ef-fcef721c938d","ios":"levelo://app?vid=93ee5eb5-bc07-4fa4-84ef-fcef721c938d"},"vehicle_type_id":"4","last_reported":1741367279,"current_range_meters":12400,"station_id":"ce4bhbp2rcd13ifvqerg","pricing_plan_id":"cebpf4jnsgd1na2vs0mg"},{"bike_id":"0834e093-053c-41e4-b8ea-cfff090b6769","system_id":"levelo_inurba_marseille","lat":43.2925,"lon":5.40899,"is_reserved":false,"is_disabled":false,"rental_uris":{"android":"levelo://app?vid=0834e093-053c-41e4-b8ea-cfff090b6769","ios":"levelo://app?vid=0834e093-053c-41e4-b8ea-cfff090b6769"},"vehicle_type_id":"4","last_reported":1741367279,"current_range_meters":11600,"station_id":"ce4bh192rcd13ifvqdc0","pricing_plan_id":"cebpf4jnsgd1na2vs0mg"},{"bike_id":"0e674cb4-f37d-4bd5-aaff-7ec953d386c6","system_id":"levelo_inurba_marseille","lat":43.24174,"lon":5.36393,"is_reserved":false,"is_disabled":false,"rental_uris":{"android":"levelo://app?vid=0e674cb4-f37d-4bd5-aaff-7ec953d386c6","ios":"levelo://app?vid=0e674cb4-f37d-4bd5-aaff-7ec953d386c6"},"vehicle_type_id":"4","last_reported":1741367279,"current_range_meters":12400,"station_id":"cpo36qri1sfpv3e86is0","pricing_plan_id":"cebpf4jnsgd1na2vs0mg"},{"bike_id":"ac60c1bd-c8f8-4f4a-bd05-a58422edfe1d","system_id":"levelo_inurba_marseille","lat":43.311066,"lon":5.377705,"is_reserved":false,"is_disabled":false,"rental_uris":{"android":"levelo://app?vid=ac60c1bd-c8f8-4f4a-bd05-a58422edfe1d","ios":"levelo://app?vid=ac60c1bd-c8f8-4f4a-bd05-a58422edfe1d"},"vehicle_type_id":"4","last_reported":1741367279,"current_range_meters":13600,"station_id":"ce4bgk12rcd13ifvqbi0","pricing_plan_id":"cebpf4jnsgd1na2vs0mg"},{"bike_id":"dac09d9e-9ab6-4c54-8fe2-7fcfc9203869","system_id":"levelo_inurba_marseille","lat":43.26551,"lon":5.37307,"is_reserved":false,"is_disabled":true,"rental_uris":{"android":"levelo://app?vid=dac09d9e-9ab6-4c54-8fe2-7fcfc9203869","ios":"levelo://app?vid=dac09d9e-9ab6-4c54-8fe2-7fcfc9203869"},"vehicle_type_id":"4","last_reported":1741367279,"current_range_meters":12800,"station_id":"ce4bhg12rcd13ifvqf70","pricing_plan_id":"cebpf4jnsgd1na2vs0mg"},{"bike_id":"54954614-0ac5-41d2-8a16-307c508cf4e1","system_id":"levelo_inurba_marseille","lat":43.32978,"lon":5.39055,"is_reserved":false,"is_disabled":false,"rental_uris":{"android":"levelo://app?vid=54954614-0ac5-41d2-8a16-307c508cf4e1","ios":"levelo://app?vid=54954614-0ac5-41d2-8a16-307c508cf4e1"},"vehicle_type_id":"4","last_reported":1741367279,"current_range_meters":12800,"station_id":"ce4bhr92rcd13ifvqhrg","pricing_plan_id":"cebpf4jnsgd1na2vs0mg"},{"bike_id":"6b5ed41a-b047-49ed-b2eb-95dc3f5a273e","system_id":"levelo_inurba_marseille","lat":43.29888,"lon":5.39736,"is_reserved":false,"is_disabled":false,"rental_uris":{"android":"levelo://app?vid=6b5ed41a-b047-49ed-b2eb-95dc3f5a273e","ios":"levelo://app?vid=6b5ed41a-b047-49ed-b2eb-95dc3f5a273e"},"vehicle_type_id":"4","last_reported":1741367279,"current_range_meters":13600,"station_id":"ce4bh0h2rcd13ifvqd50","pricing_plan_id":"cebpf4jnsgd1na2vs0mg"},{"bike_id":"ff1b5289-42c1-4257-9851-f1b843186a5c","system_id":"levelo_inurba_marseille","lat":43.26808,"lon":5.40273,"is_reserved":false,"is_disabled":false,"rental_uris":{"android":"levelo://app?vid=ff1b5289-42c1-4257-9851-f1b843186a5c","ios":"levelo://app?vid=ff1b5289-42c1-4257-9851-f1b843186a5c"},"vehicle_type_id":"4","last_reported":1741367279,"current_range_meters":13600,"station_id":"ce501612rcd8frsf0b60","pricing_plan_id":"cebpf4jnsgd1na2vs0mg"},{"bike_id":"7372ba19-4949-453e-a20c-490c28817add","system_id":"levelo_inurba_marseille","lat":43.33782,"lon":5.37427,"is_reserved":false,"is_disabled":false,"rental_uris":{"android":"levelo://app?vid=7372ba19-4949-453e-a20c-490c28817add","ios":"levelo://app?vid=7372ba19-4949-453e-a20c-490c28817add"},"vehicle_type_id":"4","last_reported":1741367279,"current_range_meters":13600,"station_id":"","pricing_plan_id":"cebpf4jnsgd1na2vs0mg"},{"bike_id":"f84dac07-aebc-4c91-86d5-a770501ab7d9","system_id":"levelo_inurba_marseille","lat":43.29532,"lon":5.39041,"is_reserved":false,"is_disabled":false,"rental_uris":{"android":"levelo://app?vid=f84dac07-aebc-4c91-86d5-a770501ab7d9","ios":"levelo://app?vid=f84dac07-aebc-4c91-86d5-a770501ab7d9"},"vehicle_type_id":"4","last_reported":1741367279,"current_range_meters":13600,"station_id":"ce4bh3p2rcd13ifvqdp0","pricing_plan_id":"cebpf4jnsgd1na2vs0mg"},{"bike_id":"e524bcef-a391-41b2-bad2-673eae53ea51","system_id":"levelo_inurba_marseille","lat":43.31722,"lon":5.43713,"is_reserved":false,"is_disabled":false,"rental_uris":{"android":"levelo://app?vid=e524bcef-a391-41b2-bad2-673eae53ea51","ios":"levelo://app?vid=e524bcef-a391-41b2-bad2-673eae53ea51"},"vehicle_type_id":"4","last_reported":1741367279,"current_range_meters":13600,"station_id":"ce4bhp92rcd13ifvqhcg","pricing_plan_id":"cebpf4jnsgd1na2vs0mg"},{"bike_id":"11cc270d-aab4-4ff3-a494-8d1ad165e693","system_id":"levelo_inurba_marseille","lat":43.24804,"lon":5.37451,"is_reserved":false,"is_disabled":false,"rental_uris":{"android":"levelo://app?vid=11cc270d-aab4-4ff3-a494-8d1ad165e693","ios":"levelo://app?vid=11cc270d-aab4-4ff3-a494-8d1ad165e693"},"vehicle_type_id":"4","last_reported":1741367279,"current_range_meters":13600,"station_id":"ce4bhgh2rcd13ifvqfb0","pricing_plan_id":"cebpf4jnsgd1na2vs0mg"},{"bike_id":"42168c6f-35a5-43f2-8ef8-61a75051262d","system_id":"levelo_inurba_marseille","lat":43.281558,"lon":5.426401,"is_reserved":false,"is_disabled":true,"rental_uris":{"android":"levelo://app?vid=42168c6f-35a5-43f2-8ef8-61a75051262d","ios":"levelo://app?vid=42168c6f-35a5-43f2-8ef8-61a75051262d"},"vehicle_type_id":"4","last_reported":1741367279,"current_range_meters":13600,"station_id":"ce4bhnh2rcd13ifvqgug","pricing_plan_id":"cebpf4jnsgd1na2vs0mg"},{"bike_id":"bbd69a33-8816-470b-bd5a-d5d502099f24","system_id":"levelo_inurba_marseille","lat":43.30546,"lon":5.38417,"is_reserved":false,"is_disabled":false,"rental_uris":{"android":"levelo://app?vid=bbd69a33-8816-470b-bd5a-d5d502099f24","ios":"levelo://app?vid=bbd69a33-8816-470b-bd5a-d5d502099f24"},"vehicle_type_id":"4","last_reported":1741367279,"current_range_meters":13600,"station_id":"ce4bgg92rcd13ifvqb30","pricing_plan_id":"cebpf4jnsgd1na2vs0mg"},{"bike_id":"faee5b0d-235a-4af3-813f-46f6d750e794","system_id":"levelo_inurba_marseille","lat":43.29605,"lon":5.38094,"is_reserved":false,"is_disabled":false,"rental_uris":{"android":"levelo://app?vid=faee5b0d-235a-4af3-813f-46f6d750e794","ios":"levelo://app?vid=faee5b0d-235a-4af3-813f-46f6d750e794"},"vehicle_type_id":"4","last_reported":1741367279,"current_range_meters":13600,"station_id":"ce4bgl12rcd13ifvqbo0","pricing_plan_id":"cebpf4jnsgd1na2vs0mg"},{"bike_id":"3d7dc385-7c16-428e-bc73-7fd40bcf9a56","system_id":"levelo_inurba_marseille","lat":43.25824,"lon":5.39439,"is_reserved":false,"is_disabled":false,"rental_uris":{"android":"levelo://app?vid=3d7dc385-7c16-428e-bc73-7fd40bcf9a56","ios":"levelo://app?vid=3d7dc385-7c16-428e-bc73-7fd40bcf9a56"},"vehicle_type_id":"4","last_reported":1741367279,"current_range_meters":13600,"station_id":"ce4bhip2rcd13ifvqft0","pricing_plan_id":"cebpf4jnsgd1na2vs0mg"},{"bike_id":"27acae28-692b-4b10-8f9a-1258d2487ee5","system_id":"levelo_inurba_marseille","lat":43.27992,"lon":5.40024,"is_reserved":false,"is_disabled":false,"rental_uris":{"android":"levelo://app?vid=27acae28-692b-4b10-8f9a-1258d2487ee5","ios":"levelo://app?vid=27acae28-692b-4b10-8f9a-1258d2487ee5"},"vehicle_type_id":"4","last_reported":1741367279,"current_range_meters":13600,"station_id":"ce4bho92rcd13ifvqh4g","pricing_plan_id":"cebpf4jnsgd1na2vs0mg"},{"bike_id":"ca56f945-8b7e-44ff-8c48-3e0b263d9492","system_id":"levelo_inurba_marseille","lat":43.30892,"lon":5.36831,"is_reserved":false,"is_disabled":false,"rental_uris":{"android":"levelo://app?vid=ca56f945-8b7e-44ff-8c48-3e0b263d9492","ios":"levelo://app?vid=ca56f945-8b7e-44ff-8c48-3e0b263d9492"},"vehicle_type_id":"4","last_reported":1741367279,"current_range_meters":14000,"station_id":"ce4bgn92rcd13ifvqbvg","pricing_plan_id":"cebpf4jnsgd1na2vs0mg"},{"bike_id":"5d2c7ff5-8323-4c98-8dc8-c4cbca837d8a","system_id":"levelo_inurba_marseille","lat":43.26938,"lon":5.40251,"is_reserved":false,"is_disabled":false,"rental_uris":{"android":"levelo://app?vid=5d2c7ff5-8323-4c98-8dc8-c4cbca837d8a","ios":"levelo://app?vid=5d2c7ff5-8323-4c98-8dc8-c4cbca837d8a"},"vehicle_type_id":"4","last_reported":1741367279,"current_range_meters":13600,"station_id":"cjm6bp8fraef2m0cb0m0","pricing_plan_id":"cebpf4jnsgd1na2vs0mg"},{"bike_id":"b54292f7-ba5a-4ca2-851d-b34190bdf4a8","system_id":"levelo_inurba_marseille","lat":43.33024,"lon":5.39039,"is_reserved":false,"is_disabled":false,"rental_uris":{"android":"levelo://app?vid=b54292f7-ba5a-4ca2-851d-b34190bdf4a8","ios":"levelo://app?vid=b54292f7-ba5a-4ca2-851d-b34190bdf4a8"},"vehicle_type_id":"4","last_reported":1741367279,"current_range_meters":14000,"station_id":"ce4bhr92rcd13ifvqhrg","pricing_plan_id":"cebpf4jnsgd1na2vs0mg"},{"bike_id":"940b5d61-bac6-4a62-b716-1513031a92ec","system_id":"levelo_inurba_marseille","lat":43.29702,"lon":5.37687,"is_reserved":false,"is_disabled":false,"rental_uris":{"android":"levelo://app?vid=940b5d61-bac6-4a62-b716-1513031a92ec","ios":"levelo://app?vid=940b5d61-bac6-4a62-b716-1513031a92ec"},"vehicle_type_id":"4","last_reported":1741367279,"current_range_meters":16000,"station_id":"ce4bgkh2rcd13ifvqbl0","pricing_plan_id":"cebpf4jnsgd1na2vs0mg"},{"bike_id":"4f508b50-1e3d-40c5-be77-1e6495edbe07","system_id":"levelo_inurba_marseille","lat":43.25723,"lon":5.41112,"is_reserved":false,"is_disabled":false,"rental_uris":{"android":"levelo://app?vid=4f508b50-1e3d-40c5-be77-1e6495edbe07","ios":"levelo://app?vid=4f508b50-1e3d-40c5-be77-1e6495edbe07"},"vehicle_type_id":"4","last_reported":1741367279,"current_range_meters":14400,"station_id":"ce4bhkp2rcd13ifvqgd0","pricing_plan_id":"cebpf4jnsgd1na2vs0mg"},{"bike_id":"c2419b13-6acf-4a1a-94d3-fce4a790b79b","system_id":"levelo_inurba_marseille","lat":43.28461,"lon":5.35887,"is_reserved":false,"is_disabled":false,"rental_uris":{"android":"levelo://app?vid=c2419b13-6acf-4a1a-94d3-fce4a790b79b","ios":"levelo://app?vid=c2419b13-6acf-4a1a-94d3-fce4a790b79b"},"vehicle_type_id":"4","last_reported":1741367279,"current_range_meters":14400,"station_id":"ce4bhah2rcd13ifvqei0","pricing_plan_id":"cebpf4jnsgd1na2vs0mg"},{"bike_id":"ed84ec87-7f8b-4b1b-8d18-95b1ffd67e92","system_id":"levelo_inurba_marseille","lat":43.29225,"lon":5.3606,"is_reserved":false,"is_disabled":false,"rental_uris":{"android":"levelo://app?vid=ed84ec87-7f8b-4b1b-8d18-95b1ffd67e92","ios":"levelo://app?vid=ed84ec87-7f8b-4b1b-8d18-95b1ffd67e92"},"vehicle_type_id":"4","last_reported":1741367279,"current_range_meters":14400,"station_id":"ce4bhbh2rcd13ifvqeqg","pricing_plan_id":"cebpf4jnsgd1na2vs0mg"},{"bike_id":"117576de-ea7a-4e20-89ce-191a1398e64d","system_id":"levelo_inurba_marseille","lat":43.23177,"lon":5.40004,"is_reserved":false,"is_disabled":false,"rental_uris":{"android":"levelo://app?vid=117576de-ea7a-4e20-89ce-191a1398e64d","ios":"levelo://app?vid=117576de-ea7a-4e20-89ce-191a1398e64d"},"vehicle_type_id":"4","last_reported":1741367279,"current_range_meters":14400,"station_id":"ce4bhn12rcd13ifvqgqg","pricing_plan_id":"cebpf4jnsgd1na2vs0mg"},{"bike_id":"ea5c3b8c-90b2-4f5f-a4c2-72370a3760ac","system_id":"levelo_inurba_marseille","lat":43.26792,"lon":5.39413,"is_reserved":false,"is_disabled":false,"rental_uris":{"android":"levelo://app?vid=ea5c3b8c-90b2-4f5f-a4c2-72370a3760ac","ios":"levelo://app?vid=ea5c3b8c-90b2-4f5f-a4c2-72370a3760ac"},"vehicle_type_id":"4","last_reported":1741367279,"current_range_meters":14800,"station_id":"ce4bhh12rcd13ifvqfg0","pricing_plan_id":"cebpf4jnsgd1na2vs0mg"},{"bike_id":"7e60b09d-959c-4d55-a820-f3270555724f","system_id":"levelo_inurba_marseille","lat":43.2862,"lon":5.35097,"is_reserved":false,"is_disabled":false,"rental_uris":{"android":"levelo://app?vid=7e60b09d-959c-4d55-a820-f3270555724f","ios":"levelo://app?vid=7e60b09d-959c-4d55-a820-f3270555724f"},"vehicle_type_id":"4","last_reported":1741367279,"current_range_meters":14400,"station_id":"ce4bhch2rcd13ifvqeug","pricing_plan_id":"cebpf4jnsgd1na2vs0mg"},{"bike_id":"db1c7047-7b9f-4b56-96ef-3b289cb537df","system_id":"levelo_inurba_marseille","lat":43.30835,"lon":5.37396,"is_reserved":false,"is_disabled":false,"rental_uris":{"android":"levelo://app?vid=db1c7047-7b9f-4b56-96ef-3b289cb537df","ios":"levelo://app?vid=db1c7047-7b9f-4b56-96ef-3b289cb537df"},"vehicle_type_id":"4","last_reported":1741367279,"current_range_meters":14400,"station_id":"","pricing_plan_id":"cebpf4jnsgd1na2vs0mg"},{"bike_id":"9ba8fa12-f4c7-41fe-92d0-26e2029d07be","system_id":"levelo_inurba_marseille","lat":43.26811,"lon":5.38457,"is_reserved":false,"is_disabled":false,"rental_uris":{"android":"levelo://app?vid=9ba8fa12-f4c7-41fe-92d0-26e2029d07be","ios":"levelo://app?vid=9ba8fa12-f4c7-41fe-92d0-26e2029d07be"},"vehicle_type_id":"4","last_reported":1741367279,"current_range_meters":14400,"station_id":"ce4bhdp2rcd13ifvqf20","pricing_plan_id":"cebpf4jnsgd1na2vs0mg"},{"bike_id":"9b8789be-c150-4679-b8ba-e1d5e4639da2","system_id":"levelo_inurba_marseille","lat":43.2571,"lon":5.41119,"is_reserved":false,"is_disabled":false,"rental_uris":{"android":"levelo://app?vid=9b8789be-c150-4679-b8ba-e1d5e4639da2","ios":"levelo://app?vid=9b8789be-c150-4679-b8ba-e1d5e4639da2"},"vehicle_type_id":"4","last_reported":1741367279,"current_range_meters":14400,"station_id":"ce4bhkp2rcd13ifvqgd0","pricing_plan_id":"cebpf4jnsgd1na2vs0mg"},{"bike_id":"75bdcf83-5140-440b-9e92-976e7b768fc9","system_id":"levelo_inurba_marseille","lat":43.29775,"lon":5.37015,"is_reserved":false,"is_disabled":false,"rental_uris":{"android":"levelo://app?vid=75bdcf83-5140-440b-9e92-976e7b768fc9","ios":"levelo://app?vid=75bdcf83-5140-440b-9e92-976e7b768fc9"},"vehicle_type_id":"4","last_reported":1741367279,"current_range_meters":14400,"station_id":"","pricing_plan_id":"cebpf4jnsgd1na2vs0mg"},{"bike_id":"86dfca79-9800-45de-8139-4aa8829b0e34","system_id":"levelo_inurba_marseille","lat":43.29575,"lon":5.39977,"is_reserved":false,"is_disabled":false,"rental_uris":{"android":"levelo://app?vid=86dfca79-9800-45de-8139-4aa8829b0e34","ios":"levelo://app?vid=86dfca79-9800-45de-8139-4aa8829b0e34"},"vehicle_type_id":"4","last_reported":1741367279,"current_range_meters":14800,"station_id":"ce4bh312rcd13ifvqdj0","pricing_plan_id":"cebpf4jnsgd1na2vs0mg"},{"bike_id":"d15888b3-84cd-42f5-8973-07174fa936f9","system_id":"levelo_inurba_marseille","lat":43.31472,"lon":5.37376,"is_reserved":false,"is_disabled":false,"rental_uris":{"android":"levelo://app?vid=d15888b3-84cd-42f5-8973-07174fa936f9","ios":"levelo://app?vid=d15888b3-84cd-42f5-8973-07174fa936f9"},"vehicle_type_id":"4","last_reported":1741367279,"current_range_meters":14800,"station_id":"","pricing_plan_id":"cebpf4jnsgd1na2vs0mg"},{"bike_id":"63138f7c-3087-4e4e-bed4-8a0b1242fcb4","system_id":"levelo_inurba_marseille","lat":43.24808,"lon":5.37458,"is_reserved":false,"is_disabled":false,"rental_uris":{"android":"levelo://app?vid=63138f7c-3087-4e4e-bed4-8a0b1242fcb4","ios":"levelo://app?vid=63138f7c-3087-4e4e-bed4-8a0b1242fcb4"},"vehicle_type_id":"4","last_reported":1741367279,"current_range_meters":14800,"station_id":"ce4bhgh2rcd13ifvqfb0","pricing_plan_id":"cebpf4jnsgd1na2vs0mg"},{"bike_id":"0fd008c8-315d-46da-8aad-5c8882c9f37c","system_id":"levelo_inurba_marseille","lat":43.30433,"lon":5.389,"is_reserved":false,"is_disabled":false,"rental_uris":{"android":"levelo://app?vid=0fd008c8-315d-46da-8aad-5c8882c9f37c","ios":"levelo://app?vid=0fd008c8-315d-46da-8aad-5c8882c9f37c"},"vehicle_type_id":"4","last_reported":1741367279,"current_range_meters":14800,"station_id":"ce4bgk12rcd13ifvqbi0","pricing_plan_id":"cebpf4jnsgd1na2vs0mg"},{"bike_id":"f15e8974-a2c4-4025-b0e8-2d7caba0a513","system_id":"levelo_inurba_marseille","lat":43.29963,"lon":5.38501,"is_reserved":false,"is_disabled":false,"rental_uris":{"android":"levelo://app?vid=f15e8974-a2c4-4025-b0e8-2d7caba0a513","ios":"levelo://app?vid=f15e8974-a2c4-4025-b0e8-2d7caba0a513"},"vehicle_type_id":"4","last_reported":1741367279,"current_range_meters":14800,"station_id":"ce4bgj92rcd13ifvqbd0","pricing_plan_id":"cebpf4jnsgd1na2vs0mg"},{"bike_id":"f479a6d1-3cb4-4f96-b97e-51428b8374e3","system_id":"levelo_inurba_marseille","lat":43.28465,"lon":5.35891,"is_reserved":false,"is_disabled":false,"rental_uris":{"android":"levelo://app?vid=f479a6d1-3cb4-4f96-b97e-51428b8374e3","ios":"levelo://app?vid=f479a6d1-3cb4-4f96-b97e-51428b8374e3"},"vehicle_type_id":"4","last_reported":1741367279,"current_range_meters":14800,"station_id":"ce4bhah2rcd13ifvqei0","pricing_plan_id":"cebpf4jnsgd1na2vs0mg"},{"bike_id":"6782b118-bf7c-4d3e-863a-0e1ba9b4cd3b","system_id":"levelo_inurba_marseille","lat":43.31081,"lon":5.42425,"is_reserved":false,"is_disabled":false,"rental_uris":{"android":"levelo://app?vid=6782b118-bf7c-4d3e-863a-0e1ba9b4cd3b","ios":"levelo://app?vid=6782b118-bf7c-4d3e-863a-0e1ba9b4cd3b"},"vehicle_type_id":"4","last_reported":1741367279,"current_range_meters":14800,"station_id":"ce4bhp92rcd13ifvqhag","pricing_plan_id":"cebpf4jnsgd1na2vs0mg"},{"bike_id":"2b2fa11b-b2d2-4b76-98f2-d36bd4082ca9","system_id":"levelo_inurba_marseille","lat":43.30805,"lon":5.43522,"is_reserved":false,"is_disabled":false,"rental_uris":{"android":"levelo://app?vid=2b2fa11b-b2d2-4b76-98f2-d36bd4082ca9","ios":"levelo://app?vid=2b2fa11b-b2d2-4b76-98f2-d36bd4082ca9"},"vehicle_type_id":"4","last_reported":1741367279,"current_range_meters":15200,"station_id":"ce4bhph2rcd13ifvqheg","pricing_plan_id":"cebpf4jnsgd1na2vs0mg"},{"bike_id":"686611a2-e927-4b19-a15b-c790570fe152","system_id":"levelo_inurba_marseille","lat":43.29254,"lon":5.37623,"is_reserved":false,"is_disabled":false,"rental_uris":{"android":"levelo://app?vid=686611a2-e927-4b19-a15b-c790570fe152","ios":"levelo://app?vid=686611a2-e927-4b19-a15b-c790570fe152"},"vehicle_type_id":"4","last_reported":1741367279,"current_range_meters":15200,"station_id":"ce4bgi12rcd13ifvqb80","pricing_plan_id":"cebpf4jnsgd1na2vs0mg"},{"bike_id":"df394045-16c7-4cda-9137-bbed06becb57","system_id":"levelo_inurba_marseille","lat":43.26229,"lon":5.40454,"is_reserved":false,"is_disabled":false,"rental_uris":{"android":"levelo://app?vid=df394045-16c7-4cda-9137-bbed06becb57","ios":"levelo://app?vid=df394045-16c7-4cda-9137-bbed06becb57"},"vehicle_type_id":"4","last_reported":1741367279,"current_range_meters":15200,"station_id":"ce4bhmh2rcd13ifvqgmg","pricing_plan_id":"cebpf4jnsgd1na2vs0mg"},{"bike_id":"d942f1e8-c5d2-45ac-8ae1-a3b09dea43b9","system_id":"levelo_inurba_marseille","lat":43.29907,"lon":5.38148,"is_reserved":false,"is_disabled":false,"rental_uris":{"android":"levelo://app?vid=d942f1e8-c5d2-45ac-8ae1-a3b09dea43b9","ios":"levelo://app?vid=d942f1e8-c5d2-45ac-8ae1-a3b09dea43b9"},"vehicle_type_id":"4","last_reported":1741367279,"current_range_meters":15200,"station_id":"ce4bgj12rcd13ifvqbc0","pricing_plan_id":"cebpf4jnsgd1na2vs0mg"},{"bike_id":"365c3ddf-31c7-472e-91dd-f045858a56e5","system_id":"levelo_inurba_marseille","lat":43.295415,"lon":5.423148,"is_reserved":false,"is_disabled":false,"rental_uris":{"android":"levelo://app?vid=365c3ddf-31c7-472e-91dd-f045858a56e5","ios":"levelo://app?vid=365c3ddf-31c7-472e-91dd-f045858a56e5"},"vehicle_type_id":"4","last_reported":1741367279,"current_range_meters":14400,"station_id":"ce4bhph2rcd13ifvqhdg","pricing_plan_id":"cebpf4jnsgd1na2vs0mg"},{"bike_id":"7a8959cf-cba4-472b-a67f-21d9d3e5e3a1","system_id":"levelo_inurba_marseille","lat":43.24406,"lon":5.43787,"is_reserved":false,"is_disabled":false,"rental_uris":{"android":"levelo://app?vid=7a8959cf-cba4-472b-a67f-21d9d3e5e3a1","ios":"levelo://app?vid=7a8959cf-cba4-472b-a67f-21d9d3e5e3a1"},"vehicle_type_id":"4","last_reported":1741367279,"current_range_meters":16000,"station_id":"","pricing_plan_id":"cebpf4jnsgd1na2vs0mg"},{"bike_id":"27b4a116-990a-4f6a-8142-7f1232aa6cb1","system_id":"levelo_inurba_marseille","lat":43.30195,"lon":5.36619,"is_reserved":false,"is_disabled":false,"rental_uris":{"android":"levelo://app?vid=27b4a116-990a-4f6a-8142-7f1232aa6cb1","ios":"levelo://app?vid=27b4a116-990a-4f6a-8142-7f1232aa6cb1"},"vehicle_type_id":"4","last_reported":1741367279,"current_range_meters":16000,"station_id":"ce4bgrh2rcd13ifvqc8g","pricing_plan_id":"cebpf4jnsgd1na2vs0mg"},{"bike_id":"b2c2514d-58df-4080-9acc-0a3325c87525","system_id":"levelo_inurba_marseille","lat":43.32375,"lon":5.36768,"is_reserved":false,"is_disabled":false,"rental_uris":{"android":"levelo://app?vid=b2c2514d-58df-4080-9acc-0a3325c87525","ios":"levelo://app?vid=b2c2514d-58df-4080-9acc-0a3325c87525"},"vehicle_type_id":"4","last_reported":1741367279,"current_range_meters":16000,"station_id":"ce4bhsh2rcd13ifvqi2g","pricing_plan_id":"cebpf4jnsgd1na2vs0mg"},{"bike_id":"5e452033-ceb7-483e-8c1f-aa40ca40ab9b","system_id":"levelo_inurba_marseille","lat":43.28288,"lon":5.3506,"is_reserved":false,"is_disabled":false,"rental_uris":{"android":"levelo://app?vid=5e452033-ceb7-483e-8c1f-aa40ca40ab9b","ios":"levelo://app?vid=5e452033-ceb7-483e-8c1f-aa40ca40ab9b"},"vehicle_type_id":"4","last_reported":1741367279,"current_range_meters":16000,"station_id":"ce4bhbp2rcd13ifvqerg","pricing_plan_id":"cebpf4jnsgd1na2vs0mg"},{"bike_id":"92d9d0f8-7484-4f2d-a542-70ea05b36384","system_id":"levelo_inurba_marseille","lat":43.28465,"lon":5.35882,"is_reserved":false,"is_disabled":false,"rental_uris":{"android":"levelo://app?vid=92d9d0f8-7484-4f2d-a542-70ea05b36384","ios":"levelo://app?vid=92d9d0f8-7484-4f2d-a542-70ea05b36384"},"vehicle_type_id":"4","last_reported":1741367279,"current_range_meters":16000,"station_id":"ce4bhah2rcd13ifvqei0","pricing_plan_id":"cebpf4jnsgd1na2vs0mg"},{"bike_id":"25db000e-d19c-4398-ae97-e9e1deee0744","system_id":"levelo_inurba_marseille","lat":43.29751,"lon":5.37103,"is_reserved":false,"is_disabled":false,"rental_uris":{"android":"levelo://app?vid=25db000e-d19c-4398-ae97-e9e1deee0744","ios":"levelo://app?vid=25db000e-d19c-4398-ae97-e9e1deee0744"},"vehicle_type_id":"4","last_reported":1741367279,"current_range_meters":16000,"station_id":"ce4bgop2rcd13ifvqc1g","pricing_plan_id":"cebpf4jnsgd1na2vs0mg"},{"bike_id":"5726a95a-8d5c-47b2-ba55-b62f91923f28","system_id":"levelo_inurba_marseille","lat":43.31084,"lon":5.38487,"is_reserved":false,"is_disabled":false,"rental_uris":{"android":"levelo://app?vid=5726a95a-8d5c-47b2-ba55-b62f91923f28","ios":"levelo://app?vid=5726a95a-8d5c-47b2-ba55-b62f91923f28"},"vehicle_type_id":"4","last_reported":1741367279,"current_range_meters":16000,"station_id":"ce4bhqp2rcd13ifvqhng","pricing_plan_id":"cebpf4jnsgd1na2vs0mg"},{"bike_id":"aa45a74a-fd81-4e5d-b3da-42346e7344b8","system_id":"levelo_inurba_marseille","lat":43.25492,"lon":5.37651,"is_reserved":false,"is_disabled":false,"rental_uris":{"android":"levelo://app?vid=aa45a74a-fd81-4e5d-b3da-42346e7344b8","ios":"levelo://app?vid=aa45a74a-fd81-4e5d-b3da-42346e7344b8"},"vehicle_type_id":"4","last_reported":1741367279,"current_range_meters":10000,"station_id":"ce4bhh12rcd13ifvqff0","pricing_plan_id":"cebpf4jnsgd1na2vs0mg"},{"bike_id":"33702b1b-bbe1-49e3-a8d9-ea479b679755","system_id":"levelo_inurba_marseille","lat":43.279535,"lon":5.410519,"is_reserved":false,"is_disabled":false,"rental_uris":{"android":"levelo://app?vid=33702b1b-bbe1-49e3-a8d9-ea479b679755","ios":"levelo://app?vid=33702b1b-bbe1-49e3-a8d9-ea479b679755"},"vehicle_type_id":"4","last_reported":1741367279,"current_range_meters":16000,"station_id":"ce4bhnp2rcd13ifvqh0g","pricing_plan_id":"cebpf4jnsgd1na2vs0mg"},{"bike_id":"42f7026e-579a-479a-91a1-b6e50db840e6","system_id":"levelo_inurba_marseille","lat":43.28716,"lon":5.37923,"is_reserved":false,"is_disabled":false,"rental_uris":{"android":"levelo://app?vid=42f7026e-579a-479a-91a1-b6e50db840e6","ios":"levelo://app?vid=42f7026e-579a-479a-91a1-b6e50db840e6"},"vehicle_type_id":"4","last_reported":1741367279,"current_range_meters":15200,"station_id":"ce4bh9p2rcd13ifvqec0","pricing_plan_id":"cebpf4jnsgd1na2vs0mg"},{"bike_id":"1d183dc3-b1f3-41c3-bb8a-094f8bc1d4d6","system_id":"levelo_inurba_marseille","lat":43.27573,"lon":5.38414,"is_reserved":false,"is_disabled":false,"rental_uris":{"android":"levelo://app?vid=1d183dc3-b1f3-41c3-bb8a-094f8bc1d4d6","ios":"levelo://app?vid=1d183dc3-b1f3-41c3-bb8a-094f8bc1d4d6"},"vehicle_type_id":"4","last_reported":1741367279,"current_range_meters":16400,"station_id":"ce4bhh92rcd13ifvqfi0","pricing_plan_id":"cebpf4jnsgd1na2vs0mg"},{"bike_id":"335d36f3-98e6-4a25-b0d0-8b115e72f7b8","system_id":"levelo_inurba_marseille","lat":43.295123,"lon":5.374407,"is_reserved":false,"is_disabled":false,"rental_uris":{"android":"levelo://app?vid=335d36f3-98e6-4a25-b0d0-8b115e72f7b8","ios":"levelo://app?vid=335d36f3-98e6-4a25-b0d0-8b115e72f7b8"},"vehicle_type_id":"4","last_reported":1741367279,"current_range_meters":16400,"station_id":"ce4bgh92rcd13ifvqb50","pricing_plan_id":"cebpf4jnsgd1na2vs0mg"},{"bike_id":"388ea826-f5fa-4632-a530-45d13cc0a769","system_id":"levelo_inurba_marseille","lat":43.23207,"lon":5.39988,"is_reserved":false,"is_disabled":false,"rental_uris":{"android":"levelo://app?vid=388ea826-f5fa-4632-a530-45d13cc0a769","ios":"levelo://app?vid=388ea826-f5fa-4632-a530-45d13cc0a769"},"vehicle_type_id":"4","last_reported":1741367279,"current_range_meters":16400,"station_id":"ce4bhn12rcd13ifvqgqg","pricing_plan_id":"cebpf4jnsgd1na2vs0mg"},{"bike_id":"f36b0f77-7c6c-467e-9c1e-abcad5c1e31b","system_id":"levelo_inurba_marseille","lat":43.33025,"lon":5.39036,"is_reserved":false,"is_disabled":false,"rental_uris":{"android":"levelo://app?vid=f36b0f77-7c6c-467e-9c1e-abcad5c1e31b","ios":"levelo://app?vid=f36b0f77-7c6c-467e-9c1e-abcad5c1e31b"},"vehicle_type_id":"4","last_reported":1741367279,"current_range_meters":15200,"station_id":"ce4bhr92rcd13ifvqhrg","pricing_plan_id":"cebpf4jnsgd1na2vs0mg"},{"bike_id":"6f1347c5-ed73-4af7-890d-1633d13b2eab","system_id":"levelo_inurba_marseille","lat":43.30488,"lon":5.36734,"is_reserved":false,"is_disabled":false,"rental_uris":{"android":"levelo://app?vid=6f1347c5-ed73-4af7-890d-1633d13b2eab","ios":"levelo://app?vid=6f1347c5-ed73-4af7-890d-1633d13b2eab"},"vehicle_type_id":"4","last_reported":1741367279,"current_range_meters":16400,"station_id":"","pricing_plan_id":"cebpf4jnsgd1na2vs0mg"},{"bike_id":"9e06c9fe-5f35-4e4d-8814-1c86f16c9009","system_id":"levelo_inurba_marseille","lat":43.25822,"lon":5.39437,"is_reserved":false,"is_disabled":false,"rental_uris":{"android":"levelo://app?vid=9e06c9fe-5f35-4e4d-8814-1c86f16c9009","ios":"levelo://app?vid=9e06c9fe-5f35-4e4d-8814-1c86f16c9009"},"vehicle_type_id":"4","last_reported":1741367279,"current_range_meters":16400,"station_id":"ce4bhip2rcd13ifvqft0","pricing_plan_id":"cebpf4jnsgd1na2vs0mg"},{"bike_id":"c4440271-3fcf-4ba1-a76e-05e2a3eefe6d","system_id":"levelo_inurba_marseille","lat":43.29907,"lon":5.38129,"is_reserved":false,"is_disabled":true,"rental_uris":{"android":"levelo://app?vid=c4440271-3fcf-4ba1-a76e-05e2a3eefe6d","ios":"levelo://app?vid=c4440271-3fcf-4ba1-a76e-05e2a3eefe6d"},"vehicle_type_id":"4","last_reported":1741367279,"current_range_meters":16400,"station_id":"ce4bgj12rcd13ifvqbc0","pricing_plan_id":"cebpf4jnsgd1na2vs0mg"},{"bike_id":"9b5da81f-1fc2-45d0-b076-8c8819f66084","system_id":"levelo_inurba_marseille","lat":43.28705,"lon":5.37391,"is_reserved":false,"is_disabled":false,"rental_uris":{"android":"levelo://app?vid=9b5da81f-1fc2-45d0-b076-8c8819f66084","ios":"levelo://app?vid=9b5da81f-1fc2-45d0-b076-8c8819f66084"},"vehicle_type_id":"4","last_reported":1741367279,"current_range_meters":16400,"station_id":"ce4bh3p2rcd13ifvqdq0","pricing_plan_id":"cebpf4jnsgd1na2vs0mg"},{"bike_id":"1ff664cb-f378-4a6c-b3c1-b47ee25a2174","system_id":"levelo_inurba_marseille","lat":43.32359,"lon":5.38881,"is_reserved":false,"is_disabled":false,"rental_uris":{"android":"levelo://app?vid=1ff664cb-f378-4a6c-b3c1-b47ee25a2174","ios":"levelo://app?vid=1ff664cb-f378-4a6c-b3c1-b47ee25a2174"},"vehicle_type_id":"4","last_reported":1741367279,"current_range_meters":16400,"station_id":"ce4bhqp2rcd13ifvqhog","pricing_plan_id":"cebpf4jnsgd1na2vs0mg"},{"bike_id":"95936caa-1f4e-46e1-af83-370d03622e59","system_id":"levelo_inurba_marseille","lat":43.30072,"lon":5.39106,"is_reserved":false,"is_disabled":true,"rental_uris":{"android":"levelo://app?vid=95936caa-1f4e-46e1-af83-370d03622e59","ios":"levelo://app?vid=95936caa-1f4e-46e1-af83-370d03622e59"},"vehicle_type_id":"4","last_reported":1741367279,"current_range_meters":16400,"station_id":"ce4bh192rcd13ifvqdb0","pricing_plan_id":"cebpf4jnsgd1na2vs0mg"},{"bike_id":"4f3fc157-b0e0-4d5d-8df8-ba467915750c","system_id":"levelo_inurba_marseille","lat":43.31264,"lon":5.40165,"is_reserved":false,"is_disabled":false,"rental_uris":{"android":"levelo://app?vid=4f3fc157-b0e0-4d5d-8df8-ba467915750c","ios":"levelo://app?vid=4f3fc157-b0e0-4d5d-8df8-ba467915750c"},"vehicle_type_id":"4","last_reported":1741367279,"current_range_meters":16400,"station_id":"ce4bh092rcd13ifvqd30","pricing_plan_id":"cebpf4jnsgd1na2vs0mg"},{"bike_id":"cbc52a4d-b1a3-4bdf-8ed7-d851e16ba8f2","system_id":"levelo_inurba_marseille","lat":43.27657,"lon":5.38925,"is_reserved":false,"is_disabled":true,"rental_uris":{"android":"levelo://app?vid=cbc52a4d-b1a3-4bdf-8ed7-d851e16ba8f2","ios":"levelo://app?vid=cbc52a4d-b1a3-4bdf-8ed7-d851e16ba8f2"},"vehicle_type_id":"4","last_reported":1741367279,"current_range_meters":16800,"station_id":"ce4bhi12rcd13ifvqfo0","pricing_plan_id":"cebpf4jnsgd1na2vs0mg"},{"bike_id":"6c972548-8d32-4d6c-a79b-ffabbfe24be7","system_id":"levelo_inurba_marseille","lat":43.30873,"lon":5.39643,"is_reserved":false,"is_disabled":false,"rental_uris":{"android":"levelo://app?vid=6c972548-8d32-4d6c-a79b-ffabbfe24be7","ios":"levelo://app?vid=6c972548-8d32-4d6c-a79b-ffabbfe24be7"},"vehicle_type_id":"4","last_reported":1741367279,"current_range_meters":16800,"station_id":"ce4bh012rcd13ifvqcv0","pricing_plan_id":"cebpf4jnsgd1na2vs0mg"},{"bike_id":"97896a03-529e-45c4-a198-85777a321b86","system_id":"levelo_inurba_marseille","lat":43.29015,"lon":5.35609,"is_reserved":false,"is_disabled":false,"rental_uris":{"android":"levelo://app?vid=97896a03-529e-45c4-a198-85777a321b86","ios":"levelo://app?vid=97896a03-529e-45c4-a198-85777a321b86"},"vehicle_type_id":"4","last_reported":1741367279,"current_range_meters":16800,"station_id":"ce4bhb92rcd13ifvqen0","pricing_plan_id":"cebpf4jnsgd1na2vs0mg"},{"bike_id":"79275c12-91ae-4573-a27b-c6d230a9c7e3","system_id":"levelo_inurba_marseille","lat":43.25942,"lon":5.40902,"is_reserved":false,"is_disabled":false,"rental_uris":{"android":"levelo://app?vid=79275c12-91ae-4573-a27b-c6d230a9c7e3","ios":"levelo://app?vid=79275c12-91ae-4573-a27b-c6d230a9c7e3"},"vehicle_type_id":"4","last_reported":1741367279,"current_range_meters":16800,"station_id":"ce4bhm92rcd13ifvqglg","pricing_plan_id":"cebpf4jnsgd1na2vs0mg"},{"bike_id":"fbf804d7-6c73-46e9-abdb-acb74deb6dc4","system_id":"levelo_inurba_marseille","lat":43.2309,"lon":5.35418,"is_reserved":false,"is_disabled":false,"rental_uris":{"android":"levelo://app?vid=fbf804d7-6c73-46e9-abdb-acb74deb6dc4","ios":"levelo://app?vid=fbf804d7-6c73-46e9-abdb-acb74deb6dc4"},"vehicle_type_id":"4","last_reported":1741367279,"current_range_meters":16800,"station_id":"cpo3342slgdg3j2ifvpg","pricing_plan_id":"cebpf4jnsgd1na2vs0mg"},{"bike_id":"c33a8483-45d6-48b0-93b0-066c45377e7f","system_id":"levelo_inurba_marseille","lat":43.26205,"lon":5.37432,"is_reserved":false,"is_disabled":false,"rental_uris":{"android":"levelo://app?vid=c33a8483-45d6-48b0-93b0-066c45377e7f","ios":"levelo://app?vid=c33a8483-45d6-48b0-93b0-066c45377e7f"},"vehicle_type_id":"4","last_reported":1741367279,"current_range_meters":16800,"station_id":"ce4bhgp2rcd13ifvqfc0","pricing_plan_id":"cebpf4jnsgd1na2vs0mg"},{"bike_id":"9ad5802d-7dba-4b65-b21d-4e8eb8da3b61","system_id":"levelo_inurba_marseille","lat":43.30531,"lon":5.36523,"is_reserved":false,"is_disabled":false,"rental_uris":{"android":"levelo://app?vid=9ad5802d-7dba-4b65-b21d-4e8eb8da3b61","ios":"levelo://app?vid=9ad5802d-7dba-4b65-b21d-4e8eb8da3b61"},"vehicle_type_id":"4","last_reported":1741367279,"current_range_meters":16800,"station_id":"ce4bgs12rcd13ifvqcag","pricing_plan_id":"cebpf4jnsgd1na2vs0mg"},{"bike_id":"c4fd048e-1562-41d6-9d7b-5caa7bcc76b4","system_id":"levelo_inurba_marseille","lat":43.29974,"lon":5.38492,"is_reserved":false,"is_disabled":false,"rental_uris":{"android":"levelo://app?vid=c4fd048e-1562-41d6-9d7b-5caa7bcc76b4","ios":"levelo://app?vid=c4fd048e-1562-41d6-9d7b-5caa7bcc76b4"},"vehicle_type_id":"4","last_reported":1741367279,"current_range_meters":16400,"station_id":"ce4bgj92rcd13ifvqbd0","pricing_plan_id":"cebpf4jnsgd1na2vs0mg"},{"bike_id":"91f040ad-e3ce-4251-98f6-eba43aa421ad","system_id":"levelo_inurba_marseille","lat":43.26805,"lon":5.40268,"is_reserved":false,"is_disabled":false,"rental_uris":{"android":"levelo://app?vid=91f040ad-e3ce-4251-98f6-eba43aa421ad","ios":"levelo://app?vid=91f040ad-e3ce-4251-98f6-eba43aa421ad"},"vehicle_type_id":"4","last_reported":1741367279,"current_range_meters":16800,"station_id":"ce501612rcd8frsf0b60","pricing_plan_id":"cebpf4jnsgd1na2vs0mg"},{"bike_id":"ac92fbc7-b1c2-47ef-b1fd-5af5a08a7720","system_id":"levelo_inurba_marseille","lat":43.24801,"lon":5.37453,"is_reserved":false,"is_disabled":false,"rental_uris":{"android":"levelo://app?vid=ac92fbc7-b1c2-47ef-b1fd-5af5a08a7720","ios":"levelo://app?vid=ac92fbc7-b1c2-47ef-b1fd-5af5a08a7720"},"vehicle_type_id":"4","last_reported":1741367279,"current_range_meters":16800,"station_id":"ce4bhgh2rcd13ifvqfb0","pricing_plan_id":"cebpf4jnsgd1na2vs0mg"},{"bike_id":"65d2271a-97b5-4913-95aa-cf77a293f0eb","system_id":"levelo_inurba_marseille","lat":43.2603,"lon":5.3755,"is_reserved":false,"is_disabled":false,"rental_uris":{"android":"levelo://app?vid=65d2271a-97b5-4913-95aa-cf77a293f0eb","ios":"levelo://app?vid=65d2271a-97b5-4913-95aa-cf77a293f0eb"},"vehicle_type_id":"4","last_reported":1741367279,"current_range_meters":16800,"station_id":"ce4bhgh2rcd13ifvqfa0","pricing_plan_id":"cebpf4jnsgd1na2vs0mg"},{"bike_id":"4c3fdab0-af30-432f-99e3-cb10829aefe4","system_id":"levelo_inurba_marseille","lat":43.24181,"lon":5.3972,"is_reserved":false,"is_disabled":false,"rental_uris":{"android":"levelo://app?vid=4c3fdab0-af30-432f-99e3-cb10829aefe4","ios":"levelo://app?vid=4c3fdab0-af30-432f-99e3-cb10829aefe4"},"vehicle_type_id":"4","last_reported":1741367279,"current_range_meters":16800,"station_id":"ce4bhn12rcd13ifvqgpg","pricing_plan_id":"cebpf4jnsgd1na2vs0mg"},{"bike_id":"c1c412b3-ae23-45ab-894a-fe5b494cc9e6","system_id":"levelo_inurba_marseille","lat":43.23185,"lon":5.35561,"is_reserved":false,"is_disabled":false,"rental_uris":{"android":"levelo://app?vid=c1c412b3-ae23-45ab-894a-fe5b494cc9e6","ios":"levelo://app?vid=c1c412b3-ae23-45ab-894a-fe5b494cc9e6"},"vehicle_type_id":"4","last_reported":1741367279,"current_range_meters":16800,"station_id":"ce4bhu92rcd13ifvqi70","pricing_plan_id":"cebpf4jnsgd1na2vs0mg"},{"bike_id":"7b28c0c4-0a70-4ba8-8640-0603df24e7d3","system_id":"levelo_inurba_marseille","lat":43.28156,"lon":5.42634,"is_reserved":false,"is_disabled":false,"rental_uris":{"android":"levelo://app?vid=7b28c0c4-0a70-4ba8-8640-0603df24e7d3","ios":"levelo://app?vid=7b28c0c4-0a70-4ba8-8640-0603df24e7d3"},"vehicle_type_id":"4","last_reported":1741367279,"current_range_meters":14400,"station_id":"ce4bhnh2rcd13ifvqgug","pricing_plan_id":"cebpf4jnsgd1na2vs0mg"},{"bike_id":"3e0251dc-7906-4f6a-a9ed-775f79a79ce8","system_id":"levelo_inurba_marseille","lat":43.30417,"lon":5.41277,"is_reserved":false,"is_disabled":false,"rental_uris":{"android":"levelo://app?vid=3e0251dc-7906-4f6a-a9ed-775f79a79ce8","ios":"levelo://app?vid=3e0251dc-7906-4f6a-a9ed-775f79a79ce8"},"vehicle_type_id":"4","last_reported":1741367279,"current_range_meters":16400,"station_id":"ce4bhop2rcd13ifvqh8g","pricing_plan_id":"cebpf4jnsgd1na2vs0mg"},{"bike_id":"ad8fd057-1d2f-4281-b7ce-877214c12129","system_id":"levelo_inurba_marseille","lat":43.29023,"lon":5.38649,"is_reserved":false,"is_disabled":false,"rental_uris":{"android":"levelo://app?vid=ad8fd057-1d2f-4281-b7ce-877214c12129","ios":"levelo://app?vid=ad8fd057-1d2f-4281-b7ce-877214c12129"},"vehicle_type_id":"4","last_reported":1741367279,"current_range_meters":17200,"station_id":"ce4bh4p2rcd13ifvqe0g","pricing_plan_id":"cebpf4jnsgd1na2vs0mg"},{"bike_id":"6b2f2b30-55d7-41ec-a65a-eed15df8cd83","system_id":"levelo_inurba_marseille","lat":43.29645,"lon":5.38092,"is_reserved":false,"is_disabled":false,"rental_uris":{"android":"levelo://app?vid=6b2f2b30-55d7-41ec-a65a-eed15df8cd83","ios":"levelo://app?vid=6b2f2b30-55d7-41ec-a65a-eed15df8cd83"},"vehicle_type_id":"4","last_reported":1741367279,"current_range_meters":17200,"station_id":"","pricing_plan_id":"cebpf4jnsgd1na2vs0mg"},{"bike_id":"cb7f463d-7d50-4468-8d03-1f241f41eb08","system_id":"levelo_inurba_marseille","lat":43.29263,"lon":5.40901,"is_reserved":false,"is_disabled":false,"rental_uris":{"android":"levelo://app?vid=cb7f463d-7d50-4468-8d03-1f241f41eb08","ios":"levelo://app?vid=cb7f463d-7d50-4468-8d03-1f241f41eb08"},"vehicle_type_id":"4","last_reported":1741367279,"current_range_meters":17200,"station_id":"ce4bh192rcd13ifvqdc0","pricing_plan_id":"cebpf4jnsgd1na2vs0mg"},{"bike_id":"455c9dc1-a5d6-46e5-86c3-b236a1689768","system_id":"levelo_inurba_marseille","lat":43.33612,"lon":5.4102,"is_reserved":false,"is_disabled":false,"rental_uris":{"android":"levelo://app?vid=455c9dc1-a5d6-46e5-86c3-b236a1689768","ios":"levelo://app?vid=455c9dc1-a5d6-46e5-86c3-b236a1689768"},"vehicle_type_id":"4","last_reported":1741367279,"current_range_meters":17200,"station_id":"ce4bhqh2rcd13ifvqhmg","pricing_plan_id":"cebpf4jnsgd1na2vs0mg"},{"bike_id":"0c9e0938-d5bb-4dd8-ae97-fba63a470257","system_id":"levelo_inurba_marseille","lat":43.28703,"lon":5.37387,"is_reserved":false,"is_disabled":false,"rental_uris":{"android":"levelo://app?vid=0c9e0938-d5bb-4dd8-ae97-fba63a470257","ios":"levelo://app?vid=0c9e0938-d5bb-4dd8-ae97-fba63a470257"},"vehicle_type_id":"4","last_reported":1741367279,"current_range_meters":17200,"station_id":"ce4bh3p2rcd13ifvqdq0","pricing_plan_id":"cebpf4jnsgd1na2vs0mg"},{"bike_id":"cff92a66-5d12-4957-8151-6c9908cd8c2e","system_id":"levelo_inurba_marseille","lat":43.24808,"lon":5.3746,"is_reserved":false,"is_disabled":false,"rental_uris":{"android":"levelo://app?vid=cff92a66-5d12-4957-8151-6c9908cd8c2e","ios":"levelo://app?vid=cff92a66-5d12-4957-8151-6c9908cd8c2e"},"vehicle_type_id":"4","last_reported":1741367279,"current_range_meters":17200,"station_id":"ce4bhgh2rcd13ifvqfb0","pricing_plan_id":"cebpf4jnsgd1na2vs0mg"},{"bike_id":"21a97c5e-42a1-42dc-8f0b-c09a56ace1b8","system_id":"levelo_inurba_marseille","lat":43.30374,"lon":5.42486,"is_reserved":false,"is_disabled":true,"rental_uris":{"android":"levelo://app?vid=21a97c5e-42a1-42dc-8f0b-c09a56ace1b8","ios":"levelo://app?vid=21a97c5e-42a1-42dc-8f0b-c09a56ace1b8"},"vehicle_type_id":"4","last_reported":1741367279,"current_range_meters":17200,"station_id":"","pricing_plan_id":"cebpf4jnsgd1na2vs0mg"},{"bike_id":"d5f61d60-1034-44d9-a9f6-08601c926e07","system_id":"levelo_inurba_marseille","lat":43.28272,"lon":5.35059,"is_reserved":false,"is_disabled":false,"rental_uris":{"android":"levelo://app?vid=d5f61d60-1034-44d9-a9f6-08601c926e07","ios":"levelo://app?vid=d5f61d60-1034-44d9-a9f6-08601c926e07"},"vehicle_type_id":"4","last_reported":1741367279,"current_range_meters":17600,"station_id":"ce4bhbp2rcd13ifvqerg","pricing_plan_id":"cebpf4jnsgd1na2vs0mg"},{"bike_id":"76093644-0e6f-4581-93c4-fe58c237284f","system_id":"levelo_inurba_marseille","lat":43.28937,"lon":5.36403,"is_reserved":false,"is_disabled":false,"rental_uris":{"android":"levelo://app?vid=76093644-0e6f-4581-93c4-fe58c237284f","ios":"levelo://app?vid=76093644-0e6f-4581-93c4-fe58c237284f"},"vehicle_type_id":"4","last_reported":1741367279,"current_range_meters":17600,"station_id":"ce4bhc92rcd13ifvqetg","pricing_plan_id":"cebpf4jnsgd1na2vs0mg"},{"bike_id":"477494cf-6752-4cdd-abc5-2e55f6cc9696","system_id":"levelo_inurba_marseille","lat":43.29548,"lon":5.42286,"is_reserved":false,"is_disabled":false,"rental_uris":{"android":"levelo://app?vid=477494cf-6752-4cdd-abc5-2e55f6cc9696","ios":"levelo://app?vid=477494cf-6752-4cdd-abc5-2e55f6cc9696"},"vehicle_type_id":"4","last_reported":1741367279,"current_range_meters":17600,"station_id":"ce4bhph2rcd13ifvqhdg","pricing_plan_id":"cebpf4jnsgd1na2vs0mg"},{"bike_id":"beff5bd7-6893-40b9-a3a0-62179ca3245f","system_id":"levelo_inurba_marseille","lat":43.29341,"lon":5.37859,"is_reserved":false,"is_disabled":false,"rental_uris":{"android":"levelo://app?vid=beff5bd7-6893-40b9-a3a0-62179ca3245f","ios":"levelo://app?vid=beff5bd7-6893-40b9-a3a0-62179ca3245f"},"vehicle_type_id":"4","last_reported":1741367279,"current_range_meters":17600,"station_id":"ce4bgjh2rcd13ifvqbf0","pricing_plan_id":"cebpf4jnsgd1na2vs0mg"},{"bike_id":"c962b80c-d3fd-4b85-b99e-f3df3afb8e7d","system_id":"levelo_inurba_marseille","lat":43.2962,"lon":5.3716,"is_reserved":false,"is_disabled":false,"rental_uris":{"android":"levelo://app?vid=c962b80c-d3fd-4b85-b99e-f3df3afb8e7d","ios":"levelo://app?vid=c962b80c-d3fd-4b85-b99e-f3df3afb8e7d"},"vehicle_type_id":"4","last_reported":1741367279,"current_range_meters":17600,"station_id":"ce4bgnh2rcd13ifvqc0g","pricing_plan_id":"cebpf4jnsgd1na2vs0mg"},{"bike_id":"b349ac47-347c-4769-af5d-3d0b2af8f131","system_id":"levelo_inurba_marseille","lat":43.33024,"lon":5.39045,"is_reserved":false,"is_disabled":false,"rental_uris":{"android":"levelo://app?vid=b349ac47-347c-4769-af5d-3d0b2af8f131","ios":"levelo://app?vid=b349ac47-347c-4769-af5d-3d0b2af8f131"},"vehicle_type_id":"4","last_reported":1741367279,"current_range_meters":17600,"station_id":"ce4bhr92rcd13ifvqhrg","pricing_plan_id":"cebpf4jnsgd1na2vs0mg"},{"bike_id":"769e8aeb-cf6e-4b29-95f4-cafa3c1b7a33","system_id":"levelo_inurba_marseille","lat":43.27995,"lon":5.41662,"is_reserved":false,"is_disabled":false,"rental_uris":{"android":"levelo://app?vid=769e8aeb-cf6e-4b29-95f4-cafa3c1b7a33","ios":"levelo://app?vid=769e8aeb-cf6e-4b29-95f4-cafa3c1b7a33"},"vehicle_type_id":"4","last_reported":1741367279,"current_range_meters":17200,"station_id":"ce4bho12rcd13ifvqh1g","pricing_plan_id":"cebpf4jnsgd1na2vs0mg"},{"bike_id":"7c8f1b11-75a2-4c12-9b48-6a7797bbd449","system_id":"levelo_inurba_marseille","lat":43.29304,"lon":5.37178,"is_reserved":false,"is_disabled":false,"rental_uris":{"android":"levelo://app?vid=7c8f1b11-75a2-4c12-9b48-6a7797bbd449","ios":"levelo://app?vid=7c8f1b11-75a2-4c12-9b48-6a7797bbd449"},"vehicle_type_id":"4","last_reported":1741367279,"current_range_meters":17600,"station_id":"ce4bgh92rcd13ifvqb40","pricing_plan_id":"cebpf4jnsgd1na2vs0mg"},{"bike_id":"0a9bc1bd-e305-40d4-8852-5005300b12a0","system_id":"levelo_inurba_marseille","lat":43.2293,"lon":5.3538,"is_reserved":false,"is_disabled":false,"rental_uris":{"android":"levelo://app?vid=0a9bc1bd-e305-40d4-8852-5005300b12a0","ios":"levelo://app?vid=0a9bc1bd-e305-40d4-8852-5005300b12a0"},"vehicle_type_id":"4","last_reported":1741367279,"current_range_meters":18000,"station_id":"cpo3532slgdg3j2ikp40","pricing_plan_id":"cebpf4jnsgd1na2vs0mg"},{"bike_id":"97bbf4c2-4775-4db6-994e-7ea02ec06c82","system_id":"levelo_inurba_marseille","lat":43.28266,"lon":5.35085,"is_reserved":false,"is_disabled":false,"rental_uris":{"android":"levelo://app?vid=97bbf4c2-4775-4db6-994e-7ea02ec06c82","ios":"levelo://app?vid=97bbf4c2-4775-4db6-994e-7ea02ec06c82"},"vehicle_type_id":"4","last_reported":1741367279,"current_range_meters":18000,"station_id":"ce4bhbp2rcd13ifvqerg","pricing_plan_id":"cebpf4jnsgd1na2vs0mg"},{"bike_id":"314cfdc7-e808-42aa-be0f-45dcea6be565","system_id":"levelo_inurba_marseille","lat":43.31048,"lon":5.38353,"is_reserved":false,"is_disabled":false,"rental_uris":{"android":"levelo://app?vid=314cfdc7-e808-42aa-be0f-45dcea6be565","ios":"levelo://app?vid=314cfdc7-e808-42aa-be0f-45dcea6be565"},"vehicle_type_id":"4","last_reported":1741367279,"current_range_meters":18000,"station_id":"ce4bgv92rcd13ifvqcr0","pricing_plan_id":"cebpf4jnsgd1na2vs0mg"},{"bike_id":"ab4a0b44-c6da-4a18-900b-27e131406a6a","system_id":"levelo_inurba_marseille","lat":43.28268,"lon":5.35065,"is_reserved":false,"is_disabled":false,"rental_uris":{"android":"levelo://app?vid=ab4a0b44-c6da-4a18-900b-27e131406a6a","ios":"levelo://app?vid=ab4a0b44-c6da-4a18-900b-27e131406a6a"},"vehicle_type_id":"4","last_reported":1741367279,"current_range_meters":18000,"station_id":"ce4bhbp2rcd13ifvqerg","pricing_plan_id":"cebpf4jnsgd1na2vs0mg"},{"bike_id":"2d03ad57-554c-40ad-88b1-4f79b808f169","system_id":"levelo_inurba_marseille","lat":43.28095,"lon":5.3966,"is_reserved":false,"is_disabled":false,"rental_uris":{"android":"levelo://app?vid=2d03ad57-554c-40ad-88b1-4f79b808f169","ios":"levelo://app?vid=2d03ad57-554c-40ad-88b1-4f79b808f169"},"vehicle_type_id":"4","last_reported":1741367279,"current_range_meters":18000,"station_id":"ce4bho12rcd13ifvqh2g","pricing_plan_id":"cebpf4jnsgd1na2vs0mg"},{"bike_id":"b3cfeb93-fc2b-493d-89d0-15b3342a099e","system_id":"levelo_inurba_marseille","lat":43.29257,"lon":5.38438,"is_reserved":false,"is_disabled":false,"rental_uris":{"android":"levelo://app?vid=b3cfeb93-fc2b-493d-89d0-15b3342a099e","ios":"levelo://app?vid=b3cfeb93-fc2b-493d-89d0-15b3342a099e"},"vehicle_type_id":"4","last_reported":1741367279,"current_range_meters":18000,"station_id":"ce4bh692rcd13ifvqea0","pricing_plan_id":"cebpf4jnsgd1na2vs0mg"},{"bike_id":"af6dfaa5-12ec-4fa0-977a-daa6ef85563e","system_id":"levelo_inurba_marseille","lat":43.28431,"lon":5.34998,"is_reserved":false,"is_disabled":false,"rental_uris":{"android":"levelo://app?vid=af6dfaa5-12ec-4fa0-977a-daa6ef85563e","ios":"levelo://app?vid=af6dfaa5-12ec-4fa0-977a-daa6ef85563e"},"vehicle_type_id":"4","last_reported":1741367279,"current_range_meters":18000,"station_id":"ce4bhbh2rcd13ifvqepg","pricing_plan_id":"cebpf4jnsgd1na2vs0mg"},{"bike_id":"9555c7a2-69fa-4e16-b213-9eb45971cf73","system_id":"levelo_inurba_marseille","lat":43.29885,"lon":5.39739,"is_reserved":false,"is_disabled":false,"rental_uris":{"android":"levelo://app?vid=9555c7a2-69fa-4e16-b213-9eb45971cf73","ios":"levelo://app?vid=9555c7a2-69fa-4e16-b213-9eb45971cf73"},"vehicle_type_id":"4","last_reported":1741367279,"current_range_meters":18800,"station_id":"ce4bh0h2rcd13ifvqd50","pricing_plan_id":"cebpf4jnsgd1na2vs0mg"},{"bike_id":"da455c08-af87-41e0-8def-826f4f057d81","system_id":"levelo_inurba_marseille","lat":43.33004,"lon":5.39028,"is_reserved":false,"is_disabled":false,"rental_uris":{"android":"levelo://app?vid=da455c08-af87-41e0-8def-826f4f057d81","ios":"levelo://app?vid=da455c08-af87-41e0-8def-826f4f057d81"},"vehicle_type_id":"4","last_reported":1741367279,"current_range_meters":18800,"station_id":"ce4bhr92rcd13ifvqhrg","pricing_plan_id":"cebpf4jnsgd1na2vs0mg"},{"bike_id":"a8eda7b6-005b-4e03-95dc-b9509a81f639","system_id":"levelo_inurba_marseille","lat":43.29449,"lon":5.39751,"is_reserved":false,"is_disabled":false,"rental_uris":{"android":"levelo://app?vid=a8eda7b6-005b-4e03-95dc-b9509a81f639","ios":"levelo://app?vid=a8eda7b6-005b-4e03-95dc-b9509a81f639"},