{"last_updated":1732954332,"ttl":60,"version":"2.2","data":{"bikes":[{"bike_id":"d375be11-1a40-470b-b905-c4946466142a","system_id":"levelo_inurba_marseille","lat":43.28455,"lon":5.35885,"is_reserved":false,"is_disabled":false,"rental_uris":{"android":"levelo://app?vid=d375be11-1a40-470b-b905-c4946466142a","ios":"levelo://app?vid=d375be11-1a40-470b-b905-c4946466142a"},"vehicle_type_id":"4","last_reported":1732954332,"current_range_meters":24400,"station_id":"ce4bhah2rcd13ifvqei0","pricing_plan_id":"cebpf4jnsgd1na2vs0mg"},{"bike_id":"05c23fe0-83e1-49fc-8c98-561bfe31127a","system_id":"levelo_inurba_marseille","lat":43.30779,"lon":5.37648,"is_reserved":false,"is_disabled":false,"rental_uris":{"android":"levelo://app?vid=05c23fe0-83e1-49fc-8c98-561bfe31127a","ios":"levelo://app?vid=05c23fe0-83e1-49fc-8c98-561bfe31127a"},"vehicle_type_id":"4","last_reported":1732954332,"current_range_meters":38800,"station_id":"ce4bgv92rcd13ifvqcq0","pricing_plan_id":"cebpf4jnsgd1na2vs0mg"},{"bike_id":"83e51ea6-79ab-4bff-b542-42ca4ad9094f","system_id":"levelo_inurba_marseille","lat":43.27494,"lon":5.4245,"is_reserved":false,"is_disabled":false,"rental_uris":{"android":"levelo://app?vid=83e51ea6-79ab-4bff-b542-42ca4ad9094f","ios":"levelo://app?vid=83e51ea6-79ab-4bff-b542-42ca4ad9094f"},"vehicle_type_id":"4","last_reported":1732954332,"current_range_meters":30400,"station_id":"ce4bhn92rcd13ifvqgrg","pricing_plan_id":"cebpf4jnsgd1na2vs0mg"},{"bike_id":"b856c8b4-412d-4c25-bdd4-e6b29aed04cb","system_id":"levelo_inurba_marseille","lat":43.22933,"lon":5.35379,"is_reserved":false,"is_disabled":false,"rental_uris":{"android":"levelo://app?vid=b856c8b4-412d-4c25-bdd4-e6b29aed04cb","ios":"levelo://app?vid=b856c8b4-412d-4c25-bdd4-e6b29aed04cb"},"vehicle_type_id":"4","last_reported":1732954332,"current_range_meters":39200,"station_id":"cpo3532slgdg3j2ikp40","pricing_plan_id":"cebpf4jnsgd1na2vs0mg"},{"bike_id":"3ab70a40-e825-45f1-adcb-4f1977bdbea9","system_id":"levelo_inurba_marseille","lat":43.30793,"lon":5.38153,"is_reserved":false,"is_disabled":false,"rental_uris":{"android":"levelo://app?vid=3ab70a40-e825-45f1-adcb-4f1977bdbea9","ios":"levelo://app?vid=3ab70a40-e825-45f1-adcb-4f1977bdbea9"},"vehicle_type_id":"4","last_reported":1732954332,"current_range_meters":38800,"station_id":"ce4bgt12rcd13ifvqce0","pricing_plan_id":"cebpf4jnsgd1na2vs0mg"},{"bike_id":"3b0e05b2-1e98-491d-b2e1-ddc66cfd8a1a","system_id":"levelo_inurba_marseille","lat":43.30041,"lon":5.38656,"is_reserved":false,"is_disabled":true,"rental_uris":{"android":"levelo://app?vid=3b0e05b2-1e98-491d-b2e1-ddc66cfd8a1a","ios":"levelo://app?vid=3b0e05b2-1e98-491d-b2e1-ddc66cfd8a1a"},"vehicle_type_id":"4","last_reported":1732954332,"current_range_meters":0,"station_id":"","pricing_plan_id":"cebpf4jnsgd1na2vs0mg"},{"bike_id":"84ccddc4-6681-44c8-bacd-154da9b78895","system_id":"levelo_inurba_marseille","lat":43.31716,"lon":5.42406,"is_reserved":false,"is_disabled":false,"rental_uris":{"android":"levelo://app?vid=84ccddc4-6681-44c8-bacd-154da9b78895","ios":"levelo://app?vid=84ccddc4-6681-44c8-bacd-154da9b78895"},"vehicle_type_id":"4","last_reported":1732954332,"current_range_meters":25600,"station_id":"ce4bhp92rcd13ifvqhbg","pricing_plan_id":"cebpf4jnsgd1na2vs0mg"},{"bike_id":"81e37fd6-f383-4ba1-aabd-80988a64a94e","system_id":"levelo_inurba_marseille","lat":43.28944,"lon":5.39625,"is_reserved":false,"is_disabled":false,"rental_uris":{"android":"levelo://app?vid=81e37fd6-f383-4ba1-aabd-80988a64a94e","ios":"levelo://app?vid=81e37fd6-f383-4ba1-aabd-80988a64a94e"},"vehicle_type_id":"4","last_reported":1732954332,"current_range_meters":38000,"station_id":"ce4bh3h2rcd13ifvqdn0","pricing_plan_id":"cebpf4jnsgd1na2vs0mg"},{"bike_id":"3e023694-5c9a-441d-ae23-acaa678173cf","system_id":"levelo_inurba_marseille","lat":43.29974,"lon":5.38489,"is_reserved":false,"is_disabled":false,"rental_uris":{"android":"levelo://app?vid=3e023694-5c9a-441d-ae23-acaa678173cf","ios":"levelo://app?vid=3e023694-5c9a-441d-ae23-acaa678173cf"},"vehicle_type_id":"4","last_reported":1732954332,"current_range_meters":28400,"station_id":"ce4bgj92rcd13ifvqbd0","pricing_plan_id":"cebpf4jnsgd1na2vs0mg"},{"bike_id":"55a59da6-5727-4b23-892f-57b9bc4daf50","system_id":"levelo_inurba_marseille","lat":43.313613,"lon":5.384964,"is_reserved":false,"is_disabled":false,"rental_uris":{"android":"levelo://app?vid=55a59da6-5727-4b23-892f-57b9bc4daf50","ios":"levelo://app?vid=55a59da6-5727-4b23-892f-57b9bc4daf50"},"vehicle_type_id":"4","last_reported":1732954332,"current_range_meters":24000,"station_id":"ce4bgt92rcd13ifvqcf0","pricing_plan_id":"cebpf4jnsgd1na2vs0mg"},{"bike_id":"0f767ae2-8be2-41f2-8ba4-d32d0ac25c9d","system_id":"levelo_inurba_marseille","lat":43.30142,"lon":5.38076,"is_reserved":false,"is_disabled":false,"rental_uris":{"android":"levelo://app?vid=0f767ae2-8be2-41f2-8ba4-d32d0ac25c9d","ios":"levelo://app?vid=0f767ae2-8be2-41f2-8ba4-d32d0ac25c9d"},"vehicle_type_id":"4","last_reported":1732954332,"current_range_meters":32400,"station_id":"ce4bgjp2rcd13ifvqbh0","pricing_plan_id":"cebpf4jnsgd1na2vs0mg"},{"bike_id":"7974306f-50f1-4979-96e6-42a3a669c81a","system_id":"levelo_inurba_marseille","lat":43.32,"lon":5.38146,"is_reserved":false,"is_disabled":false,"rental_uris":{"android":"levelo://app?vid=7974306f-50f1-4979-96e6-42a3a669c81a","ios":"levelo://app?vid=7974306f-50f1-4979-96e6-42a3a669c81a"},"vehicle_type_id":"4","last_reported":1732954332,"current_range_meters":10800,"station_id":"ce4bhr12rcd13ifvqhpg","pricing_plan_id":"cebpf4jnsgd1na2vs0mg"},{"bike_id":"2f1e15cd-4d25-4443-a988-2c154a5c72c1","system_id":"levelo_inurba_marseille","lat":43.29038,"lon":5.37558,"is_reserved":false,"is_disabled":false,"rental_uris":{"android":"levelo://app?vid=2f1e15cd-4d25-4443-a988-2c154a5c72c1","ios":"levelo://app?vid=2f1e15cd-4d25-4443-a988-2c154a5c72c1"},"vehicle_type_id":"4","last_reported":1732954332,"current_range_meters":33200,"station_id":"ce4bh692rcd13ifvqe90","pricing_plan_id":"cebpf4jnsgd1na2vs0mg"},{"bike_id":"c7537608-03b9-4f65-a4aa-ef80a727253a","system_id":"levelo_inurba_marseille","lat":43.25496,"lon":5.37647,"is_reserved":false,"is_disabled":false,"rental_uris":{"android":"levelo://app?vid=c7537608-03b9-4f65-a4aa-ef80a727253a","ios":"levelo://app?vid=c7537608-03b9-4f65-a4aa-ef80a727253a"},"vehicle_type_id":"4","last_reported":1732954332,"current_range_meters":33200,"station_id":"ce4bhh12rcd13ifvqff0","pricing_plan_id":"cebpf4jnsgd1na2vs0mg"},{"bike_id":"7e6bd422-e93f-4c13-8d01-72a1032e883e","system_id":"levelo_inurba_marseille","lat":43.26212,"lon":5.37437,"is_reserved":false,"is_disabled":false,"rental_uris":{"android":"levelo://app?vid=7e6bd422-e93f-4c13-8d01-72a1032e883e","ios":"levelo://app?vid=7e6bd422-e93f-4c13-8d01-72a1032e883e"},"vehicle_type_id":"4","last_reported":1732954332,"current_range_meters":10000,"station_id":"ce4bhgp2rcd13ifvqfc0","pricing_plan_id":"cebpf4jnsgd1na2vs0mg"},{"bike_id":"16ad361a-061a-49c8-a163-78d43e9d9691","system_id":"levelo_inurba_marseille","lat":43.29277,"lon":5.40115,"is_reserved":false,"is_disabled":false,"rental_uris":{"android":"levelo://app?vid=16ad361a-061a-49c8-a163-78d43e9d9691","ios":"levelo://app?vid=16ad361a-061a-49c8-a163-78d43e9d9691"},"vehicle_type_id":"4","last_reported":1732954332,"current_range_meters":34800,"station_id":"ce4bh312rcd13ifvqdk0","pricing_plan_id":"cebpf4jnsgd1na2vs0mg"},{"bike_id":"4da15633-a66a-473a-bc54-06fe8f87dea7","system_id":"levelo_inurba_marseille","lat":43.29359,"lon":5.37862,"is_reserved":false,"is_disabled":false,"rental_uris":{"android":"levelo://app?vid=4da15633-a66a-473a-bc54-06fe8f87dea7","ios":"levelo://app?vid=4da15633-a66a-473a-bc54-06fe8f87dea7"},"vehicle_type_id":"4","last_reported":1732954332,"current_range_meters":3200,"station_id":"ce4bgjh2rcd13ifvqbf0","pricing_plan_id":"cebpf4jnsgd1na2vs0mg"},{"bike_id":"56580912-adcd-4764-bd5a-a61c4d520c1b","system_id":"levelo_inurba_marseille","lat":43.27562,"lon":5.38428,"is_reserved":false,"is_disabled":false,"rental_uris":{"android":"levelo://app?vid=56580912-adcd-4764-bd5a-a61c4d520c1b","ios":"levelo://app?vid=56580912-adcd-4764-bd5a-a61c4d520c1b"},"vehicle_type_id":"4","last_reported":1732954332,"current_range_meters":10800,"station_id":"ce4bhh92rcd13ifvqfi0","pricing_plan_id":"cebpf4jnsgd1na2vs0mg"},{"bike_id":"dd764c4f-e5a4-49d0-a29b-266bdb920ff5","system_id":"levelo_inurba_marseille","lat":43.24545,"lon":5.39519,"is_reserved":false,"is_disabled":false,"rental_uris":{"android":"levelo://app?vid=dd764c4f-e5a4-49d0-a29b-266bdb920ff5","ios":"levelo://app?vid=dd764c4f-e5a4-49d0-a29b-266bdb920ff5"},"vehicle_type_id":"4","last_reported":1732954332,"current_range_meters":21600,"station_id":"ce4bhlp2rcd13ifvqgjg","pricing_plan_id":"cebpf4jnsgd1na2vs0mg"},{"bike_id":"c5f4d7f2-8a4b-45a3-ada9-7b4f2aa389af","system_id":"levelo_inurba_marseille","lat":43.30532,"lon":5.36545,"is_reserved":false,"is_disabled":false,"rental_uris":{"android":"levelo://app?vid=c5f4d7f2-8a4b-45a3-ada9-7b4f2aa389af","ios":"levelo://app?vid=c5f4d7f2-8a4b-45a3-ada9-7b4f2aa389af"},"vehicle_type_id":"4","last_reported":1732954332,"current_range_meters":28000,"station_id":"ce4bgs12rcd13ifvqcag","pricing_plan_id":"cebpf4jnsgd1na2vs0mg"},{"bike_id":"d77c8fa8-9230-4eda-bc9a-5b066cfdd6cc","system_id":"levelo_inurba_marseille","lat":43.25721,"lon":5.41116,"is_reserved":false,"is_disabled":false,"rental_uris":{"android":"levelo://app?vid=d77c8fa8-9230-4eda-bc9a-5b066cfdd6cc","ios":"levelo://app?vid=d77c8fa8-9230-4eda-bc9a-5b066cfdd6cc"},"vehicle_type_id":"4","last_reported":1732954332,"current_range_meters":22800,"station_id":"ce4bhkp2rcd13ifvqgd0","pricing_plan_id":"cebpf4jnsgd1na2vs0mg"},{"bike_id":"1c9c29c1-499c-4043-bad4-8838788aac0f","system_id":"levelo_inurba_marseille","lat":43.32056,"lon":5.41542,"is_reserved":false,"is_disabled":false,"rental_uris":{"android":"levelo://app?vid=1c9c29c1-499c-4043-bad4-8838788aac0f","ios":"levelo://app?vid=1c9c29c1-499c-4043-bad4-8838788aac0f"},"vehicle_type_id":"4","last_reported":1732954332,"current_range_meters":39200,"station_id":"ce4bhq92rcd13ifvqhkg","pricing_plan_id":"cebpf4jnsgd1na2vs0mg"},{"bike_id":"44f16cf6-56ca-494a-9d11-2e0807e1d80c","system_id":"levelo_inurba_marseille","lat":43.25502,"lon":5.37647,"is_reserved":false,"is_disabled":false,"rental_uris":{"android":"levelo://app?vid=44f16cf6-56ca-494a-9d11-2e0807e1d80c","ios":"levelo://app?vid=44f16cf6-56ca-494a-9d11-2e0807e1d80c"},"vehicle_type_id":"4","last_reported":1732954332,"current_range_meters":12800,"station_id":"ce4bhh12rcd13ifvqff0","pricing_plan_id":"cebpf4jnsgd1na2vs0mg"},{"bike_id":"eff5979d-2213-40b3-bc4d-f6c0932b6716","system_id":"levelo_inurba_marseille","lat":43.24663,"lon":5.38167,"is_reserved":false,"is_disabled":true,"rental_uris":{"android":"levelo://app?vid=eff5979d-2213-40b3-bc4d-f6c0932b6716","ios":"levelo://app?vid=eff5979d-2213-40b3-bc4d-f6c0932b6716"},"vehicle_type_id":"4","last_reported":1732954332,"current_range_meters":0,"station_id":"ce4bhih2rcd13ifvqfr0","pricing_plan_id":"cebpf4jnsgd1na2vs0mg"},{"bike_id":"4932acf2-2223-4e2f-a3d4-ac1f8a06ce2b","system_id":"levelo_inurba_marseille","lat":43.28722,"lon":5.37945,"is_reserved":false,"is_disabled":false,"rental_uris":{"android":"levelo://app?vid=4932acf2-2223-4e2f-a3d4-ac1f8a06ce2b","ios":"levelo://app?vid=4932acf2-2223-4e2f-a3d4-ac1f8a06ce2b"},"vehicle_type_id":"4","last_reported":1732954332,"current_range_meters":38800,"station_id":"ce4bh9p2rcd13ifvqec0","pricing_plan_id":"cebpf4jnsgd1na2vs0mg"},{"bike_id":"9e455e0d-ec4c-43a4-9911-72384dec058c","system_id":"levelo_inurba_marseille","lat":43.31759,"lon":5.39019,"is_reserved":false,"is_disabled":false,"rental_uris":{"android":"levelo://app?vid=9e455e0d-ec4c-43a4-9911-72384dec058c","ios":"levelo://app?vid=9e455e0d-ec4c-43a4-9911-72384dec058c"},"vehicle_type_id":"4","last_reported":1732954332,"current_range_meters":35200,"station_id":"ce4bhqp2rcd13ifvqhng","pricing_plan_id":"cebpf4jnsgd1na2vs0mg"},{"bike_id":"3c241112-0e96-425e-8646-c6f08bf02411","system_id":"levelo_inurba_marseille","lat":43.24651,"lon":5.38893,"is_reserved":false,"is_disabled":true,"rental_uris":{"android":"levelo://app?vid=3c241112-0e96-425e-8646-c6f08bf02411","ios":"levelo://app?vid=3c241112-0e96-425e-8646-c6f08bf02411"},"vehicle_type_id":"4","last_reported":1732954332,"current_range_meters":0,"station_id":"ce4bhg12rcd13ifvqf60","pricing_plan_id":"cebpf4jnsgd1na2vs0mg"},{"bike_id":"6f7949e1-de87-4a49-8620-fec27e04447f","system_id":"levelo_inurba_marseille","lat":43.33731,"lon":5.39182,"is_reserved":false,"is_disabled":false,"rental_uris":{"android":"levelo://app?vid=6f7949e1-de87-4a49-8620-fec27e04447f","ios":"levelo://app?vid=6f7949e1-de87-4a49-8620-fec27e04447f"},"vehicle_type_id":"4","last_reported":1732954332,"current_range_meters":28400,"station_id":"ce4bhr92rcd13ifvqhsg","pricing_plan_id":"cebpf4jnsgd1na2vs0mg"},{"bike_id":"35d571c6-7ee8-402e-b9a9-509c04cc6376","system_id":"levelo_inurba_marseille","lat":43.23196,"lon":5.35547,"is_reserved":false,"is_disabled":false,"rental_uris":{"android":"levelo://app?vid=35d571c6-7ee8-402e-b9a9-509c04cc6376","ios":"levelo://app?vid=35d571c6-7ee8-402e-b9a9-509c04cc6376"},"vehicle_type_id":"4","last_reported":1732954332,"current_range_meters":35200,"station_id":"ce4bhu92rcd13ifvqi70","pricing_plan_id":"cebpf4jnsgd1na2vs0mg"},{"bike_id":"7066298c-8444-4dbb-8e5a-afa45f0890f5","system_id":"levelo_inurba_marseille","lat":43.2886,"lon":5.39316,"is_reserved":false,"is_disabled":true,"rental_uris":{"android":"levelo://app?vid=7066298c-8444-4dbb-8e5a-afa45f0890f5","ios":"levelo://app?vid=7066298c-8444-4dbb-8e5a-afa45f0890f5"},"vehicle_type_id":"4","last_reported":1732954332,"current_range_meters":13600,"station_id":"ce4bh2p2rcd13ifvqdi0","pricing_plan_id":"cebpf4jnsgd1na2vs0mg"},{"bike_id":"79da6e11-068f-4f85-891a-bf5d6033ae1b","system_id":"levelo_inurba_marseille","lat":43.29197,"lon":5.39313,"is_reserved":false,"is_disabled":true,"rental_uris":{"android":"levelo://app?vid=79da6e11-068f-4f85-891a-bf5d6033ae1b","ios":"levelo://app?vid=79da6e11-068f-4f85-891a-bf5d6033ae1b"},"vehicle_type_id":"4","last_reported":1732954332,"current_range_meters":25200,"station_id":"ce4bh192rcd13ifvqdd0","pricing_plan_id":"cebpf4jnsgd1na2vs0mg"},{"bike_id":"ea65bc22-100f-4a7b-a38b-f2659223cf3d","system_id":"levelo_inurba_marseille","lat":43.31998,"lon":5.38149,"is_reserved":false,"is_disabled":false,"rental_uris":{"android":"levelo://app?vid=ea65bc22-100f-4a7b-a38b-f2659223cf3d","ios":"levelo://app?vid=ea65bc22-100f-4a7b-a38b-f2659223cf3d"},"vehicle_type_id":"4","last_reported":1732954332,"current_range_meters":8400,"station_id":"ce4bhr12rcd13ifvqhpg","pricing_plan_id":"cebpf4jnsgd1na2vs0mg"},{"bike_id":"202c6758-d47d-4ccf-87d9-5edb37df6f30","system_id":"levelo_inurba_marseille","lat":43.31885,"lon":5.40729,"is_reserved":false,"is_disabled":false,"rental_uris":{"android":"levelo://app?vid=202c6758-d47d-4ccf-87d9-5edb37df6f30","ios":"levelo://app?vid=202c6758-d47d-4ccf-87d9-5edb37df6f30"},"vehicle_type_id":"4","last_reported":1732954332,"current_range_meters":11200,"station_id":"ce4bhq12rcd13ifvqhig","pricing_plan_id":"cebpf4jnsgd1na2vs0mg"},{"bike_id":"17c3787c-47ed-47fd-9c64-fc0be19f7592","system_id":"levelo_inurba_marseille","lat":43.30421,"lon":5.4128,"is_reserved":false,"is_disabled":false,"rental_uris":{"android":"levelo://app?vid=17c3787c-47ed-47fd-9c64-fc0be19f7592","ios":"levelo://app?vid=17c3787c-47ed-47fd-9c64-fc0be19f7592"},"vehicle_type_id":"4","last_reported":1732954332,"current_range_meters":39200,"station_id":"ce4bhop2rcd13ifvqh8g","pricing_plan_id":"cebpf4jnsgd1na2vs0mg"},{"bike_id":"9df891fc-6fad-4fa6-8d41-90f57311b9ce","system_id":"levelo_inurba_marseille","lat":43.30796,"lon":5.37646,"is_reserved":false,"is_disabled":false,"rental_uris":{"android":"levelo://app?vid=9df891fc-6fad-4fa6-8d41-90f57311b9ce","ios":"levelo://app?vid=9df891fc-6fad-4fa6-8d41-90f57311b9ce"},"vehicle_type_id":"4","last_reported":1732954332,"current_range_meters":32800,"station_id":"ce4bgv92rcd13ifvqcq0","pricing_plan_id":"cebpf4jnsgd1na2vs0mg"},{"bike_id":"e1cf4d4c-7ed0-41a9-a491-42f1836afb55","system_id":"levelo_inurba_marseille","lat":43.29255,"lon":5.40911,"is_reserved":false,"is_disabled":false,"rental_uris":{"android":"levelo://app?vid=e1cf4d4c-7ed0-41a9-a491-42f1836afb55","ios":"levelo://app?vid=e1cf4d4c-7ed0-41a9-a491-42f1836afb55"},"vehicle_type_id":"4","last_reported":1732954332,"current_range_meters":24800,"station_id":"ce4bh192rcd13ifvqdc0","pricing_plan_id":"cebpf4jnsgd1na2vs0mg"},{"bike_id":"528d65f6-3249-49b9-a40a-d6c9edff81cd","system_id":"levelo_inurba_marseille","lat":43.29794,"lon":5.381,"is_reserved":false,"is_disabled":false,"rental_uris":{"android":"levelo://app?vid=528d65f6-3249-49b9-a40a-d6c9edff81cd","ios":"levelo://app?vid=528d65f6-3249-49b9-a40a-d6c9edff81cd"},"vehicle_type_id":"4","last_reported":1732954332,"current_range_meters":22800,"station_id":"ce4bgip2rcd13ifvqbb0","pricing_plan_id":"cebpf4jnsgd1na2vs0mg"},{"bike_id":"54d94b0a-4c56-4afd-bd03-de5e41d25987","system_id":"levelo_inurba_marseille","lat":43.29178,"lon":5.35811,"is_reserved":false,"is_disabled":false,"rental_uris":{"android":"levelo://app?vid=54d94b0a-4c56-4afd-bd03-de5e41d25987","ios":"levelo://app?vid=54d94b0a-4c56-4afd-bd03-de5e41d25987"},"vehicle_type_id":"4","last_reported":1732954332,"current_range_meters":39200,"station_id":"ce4bhb12rcd13ifvqel0","pricing_plan_id":"cebpf4jnsgd1na2vs0mg"},{"bike_id":"98037c3a-9b2c-4fc3-b5c9-984ee3607601","system_id":"levelo_inurba_marseille","lat":43.32362,"lon":5.36762,"is_reserved":false,"is_disabled":false,"rental_uris":{"android":"levelo://app?vid=98037c3a-9b2c-4fc3-b5c9-984ee3607601","ios":"levelo://app?vid=98037c3a-9b2c-4fc3-b5c9-984ee3607601"},"vehicle_type_id":"4","last_reported":1732954332,"current_range_meters":8800,"station_id":"ce4bhsh2rcd13ifvqi2g","pricing_plan_id":"cebpf4jnsgd1na2vs0mg"},{"bike_id":"72c6469a-1b4d-4e1f-a094-3f615b1c9a10","system_id":"levelo_inurba_marseille","lat":43.24672,"lon":5.38162,"is_reserved":false,"is_disabled":false,"rental_uris":{"android":"levelo://app?vid=72c6469a-1b4d-4e1f-a094-3f615b1c9a10","ios":"levelo://app?vid=72c6469a-1b4d-4e1f-a094-3f615b1c9a10"},"vehicle_type_id":"4","last_reported":1732954332,"current_range_meters":7200,"station_id":"ce4bhih2rcd13ifvqfr0","pricing_plan_id":"cebpf4jnsgd1na2vs0mg"},{"bike_id":"d1486dd5-23d4-40bc-bb61-4a3c8126196a","system_id":"levelo_inurba_marseille","lat":43.27372,"lon":5.36259,"is_reserved":false,"is_disabled":false,"rental_uris":{"android":"levelo://app?vid=d1486dd5-23d4-40bc-bb61-4a3c8126196a","ios":"levelo://app?vid=d1486dd5-23d4-40bc-bb61-4a3c8126196a"},"vehicle_type_id":"4","last_reported":1732954332,"current_range_meters":38000,"station_id":"ce4bhbh2rcd13ifvqeo0","pricing_plan_id":"cebpf4jnsgd1na2vs0mg"},{"bike_id":"7592f10e-547a-455d-a833-a190a7972158","system_id":"levelo_inurba_marseille","lat":43.26503,"lon":5.39544,"is_reserved":false,"is_disabled":false,"rental_uris":{"android":"levelo://app?vid=7592f10e-547a-455d-a833-a190a7972158","ios":"levelo://app?vid=7592f10e-547a-455d-a833-a190a7972158"},"vehicle_type_id":"4","last_reported":1732954332,"current_range_meters":32800,"station_id":"ce4bhi12rcd13ifvqfq0","pricing_plan_id":"cebpf4jnsgd1na2vs0mg"},{"bike_id":"5dc9edb1-f8c3-4553-889d-f73c08836757","system_id":"levelo_inurba_marseille","lat":43.32481,"lon":5.36589,"is_reserved":false,"is_disabled":true,"rental_uris":{"android":"levelo://app?vid=5dc9edb1-f8c3-4553-889d-f73c08836757","ios":"levelo://app?vid=5dc9edb1-f8c3-4553-889d-f73c08836757"},"vehicle_type_id":"4","last_reported":1732954332,"current_range_meters":4800,"station_id":"ce4bhs12rcd13ifvqhvg","pricing_plan_id":"cebpf4jnsgd1na2vs0mg"},{"bike_id":"dffce55b-5825-45b9-8f5a-5f372e23ec74","system_id":"levelo_inurba_marseille","lat":43.30359,"lon":5.41879,"is_reserved":false,"is_disabled":false,"rental_uris":{"android":"levelo://app?vid=dffce55b-5825-45b9-8f5a-5f372e23ec74","ios":"levelo://app?vid=dffce55b-5825-45b9-8f5a-5f372e23ec74"},"vehicle_type_id":"4","last_reported":1732954332,"current_range_meters":26000,"station_id":"ce4bhop2rcd13ifvqh7g","pricing_plan_id":"cebpf4jnsgd1na2vs0mg"},{"bike_id":"d350231d-a46d-4666-ba51-f12c2e69a01c","system_id":"levelo_inurba_marseille","lat":43.25718,"lon":5.41113,"is_reserved":false,"is_disabled":false,"rental_uris":{"android":"levelo://app?vid=d350231d-a46d-4666-ba51-f12c2e69a01c","ios":"levelo://app?vid=d350231d-a46d-4666-ba51-f12c2e69a01c"},"vehicle_type_id":"4","last_reported":1732954332,"current_range_meters":40000,"station_id":"ce4bhkp2rcd13ifvqgd0","pricing_plan_id":"cebpf4jnsgd1na2vs0mg"},{"bike_id":"4651a703-59f3-466c-b16b-a4f8e06e86f3","system_id":"levelo_inurba_marseille","lat":43.31169,"lon":5.38719,"is_reserved":false,"is_disabled":false,"rental_uris":{"android":"levelo://app?vid=4651a703-59f3-466c-b16b-a4f8e06e86f3","ios":"levelo://app?vid=4651a703-59f3-466c-b16b-a4f8e06e86f3"},"vehicle_type_id":"4","last_reported":1732954332,"current_range_meters":38800,"station_id":"ce4bgv12rcd13ifvqcp0","pricing_plan_id":"cebpf4jnsgd1na2vs0mg"},{"bike_id":"17e69a6c-e451-444d-a02c-b7faaa4464c2","system_id":"levelo_inurba_marseille","lat":43.30803,"lon":5.38152,"is_reserved":false,"is_disabled":false,"rental_uris":{"android":"levelo://app?vid=17e69a6c-e451-444d-a02c-b7faaa4464c2","ios":"levelo://app?vid=17e69a6c-e451-444d-a02c-b7faaa4464c2"},"vehicle_type_id":"4","last_reported":1732954332,"current_range_meters":30400,"station_id":"ce4bgt12rcd13ifvqce0","pricing_plan_id":"cebpf4jnsgd1na2vs0mg"},{"bike_id":"8938b680-b8f0-439b-aa76-77079135e43c","system_id":"levelo_inurba_marseille","lat":43.31531,"lon":5.3802,"is_reserved":false,"is_disabled":false,"rental_uris":{"android":"levelo://app?vid=8938b680-b8f0-439b-aa76-77079135e43c","ios":"levelo://app?vid=8938b680-b8f0-439b-aa76-77079135e43c"},"vehicle_type_id":"4","last_reported":1732954332,"current_range_meters":32400,"station_id":"ce4bhsp2rcd13ifvqi50","pricing_plan_id":"cebpf4jnsgd1na2vs0mg"},{"bike_id":"ab48ff1d-73d7-44c7-9ef3-0adeaaf25f01","system_id":"levelo_inurba_marseille","lat":43.26936,"lon":5.38924,"is_reserved":false,"is_disabled":true,"rental_uris":{"android":"levelo://app?vid=ab48ff1d-73d7-44c7-9ef3-0adeaaf25f01","ios":"levelo://app?vid=ab48ff1d-73d7-44c7-9ef3-0adeaaf25f01"},"vehicle_type_id":"4","last_reported":1732954332,"current_range_meters":10800,"station_id":"ce4bhhh2rcd13ifvqfl0","pricing_plan_id":"cebpf4jnsgd1na2vs0mg"},{"bike_id":"b2990e50-c96f-464d-8634-bd59a0d64e74","system_id":"levelo_inurba_marseille","lat":43.27073,"lon":5.42274,"is_reserved":false,"is_disabled":false,"rental_uris":{"android":"levelo://app?vid=b2990e50-c96f-464d-8634-bd59a0d64e74","ios":"levelo://app?vid=b2990e50-c96f-464d-8634-bd59a0d64e74"},"vehicle_type_id":"4","last_reported":1732954332,"current_range_meters":24800,"station_id":"ce4bhk92rcd13ifvqgb0","pricing_plan_id":"cebpf4jnsgd1na2vs0mg"},{"bike_id":"14bb2cf6-0492-4a4a-a4d0-9be455e2be16","system_id":"levelo_inurba_marseille","lat":43.29776,"lon":5.37101,"is_reserved":false,"is_disabled":false,"rental_uris":{"android":"levelo://app?vid=14bb2cf6-0492-4a4a-a4d0-9be455e2be16","ios":"levelo://app?vid=14bb2cf6-0492-4a4a-a4d0-9be455e2be16"},"vehicle_type_id":"4","last_reported":1732954332,"current_range_meters":27200,"station_id":"ce4bgop2rcd13ifvqc1g","pricing_plan_id":"cebpf4jnsgd1na2vs0mg"},{"bike_id":"a2e68fbf-bb8a-4931-ad50-eb639c7d0dbc","system_id":"levelo_inurba_marseille","lat":43.32345,"lon":5.40623,"is_reserved":false,"is_disabled":false,"rental_uris":{"android":"levelo://app?vid=a2e68fbf-bb8a-4931-ad50-eb639c7d0dbc","ios":"levelo://app?vid=a2e68fbf-bb8a-4931-ad50-eb639c7d0dbc"},"vehicle_type_id":"4","last_reported":1732954332,"current_range_meters":27600,"station_id":"ce4bhq92rcd13ifvqhjg","pricing_plan_id":"cebpf4jnsgd1na2vs0mg"},{"bike_id":"94ddd20c-e5b2-4c73-a61a-2ac668abc7d2","system_id":"levelo_inurba_marseille","lat":43.32,"lon":5.38134,"is_reserved":false,"is_disabled":false,"rental_uris":{"android":"levelo://app?vid=94ddd20c-e5b2-4c73-a61a-2ac668abc7d2","ios":"levelo://app?vid=94ddd20c-e5b2-4c73-a61a-2ac668abc7d2"},"vehicle_type_id":"4","last_reported":1732954332,"current_range_meters":40000,"station_id":"ce4bhr12rcd13ifvqhpg","pricing_plan_id":"cebpf4jnsgd1na2vs0mg"},{"bike_id":"bede0b8f-6f13-4382-839b-8bf6932ef238","system_id":"levelo_inurba_marseille","lat":43.26562,"lon":5.37279,"is_reserved":false,"is_disabled":false,"rental_uris":{"android":"levelo://app?vid=bede0b8f-6f13-4382-839b-8bf6932ef238","ios":"levelo://app?vid=bede0b8f-6f13-4382-839b-8bf6932ef238"},"vehicle_type_id":"4","last_reported":1732954332,"current_range_meters":32800,"station_id":"ce4bhg12rcd13ifvqf70","pricing_plan_id":"cebpf4jnsgd1na2vs0mg"},{"bike_id":"fe2c00d6-fab6-472b-887d-35960cae9038","system_id":"levelo_inurba_marseille","lat":43.25939,"lon":5.409,"is_reserved":false,"is_disabled":false,"rental_uris":{"android":"levelo://app?vid=fe2c00d6-fab6-472b-887d-35960cae9038","ios":"levelo://app?vid=fe2c00d6-fab6-472b-887d-35960cae9038"},"vehicle_type_id":"4","last_reported":1732954332,"current_range_meters":37600,"station_id":"ce4bhm92rcd13ifvqglg","pricing_plan_id":"cebpf4jnsgd1na2vs0mg"},{"bike_id":"a8a05a46-e048-473f-8214-4a3440980999","system_id":"levelo_inurba_marseille","lat":43.30599,"lon":5.37214,"is_reserved":false,"is_disabled":false,"rental_uris":{"android":"levelo://app?vid=a8a05a46-e048-473f-8214-4a3440980999","ios":"levelo://app?vid=a8a05a46-e048-473f-8214-4a3440980999"},"vehicle_type_id":"4","last_reported":1732954332,"current_range_meters":16800,"station_id":"ce4bgqh2rcd13ifvqc4g","pricing_plan_id":"cebpf4jnsgd1na2vs0mg"},{"bike_id":"4035e70a-9b35-49ff-8763-9565717e2e74","system_id":"levelo_inurba_marseille","lat":43.28453,"lon":5.35891,"is_reserved":false,"is_disabled":true,"rental_uris":{"android":"levelo://app?vid=4035e70a-9b35-49ff-8763-9565717e2e74","ios":"levelo://app?vid=4035e70a-9b35-49ff-8763-9565717e2e74"},"vehicle_type_id":"4","last_reported":1732954332,"current_range_meters":6800,"station_id":"ce4bhah2rcd13ifvqei0","pricing_plan_id":"cebpf4jnsgd1na2vs0mg"},{"bike_id":"bc749360-3ce4-4dd6-a0ac-83aa82c323a7","system_id":"levelo_inurba_marseille","lat":43.28166,"lon":5.42664,"is_reserved":false,"is_disabled":true,"rental_uris":{"android":"levelo://app?vid=bc749360-3ce4-4dd6-a0ac-83aa82c323a7","ios":"levelo://app?vid=bc749360-3ce4-4dd6-a0ac-83aa82c323a7"},"vehicle_type_id":"4","last_reported":1732954332,"current_range_meters":36000,"station_id":"ce4bhnh2rcd13ifvqgug","pricing_plan_id":"cebpf4jnsgd1na2vs0mg"},{"bike_id":"a5083c7e-4a01-446d-8f78-53cc7c6d43ce","system_id":"levelo_inurba_marseille","lat":43.2319,"lon":5.35551,"is_reserved":false,"is_disabled":false,"rental_uris":{"android":"levelo://app?vid=a5083c7e-4a01-446d-8f78-53cc7c6d43ce","ios":"levelo://app?vid=a5083c7e-4a01-446d-8f78-53cc7c6d43ce"},"vehicle_type_id":"4","last_reported":1732954332,"current_range_meters":40000,"station_id":"ce4bhu92rcd13ifvqi70","pricing_plan_id":"cebpf4jnsgd1na2vs0mg"},{"bike_id":"4d4c884f-6933-49c0-8899-f9856d90f44d","system_id":"levelo_inurba_marseille","lat":43.29748,"lon":5.37971,"is_reserved":false,"is_disabled":true,"rental_uris":{"android":"levelo://app?vid=4d4c884f-6933-49c0-8899-f9856d90f44d","ios":"levelo://app?vid=4d4c884f-6933-49c0-8899-f9856d90f44d"},"vehicle_type_id":"4","last_reported":1732954332,"current_range_meters":0,"station_id":"","pricing_plan_id":"cebpf4jnsgd1na2vs0mg"},{"bike_id":"1e969821-f4e9-44c3-a1f6-76f097f06ab9","system_id":"levelo_inurba_marseille","lat":43.32039,"lon":5.41561,"is_reserved":false,"is_disabled":false,"rental_uris":{"android":"levelo://app?vid=1e969821-f4e9-44c3-a1f6-76f097f06ab9","ios":"levelo://app?vid=1e969821-f4e9-44c3-a1f6-76f097f06ab9"},"vehicle_type_id":"4","last_reported":1732954332,"current_range_meters":36000,"station_id":"ce4bhq92rcd13ifvqhkg","pricing_plan_id":"cebpf4jnsgd1na2vs0mg"},{"bike_id":"eb88b9fb-6960-4f98-b10a-39cd42a430f2","system_id":"levelo_inurba_marseille","lat":43.291159,"lon":5.383139,"is_reserved":false,"is_disabled":false,"rental_uris":{"android":"levelo://app?vid=eb88b9fb-6960-4f98-b10a-39cd42a430f2","ios":"levelo://app?vid=eb88b9fb-6960-4f98-b10a-39cd42a430f2"},"vehicle_type_id":"4","last_reported":1732954332,"current_range_meters":34800,"station_id":"","pricing_plan_id":"cebpf4jnsgd1na2vs0mg"},{"bike_id":"ec9ad250-db01-42b8-9736-15127403fe10","system_id":"levelo_inurba_marseille","lat":43.31344,"lon":5.38463,"is_reserved":false,"is_disabled":false,"rental_uris":{"android":"levelo://app?vid=ec9ad250-db01-42b8-9736-15127403fe10","ios":"levelo://app?vid=ec9ad250-db01-42b8-9736-15127403fe10"},"vehicle_type_id":"4","last_reported":1732954332,"current_range_meters":27600,"station_id":"ce4bgt92rcd13ifvqcf0","pricing_plan_id":"cebpf4jnsgd1na2vs0mg"},{"bike_id":"9009be37-c6b1-406b-b0a8-fbab355f715e","system_id":"levelo_inurba_marseille","lat":43.33763,"lon":5.37495,"is_reserved":false,"is_disabled":false,"rental_uris":{"android":"levelo://app?vid=9009be37-c6b1-406b-b0a8-fbab355f715e","ios":"levelo://app?vid=9009be37-c6b1-406b-b0a8-fbab355f715e"},"vehicle_type_id":"4","last_reported":1732954332,"current_range_meters":37600,"station_id":"","pricing_plan_id":"cebpf4jnsgd1na2vs0mg"},{"bike_id":"3fd3c9e9-2a71-460f-909c-9685f3d1b7d4","system_id":"levelo_inurba_marseille","lat":43.25726,"lon":5.4111,"is_reserved":false,"is_disabled":false,"rental_uris":{"android":"levelo://app?vid=3fd3c9e9-2a71-460f-909c-9685f3d1b7d4","ios":"levelo://app?vid=3fd3c9e9-2a71-460f-909c-9685f3d1b7d4"},"vehicle_type_id":"4","last_reported":1732954332,"current_range_meters":27600,"station_id":"ce4bhkp2rcd13ifvqgd0","pricing_plan_id":"cebpf4jnsgd1na2vs0mg"},{"bike_id":"c81e7d9f-2f5c-4377-8a55-0fc1c7e25641","system_id":"levelo_inurba_marseille","lat":43.31712,"lon":5.4371,"is_reserved":false,"is_disabled":false,"rental_uris":{"android":"levelo://app?vid=c81e7d9f-2f5c-4377-8a55-0fc1c7e25641","ios":"levelo://app?vid=c81e7d9f-2f5c-4377-8a55-0fc1c7e25641"},"vehicle_type_id":"4","last_reported":1732954332,"current_range_meters":34800,"station_id":"ce4bhp92rcd13ifvqhcg","pricing_plan_id":"cebpf4jnsgd1na2vs0mg"},{"bike_id":"dceab1d4-12c0-41da-b4ce-858986625686","system_id":"levelo_inurba_marseille","lat":43.29576,"lon":5.37509,"is_reserved":false,"is_disabled":false,"rental_uris":{"android":"levelo://app?vid=dceab1d4-12c0-41da-b4ce-858986625686","ios":"levelo://app?vid=dceab1d4-12c0-41da-b4ce-858986625686"},"vehicle_type_id":"4","last_reported":1732954332,"current_range_meters":24000,"station_id":"ce4bgh92rcd13ifvqb50","pricing_plan_id":"cebpf4jnsgd1na2vs0mg"},{"bike_id":"d2807836-6000-47ca-b96b-95836404774c","system_id":"levelo_inurba_marseille","lat":43.3021,"lon":5.39392,"is_reserved":false,"is_disabled":true,"rental_uris":{"android":"levelo://app?vid=d2807836-6000-47ca-b96b-95836404774c","ios":"levelo://app?vid=d2807836-6000-47ca-b96b-95836404774c"},"vehicle_type_id":"4","last_reported":1732954332,"current_range_meters":9200,"station_id":"","pricing_plan_id":"cebpf4jnsgd1na2vs0mg"},{"bike_id":"be1ea8ae-bb6c-4cc9-9878-4dd6e7c328d6","system_id":"levelo_inurba_marseille","lat":43.32106,"lon":5.36769,"is_reserved":false,"is_disabled":false,"rental_uris":{"android":"levelo://app?vid=be1ea8ae-bb6c-4cc9-9878-4dd6e7c328d6","ios":"levelo://app?vid=be1ea8ae-bb6c-4cc9-9878-4dd6e7c328d6"},"vehicle_type_id":"4","last_reported":1732954332,"current_range_meters":31200,"station_id":"ce4bhrh2rcd13ifvqhug","pricing_plan_id":"cebpf4jnsgd1na2vs0mg"},{"bike_id":"8c9876ea-1b04-44eb-a3de-6d20def82905","system_id":"levelo_inurba_marseille","lat":43.2843,"lon":5.34979,"is_reserved":false,"is_disabled":false,"rental_uris":{"android":"levelo://app?vid=8c9876ea-1b04-44eb-a3de-6d20def82905","ios":"levelo://app?vid=8c9876ea-1b04-44eb-a3de-6d20def82905"},"vehicle_type_id":"4","last_reported":1732954332,"current_range_meters":6800,"station_id":"ce4bhbh2rcd13ifvqepg","pricing_plan_id":"cebpf4jnsgd1na2vs0mg"},{"bike_id":"b1ac7571-eb4e-4f10-b111-5adbf1306f57","system_id":"levelo_inurba_marseille","lat":43.28453,"lon":5.3588,"is_reserved":false,"is_disabled":false,"rental_uris":{"android":"levelo://app?vid=b1ac7571-eb4e-4f10-b111-5adbf1306f57","ios":"levelo://app?vid=b1ac7571-eb4e-4f10-b111-5adbf1306f57"},"vehicle_type_id":"4","last_reported":1732954332,"current_range_meters":38400,"station_id":"ce4bhah2rcd13ifvqei0","pricing_plan_id":"cebpf4jnsgd1na2vs0mg"},{"bike_id":"a2e389d1-e3df-4f18-a79d-5461697ea3a6","system_id":"levelo_inurba_marseille","lat":43.27995,"lon":5.41657,"is_reserved":false,"is_disabled":false,"rental_uris":{"android":"levelo://app?vid=a2e389d1-e3df-4f18-a79d-5461697ea3a6","ios":"levelo://app?vid=a2e389d1-e3df-4f18-a79d-5461697ea3a6"},"vehicle_type_id":"4","last_reported":1732954332,"current_range_meters":17200,"station_id":"ce4bho12rcd13ifvqh1g","pricing_plan_id":"cebpf4jnsgd1na2vs0mg"},{"bike_id":"4ba4bc99-a1ac-4b93-a995-20b892be1c37","system_id":"levelo_inurba_marseille","lat":43.28696,"lon":5.37936,"is_reserved":false,"is_disabled":false,"rental_uris":{"android":"levelo://app?vid=4ba4bc99-a1ac-4b93-a995-20b892be1c37","ios":"levelo://app?vid=4ba4bc99-a1ac-4b93-a995-20b892be1c37"},"vehicle_type_id":"4","last_reported":1732954332,"current_range_meters":10800,"station_id":"ce4bh9p2rcd13ifvqec0","pricing_plan_id":"cebpf4jnsgd1na2vs0mg"},{"bike_id":"77be03dd-3d99-4535-adc0-1c7477c4a3a3","system_id":"levelo_inurba_marseille","lat":43.32284,"lon":5.38277,"is_reserved":false,"is_disabled":false,"rental_uris":{"android":"levelo://app?vid=77be03dd-3d99-4535-adc0-1c7477c4a3a3","ios":"levelo://app?vid=77be03dd-3d99-4535-adc0-1c7477c4a3a3"},"vehicle_type_id":"4","last_reported":1732954332,"current_range_meters":39200,"station_id":"ce4bhr12rcd13ifvqhqg","pricing_plan_id":"cebpf4jnsgd1na2vs0mg"},{"bike_id":"e112b2d7-a173-48ba-a0d4-496073ee9da3","system_id":"levelo_inurba_marseille","lat":43.25002,"lon":5.3892,"is_reserved":false,"is_disabled":false,"rental_uris":{"android":"levelo://app?vid=e112b2d7-a173-48ba-a0d4-496073ee9da3","ios":"levelo://app?vid=e112b2d7-a173-48ba-a0d4-496073ee9da3"},"vehicle_type_id":"4","last_reported":1732954332,"current_range_meters":32400,"station_id":"ce4bhgp2rcd13ifvqfd0","pricing_plan_id":"cebpf4jnsgd1na2vs0mg"},{"bike_id":"f417758e-d5f5-4e46-8e61-41e3114e14c2","system_id":"levelo_inurba_marseille","lat":43.30139,"lon":5.37408,"is_reserved":false,"is_disabled":true,"rental_uris":{"android":"levelo://app?vid=f417758e-d5f5-4e46-8e61-41e3114e14c2","ios":"levelo://app?vid=f417758e-d5f5-4e46-8e61-41e3114e14c2"},"vehicle_type_id":"4","last_reported":1732954332,"current_range_meters":37600,"station_id":"ce4bgs92rcd13ifvqcc0","pricing_plan_id":"cebpf4jnsgd1na2vs0mg"},{"bike_id":"9885a916-0c71-47c7-a92e-d9a2093be9b3","system_id":"levelo_inurba_marseille","lat":43.27989,"lon":5.41664,"is_reserved":false,"is_disabled":false,"rental_uris":{"android":"levelo://app?vid=9885a916-0c71-47c7-a92e-d9a2093be9b3","ios":"levelo://app?vid=9885a916-0c71-47c7-a92e-d9a2093be9b3"},"vehicle_type_id":"4","last_reported":1732954332,"current_range_meters":6800,"station_id":"ce4bho12rcd13ifvqh1g","pricing_plan_id":"cebpf4jnsgd1na2vs0mg"},{"bike_id":"da44d878-f6ff-41ae-8a97-e52ee36bd087","system_id":"levelo_inurba_marseille","lat":43.24805,"lon":5.37455,"is_reserved":false,"is_disabled":false,"rental_uris":{"android":"levelo://app?vid=da44d878-f6ff-41ae-8a97-e52ee36bd087","ios":"levelo://app?vid=da44d878-f6ff-41ae-8a97-e52ee36bd087"},"vehicle_type_id":"4","last_reported":1732954332,"current_range_meters":39200,"station_id":"ce4bhgh2rcd13ifvqfb0","pricing_plan_id":"cebpf4jnsgd1na2vs0mg"},{"bike_id":"ca20ea45-5a00-49af-88ae-1db20fe0c34f","system_id":"levelo_inurba_marseille","lat":43.26938,"lon":5.38917,"is_reserved":false,"is_disabled":true,"rental_uris":{"android":"levelo://app?vid=ca20ea45-5a00-49af-88ae-1db20fe0c34f","ios":"levelo://app?vid=ca20ea45-5a00-49af-88ae-1db20fe0c34f"},"vehicle_type_id":"4","last_reported":1732954332,"current_range_meters":9200,"station_id":"ce4bhhh2rcd13ifvqfl0","pricing_plan_id":"cebpf4jnsgd1na2vs0mg"},{"bike_id":"e8fa7be1-2407-41a7-b843-e7c70f1917ef","system_id":"levelo_inurba_marseille","lat":43.27611,"lon":5.36109,"is_reserved":false,"is_disabled":true,"rental_uris":{"android":"levelo://app?vid=e8fa7be1-2407-41a7-b843-e7c70f1917ef","ios":"levelo://app?vid=e8fa7be1-2407-41a7-b843-e7c70f1917ef"},"vehicle_type_id":"4","last_reported":1732954332,"current_range_meters":0,"station_id":"ce4bgj92rcd13ifvqbe0","pricing_plan_id":"cebpf4jnsgd1na2vs0mg"},{"bike_id":"9b3538b0-69eb-44ab-af07-7d5a8e6eacc5","system_id":"levelo_inurba_marseille","lat":43.3055,"lon":5.36518,"is_reserved":false,"is_disabled":false,"rental_uris":{"android":"levelo://app?vid=9b3538b0-69eb-44ab-af07-7d5a8e6eacc5","ios":"levelo://app?vid=9b3538b0-69eb-44ab-af07-7d5a8e6eacc5"},"vehicle_type_id":"4","last_reported":1732954332,"current_range_meters":38400,"station_id":"ce4bgs12rcd13ifvqcag","pricing_plan_id":"cebpf4jnsgd1na2vs0mg"},{"bike_id":"df0dfc86-7540-4a0c-8976-9af5497d0a2c","system_id":"levelo_inurba_marseille","lat":43.33778,"lon":5.37419,"is_reserved":false,"is_disabled":false,"rental_uris":{"android":"levelo://app?vid=df0dfc86-7540-4a0c-8976-9af5497d0a2c","ios":"levelo://app?vid=df0dfc86-7540-4a0c-8976-9af5497d0a2c"},"vehicle_type_id":"4","last_reported":1732954332,"current_range_meters":38400,"station_id":"","pricing_plan_id":"cebpf4jnsgd1na2vs0mg"},{"bike_id":"30bfb1eb-efd4-46e2-8642-db6631abd18a","system_id":"levelo_inurba_marseille","lat":43.33724,"lon":5.37447,"is_reserved":false,"is_disabled":false,"rental_uris":{"android":"levelo://app?vid=30bfb1eb-efd4-46e2-8642-db6631abd18a","ios":"levelo://app?vid=30bfb1eb-efd4-46e2-8642-db6631abd18a"},"vehicle_type_id":"4","last_reported":1732954332,"current_range_meters":38800,"station_id":"","pricing_plan_id":"cebpf4jnsgd1na2vs0mg"},{"bike_id":"e4d273de-5063-4eee-a2b6-95208d403a93","system_id":"levelo_inurba_marseille","lat":43.29585,"lon":5.38099,"is_reserved":false,"is_disabled":false,"rental_uris":{"android":"levelo://app?vid=e4d273de-5063-4eee-a2b6-95208d403a93","ios":"levelo://app?vid=e4d273de-5063-4eee-a2b6-95208d403a93"},"vehicle_type_id":"4","last_reported":1732954332,"current_range_meters":39200,"station_id":"ce4bgl12rcd13ifvqbo0","pricing_plan_id":"cebpf4jnsgd1na2vs0mg"},{"bike_id":"b64c6095-9d78-4b69-b855-374d2a38d0a7","system_id":"levelo_inurba_marseille","lat":43.27614,"lon":5.36118,"is_reserved":false,"is_disabled":false,"rental_uris":{"android":"levelo://app?vid=b64c6095-9d78-4b69-b855-374d2a38d0a7","ios":"levelo://app?vid=b64c6095-9d78-4b69-b855-374d2a38d0a7"},"vehicle_type_id":"4","last_reported":1732954332,"current_range_meters":39200,"station_id":"ce4bgj92rcd13ifvqbe0","pricing_plan_id":"cebpf4jnsgd1na2vs0mg"},{"bike_id":"7673869c-5eae-412b-abb2-407999f3b948","system_id":"levelo_inurba_marseille","lat":43.27055,"lon":5.4026,"is_reserved":false,"is_disabled":false,"rental_uris":{"android":"levelo://app?vid=7673869c-5eae-412b-abb2-407999f3b948","ios":"levelo://app?vid=7673869c-5eae-412b-abb2-407999f3b948"},"vehicle_type_id":"4","last_reported":1732954332,"current_range_meters":29600,"station_id":"ce4bhk92rcd13ifvqgc0","pricing_plan_id":"cebpf4jnsgd1na2vs0mg"},{"bike_id":"fabde995-f4f4-4e9e-9566-9008d3ad1448","system_id":"levelo_inurba_marseille","lat":43.28272,"lon":5.35052,"is_reserved":false,"is_disabled":false,"rental_uris":{"android":"levelo://app?vid=fabde995-f4f4-4e9e-9566-9008d3ad1448","ios":"levelo://app?vid=fabde995-f4f4-4e9e-9566-9008d3ad1448"},"vehicle_type_id":"4","last_reported":1732954332,"current_range_meters":20800,"station_id":"ce4bhbp2rcd13ifvqerg","pricing_plan_id":"cebpf4jnsgd1na2vs0mg"},{"bike_id":"52c69f8e-0168-4124-8e60-bec2f76dc5c6","system_id":"levelo_inurba_marseille","lat":43.23153,"lon":5.43706,"is_reserved":false,"is_disabled":false,"rental_uris":{"android":"levelo://app?vid=52c69f8e-0168-4124-8e60-bec2f76dc5c6","ios":"levelo://app?vid=52c69f8e-0168-4124-8e60-bec2f76dc5c6"},"vehicle_type_id":"4","last_reported":1732954332,"current_range_meters":4800,"station_id":"ce4bhmp2rcd13ifvqgog","pricing_plan_id":"cebpf4jnsgd1na2vs0mg"},{"bike_id":"3ca8d527-6c31-4160-8bc9-0dbae13780f9","system_id":"levelo_inurba_marseille","lat":43.28451,"lon":5.35882,"is_reserved":false,"is_disabled":false,"rental_uris":{"android":"levelo://app?vid=3ca8d527-6c31-4160-8bc9-0dbae13780f9","ios":"levelo://app?vid=3ca8d527-6c31-4160-8bc9-0dbae13780f9"},"vehicle_type_id":"4","last_reported":1732954332,"current_range_meters":18000,"station_id":"ce4bhah2rcd13ifvqei0","pricing_plan_id":"cebpf4jnsgd1na2vs0mg"},{"bike_id":"c074ca47-64f6-4069-b08a-8151f9f4825b","system_id":"levelo_inurba_marseille","lat":43.28286,"lon":5.35076,"is_reserved":false,"is_disabled":false,"rental_uris":{"android":"levelo://app?vid=c074ca47-64f6-4069-b08a-8151f9f4825b","ios":"levelo://app?vid=c074ca47-64f6-4069-b08a-8151f9f4825b"},"vehicle_type_id":"4","last_reported":1732954332,"current_range_meters":38800,"station_id":"ce4bhbp2rcd13ifvqerg","pricing_plan_id":"cebpf4jnsgd1na2vs0mg"},{"bike_id":"92de0aec-7fd7-4b0f-836a-d45b7677365d","system_id":"levelo_inurba_marseille","lat":43.24988,"lon":5.38934,"is_reserved":false,"is_disabled":false,"rental_uris":{"android":"levelo://app?vid=92de0aec-7fd7-4b0f-836a-d45b7677365d","ios":"levelo://app?vid=92de0aec-7fd7-4b0f-836a-d45b7677365d"},"vehicle_type_id":"4","last_reported":1732954332,"current_range_meters":40000,"station_id":"ce4bhgp2rcd13ifvqfd0","pricing_plan_id":"cebpf4jnsgd1na2vs0mg"},{"bike_id":"c254f6a2-7ff1-4f96-adb7-8a7ee1b965ce","system_id":"levelo_inurba_marseille","lat":43.29631,"lon":5.3771,"is_reserved":false,"is_disabled":false,"rental_uris":{"android":"levelo://app?vid=c254f6a2-7ff1-4f96-adb7-8a7ee1b965ce","ios":"levelo://app?vid=c254f6a2-7ff1-4f96-adb7-8a7ee1b965ce"},"vehicle_type_id":"4","last_reported":1732954332,"current_range_meters":32000,"station_id":"ce4bgi92rcd13ifvqb90","pricing_plan_id":"cebpf4jnsgd1na2vs0mg"},{"bike_id":"4a2be555-d056-454c-bed3-fe781ba86f8e","system_id":"levelo_inurba_marseille","lat":43.25886,"lon":5.39954,"is_reserved":false,"is_disabled":true,"rental_uris":{"android":"levelo://app?vid=4a2be555-d056-454c-bed3-fe781ba86f8e","ios":"levelo://app?vid=4a2be555-d056-454c-bed3-fe781ba86f8e"},"vehicle_type_id":"4","last_reported":1732954332,"current_range_meters":0,"station_id":"","pricing_plan_id":"cebpf4jnsgd1na2vs0mg"},{"bike_id":"8f22ce9f-b266-4291-a09b-63ff117ff1ad","system_id":"levelo_inurba_marseille","lat":43.3248,"lon":5.36556,"is_reserved":false,"is_disabled":false,"rental_uris":{"android":"levelo://app?vid=8f22ce9f-b266-4291-a09b-63ff117ff1ad","ios":"levelo://app?vid=8f22ce9f-b266-4291-a09b-63ff117ff1ad"},"vehicle_type_id":"4","last_reported":1732954332,"current_range_meters":37600,"station_id":"ce4bhs12rcd13ifvqhvg","pricing_plan_id":"cebpf4jnsgd1na2vs0mg"},{"bike_id":"e7409b42-c149-4b21-bac4-0ccaf55b69e0","system_id":"levelo_inurba_marseille","lat":43.2959,"lon":5.38089,"is_reserved":false,"is_disabled":true,"rental_uris":{"android":"levelo://app?vid=e7409b42-c149-4b21-bac4-0ccaf55b69e0","ios":"levelo://app?vid=e7409b42-c149-4b21-bac4-0ccaf55b69e0"},"vehicle_type_id":"4","last_reported":1732954332,"current_range_meters":31200,"station_id":"ce4bgl12rcd13ifvqbo0","pricing_plan_id":"cebpf4jnsgd1na2vs0mg"},{"bike_id":"5a53a60d-2145-4c23-9396-79a04889fb7f","system_id":"levelo_inurba_marseille","lat":43.29527,"lon":5.38548,"is_reserved":false,"is_disabled":false,"rental_uris":{"android":"levelo://app?vid=5a53a60d-2145-4c23-9396-79a04889fb7f","ios":"levelo://app?vid=5a53a60d-2145-4c23-9396-79a04889fb7f"},"vehicle_type_id":"4","last_reported":1732954332,"current_range_meters":37600,"station_id":"ce4bgih2rcd13ifvqba0","pricing_plan_id":"cebpf4jnsgd1na2vs0mg"},{"bike_id":"8ac1d851-4d76-4c23-a9e9-b3ad0f0f4bf1","system_id":"levelo_inurba_marseille","lat":43.32339,"lon":5.40618,"is_reserved":false,"is_disabled":false,"rental_uris":{"android":"levelo://app?vid=8ac1d851-4d76-4c23-a9e9-b3ad0f0f4bf1","ios":"levelo://app?vid=8ac1d851-4d76-4c23-a9e9-b3ad0f0f4bf1"},"vehicle_type_id":"4","last_reported":1732954332,"current_range_meters":38800,"station_id":"ce4bhq92rcd13ifvqhjg","pricing_plan_id":"cebpf4jnsgd1na2vs0mg"},{"bike_id":"24998420-0380-4723-9afc-291d57f3e3d8","system_id":"levelo_inurba_marseille","lat":43.25721,"lon":5.41111,"is_reserved":false,"is_disabled":false,"rental_uris":{"android":"levelo://app?vid=24998420-0380-4723-9afc-291d57f3e3d8","ios":"levelo://app?vid=24998420-0380-4723-9afc-291d57f3e3d8"},"vehicle_type_id":"4","last_reported":1732954332,"current_range_meters":30800,"station_id":"ce4bhkp2rcd13ifvqgd0","pricing_plan_id":"cebpf4jnsgd1na2vs0mg"},{"bike_id":"80ee5806-271f-4b24-a602-2dc27d804313","system_id":"levelo_inurba_marseille","lat":43.32109,"lon":5.36767,"is_reserved":false,"is_disabled":false,"rental_uris":{"android":"levelo://app?vid=80ee5806-271f-4b24-a602-2dc27d804313","ios":"levelo://app?vid=80ee5806-271f-4b24-a602-2dc27d804313"},"vehicle_type_id":"4","last_reported":1732954332,"current_range_meters":10000,"station_id":"ce4bhrh2rcd13ifvqhug","pricing_plan_id":"cebpf4jnsgd1na2vs0mg"},{"bike_id":"a99e441f-fcb3-4edf-8132-a5c34ea369bf","system_id":"levelo_inurba_marseille","lat":43.26939,"lon":5.402524,"is_reserved":false,"is_disabled":false,"rental_uris":{"android":"levelo://app?vid=a99e441f-fcb3-4edf-8132-a5c34ea369bf","ios":"levelo://app?vid=a99e441f-fcb3-4edf-8132-a5c34ea369bf"},"vehicle_type_id":"4","last_reported":1732954332,"current_range_meters":37600,"station_id":"cjm6bp8fraef2m0cb0m0","pricing_plan_id":"cebpf4jnsgd1na2vs0mg"},{"bike_id":"1d70e936-a5c9-4092-b55e-bd5c3d620336","system_id":"levelo_inurba_marseille","lat":43.28102,"lon":5.37827,"is_reserved":false,"is_disabled":false,"rental_uris":{"android":"levelo://app?vid=1d70e936-a5c9-4092-b55e-bd5c3d620336","ios":"levelo://app?vid=1d70e936-a5c9-4092-b55e-bd5c3d620336"},"vehicle_type_id":"4","last_reported":1732954332,"current_range_meters":29600,"station_id":"ce4bha12rcd13ifvqee0","pricing_plan_id":"cebpf4jnsgd1na2vs0mg"},{"bike_id":"02f26013-175c-4f0d-9789-bf18d7b3ed8c","system_id":"levelo_inurba_marseille","lat":43.28272,"lon":5.35056,"is_reserved":false,"is_disabled":false,"rental_uris":{"android":"levelo://app?vid=02f26013-175c-4f0d-9789-bf18d7b3ed8c","ios":"levelo://app?vid=02f26013-175c-4f0d-9789-bf18d7b3ed8c"},"vehicle_type_id":"4","last_reported":1732954332,"current_range_meters":37600,"station_id":"ce4bhbp2rcd13ifvqerg","pricing_plan_id":"cebpf4jnsgd1na2vs0mg"},{"bike_id":"3032096e-cca7-4267-a12b-d258401708bb","system_id":"levelo_inurba_marseille","lat":43.28038,"lon":5.3694,"is_reserved":false,"is_disabled":false,"rental_uris":{"android":"levelo://app?vid=3032096e-cca7-4267-a12b-d258401708bb","ios":"levelo://app?vid=3032096e-cca7-4267-a12b-d258401708bb"},"vehicle_type_id":"4","last_reported":1732954332,"current_range_meters":38000,"station_id":"ce4bha12rcd13ifvqef0","pricing_plan_id":"cebpf4jnsgd1na2vs0mg"},{"bike_id":"981f5323-76ee-4aff-abdb-308b2ece5ca8","system_id":"levelo_inurba_marseille","lat":43.33724,"lon":5.3918,"is_reserved":false,"is_disabled":false,"rental_uris":{"android":"levelo://app?vid=981f5323-76ee-4aff-abdb-308b2ece5ca8","ios":"levelo://app?vid=981f5323-76ee-4aff-abdb-308b2ece5ca8"},"vehicle_type_id":"4","last_reported":1732954332,"current_range_meters":39200,"station_id":"ce4bhr92rcd13ifvqhsg","pricing_plan_id":"cebpf4jnsgd1na2vs0mg"},{"bike_id":"81d9f7be-c3c6-4233-bf11-948e6f22debc","system_id":"levelo_inurba_marseille","lat":43.32364,"lon":5.38878,"is_reserved":false,"is_disabled":false,"rental_uris":{"android":"levelo://app?vid=81d9f7be-c3c6-4233-bf11-948e6f22debc","ios":"levelo://app?vid=81d9f7be-c3c6-4233-bf11-948e6f22debc"},"vehicle_type_id":"4","last_reported":1732954332,"current_range_meters":32000,"station_id":"ce4bhqp2rcd13ifvqhog","pricing_plan_id":"cebpf4jnsgd1na2vs0mg"},{"bike_id":"1eede84d-8533-480b-beca-64379132784d","system_id":"levelo_inurba_marseille","lat":43.33019,"lon":5.39036,"is_reserved":false,"is_disabled":false,"rental_uris":{"android":"levelo://app?vid=1eede84d-8533-480b-beca-64379132784d","ios":"levelo://app?vid=1eede84d-8533-480b-beca-64379132784d"},"vehicle_type_id":"4","last_reported":1732954332,"current_range_meters":38000,"station_id":"ce4bhr92rcd13ifvqhrg","pricing_plan_id":"cebpf4jnsgd1na2vs0mg"},{"bike_id":"def90535-8063-4c54-b688-08f7d163ce9a","system_id":"levelo_inurba_marseille","lat":43.29422,"lon":5.38618,"is_reserved":false,"is_disabled":true,"rental_uris":{"android":"levelo://app?vid=def90535-8063-4c54-b688-08f7d163ce9a","ios":"levelo://app?vid=def90535-8063-4c54-b688-08f7d163ce9a"},"vehicle_type_id":"4","last_reported":1732954332,"current_range_meters":0,"station_id":"ce4bh2h2rcd13ifvqdh0","pricing_plan_id":"cebpf4jnsgd1na2vs0mg"},{"bike_id":"af97a686-7dba-4ece-b2c8-70582f2b6789","system_id":"levelo_inurba_marseille","lat":43.25118,"lon":5.4032,"is_reserved":false,"is_disabled":false,"rental_uris":{"android":"levelo://app?vid=af97a686-7dba-4ece-b2c8-70582f2b6789","ios":"levelo://app?vid=af97a686-7dba-4ece-b2c8-70582f2b6789"},"vehicle_type_id":"4","last_reported":1732954332,"current_range_meters":40000,"station_id":"ce4bhlh2rcd13ifvqgig","pricing_plan_id":"cebpf4jnsgd1na2vs0mg"},{"bike_id":"9c868faa-a859-4a44-b8e7-f9fcd3ce3d61","system_id":"levelo_inurba_marseille","lat":43.27942,"lon":5.41042,"is_reserved":false,"is_disabled":false,"rental_uris":{"android":"levelo://app?vid=9c868faa-a859-4a44-b8e7-f9fcd3ce3d61","ios":"levelo://app?vid=9c868faa-a859-4a44-b8e7-f9fcd3ce3d61"},"vehicle_type_id":"4","last_reported":1732954332,"current_range_meters":20800,"station_id":"ce4bhnp2rcd13ifvqh0g","pricing_plan_id":"cebpf4jnsgd1na2vs0mg"},{"bike_id":"ab1db49f-701c-4711-8b20-531372b5e60f","system_id":"levelo_inurba_marseille","lat":43.32642,"lon":5.37532,"is_reserved":false,"is_disabled":false,"rental_uris":{"android":"levelo://app?vid=ab1db49f-701c-4711-8b20-531372b5e60f","ios":"levelo://app?vid=ab1db49f-701c-4711-8b20-531372b5e60f"},"vehicle_type_id":"4","last_reported":1732954332,"current_range_meters":33600,"station_id":"","pricing_plan_id":"cebpf4jnsgd1na2vs0mg"},{"bike_id":"29a80c71-9648-4a26-b6c9-5f69092eaa01","system_id":"levelo_inurba_marseille","lat":43.2707,"lon":5.42279,"is_reserved":false,"is_disabled":true,"rental_uris":{"android":"levelo://app?vid=29a80c71-9648-4a26-b6c9-5f69092eaa01","ios":"levelo://app?vid=29a80c71-9648-4a26-b6c9-5f69092eaa01"},"vehicle_type_id":"4","last_reported":1732954332,"current_range_meters":40000,"station_id":"ce4bhk92rcd13ifvqgb0","pricing_plan_id":"cebpf4jnsgd1na2vs0mg"},{"bike_id":"6179da37-d06b-4e7f-84ec-990f5fbc58c6","system_id":"levelo_inurba_marseille","lat":43.30801,"lon":5.38154,"is_reserved":false,"is_disabled":false,"rental_uris":{"android":"levelo://app?vid=6179da37-d06b-4e7f-84ec-990f5fbc58c6","ios":"levelo://app?vid=6179da37-d06b-4e7f-84ec-990f5fbc58c6"},"vehicle_type_id":"4","last_reported":1732954332,"current_range_meters":39200,"station_id":"ce4bgt12rcd13ifvqce0","pricing_plan_id":"cebpf4jnsgd1na2vs0mg"},{"bike_id":"f881fa43-b9ae-4a00-a03d-424f20a920b7","system_id":"levelo_inurba_marseille","lat":43.30143,"lon":5.38084,"is_reserved":false,"is_disabled":false,"rental_uris":{"android":"levelo://app?vid=f881fa43-b9ae-4a00-a03d-424f20a920b7","ios":"levelo://app?vid=f881fa43-b9ae-4a00-a03d-424f20a920b7"},"vehicle_type_id":"4","last_reported":1732954332,"current_range_meters":11600,"station_id":"ce4bgjp2rcd13ifvqbh0","pricing_plan_id":"cebpf4jnsgd1na2vs0mg"},{"bike_id":"73c872b6-b245-4557-afe2-6504b31215d2","system_id":"levelo_inurba_marseille","lat":43.33738,"lon":5.37457,"is_reserved":false,"is_disabled":false,"rental_uris":{"android":"levelo://app?vid=73c872b6-b245-4557-afe2-6504b31215d2","ios":"levelo://app?vid=73c872b6-b245-4557-afe2-6504b31215d2"},"vehicle_type_id":"4","last_reported":1732954332,"current_range_meters":39200,"station_id":"","pricing_plan_id":"cebpf4jnsgd1na2vs0mg"},{"bike_id":"4a9d6e1f-1828-4869-9bb6-c94fb652e1a9","system_id":"levelo_inurba_marseille","lat":43.22934,"lon":5.35378,"is_reserved":false,"is_disabled":false,"rental_uris":{"android":"levelo://app?vid=4a9d6e1f-1828-4869-9bb6-c94fb652e1a9","ios":"levelo://app?vid=4a9d6e1f-1828-4869-9bb6-c94fb652e1a9"},"vehicle_type_id":"4","last_reported":1732954332,"current_range_meters":39200,"station_id":"cpo3532slgdg3j2ikp40","pricing_plan_id":"cebpf4jnsgd1na2vs0mg"},{"bike_id":"0174841e-8011-4a7b-bd18-480101bee765","system_id":"levelo_inurba_marseille","lat":43.2396,"lon":5.36627,"is_reserved":false,"is_disabled":true,"rental_uris":{"android":"levelo://app?vid=0174841e-8011-4a7b-bd18-480101bee765","ios":"levelo://app?vid=0174841e-8011-4a7b-bd18-480101bee765"},"vehicle_type_id":"4","last_reported":1732954332,"current_range_meters":0,"station_id":"ce4bhi12rcd13ifvqfp0","pricing_plan_id":"cebpf4jnsgd1na2vs0mg"},{"bike_id":"595436af-3776-4ed6-8a65-8bf391051f86","system_id":"levelo_inurba_marseille","lat":43.26209,"lon":5.37438,"is_reserved":false,"is_disabled":false,"rental_uris":{"android":"levelo://app?vid=595436af-3776-4ed6-8a65-8bf391051f86","ios":"levelo://app?vid=595436af-3776-4ed6-8a65-8bf391051f86"},"vehicle_type_id":"4","last_reported":1732954332,"current_range_meters":37600,"station_id":"ce4bhgp2rcd13ifvqfc0","pricing_plan_id":"cebpf4jnsgd1na2vs0mg"},{"bike_id":"fd405db4-6f5b-4763-b335-7a51479a2ea9","system_id":"levelo_inurba_marseille","lat":43.25581,"lon":5.38229,"is_reserved":false,"is_disabled":false,"rental_uris":{"android":"levelo://app?vid=fd405db4-6f5b-4763-b335-7a51479a2ea9","ios":"levelo://app?vid=fd405db4-6f5b-4763-b335-7a51479a2ea9"},"vehicle_type_id":"4","last_reported":1732954332,"current_range_meters":33200,"station_id":"ce4bhih2rcd13ifvqfs0","pricing_plan_id":"cebpf4jnsgd1na2vs0mg"},{"bike_id":"52c5ec48-d9d2-4224-8f63-3b7560e41bcc","system_id":"levelo_inurba_marseille","lat":43.24176,"lon":5.39735,"is_reserved":false,"is_disabled":false,"rental_uris":{"android":"levelo://app?vid=52c5ec48-d9d2-4224-8f63-3b7560e41bcc","ios":"levelo://app?vid=52c5ec48-d9d2-4224-8f63-3b7560e41bcc"},"vehicle_type_id":"4","last_reported":1732954332,"current_range_meters":40000,"station_id":"ce4bhn12rcd13ifvqgpg","pricing_plan_id":"cebpf4jnsgd1na2vs0mg"},{"bike_id":"a233b25b-869e-422b-bf5e-63d3d8ff686f","system_id":"levelo_inurba_marseille","lat":43.30927,"lon":5.4014,"is_reserved":false,"is_disabled":true,"rental_uris":{"android":"levelo://app?vid=a233b25b-869e-422b-bf5e-63d3d8ff686f","ios":"levelo://app?vid=a233b25b-869e-422b-bf5e-63d3d8ff686f"},"vehicle_type_id":"4","last_reported":1732954332,"current_range_meters":25600,"station_id":"ce4bgvp2rcd13ifvqct0","pricing_plan_id":"cebpf4jnsgd1na2vs0mg"},{"bike_id":"9b43fa90-8002-406b-9078-95708d067095","system_id":"levelo_inurba_marseille","lat":43.28726,"lon":5.36081,"is_reserved":false,"is_disabled":false,"rental_uris":{"android":"levelo://app?vid=9b43fa90-8002-406b-9078-95708d067095","ios":"levelo://app?vid=9b43fa90-8002-406b-9078-95708d067095"},"vehicle_type_id":"4","last_reported":1732954332,"current_range_meters":40000,"station_id":"cki0cbj6b192h4jlfktg","pricing_plan_id":"cebpf4jnsgd1na2vs0mg"},{"bike_id":"759518f4-9f32-4b72-97fe-df61c6c7bd05","system_id":"levelo_inurba_marseille","lat":43.31263,"lon":5.40169,"is_reserved":false,"is_disabled":true,"rental_uris":{"android":"levelo://app?vid=759518f4-9f32-4b72-97fe-df61c6c7bd05","ios":"levelo://app?vid=759518f4-9f32-4b72-97fe-df61c6c7bd05"},"vehicle_type_id":"4","last_reported":1732954332,"current_range_meters":3600,"station_id":"ce4bh092rcd13ifvqd30","pricing_plan_id":"cebpf4jnsgd1na2vs0mg"},{"bike_id":"ae2dbdc5-0973-4b7d-8b99-588d10a21c6f","system_id":"levelo_inurba_marseille","lat":43.25728,"lon":5.41109,"is_reserved":false,"is_disabled":false,"rental_uris":{"android":"levelo://app?vid=ae2dbdc5-0973-4b7d-8b99-588d10a21c6f","ios":"levelo://app?vid=ae2dbdc5-0973-4b7d-8b99-588d10a21c6f"},"vehicle_type_id":"4","last_reported":1732954332,"current_range_meters":38000,"station_id":"ce4bhkp2rcd13ifvqgd0","pricing_plan_id":"cebpf4jnsgd1na2vs0mg"},{"bike_id":"1b3b427b-40ff-4765-af70-a947ea74cceb","system_id":"levelo_inurba_marseille","lat":43.27206,"lon":5.39183,"is_reserved":false,"is_disabled":false,"rental_uris":{"android":"levelo://app?vid=1b3b427b-40ff-4765-af70-a947ea74cceb","ios":"levelo://app?vid=1b3b427b-40ff-4765-af70-a947ea74cceb"},"vehicle_type_id":"4","last_reported":1732954332,"current_range_meters":30000,"station_id":"ce4bhhp2rcd13ifvqfm0","pricing_plan_id":"cebpf4jnsgd1na2vs0mg"},{"bike_id":"ac2a4554-ffe0-4e28-9df7-abf3737df124","system_id":"levelo_inurba_marseille","lat":43.24653,"lon":5.38895,"is_reserved":false,"is_disabled":false,"rental_uris":{"android":"levelo://app?vid=ac2a4554-ffe0-4e28-9df7-abf3737df124","ios":"levelo://app?vid=ac2a4554-ffe0-4e28-9df7-abf3737df124"},"vehicle_type_id":"4","last_reported":1732954332,"current_range_meters":40000,"station_id":"ce4bhg12rcd13ifvqf60","pricing_plan_id":"cebpf4jnsgd1na2vs0mg"},{"bike_id":"c5c7361c-2d40-4073-aab7-dcc86c40915b","system_id":"levelo_inurba_marseille","lat":43.26055,"lon":5.39397,"is_reserved":false,"is_disabled":false,"rental_uris":{"android":"levelo://app?vid=c5c7361c-2d40-4073-aab7-dcc86c40915b","ios":"levelo://app?vid=c5c7361c-2d40-4073-aab7-dcc86c40915b"},"vehicle_type_id":"4","last_reported":1732954332,"current_range_meters":33600,"station_id":"ce4bhh92rcd13ifvqfj0","pricing_plan_id":"cebpf4jnsgd1na2vs0mg"},{"bike_id":"619527db-d955-4500-890a-be5a78967425","system_id":"levelo_inurba_marseille","lat":43.23958,"lon":5.36637,"is_reserved":false,"is_disabled":false,"rental_uris":{"android":"levelo://app?vid=619527db-d955-4500-890a-be5a78967425","ios":"levelo://app?vid=619527db-d955-4500-890a-be5a78967425"},"vehicle_type_id":"4","last_reported":1732954332,"current_range_meters":39200,"station_id":"ce4bhi12rcd13ifvqfp0","pricing_plan_id":"cebpf4jnsgd1na2vs0mg"},{"bike_id":"76825390-f7dd-4a7d-90c0-4569087e47d3","system_id":"levelo_inurba_marseille","lat":43.28469,"lon":5.38415,"is_reserved":false,"is_disabled":false,"rental_uris":{"android":"levelo://app?vid=76825390-f7dd-4a7d-90c0-4569087e47d3","ios":"levelo://app?vid=76825390-f7dd-4a7d-90c0-4569087e47d3"},"vehicle_type_id":"4","last_reported":1732954332,"current_range_meters":39200,"station_id":"ce4bh512rcd13ifvqe3g","pricing_plan_id":"cebpf4jnsgd1na2vs0mg"},{"bike_id":"c2d172e1-98e6-4a29-80b6-476b9c5f1669","system_id":"levelo_inurba_marseille","lat":43.27621,"lon":5.361198,"is_reserved":false,"is_disabled":false,"rental_uris":{"android":"levelo://app?vid=c2d172e1-98e6-4a29-80b6-476b9c5f1669","ios":"levelo://app?vid=c2d172e1-98e6-4a29-80b6-476b9c5f1669"},"vehicle_type_id":"4","last_reported":1732954332,"current_range_meters":38800,"station_id":"ce4bgj92rcd13ifvqbe0","pricing_plan_id":"cebpf4jnsgd1na2vs0mg"},{"bike_id":"01dd4a61-2932-478c-bb90-a182878898af","system_id":"levelo_inurba_marseille","lat":43.31528,"lon":5.38031,"is_reserved":false,"is_disabled":false,"rental_uris":{"android":"levelo://app?vid=01dd4a61-2932-478c-bb90-a182878898af","ios":"levelo://app?vid=01dd4a61-2932-478c-bb90-a182878898af"},"vehicle_type_id":"4","last_reported":1732954332,"current_range_meters":40000,"station_id":"ce4bhsp2rcd13ifvqi50","pricing_plan_id":"cebpf4jnsgd1na2vs0mg"},{"bike_id":"62de3223-e4ff-4977-a3dc-7f3ac2d85836","system_id":"levelo_inurba_marseille","lat":43.2696,"lon":5.38625,"is_reserved":false,"is_disabled":false,"rental_uris":{"android":"levelo://app?vid=62de3223-e4ff-4977-a3dc-7f3ac2d85836","ios":"levelo://app?vid=62de3223-e4ff-4977-a3dc-7f3ac2d85836"},"vehicle_type_id":"4","last_reported":1732954332,"current_range_meters":40000,"station_id":"ce4bhh92rcd13ifvqfh0","pricing_plan_id":"cebpf4jnsgd1na2vs0mg"},{"bike_id":"280db94a-4ac4-4031-b0d5-2e80acdca75b","system_id":"levelo_inurba_marseille","lat":43.30688,"lon":5.40017,"is_reserved":false,"is_disabled":true,"rental_uris":{"android":"levelo://app?vid=280db94a-4ac4-4031-b0d5-2e80acdca75b","ios":"levelo://app?vid=280db94a-4ac4-4031-b0d5-2e80acdca75b"},"vehicle_type_id":"4","last_reported":1732954332,"current_range_meters":800,"station_id":"","pricing_plan_id":"cebpf4jnsgd1na2vs0mg"},{"bike_id":"1a4e3ebd-f293-4b4f-b096-b7a1aecc2497","system_id":"levelo_inurba_marseille","lat":43.28928,"lon":5.36644,"is_reserved":false,"is_disabled":false,"rental_uris":{"android":"levelo://app?vid=1a4e3ebd-f293-4b4f-b096-b7a1aecc2497","ios":"levelo://app?vid=1a4e3ebd-f293-4b4f-b096-b7a1aecc2497"},"vehicle_type_id":"4","last_reported":1732954332,"current_range_meters":33600,"station_id":"ce4bhap2rcd13ifvqek0","pricing_plan_id":"cebpf4jnsgd1na2vs0mg"},{"bike_id":"c872430b-cdb2-4c01-90a7-0a81173bfaa1","system_id":"levelo_inurba_marseille","lat":43.279888,"lon":5.416668,"is_reserved":false,"is_disabled":false,"rental_uris":{"android":"levelo://app?vid=c872430b-cdb2-4c01-90a7-0a81173bfaa1","ios":"levelo://app?vid=c872430b-cdb2-4c01-90a7-0a81173bfaa1"},"vehicle_type_id":"4","last_reported":1732954332,"current_range_meters":38800,"station_id":"ce4bho12rcd13ifvqh1g","pricing_plan_id":"cebpf4jnsgd1na2vs0mg"},{"bike_id":"72301ac3-d606-4ecf-ad19-ac87440aadae","system_id":"levelo_inurba_marseille","lat":43.30593,"lon":5.3721,"is_reserved":false,"is_disabled":false,"rental_uris":{"android":"levelo://app?vid=72301ac3-d606-4ecf-ad19-ac87440aadae","ios":"levelo://app?vid=72301ac3-d606-4ecf-ad19-ac87440aadae"},"vehicle_type_id":"4","last_reported":1732954332,"current_range_meters":36000,"station_id":"ce4bgqh2rcd13ifvqc4g","pricing_plan_id":"cebpf4jnsgd1na2vs0mg"},{"bike_id":"5e26e009-6985-46ee-9ed1-507de1619990","system_id":"levelo_inurba_marseille","lat":43.29892,"lon":5.43668,"is_reserved":false,"is_disabled":false,"rental_uris":{"android":"levelo://app?vid=5e26e009-6985-46ee-9ed1-507de1619990","ios":"levelo://app?vid=5e26e009-6985-46ee-9ed1-507de1619990"},"vehicle_type_id":"4","last_reported":1732954332,"current_range_meters":19600,"station_id":"ce4bhpp2rcd13ifvqhfg","pricing_plan_id":"cebpf4jnsgd1na2vs0mg"},{"bike_id":"06448cf4-5db2-4556-ae15-36018f41ecec","system_id":"levelo_inurba_marseille","lat":43.33783,"lon":5.37459,"is_reserved":false,"is_disabled":false,"rental_uris":{"android":"levelo://app?vid=06448cf4-5db2-4556-ae15-36018f41ecec","ios":"levelo://app?vid=06448cf4-5db2-4556-ae15-36018f41ecec"},"vehicle_type_id":"4","last_reported":1732954332,"current_range_meters":38800,"station_id":"","pricing_plan_id":"cebpf4jnsgd1na2vs0mg"},{"bike_id":"2839c06e-dfc6-4bb4-92dd-cd78c43581f0","system_id":"levelo_inurba_marseille","lat":43.23195,"lon":5.35545,"is_reserved":false,"is_disabled":false,"rental_uris":{"android":"levelo://app?vid=2839c06e-dfc6-4bb4-92dd-cd78c43581f0","ios":"levelo://app?vid=2839c06e-dfc6-4bb4-92dd-cd78c43581f0"},"vehicle_type_id":"4","last_reported":1732954332,"current_range_meters":16000,"station_id":"ce4bhu92rcd13ifvqi70","pricing_plan_id":"cebpf4jnsgd1na2vs0mg"},{"bike_id":"b65e2ee9-f5ce-49bc-8dea-f18fe08be424","system_id":"levelo_inurba_marseille","lat":43.293,"lon":5.3718,"is_reserved":false,"is_disabled":true,"rental_uris":{"android":"levelo://app?vid=b65e2ee9-f5ce-49bc-8dea-f18fe08be424","ios":"levelo://app?vid=b65e2ee9-f5ce-49bc-8dea-f18fe08be424"},"vehicle_type_id":"4","last_reported":1732954332,"current_range_meters":1200,"station_id":"ce4bgh92rcd13ifvqb40","pricing_plan_id":"cebpf4jnsgd1na2vs0mg"},{"bike_id":"379b779e-1a20-4f52-8be0-066b2181a3e6","system_id":"levelo_inurba_marseille","lat":43.2958,"lon":5.37497,"is_reserved":false,"is_disabled":true,"rental_uris":{"android":"levelo://app?vid=379b779e-1a20-4f52-8be0-066b2181a3e6","ios":"levelo://app?vid=379b779e-1a20-4f52-8be0-066b2181a3e6"},"vehicle_type_id":"4","last_reported":1732954332,"current_range_meters":36800,"station_id":"ce4bgh92rcd13ifvqb50","pricing_plan_id":"cebpf4jnsgd1na2vs0mg"},{"bike_id":"3270cd68-c476-4987-8219-472eddb1096a","system_id":"levelo_inurba_marseille","lat":43.30539,"lon":5.36551,"is_reserved":false,"is_disabled":false,"rental_uris":{"android":"levelo://app?vid=3270cd68-c476-4987-8219-472eddb1096a","ios":"levelo://app?vid=3270cd68-c476-4987-8219-472eddb1096a"},"vehicle_type_id":"4","last_reported":1732954332,"current_range_meters":30400,"station_id":"ce4bgs12rcd13ifvqcag","pricing_plan_id":"cebpf4jnsgd1na2vs0mg"},{"bike_id":"fe1c6c60-0f4f-4b5c-a7ea-9f2ff8347245","system_id":"levelo_inurba_marseille","lat":43.27618,"lon":5.36114,"is_reserved":false,"is_disabled":false,"rental_uris":{"android":"levelo://app?vid=fe1c6c60-0f4f-4b5c-a7ea-9f2ff8347245","ios":"levelo://app?vid=fe1c6c60-0f4f-4b5c-a7ea-9f2ff8347245"},"vehicle_type_id":"4","last_reported":1732954332,"current_range_meters":38000,"station_id":"ce4bgj92rcd13ifvqbe0","pricing_plan_id":"cebpf4jnsgd1na2vs0mg"},{"bike_id":"4abebe2b-dec7-442c-a6a0-da33deb742de","system_id":"levelo_inurba_marseille","lat":43.32135,"lon":5.36768,"is_reserved":false,"is_disabled":false,"rental_uris":{"android":"levelo://app?vid=4abebe2b-dec7-442c-a6a0-da33deb742de","ios":"levelo://app?vid=4abebe2b-dec7-442c-a6a0-da33deb742de"},"vehicle_type_id":"4","last_reported":1732954332,"current_range_meters":38000,"station_id":"","pricing_plan_id":"cebpf4jnsgd1na2vs0mg"},{"bike_id":"e8761c76-5abe-46ec-a02e-5c1eaaf3ecfa","system_id":"levelo_inurba_marseille","lat":43.24166,"lon":5.36395,"is_reserved":false,"is_disabled":false,"rental_uris":{"android":"levelo://app?vid=e8761c76-5abe-46ec-a02e-5c1eaaf3ecfa","ios":"levelo://app?vid=e8761c76-5abe-46ec-a02e-5c1eaaf3ecfa"},"vehicle_type_id":"4","last_reported":1732954332,"current_range_meters":32800,"station_id":"cpo36qri1sfpv3e86is0","pricing_plan_id":"cebpf4jnsgd1na2vs0mg"},{"bike_id":"042a3458-6ea4-4a33-a09e-b399d98f9281","system_id":"levelo_inurba_marseille","lat":43.28474,"lon":5.38555,"is_reserved":false,"is_disabled":false,"rental_uris":{"android":"levelo://app?vid=042a3458-6ea4-4a33-a09e-b399d98f9281","ios":"levelo://app?vid=042a3458-6ea4-4a33-a09e-b399d98f9281"},"vehicle_type_id":"4","last_reported":1732954332,"current_range_meters":38400,"station_id":"ce4bh8p2rcd13ifvqeb0","pricing_plan_id":"cebpf4jnsgd1na2vs0mg"},{"bike_id":"248c482f-affe-4c19-9013-b1895a0e0a29","system_id":"levelo_inurba_marseille","lat":43.28364,"lon":5.38621,"is_reserved":false,"is_disabled":false,"rental_uris":{"android":"levelo://app?vid=248c482f-affe-4c19-9013-b1895a0e0a29","ios":"levelo://app?vid=248c482f-affe-4c19-9013-b1895a0e0a29"},"vehicle_type_id":"4","last_reported":1732954332,"current_range_meters":38000,"station_id":"ce4bh492rcd13ifvqdvg","pricing_plan_id":"cebpf4jnsgd1na2vs0mg"},{"bike_id":"0f17f004-1308-4dc1-baa4-8e9fe8d97b2d","system_id":"levelo_inurba_marseille","lat":43.25711,"lon":5.41124,"is_reserved":false,"is_disabled":false,"rental_uris":{"android":"levelo://app?vid=0f17f004-1308-4dc1-baa4-8e9fe8d97b2d","ios":"levelo://app?vid=0f17f004-1308-4dc1-baa4-8e9fe8d97b2d"},"vehicle_type_id":"4","last_reported":1732954332,"current_range_meters":24800,"station_id":"ce4bhkp2rcd13ifvqgd0","pricing_plan_id":"cebpf4jnsgd1na2vs0mg"},{"bike_id":"a6622c8e-a345-4fa3-9671-ecb3cc3299b3","system_id":"levelo_inurba_marseille","lat":43.25132,"lon":5.40329,"is_reserved":false,"is_disabled":false,"rental_uris":{"android":"levelo://app?vid=a6622c8e-a345-4fa3-9671-ecb3cc3299b3","ios":"levelo://app?vid=a6622c8e-a345-4fa3-9671-ecb3cc3299b3"},"vehicle_type_id":"4","last_reported":1732954332,"current_range_meters":39200,"station_id":"ce4bhlh2rcd13ifvqgig","pricing_plan_id":"cebpf4jnsgd1na2vs0mg"},{"bike_id":"0a6cb623-d052-4c80-95be-635004795b3a","system_id":"levelo_inurba_marseille","lat":43.25112,"lon":5.40325,"is_reserved":false,"is_disabled":false,"rental_uris":{"android":"levelo://app?vid=0a6cb623-d052-4c80-95be-635004795b3a","ios":"levelo://app?vid=0a6cb623-d052-4c80-95be-635004795b3a"},"vehicle_type_id":"4","last_reported":1732954332,"current_range_meters":25600,"station_id":"ce4bhlh2rcd13ifvqgig","pricing_plan_id":"cebpf4jnsgd1na2vs0mg"},{"bike_id":"26ccb16a-38f8-4143-9d2e-c2d9c459cdb2","system_id":"levelo_inurba_marseille","lat":43.27315,"lon":5.39095,"is_reserved":false,"is_disabled":false,"rental_uris":{"android":"levelo://app?vid=26ccb16a-38f8-4143-9d2e-c2d9c459cdb2","ios":"levelo://app?vid=26ccb16a-38f8-4143-9d2e-c2d9c459cdb2"},"vehicle_type_id":"4","last_reported":1732954332,"current_range_meters":38000,"station_id":"ce4bhgp2rcd13ifvqfe0","pricing_plan_id":"cebpf4jnsgd1na2vs0mg"},{"bike_id":"111d6fc8-5136-406c-a5cf-56aed46af742","system_id":"levelo_inurba_marseille","lat":43.30925,"lon":5.40142,"is_reserved":false,"is_disabled":false,"rental_uris":{"android":"levelo://app?vid=111d6fc8-5136-406c-a5cf-56aed46af742","ios":"levelo://app?vid=111d6fc8-5136-406c-a5cf-56aed46af742"},"vehicle_type_id":"4","last_reported":1732954332,"current_range_meters":39200,"station_id":"ce4bgvp2rcd13ifvqct0","pricing_plan_id":"cebpf4jnsgd1na2vs0mg"},{"bike_id":"279f6af7-199e-4b2a-9a52-9993c965eb6b","system_id":"levelo_inurba_marseille","lat":43.29769,"lon":5.37101,"is_reserved":false,"is_disabled":false,"rental_uris":{"android":"levelo://app?vid=279f6af7-199e-4b2a-9a52-9993c965eb6b","ios":"levelo://app?vid=279f6af7-199e-4b2a-9a52-9993c965eb6b"},"vehicle_type_id":"4","last_reported":1732954332,"current_range_meters":38000,"station_id":"ce4bgop2rcd13ifvqc1g","pricing_plan_id":"cebpf4jnsgd1na2vs0mg"},{"bike_id":"aed335d6-97c4-490f-94db-7d1da5c9ad3c","system_id":"levelo_inurba_marseille","lat":43.29634,"lon":5.40593,"is_reserved":false,"is_disabled":false,"rental_uris":{"android":"levelo://app?vid=aed335d6-97c4-490f-94db-7d1da5c9ad3c","ios":"levelo://app?vid=aed335d6-97c4-490f-94db-7d1da5c9ad3c"},"vehicle_type_id":"4","last_reported":1732954332,"current_range_meters":8400,"station_id":"ce4bh0h2rcd13ifvqd60","pricing_plan_id":"cebpf4jnsgd1na2vs0mg"},{"bike_id":"9dd1fc98-a89e-437a-b707-6eb8b3c899e8","system_id":"levelo_inurba_marseille","lat":43.29036,"lon":5.35915,"is_reserved":false,"is_disabled":true,"rental_uris":{"android":"levelo://app?vid=9dd1fc98-a89e-437a-b707-6eb8b3c899e8","ios":"levelo://app?vid=9dd1fc98-a89e-437a-b707-6eb8b3c899e8"},"vehicle_type_id":"4","last_reported":1732954332,"current_range_meters":1600,"station_id":"ce4bha92rcd13ifvqeg0","pricing_plan_id":"cebpf4jnsgd1na2vs0mg"},{"bike_id":"d7d12744-0657-4bbb-9ec3-a019aeeb53f1","system_id":"levelo_inurba_marseille","lat":43.27496,"lon":5.42448,"is_reserved":false,"is_disabled":false,"rental_uris":{"android":"levelo://app?vid=d7d12744-0657-4bbb-9ec3-a019aeeb53f1","ios":"levelo://app?vid=d7d12744-0657-4bbb-9ec3-a019aeeb53f1"},"vehicle_type_id":"4","last_reported":1732954332,"current_range_meters":12400,"station_id":"ce4bhn92rcd13ifvqgrg","pricing_plan_id":"cebpf4jnsgd1na2vs0mg"},{"bike_id":"1b751b96-b525-44d3-b2a2-b74407b81de6","system_id":"levelo_inurba_marseille","lat":43.27993,"lon":5.40012,"is_reserved":false,"is_disabled":false,"rental_uris":{"android":"levelo://app?vid=1b751b96-b525-44d3-b2a2-b74407b81de6","ios":"levelo://app?vid=1b751b96-b525-44d3-b2a2-b74407b81de6"},"vehicle_type_id":"4","last_reported":1732954332,"current_range_meters":38000,"station_id":"ce4bho92rcd13ifvqh4g","pricing_plan_id":"cebpf4jnsgd1na2vs0mg"},{"bike_id":"a1da46ac-0823-493f-ac56-218330798636","system_id":"levelo_inurba_marseille","lat":43.24376,"lon":5.37068,"is_reserved":false,"is_disabled":false,"rental_uris":{"android":"levelo://app?vid=a1da46ac-0823-493f-ac56-218330798636","ios":"levelo://app?vid=a1da46ac-0823-493f-ac56-218330798636"},"vehicle_type_id":"4","last_reported":1732954332,"current_range_meters":40000,"station_id":"ce4bhhh2rcd13ifvqfk0","pricing_plan_id":"cebpf4jnsgd1na2vs0mg"},{"bike_id":"254753b2-3c2c-47b1-81d9-93da2afc0d6a","system_id":"levelo_inurba_marseille","lat":43.27322,"lon":5.39068,"is_reserved":false,"is_disabled":false,"rental_uris":{"android":"levelo://app?vid=254753b2-3c2c-47b1-81d9-93da2afc0d6a","ios":"levelo://app?vid=254753b2-3c2c-47b1-81d9-93da2afc0d6a"},"vehicle_type_id":"4","last_reported":1732954332,"current_range_meters":38400,"station_id":"ce4bhgp2rcd13ifvqfe0","pricing_plan_id":"cebpf4jnsgd1na2vs0mg"},{"bike_id":"a5909545-3e09-4859-9fda-9ffe4e6e4883","system_id":"levelo_inurba_marseille","lat":43.23066,"lon":5.35492,"is_reserved":false,"is_disabled":false,"rental_uris":{"android":"levelo://app?vid=a5909545-3e09-4859-9fda-9ffe4e6e4883","ios":"levelo://app?vid=a5909545-3e09-4859-9fda-9ffe4e6e4883"},"vehicle_type_id":"4","last_reported":1732954332,"current_range_meters":12400,"station_id":"cpo3342slgdg3j2ifvpg","pricing_plan_id":"cebpf4jnsgd1na2vs0mg"},{"bike_id":"c54fa7c9-a127-4d75-ac3d-fe8ea889edd3","system_id":"levelo_inurba_marseille","lat":43.30141,"lon":5.39869,"is_reserved":false,"is_disabled":false,"rental_uris":{"android":"levelo://app?vid=c54fa7c9-a127-4d75-ac3d-fe8ea889edd3","ios":"levelo://app?vid=c54fa7c9-a127-4d75-ac3d-fe8ea889edd3"},"vehicle_type_id":"4","last_reported":1732954332,"current_range_meters":38400,"station_id":"ce4bh0h2rcd13ifvqd40","pricing_plan_id":"cebpf4jnsgd1na2vs0mg"},{"bike_id":"a99c4b50-ed6f-4692-809b-22df41f741dc","system_id":"levelo_inurba_marseille","lat":43.28268,"lon":5.35076,"is_reserved":false,"is_disabled":false,"rental_uris":{"android":"levelo://app?vid=a99c4b50-ed6f-4692-809b-22df41f741dc","ios":"levelo://app?vid=a99c4b50-ed6f-4692-809b-22df41f741dc"},"vehicle_type_id":"4","last_reported":1732954332,"current_range_meters":15200,"station_id":"ce4bhbp2rcd13ifvqerg","pricing_plan_id":"cebpf4jnsgd1na2vs0mg"},{"bike_id":"8a706c0a-83d1-44fa-9127-38cdaec2557e","system_id":"levelo_inurba_marseille","lat":43.31324,"lon":5.39699,"is_reserved":false,"is_disabled":false,"rental_uris":{"android":"levelo://app?vid=8a706c0a-83d1-44fa-9127-38cdaec2557e","ios":"levelo://app?vid=8a706c0a-83d1-44fa-9127-38cdaec2557e"},"vehicle_type_id":"4","last_reported":1732954332,"current_range_meters":39200,"station_id":"ce4bgvp2rcd13ifvqcu0","pricing_plan_id":"cebpf4jnsgd1na2vs0mg"},{"bike_id":"78716590-acd8-4375-8266-67d9a41d59a7","system_id":"levelo_inurba_marseille","lat":43.32368,"lon":5.3887,"is_reserved":false,"is_disabled":false,"rental_uris":{"android":"levelo://app?vid=78716590-acd8-4375-8266-67d9a41d59a7","ios":"levelo://app?vid=78716590-acd8-4375-8266-67d9a41d59a7"},"vehicle_type_id":"4","last_reported":1732954332,"current_range_meters":31200,"station_id":"ce4bhqp2rcd13ifvqhog","pricing_plan_id":"cebpf4jnsgd1na2vs0mg"},{"bike_id":"fabbdb44-ac21-4ce9-8ed0-0dc7ba9aad1a","system_id":"levelo_inurba_marseille","lat":43.27498,"lon":5.42455,"is_reserved":false,"is_disabled":false,"rental_uris":{"android":"levelo://app?vid=fabbdb44-ac21-4ce9-8ed0-0dc7ba9aad1a","ios":"levelo://app?vid=fabbdb44-ac21-4ce9-8ed0-0dc7ba9aad1a"},"vehicle_type_id":"4","last_reported":1732954332,"current_range_meters":30400,"station_id":"ce4bhn92rcd13ifvqgrg","pricing_plan_id":"cebpf4jnsgd1na2vs0mg"},{"bike_id":"7d915583-b887-4aeb-8816-82444c1b5b57","system_id":"levelo_inurba_marseille","lat":43.27993,"lon":5.41656,"is_reserved":false,"is_disabled":false,"rental_uris":{"android":"levelo://app?vid=7d915583-b887-4aeb-8816-82444c1b5b57","ios":"levelo://app?vid=7d915583-b887-4aeb-8816-82444c1b5b57"},"vehicle_type_id":"4","last_reported":1732954332,"current_range_meters":24000,"station_id":"ce4bho12rcd13ifvqh1g","pricing_plan_id":"cebpf4jnsgd1na2vs0mg"},{"bike_id":"645c606c-68ed-422b-af50-4155f76d4c2c","system_id":"levelo_inurba_marseille","lat":43.3015,"lon":5.38077,"is_reserved":false,"is_disabled":false,"rental_uris":{"android":"levelo://app?vid=645c606c-68ed-422b-af50-4155f76d4c2c","ios":"levelo://app?vid=645c606c-68ed-422b-af50-4155f76d4c2c"},"vehicle_type_id":"4","last_reported":1732954332,"current_range_meters":23200,"station_id":"ce4bgjp2rcd13ifvqbh0","pricing_plan_id":"cebpf4jnsgd1na2vs0mg"},{"bike_id":"e5951ee3-4a5a-4ebb-b469-096c5188dfa3","system_id":"levelo_inurba_marseille","lat":43.23192,"lon":5.35551,"is_reserved":false,"is_disabled":false,"rental_uris":{"android":"levelo://app?vid=e5951ee3-4a5a-4ebb-b469-096c5188dfa3","ios":"levelo://app?vid=e5951ee3-4a5a-4ebb-b469-096c5188dfa3"},"vehicle_type_id":"4","last_reported":1732954332,"current_range_meters":20400,"station_id":"ce4bhu92rcd13ifvqi70","pricing_plan_id":"cebpf4jnsgd1na2vs0mg"},{"bike_id":"f9a63393-5401-4f98-ae5a-dfbb8291ab6d","system_id":"levelo_inurba_marseille","lat":43.3004,"lon":5.37551,"is_reserved":false,"is_disabled":true,"rental_uris":{"android":"levelo://app?vid=f9a63393-5401-4f98-ae5a-dfbb8291ab6d","ios":"levelo://app?vid=f9a63393-5401-4f98-ae5a-dfbb8291ab6d"},"vehicle_type_id":"4","last_reported":1732954332,"current_range_meters":0,"station_id":"","pricing_plan_id":"cebpf4jnsgd1na2vs0mg"},{"bike_id":"d2300a67-e59d-4c6d-84e8-89c1777cddcc","system_id":"levelo_inurba_marseille","lat":43.31993,"lon":5.38149,"is_reserved":false,"is_disabled":false,"rental_uris":{"android":"levelo://app?vid=d2300a67-e59d-4c6d-84e8-89c1777cddcc","ios":"levelo://app?vid=d2300a67-e59d-4c6d-84e8-89c1777cddcc"},"vehicle_type_id":"4","last_reported":1732954332,"current_range_meters":40000,"station_id":"ce4bhr12rcd13ifvqhpg","pricing_plan_id":"cebpf4jnsgd1na2vs0mg"},{"bike_id":"3ce2fffb-4d51-444b-8bb2-5cd62ad86f77","system_id":"levelo_inurba_marseille","lat":43.31286,"lon":5.40182,"is_reserved":false,"is_disabled":false,"rental_uris":{"android":"levelo://app?vid=3ce2fffb-4d51-444b-8bb2-5cd62ad86f77","ios":"levelo://app?vid=3ce2fffb-4d51-444b-8bb2-5cd62ad86f77"},"vehicle_type_id":"4","last_reported":1732954332,"current_range_meters":38400,"station_id":"ce4bh092rcd13ifvqd30","pricing_plan_id":"cebpf4jnsgd1na2vs0mg"},{"bike_id":"d52d000a-4bb2-4095-ae46-aac5d2dccf26","system_id":"levelo_inurba_marseille","lat":43.27986,"lon":5.4169,"is_reserved":false,"is_disabled":false,"rental_uris":{"android":"levelo://app?vid=d52d000a-4bb2-4095-ae46-aac5d2dccf26","ios":"levelo://app?vid=d52d000a-4bb2-4095-ae46-aac5d2dccf26"},"vehicle_type_id":"4","last_reported":1732954332,"current_range_meters":28800,"station_id":"ce4bho12rcd13ifvqh1g","pricing_plan_id":"cebpf4jnsgd1na2vs0mg"},{"bike_id":"c7a96d4e-f2ec-45d0-b131-99069f1426f3","system_id":"levelo_inurba_marseille","lat":43.29796,"lon":5.38091,"is_reserved":false,"is_disabled":false,"rental_uris":{"android":"levelo://app?vid=c7a96d4e-f2ec-45d0-b131-99069f1426f3","ios":"levelo://app?vid=c7a96d4e-f2ec-45d0-b131-99069f1426f3"},"vehicle_type_id":"4","last_reported":1732954332,"current_range_meters":20400,"station_id":"ce4bgip2rcd13ifvqbb0","pricing_plan_id":"cebpf4jnsgd1na2vs0mg"},{"bike_id":"209edce5-94bd-42b7-894c-233f806592a5","system_id":"levelo_inurba_marseille","lat":43.32364,"lon":5.36763,"is_reserved":false,"is_disabled":false,"rental_uris":{"android":"levelo://app?vid=209edce5-94bd-42b7-894c-233f806592a5","ios":"levelo://app?vid=209edce5-94bd-42b7-894c-233f806592a5"},"vehicle_type_id":"4","last_reported":1732954332,"current_range_meters":29600,"station_id":"ce4bhsh2rcd13ifvqi2g","pricing_plan_id":"cebpf4jnsgd1na2vs0mg"},{"bike_id":"e62ebbbc-8f67-42b0-94da-0372a0dcfd95","system_id":"levelo_inurba_marseille","lat":43.31709,"lon":5.37745,"is_reserved":false,"is_disabled":false,"rental_uris":{"android":"levelo://app?vid=e62ebbbc-8f67-42b0-94da-0372a0dcfd95","ios":"levelo://app?vid=e62ebbbc-8f67-42b0-94da-0372a0dcfd95"},"vehicle_type_id":"4","last_reported":1732954332,"current_range_meters":38000,"station_id":"ce4bgth2rcd13ifvqch0","pricing_plan_id":"cebpf4jnsgd1na2vs0mg"},{"bike_id":"ca671336-3c2c-4fe2-bd8e-7dcbd7736b5e","system_id":"levelo_inurba_marseille","lat":43.323334,"lon":5.406247,"is_reserved":false,"is_disabled":false,"rental_uris":{"android":"levelo://app?vid=ca671336-3c2c-4fe2-bd8e-7dcbd7736b5e","ios":"levelo://app?vid=ca671336-3c2c-4fe2-bd8e-7dcbd7736b5e"},"vehicle_type_id":"4","last_reported":1732954332,"current_range_meters":25600,"station_id":"ce4bhq92rcd13ifvqhjg","pricing_plan_id":"cebpf4jnsgd1na2vs0mg"},{"bike_id":"a7714bab-80ef-49c0-9a7d-229a089e35bc","system_id":"levelo_inurba_marseille","lat":43.28273,"lon":5.3507,"is_reserved":false,"is_disabled":false,"rental_uris":{"android":"levelo://app?vid=a7714bab-80ef-49c0-9a7d-229a089e35bc","ios":"levelo://app?vid=a7714bab-80ef-49c0-9a7d-229a089e35bc"},"vehicle_type_id":"4","last_reported":1732954332,"current_range_meters":6000,"station_id":"ce4bhbp2rcd13ifvqerg","pricing_plan_id":"cebpf4jnsgd1na2vs0mg"},{"bike_id":"bba82484-d6d2-4eb9-a24b-0fee4128de51","system_id":"levelo_inurba_marseille","lat":43.30141,"lon":5.38779,"is_reserved":false,"is_disabled":true,"rental_uris":{"android":"levelo://app?vid=bba82484-d6d2-4eb9-a24b-0fee4128de51","ios":"levelo://app?vid=bba82484-d6d2-4eb9-a24b-0fee4128de51"},"vehicle_type_id":"4","last_reported":1732954332,"current_range_meters":0,"station_id":"ce4bghh2rcd13ifvqb60","pricing_plan_id":"cebpf4jnsgd1na2vs0mg"},{"bike_id":"a1de088e-f9bc-437b-86db-027b9d5a0352","system_id":"levelo_inurba_marseille","lat":43.33023,"lon":5.3904,"is_reserved":false,"is_disabled":false,"rental_uris":{"android":"levelo://app?vid=a1de088e-f9bc-437b-86db-027b9d5a0352","ios":"levelo://app?vid=a1de088e-f9bc-437b-86db-027b9d5a0352"},"vehicle_type_id":"4","last_reported":1732954332,"current_range_meters":37600,"station_id":"ce4bhr92rcd13ifvqhrg","pricing_plan_id":"cebpf4jnsgd1na2vs0mg"},{"bike_id":"5e436241-a104-4cdd-be33-862bde82ade6","system_id":"levelo_inurba_marseille","lat":43.2952,"lon":5.38553,"is_reserved":false,"is_disabled":false,"rental_uris":{"android":"levelo://app?vid=5e436241-a104-4cdd-be33-862bde82ade6","ios":"levelo://app?vid=5e436241-a104-4cdd-be33-862bde82ade6"},"vehicle_type_id":"4","last_reported":1732954332,"current_range_meters":37600,"station_id":"ce4bgih2rcd13ifvqba0","pricing_plan_id":"cebpf4jnsgd1na2vs0mg"},{"bike_id":"de8dedfd-c65e-4ce5-b8ec-b5ab34a22a6e","system_id":"levelo_inurba_marseille","lat":43.27068,"lon":5.42271,"is_reserved":false,"is_disabled":true,"rental_uris":{"android":"levelo://app?vid=de8dedfd-c65e-4ce5-b8ec-b5ab34a22a6e","ios":"levelo://app?vid=de8dedfd-c65e-4ce5-b8ec-b5ab34a22a6e"},"vehicle_type_id":"4","last_reported":1732954332,"current_range_meters":40000,"station_id":"ce4bhk92rcd13ifvqgb0","pricing_plan_id":"cebpf4jnsgd1na2vs0mg"},{"bike_id":"de4ae613-0f4d-48a6-a364-cb3a9285befc","system_id":"levelo_inurba_marseille","lat":43.28154,"lon":5.42643,"is_reserved":false,"is_disabled":false,"rental_uris":{"android":"levelo://app?vid=de4ae613-0f4d-48a6-a364-cb3a9285befc","ios":"levelo://app?vid=de4ae613-0f4d-48a6-a364-cb3a9285befc"},"vehicle_type_id":"4","last_reported":1732954332,"current_range_meters":17600,"station_id":"ce4bhnh2rcd13ifvqgug","pricing_plan_id":"cebpf4jnsgd1na2vs0mg"},{"bike_id":"38798db8-5bd5-4792-b41b-6f809d1b1c45","system_id":"levelo_inurba_marseille","lat":43.31993,"lon":5.38142,"is_reserved":false,"is_disabled":false,"rental_uris":{"android":"levelo://app?vid=38798db8-5bd5-4792-b41b-6f809d1b1c45","ios":"levelo://app?vid=38798db8-5bd5-4792-b41b-6f809d1b1c45"},"vehicle_type_id":"4","last_reported":1732954332,"current_range_meters":19200,"station_id":"ce4bhr12rcd13ifvqhpg","pricing_plan_id":"cebpf4jnsgd1na2vs0mg"},{"bike_id":"375f3ff8-f817-4dea-ba6a-e7f3d0cf2b56","system_id":"levelo_inurba_marseille","lat":43.280366,"lon":5.369554,"is_reserved":false,"is_disabled":false,"rental_uris":{"android":"levelo://app?vid=375f3ff8-f817-4dea-ba6a-e7f3d0cf2b56","ios":"levelo://app?vid=375f3ff8-f817-4dea-ba6a-e7f3d0cf2b56"},"vehicle_type_id":"4","last_reported":1732954332,"current_range_meters":38800,"station_id":"ce4bha12rcd13ifvqef0","pricing_plan_id":"cebpf4jnsgd1na2vs0mg"},{"bike_id":"f05403b4-7fc6-4ed9-83e5-21728471368c","system_id":"levelo_inurba_marseille","lat":43.30804,"lon":5.38158,"is_reserved":false,"is_disabled":false,"rental_uris":{"android":"levelo://app?vid=f05403b4-7fc6-4ed9-83e5-21728471368c","ios":"levelo://app?vid=f05403b4-7fc6-4ed9-83e5-21728471368c"},"vehicle_type_id":"4","last_reported":1732954332,"current_range_meters":36800,"station_id":"ce4bgt12rcd13ifvqce0","pricing_plan_id":"cebpf4jnsgd1na2vs0mg"},{"bike_id":"1493ed7b-316e-4b4d-8ef0-e0e0dd117a67","system_id":"levelo_inurba_marseille","lat":43.30406,"lon":5.39761,"is_reserved":false,"is_disabled":false,"rental_uris":{"android":"levelo://app?vid=1493ed7b-316e-4b4d-8ef0-e0e0dd117a67","ios":"levelo://app?vid=1493ed7b-316e-4b4d-8ef0-e0e0dd117a67"},"vehicle_type_id":"4","last_reported":1732954332,"current_range_meters":38400,"station_id":"ce4bh092rcd13ifvqd20","pricing_plan_id":"cebpf4jnsgd1na2vs0mg"},{"bike_id":"ced6f6fa-1cfb-4262-99ab-9eb61311c35b","system_id":"levelo_inurba_marseille","lat":43.312702,"lon":5.401709,"is_reserved":false,"is_disabled":false,"rental_uris":{"android":"levelo://app?vid=ced6f6fa-1cfb-4262-99ab-9eb61311c35b","ios":"levelo://app?vid=ced6f6fa-1cfb-4262-99ab-9eb61311c35b"},"vehicle_type_id":"4","last_reported":1732954332,"current_range_meters":28400,"station_id":"ce4bh092rcd13ifvqd30","pricing_plan_id":"cebpf4jnsgd1na2vs0mg"},{"bike_id":"c43fffd1-108f-4493-9c53-d2971d2b16a2","system_id":"levelo_inurba_marseille","lat":43.32919,"lon":5.4156,"is_reserved":false,"is_disabled":false,"rental_uris":{"android":"levelo://app?vid=c43fffd1-108f-4493-9c53-d2971d2b16a2","ios":"levelo://app?vid=c43fffd1-108f-4493-9c53-d2971d2b16a2"},"vehicle_type_id":"4","last_reported":1732954332,"current_range_meters":22400,"station_id":"","pricing_plan_id":"cebpf4jnsgd1na2vs0mg"},{"bike_id":"cf002d38-17c9-44fd-9354-c7910c4bd3ff","system_id":"levelo_inurba_marseille","lat":43.33025,"lon":5.39042,"is_reserved":false,"is_disabled":false,"rental_uris":{"android":"levelo://app?vid=cf002d38-17c9-44fd-9354-c7910c4bd3ff","ios":"levelo://app?vid=cf002d38-17c9-44fd-9354-c7910c4bd3ff"},"vehicle_type_id":"4","last_reported":1732954332,"current_range_meters":38000,"station_id":"ce4bhr92rcd13ifvqhrg","pricing_plan_id":"cebpf4jnsgd1na2vs0mg"},{"bike_id":"c29ee908-ad27-4263-abda-7c66e14bfba8","system_id":"levelo_inurba_marseille","lat":43.29877,"lon":5.3973,"is_reserved":false,"is_disabled":false,"rental_uris":{"android":"levelo://app?vid=c29ee908-ad27-4263-abda-7c66e14bfba8","ios":"levelo://app?vid=c29ee908-ad27-4263-abda-7c66e14bfba8"},"vehicle_type_id":"4","last_reported":1732954332,"current_range_meters":26000,"station_id":"ce4bh0h2rcd13ifvqd50","pricing_plan_id":"cebpf4jnsgd1na2vs0mg"},{"bike_id":"cb261da6-4840-44c8-b66c-2a0cb568a4ad","system_id":"levelo_inurba_marseille","lat":43.27833,"lon":5.39213,"is_reserved":false,"is_disabled":false,"rental_uris":{"android":"levelo://app?vid=cb261da6-4840-44c8-b66c-2a0cb568a4ad","ios":"levelo://app?vid=cb261da6-4840-44c8-b66c-2a0cb568a4ad"},"vehicle_type_id":"4","last_reported":1732954332,"current_range_meters":39200,"station_id":"ce4bhjp2rcd13ifvqga0","pricing_plan_id":"cebpf4jnsgd1na2vs0mg"},{"bike_id":"08d34890-a240-4d13-8e63-686b9436e01d","system_id":"levelo_inurba_marseille","lat":43.28658,"lon":5.36354,"is_reserved":false,"is_disabled":false,"rental_uris":{"android":"levelo://app?vid=08d34890-a240-4d13-8e63-686b9436e01d","ios":"levelo://app?vid=08d34890-a240-4d13-8e63-686b9436e01d"},"vehicle_type_id":"4","last_reported":1732954332,"current_range_meters":2000,"station_id":"ce4bhah2rcd13ifvqej0","pricing_plan_id":"cebpf4jnsgd1na2vs0mg"},{"bike_id":"43746d86-8a13-4845-9faf-ae69b548d714","system_id":"levelo_inurba_marseille","lat":43.29459,"lon":5.37917,"is_reserved":false,"is_disabled":true,"rental_uris":{"android":"levelo://app?vid=43746d86-8a13-4845-9faf-ae69b548d714","ios":"levelo://app?vid=43746d86-8a13-4845-9faf-ae69b548d714"},"vehicle_type_id":"4","last_reported":1732954332,"current_range_meters":0,"station_id":"","pricing_plan_id":"cebpf4jnsgd1na2vs0mg"},{"bike_id":"746d0832-fa34-43ef-bd41-a94b306dc08e","system_id":"levelo_inurba_marseille","lat":43.24668,"lon":5.38156,"is_reserved":false,"is_disabled":false,"rental_uris":{"android":"levelo://app?vid=746d0832-fa34-43ef-bd41-a94b306dc08e","ios":"levelo://app?vid=746d0832-fa34-43ef-bd41-a94b306dc08e"},"vehicle_type_id":"4","last_reported":1732954332,"current_range_meters":8400,"station_id":"ce4bhih2rcd13ifvqfr0","pricing_plan_id":"cebpf4jnsgd1na2vs0mg"},{"bike_id":"1665090c-d6bc-4de6-b530-613846e90070","system_id":"levelo_inurba_marseille","lat":43.31361,"lon":5.38495,"is_reserved":false,"is_disabled":false,"rental_uris":{"android":"levelo://app?vid=1665090c-d6bc-4de6-b530-613846e90070","ios":"levelo://app?vid=1665090c-d6bc-4de6-b530-613846e90070"},"vehicle_type_id":"4","last_reported":1732954332,"current_range_meters":27200,"station_id":"ce4bgt92rcd13ifvqcf0","pricing_plan_id":"cebpf4jnsgd1na2vs0mg"},{"bike_id":"14f953b8-411b-4657-b890-7cae883b1ccc","system_id":"levelo_inurba_marseille","lat":43.31269,"lon":5.40168,"is_reserved":false,"is_disabled":false,"rental_uris":{"android":"levelo://app?vid=14f953b8-411b-4657-b890-7cae883b1ccc","ios":"levelo://app?vid=14f953b8-411b-4657-b890-7cae883b1ccc"},"vehicle_type_id":"4","last_reported":1732954332,"current_range_meters":39200,"station_id":"ce4bh092rcd13ifvqd30","pricing_plan_id":"cebpf4jnsgd1na2vs0mg"},{"bike_id":"f3923452-7887-4c81-ac08-4d748d1c6919","system_id":"levelo_inurba_marseille","lat":43.29533,"lon":5.39404,"is_reserved":false,"is_disabled":true,"rental_uris":{"android":"levelo://app?vid=f3923452-7887-4c81-ac08-4d748d1c6919","ios":"levelo://app?vid=f3923452-7887-4c81-ac08-4d748d1c6919"},"vehicle_type_id":"4","last_reported":1732954332,"current_range_meters":12400,"station_id":"ce4bh292rcd13ifvqdf0","pricing_plan_id":"cebpf4jnsgd1na2vs0mg"},{"bike_id":"98e2d888-37de-4669-ac4b-97e1a8acaade","system_id":"levelo_inurba_marseille","lat":43.29293,"lon":5.38556,"is_reserved":false,"is_disabled":false,"rental_uris":{"android":"levelo://app?vid=98e2d888-37de-4669-ac4b-97e1a8acaade","ios":"levelo://app?vid=98e2d888-37de-4669-ac4b-97e1a8acaade"},"vehicle_type_id":"4","last_reported":1732954332,"current_range_meters":38800,"station_id":"","pricing_plan_id":"cebpf4jnsgd1na2vs0mg"},{"bike_id":"d8090434-8164-4911-a368-9f666e5165ad","system_id":"levelo_inurba_marseille","lat":43.26555,"lon":5.37282,"is_reserved":false,"is_disabled":false,"rental_uris":{"android":"levelo://app?vid=d8090434-8164-4911-a368-9f666e5165ad","ios":"levelo://app?vid=d8090434-8164-4911-a368-9f666e5165ad"},"vehicle_type_id":"4","last_reported":1732954332,"current_range_meters":32400,"station_id":"ce4bhg12rcd13ifvqf70","pricing_plan_id":"cebpf4jnsgd1na2vs0mg"},{"bike_id":"af7f078f-ded8-4f9d-995a-0ad6984be742","system_id":"levelo_inurba_marseille","lat":43.2945,"lon":5.39749,"is_reserved":false,"is_disabled":false,"rental_uris":{"android":"levelo://app?vid=af7f078f-ded8-4f9d-995a-0ad6984be742","ios":"levelo://app?vid=af7f078f-ded8-4f9d-995a-0ad6984be742"},"vehicle_type_id":"4","last_reported":1732954332,"current_range_meters":38800,"station_id":"ce4bh3h2rcd13ifvqdo0","pricing_plan_id":"cebpf4jnsgd1na2vs0mg"},{"bike_id":"6da9caa4-0313-43ff-a969-1b6a799cb79a","system_id":"levelo_inurba_marseille","lat":43.28728,"lon":5.36079,"is_reserved":false,"is_disabled":false,"rental_uris":{"android":"levelo://app?vid=6da9caa4-0313-43ff-a969-1b6a799cb79a","ios":"levelo://app?vid=6da9caa4-0313-43ff-a969-1b6a799cb79a"},"vehicle_type_id":"4","last_reported":1732954332,"current_range_meters":18000,"station_id":"cki0cbj6b192h4jlfktg","pricing_plan_id":"cebpf4jnsgd1na2vs0mg"},{"bike_id":"75dee289-e6d4-4b81-8f1a-f980ce7de3bd","system_id":"levelo_inurba_marseille","lat":43.29912,"lon":5.37469,"is_reserved":false,"is_disabled":false,"rental_uris":{"android":"levelo://app?vid=75dee289-e6d4-4b81-8f1a-f980ce7de3bd","ios":"levelo://app?vid=75dee289-e6d4-4b81-8f1a-f980ce7de3bd"},"vehicle_type_id":"4","last_reported":1732954332,"current_range_meters":38800,"station_id":"ce4bgjh2rcd13ifvqbg0","pricing_plan_id":"cebpf4jnsgd1na2vs0mg"},{"bike_id":"2ca4c736-b173-4957-99b1-47e46344c420","system_id":"levelo_inurba_marseille","lat":43.26931,"lon":5.38907,"is_reserved":false,"is_disabled":false,"rental_uris":{"android":"levelo://app?vid=2ca4c736-b173-4957-99b1-47e46344c420","ios":"levelo://app?vid=2ca4c736-b173-4957-99b1-47e46344c420"},"vehicle_type_id":"4","last_reported":1732954332,"current_range_meters":38000,"station_id":"ce4bhhh2rcd13ifvqfl0","pricing_plan_id":"cebpf4jnsgd1na2vs0mg"},{"bike_id":"15e24c31-4292-4084-bcd3-e24f0a31685e","system_id":"levelo_inurba_marseille","lat":43.28429,"lon":5.3499,"is_reserved":false,"is_disabled":true,"rental_uris":{"android":"levelo://app?vid=15e24c31-4292-4084-bcd3-e24f0a31685e","ios":"levelo://app?vid=15e24c31-4292-4084-bcd3-e24f0a31685e"},"vehicle_type_id":"4","last_reported":1732954332,"current_range_meters":36400,"station_id":"ce4bhbh2rcd13ifvqepg","pricing_plan_id":"cebpf4jnsgd1na2vs0mg"},{"bike_id":"579ec052-1a9b-4b33-b6e7-3ce0d78a27eb","system_id":"levelo_inurba_marseille","lat":43.32486,"lon":5.36563,"is_reserved":false,"is_disabled":false,"rental_uris":{"android":"levelo://app?vid=579ec052-1a9b-4b33-b6e7-3ce0d78a27eb","ios":"levelo://app?vid=579ec052-1a9b-4b33-b6e7-3ce0d78a27eb"},"vehicle_type_id":"4","last_reported":1732954332,"current_range_meters":39200,"station_id":"ce4bhs12rcd13ifvqhvg","pricing_plan_id":"cebpf4jnsgd1na2vs0mg"},{"bike_id":"d7c027ce-affe-4e74-a76c-56f36651134b","system_id":"levelo_inurba_marseille","lat":43.22934,"lon":5.35377,"is_reserved":false,"is_disabled":false,"rental_uris":{"android":"levelo://app?vid=d7c027ce-affe-4e74-a76c-56f36651134b","ios":"levelo://app?vid=d7c027ce-affe-4e74-a76c-56f36651134b"},"vehicle_type_id":"4","last_reported":1732954332,"current_range_meters":40000,"station_id":"cpo3532slgdg3j2ikp40","pricing_plan_id":"cebpf4jnsgd1na2vs0mg"},{"bike_id":"7ae3bfe0-0498-4989-93a5-adfdfbd5c46a","system_id":"levelo_inurba_marseille","lat":43.31115,"lon":5.37764,"is_reserved":false,"is_disabled":false,"rental_uris":{"android":"levelo://app?vid=7ae3bfe0-0498-4989-93a5-adfdfbd5c46a","ios":"levelo://app?vid=7ae3bfe0-0498-4989-93a5-adfdfbd5c46a"},"vehicle_type_id":"4","last_reported":1732954332,"current_range_meters":38800,"station_id":"ce4bgt92rcd13ifvqcg0","pricing_plan_id":"cebpf4jnsgd1na2vs0mg"},{"bike_id":"260e1c83-163c-4245-aac9-ecfe00192613","system_id":"levelo_inurba_marseille","lat":43.31682,"lon":5.40475,"is_reserved":false,"is_disabled":false,"rental_uris":{"android":"levelo://app?vid=260e1c83-163c-4245-aac9-ecfe00192613","ios":"levelo://app?vid=260e1c83-163c-4245-aac9-ecfe00192613"},"vehicle_type_id":"4","last_reported":1732954332,"current_range_meters":30800,"station_id":"ce4bh012rcd13ifvqd00","pricing_plan_id":"cebpf4jnsgd1na2vs0mg"},{"bike_id":"c9a73a61-3498-4d87-b111-55a239aeae7c","system_id":"levelo_inurba_marseille","lat":43.29501,"lon":5.39034,"is_reserved":false,"is_disabled":false,"rental_uris":{"android":"levelo://app?vid=c9a73a61-3498-4d87-b111-55a239aeae7c","ios":"levelo://app?vid=c9a73a61-3498-4d87-b111-55a239aeae7c"},"vehicle_type_id":"4","last_reported":1732954332,"current_range_meters":19600,"station_id":"ce4bh3p2rcd13ifvqdp0","pricing_plan_id":"cebpf4jnsgd1na2vs0mg"},{"bike_id":"fc4d15f5-6256-45a3-90d6-77bb4c676955","system_id":"levelo_inurba_marseille","lat":43.296284,"lon":5.377877,"is_reserved":false,"is_disabled":true,"rental_uris":{"android":"levelo://app?vid=fc4d15f5-6256-45a3-90d6-77bb4c676955","ios":"levelo://app?vid=fc4d15f5-6256-45a3-90d6-77bb4c676955"},"vehicle_type_id":"4","last_reported":1732954332,"current_range_meters":25600,"station_id":"","pricing_plan_id":"cebpf4jnsgd1na2vs0mg"},{"bike_id":"8a0291f2-ebd3-4755-be2d-09bbcc22d5e3","system_id":"levelo_inurba_marseille","lat":43.280843,"lon":5.39655,"is_reserved":false,"is_disabled":false,"rental_uris":{"android":"levelo://app?vid=8a0291f2-ebd3-4755-be2d-09bbcc22d5e3","ios":"levelo://app?vid=8a0291f2-ebd3-4755-be2d-09bbcc22d5e3"},"vehicle_type_id":"4","last_reported":1732954332,"current_range_meters":38000,"station_id":"ce4bho12rcd13ifvqh2g","pricing_plan_id":"cebpf4jnsgd1na2vs0mg"},{"bike_id":"c88f8730-1176-4717-97e2-17c27b15274f","system_id":"levelo_inurba_marseille","lat":43.2319,"lon":5.35544,"is_reserved":false,"is_disabled":false,"rental_uris":{"android":"levelo://app?vid=c88f8730-1176-4717-97e2-17c27b15274f","ios":"levelo://app?vid=c88f8730-1176-4717-97e2-17c27b15274f"},"vehicle_type_id":"4","last_reported":1732954332,"current_range_meters":40000,"station_id":"ce4bhu92rcd13ifvqi70","pricing_plan_id":"cebpf4jnsgd1na2vs0mg"},{"bike_id":"281da263-3659-483b-af2b-efa6795d08be","system_id":"levelo_inurba_marseille","lat":43.23176,"lon":5.3999,"is_reserved":false,"is_disabled":false,"rental_uris":{"android":"levelo://app?vid=281da263-3659-483b-af2b-efa6795d08be","ios":"levelo://app?vid=281da263-3659-483b-af2b-efa6795d08be"},"vehicle_type_id":"4","last_reported":1732954332,"current_range_meters":25200,"station_id":"ce4bhn12rcd13ifvqgqg","pricing_plan_id":"cebpf4jnsgd1na2vs0mg"},{"bike_id":"d8bdcde7-e12a-4f21-a275-8a5ecb244744","system_id":"levelo_inurba_marseille","lat":43.31067,"lon":5.38343,"is_reserved":false,"is_disabled":true,"rental_uris":{"android":"levelo://app?vid=d8bdcde7-e12a-4f21-a275-8a5ecb244744","ios":"levelo://app?vid=d8bdcde7-e12a-4f21-a275-8a5ecb244744"},"vehicle_type_id":"4","last_reported":1732954332,"current_range_meters":23200,"station_id":"ce4bgv92rcd13ifvqcr0","pricing_plan_id":"cebpf4jnsgd1na2vs0mg"},{"bike_id":"da719756-3742-4209-8d60-b3804f08c501","system_id":"levelo_inurba_marseille","lat":43.30299,"lon":5.36889,"is_reserved":false,"is_disabled":false,"rental_uris":{"android":"levelo://app?vid=da719756-3742-4209-8d60-b3804f08c501","ios":"levelo://app?vid=da719756-3742-4209-8d60-b3804f08c501"},"vehicle_type_id":"4","last_reported":1732954332,"current_range_meters":35200,"station_id":"ce4bgqh2rcd13ifvqc5g","pricing_plan_id":"cebpf4jnsgd1na2vs0mg"},{"bike_id":"5547a441-9653-482c-905c-97a54076438b","system_id":"levelo_inurba_marseille","lat":43.32361,"lon":5.36767,"is_reserved":false,"is_disabled":false,"rental_uris":{"android":"levelo://app?vid=5547a441-9653-482c-905c-97a54076438b","ios":"levelo://app?vid=5547a441-9653-482c-905c-97a54076438b"},"vehicle_type_id":"4","last_reported":1732954332,"current_range_meters":16400,"station_id":"ce4bhsh2rcd13ifvqi2g","pricing_plan_id":"cebpf4jnsgd1na2vs0mg"},{"bike_id":"4744d8d4-874c-43b3-9198-08b98c9b2608","system_id":"levelo_inurba_marseille","lat":43.29639,"lon":5.40594,"is_reserved":false,"is_disabled":false,"rental_uris":{"android":"levelo://app?vid=4744d8d4-874c-43b3-9198-08b98c9b2608","ios":"levelo://app?vid=4744d8d4-874c-43b3-9198-08b98c9b2608"},"vehicle_type_id":"4","last_reported":1732954332,"current_range_meters":38800,"station_id":"ce4bh0h2rcd13ifvqd60","pricing_plan_id":"cebpf4jnsgd1na2vs0mg"},{"bike_id":"bca4b4e4-9270-4b70-8330-b15c8c3e279e","system_id":"levelo_inurba_marseille","lat":43.29572,"lon":5.39986,"is_reserved":false,"is_disabled":false,"rental_uris":{"android":"levelo://app?vid=bca4b4e4-9270-4b70-8330-b15c8c3e279e","ios":"levelo://app?vid=bca4b4e4-9270-4b70-8330-b15c8c3e279e"},"vehicle_type_id":"4","last_reported":1732954332,"current_range_meters":36400,"station_id":"ce4bh312rcd13ifvqdj0","pricing_plan_id":"cebpf4jnsgd1na2vs0mg"},{"bike_id":"af465613-ea2e-4c6e-b2ce-111c8ea45991","system_id":"levelo_inurba_marseille","lat":43.29806,"lon":5.38098,"is_reserved":false,"is_disabled":false,"rental_uris":{"android":"levelo://app?vid=af465613-ea2e-4c6e-b2ce-111c8ea45991","ios":"levelo://app?vid=af465613-ea2e-4c6e-b2ce-111c8ea45991"},"vehicle_type_id":"4","last_reported":1732954332,"current_range_meters":36800,"station_id":"ce4bgip2rcd13ifvqbb0","pricing_plan_id":"cebpf4jnsgd1na2vs0mg"},{"bike_id":"7a059098-ff11-4ed4-be43-36efa1963566","system_id":"levelo_inurba_marseille","lat":43.32367,"lon":5.38878,"is_reserved":false,"is_disabled":false,"rental_uris":{"android":"levelo://app?vid=7a059098-ff11-4ed4-be43-36efa1963566","ios":"levelo://app?vid=7a059098-ff11-4ed4-be43-36efa1963566"},"vehicle_type_id":"4","last_reported":1732954332,"current_range_meters":38000,"station_id":"ce4bhqp2rcd13ifvqhog","pricing_plan_id":"cebpf4jnsgd1na2vs0mg"},{"bike_id":"2545b486-f597-4ecd-8508-05df785b0c49","system_id":"levelo_inurba_marseille","lat":43.33021,"lon":5.39036,"is_reserved":false,"is_disabled":false,"rental_uris":{"android":"levelo://app?vid=2545b486-f597-4ecd-8508-05df785b0c49","ios":"levelo://app?vid=2545b486-f597-4ecd-8508-05df785b0c49"},