{"last_updated":1711408013,"ttl":30,"version":"2.2","data":{"bikes":[{"bike_id":"5bbcdb90-717f-411b-a31f-cb96cceaf783","system_id":"levelo_inurba_marseille","lat":43.313391,"lon":5.36706,"is_reserved":false,"is_disabled":false,"rental_uris":{"android":"levelo://app?vid=5bbcdb90-717f-411b-a31f-cb96cceaf783","ios":"levelo://app?vid=5bbcdb90-717f-411b-a31f-cb96cceaf783"},"vehicle_type_id":"4","last_reported":1711408013,"current_range_meters":18800,"station_id":"ce4bgr92rcd13ifvqc6g","pricing_plan_id":"cebpf4jnsgd1na2vs0mg"},{"bike_id":"6214468b-7142-491f-87bd-7df55f894ccf","system_id":"levelo_inurba_marseille","lat":43.313391,"lon":5.36706,"is_reserved":false,"is_disabled":false,"rental_uris":{"android":"levelo://app?vid=6214468b-7142-491f-87bd-7df55f894ccf","ios":"levelo://app?vid=6214468b-7142-491f-87bd-7df55f894ccf"},"vehicle_type_id":"4","last_reported":1711408013,"current_range_meters":30000,"station_id":"ce4bgr92rcd13ifvqc6g","pricing_plan_id":"cebpf4jnsgd1na2vs0mg"},{"bike_id":"70339a7a-990d-45c5-ad62-b11e92deab02","system_id":"levelo_inurba_marseille","lat":43.309076,"lon":5.368465,"is_reserved":false,"is_disabled":false,"rental_uris":{"android":"levelo://app?vid=70339a7a-990d-45c5-ad62-b11e92deab02","ios":"levelo://app?vid=70339a7a-990d-45c5-ad62-b11e92deab02"},"vehicle_type_id":"4","last_reported":1711408013,"current_range_meters":9200,"station_id":"ce4bgn92rcd13ifvqbvg","pricing_plan_id":"cebpf4jnsgd1na2vs0mg"},{"bike_id":"b40e451e-edc3-459c-a98a-a730d0100da0","system_id":"levelo_inurba_marseille","lat":43.309076,"lon":5.368465,"is_reserved":false,"is_disabled":false,"rental_uris":{"android":"levelo://app?vid=b40e451e-edc3-459c-a98a-a730d0100da0","ios":"levelo://app?vid=b40e451e-edc3-459c-a98a-a730d0100da0"},"vehicle_type_id":"4","last_reported":1711408013,"current_range_meters":18800,"station_id":"ce4bgn92rcd13ifvqbvg","pricing_plan_id":"cebpf4jnsgd1na2vs0mg"},{"bike_id":"f64441b7-5481-414b-9c8c-42b2313465fe","system_id":"levelo_inurba_marseille","lat":43.314811,"lon":5.373103,"is_reserved":false,"is_disabled":false,"rental_uris":{"android":"levelo://app?vid=f64441b7-5481-414b-9c8c-42b2313465fe","ios":"levelo://app?vid=f64441b7-5481-414b-9c8c-42b2313465fe"},"vehicle_type_id":"4","last_reported":1711408013,"current_range_meters":6800,"station_id":"ce4bgt12rcd13ifvqcd0","pricing_plan_id":"cebpf4jnsgd1na2vs0mg"},{"bike_id":"46e6982a-e81e-450a-a1b3-bf78ebdbe6f8","system_id":"levelo_inurba_marseille","lat":43.309039,"lon":5.371797,"is_reserved":false,"is_disabled":false,"rental_uris":{"android":"levelo://app?vid=46e6982a-e81e-450a-a1b3-bf78ebdbe6f8","ios":"levelo://app?vid=46e6982a-e81e-450a-a1b3-bf78ebdbe6f8"},"vehicle_type_id":"4","last_reported":1711408013,"current_range_meters":27600,"station_id":"ce4bguh2rcd13ifvqckg","pricing_plan_id":"cebpf4jnsgd1na2vs0mg"},{"bike_id":"3672d290-b867-417a-9fef-1e6cc79107f7","system_id":"levelo_inurba_marseille","lat":43.309039,"lon":5.371797,"is_reserved":false,"is_disabled":false,"rental_uris":{"android":"levelo://app?vid=3672d290-b867-417a-9fef-1e6cc79107f7","ios":"levelo://app?vid=3672d290-b867-417a-9fef-1e6cc79107f7"},"vehicle_type_id":"4","last_reported":1711408013,"current_range_meters":18400,"station_id":"ce4bguh2rcd13ifvqckg","pricing_plan_id":"cebpf4jnsgd1na2vs0mg"},{"bike_id":"650fa614-f6f6-4937-a414-ec92c04fffd3","system_id":"levelo_inurba_marseille","lat":43.309034,"lon":5.371783,"is_reserved":false,"is_disabled":false,"rental_uris":{"android":"levelo://app?vid=650fa614-f6f6-4937-a414-ec92c04fffd3","ios":"levelo://app?vid=650fa614-f6f6-4937-a414-ec92c04fffd3"},"vehicle_type_id":"4","last_reported":1711408013,"current_range_meters":26800,"station_id":"ce4bguh2rcd13ifvqckg","pricing_plan_id":"cebpf4jnsgd1na2vs0mg"},{"bike_id":"194e6ce4-dfd4-4ef7-a008-4d29d10c490a","system_id":"levelo_inurba_marseille","lat":43.309039,"lon":5.371797,"is_reserved":false,"is_disabled":false,"rental_uris":{"android":"levelo://app?vid=194e6ce4-dfd4-4ef7-a008-4d29d10c490a","ios":"levelo://app?vid=194e6ce4-dfd4-4ef7-a008-4d29d10c490a"},"vehicle_type_id":"4","last_reported":1711408013,"current_range_meters":16400,"station_id":"ce4bguh2rcd13ifvqckg","pricing_plan_id":"cebpf4jnsgd1na2vs0mg"},{"bike_id":"01530131-6c15-42cd-b329-3092dde91f8b","system_id":"levelo_inurba_marseille","lat":43.30874,"lon":5.37178,"is_reserved":false,"is_disabled":false,"rental_uris":{"android":"levelo://app?vid=01530131-6c15-42cd-b329-3092dde91f8b","ios":"levelo://app?vid=01530131-6c15-42cd-b329-3092dde91f8b"},"vehicle_type_id":"4","last_reported":1711408013,"current_range_meters":31200,"station_id":"ce4bguh2rcd13ifvqckg","pricing_plan_id":"cebpf4jnsgd1na2vs0mg"},{"bike_id":"7d08fe03-b0a6-44d2-899e-4f03ba3c4278","system_id":"levelo_inurba_marseille","lat":43.305368,"lon":5.367343,"is_reserved":false,"is_disabled":false,"rental_uris":{"android":"levelo://app?vid=7d08fe03-b0a6-44d2-899e-4f03ba3c4278","ios":"levelo://app?vid=7d08fe03-b0a6-44d2-899e-4f03ba3c4278"},"vehicle_type_id":"4","last_reported":1711408013,"current_range_meters":20000,"station_id":"ce4bgrp2rcd13ifvqc9g","pricing_plan_id":"cebpf4jnsgd1na2vs0mg"},{"bike_id":"55433707-4a44-4f37-a7d3-665ba1a32cdf","system_id":"levelo_inurba_marseille","lat":43.305714,"lon":5.365633,"is_reserved":false,"is_disabled":false,"rental_uris":{"android":"levelo://app?vid=55433707-4a44-4f37-a7d3-665ba1a32cdf","ios":"levelo://app?vid=55433707-4a44-4f37-a7d3-665ba1a32cdf"},"vehicle_type_id":"4","last_reported":1711408013,"current_range_meters":25600,"station_id":"ce4bgs12rcd13ifvqcag","pricing_plan_id":"cebpf4jnsgd1na2vs0mg"},{"bike_id":"74914596-ce2a-43a8-9c5f-0c2756c96ff2","system_id":"levelo_inurba_marseille","lat":43.305368,"lon":5.367343,"is_reserved":false,"is_disabled":false,"rental_uris":{"android":"levelo://app?vid=74914596-ce2a-43a8-9c5f-0c2756c96ff2","ios":"levelo://app?vid=74914596-ce2a-43a8-9c5f-0c2756c96ff2"},"vehicle_type_id":"4","last_reported":1711408013,"current_range_meters":24800,"station_id":"ce4bgrp2rcd13ifvqc9g","pricing_plan_id":"cebpf4jnsgd1na2vs0mg"},{"bike_id":"2f34a1c1-4ce8-422d-9cda-33134f8ceee8","system_id":"levelo_inurba_marseille","lat":43.305368,"lon":5.367343,"is_reserved":false,"is_disabled":false,"rental_uris":{"android":"levelo://app?vid=2f34a1c1-4ce8-422d-9cda-33134f8ceee8","ios":"levelo://app?vid=2f34a1c1-4ce8-422d-9cda-33134f8ceee8"},"vehicle_type_id":"4","last_reported":1711408013,"current_range_meters":24400,"station_id":"ce4bgrp2rcd13ifvqc9g","pricing_plan_id":"cebpf4jnsgd1na2vs0mg"},{"bike_id":"cc7e88be-70a1-46dc-b706-e15a7c69356a","system_id":"levelo_inurba_marseille","lat":43.305989,"lon":5.37225,"is_reserved":false,"is_disabled":false,"rental_uris":{"android":"levelo://app?vid=cc7e88be-70a1-46dc-b706-e15a7c69356a","ios":"levelo://app?vid=cc7e88be-70a1-46dc-b706-e15a7c69356a"},"vehicle_type_id":"4","last_reported":1711408013,"current_range_meters":28400,"station_id":"ce4bgqh2rcd13ifvqc4g","pricing_plan_id":"cebpf4jnsgd1na2vs0mg"},{"bike_id":"79a63b1f-4c54-4dea-b3e8-ebb487525e23","system_id":"levelo_inurba_marseille","lat":43.311164,"lon":5.377598,"is_reserved":false,"is_disabled":false,"rental_uris":{"android":"levelo://app?vid=79a63b1f-4c54-4dea-b3e8-ebb487525e23","ios":"levelo://app?vid=79a63b1f-4c54-4dea-b3e8-ebb487525e23"},"vehicle_type_id":"4","last_reported":1711408013,"current_range_meters":800,"station_id":"ce4bgt92rcd13ifvqcg0","pricing_plan_id":"cebpf4jnsgd1na2vs0mg"},{"bike_id":"2dcc38a2-fed9-4260-ad30-59d5730321df","system_id":"levelo_inurba_marseille","lat":43.311131,"lon":5.377651,"is_reserved":false,"is_disabled":false,"rental_uris":{"android":"levelo://app?vid=2dcc38a2-fed9-4260-ad30-59d5730321df","ios":"levelo://app?vid=2dcc38a2-fed9-4260-ad30-59d5730321df"},"vehicle_type_id":"4","last_reported":1711408013,"current_range_meters":12000,"station_id":"ce4bgt92rcd13ifvqcg0","pricing_plan_id":"cebpf4jnsgd1na2vs0mg"},{"bike_id":"3d305cf6-ee62-4194-80e7-b323e4b7780c","system_id":"levelo_inurba_marseille","lat":43.311131,"lon":5.377651,"is_reserved":false,"is_disabled":false,"rental_uris":{"android":"levelo://app?vid=3d305cf6-ee62-4194-80e7-b323e4b7780c","ios":"levelo://app?vid=3d305cf6-ee62-4194-80e7-b323e4b7780c"},"vehicle_type_id":"4","last_reported":1711408013,"current_range_meters":16800,"station_id":"ce4bgt92rcd13ifvqcg0","pricing_plan_id":"cebpf4jnsgd1na2vs0mg"},{"bike_id":"adb09b67-c72b-465f-970a-91f35676e756","system_id":"levelo_inurba_marseille","lat":43.311131,"lon":5.377651,"is_reserved":false,"is_disabled":false,"rental_uris":{"android":"levelo://app?vid=adb09b67-c72b-465f-970a-91f35676e756","ios":"levelo://app?vid=adb09b67-c72b-465f-970a-91f35676e756"},"vehicle_type_id":"4","last_reported":1711408013,"current_range_meters":14400,"station_id":"ce4bgt92rcd13ifvqcg0","pricing_plan_id":"cebpf4jnsgd1na2vs0mg"},{"bike_id":"18d57fa9-5db9-46e1-821e-6e91b1354a1a","system_id":"levelo_inurba_marseille","lat":43.307945,"lon":5.376487,"is_reserved":false,"is_disabled":false,"rental_uris":{"android":"levelo://app?vid=18d57fa9-5db9-46e1-821e-6e91b1354a1a","ios":"levelo://app?vid=18d57fa9-5db9-46e1-821e-6e91b1354a1a"},"vehicle_type_id":"4","last_reported":1711408013,"current_range_meters":12000,"station_id":"ce4bgv92rcd13ifvqcq0","pricing_plan_id":"cebpf4jnsgd1na2vs0mg"},{"bike_id":"fe495a54-f196-411a-b414-c3ef87a55015","system_id":"levelo_inurba_marseille","lat":43.32147,"lon":5.36746,"is_reserved":false,"is_disabled":false,"rental_uris":{"android":"levelo://app?vid=fe495a54-f196-411a-b414-c3ef87a55015","ios":"levelo://app?vid=fe495a54-f196-411a-b414-c3ef87a55015"},"vehicle_type_id":"4","last_reported":1711408013,"current_range_meters":15200,"station_id":"","pricing_plan_id":"cebpf4jnsgd1na2vs0mg"},{"bike_id":"fa12fedc-c150-4959-8172-462b429a0446","system_id":"levelo_inurba_marseille","lat":43.317075,"lon":5.377367,"is_reserved":false,"is_disabled":false,"rental_uris":{"android":"levelo://app?vid=fa12fedc-c150-4959-8172-462b429a0446","ios":"levelo://app?vid=fa12fedc-c150-4959-8172-462b429a0446"},"vehicle_type_id":"4","last_reported":1711408013,"current_range_meters":13200,"station_id":"ce4bgth2rcd13ifvqch0","pricing_plan_id":"cebpf4jnsgd1na2vs0mg"},{"bike_id":"939b6bf5-1fce-4acd-bd94-4a1c05f12092","system_id":"levelo_inurba_marseille","lat":43.317059,"lon":5.377424,"is_reserved":false,"is_disabled":false,"rental_uris":{"android":"levelo://app?vid=939b6bf5-1fce-4acd-bd94-4a1c05f12092","ios":"levelo://app?vid=939b6bf5-1fce-4acd-bd94-4a1c05f12092"},"vehicle_type_id":"4","last_reported":1711408013,"current_range_meters":6800,"station_id":"ce4bgth2rcd13ifvqch0","pricing_plan_id":"cebpf4jnsgd1na2vs0mg"},{"bike_id":"d786829b-5310-4a29-91e8-f1ec5b58b820","system_id":"levelo_inurba_marseille","lat":43.317075,"lon":5.377367,"is_reserved":false,"is_disabled":false,"rental_uris":{"android":"levelo://app?vid=d786829b-5310-4a29-91e8-f1ec5b58b820","ios":"levelo://app?vid=d786829b-5310-4a29-91e8-f1ec5b58b820"},"vehicle_type_id":"4","last_reported":1711408013,"current_range_meters":31600,"station_id":"ce4bgth2rcd13ifvqch0","pricing_plan_id":"cebpf4jnsgd1na2vs0mg"},{"bike_id":"3be59f50-e136-4bb8-8233-ed730ff76909","system_id":"levelo_inurba_marseille","lat":43.317075,"lon":5.377367,"is_reserved":false,"is_disabled":false,"rental_uris":{"android":"levelo://app?vid=3be59f50-e136-4bb8-8233-ed730ff76909","ios":"levelo://app?vid=3be59f50-e136-4bb8-8233-ed730ff76909"},"vehicle_type_id":"4","last_reported":1711408013,"current_range_meters":8800,"station_id":"ce4bgth2rcd13ifvqch0","pricing_plan_id":"cebpf4jnsgd1na2vs0mg"},{"bike_id":"b4e5d7d1-723e-4af0-8684-0a80a02c9a14","system_id":"levelo_inurba_marseille","lat":43.317075,"lon":5.377367,"is_reserved":false,"is_disabled":false,"rental_uris":{"android":"levelo://app?vid=b4e5d7d1-723e-4af0-8684-0a80a02c9a14","ios":"levelo://app?vid=b4e5d7d1-723e-4af0-8684-0a80a02c9a14"},"vehicle_type_id":"4","last_reported":1711408013,"current_range_meters":30800,"station_id":"ce4bgth2rcd13ifvqch0","pricing_plan_id":"cebpf4jnsgd1na2vs0mg"},{"bike_id":"fb2cc470-409c-4d78-aeb7-3a145b7b2b0b","system_id":"levelo_inurba_marseille","lat":43.317075,"lon":5.377367,"is_reserved":false,"is_disabled":false,"rental_uris":{"android":"levelo://app?vid=fb2cc470-409c-4d78-aeb7-3a145b7b2b0b","ios":"levelo://app?vid=fb2cc470-409c-4d78-aeb7-3a145b7b2b0b"},"vehicle_type_id":"4","last_reported":1711408013,"current_range_meters":8800,"station_id":"ce4bgth2rcd13ifvqch0","pricing_plan_id":"cebpf4jnsgd1na2vs0mg"},{"bike_id":"ac99bd84-6c08-4261-80b5-1fd219569640","system_id":"levelo_inurba_marseille","lat":43.303046,"lon":5.368981,"is_reserved":false,"is_disabled":false,"rental_uris":{"android":"levelo://app?vid=ac99bd84-6c08-4261-80b5-1fd219569640","ios":"levelo://app?vid=ac99bd84-6c08-4261-80b5-1fd219569640"},"vehicle_type_id":"4","last_reported":1711408013,"current_range_meters":24800,"station_id":"ce4bgqh2rcd13ifvqc5g","pricing_plan_id":"cebpf4jnsgd1na2vs0mg"},{"bike_id":"7526b5bd-7103-44e0-91cc-ab5a7745e752","system_id":"levelo_inurba_marseille","lat":43.303046,"lon":5.368981,"is_reserved":false,"is_disabled":false,"rental_uris":{"android":"levelo://app?vid=7526b5bd-7103-44e0-91cc-ab5a7745e752","ios":"levelo://app?vid=7526b5bd-7103-44e0-91cc-ab5a7745e752"},"vehicle_type_id":"4","last_reported":1711408013,"current_range_meters":3600,"station_id":"ce4bgqh2rcd13ifvqc5g","pricing_plan_id":"cebpf4jnsgd1na2vs0mg"},{"bike_id":"49c6c828-8e54-4301-9331-cf508263bb4c","system_id":"levelo_inurba_marseille","lat":43.303046,"lon":5.368981,"is_reserved":false,"is_disabled":false,"rental_uris":{"android":"levelo://app?vid=49c6c828-8e54-4301-9331-cf508263bb4c","ios":"levelo://app?vid=49c6c828-8e54-4301-9331-cf508263bb4c"},"vehicle_type_id":"4","last_reported":1711408013,"current_range_meters":18000,"station_id":"ce4bgqh2rcd13ifvqc5g","pricing_plan_id":"cebpf4jnsgd1na2vs0mg"},{"bike_id":"7d20f22e-21f9-45d5-9611-98f24ba7ec26","system_id":"levelo_inurba_marseille","lat":43.315293,"lon":5.380349,"is_reserved":false,"is_disabled":false,"rental_uris":{"android":"levelo://app?vid=7d20f22e-21f9-45d5-9611-98f24ba7ec26","ios":"levelo://app?vid=7d20f22e-21f9-45d5-9611-98f24ba7ec26"},"vehicle_type_id":"4","last_reported":1711408013,"current_range_meters":25600,"station_id":"ce4bhsp2rcd13ifvqi50","pricing_plan_id":"cebpf4jnsgd1na2vs0mg"},{"bike_id":"9180e575-bba3-4c87-9987-a37c573b6798","system_id":"levelo_inurba_marseille","lat":43.315289,"lon":5.380349,"is_reserved":false,"is_disabled":false,"rental_uris":{"android":"levelo://app?vid=9180e575-bba3-4c87-9987-a37c573b6798","ios":"levelo://app?vid=9180e575-bba3-4c87-9987-a37c573b6798"},"vehicle_type_id":"4","last_reported":1711408013,"current_range_meters":26800,"station_id":"ce4bhsp2rcd13ifvqi50","pricing_plan_id":"cebpf4jnsgd1na2vs0mg"},{"bike_id":"1e170cde-a6d8-4bb7-b1b1-5d03db5a4998","system_id":"levelo_inurba_marseille","lat":43.301939,"lon":5.366286,"is_reserved":false,"is_disabled":false,"rental_uris":{"android":"levelo://app?vid=1e170cde-a6d8-4bb7-b1b1-5d03db5a4998","ios":"levelo://app?vid=1e170cde-a6d8-4bb7-b1b1-5d03db5a4998"},"vehicle_type_id":"4","last_reported":1711408013,"current_range_meters":12400,"station_id":"ce4bgrh2rcd13ifvqc8g","pricing_plan_id":"cebpf4jnsgd1na2vs0mg"},{"bike_id":"c0e2dbea-3c21-4e66-b050-4884c9ac2745","system_id":"levelo_inurba_marseille","lat":43.301939,"lon":5.366286,"is_reserved":false,"is_disabled":false,"rental_uris":{"android":"levelo://app?vid=c0e2dbea-3c21-4e66-b050-4884c9ac2745","ios":"levelo://app?vid=c0e2dbea-3c21-4e66-b050-4884c9ac2745"},"vehicle_type_id":"4","last_reported":1711408013,"current_range_meters":17600,"station_id":"ce4bgrh2rcd13ifvqc8g","pricing_plan_id":"cebpf4jnsgd1na2vs0mg"},{"bike_id":"a64bfef1-9278-47c4-af81-2fcd4957ecf7","system_id":"levelo_inurba_marseille","lat":43.301939,"lon":5.366286,"is_reserved":false,"is_disabled":false,"rental_uris":{"android":"levelo://app?vid=a64bfef1-9278-47c4-af81-2fcd4957ecf7","ios":"levelo://app?vid=a64bfef1-9278-47c4-af81-2fcd4957ecf7"},"vehicle_type_id":"4","last_reported":1711408013,"current_range_meters":17200,"station_id":"ce4bgrh2rcd13ifvqc8g","pricing_plan_id":"cebpf4jnsgd1na2vs0mg"},{"bike_id":"e199611b-e232-4ae4-a303-e5f1afad7aaf","system_id":"levelo_inurba_marseille","lat":43.301939,"lon":5.366286,"is_reserved":false,"is_disabled":false,"rental_uris":{"android":"levelo://app?vid=e199611b-e232-4ae4-a303-e5f1afad7aaf","ios":"levelo://app?vid=e199611b-e232-4ae4-a303-e5f1afad7aaf"},"vehicle_type_id":"4","last_reported":1711408013,"current_range_meters":10400,"station_id":"ce4bgrh2rcd13ifvqc8g","pricing_plan_id":"cebpf4jnsgd1na2vs0mg"},{"bike_id":"618528e9-9e5f-405c-94ed-b83683a3e3dd","system_id":"levelo_inurba_marseille","lat":43.301939,"lon":5.366286,"is_reserved":false,"is_disabled":false,"rental_uris":{"android":"levelo://app?vid=618528e9-9e5f-405c-94ed-b83683a3e3dd","ios":"levelo://app?vid=618528e9-9e5f-405c-94ed-b83683a3e3dd"},"vehicle_type_id":"4","last_reported":1711408013,"current_range_meters":19200,"station_id":"ce4bgrh2rcd13ifvqc8g","pricing_plan_id":"cebpf4jnsgd1na2vs0mg"},{"bike_id":"4cfa80d3-80af-43c0-b968-7355874d8159","system_id":"levelo_inurba_marseille","lat":43.301939,"lon":5.366286,"is_reserved":false,"is_disabled":false,"rental_uris":{"android":"levelo://app?vid=4cfa80d3-80af-43c0-b968-7355874d8159","ios":"levelo://app?vid=4cfa80d3-80af-43c0-b968-7355874d8159"},"vehicle_type_id":"4","last_reported":1711408013,"current_range_meters":26000,"station_id":"ce4bgrh2rcd13ifvqc8g","pricing_plan_id":"cebpf4jnsgd1na2vs0mg"},{"bike_id":"5183056f-80b4-4437-9d6a-445fa09ef04c","system_id":"levelo_inurba_marseille","lat":43.301939,"lon":5.366286,"is_reserved":false,"is_disabled":false,"rental_uris":{"android":"levelo://app?vid=5183056f-80b4-4437-9d6a-445fa09ef04c","ios":"levelo://app?vid=5183056f-80b4-4437-9d6a-445fa09ef04c"},"vehicle_type_id":"4","last_reported":1711408013,"current_range_meters":30800,"station_id":"ce4bgrh2rcd13ifvqc8g","pricing_plan_id":"cebpf4jnsgd1na2vs0mg"},{"bike_id":"e95f7f7c-892f-43f0-875c-813ac82589ff","system_id":"levelo_inurba_marseille","lat":43.308012,"lon":5.381511,"is_reserved":false,"is_disabled":false,"rental_uris":{"android":"levelo://app?vid=e95f7f7c-892f-43f0-875c-813ac82589ff","ios":"levelo://app?vid=e95f7f7c-892f-43f0-875c-813ac82589ff"},"vehicle_type_id":"4","last_reported":1711408013,"current_range_meters":20000,"station_id":"ce4bgt12rcd13ifvqce0","pricing_plan_id":"cebpf4jnsgd1na2vs0mg"},{"bike_id":"aa5b0390-5d05-4819-bc6b-6552633e7bed","system_id":"levelo_inurba_marseille","lat":43.308012,"lon":5.381511,"is_reserved":false,"is_disabled":false,"rental_uris":{"android":"levelo://app?vid=aa5b0390-5d05-4819-bc6b-6552633e7bed","ios":"levelo://app?vid=aa5b0390-5d05-4819-bc6b-6552633e7bed"},"vehicle_type_id":"4","last_reported":1711408013,"current_range_meters":22800,"station_id":"ce4bgt12rcd13ifvqce0","pricing_plan_id":"cebpf4jnsgd1na2vs0mg"},{"bike_id":"00e11659-d762-457a-aa23-325c0ced0bbf","system_id":"levelo_inurba_marseille","lat":43.308012,"lon":5.381511,"is_reserved":false,"is_disabled":false,"rental_uris":{"android":"levelo://app?vid=00e11659-d762-457a-aa23-325c0ced0bbf","ios":"levelo://app?vid=00e11659-d762-457a-aa23-325c0ced0bbf"},"vehicle_type_id":"4","last_reported":1711408013,"current_range_meters":19200,"station_id":"ce4bgt12rcd13ifvqce0","pricing_plan_id":"cebpf4jnsgd1na2vs0mg"},{"bike_id":"830e11aa-ede8-44e9-bd32-fe5b0a0dff29","system_id":"levelo_inurba_marseille","lat":43.308012,"lon":5.381511,"is_reserved":false,"is_disabled":false,"rental_uris":{"android":"levelo://app?vid=830e11aa-ede8-44e9-bd32-fe5b0a0dff29","ios":"levelo://app?vid=830e11aa-ede8-44e9-bd32-fe5b0a0dff29"},"vehicle_type_id":"4","last_reported":1711408013,"current_range_meters":25600,"station_id":"ce4bgt12rcd13ifvqce0","pricing_plan_id":"cebpf4jnsgd1na2vs0mg"},{"bike_id":"bb7447ee-9f19-4b84-bc68-c9a31907a312","system_id":"levelo_inurba_marseille","lat":43.308012,"lon":5.381511,"is_reserved":false,"is_disabled":false,"rental_uris":{"android":"levelo://app?vid=bb7447ee-9f19-4b84-bc68-c9a31907a312","ios":"levelo://app?vid=bb7447ee-9f19-4b84-bc68-c9a31907a312"},"vehicle_type_id":"4","last_reported":1711408013,"current_range_meters":8800,"station_id":"ce4bgt12rcd13ifvqce0","pricing_plan_id":"cebpf4jnsgd1na2vs0mg"},{"bike_id":"80c6f191-10d7-4c83-a32d-bad330f836d6","system_id":"levelo_inurba_marseille","lat":43.308012,"lon":5.381511,"is_reserved":false,"is_disabled":false,"rental_uris":{"android":"levelo://app?vid=80c6f191-10d7-4c83-a32d-bad330f836d6","ios":"levelo://app?vid=80c6f191-10d7-4c83-a32d-bad330f836d6"},"vehicle_type_id":"4","last_reported":1711408013,"current_range_meters":16800,"station_id":"ce4bgt12rcd13ifvqce0","pricing_plan_id":"cebpf4jnsgd1na2vs0mg"},{"bike_id":"3651250a-0131-4549-b306-be1608c97912","system_id":"levelo_inurba_marseille","lat":43.308012,"lon":5.381511,"is_reserved":false,"is_disabled":false,"rental_uris":{"android":"levelo://app?vid=3651250a-0131-4549-b306-be1608c97912","ios":"levelo://app?vid=3651250a-0131-4549-b306-be1608c97912"},"vehicle_type_id":"4","last_reported":1711408013,"current_range_meters":3200,"station_id":"ce4bgt12rcd13ifvqce0","pricing_plan_id":"cebpf4jnsgd1na2vs0mg"},{"bike_id":"68bcaff6-c169-448d-82e9-b5405e03ddca","system_id":"levelo_inurba_marseille","lat":43.308012,"lon":5.381511,"is_reserved":false,"is_disabled":false,"rental_uris":{"android":"levelo://app?vid=68bcaff6-c169-448d-82e9-b5405e03ddca","ios":"levelo://app?vid=68bcaff6-c169-448d-82e9-b5405e03ddca"},"vehicle_type_id":"4","last_reported":1711408013,"current_range_meters":22000,"station_id":"ce4bgt12rcd13ifvqce0","pricing_plan_id":"cebpf4jnsgd1na2vs0mg"},{"bike_id":"12be5ff7-81c8-4883-b903-f46e1f342699","system_id":"levelo_inurba_marseille","lat":43.308012,"lon":5.381511,"is_reserved":false,"is_disabled":false,"rental_uris":{"android":"levelo://app?vid=12be5ff7-81c8-4883-b903-f46e1f342699","ios":"levelo://app?vid=12be5ff7-81c8-4883-b903-f46e1f342699"},"vehicle_type_id":"4","last_reported":1711408013,"current_range_meters":21200,"station_id":"ce4bgt12rcd13ifvqce0","pricing_plan_id":"cebpf4jnsgd1na2vs0mg"},{"bike_id":"5e693aa7-d1c0-408e-a6c7-00d944c7d643","system_id":"levelo_inurba_marseille","lat":43.308012,"lon":5.381511,"is_reserved":false,"is_disabled":false,"rental_uris":{"android":"levelo://app?vid=5e693aa7-d1c0-408e-a6c7-00d944c7d643","ios":"levelo://app?vid=5e693aa7-d1c0-408e-a6c7-00d944c7d643"},"vehicle_type_id":"4","last_reported":1711408013,"current_range_meters":12400,"station_id":"ce4bgt12rcd13ifvqce0","pricing_plan_id":"cebpf4jnsgd1na2vs0mg"},{"bike_id":"0964b34e-6c70-40e8-9aa5-77bb6b27f6b6","system_id":"levelo_inurba_marseille","lat":43.308012,"lon":5.381511,"is_reserved":false,"is_disabled":false,"rental_uris":{"android":"levelo://app?vid=0964b34e-6c70-40e8-9aa5-77bb6b27f6b6","ios":"levelo://app?vid=0964b34e-6c70-40e8-9aa5-77bb6b27f6b6"},"vehicle_type_id":"4","last_reported":1711408013,"current_range_meters":31600,"station_id":"ce4bgt12rcd13ifvqce0","pricing_plan_id":"cebpf4jnsgd1na2vs0mg"},{"bike_id":"eba2432b-e90f-4530-9fce-4edaddfc4130","system_id":"levelo_inurba_marseille","lat":43.308012,"lon":5.381511,"is_reserved":false,"is_disabled":false,"rental_uris":{"android":"levelo://app?vid=eba2432b-e90f-4530-9fce-4edaddfc4130","ios":"levelo://app?vid=eba2432b-e90f-4530-9fce-4edaddfc4130"},"vehicle_type_id":"4","last_reported":1711408013,"current_range_meters":11200,"station_id":"ce4bgt12rcd13ifvqce0","pricing_plan_id":"cebpf4jnsgd1na2vs0mg"},{"bike_id":"c80bf600-49eb-412a-9bd3-755835131af1","system_id":"levelo_inurba_marseille","lat":43.308012,"lon":5.381511,"is_reserved":false,"is_disabled":false,"rental_uris":{"android":"levelo://app?vid=c80bf600-49eb-412a-9bd3-755835131af1","ios":"levelo://app?vid=c80bf600-49eb-412a-9bd3-755835131af1"},"vehicle_type_id":"4","last_reported":1711408013,"current_range_meters":17600,"station_id":"ce4bgt12rcd13ifvqce0","pricing_plan_id":"cebpf4jnsgd1na2vs0mg"},{"bike_id":"07b05e7e-b240-49b2-aa30-ec278519be68","system_id":"levelo_inurba_marseille","lat":43.308012,"lon":5.381511,"is_reserved":false,"is_disabled":false,"rental_uris":{"android":"levelo://app?vid=07b05e7e-b240-49b2-aa30-ec278519be68","ios":"levelo://app?vid=07b05e7e-b240-49b2-aa30-ec278519be68"},"vehicle_type_id":"4","last_reported":1711408013,"current_range_meters":31200,"station_id":"ce4bgt12rcd13ifvqce0","pricing_plan_id":"cebpf4jnsgd1na2vs0mg"},{"bike_id":"a9c0c247-b46c-4f0a-8013-b710c17e7785","system_id":"levelo_inurba_marseille","lat":43.308012,"lon":5.381511,"is_reserved":false,"is_disabled":false,"rental_uris":{"android":"levelo://app?vid=a9c0c247-b46c-4f0a-8013-b710c17e7785","ios":"levelo://app?vid=a9c0c247-b46c-4f0a-8013-b710c17e7785"},"vehicle_type_id":"4","last_reported":1711408013,"current_range_meters":13200,"station_id":"ce4bgt12rcd13ifvqce0","pricing_plan_id":"cebpf4jnsgd1na2vs0mg"},{"bike_id":"929e7190-e528-4b05-b5a5-52523813a07e","system_id":"levelo_inurba_marseille","lat":43.308012,"lon":5.381511,"is_reserved":false,"is_disabled":false,"rental_uris":{"android":"levelo://app?vid=929e7190-e528-4b05-b5a5-52523813a07e","ios":"levelo://app?vid=929e7190-e528-4b05-b5a5-52523813a07e"},"vehicle_type_id":"4","last_reported":1711408013,"current_range_meters":27200,"station_id":"ce4bgt12rcd13ifvqce0","pricing_plan_id":"cebpf4jnsgd1na2vs0mg"},{"bike_id":"c18ea847-f7dc-4776-b2bd-2aa8b2b77d76","system_id":"levelo_inurba_marseille","lat":43.304606,"lon":5.379026,"is_reserved":false,"is_disabled":false,"rental_uris":{"android":"levelo://app?vid=c18ea847-f7dc-4776-b2bd-2aa8b2b77d76","ios":"levelo://app?vid=c18ea847-f7dc-4776-b2bd-2aa8b2b77d76"},"vehicle_type_id":"4","last_reported":1711408013,"current_range_meters":9600,"station_id":"ce4bgup2rcd13ifvqcn0","pricing_plan_id":"cebpf4jnsgd1na2vs0mg"},{"bike_id":"ee315106-341d-4bf1-9af2-6b11388a77d8","system_id":"levelo_inurba_marseille","lat":43.324771,"lon":5.36557,"is_reserved":false,"is_disabled":false,"rental_uris":{"android":"levelo://app?vid=ee315106-341d-4bf1-9af2-6b11388a77d8","ios":"levelo://app?vid=ee315106-341d-4bf1-9af2-6b11388a77d8"},"vehicle_type_id":"4","last_reported":1711408013,"current_range_meters":26400,"station_id":"ce4bhs12rcd13ifvqhvg","pricing_plan_id":"cebpf4jnsgd1na2vs0mg"},{"bike_id":"a0d31af7-370b-4f99-8c08-89a40e47803f","system_id":"levelo_inurba_marseille","lat":43.324771,"lon":5.36557,"is_reserved":false,"is_disabled":false,"rental_uris":{"android":"levelo://app?vid=a0d31af7-370b-4f99-8c08-89a40e47803f","ios":"levelo://app?vid=a0d31af7-370b-4f99-8c08-89a40e47803f"},"vehicle_type_id":"4","last_reported":1711408013,"current_range_meters":27600,"station_id":"ce4bhs12rcd13ifvqhvg","pricing_plan_id":"cebpf4jnsgd1na2vs0mg"},{"bike_id":"4aa023fc-bd6a-49d9-bb66-0067c94f6096","system_id":"levelo_inurba_marseille","lat":43.324808,"lon":5.365698,"is_reserved":false,"is_disabled":false,"rental_uris":{"android":"levelo://app?vid=4aa023fc-bd6a-49d9-bb66-0067c94f6096","ios":"levelo://app?vid=4aa023fc-bd6a-49d9-bb66-0067c94f6096"},"vehicle_type_id":"4","last_reported":1711408013,"current_range_meters":27200,"station_id":"ce4bhs12rcd13ifvqhvg","pricing_plan_id":"cebpf4jnsgd1na2vs0mg"},{"bike_id":"a26085b4-c08f-407f-92bc-4fa83dbf1dee","system_id":"levelo_inurba_marseille","lat":43.324771,"lon":5.36557,"is_reserved":false,"is_disabled":false,"rental_uris":{"android":"levelo://app?vid=a26085b4-c08f-407f-92bc-4fa83dbf1dee","ios":"levelo://app?vid=a26085b4-c08f-407f-92bc-4fa83dbf1dee"},"vehicle_type_id":"4","last_reported":1711408013,"current_range_meters":8000,"station_id":"ce4bhs12rcd13ifvqhvg","pricing_plan_id":"cebpf4jnsgd1na2vs0mg"},{"bike_id":"26aab7eb-0fed-402e-8f7d-f704da75ca7c","system_id":"levelo_inurba_marseille","lat":43.324771,"lon":5.36557,"is_reserved":false,"is_disabled":false,"rental_uris":{"android":"levelo://app?vid=26aab7eb-0fed-402e-8f7d-f704da75ca7c","ios":"levelo://app?vid=26aab7eb-0fed-402e-8f7d-f704da75ca7c"},"vehicle_type_id":"4","last_reported":1711408013,"current_range_meters":6000,"station_id":"ce4bhs12rcd13ifvqhvg","pricing_plan_id":"cebpf4jnsgd1na2vs0mg"},{"bike_id":"14711d53-d8ae-4f74-ae44-f77d109ce107","system_id":"levelo_inurba_marseille","lat":43.310535,"lon":5.38347,"is_reserved":false,"is_disabled":false,"rental_uris":{"android":"levelo://app?vid=14711d53-d8ae-4f74-ae44-f77d109ce107","ios":"levelo://app?vid=14711d53-d8ae-4f74-ae44-f77d109ce107"},"vehicle_type_id":"4","last_reported":1711408013,"current_range_meters":7200,"station_id":"ce4bgv92rcd13ifvqcr0","pricing_plan_id":"cebpf4jnsgd1na2vs0mg"},{"bike_id":"62be9f93-0bba-4b5a-baaf-305f53ed08f3","system_id":"levelo_inurba_marseille","lat":43.310693,"lon":5.383523,"is_reserved":false,"is_disabled":false,"rental_uris":{"android":"levelo://app?vid=62be9f93-0bba-4b5a-baaf-305f53ed08f3","ios":"levelo://app?vid=62be9f93-0bba-4b5a-baaf-305f53ed08f3"},"vehicle_type_id":"4","last_reported":1711408013,"current_range_meters":15200,"station_id":"ce4bgv92rcd13ifvqcr0","pricing_plan_id":"cebpf4jnsgd1na2vs0mg"},{"bike_id":"7d754065-8018-4752-9060-7388213c5370","system_id":"levelo_inurba_marseille","lat":43.31063,"lon":5.38352,"is_reserved":false,"is_disabled":false,"rental_uris":{"android":"levelo://app?vid=7d754065-8018-4752-9060-7388213c5370","ios":"levelo://app?vid=7d754065-8018-4752-9060-7388213c5370"},"vehicle_type_id":"4","last_reported":1711408013,"current_range_meters":2000,"station_id":"ce4bgv92rcd13ifvqcr0","pricing_plan_id":"cebpf4jnsgd1na2vs0mg"},{"bike_id":"3827812e-6bb5-40be-a7d6-7224aababdd1","system_id":"levelo_inurba_marseille","lat":43.310804,"lon":5.38359,"is_reserved":false,"is_disabled":false,"rental_uris":{"android":"levelo://app?vid=3827812e-6bb5-40be-a7d6-7224aababdd1","ios":"levelo://app?vid=3827812e-6bb5-40be-a7d6-7224aababdd1"},"vehicle_type_id":"4","last_reported":1711408013,"current_range_meters":14800,"station_id":"ce4bgv92rcd13ifvqcr0","pricing_plan_id":"cebpf4jnsgd1na2vs0mg"},{"bike_id":"36a2e22e-53e2-4a3e-973e-5d7d4b4ccf20","system_id":"levelo_inurba_marseille","lat":43.310738,"lon":5.383566,"is_reserved":false,"is_disabled":false,"rental_uris":{"android":"levelo://app?vid=36a2e22e-53e2-4a3e-973e-5d7d4b4ccf20","ios":"levelo://app?vid=36a2e22e-53e2-4a3e-973e-5d7d4b4ccf20"},"vehicle_type_id":"4","last_reported":1711408013,"current_range_meters":2000,"station_id":"ce4bgv92rcd13ifvqcr0","pricing_plan_id":"cebpf4jnsgd1na2vs0mg"},{"bike_id":"86c2095f-66b9-4109-aff6-f9cda9639c22","system_id":"levelo_inurba_marseille","lat":43.3107,"lon":5.383564,"is_reserved":false,"is_disabled":false,"rental_uris":{"android":"levelo://app?vid=86c2095f-66b9-4109-aff6-f9cda9639c22","ios":"levelo://app?vid=86c2095f-66b9-4109-aff6-f9cda9639c22"},"vehicle_type_id":"4","last_reported":1711408013,"current_range_meters":11200,"station_id":"ce4bgv92rcd13ifvqcr0","pricing_plan_id":"cebpf4jnsgd1na2vs0mg"},{"bike_id":"524e56aa-8437-4ec0-bf57-520df951f83f","system_id":"levelo_inurba_marseille","lat":43.31073,"lon":5.38359,"is_reserved":false,"is_disabled":false,"rental_uris":{"android":"levelo://app?vid=524e56aa-8437-4ec0-bf57-520df951f83f","ios":"levelo://app?vid=524e56aa-8437-4ec0-bf57-520df951f83f"},"vehicle_type_id":"4","last_reported":1711408013,"current_range_meters":0,"station_id":"ce4bgv92rcd13ifvqcr0","pricing_plan_id":"cebpf4jnsgd1na2vs0mg"},{"bike_id":"7d3c11db-0682-4e95-9e28-2bcca3cee667","system_id":"levelo_inurba_marseille","lat":43.310786,"lon":5.383624,"is_reserved":false,"is_disabled":false,"rental_uris":{"android":"levelo://app?vid=7d3c11db-0682-4e95-9e28-2bcca3cee667","ios":"levelo://app?vid=7d3c11db-0682-4e95-9e28-2bcca3cee667"},"vehicle_type_id":"4","last_reported":1711408013,"current_range_meters":800,"station_id":"ce4bgv92rcd13ifvqcr0","pricing_plan_id":"cebpf4jnsgd1na2vs0mg"},{"bike_id":"8f25d7ac-1706-49ed-8e08-59fe9a4456d9","system_id":"levelo_inurba_marseille","lat":43.31073,"lon":5.38362,"is_reserved":false,"is_disabled":false,"rental_uris":{"android":"levelo://app?vid=8f25d7ac-1706-49ed-8e08-59fe9a4456d9","ios":"levelo://app?vid=8f25d7ac-1706-49ed-8e08-59fe9a4456d9"},"vehicle_type_id":"4","last_reported":1711408013,"current_range_meters":7600,"station_id":"ce4bgv92rcd13ifvqcr0","pricing_plan_id":"cebpf4jnsgd1na2vs0mg"},{"bike_id":"fed57d2a-eb5c-4101-9a5f-41aa4f466cf3","system_id":"levelo_inurba_marseille","lat":43.31076,"lon":5.38364,"is_reserved":false,"is_disabled":false,"rental_uris":{"android":"levelo://app?vid=fed57d2a-eb5c-4101-9a5f-41aa4f466cf3","ios":"levelo://app?vid=fed57d2a-eb5c-4101-9a5f-41aa4f466cf3"},"vehicle_type_id":"4","last_reported":1711408013,"current_range_meters":28000,"station_id":"ce4bgv92rcd13ifvqcr0","pricing_plan_id":"cebpf4jnsgd1na2vs0mg"},{"bike_id":"013472d7-ab0a-47b8-86c5-cdb685af73af","system_id":"levelo_inurba_marseille","lat":43.319935,"lon":5.381699,"is_reserved":false,"is_disabled":false,"rental_uris":{"android":"levelo://app?vid=013472d7-ab0a-47b8-86c5-cdb685af73af","ios":"levelo://app?vid=013472d7-ab0a-47b8-86c5-cdb685af73af"},"vehicle_type_id":"4","last_reported":1711408013,"current_range_meters":0,"station_id":"ce4bhr12rcd13ifvqhpg","pricing_plan_id":"cebpf4jnsgd1na2vs0mg"},{"bike_id":"dcf7f0a5-2019-46e4-b163-588a3ef4c3b7","system_id":"levelo_inurba_marseille","lat":43.319935,"lon":5.381699,"is_reserved":false,"is_disabled":false,"rental_uris":{"android":"levelo://app?vid=dcf7f0a5-2019-46e4-b163-588a3ef4c3b7","ios":"levelo://app?vid=dcf7f0a5-2019-46e4-b163-588a3ef4c3b7"},"vehicle_type_id":"4","last_reported":1711408013,"current_range_meters":20400,"station_id":"ce4bhr12rcd13ifvqhpg","pricing_plan_id":"cebpf4jnsgd1na2vs0mg"},{"bike_id":"f2c2e7b3-f649-44fd-bb5b-a9d75f0e4a54","system_id":"levelo_inurba_marseille","lat":43.319935,"lon":5.381699,"is_reserved":false,"is_disabled":false,"rental_uris":{"android":"levelo://app?vid=f2c2e7b3-f649-44fd-bb5b-a9d75f0e4a54","ios":"levelo://app?vid=f2c2e7b3-f649-44fd-bb5b-a9d75f0e4a54"},"vehicle_type_id":"4","last_reported":1711408013,"current_range_meters":16800,"station_id":"ce4bhr12rcd13ifvqhpg","pricing_plan_id":"cebpf4jnsgd1na2vs0mg"},{"bike_id":"0248e6ce-0201-4e04-9ac2-876973a617ba","system_id":"levelo_inurba_marseille","lat":43.319947,"lon":5.3815,"is_reserved":false,"is_disabled":false,"rental_uris":{"android":"levelo://app?vid=0248e6ce-0201-4e04-9ac2-876973a617ba","ios":"levelo://app?vid=0248e6ce-0201-4e04-9ac2-876973a617ba"},"vehicle_type_id":"4","last_reported":1711408013,"current_range_meters":0,"station_id":"ce4bhr12rcd13ifvqhpg","pricing_plan_id":"cebpf4jnsgd1na2vs0mg"},{"bike_id":"ea959437-bf8b-414f-b285-d8869b036858","system_id":"levelo_inurba_marseille","lat":43.319935,"lon":5.381699,"is_reserved":false,"is_disabled":false,"rental_uris":{"android":"levelo://app?vid=ea959437-bf8b-414f-b285-d8869b036858","ios":"levelo://app?vid=ea959437-bf8b-414f-b285-d8869b036858"},"vehicle_type_id":"4","last_reported":1711408013,"current_range_meters":0,"station_id":"ce4bhr12rcd13ifvqhpg","pricing_plan_id":"cebpf4jnsgd1na2vs0mg"},{"bike_id":"a969d855-85ef-438a-b930-3993343da247","system_id":"levelo_inurba_marseille","lat":43.32001,"lon":5.38149,"is_reserved":false,"is_disabled":false,"rental_uris":{"android":"levelo://app?vid=a969d855-85ef-438a-b930-3993343da247","ios":"levelo://app?vid=a969d855-85ef-438a-b930-3993343da247"},"vehicle_type_id":"4","last_reported":1711408013,"current_range_meters":3600,"station_id":"ce4bhr12rcd13ifvqhpg","pricing_plan_id":"cebpf4jnsgd1na2vs0mg"},{"bike_id":"35f2d54f-8e9c-4f05-8914-5912534a1e95","system_id":"levelo_inurba_marseille","lat":43.313571,"lon":5.384829,"is_reserved":false,"is_disabled":false,"rental_uris":{"android":"levelo://app?vid=35f2d54f-8e9c-4f05-8914-5912534a1e95","ios":"levelo://app?vid=35f2d54f-8e9c-4f05-8914-5912534a1e95"},"vehicle_type_id":"4","last_reported":1711408013,"current_range_meters":11600,"station_id":"ce4bgt92rcd13ifvqcf0","pricing_plan_id":"cebpf4jnsgd1na2vs0mg"},{"bike_id":"cc29b871-6eaa-405d-8f19-4cf48e0c0c62","system_id":"levelo_inurba_marseille","lat":43.313571,"lon":5.384829,"is_reserved":false,"is_disabled":false,"rental_uris":{"android":"levelo://app?vid=cc29b871-6eaa-405d-8f19-4cf48e0c0c62","ios":"levelo://app?vid=cc29b871-6eaa-405d-8f19-4cf48e0c0c62"},"vehicle_type_id":"4","last_reported":1711408013,"current_range_meters":0,"station_id":"ce4bgt92rcd13ifvqcf0","pricing_plan_id":"cebpf4jnsgd1na2vs0mg"},{"bike_id":"9fef8484-0a34-43df-9a9a-0c414f84ce3b","system_id":"levelo_inurba_marseille","lat":43.313571,"lon":5.384829,"is_reserved":false,"is_disabled":false,"rental_uris":{"android":"levelo://app?vid=9fef8484-0a34-43df-9a9a-0c414f84ce3b","ios":"levelo://app?vid=9fef8484-0a34-43df-9a9a-0c414f84ce3b"},"vehicle_type_id":"4","last_reported":1711408013,"current_range_meters":11600,"station_id":"ce4bgt92rcd13ifvqcf0","pricing_plan_id":"cebpf4jnsgd1na2vs0mg"},{"bike_id":"818128e2-8217-4fe5-bb26-d2f3044e0344","system_id":"levelo_inurba_marseille","lat":43.313571,"lon":5.384829,"is_reserved":false,"is_disabled":false,"rental_uris":{"android":"levelo://app?vid=818128e2-8217-4fe5-bb26-d2f3044e0344","ios":"levelo://app?vid=818128e2-8217-4fe5-bb26-d2f3044e0344"},"vehicle_type_id":"4","last_reported":1711408013,"current_range_meters":25600,"station_id":"ce4bgt92rcd13ifvqcf0","pricing_plan_id":"cebpf4jnsgd1na2vs0mg"},{"bike_id":"c7613e6c-3e7d-4c29-9933-77e411c63d4e","system_id":"levelo_inurba_marseille","lat":43.31368,"lon":5.38487,"is_reserved":false,"is_disabled":false,"rental_uris":{"android":"levelo://app?vid=c7613e6c-3e7d-4c29-9933-77e411c63d4e","ios":"levelo://app?vid=c7613e6c-3e7d-4c29-9933-77e411c63d4e"},"vehicle_type_id":"4","last_reported":1711408013,"current_range_meters":24800,"station_id":"ce4bgt92rcd13ifvqcf0","pricing_plan_id":"cebpf4jnsgd1na2vs0mg"},{"bike_id":"eccf0a3c-c415-4063-aca0-f0f4fa150fd5","system_id":"levelo_inurba_marseille","lat":43.31357,"lon":5.384893,"is_reserved":false,"is_disabled":false,"rental_uris":{"android":"levelo://app?vid=eccf0a3c-c415-4063-aca0-f0f4fa150fd5","ios":"levelo://app?vid=eccf0a3c-c415-4063-aca0-f0f4fa150fd5"},"vehicle_type_id":"4","last_reported":1711408013,"current_range_meters":1200,"station_id":"ce4bgt92rcd13ifvqcf0","pricing_plan_id":"cebpf4jnsgd1na2vs0mg"},{"bike_id":"19b0c1c2-b7f9-4110-a8bd-f07c255410c8","system_id":"levelo_inurba_marseille","lat":43.313571,"lon":5.384829,"is_reserved":false,"is_disabled":false,"rental_uris":{"android":"levelo://app?vid=19b0c1c2-b7f9-4110-a8bd-f07c255410c8","ios":"levelo://app?vid=19b0c1c2-b7f9-4110-a8bd-f07c255410c8"},"vehicle_type_id":"4","last_reported":1711408013,"current_range_meters":20400,"station_id":"ce4bgt92rcd13ifvqcf0","pricing_plan_id":"cebpf4jnsgd1na2vs0mg"},{"bike_id":"831f98f3-9c71-4f22-95bc-515ec6aa7ee2","system_id":"levelo_inurba_marseille","lat":43.313571,"lon":5.384829,"is_reserved":false,"is_disabled":false,"rental_uris":{"android":"levelo://app?vid=831f98f3-9c71-4f22-95bc-515ec6aa7ee2","ios":"levelo://app?vid=831f98f3-9c71-4f22-95bc-515ec6aa7ee2"},"vehicle_type_id":"4","last_reported":1711408013,"current_range_meters":31200,"station_id":"ce4bgt92rcd13ifvqcf0","pricing_plan_id":"cebpf4jnsgd1na2vs0mg"},{"bike_id":"a7765369-4add-4cf6-a153-4d4e55db0c32","system_id":"levelo_inurba_marseille","lat":43.313571,"lon":5.384829,"is_reserved":false,"is_disabled":false,"rental_uris":{"android":"levelo://app?vid=a7765369-4add-4cf6-a153-4d4e55db0c32","ios":"levelo://app?vid=a7765369-4add-4cf6-a153-4d4e55db0c32"},"vehicle_type_id":"4","last_reported":1711408013,"current_range_meters":16000,"station_id":"ce4bgt92rcd13ifvqcf0","pricing_plan_id":"cebpf4jnsgd1na2vs0mg"},{"bike_id":"530b3e25-6aaa-499d-bfb2-6323ec5f7863","system_id":"levelo_inurba_marseille","lat":43.313571,"lon":5.384829,"is_reserved":false,"is_disabled":false,"rental_uris":{"android":"levelo://app?vid=530b3e25-6aaa-499d-bfb2-6323ec5f7863","ios":"levelo://app?vid=530b3e25-6aaa-499d-bfb2-6323ec5f7863"},"vehicle_type_id":"4","last_reported":1711408013,"current_range_meters":22800,"station_id":"ce4bgt92rcd13ifvqcf0","pricing_plan_id":"cebpf4jnsgd1na2vs0mg"},{"bike_id":"fbbc438e-26a6-43ae-b943-c58fe36bd374","system_id":"levelo_inurba_marseille","lat":43.313571,"lon":5.384829,"is_reserved":false,"is_disabled":false,"rental_uris":{"android":"levelo://app?vid=fbbc438e-26a6-43ae-b943-c58fe36bd374","ios":"levelo://app?vid=fbbc438e-26a6-43ae-b943-c58fe36bd374"},"vehicle_type_id":"4","last_reported":1711408013,"current_range_meters":20400,"station_id":"ce4bgt92rcd13ifvqcf0","pricing_plan_id":"cebpf4jnsgd1na2vs0mg"},{"bike_id":"705575d5-69fa-4d36-8b2e-c04a18d2c673","system_id":"levelo_inurba_marseille","lat":43.299724,"lon":5.371829,"is_reserved":false,"is_disabled":false,"rental_uris":{"android":"levelo://app?vid=705575d5-69fa-4d36-8b2e-c04a18d2c673","ios":"levelo://app?vid=705575d5-69fa-4d36-8b2e-c04a18d2c673"},"vehicle_type_id":"4","last_reported":1711408013,"current_range_meters":26400,"station_id":"ce4bgr92rcd13ifvqc7g","pricing_plan_id":"cebpf4jnsgd1na2vs0mg"},{"bike_id":"66361b21-b675-4436-b304-47c901f925a1","system_id":"levelo_inurba_marseille","lat":43.299222,"lon":5.365554,"is_reserved":false,"is_disabled":false,"rental_uris":{"android":"levelo://app?vid=66361b21-b675-4436-b304-47c901f925a1","ios":"levelo://app?vid=66361b21-b675-4436-b304-47c901f925a1"},"vehicle_type_id":"4","last_reported":1711408013,"current_range_meters":26000,"station_id":"ce4bgm92rcd13ifvqbr0","pricing_plan_id":"cebpf4jnsgd1na2vs0mg"},{"bike_id":"3c438fc9-e44d-4ed2-b852-c607f06e1f08","system_id":"levelo_inurba_marseille","lat":43.299724,"lon":5.371829,"is_reserved":false,"is_disabled":false,"rental_uris":{"android":"levelo://app?vid=3c438fc9-e44d-4ed2-b852-c607f06e1f08","ios":"levelo://app?vid=3c438fc9-e44d-4ed2-b852-c607f06e1f08"},"vehicle_type_id":"4","last_reported":1711408013,"current_range_meters":29600,"station_id":"ce4bgr92rcd13ifvqc7g","pricing_plan_id":"cebpf4jnsgd1na2vs0mg"},{"bike_id":"6665512b-8c28-48a0-9eee-e74d3bc27167","system_id":"levelo_inurba_marseille","lat":43.299724,"lon":5.371829,"is_reserved":false,"is_disabled":false,"rental_uris":{"android":"levelo://app?vid=6665512b-8c28-48a0-9eee-e74d3bc27167","ios":"levelo://app?vid=6665512b-8c28-48a0-9eee-e74d3bc27167"},"vehicle_type_id":"4","last_reported":1711408013,"current_range_meters":2400,"station_id":"ce4bgr92rcd13ifvqc7g","pricing_plan_id":"cebpf4jnsgd1na2vs0mg"},{"bike_id":"17f59742-c5d8-4575-84f6-5e6fc6d32802","system_id":"levelo_inurba_marseille","lat":43.299222,"lon":5.365554,"is_reserved":false,"is_disabled":false,"rental_uris":{"android":"levelo://app?vid=17f59742-c5d8-4575-84f6-5e6fc6d32802","ios":"levelo://app?vid=17f59742-c5d8-4575-84f6-5e6fc6d32802"},"vehicle_type_id":"4","last_reported":1711408013,"current_range_meters":23600,"station_id":"ce4bgm92rcd13ifvqbr0","pricing_plan_id":"cebpf4jnsgd1na2vs0mg"},{"bike_id":"4878ea8d-a6c2-433a-a2b0-4df83e369be3","system_id":"levelo_inurba_marseille","lat":43.299222,"lon":5.365554,"is_reserved":false,"is_disabled":false,"rental_uris":{"android":"levelo://app?vid=4878ea8d-a6c2-433a-a2b0-4df83e369be3","ios":"levelo://app?vid=4878ea8d-a6c2-433a-a2b0-4df83e369be3"},"vehicle_type_id":"4","last_reported":1711408013,"current_range_meters":14000,"station_id":"ce4bgm92rcd13ifvqbr0","pricing_plan_id":"cebpf4jnsgd1na2vs0mg"},{"bike_id":"4502b9cc-22a6-4628-b30d-b22430cb0f82","system_id":"levelo_inurba_marseille","lat":43.299724,"lon":5.371829,"is_reserved":false,"is_disabled":false,"rental_uris":{"android":"levelo://app?vid=4502b9cc-22a6-4628-b30d-b22430cb0f82","ios":"levelo://app?vid=4502b9cc-22a6-4628-b30d-b22430cb0f82"},"vehicle_type_id":"4","last_reported":1711408013,"current_range_meters":22400,"station_id":"ce4bgr92rcd13ifvqc7g","pricing_plan_id":"cebpf4jnsgd1na2vs0mg"},{"bike_id":"2b51c7a9-a26b-4e47-8ed0-720b2a7650d4","system_id":"levelo_inurba_marseille","lat":43.305364,"lon":5.384119,"is_reserved":false,"is_disabled":false,"rental_uris":{"android":"levelo://app?vid=2b51c7a9-a26b-4e47-8ed0-720b2a7650d4","ios":"levelo://app?vid=2b51c7a9-a26b-4e47-8ed0-720b2a7650d4"},"vehicle_type_id":"4","last_reported":1711408013,"current_range_meters":800,"station_id":"ce4bgg92rcd13ifvqb30","pricing_plan_id":"cebpf4jnsgd1na2vs0mg"},{"bike_id":"12172262-078f-4910-b7fb-29d7ef714160","system_id":"levelo_inurba_marseille","lat":43.305364,"lon":5.384119,"is_reserved":false,"is_disabled":false,"rental_uris":{"android":"levelo://app?vid=12172262-078f-4910-b7fb-29d7ef714160","ios":"levelo://app?vid=12172262-078f-4910-b7fb-29d7ef714160"},"vehicle_type_id":"4","last_reported":1711408013,"current_range_meters":18000,"station_id":"ce4bgg92rcd13ifvqb30","pricing_plan_id":"cebpf4jnsgd1na2vs0mg"},{"bike_id":"61fc1fc4-e6c7-4fb7-a6d3-22a1523c65e7","system_id":"levelo_inurba_marseille","lat":43.298433,"lon":5.362774,"is_reserved":false,"is_disabled":false,"rental_uris":{"android":"levelo://app?vid=61fc1fc4-e6c7-4fb7-a6d3-22a1523c65e7","ios":"levelo://app?vid=61fc1fc4-e6c7-4fb7-a6d3-22a1523c65e7"},"vehicle_type_id":"4","last_reported":1711408013,"current_range_meters":8800,"station_id":"ce4bgpp2rcd13ifvqc3g","pricing_plan_id":"cebpf4jnsgd1na2vs0mg"},{"bike_id":"d6d9dfda-4d17-4f3f-b3ee-d082b487bbe7","system_id":"levelo_inurba_marseille","lat":43.298487,"lon":5.362718,"is_reserved":false,"is_disabled":false,"rental_uris":{"android":"levelo://app?vid=d6d9dfda-4d17-4f3f-b3ee-d082b487bbe7","ios":"levelo://app?vid=d6d9dfda-4d17-4f3f-b3ee-d082b487bbe7"},"vehicle_type_id":"4","last_reported":1711408013,"current_range_meters":18800,"station_id":"ce4bgpp2rcd13ifvqc3g","pricing_plan_id":"cebpf4jnsgd1na2vs0mg"},{"bike_id":"e81796bc-9933-48f1-a382-8022c3b30cb8","system_id":"levelo_inurba_marseille","lat":43.29846,"lon":5.36283,"is_reserved":false,"is_disabled":false,"rental_uris":{"android":"levelo://app?vid=e81796bc-9933-48f1-a382-8022c3b30cb8","ios":"levelo://app?vid=e81796bc-9933-48f1-a382-8022c3b30cb8"},"vehicle_type_id":"4","last_reported":1711408013,"current_range_meters":6400,"station_id":"ce4bgpp2rcd13ifvqc3g","pricing_plan_id":"cebpf4jnsgd1na2vs0mg"},{"bike_id":"6d04aba3-6dc1-436f-baff-c4f2e9efa807","system_id":"levelo_inurba_marseille","lat":43.298433,"lon":5.362774,"is_reserved":false,"is_disabled":false,"rental_uris":{"android":"levelo://app?vid=6d04aba3-6dc1-436f-baff-c4f2e9efa807","ios":"levelo://app?vid=6d04aba3-6dc1-436f-baff-c4f2e9efa807"},"vehicle_type_id":"4","last_reported":1711408013,"current_range_meters":10000,"station_id":"ce4bgpp2rcd13ifvqc3g","pricing_plan_id":"cebpf4jnsgd1na2vs0mg"},{"bike_id":"a4f8a5ef-6b61-4d6d-a702-73d502cce7cf","system_id":"levelo_inurba_marseille","lat":43.305364,"lon":5.384119,"is_reserved":false,"is_disabled":false,"rental_uris":{"android":"levelo://app?vid=a4f8a5ef-6b61-4d6d-a702-73d502cce7cf","ios":"levelo://app?vid=a4f8a5ef-6b61-4d6d-a702-73d502cce7cf"},"vehicle_type_id":"4","last_reported":1711408013,"current_range_meters":19200,"station_id":"ce4bgg92rcd13ifvqb30","pricing_plan_id":"cebpf4jnsgd1na2vs0mg"},{"bike_id":"3a8efc07-3d43-4768-b551-b7e7450ddcb5","system_id":"levelo_inurba_marseille","lat":43.298433,"lon":5.362774,"is_reserved":false,"is_disabled":false,"rental_uris":{"android":"levelo://app?vid=3a8efc07-3d43-4768-b551-b7e7450ddcb5","ios":"levelo://app?vid=3a8efc07-3d43-4768-b551-b7e7450ddcb5"},"vehicle_type_id":"4","last_reported":1711408013,"current_range_meters":30400,"station_id":"ce4bgpp2rcd13ifvqc3g","pricing_plan_id":"cebpf4jnsgd1na2vs0mg"},{"bike_id":"27abd1ea-6ea6-4630-9e7e-3a4d26b2c1f5","system_id":"levelo_inurba_marseille","lat":43.305364,"lon":5.384119,"is_reserved":false,"is_disabled":false,"rental_uris":{"android":"levelo://app?vid=27abd1ea-6ea6-4630-9e7e-3a4d26b2c1f5","ios":"levelo://app?vid=27abd1ea-6ea6-4630-9e7e-3a4d26b2c1f5"},"vehicle_type_id":"4","last_reported":1711408013,"current_range_meters":24400,"station_id":"ce4bgg92rcd13ifvqb30","pricing_plan_id":"cebpf4jnsgd1na2vs0mg"},{"bike_id":"d6e65acf-9178-416b-8269-4ba8f7899dcf","system_id":"levelo_inurba_marseille","lat":43.305364,"lon":5.384119,"is_reserved":false,"is_disabled":false,"rental_uris":{"android":"levelo://app?vid=d6e65acf-9178-416b-8269-4ba8f7899dcf","ios":"levelo://app?vid=d6e65acf-9178-416b-8269-4ba8f7899dcf"},"vehicle_type_id":"4","last_reported":1711408013,"current_range_meters":11200,"station_id":"ce4bgg92rcd13ifvqb30","pricing_plan_id":"cebpf4jnsgd1na2vs0mg"},{"bike_id":"b0979dc7-052c-4f48-b806-d86ba087c45b","system_id":"levelo_inurba_marseille","lat":43.311683,"lon":5.38711,"is_reserved":false,"is_disabled":false,"rental_uris":{"android":"levelo://app?vid=b0979dc7-052c-4f48-b806-d86ba087c45b","ios":"levelo://app?vid=b0979dc7-052c-4f48-b806-d86ba087c45b"},"vehicle_type_id":"4","last_reported":1711408013,"current_range_meters":17200,"station_id":"ce4bgv12rcd13ifvqcp0","pricing_plan_id":"cebpf4jnsgd1na2vs0mg"},{"bike_id":"6dbd84a4-3ceb-4311-b6a5-c16dc3f21564","system_id":"levelo_inurba_marseille","lat":43.31173,"lon":5.38714,"is_reserved":false,"is_disabled":false,"rental_uris":{"android":"levelo://app?vid=6dbd84a4-3ceb-4311-b6a5-c16dc3f21564","ios":"levelo://app?vid=6dbd84a4-3ceb-4311-b6a5-c16dc3f21564"},"vehicle_type_id":"4","last_reported":1711408013,"current_range_meters":14400,"station_id":"ce4bgv12rcd13ifvqcp0","pricing_plan_id":"cebpf4jnsgd1na2vs0mg"},{"bike_id":"8b70d777-510f-4896-a76a-a021fca3bc7f","system_id":"levelo_inurba_marseille","lat":43.311722,"lon":5.387247,"is_reserved":false,"is_disabled":false,"rental_uris":{"android":"levelo://app?vid=8b70d777-510f-4896-a76a-a021fca3bc7f","ios":"levelo://app?vid=8b70d777-510f-4896-a76a-a021fca3bc7f"},"vehicle_type_id":"4","last_reported":1711408013,"current_range_meters":19200,"station_id":"ce4bgv12rcd13ifvqcp0","pricing_plan_id":"cebpf4jnsgd1na2vs0mg"},{"bike_id":"4343e8ef-bf1f-4b68-99cc-8b868172661a","system_id":"levelo_inurba_marseille","lat":43.311722,"lon":5.387247,"is_reserved":false,"is_disabled":false,"rental_uris":{"android":"levelo://app?vid=4343e8ef-bf1f-4b68-99cc-8b868172661a","ios":"levelo://app?vid=4343e8ef-bf1f-4b68-99cc-8b868172661a"},"vehicle_type_id":"4","last_reported":1711408013,"current_range_meters":28000,"station_id":"ce4bgv12rcd13ifvqcp0","pricing_plan_id":"cebpf4jnsgd1na2vs0mg"},{"bike_id":"7436b88e-0991-4d88-a975-fb1163463dd5","system_id":"levelo_inurba_marseille","lat":43.311722,"lon":5.387247,"is_reserved":false,"is_disabled":false,"rental_uris":{"android":"levelo://app?vid=7436b88e-0991-4d88-a975-fb1163463dd5","ios":"levelo://app?vid=7436b88e-0991-4d88-a975-fb1163463dd5"},"vehicle_type_id":"4","last_reported":1711408013,"current_range_meters":31600,"station_id":"ce4bgv12rcd13ifvqcp0","pricing_plan_id":"cebpf4jnsgd1na2vs0mg"},{"bike_id":"21b297ff-a0fc-46ce-acdb-a3da7e047b26","system_id":"levelo_inurba_marseille","lat":43.286591,"lon":5.363346,"is_reserved":false,"is_disabled":false,"rental_uris":{"android":"levelo://app?vid=21b297ff-a0fc-46ce-acdb-a3da7e047b26","ios":"levelo://app?vid=21b297ff-a0fc-46ce-acdb-a3da7e047b26"},"vehicle_type_id":"4","last_reported":1711408013,"current_range_meters":19600,"station_id":"ce4bhah2rcd13ifvqej0","pricing_plan_id":"cebpf4jnsgd1na2vs0mg"},{"bike_id":"b4d6c002-9b92-4c57-953b-1be084d4749d","system_id":"levelo_inurba_marseille","lat":43.3116,"lon":5.38729,"is_reserved":false,"is_disabled":false,"rental_uris":{"android":"levelo://app?vid=b4d6c002-9b92-4c57-953b-1be084d4749d","ios":"levelo://app?vid=b4d6c002-9b92-4c57-953b-1be084d4749d"},"vehicle_type_id":"4","last_reported":1711408013,"current_range_meters":1600,"station_id":"ce4bgv12rcd13ifvqcp0","pricing_plan_id":"cebpf4jnsgd1na2vs0mg"},{"bike_id":"e2dee536-aa58-4f72-8385-a50516ed34b2","system_id":"levelo_inurba_marseille","lat":43.29789,"lon":5.37104,"is_reserved":false,"is_disabled":false,"rental_uris":{"android":"levelo://app?vid=e2dee536-aa58-4f72-8385-a50516ed34b2","ios":"levelo://app?vid=e2dee536-aa58-4f72-8385-a50516ed34b2"},"vehicle_type_id":"4","last_reported":1711408013,"current_range_meters":25200,"station_id":"ce4bgop2rcd13ifvqc1g","pricing_plan_id":"cebpf4jnsgd1na2vs0mg"},{"bike_id":"8024a7e8-c2c9-4d9c-88c3-538f6b5bfd9f","system_id":"levelo_inurba_marseille","lat":43.297774,"lon":5.370875,"is_reserved":false,"is_disabled":false,"rental_uris":{"android":"levelo://app?vid=8024a7e8-c2c9-4d9c-88c3-538f6b5bfd9f","ios":"levelo://app?vid=8024a7e8-c2c9-4d9c-88c3-538f6b5bfd9f"},"vehicle_type_id":"4","last_reported":1711408013,"current_range_meters":22000,"station_id":"ce4bgop2rcd13ifvqc1g","pricing_plan_id":"cebpf4jnsgd1na2vs0mg"},{"bike_id":"5af3521e-7e1d-4487-a99c-96bd22091246","system_id":"levelo_inurba_marseille","lat":43.297794,"lon":5.370888,"is_reserved":false,"is_disabled":false,"rental_uris":{"android":"levelo://app?vid=5af3521e-7e1d-4487-a99c-96bd22091246","ios":"levelo://app?vid=5af3521e-7e1d-4487-a99c-96bd22091246"},"vehicle_type_id":"4","last_reported":1711408013,"current_range_meters":0,"station_id":"ce4bgop2rcd13ifvqc1g","pricing_plan_id":"cebpf4jnsgd1na2vs0mg"},{"bike_id":"ac18a901-aff0-4f99-bd5b-270feddb1e94","system_id":"levelo_inurba_marseille","lat":43.322872,"lon":5.382756,"is_reserved":false,"is_disabled":false,"rental_uris":{"android":"levelo://app?vid=ac18a901-aff0-4f99-bd5b-270feddb1e94","ios":"levelo://app?vid=ac18a901-aff0-4f99-bd5b-270feddb1e94"},"vehicle_type_id":"4","last_reported":1711408013,"current_range_meters":29200,"station_id":"ce4bhr12rcd13ifvqhqg","pricing_plan_id":"cebpf4jnsgd1na2vs0mg"},{"bike_id":"71bf0d2d-854e-4785-b177-31a04cb9cb3f","system_id":"levelo_inurba_marseille","lat":43.322872,"lon":5.382756,"is_reserved":false,"is_disabled":false,"rental_uris":{"android":"levelo://app?vid=71bf0d2d-854e-4785-b177-31a04cb9cb3f","ios":"levelo://app?vid=71bf0d2d-854e-4785-b177-31a04cb9cb3f"},"vehicle_type_id":"4","last_reported":1711408013,"current_range_meters":15200,"station_id":"ce4bhr12rcd13ifvqhqg","pricing_plan_id":"cebpf4jnsgd1na2vs0mg"},{"bike_id":"99aa31c4-c0d0-415d-b900-b77c059af6cd","system_id":"levelo_inurba_marseille","lat":43.297715,"lon":5.37123,"is_reserved":false,"is_disabled":false,"rental_uris":{"android":"levelo://app?vid=99aa31c4-c0d0-415d-b900-b77c059af6cd","ios":"levelo://app?vid=99aa31c4-c0d0-415d-b900-b77c059af6cd"},"vehicle_type_id":"4","last_reported":1711408013,"current_range_meters":2800,"station_id":"ce4bgop2rcd13ifvqc1g","pricing_plan_id":"cebpf4jnsgd1na2vs0mg"},{"bike_id":"b6f3b6ca-7c2a-4ab1-b5f9-d07c38663097","system_id":"levelo_inurba_marseille","lat":43.322872,"lon":5.382756,"is_reserved":false,"is_disabled":false,"rental_uris":{"android":"levelo://app?vid=b6f3b6ca-7c2a-4ab1-b5f9-d07c38663097","ios":"levelo://app?vid=b6f3b6ca-7c2a-4ab1-b5f9-d07c38663097"},"vehicle_type_id":"4","last_reported":1711408013,"current_range_meters":29200,"station_id":"ce4bhr12rcd13ifvqhqg","pricing_plan_id":"cebpf4jnsgd1na2vs0mg"},{"bike_id":"d97363d0-66d4-41ff-a284-e92de9f4d0ca","system_id":"levelo_inurba_marseille","lat":43.322872,"lon":5.382756,"is_reserved":false,"is_disabled":false,"rental_uris":{"android":"levelo://app?vid=d97363d0-66d4-41ff-a284-e92de9f4d0ca","ios":"levelo://app?vid=d97363d0-66d4-41ff-a284-e92de9f4d0ca"},"vehicle_type_id":"4","last_reported":1711408013,"current_range_meters":8400,"station_id":"ce4bhr12rcd13ifvqhqg","pricing_plan_id":"cebpf4jnsgd1na2vs0mg"},{"bike_id":"2b356d75-4941-483f-963e-6d38f54cee75","system_id":"levelo_inurba_marseille","lat":43.297794,"lon":5.370888,"is_reserved":false,"is_disabled":false,"rental_uris":{"android":"levelo://app?vid=2b356d75-4941-483f-963e-6d38f54cee75","ios":"levelo://app?vid=2b356d75-4941-483f-963e-6d38f54cee75"},"vehicle_type_id":"4","last_reported":1711408013,"current_range_meters":26400,"station_id":"ce4bgop2rcd13ifvqc1g","pricing_plan_id":"cebpf4jnsgd1na2vs0mg"},{"bike_id":"97e9c4a2-dd04-48d1-b53b-8bea725f8010","system_id":"levelo_inurba_marseille","lat":43.297163,"lon":5.365866,"is_reserved":false,"is_disabled":false,"rental_uris":{"android":"levelo://app?vid=97e9c4a2-dd04-48d1-b53b-8bea725f8010","ios":"levelo://app?vid=97e9c4a2-dd04-48d1-b53b-8bea725f8010"},"vehicle_type_id":"4","last_reported":1711408013,"current_range_meters":19200,"station_id":"ce4bgn12rcd13ifvqbt0","pricing_plan_id":"cebpf4jnsgd1na2vs0mg"},{"bike_id":"cc6de53c-688b-482c-aba1-71ea4e3a836b","system_id":"levelo_inurba_marseille","lat":43.297163,"lon":5.365866,"is_reserved":false,"is_disabled":false,"rental_uris":{"android":"levelo://app?vid=cc6de53c-688b-482c-aba1-71ea4e3a836b","ios":"levelo://app?vid=cc6de53c-688b-482c-aba1-71ea4e3a836b"},"vehicle_type_id":"4","last_reported":1711408013,"current_range_meters":6400,"station_id":"ce4bgn12rcd13ifvqbt0","pricing_plan_id":"cebpf4jnsgd1na2vs0mg"},{"bike_id":"6e17a8b0-cf86-4965-b9e4-db0ed7a190d1","system_id":"levelo_inurba_marseille","lat":43.297163,"lon":5.365866,"is_reserved":false,"is_disabled":false,"rental_uris":{"android":"levelo://app?vid=6e17a8b0-cf86-4965-b9e4-db0ed7a190d1","ios":"levelo://app?vid=6e17a8b0-cf86-4965-b9e4-db0ed7a190d1"},"vehicle_type_id":"4","last_reported":1711408013,"current_range_meters":27600,"station_id":"ce4bgn12rcd13ifvqbt0","pricing_plan_id":"cebpf4jnsgd1na2vs0mg"},{"bike_id":"1d3829ee-4446-45db-91d9-33cd3e2fb44e","system_id":"levelo_inurba_marseille","lat":43.297163,"lon":5.365866,"is_reserved":false,"is_disabled":false,"rental_uris":{"android":"levelo://app?vid=1d3829ee-4446-45db-91d9-33cd3e2fb44e","ios":"levelo://app?vid=1d3829ee-4446-45db-91d9-33cd3e2fb44e"},"vehicle_type_id":"4","last_reported":1711408013,"current_range_meters":29200,"station_id":"ce4bgn12rcd13ifvqbt0","pricing_plan_id":"cebpf4jnsgd1na2vs0mg"},{"bike_id":"a64c375d-f2f8-4755-b6f7-8743db8cfbc3","system_id":"levelo_inurba_marseille","lat":43.297163,"lon":5.365866,"is_reserved":false,"is_disabled":false,"rental_uris":{"android":"levelo://app?vid=a64c375d-f2f8-4755-b6f7-8743db8cfbc3","ios":"levelo://app?vid=a64c375d-f2f8-4755-b6f7-8743db8cfbc3"},"vehicle_type_id":"4","last_reported":1711408013,"current_range_meters":31600,"station_id":"ce4bgn12rcd13ifvqbt0","pricing_plan_id":"cebpf4jnsgd1na2vs0mg"},{"bike_id":"ef571537-9b72-4de6-adf6-fe0fb3802d65","system_id":"levelo_inurba_marseille","lat":43.297163,"lon":5.365866,"is_reserved":false,"is_disabled":false,"rental_uris":{"android":"levelo://app?vid=ef571537-9b72-4de6-adf6-fe0fb3802d65","ios":"levelo://app?vid=ef571537-9b72-4de6-adf6-fe0fb3802d65"},"vehicle_type_id":"4","last_reported":1711408013,"current_range_meters":24400,"station_id":"ce4bgn12rcd13ifvqbt0","pricing_plan_id":"cebpf4jnsgd1na2vs0mg"},{"bike_id":"45b53918-0d65-40fa-9688-2d82f11c9a2a","system_id":"levelo_inurba_marseille","lat":43.297163,"lon":5.365866,"is_reserved":false,"is_disabled":false,"rental_uris":{"android":"levelo://app?vid=45b53918-0d65-40fa-9688-2d82f11c9a2a","ios":"levelo://app?vid=45b53918-0d65-40fa-9688-2d82f11c9a2a"},"vehicle_type_id":"4","last_reported":1711408013,"current_range_meters":26800,"station_id":"ce4bgn12rcd13ifvqbt0","pricing_plan_id":"cebpf4jnsgd1na2vs0mg"},{"bike_id":"d1081c21-8fe3-45c1-9163-f6393635e832","system_id":"levelo_inurba_marseille","lat":43.297163,"lon":5.365866,"is_reserved":false,"is_disabled":false,"rental_uris":{"android":"levelo://app?vid=d1081c21-8fe3-45c1-9163-f6393635e832","ios":"levelo://app?vid=d1081c21-8fe3-45c1-9163-f6393635e832"},"vehicle_type_id":"4","last_reported":1711408013,"current_range_meters":31200,"station_id":"ce4bgn12rcd13ifvqbt0","pricing_plan_id":"cebpf4jnsgd1na2vs0mg"},{"bike_id":"8eb4089b-f13d-49ef-b895-b5683981d7b3","system_id":"levelo_inurba_marseille","lat":43.297163,"lon":5.365866,"is_reserved":false,"is_disabled":false,"rental_uris":{"android":"levelo://app?vid=8eb4089b-f13d-49ef-b895-b5683981d7b3","ios":"levelo://app?vid=8eb4089b-f13d-49ef-b895-b5683981d7b3"},"vehicle_type_id":"4","last_reported":1711408013,"current_range_meters":13200,"station_id":"ce4bgn12rcd13ifvqbt0","pricing_plan_id":"cebpf4jnsgd1na2vs0mg"},{"bike_id":"85a669f5-2610-4f20-8e1e-b7489f36a6fc","system_id":"levelo_inurba_marseille","lat":43.297163,"lon":5.365866,"is_reserved":false,"is_disabled":false,"rental_uris":{"android":"levelo://app?vid=85a669f5-2610-4f20-8e1e-b7489f36a6fc","ios":"levelo://app?vid=85a669f5-2610-4f20-8e1e-b7489f36a6fc"},"vehicle_type_id":"4","last_reported":1711408013,"current_range_meters":4400,"station_id":"ce4bgn12rcd13ifvqbt0","pricing_plan_id":"cebpf4jnsgd1na2vs0mg"},{"bike_id":"95efe4df-b1d0-497e-ba57-b17b465ee6e7","system_id":"levelo_inurba_marseille","lat":43.297163,"lon":5.365866,"is_reserved":false,"is_disabled":false,"rental_uris":{"android":"levelo://app?vid=95efe4df-b1d0-497e-ba57-b17b465ee6e7","ios":"levelo://app?vid=95efe4df-b1d0-497e-ba57-b17b465ee6e7"},"vehicle_type_id":"4","last_reported":1711408013,"current_range_meters":26400,"station_id":"ce4bgn12rcd13ifvqbt0","pricing_plan_id":"cebpf4jnsgd1na2vs0mg"},{"bike_id":"df1e6ea2-2d2a-4468-bf41-ca2da1e31172","system_id":"levelo_inurba_marseille","lat":43.31556,"lon":5.38842,"is_reserved":false,"is_disabled":false,"rental_uris":{"android":"levelo://app?vid=df1e6ea2-2d2a-4468-bf41-ca2da1e31172","ios":"levelo://app?vid=df1e6ea2-2d2a-4468-bf41-ca2da1e31172"},"vehicle_type_id":"4","last_reported":1711408013,"current_range_meters":9600,"station_id":"","pricing_plan_id":"cebpf4jnsgd1na2vs0mg"},{"bike_id":"83c8bee8-63be-4559-bc76-3f654f3c2ab5","system_id":"levelo_inurba_marseille","lat":43.325233,"lon":5.414318,"is_reserved":false,"is_disabled":false,"rental_uris":{"android":"levelo://app?vid=83c8bee8-63be-4559-bc76-3f654f3c2ab5","ios":"levelo://app?vid=83c8bee8-63be-4559-bc76-3f654f3c2ab5"},"vehicle_type_id":"4","last_reported":1711408013,"current_range_meters":22800,"station_id":"ce4bhq12rcd13ifvqhhg","pricing_plan_id":"cebpf4jnsgd1na2vs0mg"},{"bike_id":"c1c92a0c-efdc-4ff4-b068-5a0521cc3692","system_id":"levelo_inurba_marseille","lat":43.309589,"lon":5.390258,"is_reserved":false,"is_disabled":false,"rental_uris":{"android":"levelo://app?vid=c1c92a0c-efdc-4ff4-b068-5a0521cc3692","ios":"levelo://app?vid=c1c92a0c-efdc-4ff4-b068-5a0521cc3692"},"vehicle_type_id":"4","last_reported":1711408013,"current_range_meters":25600,"station_id":"ce4bgup2rcd13ifvqco0","pricing_plan_id":"cebpf4jnsgd1na2vs0mg"},{"bike_id":"dd4116fd-37e0-43a1-85a8-bdd2cde9121e","system_id":"levelo_inurba_marseille","lat":43.309589,"lon":5.390258,"is_reserved":false,"is_disabled":false,"rental_uris":{"android":"levelo://app?vid=dd4116fd-37e0-43a1-85a8-bdd2cde9121e","ios":"levelo://app?vid=dd4116fd-37e0-43a1-85a8-bdd2cde9121e"},"vehicle_type_id":"4","last_reported":1711408013,"current_range_meters":18000,"station_id":"ce4bgup2rcd13ifvqco0","pricing_plan_id":"cebpf4jnsgd1na2vs0mg"},{"bike_id":"74974c3e-a3ed-4db4-862b-8a3a954f9899","system_id":"levelo_inurba_marseille","lat":43.317557,"lon":5.390173,"is_reserved":false,"is_disabled":false,"rental_uris":{"android":"levelo://app?vid=74974c3e-a3ed-4db4-862b-8a3a954f9899","ios":"levelo://app?vid=74974c3e-a3ed-4db4-862b-8a3a954f9899"},"vehicle_type_id":"4","last_reported":1711408013,"current_range_meters":31600,"station_id":"ce4bhqp2rcd13ifvqhng","pricing_plan_id":"cebpf4jnsgd1na2vs0mg"},{"bike_id":"e09b4759-cb9e-40a0-a5fd-a1501b2d03d5","system_id":"levelo_inurba_marseille","lat":43.317557,"lon":5.390173,"is_reserved":false,"is_disabled":false,"rental_uris":{"android":"levelo://app?vid=e09b4759-cb9e-40a0-a5fd-a1501b2d03d5","ios":"levelo://app?vid=e09b4759-cb9e-40a0-a5fd-a1501b2d03d5"},"vehicle_type_id":"4","last_reported":1711408013,"current_range_meters":24400,"station_id":"ce4bhqp2rcd13ifvqhng","pricing_plan_id":"cebpf4jnsgd1na2vs0mg"},{"bike_id":"3cfcb15f-5e0d-4726-a726-880573b2cddf","system_id":"levelo_inurba_marseille","lat":43.317557,"lon":5.390173,"is_reserved":false,"is_disabled":false,"rental_uris":{"android":"levelo://app?vid=3cfcb15f-5e0d-4726-a726-880573b2cddf","ios":"levelo://app?vid=3cfcb15f-5e0d-4726-a726-880573b2cddf"},"vehicle_type_id":"4","last_reported":1711408013,"current_range_meters":19600,"station_id":"ce4bhqp2rcd13ifvqhng","pricing_plan_id":"cebpf4jnsgd1na2vs0mg"},{"bike_id":"dc13b3c3-1208-4a6b-bc83-fd17d273541c","system_id":"levelo_inurba_marseille","lat":43.317557,"lon":5.390173,"is_reserved":false,"is_disabled":false,"rental_uris":{"android":"levelo://app?vid=dc13b3c3-1208-4a6b-bc83-fd17d273541c","ios":"levelo://app?vid=dc13b3c3-1208-4a6b-bc83-fd17d273541c"},"vehicle_type_id":"4","last_reported":1711408013,"current_range_meters":4800,"station_id":"ce4bhqp2rcd13ifvqhng","pricing_plan_id":"cebpf4jnsgd1na2vs0mg"},{"bike_id":"d5f55ddd-68b1-43b4-a156-720154add23b","system_id":"levelo_inurba_marseille","lat":43.317591,"lon":5.390144,"is_reserved":false,"is_disabled":false,"rental_uris":{"android":"levelo://app?vid=d5f55ddd-68b1-43b4-a156-720154add23b","ios":"levelo://app?vid=d5f55ddd-68b1-43b4-a156-720154add23b"},"vehicle_type_id":"4","last_reported":1711408013,"current_range_meters":0,"station_id":"ce4bhqp2rcd13ifvqhng","pricing_plan_id":"cebpf4jnsgd1na2vs0mg"},{"bike_id":"a931c455-d728-49e7-b88a-2acee71fb49c","system_id":"levelo_inurba_marseille","lat":43.317557,"lon":5.390173,"is_reserved":false,"is_disabled":false,"rental_uris":{"android":"levelo://app?vid=a931c455-d728-49e7-b88a-2acee71fb49c","ios":"levelo://app?vid=a931c455-d728-49e7-b88a-2acee71fb49c"},"vehicle_type_id":"4","last_reported":1711408013,"current_range_meters":25200,"station_id":"ce4bhqp2rcd13ifvqhng","pricing_plan_id":"cebpf4jnsgd1na2vs0mg"},{"bike_id":"61811189-75cf-4d15-a6f4-1f7399341d0f","system_id":"levelo_inurba_marseille","lat":43.317574,"lon":5.390156,"is_reserved":false,"is_disabled":false,"rental_uris":{"android":"levelo://app?vid=61811189-75cf-4d15-a6f4-1f7399341d0f","ios":"levelo://app?vid=61811189-75cf-4d15-a6f4-1f7399341d0f"},"vehicle_type_id":"4","last_reported":1711408013,"current_range_meters":14000,"station_id":"ce4bhqp2rcd13ifvqhng","pricing_plan_id":"cebpf4jnsgd1na2vs0mg"},{"bike_id":"5a0fd1d2-8e65-443e-9fca-b2ba02caa8e8","system_id":"levelo_inurba_marseille","lat":43.31747,"lon":5.39022,"is_reserved":false,"is_disabled":false,"rental_uris":{"android":"levelo://app?vid=5a0fd1d2-8e65-443e-9fca-b2ba02caa8e8","ios":"levelo://app?vid=5a0fd1d2-8e65-443e-9fca-b2ba02caa8e8"},"vehicle_type_id":"4","last_reported":1711408013,"current_range_meters":24800,"station_id":"ce4bhqp2rcd13ifvqhng","pricing_plan_id":"cebpf4jnsgd1na2vs0mg"},{"bike_id":"83108d97-d6fa-4d19-b3b0-1dbede4bac67","system_id":"levelo_inurba_marseille","lat":43.317557,"lon":5.390205,"is_reserved":false,"is_disabled":false,"rental_uris":{"android":"levelo://app?vid=83108d97-d6fa-4d19-b3b0-1dbede4bac67","ios":"levelo://app?vid=83108d97-d6fa-4d19-b3b0-1dbede4bac67"},"vehicle_type_id":"4","last_reported":1711408013,"current_range_meters":16400,"station_id":"ce4bhqp2rcd13ifvqhng","pricing_plan_id":"cebpf4jnsgd1na2vs0mg"},{"bike_id":"96880fb3-9072-474a-b7df-b58771331d89","system_id":"levelo_inurba_marseille","lat":43.317581,"lon":5.390213,"is_reserved":false,"is_disabled":false,"rental_uris":{"android":"levelo://app?vid=96880fb3-9072-474a-b7df-b58771331d89","ios":"levelo://app?vid=96880fb3-9072-474a-b7df-b58771331d89"},"vehicle_type_id":"4","last_reported":1711408013,"current_range_meters":14000,"station_id":"ce4bhqp2rcd13ifvqhng","pricing_plan_id":"cebpf4jnsgd1na2vs0mg"},{"bike_id":"d642746c-c3b3-4993-8c11-edc5a35ab173","system_id":"levelo_inurba_marseille","lat":43.3176,"lon":5.39021,"is_reserved":false,"is_disabled":false,"rental_uris":{"android":"levelo://app?vid=d642746c-c3b3-4993-8c11-edc5a35ab173","ios":"levelo://app?vid=d642746c-c3b3-4993-8c11-edc5a35ab173"},"vehicle_type_id":"4","last_reported":1711408013,"current_range_meters":25600,"station_id":"ce4bhqp2rcd13ifvqhng","pricing_plan_id":"cebpf4jnsgd1na2vs0mg"},{"bike_id":"b0618c2a-5e87-4a42-adfb-8de954a580f3","system_id":"levelo_inurba_marseille","lat":43.304403,"lon":5.388817,"is_reserved":false,"is_disabled":false,"rental_uris":{"android":"levelo://app?vid=b0618c2a-5e87-4a42-adfb-8de954a580f3","ios":"levelo://app?vid=b0618c2a-5e87-4a42-adfb-8de954a580f3"},"vehicle_type_id":"4","last_reported":1711408013,"current_range_meters":22800,"station_id":"ce4bgk12rcd13ifvqbi0","pricing_plan_id":"cebpf4jnsgd1na2vs0mg"},{"bike_id":"cd830c5a-172e-4cb2-999e-5048d2514e49","system_id":"levelo_inurba_marseille","lat":43.30439,"lon":5.38887,"is_reserved":false,"is_disabled":false,"rental_uris":{"android":"levelo://app?vid=cd830c5a-172e-4cb2-999e-5048d2514e49","ios":"levelo://app?vid=cd830c5a-172e-4cb2-999e-5048d2514e49"},"vehicle_type_id":"4","last_reported":1711408013,"current_range_meters":6800,"station_id":"ce4bgk12rcd13ifvqbi0","pricing_plan_id":"cebpf4jnsgd1na2vs0mg"},{"bike_id":"617b0e6f-676e-40f0-bbaf-c9395e5b4dcd","system_id":"levelo_inurba_marseille","lat":43.31477,"lon":5.39158,"is_reserved":false,"is_disabled":false,"rental_uris":{"android":"levelo://app?vid=617b0e6f-676e-40f0-bbaf-c9395e5b4dcd","ios":"levelo://app?vid=617b0e6f-676e-40f0-bbaf-c9395e5b4dcd"},"vehicle_type_id":"4","last_reported":1711408013,"current_range_meters":800,"station_id":"","pricing_plan_id":"cebpf4jnsgd1na2vs0mg"},{"bike_id":"5c33c0da-eae7-4bd1-aef5-973670d0d9c5","system_id":"levelo_inurba_marseille","lat":43.304274,"lon":5.388873,"is_reserved":false,"is_disabled":false,"rental_uris":{"android":"levelo://app?vid=5c33c0da-eae7-4bd1-aef5-973670d0d9c5","ios":"levelo://app?vid=5c33c0da-eae7-4bd1-aef5-973670d0d9c5"},"vehicle_type_id":"4","last_reported":1711408013,"current_range_meters":15600,"station_id":"ce4bgk12rcd13ifvqbi0","pricing_plan_id":"cebpf4jnsgd1na2vs0mg"},{"bike_id":"91a0868f-59ad-4c58-ab9e-7d8ceff900e3","system_id":"levelo_inurba_marseille","lat":43.304274,"lon":5.388873,"is_reserved":false,"is_disabled":false,"rental_uris":{"android":"levelo://app?vid=91a0868f-59ad-4c58-ab9e-7d8ceff900e3","ios":"levelo://app?vid=91a0868f-59ad-4c58-ab9e-7d8ceff900e3"},"vehicle_type_id":"4","last_reported":1711408013,"current_range_meters":23600,"station_id":"ce4bgk12rcd13ifvqbi0","pricing_plan_id":"cebpf4jnsgd1na2vs0mg"},{"bike_id":"5b3969db-8490-4788-b0f6-6d19885c1ad4","system_id":"levelo_inurba_marseille","lat":43.30438,"lon":5.38893,"is_reserved":false,"is_disabled":false,"rental_uris":{"android":"levelo://app?vid=5b3969db-8490-4788-b0f6-6d19885c1ad4","ios":"levelo://app?vid=5b3969db-8490-4788-b0f6-6d19885c1ad4"},"vehicle_type_id":"4","last_reported":1711408013,"current_range_meters":5200,"station_id":"ce4bgk12rcd13ifvqbi0","pricing_plan_id":"cebpf4jnsgd1na2vs0mg"},{"bike_id":"b0d70539-152b-404a-b2cf-4c997140854b","system_id":"levelo_inurba_marseille","lat":43.30437,"lon":5.38894,"is_reserved":false,"is_disabled":false,"rental_uris":{"android":"levelo://app?vid=b0d70539-152b-404a-b2cf-4c997140854b","ios":"levelo://app?vid=b0d70539-152b-404a-b2cf-4c997140854b"},"vehicle_type_id":"4","last_reported":1711408013,"current_range_meters":22400,"station_id":"ce4bgk12rcd13ifvqbi0","pricing_plan_id":"cebpf4jnsgd1na2vs0mg"},{"bike_id":"79ed440b-e904-4307-90e5-87047b4c467a","system_id":"levelo_inurba_marseille","lat":43.30429,"lon":5.38892,"is_reserved":false,"is_disabled":false,"rental_uris":{"android":"levelo://app?vid=79ed440b-e904-4307-90e5-87047b4c467a","ios":"levelo://app?vid=79ed440b-e904-4307-90e5-87047b4c467a"},"vehicle_type_id":"4","last_reported":1711408013,"current_range_meters":6400,"station_id":"ce4bgk12rcd13ifvqbi0","pricing_plan_id":"cebpf4jnsgd1na2vs0mg"},{"bike_id":"5e8d993c-5f8d-4a4d-a1b6-33dc42c0ff53","system_id":"levelo_inurba_marseille","lat":43.30426,"lon":5.38891,"is_reserved":false,"is_disabled":false,"rental_uris":{"android":"levelo://app?vid=5e8d993c-5f8d-4a4d-a1b6-33dc42c0ff53","ios":"levelo://app?vid=5e8d993c-5f8d-4a4d-a1b6-33dc42c0ff53"},"vehicle_type_id":"4","last_reported":1711408013,"current_range_meters":8400,"station_id":"ce4bgk12rcd13ifvqbi0","pricing_plan_id":"cebpf4jnsgd1na2vs0mg"},{"bike_id":"bf9bf615-bce6-4b76-a67d-ae2385bcd89c","system_id":"levelo_inurba_marseille","lat":43.314615,"lon":5.391953,"is_reserved":false,"is_disabled":false,"rental_uris":{"android":"levelo://app?vid=bf9bf615-bce6-4b76-a67d-ae2385bcd89c","ios":"levelo://app?vid=bf9bf615-bce6-4b76-a67d-ae2385bcd89c"},"vehicle_type_id":"4","last_reported":1711408013,"current_range_meters":26800,"station_id":"","pricing_plan_id":"cebpf4jnsgd1na2vs0mg"},{"bike_id":"373d6463-10c2-4748-8e67-9396ed10427d","system_id":"levelo_inurba_marseille","lat":43.29976,"lon":5.3848,"is_reserved":false,"is_disabled":false,"rental_uris":{"android":"levelo://app?vid=373d6463-10c2-4748-8e67-9396ed10427d","ios":"levelo://app?vid=373d6463-10c2-4748-8e67-9396ed10427d"},"vehicle_type_id":"4","last_reported":1711408013,"current_range_meters":0,"station_id":"ce4bgj92rcd13ifvqbd0","pricing_plan_id":"cebpf4jnsgd1na2vs0mg"},{"bike_id":"9f3438b4-4b40-4c12-80e5-e9de4f2806c4","system_id":"levelo_inurba_marseille","lat":43.298305,"lon":5.3839,"is_reserved":false,"is_disabled":false,"rental_uris":{"android":"levelo://app?vid=9f3438b4-4b40-4c12-80e5-e9de4f2806c4","ios":"levelo://app?vid=9f3438b4-4b40-4c12-80e5-e9de4f2806c4"},"vehicle_type_id":"4","last_reported":1711408013,"current_range_meters":13600,"station_id":"","pricing_plan_id":"cebpf4jnsgd1na2vs0mg"},{"bike_id":"c56e3e85-d19c-4dc5-b26c-a5fb7445c568","system_id":"levelo_inurba_marseille","lat":43.32367,"lon":5.38883,"is_reserved":false,"is_disabled":false,"rental_uris":{"android":"levelo://app?vid=c56e3e85-d19c-4dc5-b26c-a5fb7445c568","ios":"levelo://app?vid=c56e3e85-d19c-4dc5-b26c-a5fb7445c568"},"vehicle_type_id":"4","last_reported":1711408013,"current_range_meters":10000,"station_id":"ce4bhqp2rcd13ifvqhog","pricing_plan_id":"cebpf4jnsgd1na2vs0mg"},{"bike_id":"3aa46326-71f7-4121-8f47-dfcc74d3bb25","system_id":"levelo_inurba_marseille","lat":43.32367,"lon":5.388836,"is_reserved":false,"is_disabled":false,"rental_uris":{"android":"levelo://app?vid=3aa46326-71f7-4121-8f47-dfcc74d3bb25","ios":"levelo://app?vid=3aa46326-71f7-4121-8f47-dfcc74d3bb25"},"vehicle_type_id":"4","last_reported":1711408013,"current_range_meters":8400,"station_id":"ce4bhqp2rcd13ifvqhog","pricing_plan_id":"cebpf4jnsgd1na2vs0mg"},{"bike_id":"66d1d5b6-d367-4c34-a29a-5ffebfad2831","system_id":"levelo_inurba_marseille","lat":43.32367,"lon":5.388836,"is_reserved":false,"is_disabled":false,"rental_uris":{"android":"levelo://app?vid=66d1d5b6-d367-4c34-a29a-5ffebfad2831","ios":"levelo://app?vid=66d1d5b6-d367-4c34-a29a-5ffebfad2831"},"vehicle_type_id":"4","last_reported":1711408013,"current_range_meters":16000,"station_id":"ce4bhqp2rcd13ifvqhog","pricing_plan_id":"cebpf4jnsgd1na2vs0mg"},{"bike_id":"51da314f-d3e9-4207-b1d1-9859a5d3a83c","system_id":"levelo_inurba_marseille","lat":43.29601,"lon":5.381084,"is_reserved":false,"is_disabled":false,"rental_uris":{"android":"levelo://app?vid=51da314f-d3e9-4207-b1d1-9859a5d3a83c","ios":"levelo://app?vid=51da314f-d3e9-4207-b1d1-9859a5d3a83c"},"vehicle_type_id":"4","last_reported":1711408013,"current_range_meters":0,"station_id":"ce4bgl12rcd13ifvqbo0","pricing_plan_id":"cebpf4jnsgd1na2vs0mg"},{"bike_id":"adb723cb-b8ef-4873-a172-61b091f9ad21","system_id":"levelo_inurba_marseille","lat":43.29602,"lon":5.381084,"is_reserved":false,"is_disabled":false,"rental_uris":{"android":"levelo://app?vid=adb723cb-b8ef-4873-a172-61b091f9ad21","ios":"levelo://app?vid=adb723cb-b8ef-4873-a172-61b091f9ad21"},"vehicle_type_id":"4","last_reported":1711408013,"current_range_meters":18000,"station_id":"ce4bgl12rcd13ifvqbo0","pricing_plan_id":"cebpf4jnsgd1na2vs0mg"},{"bike_id":"5d07a6cb-7c72-436d-a135-670fe821becf","system_id":"levelo_inurba_marseille","lat":43.292749,"lon":5.368402,"is_reserved":false,"is_disabled":false,"rental_uris":{"android":"levelo://app?vid=5d07a6cb-7c72-436d-a135-670fe821becf","ios":"levelo://app?vid=5d07a6cb-7c72-436d-a135-670fe821becf"},"vehicle_type_id":"4","last_reported":1711408013,"current_range_meters":29200,"station_id":"ce4bhbp2rcd13ifvqesg","pricing_plan_id":"cebpf4jnsgd1na2vs0mg"},{"bike_id":"a6fd1ca5-4bb2-4190-bb81-5ec2d415e5f4","system_id":"levelo_inurba_marseille","lat":43.305994,"lon":5.393687,"is_reserved":false,"is_disabled":false,"rental_uris":{"android":"levelo://app?vid=a6fd1ca5-4bb2-4190-bb81-5ec2d415e5f4","ios":"levelo://app?vid=a6fd1ca5-4bb2-4190-bb81-5ec2d415e5f4"},"vehicle_type_id":"4","last_reported":1711408013,"current_range_meters":17200,"station_id":"ce4bh0p2rcd13ifvqd80","pricing_plan_id":"cebpf4jnsgd1na2vs0mg"},{"bike_id":"ea6c9b74-f05e-40e9-99b7-d61e3dca9f2b","system_id":"levelo_inurba_marseille","lat":43.303002,"lon":5.392142,"is_reserved":false,"is_disabled":false,"rental_uris":{"android":"levelo://app?vid=ea6c9b74-f05e-40e9-99b7-d61e3dca9f2b","ios":"levelo://app?vid=ea6c9b74-f05e-40e9-99b7-d61e3dca9f2b"},"vehicle_type_id":"4","last_reported":1711408013,"current_range_meters":21600,"station_id":"ce4bgkh2rcd13ifvqbk0","pricing_plan_id":"cebpf4jnsgd1na2vs0mg"},{"bike_id":"7b085e9b-f9c8-4539-a113-d36d09a69ead","system_id":"levelo_inurba_marseille","lat":43.302992,"lon":5.392136,"is_reserved":false,"is_disabled":false,"rental_uris":{"android":"levelo://app?vid=7b085e9b-f9c8-4539-a113-d36d09a69ead","ios":"levelo://app?vid=7b085e9b-f9c8-4539-a113-d36d09a69ead"},"vehicle_type_id":"4","last_reported":1711408013,"current_range_meters":23600,"station_id":"ce4bgkh2rcd13ifvqbk0","pricing_plan_id":"cebpf4jnsgd1na2vs0mg"},{"bike_id":"cac10537-6dfe-422d-9a5b-20dae560a1fe","system_id":"levelo_inurba_marseille","lat":43.302992,"lon":5.392136,"is_reserved":false,"is_disabled":false,"rental_uris":{"android":"levelo://app?vid=cac10537-6dfe-422d-9a5b-20dae560a1fe","ios":"levelo://app?vid=cac10537-6dfe-422d-9a5b-20dae560a1fe"},"vehicle_type_id":"4","last_reported":1711408013,"current_range_meters":21200,"station_id":"ce4bgkh2rcd13ifvqbk0","pricing_plan_id":"cebpf4jnsgd1na2vs0mg"},{"bike_id":"e1ca1aaa-b234-47c2-b89a-bf3dc160bfd3","system_id":"levelo_inurba_marseille","lat":43.302992,"lon":5.392136,"is_reserved":false,"is_disabled":false,"rental_uris":{"android":"levelo://app?vid=e1ca1aaa-b234-47c2-b89a-bf3dc160bfd3","ios":"levelo://app?vid=e1ca1aaa-b234-47c2-b89a-bf3dc160bfd3"},"vehicle_type_id":"4","last_reported":1711408013,"current_range_meters":31200,"station_id":"ce4bgkh2rcd13ifvqbk0","pricing_plan_id":"cebpf4jnsgd1na2vs0mg"},{"bike_id":"72154de6-756f-4110-acbb-e106b43ac5d1","system_id":"levelo_inurba_marseille","lat":43.300967,"lon":5.390717,"is_reserved":false,"is_disabled":false,"rental_uris":{"android":"levelo://app?vid=72154de6-756f-4110-acbb-e106b43ac5d1","ios":"levelo://app?vid=72154de6-756f-4110-acbb-e106b43ac5d1"},"vehicle_type_id":"4","last_reported":1711408013,"current_range_meters":17600,"station_id":"ce4bh192rcd13ifvqdb0","pricing_plan_id":"cebpf4jnsgd1na2vs0mg"},{"bike_id":"7a05dfde-e4fe-4597-ab56-abc7a2dc8a8d","system_id":"levelo_inurba_marseille","lat":43.300999,"lon":5.390753,"is_reserved":false,"is_disabled":false,"rental_uris":{"android":"levelo://app?vid=7a05dfde-e4fe-4597-ab56-abc7a2dc8a8d","ios":"levelo://app?vid=7a05dfde-e4fe-4597-ab56-abc7a2dc8a8d"},"vehicle_type_id":"4","last_reported":1711408013,"current_range_meters":20400,"station_id":"ce4bh192rcd13ifvqdb0","pricing_plan_id":"cebpf4jnsgd1na2vs0mg"},{"bike_id":"ee3d0ea6-70a6-4b44-aac8-6352fcd8e963","system_id":"levelo_inurba_marseille","lat":43.300964,"lon":5.390771,"is_reserved":false,"is_disabled":false,"rental_uris":{"android":"levelo://app?vid=ee3d0ea6-70a6-4b44-aac8-6352fcd8e963","ios":"levelo://app?vid=ee3d0ea6-70a6-4b44-aac8-6352fcd8e963"},"vehicle_type_id":"4","last_reported":1711408013,"current_range_meters":26800,"station_id":"ce4bh192rcd13ifvqdb0","pricing_plan_id":"cebpf4jnsgd1na2vs0mg"},{"bike_id":"bbfa64f3-6f6b-4825-a854-76c3cd11ea4e","system_id":"levelo_inurba_marseille","lat":43.300852,"lon":5.390859,"is_reserved":false,"is_disabled":false,"rental_uris":{"android":"levelo://app?vid=bbfa64f3-6f6b-4825-a854-76c3cd11ea4e","ios":"levelo://app?vid=bbfa64f3-6f6b-4825-a854-76c3cd11ea4e"},"vehicle_type_id":"4","last_reported":1711408013,"current_range_meters":24000,"station_id":"ce4bh192rcd13ifvqdb0","pricing_plan_id":"cebpf4jnsgd1na2vs0mg"},{"bike_id":"313a3376-c374-4204-8ec8-ca6b09466186","system_id":"levelo_inurba_marseille","lat":43.300956,"lon":5.390784,"is_reserved":false,"is_disabled":false,"rental_uris":{"android":"levelo://app?vid=313a3376-c374-4204-8ec8-ca6b09466186","ios":"levelo://app?vid=313a3376-c374-4204-8ec8-ca6b09466186"},"vehicle_type_id":"4","last_reported":1711408013,"current_range_meters":14400,"station_id":"ce4bh192rcd13ifvqdb0","pricing_plan_id":"cebpf4jnsgd1na2vs0mg"},{"bike_id":"172bf3dd-3969-4d04-bf51-e7aa16eb319f","system_id":"levelo_inurba_marseille","lat":43.300852,"lon":5.390859,"is_reserved":false,"is_disabled":false,"rental_uris":{"android":"levelo://app?vid=172bf3dd-3969-4d04-bf51-e7aa16eb319f","ios":"levelo://app?vid=172bf3dd-3969-4d04-bf51-e7aa16eb319f"},"vehicle_type_id":"4","last_reported":1711408013,"current_range_meters":0,"station_id":"ce4bh192rcd13ifvqdb0","pricing_plan_id":"cebpf4jnsgd1na2vs0mg"},{"bike_id":"4d90b432-052f-4d0d-b57a-6486d1e0e4f1","system_id":"levelo_inurba_marseille","lat":43.300945,"lon":5.390837,"is_reserved":false,"is_disabled":false,"rental_uris":{"android":"levelo://app?vid=4d90b432-052f-4d0d-b57a-6486d1e0e4f1","ios":"levelo://app?vid=4d90b432-052f-4d0d-b57a-6486d1e0e4f1"},"vehicle_type_id":"4","last_reported":1711408013,"current_range_meters":23200,"station_id":"ce4bh192rcd13ifvqdb0","pricing_plan_id":"cebpf4jnsgd1na2vs0mg"},{"bike_id":"eeaaa9e7-5469-4556-ab02-5c7a75366b75","system_id":"levelo_inurba_marseille","lat":43.298764,"lon":5.388973,"is_reserved":false,"is_disabled":false,"rental_uris":{"android":"levelo://app?vid=eeaaa9e7-5469-4556-ab02-5c7a75366b75","ios":"levelo://app?vid=eeaaa9e7-5469-4556-ab02-5c7a75366b75"},"vehicle_type_id":"4","last_reported":1711408013,"current_range_meters":5600,"station_id":"ce4bh392rcd13ifvqdl0","pricing_plan_id":"cebpf4jnsgd1na2vs0mg"},{"bike_id":"f9bd7027-cdbf-40bc-bd6e-fe355823138d","system_id":"levelo_inurba_marseille","lat":43.29885,"lon":5.38899,"is_reserved":false,"is_disabled":false,"rental_uris":{"android":"levelo://app?vid=f9bd7027-cdbf-40bc-bd6e-fe355823138d","ios":"levelo://app?vid=f9bd7027-cdbf-40bc-bd6e-fe355823138d"},"vehicle_type_id":"4","last_reported":1711408013,"current_range_meters":6000,"station_id":"ce4bho92rcd13ifvqh3g","pricing_plan_id":"cebpf4jnsgd1na2vs0mg"},{"bike_id":"904273ae-f8b9-4e98-9de8-acfcfbd91ea9","system_id":"levelo_inurba_marseille","lat":43.298764,"lon":5.388973,"is_reserved":false,"is_disabled":false,"rental_uris":{"android":"levelo://app?vid=904273ae-f8b9-4e98-9de8-acfcfbd91ea9","ios":"levelo://app?vid=904273ae-f8b9-4e98-9de8-acfcfbd91ea9"},"vehicle_type_id":"4","last_reported":1711408013,"current_range_meters":6000,"station_id":"ce4bh392rcd13ifvqdl0","pricing_plan_id":"cebpf4jnsgd1na2vs0mg"},{"bike_id":"e6992c2b-9a25-44d9-867a-dc14952bb9ed","system_id":"levelo_inurba_marseille","lat":43.298764,"lon":5.388973,"is_reserved":false,"is_disabled":false,"rental_uris":{"android":"levelo://app?vid=e6992c2b-9a25-44d9-867a-dc14952bb9ed","ios":"levelo://app?vid=e6992c2b-9a25-44d9-867a-dc14952bb9ed"},"vehicle_type_id":"4","last_reported":1711408013,"current_range_meters":28800,"station_id":"ce4bh392rcd13ifvqdl0","pricing_plan_id":"cebpf4jnsgd1na2vs0mg"},{"bike_id":"3159072b-cf81-479a-984a-90c789253707","system_id":"levelo_inurba_marseille","lat":43.298764,"lon":5.388973,"is_reserved":false,"is_disabled":false,"rental_uris":{"android":"levelo://app?vid=3159072b-cf81-479a-984a-90c789253707","ios":"levelo://app?vid=3159072b-cf81-479a-984a-90c789253707"},"vehicle_type_id":"4","last_reported":1711408013,"current_range_meters":4400,"station_id":"ce4bh392rcd13ifvqdl0","pricing_plan_id":"cebpf4jnsgd1na2vs0mg"},{"bike_id":"5d140a35-ed34-4783-9bbe-6ffedd1c46b4","system_id":"levelo_inurba_marseille","lat":43.298764,"lon":5.388973,"is_reserved":false,"is_disabled":false,"rental_uris":{"android":"levelo://app?vid=5d140a35-ed34-4783-9bbe-6ffedd1c46b4","ios":"levelo://app?vid=5d140a35-ed34-4783-9bbe-6ffedd1c46b4"},"vehicle_type_id":"4","last_reported":1711408013,"current_range_meters":30800,"station_id":"ce4bh392rcd13ifvqdl0","pricing_plan_id":"cebpf4jnsgd1na2vs0mg"},{"bike_id":"a8b00f91-1670-4e72-bc02-48c974e92f31","system_id":"levelo_inurba_marseille","lat":43.298764,"lon":5.388973,"is_reserved":false,"is_disabled":false,"rental_uris":{"android":"levelo://app?vid=a8b00f91-1670-4e72-bc02-48c974e92f31","ios":"levelo://app?vid=a8b00f91-1670-4e72-bc02-48c974e92f31"},"vehicle_type_id":"4","last_reported":1711408013,"current_range_meters":17600,"station_id":"ce4bh392rcd13ifvqdl0","pricing_plan_id":"cebpf4jnsgd1na2vs0mg"},{"bike_id":"5ca6d259-87cc-4abd-b66d-52e3ed6bd99a","system_id":"levelo_inurba_marseille","lat":43.298764,"lon":5.388973,"is_reserved":false,"is_disabled":false,"rental_uris":{"android":"levelo://app?vid=5ca6d259-87cc-4abd-b66d-52e3ed6bd99a","ios":"levelo://app?vid=5ca6d259-87cc-4abd-b66d-52e3ed6bd99a"},"vehicle_type_id":"4","last_reported":1711408013,"current_range_meters":400,"station_id":"ce4bh392rcd13ifvqdl0","pricing_plan_id":"cebpf4jnsgd1na2vs0mg"},{"bike_id":"a9c131be-7a0a-40ff-b8b6-5e2688de363c","system_id":"levelo_inurba_marseille","lat":43.298764,"lon":5.388973,"is_reserved":false,"is_disabled":false,"rental_uris":{"android":"levelo://app?vid=a9c131be-7a0a-40ff-b8b6-5e2688de363c","ios":"levelo://app?vid=a9c131be-7a0a-40ff-b8b6-5e2688de363c"},"vehicle_type_id":"4","last_reported":1711408013,"current_range_meters":16000,"station_id":"ce4bh392rcd13ifvqdl0","pricing_plan_id":"cebpf4jnsgd1na2vs0mg"},{"bike_id":"2fcf0a97-1ffa-49d7-9159-5a21a46b451b","system_id":"levelo_inurba_marseille","lat":43.298738,"lon":5.389099,"is_reserved":false,"is_disabled":false,"rental_uris":{"android":"levelo://app?vid=2fcf0a97-1ffa-49d7-9159-5a21a46b451b","ios":"levelo://app?vid=2fcf0a97-1ffa-49d7-9159-5a21a46b451b"},"vehicle_type_id":"4","last_reported":1711408013,"current_range_meters":26800,"station_id":"ce4bh392rcd13ifvqdl0","pricing_plan_id":"cebpf4jnsgd1na2vs0mg"},{"bike_id":"35234c23-8e78-4e6c-95ce-18b853685849","system_id":"levelo_inurba_marseille","lat":43.298764,"lon":5.388973,"is_reserved":false,"is_disabled":false,"rental_uris":{"android":"levelo://app?vid=35234c23-8e78-4e6c-95ce-18b853685849","ios":"levelo://app?vid=35234c23-8e78-4e6c-95ce-18b853685849"},"vehicle_type_id":"4","last_reported":1711408013,"current_range_meters":31200,"station_id":"ce4bh392rcd13ifvqdl0","pricing_plan_id":"cebpf4jnsgd1na2vs0mg"},{"bike_id":"2791f39c-d0a4-4eb0-a510-f88a90646201","system_id":"levelo_inurba_marseille","lat":43.298705,"lon":5.389071,"is_reserved":false,"is_disabled":false,"rental_uris":{"android":"levelo://app?vid=2791f39c-d0a4-4eb0-a510-f88a90646201","ios":"levelo://app?vid=2791f39c-d0a4-4eb0-a510-f88a90646201"},"vehicle_type_id":"4","last_reported":1711408013,"current_range_meters":31200,"station_id":"ce4bh392rcd13ifvqdl0","pricing_plan_id":"cebpf4jnsgd1na2vs0mg"},{"bike_id":"b9a09614-8d55-4767-9df9-dfce61331735","system_id":"levelo_inurba_marseille","lat":43.29875,"lon":5.38913,"is_reserved":false,"is_disabled":false,"rental_uris":{"android":"levelo://app?vid=b9a09614-8d55-4767-9df9-dfce61331735","ios":"levelo://app?vid=b9a09614-8d55-4767-9df9-dfce61331735"},"vehicle_type_id":"4","last_reported":1711408013,"current_range_meters":12000,"station_id":"ce4bh392rcd13ifvqdl0","pricing_plan_id":"cebpf4jnsgd1na2vs0mg"},{"bike_id":"8a3b037c-cc6e-4e84-8731-9fbd9a498ff6","system_id":"levelo_inurba_marseille","lat":43.298764,"lon":5.388973,"is_reserved":false,"is_disabled":false,"rental_uris":{"android":"levelo://app?vid=8a3b037c-cc6e-4e84-8731-9fbd9a498ff6","ios":"levelo://app?vid=8a3b037c-cc6e-4e84-8731-9fbd9a498ff6"},"vehicle_type_id":"4","last_reported":1711408013,"current_range_meters":19600,"station_id":"ce4bh392rcd13ifvqdl0","pricing_plan_id":"cebpf4jnsgd1na2vs0mg"},{"bike_id":"fd220eff-9144-402d-9c2d-d3a1e0920cd2","system_id":"levelo_inurba_marseille","lat":43.291671,"lon":5.371575,"is_reserved":false,"is_disabled":false,"rental_uris":{"android":"levelo://app?vid=fd220eff-9144-402d-9c2d-d3a1e0920cd2","ios":"levelo://app?vid=fd220eff-9144-402d-9c2d-d3a1e0920cd2"},"vehicle_type_id":"4","last_reported":1711408013,"current_range_meters":6000,"station_id":"ce4bha92rcd13ifvqeh0","pricing_plan_id":"cebpf4jnsgd1na2vs0mg"},{"bike_id":"ad427e7e-aa1c-45fc-ba89-66f18eb6a0de","system_id":"levelo_inurba_marseille","lat":43.309047,"lon":5.396551,"is_reserved":false,"is_disabled":false,"rental_uris":{"android":"levelo://app?vid=ad427e7e-aa1c-45fc-ba89-66f18eb6a0de","ios":"levelo://app?vid=ad427e7e-aa1c-45fc-ba89-66f18eb6a0de"},"vehicle_type_id":"4","last_reported":1711408013,"current_range_meters":16800,"station_id":"ce4bh012rcd13ifvqcv0","pricing_plan_id":"cebpf4jnsgd1na2vs0mg"},{"bike_id":"04eb31e6-cb57-48cd-9033-06a735a50b52","system_id":"levelo_inurba_marseille","lat":43.30881,"lon":5.39629,"is_reserved":false,"is_disabled":false,"rental_uris":{"android":"levelo://app?vid=04eb31e6-cb57-48cd-9033-06a735a50b52","ios":"levelo://app?vid=04eb31e6-cb57-48cd-9033-06a735a50b52"},"vehicle_type_id":"4","last_reported":1711408013,"current_range_meters":27600,"station_id":"ce4bh012rcd13ifvqcv0","pricing_plan_id":"cebpf4jnsgd1na2vs0mg"},{"bike_id":"e5cfc5b1-95b9-44ab-93db-0607229c2d88","system_id":"levelo_inurba_marseille","lat":43.309047,"lon":5.396551,"is_reserved":false,"is_disabled":false,"rental_uris":{"android":"levelo://app?vid=e5cfc5b1-95b9-44ab-93db-0607229c2d88","ios":"levelo://app?vid=e5cfc5b1-95b9-44ab-93db-0607229c2d88"},"vehicle_type_id":"4","last_reported":1711408013,"current_range_meters":12400,"station_id":"ce4bh012rcd13ifvqcv0","pricing_plan_id":"cebpf4jnsgd1na2vs0mg"},{"bike_id":"d55c64e0-f5e9-440a-836a-5bf9f5ec541f","system_id":"levelo_inurba_marseille","lat":43.31328,"lon":5.3968,"is_reserved":false,"is_disabled":false,"rental_uris":{"android":"levelo://app?vid=d55c64e0-f5e9-440a-836a-5bf9f5ec541f","ios":"levelo://app?vid=d55c64e0-f5e9-440a-836a-5bf9f5ec541f"},"vehicle_type_id":"4","last_reported":1711408013,"current_range_meters":1600,"station_id":"ce4bgvp2rcd13ifvqcu0","pricing_plan_id":"cebpf4jnsgd1na2vs0mg"},{"bike_id":"31d4e18b-5ed3-4354-8f01-80d5e3780df7","system_id":"levelo_inurba_marseille","lat":43.309038,"lon":5.396546,"is_reserved":false,"is_disabled":false,"rental_uris":{"android":"levelo://app?vid=31d4e18b-5ed3-4354-8f01-80d5e3780df7","ios":"levelo://app?vid=31d4e18b-5ed3-4354-8f01-80d5e3780df7"},"vehicle_type_id":"4","last_reported":1711408013,"current_range_meters":30000,"station_id":"ce4bh012rcd13ifvqcv0","pricing_plan_id":"cebpf4jnsgd1na2vs0mg"},{"bike_id":"851be845-f6fe-47ca-86e6-3e7ca0cb7e38","system_id":"levelo_inurba_marseille","lat":43.309047,"lon":5.396551,"is_reserved":false,"is_disabled":false,"rental_uris":{"android":"levelo://app?vid=851be845-f6fe-47ca-86e6-3e7ca0cb7e38","ios":"levelo://app?vid=851be845-f6fe-47ca-86e6-3e7ca0cb7e38"},"vehicle_type_id":"4","last_reported":1711408013,"current_range_meters":27200,"station_id":"ce4bh012rcd13ifvqcv0","pricing_plan_id":"cebpf4jnsgd1na2vs0mg"},{"bike_id":"a1d56bd8-1704-4bbc-a692-abac57fe2345","system_id":"levelo_inurba_marseille","lat":43.313291,"lon":5.396838,"is_reserved":false,"is_disabled":false,"rental_uris":{"android":"levelo://app?vid=a1d56bd8-1704-4bbc-a692-abac57fe2345","ios":"levelo://app?vid=a1d56bd8-1704-4bbc-a692-abac57fe2345"},"vehicle_type_id":"4","last_reported":1711408013,"current_range_meters":14400,"station_id":"ce4bgvp2rcd13ifvqcu0","pricing_plan_id":"cebpf4jnsgd1na2vs0mg"},{"bike_id":"779d30d8-45e0-4edf-b3ca-48eba2dfd799","system_id":"levelo_inurba_marseille","lat":43.309047,"lon":5.396551,"is_reserved":false,"is_disabled":false,"rental_uris":{"android":"levelo://app?vid=779d30d8-45e0-4edf-b3ca-48eba2dfd799","ios":"levelo://app?vid=779d30d8-45e0-4edf-b3ca-48eba2dfd799"},"vehicle_type_id":"4","last_reported":1711408013,"current_range_meters":400,"station_id":"ce4bh012rcd13ifvqcv0","pricing_plan_id":"cebpf4jnsgd1na2vs0mg"},{"bike_id":"e845e878-b181-4fa7-8a7c-8eebf83b236c","system_id":"levelo_inurba_marseille","lat":43.309038,"lon":5.396546,"is_reserved":false,"is_disabled":false,"rental_uris":{"android":"levelo://app?vid=e845e878-b181-4fa7-8a7c-8eebf83b236c","ios":"levelo://app?vid=e845e878-b181-4fa7-8a7c-8eebf83b236c"},"vehicle_type_id":"4","last_reported":1711408013,"current_range_meters":30400,"station_id":"ce4bh012rcd13ifvqcv0","pricing_plan_id":"cebpf4jnsgd1na2vs0mg"},{"bike_id":"2937d4fe-557f-4047-97b0-30dadd6c1416","system_id":"levelo_inurba_marseille","lat":43.308857,"lon":5.3964,"is_reserved":false,"is_disabled":false,"rental_uris":{"android":"levelo://app?vid=2937d4fe-557f-4047-97b0-30dadd6c1416","ios":"levelo://app?vid=2937d4fe-557f-4047-97b0-30dadd6c1416"},"vehicle_type_id":"4","last_reported":1711408013,"current_range_meters":11200,"station_id":"ce4bh012rcd13ifvqcv0","pricing_plan_id":"cebpf4jnsgd1na2vs0mg"},{"bike_id":"10314a1d-e81b-4daa-9290-405a0768e81b","system_id":"levelo_inurba_marseille","lat":43.309038,"lon":5.396546,"is_reserved":false,"is_disabled":false,"rental_uris":{"android":"levelo://app?vid=10314a1d-e81b-4daa-9290-405a0768e81b","ios":"levelo://app?vid=10314a1d-e81b-4daa-9290-405a0768e81b"},"vehicle_type_id":"4","last_reported":1711408013,"current_range_meters":31200,"station_id":"ce4bh012rcd13ifvqcv0","pricing_plan_id":"cebpf4jnsgd1na2vs0mg"},{"bike_id":"227eaf79-f6e2-4625-83c9-24f13d6bc005","system_id":"levelo_inurba_marseille","lat":43.313291,"lon":5.396838,"is_reserved":false,"is_disabled":false,"rental_uris":{"android":"levelo://app?vid=227eaf79-f6e2-4625-83c9-24f13d6bc005","ios":"levelo://app?vid=227eaf79-f6e2-4625-83c9-24f13d6bc005"},"vehicle_type_id":"4","last_reported":1711408013,"current_range_meters":2400,"station_id":"ce4bgvp2rcd13ifvqcu0","pricing_plan_id":"cebpf4jnsgd1na2vs0mg"},{"bike_id":"cd7e911a-3a58-413f-aa4d-5b83c590814d","system_id":"levelo_inurba_marseille","lat":43.31326,"lon":5.39688,"is_reserved":false,"is_disabled":false,"rental_uris":{"android":"levelo://app?vid=cd7e911a-3a58-413f-aa4d-5b83c590814d","ios":"levelo://app?vid=cd7e911a-3a58-413f-aa4d-5b83c590814d"},"vehicle_type_id":"4","last_reported":1711408013,"current_range_meters":15600,"station_id":"ce4bgvp2rcd13ifvqcu0","pricing_plan_id":"cebpf4jnsgd1na2vs0mg"},{"bike_id":"59d0b7d5-c23f-49e8-ab38-f0f0916b81c4","system_id":"levelo_inurba_marseille","lat":43.313291,"lon":5.396838,"is_reserved":false,"is_disabled":false,"rental_uris":{"android":"levelo://app?vid=59d0b7d5-c23f-49e8-ab38-f0f0916b81c4","ios":"levelo://app?vid=59d0b7d5-c23f-49e8-ab38-f0f0916b81c4"},"vehicle_type_id":"4","last_reported":1711408013,"current_range_meters":31200,"station_id":"ce4bgvp2rcd13ifvqcu0","pricing_plan_id":"cebpf4jnsgd1na2vs0mg"},{"bike_id":"17c32c6a-fa0f-4637-a14c-bbf84debcc27","system_id":"levelo_inurba_marseille","lat":43.30886,"lon":5.39642,"is_reserved":false,"is_disabled":false,"rental_uris":{"android":"levelo://app?vid=17c32c6a-fa0f-4637-a14c-bbf84debcc27","ios":"levelo://app?vid=17c32c6a-fa0f-4637-a14c-bbf84debcc27"},"vehicle_type_id":"4","last_reported":1711408013,"current_range_meters":10400,"station_id":"ce4bh012rcd13ifvqcv0","pricing_plan_id":"cebpf4jnsgd1na2vs0mg"},{"bike_id":"72094b59-f8a2-46f3-ad5b-94160bcf0d8a","system_id":"levelo_inurba_marseille","lat":43.309047,"lon":5.396551,"is_reserved":false,"is_disabled":false,"rental_uris":{"android":"levelo://app?vid=72094b59-f8a2-46f3-ad5b-94160bcf0d8a","ios":"levelo://app?vid=72094b59-f8a2-46f3-ad5b-94160bcf0d8a"},"vehicle_type_id":"4","last_reported":1711408013,"current_range_meters":28000,"station_id":"ce4bh012rcd13ifvqcv0","pricing_plan_id":"cebpf4jnsgd1na2vs0mg"},{"bike_id":"5588236e-2a31-4326-ac16-134b3514197d","system_id":"levelo_inurba_marseille","lat":43.313291,"lon":5.396838,"is_reserved":false,"is_disabled":false,"rental_uris":{"android":"levelo://app?vid=5588236e-2a31-4326-ac16-134b3514197d","ios":"levelo://app?vid=5588236e-2a31-4326-ac16-134b3514197d"},"vehicle_type_id":"4","last_reported":1711408013,"current_range_meters":31200,"station_id":"ce4bgvp2rcd13ifvqcu0","pricing_plan_id":"cebpf4jnsgd1na2vs0mg"},{"bike_id":"48bc3d67-8f3a-40e6-bfc7-f8d53d6fed34","system_id":"levelo_inurba_marseille","lat":43.313291,"lon":5.396838,"is_reserved":false,"is_disabled":false,"rental_uris":{"android":"levelo://app?vid=48bc3d67-8f3a-40e6-bfc7-f8d53d6fed34","ios":"levelo://app?vid=48bc3d67-8f3a-40e6-bfc7-f8d53d6fed34"},"vehicle_type_id":"4","last_reported":1711408013,"current_range_meters":31200,"station_id":"ce4bgvp2rcd13ifvqcu0","pricing_plan_id":"cebpf4jnsgd1na2vs0mg"},{"bike_id":"fc59f493-8397-4450-9549-d13624eb7549","system_id":"levelo_inurba_marseille","lat":43.313291,"lon":5.396838,"is_reserved":false,"is_disabled":false,"rental_uris":{"android":"levelo://app?vid=fc59f493-8397-4450-9549-d13624eb7549","ios":"levelo://app?vid=fc59f493-8397-4450-9549-d13624eb7549"},"vehicle_type_id":"4","last_reported":1711408013,"current_range_meters":28800,"station_id":"ce4bgvp2rcd13ifvqcu0","pricing_plan_id":"cebpf4jnsgd1na2vs0mg"},{"bike_id":"057e2b3e-6f90-4562-adfe-60c04adec599","system_id":"levelo_inurba_marseille","lat":43.309038,"lon":5.396546,"is_reserved":false,"is_disabled":false,"rental_uris":{"android":"levelo://app?vid=057e2b3e-6f90-4562-adfe-60c04adec599","ios":"levelo://app?vid=057e2b3e-6f90-4562-adfe-60c04adec599"},"vehicle_type_id":"4","last_reported":1711408013,"current_range_meters":26400,"station_id":"ce4bh012rcd13ifvqcv0","pricing_plan_id":"cebpf4jnsgd1na2vs0mg"},{"bike_id":"e70cda4a-e470-4ac1-8d0e-28e2c31e9f0f","system_id":"levelo_inurba_marseille","lat":43.313291,"lon":5.396838,"is_reserved":false,"is_disabled":false,"rental_uris":{"android":"levelo://app?vid=e70cda4a-e470-4ac1-8d0e-28e2c31e9f0f","ios":"levelo://app?vid=e70cda4a-e470-4ac1-8d0e-28e2c31e9f0f"},"vehicle_type_id":"4","last_reported":1711408013,"current_range_meters":13600,"station_id":"ce4bgvp2rcd13ifvqcu0","pricing_plan_id":"cebpf4jnsgd1na2vs0mg"},{"bike_id":"ff4c9b3b-6c51-4ffb-89c1-cf85212e61c7","system_id":"levelo_inurba_marseille","lat":43.313291,"lon":5.396838,"is_reserved":false,"is_disabled":false,"rental_uris":{"android":"levelo://app?vid=ff4c9b3b-6c51-4ffb-89c1-cf85212e61c7","ios":"levelo://app?vid=ff4c9b3b-6c51-4ffb-89c1-cf85212e61c7"},"vehicle_type_id":"4","last_reported":1711408013,"current_range_meters":13600,"station_id":"ce4bgvp2rcd13ifvqcu0","pricing_plan_id":"cebpf4jnsgd1na2vs0mg"},{"bike_id":"1843859d-375b-4fc8-b383-55ccfa644642","system_id":"levelo_inurba_marseille","lat":43.313291,"lon":5.396838,"is_reserved":false,"is_disabled":false,"rental_uris":{"android":"levelo://app?vid=1843859d-375b-4fc8-b383-55ccfa644642","ios":"levelo://app?vid=1843859d-375b-4fc8-b383-55ccfa644642"},"vehicle_type_id":"4","last_reported":1711408013,"current_range_meters":10000,"station_id":"ce4bgvp2rcd13ifvqcu0","pricing_plan_id":"cebpf4jnsgd1na2vs0mg"},{"bike_id":"2de18028-9cdf-40f4-abb1-2eb75f653f93","system_id":"levelo_inurba_marseille","lat":43.291994,"lon":5.357886,"is_reserved":false,"is_disabled":false,"rental_uris":{"android":"levelo://app?vid=2de18028-9cdf-40f4-abb1-2eb75f653f93","ios":"levelo://app?vid=2de18028-9cdf-40f4-abb1-2eb75f653f93"},"vehicle_type_id":"4","last_reported":1711408013,"current_range_meters":20000,"station_id":"ce4bhb12rcd13ifvqel0","pricing_plan_id":"cebpf4jnsgd1na2vs0mg"},{"bike_id":"70772e2d-975c-485c-8c9c-fd41ec5fba07","system_id":"levelo_inurba_marseille","lat":43.30884,"lon":5.39648,"is_reserved":false,"is_disabled":false,"rental_uris":{"android":"levelo://app?vid=70772e2d-975c-485c-8c9c-fd41ec5fba07","ios":"levelo://app?vid=70772e2d-975c-485c-8c9c-fd41ec5fba07"},"vehicle_type_id":"4","last_reported":1711408013,"current_range_meters":22400,"station_id":"ce4bh012rcd13ifvqcv0","pricing_plan_id":"cebpf4jnsgd1na2vs0mg"},{"bike_id":"2cc60d4f-6b04-4b38-907a-9fe1564129fd","system_id":"levelo_inurba_marseille","lat":43.313291,"lon":5.396838,"is_reserved":false,"is_disabled":false,"rental_uris":{"android":"levelo://app?vid=2cc60d4f-6b04-4b38-907a-9fe1564129fd","ios":"levelo://app?vid=2cc60d4f-6b04-4b38-907a-9fe1564129fd"},"vehicle_type_id":"4","last_reported":1711408013,"current_range_meters":31600,"station_id":"ce4bgvp2rcd13ifvqcu0","pricing_plan_id":"cebpf4jnsgd1na2vs0mg"},