{"last_updated":1679843177,"ttl":30,"version":"2.2","data":{"bikes":[{"bike_id":"6c193b00-0b17-4b57-abe9-401cb91ac57d","system_id":"levelo_inurba_marseille","lat":43.31228,"lon":5.368597,"is_reserved":false,"is_disabled":false,"rental_uris":{"android":"levelo://app?vid=6c193b00-0b17-4b57-abe9-401cb91ac57d","ios":"levelo://app?vid=6c193b00-0b17-4b57-abe9-401cb91ac57d"},"vehicle_type_id":"4","last_reported":1679843178,"current_range_meters":14800,"station_id":"ce4bgl92rcd13ifvqbq0","pricing_plan_id":"free"},{"bike_id":"7d36d4de-c5f8-436b-872e-14ef6c80075b","system_id":"levelo_inurba_marseille","lat":43.312383,"lon":5.368837,"is_reserved":false,"is_disabled":false,"rental_uris":{"android":"levelo://app?vid=7d36d4de-c5f8-436b-872e-14ef6c80075b","ios":"levelo://app?vid=7d36d4de-c5f8-436b-872e-14ef6c80075b"},"vehicle_type_id":"4","last_reported":1679843178,"current_range_meters":31600,"station_id":"","pricing_plan_id":"free"},{"bike_id":"9befefe8-06e2-4761-a05e-070783f95147","system_id":"levelo_inurba_marseille","lat":43.3054,"lon":5.3673,"is_reserved":false,"is_disabled":false,"rental_uris":{"android":"levelo://app?vid=9befefe8-06e2-4761-a05e-070783f95147","ios":"levelo://app?vid=9befefe8-06e2-4761-a05e-070783f95147"},"vehicle_type_id":"4","last_reported":1679843178,"current_range_meters":26000,"station_id":"ce4bgrp2rcd13ifvqc9g","pricing_plan_id":"free"},{"bike_id":"744f5f37-51db-45e6-8604-dc54067cb18f","system_id":"levelo_inurba_marseille","lat":43.305989,"lon":5.37225,"is_reserved":false,"is_disabled":false,"rental_uris":{"android":"levelo://app?vid=744f5f37-51db-45e6-8604-dc54067cb18f","ios":"levelo://app?vid=744f5f37-51db-45e6-8604-dc54067cb18f"},"vehicle_type_id":"4","last_reported":1679843178,"current_range_meters":0,"station_id":"ce4bgqh2rcd13ifvqc4g","pricing_plan_id":"free"},{"bike_id":"f72efb31-01ba-42e8-b2a2-75252bcb478b","system_id":"levelo_inurba_marseille","lat":43.308012,"lon":5.381511,"is_reserved":false,"is_disabled":false,"rental_uris":{"android":"levelo://app?vid=f72efb31-01ba-42e8-b2a2-75252bcb478b","ios":"levelo://app?vid=f72efb31-01ba-42e8-b2a2-75252bcb478b"},"vehicle_type_id":"4","last_reported":1679843178,"current_range_meters":0,"station_id":"ce4bgt12rcd13ifvqce0","pricing_plan_id":"free"},{"bike_id":"285866e6-cf20-4b59-a8b8-c04596fa75cc","system_id":"levelo_inurba_marseille","lat":43.313647,"lon":5.383643,"is_reserved":false,"is_disabled":false,"rental_uris":{"android":"levelo://app?vid=285866e6-cf20-4b59-a8b8-c04596fa75cc","ios":"levelo://app?vid=285866e6-cf20-4b59-a8b8-c04596fa75cc"},"vehicle_type_id":"4","last_reported":1679843178,"current_range_meters":29600,"station_id":"","pricing_plan_id":"free"},{"bike_id":"c38553d1-0e45-492c-8146-0ea3898d0f32","system_id":"levelo_inurba_marseille","lat":43.3071,"lon":5.382587,"is_reserved":false,"is_disabled":false,"rental_uris":{"android":"levelo://app?vid=c38553d1-0e45-492c-8146-0ea3898d0f32","ios":"levelo://app?vid=c38553d1-0e45-492c-8146-0ea3898d0f32"},"vehicle_type_id":"4","last_reported":1679843178,"current_range_meters":24000,"station_id":"","pricing_plan_id":"free"},{"bike_id":"672b397b-e43d-4f46-8e4f-5f6b992130a4","system_id":"levelo_inurba_marseille","lat":43.313571,"lon":5.384829,"is_reserved":false,"is_disabled":false,"rental_uris":{"android":"levelo://app?vid=672b397b-e43d-4f46-8e4f-5f6b992130a4","ios":"levelo://app?vid=672b397b-e43d-4f46-8e4f-5f6b992130a4"},"vehicle_type_id":"4","last_reported":1679843178,"current_range_meters":800,"station_id":"ce4bgt92rcd13ifvqcf0","pricing_plan_id":"free"},{"bike_id":"41909cc2-88a2-4663-b6f6-b461cfc9f5b7","system_id":"levelo_inurba_marseille","lat":43.299094,"lon":5.365415,"is_reserved":false,"is_disabled":false,"rental_uris":{"android":"levelo://app?vid=41909cc2-88a2-4663-b6f6-b461cfc9f5b7","ios":"levelo://app?vid=41909cc2-88a2-4663-b6f6-b461cfc9f5b7"},"vehicle_type_id":"4","last_reported":1679843178,"current_range_meters":2800,"station_id":"ce4bgm92rcd13ifvqbr0","pricing_plan_id":"free"},{"bike_id":"1e209595-3880-4bf4-bf23-1ea8abebbdac","system_id":"levelo_inurba_marseille","lat":43.30162,"lon":5.3798,"is_reserved":false,"is_disabled":false,"rental_uris":{"android":"levelo://app?vid=1e209595-3880-4bf4-bf23-1ea8abebbdac","ios":"levelo://app?vid=1e209595-3880-4bf4-bf23-1ea8abebbdac"},"vehicle_type_id":"4","last_reported":1679843178,"current_range_meters":800,"station_id":"","pricing_plan_id":"free"},{"bike_id":"9599ff4f-5ddc-4188-8feb-8c8ff18128c2","system_id":"levelo_inurba_marseille","lat":43.298433,"lon":5.362774,"is_reserved":false,"is_disabled":false,"rental_uris":{"android":"levelo://app?vid=9599ff4f-5ddc-4188-8feb-8c8ff18128c2","ios":"levelo://app?vid=9599ff4f-5ddc-4188-8feb-8c8ff18128c2"},"vehicle_type_id":"4","last_reported":1679843178,"current_range_meters":3600,"station_id":"ce4bgpp2rcd13ifvqc3g","pricing_plan_id":"free"},{"bike_id":"c526b71a-265f-41e9-ad72-d9bd28874041","system_id":"levelo_inurba_marseille","lat":43.298433,"lon":5.362774,"is_reserved":false,"is_disabled":false,"rental_uris":{"android":"levelo://app?vid=c526b71a-265f-41e9-ad72-d9bd28874041","ios":"levelo://app?vid=c526b71a-265f-41e9-ad72-d9bd28874041"},"vehicle_type_id":"4","last_reported":1679843178,"current_range_meters":0,"station_id":"ce4bgpp2rcd13ifvqc3g","pricing_plan_id":"free"},{"bike_id":"5a151c2f-9637-45a8-9d6f-ea7638fca1d4","system_id":"levelo_inurba_marseille","lat":43.32824,"lon":5.36683,"is_reserved":false,"is_disabled":false,"rental_uris":{"android":"levelo://app?vid=5a151c2f-9637-45a8-9d6f-ea7638fca1d4","ios":"levelo://app?vid=5a151c2f-9637-45a8-9d6f-ea7638fca1d4"},"vehicle_type_id":"4","last_reported":1679843178,"current_range_meters":3200,"station_id":"","pricing_plan_id":"free"},{"bike_id":"34390115-7e09-4378-8b17-d803abd1038e","system_id":"levelo_inurba_marseille","lat":43.328371,"lon":5.366909,"is_reserved":false,"is_disabled":false,"rental_uris":{"android":"levelo://app?vid=34390115-7e09-4378-8b17-d803abd1038e","ios":"levelo://app?vid=34390115-7e09-4378-8b17-d803abd1038e"},"vehicle_type_id":"4","last_reported":1679843178,"current_range_meters":13200,"station_id":"ce4bhs92rcd13ifvqi0g","pricing_plan_id":"free"},{"bike_id":"b4cbe441-1004-48a2-8da6-c268b384b776","system_id":"levelo_inurba_marseille","lat":43.296837,"lon":5.369263,"is_reserved":false,"is_disabled":false,"rental_uris":{"android":"levelo://app?vid=b4cbe441-1004-48a2-8da6-c268b384b776","ios":"levelo://app?vid=b4cbe441-1004-48a2-8da6-c268b384b776"},"vehicle_type_id":"4","last_reported":1679843178,"current_range_meters":27600,"station_id":"","pricing_plan_id":"free"},{"bike_id":"808b64d6-d9df-4639-87c7-b74ee9d9a618","system_id":"levelo_inurba_marseille","lat":43.29573,"lon":5.367355,"is_reserved":false,"is_disabled":false,"rental_uris":{"android":"levelo://app?vid=808b64d6-d9df-4639-87c7-b74ee9d9a618","ios":"levelo://app?vid=808b64d6-d9df-4639-87c7-b74ee9d9a618"},"vehicle_type_id":"4","last_reported":1679843178,"current_range_meters":29600,"station_id":"ce4bgph2rcd13ifvqc2g","pricing_plan_id":"free"},{"bike_id":"95bd9c85-f68c-4377-8e59-addc4fe4e534","system_id":"levelo_inurba_marseille","lat":43.29573,"lon":5.367355,"is_reserved":false,"is_disabled":false,"rental_uris":{"android":"levelo://app?vid=95bd9c85-f68c-4377-8e59-addc4fe4e534","ios":"levelo://app?vid=95bd9c85-f68c-4377-8e59-addc4fe4e534"},"vehicle_type_id":"4","last_reported":1679843178,"current_range_meters":28400,"station_id":"ce4bgph2rcd13ifvqc2g","pricing_plan_id":"free"},{"bike_id":"c3a9d105-d71b-4cec-9782-e731576521bc","system_id":"levelo_inurba_marseille","lat":43.29573,"lon":5.367355,"is_reserved":false,"is_disabled":false,"rental_uris":{"android":"levelo://app?vid=c3a9d105-d71b-4cec-9782-e731576521bc","ios":"levelo://app?vid=c3a9d105-d71b-4cec-9782-e731576521bc"},"vehicle_type_id":"4","last_reported":1679843178,"current_range_meters":23600,"station_id":"ce4bgph2rcd13ifvqc2g","pricing_plan_id":"free"},{"bike_id":"c7b20848-cc29-423e-9d6b-adf822741f72","system_id":"levelo_inurba_marseille","lat":43.32644,"lon":5.381629,"is_reserved":false,"is_disabled":false,"rental_uris":{"android":"levelo://app?vid=c7b20848-cc29-423e-9d6b-adf822741f72","ios":"levelo://app?vid=c7b20848-cc29-423e-9d6b-adf822741f72"},"vehicle_type_id":"4","last_reported":1679843178,"current_range_meters":26800,"station_id":"","pricing_plan_id":"free"},{"bike_id":"7fb960e3-8d9e-4c2a-8a52-85d1e56d48ed","system_id":"levelo_inurba_marseille","lat":43.31755,"lon":5.39018,"is_reserved":false,"is_disabled":false,"rental_uris":{"android":"levelo://app?vid=7fb960e3-8d9e-4c2a-8a52-85d1e56d48ed","ios":"levelo://app?vid=7fb960e3-8d9e-4c2a-8a52-85d1e56d48ed"},"vehicle_type_id":"4","last_reported":1679843178,"current_range_meters":14000,"station_id":"","pricing_plan_id":"free"},{"bike_id":"a72bc1c6-b661-4e91-a528-fb29cc3abc6d","system_id":"levelo_inurba_marseille","lat":43.29574,"lon":5.37509,"is_reserved":false,"is_disabled":false,"rental_uris":{"android":"levelo://app?vid=a72bc1c6-b661-4e91-a528-fb29cc3abc6d","ios":"levelo://app?vid=a72bc1c6-b661-4e91-a528-fb29cc3abc6d"},"vehicle_type_id":"4","last_reported":1679843178,"current_range_meters":0,"station_id":"ce4bgh92rcd13ifvqb50","pricing_plan_id":"free"},{"bike_id":"53c4aa67-9499-4af2-8a24-fd4bc1595b51","system_id":"levelo_inurba_marseille","lat":43.297919,"lon":5.381748,"is_reserved":false,"is_disabled":false,"rental_uris":{"android":"levelo://app?vid=53c4aa67-9499-4af2-8a24-fd4bc1595b51","ios":"levelo://app?vid=53c4aa67-9499-4af2-8a24-fd4bc1595b51"},"vehicle_type_id":"4","last_reported":1679843178,"current_range_meters":0,"station_id":"","pricing_plan_id":"free"},{"bike_id":"12383a66-8930-4964-a267-3c760a8b5289","system_id":"levelo_inurba_marseille","lat":43.2996,"lon":5.38509,"is_reserved":false,"is_disabled":false,"rental_uris":{"android":"levelo://app?vid=12383a66-8930-4964-a267-3c760a8b5289","ios":"levelo://app?vid=12383a66-8930-4964-a267-3c760a8b5289"},"vehicle_type_id":"4","last_reported":1679843178,"current_range_meters":26800,"station_id":"","pricing_plan_id":"free"},{"bike_id":"6b6d9635-8c00-47be-81cd-10c0bdd4f8c2","system_id":"levelo_inurba_marseille","lat":43.32365,"lon":5.38882,"is_reserved":false,"is_disabled":false,"rental_uris":{"android":"levelo://app?vid=6b6d9635-8c00-47be-81cd-10c0bdd4f8c2","ios":"levelo://app?vid=6b6d9635-8c00-47be-81cd-10c0bdd4f8c2"},"vehicle_type_id":"4","last_reported":1679843178,"current_range_meters":1600,"station_id":"","pricing_plan_id":"free"},{"bike_id":"c66aae48-8a6e-4f57-be43-8013407fc56a","system_id":"levelo_inurba_marseille","lat":43.32367,"lon":5.388836,"is_reserved":false,"is_disabled":false,"rental_uris":{"android":"levelo://app?vid=c66aae48-8a6e-4f57-be43-8013407fc56a","ios":"levelo://app?vid=c66aae48-8a6e-4f57-be43-8013407fc56a"},"vehicle_type_id":"4","last_reported":1679843178,"current_range_meters":27200,"station_id":"ce4bhqp2rcd13ifvqhog","pricing_plan_id":"free"},{"bike_id":"5c2ce65c-57e5-472e-bb6b-7a96b52614ad","system_id":"levelo_inurba_marseille","lat":43.293249,"lon":5.371578,"is_reserved":false,"is_disabled":false,"rental_uris":{"android":"levelo://app?vid=5c2ce65c-57e5-472e-bb6b-7a96b52614ad","ios":"levelo://app?vid=5c2ce65c-57e5-472e-bb6b-7a96b52614ad"},"vehicle_type_id":"4","last_reported":1679843178,"current_range_meters":29600,"station_id":"ce4bgh92rcd13ifvqb40","pricing_plan_id":"free"},{"bike_id":"6c303c9c-7e97-4bd5-b8f2-38d6b6b39460","system_id":"levelo_inurba_marseille","lat":43.293362,"lon":5.359514,"is_reserved":false,"is_disabled":false,"rental_uris":{"android":"levelo://app?vid=6c303c9c-7e97-4bd5-b8f2-38d6b6b39460","ios":"levelo://app?vid=6c303c9c-7e97-4bd5-b8f2-38d6b6b39460"},"vehicle_type_id":"4","last_reported":1679843178,"current_range_meters":0,"station_id":"","pricing_plan_id":"free"},{"bike_id":"a3759d1d-93c8-4fda-bf89-7da7fcd350bb","system_id":"levelo_inurba_marseille","lat":43.305994,"lon":5.393687,"is_reserved":false,"is_disabled":false,"rental_uris":{"android":"levelo://app?vid=a3759d1d-93c8-4fda-bf89-7da7fcd350bb","ios":"levelo://app?vid=a3759d1d-93c8-4fda-bf89-7da7fcd350bb"},"vehicle_type_id":"4","last_reported":1679843178,"current_range_meters":4400,"station_id":"ce4bh0p2rcd13ifvqd80","pricing_plan_id":"free"},{"bike_id":"eef46d5c-5c9a-459b-8a15-14b2e3d6e426","system_id":"levelo_inurba_marseille","lat":43.292311,"lon":5.360731,"is_reserved":false,"is_disabled":false,"rental_uris":{"android":"levelo://app?vid=eef46d5c-5c9a-459b-8a15-14b2e3d6e426","ios":"levelo://app?vid=eef46d5c-5c9a-459b-8a15-14b2e3d6e426"},"vehicle_type_id":"4","last_reported":1679843178,"current_range_meters":2400,"station_id":"ce4bhbh2rcd13ifvqeqg","pricing_plan_id":"free"},{"bike_id":"0740520a-99aa-44a9-a15e-a75db2bc8cc7","system_id":"levelo_inurba_marseille","lat":43.292295,"lon":5.360692,"is_reserved":false,"is_disabled":false,"rental_uris":{"android":"levelo://app?vid=0740520a-99aa-44a9-a15e-a75db2bc8cc7","ios":"levelo://app?vid=0740520a-99aa-44a9-a15e-a75db2bc8cc7"},"vehicle_type_id":"4","last_reported":1679843178,"current_range_meters":8800,"station_id":"","pricing_plan_id":"free"},{"bike_id":"920651bc-6cc3-4e9c-9026-ddb9e20a0fd6","system_id":"levelo_inurba_marseille","lat":43.291671,"lon":5.371575,"is_reserved":false,"is_disabled":false,"rental_uris":{"android":"levelo://app?vid=920651bc-6cc3-4e9c-9026-ddb9e20a0fd6","ios":"levelo://app?vid=920651bc-6cc3-4e9c-9026-ddb9e20a0fd6"},"vehicle_type_id":"4","last_reported":1679843178,"current_range_meters":0,"station_id":"ce4bha92rcd13ifvqeh0","pricing_plan_id":"free"},{"bike_id":"5cbdd7a0-eb5f-4665-a7f7-e9313c6b3cdb","system_id":"levelo_inurba_marseille","lat":43.29863,"lon":5.38913,"is_reserved":false,"is_disabled":false,"rental_uris":{"android":"levelo://app?vid=5cbdd7a0-eb5f-4665-a7f7-e9313c6b3cdb","ios":"levelo://app?vid=5cbdd7a0-eb5f-4665-a7f7-e9313c6b3cdb"},"vehicle_type_id":"4","last_reported":1679843178,"current_range_meters":12000,"station_id":"ce4bh392rcd13ifvqdl0","pricing_plan_id":"free"},{"bike_id":"7d315237-3a3a-4f27-8ea8-cc9eed310b55","system_id":"levelo_inurba_marseille","lat":43.289468,"lon":5.363719,"is_reserved":false,"is_disabled":false,"rental_uris":{"android":"levelo://app?vid=7d315237-3a3a-4f27-8ea8-cc9eed310b55","ios":"levelo://app?vid=7d315237-3a3a-4f27-8ea8-cc9eed310b55"},"vehicle_type_id":"4","last_reported":1679843178,"current_range_meters":1200,"station_id":"ce4bhc92rcd13ifvqetg","pricing_plan_id":"free"},{"bike_id":"52e28d2b-4aba-4840-b49a-81be7f02dea3","system_id":"levelo_inurba_marseille","lat":43.29049,"lon":5.35579,"is_reserved":false,"is_disabled":false,"rental_uris":{"android":"levelo://app?vid=52e28d2b-4aba-4840-b49a-81be7f02dea3","ios":"levelo://app?vid=52e28d2b-4aba-4840-b49a-81be7f02dea3"},"vehicle_type_id":"4","last_reported":1679843178,"current_range_meters":0,"station_id":"","pricing_plan_id":"free"},{"bike_id":"7f9b4305-d94c-4eb5-be17-91f845d5c841","system_id":"levelo_inurba_marseille","lat":43.292748,"lon":5.384367,"is_reserved":false,"is_disabled":false,"rental_uris":{"android":"levelo://app?vid=7f9b4305-d94c-4eb5-be17-91f845d5c841","ios":"levelo://app?vid=7f9b4305-d94c-4eb5-be17-91f845d5c841"},"vehicle_type_id":"4","last_reported":1679843178,"current_range_meters":5600,"station_id":"ce4bh692rcd13ifvqea0","pricing_plan_id":"free"},{"bike_id":"8bcb8be6-f107-4a02-8a85-91c21208f164","system_id":"levelo_inurba_marseille","lat":43.304266,"lon":5.397415,"is_reserved":false,"is_disabled":false,"rental_uris":{"android":"levelo://app?vid=8bcb8be6-f107-4a02-8a85-91c21208f164","ios":"levelo://app?vid=8bcb8be6-f107-4a02-8a85-91c21208f164"},"vehicle_type_id":"4","last_reported":1679843178,"current_range_meters":2000,"station_id":"ce4bh092rcd13ifvqd20","pricing_plan_id":"free"},{"bike_id":"acbbcb90-fc17-441e-ac54-4f17a95cb3db","system_id":"levelo_inurba_marseille","lat":43.33044,"lon":5.38916,"is_reserved":false,"is_disabled":false,"rental_uris":{"android":"levelo://app?vid=acbbcb90-fc17-441e-ac54-4f17a95cb3db","ios":"levelo://app?vid=acbbcb90-fc17-441e-ac54-4f17a95cb3db"},"vehicle_type_id":"4","last_reported":1679843178,"current_range_meters":15600,"station_id":"","pricing_plan_id":"free"},{"bike_id":"42d0ff29-9c31-42a3-8223-234ea194f6ee","system_id":"levelo_inurba_marseille","lat":43.330442,"lon":5.389148,"is_reserved":false,"is_disabled":false,"rental_uris":{"android":"levelo://app?vid=42d0ff29-9c31-42a3-8223-234ea194f6ee","ios":"levelo://app?vid=42d0ff29-9c31-42a3-8223-234ea194f6ee"},"vehicle_type_id":"4","last_reported":1679843178,"current_range_meters":0,"station_id":"ce4bhr92rcd13ifvqhrg","pricing_plan_id":"free"},{"bike_id":"343ecdfd-727e-44cf-bda8-697cb76c6b14","system_id":"levelo_inurba_marseille","lat":43.330442,"lon":5.389148,"is_reserved":false,"is_disabled":false,"rental_uris":{"android":"levelo://app?vid=343ecdfd-727e-44cf-bda8-697cb76c6b14","ios":"levelo://app?vid=343ecdfd-727e-44cf-bda8-697cb76c6b14"},"vehicle_type_id":"4","last_reported":1679843178,"current_range_meters":6000,"station_id":"ce4bhr92rcd13ifvqhrg","pricing_plan_id":"free"},{"bike_id":"a477cee3-1d9a-42fd-b650-7f62c632124b","system_id":"levelo_inurba_marseille","lat":43.33036,"lon":5.39012,"is_reserved":false,"is_disabled":false,"rental_uris":{"android":"levelo://app?vid=a477cee3-1d9a-42fd-b650-7f62c632124b","ios":"levelo://app?vid=a477cee3-1d9a-42fd-b650-7f62c632124b"},"vehicle_type_id":"4","last_reported":1679843178,"current_range_meters":10800,"station_id":"","pricing_plan_id":"free"},{"bike_id":"560e72d7-b28d-4e2d-843d-9242e4d3e16e","system_id":"levelo_inurba_marseille","lat":43.32367,"lon":5.388836,"is_reserved":false,"is_disabled":false,"rental_uris":{"android":"levelo://app?vid=560e72d7-b28d-4e2d-843d-9242e4d3e16e","ios":"levelo://app?vid=560e72d7-b28d-4e2d-843d-9242e4d3e16e"},"vehicle_type_id":"4","last_reported":1679843178,"current_range_meters":3200,"station_id":"ce4bhqp2rcd13ifvqhog","pricing_plan_id":"free"},{"bike_id":"8c91c383-95cf-48de-afa7-9bf3201db661","system_id":"levelo_inurba_marseille","lat":43.28856,"lon":5.358371,"is_reserved":false,"is_disabled":false,"rental_uris":{"android":"levelo://app?vid=8c91c383-95cf-48de-afa7-9bf3201db661","ios":"levelo://app?vid=8c91c383-95cf-48de-afa7-9bf3201db661"},"vehicle_type_id":"4","last_reported":1679843178,"current_range_meters":3200,"station_id":"ce4bhb12rcd13ifvqem0","pricing_plan_id":"free"},{"bike_id":"f31aaa75-2c67-40c6-a7d0-c028dcfffb2b","system_id":"levelo_inurba_marseille","lat":43.290995,"lon":5.381361,"is_reserved":false,"is_disabled":false,"rental_uris":{"android":"levelo://app?vid=f31aaa75-2c67-40c6-a7d0-c028dcfffb2b","ios":"levelo://app?vid=f31aaa75-2c67-40c6-a7d0-c028dcfffb2b"},"vehicle_type_id":"4","last_reported":1679843178,"current_range_meters":0,"station_id":"ce4bh512rcd13ifvqe2g","pricing_plan_id":"free"},{"bike_id":"8f0cb511-9cda-4d20-855f-9583607560a2","system_id":"levelo_inurba_marseille","lat":43.290995,"lon":5.381361,"is_reserved":false,"is_disabled":false,"rental_uris":{"android":"levelo://app?vid=8f0cb511-9cda-4d20-855f-9583607560a2","ios":"levelo://app?vid=8f0cb511-9cda-4d20-855f-9583607560a2"},"vehicle_type_id":"4","last_reported":1679843178,"current_range_meters":7600,"station_id":"ce4bh512rcd13ifvqe2g","pricing_plan_id":"free"},{"bike_id":"5dbe79cc-8fb2-4919-b431-be73ab496c56","system_id":"levelo_inurba_marseille","lat":43.337479,"lon":5.374673,"is_reserved":false,"is_disabled":false,"rental_uris":{"android":"levelo://app?vid=5dbe79cc-8fb2-4919-b431-be73ab496c56","ios":"levelo://app?vid=5dbe79cc-8fb2-4919-b431-be73ab496c56"},"vehicle_type_id":"4","last_reported":1679843178,"current_range_meters":27200,"station_id":"","pricing_plan_id":"free"},{"bike_id":"4c2656ee-3566-44c4-9a3a-7d26d81b17fa","system_id":"levelo_inurba_marseille","lat":43.28668,"lon":5.36361,"is_reserved":false,"is_disabled":false,"rental_uris":{"android":"levelo://app?vid=4c2656ee-3566-44c4-9a3a-7d26d81b17fa","ios":"levelo://app?vid=4c2656ee-3566-44c4-9a3a-7d26d81b17fa"},"vehicle_type_id":"4","last_reported":1679843178,"current_range_meters":17200,"station_id":"","pricing_plan_id":"free"},{"bike_id":"c339d39c-ba9d-4064-94ae-9d45fb82407b","system_id":"levelo_inurba_marseille","lat":43.286591,"lon":5.363346,"is_reserved":false,"is_disabled":false,"rental_uris":{"android":"levelo://app?vid=c339d39c-ba9d-4064-94ae-9d45fb82407b","ios":"levelo://app?vid=c339d39c-ba9d-4064-94ae-9d45fb82407b"},"vehicle_type_id":"4","last_reported":1679843178,"current_range_meters":400,"station_id":"ce4bhah2rcd13ifvqej0","pricing_plan_id":"free"},{"bike_id":"7a779be8-98e1-47f3-a190-d79f61afa700","system_id":"levelo_inurba_marseille","lat":43.302759,"lon":5.400793,"is_reserved":false,"is_disabled":false,"rental_uris":{"android":"levelo://app?vid=7a779be8-98e1-47f3-a190-d79f61afa700","ios":"levelo://app?vid=7a779be8-98e1-47f3-a190-d79f61afa700"},"vehicle_type_id":"4","last_reported":1679843178,"current_range_meters":10000,"station_id":"ce4bgvh2rcd13ifvqcs0","pricing_plan_id":"free"},{"bike_id":"d3161b84-3467-4551-8851-c4fbfd72b38a","system_id":"levelo_inurba_marseille","lat":43.288592,"lon":5.382336,"is_reserved":false,"is_disabled":false,"rental_uris":{"android":"levelo://app?vid=d3161b84-3467-4551-8851-c4fbfd72b38a","ios":"levelo://app?vid=d3161b84-3467-4551-8851-c4fbfd72b38a"},"vehicle_type_id":"4","last_reported":1679843178,"current_range_meters":14000,"station_id":"","pricing_plan_id":"free"},{"bike_id":"32701a54-2b87-4ab1-a7c8-0a1ab3e294fc","system_id":"levelo_inurba_marseille","lat":43.290277,"lon":5.386577,"is_reserved":false,"is_disabled":false,"rental_uris":{"android":"levelo://app?vid=32701a54-2b87-4ab1-a7c8-0a1ab3e294fc","ios":"levelo://app?vid=32701a54-2b87-4ab1-a7c8-0a1ab3e294fc"},"vehicle_type_id":"4","last_reported":1679843178,"current_range_meters":0,"station_id":"ce4bh512rcd13ifvqe3g","pricing_plan_id":"free"},{"bike_id":"1d191d97-77b6-405a-b9c2-5f5dd1945ecd","system_id":"levelo_inurba_marseille","lat":43.326546,"lon":5.398452,"is_reserved":false,"is_disabled":false,"rental_uris":{"android":"levelo://app?vid=1d191d97-77b6-405a-b9c2-5f5dd1945ecd","ios":"levelo://app?vid=1d191d97-77b6-405a-b9c2-5f5dd1945ecd"},"vehicle_type_id":"4","last_reported":1679843178,"current_range_meters":6000,"station_id":"","pricing_plan_id":"free"},{"bike_id":"d63845d0-9294-45f3-a096-475bdf126983","system_id":"levelo_inurba_marseille","lat":43.286039,"lon":5.370679,"is_reserved":false,"is_disabled":false,"rental_uris":{"android":"levelo://app?vid=d63845d0-9294-45f3-a096-475bdf126983","ios":"levelo://app?vid=d63845d0-9294-45f3-a096-475bdf126983"},"vehicle_type_id":"4","last_reported":1679843178,"current_range_meters":8800,"station_id":"ce4bht12rcd13ifvqi60","pricing_plan_id":"free"},{"bike_id":"e7820790-46f5-478c-9b51-eaee0157722c","system_id":"levelo_inurba_marseille","lat":43.287117,"lon":5.379408,"is_reserved":false,"is_disabled":false,"rental_uris":{"android":"levelo://app?vid=e7820790-46f5-478c-9b51-eaee0157722c","ios":"levelo://app?vid=e7820790-46f5-478c-9b51-eaee0157722c"},"vehicle_type_id":"4","last_reported":1679843178,"current_range_meters":0,"station_id":"","pricing_plan_id":"free"},{"bike_id":"a6a41833-5cbc-4165-a08b-90d39c5b0da1","system_id":"levelo_inurba_marseille","lat":43.30032,"lon":5.40104,"is_reserved":false,"is_disabled":false,"rental_uris":{"android":"levelo://app?vid=a6a41833-5cbc-4165-a08b-90d39c5b0da1","ios":"levelo://app?vid=a6a41833-5cbc-4165-a08b-90d39c5b0da1"},"vehicle_type_id":"4","last_reported":1679843178,"current_range_meters":0,"station_id":"","pricing_plan_id":"free"},{"bike_id":"935f429f-ae79-4a20-a4c4-bca611df2b9d","system_id":"levelo_inurba_marseille","lat":43.284538,"lon":5.358657,"is_reserved":false,"is_disabled":false,"rental_uris":{"android":"levelo://app?vid=935f429f-ae79-4a20-a4c4-bca611df2b9d","ios":"levelo://app?vid=935f429f-ae79-4a20-a4c4-bca611df2b9d"},"vehicle_type_id":"4","last_reported":1679843178,"current_range_meters":24000,"station_id":"ce4bhah2rcd13ifvqei0","pricing_plan_id":"free"},{"bike_id":"15aea65b-d049-4d93-862f-13e807b32998","system_id":"levelo_inurba_marseille","lat":43.286595,"lon":5.386795,"is_reserved":false,"is_disabled":false,"rental_uris":{"android":"levelo://app?vid=15aea65b-d049-4d93-862f-13e807b32998","ios":"levelo://app?vid=15aea65b-d049-4d93-862f-13e807b32998"},"vehicle_type_id":"4","last_reported":1679843178,"current_range_meters":2400,"station_id":"ce4bh492rcd13ifvqdug","pricing_plan_id":"free"},{"bike_id":"aacb67f2-47b3-4454-b4eb-54c9fb94ee12","system_id":"levelo_inurba_marseille","lat":43.3339,"lon":5.39632,"is_reserved":false,"is_disabled":false,"rental_uris":{"android":"levelo://app?vid=aacb67f2-47b3-4454-b4eb-54c9fb94ee12","ios":"levelo://app?vid=aacb67f2-47b3-4454-b4eb-54c9fb94ee12"},"vehicle_type_id":"4","last_reported":1679843178,"current_range_meters":6400,"station_id":"","pricing_plan_id":"free"},{"bike_id":"485f2ffb-d40b-42ff-a070-de1e5a0e65bc","system_id":"levelo_inurba_marseille","lat":43.288497,"lon":5.393089,"is_reserved":false,"is_disabled":false,"rental_uris":{"android":"levelo://app?vid=485f2ffb-d40b-42ff-a070-de1e5a0e65bc","ios":"levelo://app?vid=485f2ffb-d40b-42ff-a070-de1e5a0e65bc"},"vehicle_type_id":"4","last_reported":1679843178,"current_range_meters":21600,"station_id":"ce4bh2p2rcd13ifvqdi0","pricing_plan_id":"free"},{"bike_id":"1ff2eae5-6bf6-4380-ba60-b61699731b02","system_id":"levelo_inurba_marseille","lat":43.28839,"lon":5.39309,"is_reserved":false,"is_disabled":false,"rental_uris":{"android":"levelo://app?vid=1ff2eae5-6bf6-4380-ba60-b61699731b02","ios":"levelo://app?vid=1ff2eae5-6bf6-4380-ba60-b61699731b02"},"vehicle_type_id":"4","last_reported":1679843178,"current_range_meters":24000,"station_id":"ce4bh2p2rcd13ifvqdi0","pricing_plan_id":"free"},{"bike_id":"f15230ed-a790-4c3d-8019-9d9fe866070d","system_id":"levelo_inurba_marseille","lat":43.281044,"lon":5.378308,"is_reserved":false,"is_disabled":false,"rental_uris":{"android":"levelo://app?vid=f15230ed-a790-4c3d-8019-9d9fe866070d","ios":"levelo://app?vid=f15230ed-a790-4c3d-8019-9d9fe866070d"},"vehicle_type_id":"4","last_reported":1679843178,"current_range_meters":4400,"station_id":"ce4bha12rcd13ifvqee0","pricing_plan_id":"free"},{"bike_id":"4792ee1c-e14b-423c-a536-f0a2de1064d4","system_id":"levelo_inurba_marseille","lat":43.281044,"lon":5.378308,"is_reserved":false,"is_disabled":false,"rental_uris":{"android":"levelo://app?vid=4792ee1c-e14b-423c-a536-f0a2de1064d4","ios":"levelo://app?vid=4792ee1c-e14b-423c-a536-f0a2de1064d4"},"vehicle_type_id":"4","last_reported":1679843178,"current_range_meters":16400,"station_id":"ce4bha12rcd13ifvqee0","pricing_plan_id":"free"},{"bike_id":"7c62e4b2-a3f0-47d9-b91c-eda13ff602a3","system_id":"levelo_inurba_marseille","lat":43.28442,"lon":5.39187,"is_reserved":false,"is_disabled":false,"rental_uris":{"android":"levelo://app?vid=7c62e4b2-a3f0-47d9-b91c-eda13ff602a3","ios":"levelo://app?vid=7c62e4b2-a3f0-47d9-b91c-eda13ff602a3"},"vehicle_type_id":"4","last_reported":1679843178,"current_range_meters":0,"station_id":"","pricing_plan_id":"free"},{"bike_id":"029b45ec-3871-4af2-9545-9cb48de5940b","system_id":"levelo_inurba_marseille","lat":43.29155,"lon":5.4037,"is_reserved":false,"is_disabled":false,"rental_uris":{"android":"levelo://app?vid=029b45ec-3871-4af2-9545-9cb48de5940b","ios":"levelo://app?vid=029b45ec-3871-4af2-9545-9cb48de5940b"},"vehicle_type_id":"4","last_reported":1679843178,"current_range_meters":0,"station_id":"","pricing_plan_id":"free"},{"bike_id":"f66ba3ed-39d7-4eb2-bcd2-bb028e073a61","system_id":"levelo_inurba_marseille","lat":43.29263,"lon":5.408077,"is_reserved":false,"is_disabled":false,"rental_uris":{"android":"levelo://app?vid=f66ba3ed-39d7-4eb2-bcd2-bb028e073a61","ios":"levelo://app?vid=f66ba3ed-39d7-4eb2-bcd2-bb028e073a61"},"vehicle_type_id":"4","last_reported":1679843178,"current_range_meters":8400,"station_id":"","pricing_plan_id":"free"},{"bike_id":"830d6cfb-1969-4ee0-94e2-7ddb7705fba7","system_id":"levelo_inurba_marseille","lat":43.292571,"lon":5.409107,"is_reserved":false,"is_disabled":false,"rental_uris":{"android":"levelo://app?vid=830d6cfb-1969-4ee0-94e2-7ddb7705fba7","ios":"levelo://app?vid=830d6cfb-1969-4ee0-94e2-7ddb7705fba7"},"vehicle_type_id":"4","last_reported":1679843178,"current_range_meters":0,"station_id":"ce4bh192rcd13ifvqdc0","pricing_plan_id":"free"},{"bike_id":"62af9320-815f-4d5a-b2ea-6d8f646ce8f9","system_id":"levelo_inurba_marseille","lat":43.292571,"lon":5.409107,"is_reserved":false,"is_disabled":false,"rental_uris":{"android":"levelo://app?vid=62af9320-815f-4d5a-b2ea-6d8f646ce8f9","ios":"levelo://app?vid=62af9320-815f-4d5a-b2ea-6d8f646ce8f9"},"vehicle_type_id":"4","last_reported":1679843178,"current_range_meters":30000,"station_id":"ce4bh192rcd13ifvqdc0","pricing_plan_id":"free"},{"bike_id":"a4383be0-5a19-41f3-9691-c7cf54001454","system_id":"levelo_inurba_marseille","lat":43.32539,"lon":5.41428,"is_reserved":false,"is_disabled":false,"rental_uris":{"android":"levelo://app?vid=a4383be0-5a19-41f3-9691-c7cf54001454","ios":"levelo://app?vid=a4383be0-5a19-41f3-9691-c7cf54001454"},"vehicle_type_id":"4","last_reported":1679843178,"current_range_meters":0,"station_id":"ce4bhq12rcd13ifvqhhg","pricing_plan_id":"free"},{"bike_id":"be48fe04-9d0d-4afc-90ad-247d9e5dd7e3","system_id":"levelo_inurba_marseille","lat":43.32549,"lon":5.41443,"is_reserved":false,"is_disabled":false,"rental_uris":{"android":"levelo://app?vid=be48fe04-9d0d-4afc-90ad-247d9e5dd7e3","ios":"levelo://app?vid=be48fe04-9d0d-4afc-90ad-247d9e5dd7e3"},"vehicle_type_id":"4","last_reported":1679843178,"current_range_meters":0,"station_id":"","pricing_plan_id":"free"},{"bike_id":"b0f62c47-b68d-4924-8246-d032697c086f","system_id":"levelo_inurba_marseille","lat":43.280784,"lon":5.396622,"is_reserved":false,"is_disabled":false,"rental_uris":{"android":"levelo://app?vid=b0f62c47-b68d-4924-8246-d032697c086f","ios":"levelo://app?vid=b0f62c47-b68d-4924-8246-d032697c086f"},"vehicle_type_id":"4","last_reported":1679843178,"current_range_meters":18800,"station_id":"ce4bho12rcd13ifvqh2g","pricing_plan_id":"free"},{"bike_id":"6b750d3d-96da-4778-b876-136581fd4814","system_id":"levelo_inurba_marseille","lat":43.273954,"lon":5.362706,"is_reserved":false,"is_disabled":false,"rental_uris":{"android":"levelo://app?vid=6b750d3d-96da-4778-b876-136581fd4814","ios":"levelo://app?vid=6b750d3d-96da-4778-b876-136581fd4814"},"vehicle_type_id":"4","last_reported":1679843178,"current_range_meters":6000,"station_id":"ce4bhbh2rcd13ifvqeo0","pricing_plan_id":"free"},{"bike_id":"b98a5b9b-2908-4e23-bcb6-e7b587ca4ec6","system_id":"levelo_inurba_marseille","lat":43.276769,"lon":5.388787,"is_reserved":false,"is_disabled":false,"rental_uris":{"android":"levelo://app?vid=b98a5b9b-2908-4e23-bcb6-e7b587ca4ec6","ios":"levelo://app?vid=b98a5b9b-2908-4e23-bcb6-e7b587ca4ec6"},"vehicle_type_id":"4","last_reported":1679843178,"current_range_meters":31600,"station_id":"ce4bhi12rcd13ifvqfo0","pricing_plan_id":"free"},{"bike_id":"bda981be-01fc-43ce-8d91-4ad6767ac64d","system_id":"levelo_inurba_marseille","lat":43.276769,"lon":5.388787,"is_reserved":false,"is_disabled":false,"rental_uris":{"android":"levelo://app?vid=bda981be-01fc-43ce-8d91-4ad6767ac64d","ios":"levelo://app?vid=bda981be-01fc-43ce-8d91-4ad6767ac64d"},"vehicle_type_id":"4","last_reported":1679843178,"current_range_meters":31600,"station_id":"ce4bhi12rcd13ifvqfo0","pricing_plan_id":"free"},{"bike_id":"afb028be-223b-49b1-b388-352204120fce","system_id":"levelo_inurba_marseille","lat":43.327494,"lon":5.417738,"is_reserved":false,"is_disabled":false,"rental_uris":{"android":"levelo://app?vid=afb028be-223b-49b1-b388-352204120fce","ios":"levelo://app?vid=afb028be-223b-49b1-b388-352204120fce"},"vehicle_type_id":"4","last_reported":1679843178,"current_range_meters":4400,"station_id":"","pricing_plan_id":"free"},{"bike_id":"c02163a6-d184-468e-9c77-ae31fb28422c","system_id":"levelo_inurba_marseille","lat":43.327477,"lon":5.4179,"is_reserved":false,"is_disabled":false,"rental_uris":{"android":"levelo://app?vid=c02163a6-d184-468e-9c77-ae31fb28422c","ios":"levelo://app?vid=c02163a6-d184-468e-9c77-ae31fb28422c"},"vehicle_type_id":"4","last_reported":1679843178,"current_range_meters":21200,"station_id":"","pricing_plan_id":"free"},{"bike_id":"22ad27df-cfa3-49f6-997a-79ef6860124d","system_id":"levelo_inurba_marseille","lat":43.32759,"lon":5.417957,"is_reserved":false,"is_disabled":false,"rental_uris":{"android":"levelo://app?vid=22ad27df-cfa3-49f6-997a-79ef6860124d","ios":"levelo://app?vid=22ad27df-cfa3-49f6-997a-79ef6860124d"},"vehicle_type_id":"4","last_reported":1679843178,"current_range_meters":22400,"station_id":"","pricing_plan_id":"free"},{"bike_id":"cb661780-56c2-4509-8b3d-979c5b47237e","system_id":"levelo_inurba_marseille","lat":43.317121,"lon":5.423936,"is_reserved":false,"is_disabled":false,"rental_uris":{"android":"levelo://app?vid=cb661780-56c2-4509-8b3d-979c5b47237e","ios":"levelo://app?vid=cb661780-56c2-4509-8b3d-979c5b47237e"},"vehicle_type_id":"4","last_reported":1679843178,"current_range_meters":30000,"station_id":"ce4bhp92rcd13ifvqhbg","pricing_plan_id":"free"},{"bike_id":"27dd6ebd-f34f-4d2c-b6de-8c3bc51fb4a2","system_id":"levelo_inurba_marseille","lat":43.317121,"lon":5.423936,"is_reserved":false,"is_disabled":false,"rental_uris":{"android":"levelo://app?vid=27dd6ebd-f34f-4d2c-b6de-8c3bc51fb4a2","ios":"levelo://app?vid=27dd6ebd-f34f-4d2c-b6de-8c3bc51fb4a2"},"vehicle_type_id":"4","last_reported":1679843178,"current_range_meters":28000,"station_id":"ce4bhp92rcd13ifvqhbg","pricing_plan_id":"free"},{"bike_id":"aa37f0d5-ceb4-43df-b53a-658dbf583679","system_id":"levelo_inurba_marseille","lat":43.273125,"lon":5.390731,"is_reserved":false,"is_disabled":false,"rental_uris":{"android":"levelo://app?vid=aa37f0d5-ceb4-43df-b53a-658dbf583679","ios":"levelo://app?vid=aa37f0d5-ceb4-43df-b53a-658dbf583679"},"vehicle_type_id":"4","last_reported":1679843178,"current_range_meters":30400,"station_id":"ce4bhgp2rcd13ifvqfe0","pricing_plan_id":"free"},{"bike_id":"a2a02709-59c1-4585-aa24-72139d445936","system_id":"levelo_inurba_marseille","lat":43.304096,"lon":5.425385,"is_reserved":false,"is_disabled":false,"rental_uris":{"android":"levelo://app?vid=a2a02709-59c1-4585-aa24-72139d445936","ios":"levelo://app?vid=a2a02709-59c1-4585-aa24-72139d445936"},"vehicle_type_id":"4","last_reported":1679843178,"current_range_meters":11600,"station_id":"ce4bhoh2rcd13ifvqh6g","pricing_plan_id":"free"},{"bike_id":"8293672c-9433-49f0-b32f-16cc4f911d84","system_id":"levelo_inurba_marseille","lat":43.295523,"lon":5.422926,"is_reserved":false,"is_disabled":false,"rental_uris":{"android":"levelo://app?vid=8293672c-9433-49f0-b32f-16cc4f911d84","ios":"levelo://app?vid=8293672c-9433-49f0-b32f-16cc4f911d84"},"vehicle_type_id":"4","last_reported":1679843178,"current_range_meters":2800,"station_id":"ce4bhph2rcd13ifvqhdg","pricing_plan_id":"free"},{"bike_id":"9bfef97d-9538-4734-ae19-b65929198faf","system_id":"levelo_inurba_marseille","lat":43.278128,"lon":5.407195,"is_reserved":false,"is_disabled":false,"rental_uris":{"android":"levelo://app?vid=9bfef97d-9538-4734-ae19-b65929198faf","ios":"levelo://app?vid=9bfef97d-9538-4734-ae19-b65929198faf"},"vehicle_type_id":"4","last_reported":1679843178,"current_range_meters":0,"station_id":"ce4bhnh2rcd13ifvqgtg","pricing_plan_id":"free"},{"bike_id":"f7a0c5fd-ce7a-431d-be97-4966e61afbe0","system_id":"levelo_inurba_marseille","lat":43.278128,"lon":5.407195,"is_reserved":false,"is_disabled":false,"rental_uris":{"android":"levelo://app?vid=f7a0c5fd-ce7a-431d-be97-4966e61afbe0","ios":"levelo://app?vid=f7a0c5fd-ce7a-431d-be97-4966e61afbe0"},"vehicle_type_id":"4","last_reported":1679843178,"current_range_meters":26800,"station_id":"ce4bhnh2rcd13ifvqgtg","pricing_plan_id":"free"},{"bike_id":"5cebe2bb-b62d-47c6-8f8c-e60104e06fb0","system_id":"levelo_inurba_marseille","lat":43.269319,"lon":5.389397,"is_reserved":false,"is_disabled":false,"rental_uris":{"android":"levelo://app?vid=5cebe2bb-b62d-47c6-8f8c-e60104e06fb0","ios":"levelo://app?vid=5cebe2bb-b62d-47c6-8f8c-e60104e06fb0"},"vehicle_type_id":"4","last_reported":1679843178,"current_range_meters":26000,"station_id":"ce4bhhh2rcd13ifvqfl0","pricing_plan_id":"free"},{"bike_id":"3c7b2e62-ceb5-41bf-bea9-95e01b2ae089","system_id":"levelo_inurba_marseille","lat":43.269252,"lon":5.389142,"is_reserved":false,"is_disabled":false,"rental_uris":{"android":"levelo://app?vid=3c7b2e62-ceb5-41bf-bea9-95e01b2ae089","ios":"levelo://app?vid=3c7b2e62-ceb5-41bf-bea9-95e01b2ae089"},"vehicle_type_id":"4","last_reported":1679843178,"current_range_meters":22800,"station_id":"","pricing_plan_id":"free"},{"bike_id":"57b68ded-989e-4bc6-b97b-d7e7bf5ed660","system_id":"levelo_inurba_marseille","lat":43.26889,"lon":5.38936,"is_reserved":false,"is_disabled":false,"rental_uris":{"android":"levelo://app?vid=57b68ded-989e-4bc6-b97b-d7e7bf5ed660","ios":"levelo://app?vid=57b68ded-989e-4bc6-b97b-d7e7bf5ed660"},"vehicle_type_id":"4","last_reported":1679843178,"current_range_meters":6000,"station_id":"","pricing_plan_id":"free"},{"bike_id":"fa2c2c55-5e84-49f8-a2e1-e3a6deb8907f","system_id":"levelo_inurba_marseille","lat":43.265714,"lon":5.372891,"is_reserved":false,"is_disabled":false,"rental_uris":{"android":"levelo://app?vid=fa2c2c55-5e84-49f8-a2e1-e3a6deb8907f","ios":"levelo://app?vid=fa2c2c55-5e84-49f8-a2e1-e3a6deb8907f"},"vehicle_type_id":"4","last_reported":1679843178,"current_range_meters":0,"station_id":"ce4bhg12rcd13ifvqf70","pricing_plan_id":"free"},{"bike_id":"ac858619-f9d9-4279-a6c0-3858b717c77a","system_id":"levelo_inurba_marseille","lat":43.265714,"lon":5.372891,"is_reserved":false,"is_disabled":false,"rental_uris":{"android":"levelo://app?vid=ac858619-f9d9-4279-a6c0-3858b717c77a","ios":"levelo://app?vid=ac858619-f9d9-4279-a6c0-3858b717c77a"},"vehicle_type_id":"4","last_reported":1679843178,"current_range_meters":0,"station_id":"ce4bhg12rcd13ifvqf70","pricing_plan_id":"free"},{"bike_id":"9dac2b7c-1384-4e12-b2f8-c3a353243d24","system_id":"levelo_inurba_marseille","lat":43.265525,"lon":5.372774,"is_reserved":false,"is_disabled":false,"rental_uris":{"android":"levelo://app?vid=9dac2b7c-1384-4e12-b2f8-c3a353243d24","ios":"levelo://app?vid=9dac2b7c-1384-4e12-b2f8-c3a353243d24"},"vehicle_type_id":"4","last_reported":1679843178,"current_range_meters":8000,"station_id":"","pricing_plan_id":"free"},{"bike_id":"75110817-fb13-4cb8-aa7b-598e555ae4ee","system_id":"levelo_inurba_marseille","lat":43.27988,"lon":5.41658,"is_reserved":false,"is_disabled":false,"rental_uris":{"android":"levelo://app?vid=75110817-fb13-4cb8-aa7b-598e555ae4ee","ios":"levelo://app?vid=75110817-fb13-4cb8-aa7b-598e555ae4ee"},"vehicle_type_id":"4","last_reported":1679843178,"current_range_meters":0,"station_id":"","pricing_plan_id":"free"},{"bike_id":"87969eef-1ff0-4525-8820-d5ec4dfc50a1","system_id":"levelo_inurba_marseille","lat":43.338448,"lon":5.424863,"is_reserved":false,"is_disabled":false,"rental_uris":{"android":"levelo://app?vid=87969eef-1ff0-4525-8820-d5ec4dfc50a1","ios":"levelo://app?vid=87969eef-1ff0-4525-8820-d5ec4dfc50a1"},"vehicle_type_id":"4","last_reported":1679843178,"current_range_meters":30400,"station_id":"","pricing_plan_id":"free"},{"bike_id":"a4d17440-c05d-4681-aa17-fd056e63f361","system_id":"levelo_inurba_marseille","lat":43.26576,"lon":5.39009,"is_reserved":false,"is_disabled":false,"rental_uris":{"android":"levelo://app?vid=a4d17440-c05d-4681-aa17-fd056e63f361","ios":"levelo://app?vid=a4d17440-c05d-4681-aa17-fd056e63f361"},"vehicle_type_id":"4","last_reported":1679843178,"current_range_meters":19200,"station_id":"","pricing_plan_id":"free"},{"bike_id":"21b2f790-24c0-4e83-9229-b1755d05e588","system_id":"levelo_inurba_marseille","lat":43.265569,"lon":5.390047,"is_reserved":false,"is_disabled":false,"rental_uris":{"android":"levelo://app?vid=21b2f790-24c0-4e83-9229-b1755d05e588","ios":"levelo://app?vid=21b2f790-24c0-4e83-9229-b1755d05e588"},"vehicle_type_id":"4","last_reported":1679843178,"current_range_meters":14000,"station_id":"ce4bhe12rcd13ifvqf30","pricing_plan_id":"free"},{"bike_id":"9f5fd812-8cbc-4b3b-8365-4a936f17abb8","system_id":"levelo_inurba_marseille","lat":43.265657,"lon":5.39011,"is_reserved":false,"is_disabled":false,"rental_uris":{"android":"levelo://app?vid=9f5fd812-8cbc-4b3b-8365-4a936f17abb8","ios":"levelo://app?vid=9f5fd812-8cbc-4b3b-8365-4a936f17abb8"},"vehicle_type_id":"4","last_reported":1679843178,"current_range_meters":5200,"station_id":"","pricing_plan_id":"free"},{"bike_id":"6b8b2273-0a59-432a-84e6-a06fa547e8ba","system_id":"levelo_inurba_marseille","lat":43.265569,"lon":5.390047,"is_reserved":false,"is_disabled":false,"rental_uris":{"android":"levelo://app?vid=6b8b2273-0a59-432a-84e6-a06fa547e8ba","ios":"levelo://app?vid=6b8b2273-0a59-432a-84e6-a06fa547e8ba"},"vehicle_type_id":"4","last_reported":1679843178,"current_range_meters":4000,"station_id":"ce4bhe12rcd13ifvqf30","pricing_plan_id":"free"},{"bike_id":"59029399-aa61-4b82-a4ba-f3537655bfb7","system_id":"levelo_inurba_marseille","lat":43.272116,"lon":5.391763,"is_reserved":false,"is_disabled":false,"rental_uris":{"android":"levelo://app?vid=59029399-aa61-4b82-a4ba-f3537655bfb7","ios":"levelo://app?vid=59029399-aa61-4b82-a4ba-f3537655bfb7"},"vehicle_type_id":"4","last_reported":1679843178,"current_range_meters":0,"station_id":"ce4bhhp2rcd13ifvqfm0","pricing_plan_id":"free"},{"bike_id":"f4da5c1e-bb08-42ce-92e5-2768460b386c","system_id":"levelo_inurba_marseille","lat":43.33186,"lon":5.431807,"is_reserved":false,"is_disabled":false,"rental_uris":{"android":"levelo://app?vid=f4da5c1e-bb08-42ce-92e5-2768460b386c","ios":"levelo://app?vid=f4da5c1e-bb08-42ce-92e5-2768460b386c"},"vehicle_type_id":"4","last_reported":1679843178,"current_range_meters":11200,"station_id":"","pricing_plan_id":"free"},{"bike_id":"164ca150-a160-4fab-9bdb-97a2686c8e02","system_id":"levelo_inurba_marseille","lat":43.267959,"lon":5.402687,"is_reserved":false,"is_disabled":false,"rental_uris":{"android":"levelo://app?vid=164ca150-a160-4fab-9bdb-97a2686c8e02","ios":"levelo://app?vid=164ca150-a160-4fab-9bdb-97a2686c8e02"},"vehicle_type_id":"4","last_reported":1679843178,"current_range_meters":30400,"station_id":"ce501612rcd8frsf0b60","pricing_plan_id":"free"},{"bike_id":"491d0d07-6b8a-40d6-a588-47267a0abfb2","system_id":"levelo_inurba_marseille","lat":43.267959,"lon":5.402685,"is_reserved":false,"is_disabled":false,"rental_uris":{"android":"levelo://app?vid=491d0d07-6b8a-40d6-a588-47267a0abfb2","ios":"levelo://app?vid=491d0d07-6b8a-40d6-a588-47267a0abfb2"},"vehicle_type_id":"4","last_reported":1679843178,"current_range_meters":0,"station_id":"ce501612rcd8frsf0b60","pricing_plan_id":"free"},{"bike_id":"f23613cb-2f6d-42c0-bea3-64d8882331bb","system_id":"levelo_inurba_marseille","lat":43.267959,"lon":5.402687,"is_reserved":false,"is_disabled":false,"rental_uris":{"android":"levelo://app?vid=f23613cb-2f6d-42c0-bea3-64d8882331bb","ios":"levelo://app?vid=f23613cb-2f6d-42c0-bea3-64d8882331bb"},"vehicle_type_id":"4","last_reported":1679843178,"current_range_meters":31200,"station_id":"ce501612rcd8frsf0b60","pricing_plan_id":"free"},{"bike_id":"6b1580b2-84d5-4c0f-ba48-4ce5b3281d93","system_id":"levelo_inurba_marseille","lat":43.267959,"lon":5.402687,"is_reserved":false,"is_disabled":false,"rental_uris":{"android":"levelo://app?vid=6b1580b2-84d5-4c0f-ba48-4ce5b3281d93","ios":"levelo://app?vid=6b1580b2-84d5-4c0f-ba48-4ce5b3281d93"},"vehicle_type_id":"4","last_reported":1679843178,"current_range_meters":25200,"station_id":"ce501612rcd8frsf0b60","pricing_plan_id":"free"},{"bike_id":"40f44750-46e8-4245-b79a-02d9025a119e","system_id":"levelo_inurba_marseille","lat":43.26569,"lon":5.39886,"is_reserved":false,"is_disabled":false,"rental_uris":{"android":"levelo://app?vid=40f44750-46e8-4245-b79a-02d9025a119e","ios":"levelo://app?vid=40f44750-46e8-4245-b79a-02d9025a119e"},"vehicle_type_id":"4","last_reported":1679843178,"current_range_meters":12400,"station_id":"","pricing_plan_id":"free"},{"bike_id":"d089b5c2-2577-4580-9d60-5a564c2a6e10","system_id":"levelo_inurba_marseille","lat":43.260225,"lon":5.375455,"is_reserved":false,"is_disabled":false,"rental_uris":{"android":"levelo://app?vid=d089b5c2-2577-4580-9d60-5a564c2a6e10","ios":"levelo://app?vid=d089b5c2-2577-4580-9d60-5a564c2a6e10"},"vehicle_type_id":"4","last_reported":1679843178,"current_range_meters":4400,"station_id":"ce4bhgh2rcd13ifvqfa0","pricing_plan_id":"free"},{"bike_id":"dc2654b7-5c45-4bd1-b98a-8cf5b214024d","system_id":"levelo_inurba_marseille","lat":43.334835,"lon":5.432842,"is_reserved":false,"is_disabled":false,"rental_uris":{"android":"levelo://app?vid=dc2654b7-5c45-4bd1-b98a-8cf5b214024d","ios":"levelo://app?vid=dc2654b7-5c45-4bd1-b98a-8cf5b214024d"},"vehicle_type_id":"4","last_reported":1679843178,"current_range_meters":31600,"station_id":"","pricing_plan_id":"free"},{"bike_id":"a489cd40-c494-472e-a2a1-65420dd1df01","system_id":"levelo_inurba_marseille","lat":43.260219,"lon":5.37546,"is_reserved":false,"is_disabled":false,"rental_uris":{"android":"levelo://app?vid=a489cd40-c494-472e-a2a1-65420dd1df01","ios":"levelo://app?vid=a489cd40-c494-472e-a2a1-65420dd1df01"},"vehicle_type_id":"4","last_reported":1679843178,"current_range_meters":19600,"station_id":"ce4bhgh2rcd13ifvqfa0","pricing_plan_id":"free"},{"bike_id":"b4373f6f-994b-496b-8b42-49a4df58c3a7","system_id":"levelo_inurba_marseille","lat":43.260632,"lon":5.393913,"is_reserved":false,"is_disabled":false,"rental_uris":{"android":"levelo://app?vid=b4373f6f-994b-496b-8b42-49a4df58c3a7","ios":"levelo://app?vid=b4373f6f-994b-496b-8b42-49a4df58c3a7"},"vehicle_type_id":"4","last_reported":1679843178,"current_range_meters":7600,"station_id":"ce4bhh92rcd13ifvqfj0","pricing_plan_id":"free"},{"bike_id":"74cefa9a-5e98-44a2-88da-179b2cd9be1f","system_id":"levelo_inurba_marseille","lat":43.260909,"lon":5.397591,"is_reserved":false,"is_disabled":false,"rental_uris":{"android":"levelo://app?vid=74cefa9a-5e98-44a2-88da-179b2cd9be1f","ios":"levelo://app?vid=74cefa9a-5e98-44a2-88da-179b2cd9be1f"},"vehicle_type_id":"4","last_reported":1679843178,"current_range_meters":400,"station_id":"ce4bhi12rcd13ifvqfq0","pricing_plan_id":"free"},{"bike_id":"9e64288b-bf18-427e-9ddc-b4a1784548ea","system_id":"levelo_inurba_marseille","lat":43.255756,"lon":5.382303,"is_reserved":false,"is_disabled":false,"rental_uris":{"android":"levelo://app?vid=9e64288b-bf18-427e-9ddc-b4a1784548ea","ios":"levelo://app?vid=9e64288b-bf18-427e-9ddc-b4a1784548ea"},"vehicle_type_id":"4","last_reported":1679843178,"current_range_meters":8000,"station_id":"ce4bhih2rcd13ifvqfs0","pricing_plan_id":"free"},{"bike_id":"2497b5f5-47f6-4d9b-8d7b-cce234b833b7","system_id":"levelo_inurba_marseille","lat":43.254947,"lon":5.376454,"is_reserved":false,"is_disabled":false,"rental_uris":{"android":"levelo://app?vid=2497b5f5-47f6-4d9b-8d7b-cce234b833b7","ios":"levelo://app?vid=2497b5f5-47f6-4d9b-8d7b-cce234b833b7"},"vehicle_type_id":"4","last_reported":1679843178,"current_range_meters":2800,"station_id":"ce4bhh12rcd13ifvqff0","pricing_plan_id":"free"},{"bike_id":"9beef86b-0c36-43b9-aeeb-21aa1c1e302e","system_id":"levelo_inurba_marseille","lat":43.25493,"lon":5.37651,"is_reserved":false,"is_disabled":false,"rental_uris":{"android":"levelo://app?vid=9beef86b-0c36-43b9-aeeb-21aa1c1e302e","ios":"levelo://app?vid=9beef86b-0c36-43b9-aeeb-21aa1c1e302e"},"vehicle_type_id":"4","last_reported":1679843178,"current_range_meters":16800,"station_id":"","pricing_plan_id":"free"},{"bike_id":"8a8cf57f-c051-4680-bc86-3f0dec8671ab","system_id":"levelo_inurba_marseille","lat":43.254947,"lon":5.376454,"is_reserved":false,"is_disabled":false,"rental_uris":{"android":"levelo://app?vid=8a8cf57f-c051-4680-bc86-3f0dec8671ab","ios":"levelo://app?vid=8a8cf57f-c051-4680-bc86-3f0dec8671ab"},"vehicle_type_id":"4","last_reported":1679843178,"current_range_meters":12800,"station_id":"ce4bhh12rcd13ifvqff0","pricing_plan_id":"free"},{"bike_id":"b5505fc3-2cf8-4bb9-84fc-38472ac1234d","system_id":"levelo_inurba_marseille","lat":43.27077,"lon":5.422863,"is_reserved":false,"is_disabled":false,"rental_uris":{"android":"levelo://app?vid=b5505fc3-2cf8-4bb9-84fc-38472ac1234d","ios":"levelo://app?vid=b5505fc3-2cf8-4bb9-84fc-38472ac1234d"},"vehicle_type_id":"4","last_reported":1679843178,"current_range_meters":7200,"station_id":"","pricing_plan_id":"free"},{"bike_id":"c0cf3127-d37e-40c5-a690-fd5a393ec8f2","system_id":"levelo_inurba_marseille","lat":43.27069,"lon":5.42279,"is_reserved":false,"is_disabled":false,"rental_uris":{"android":"levelo://app?vid=c0cf3127-d37e-40c5-a690-fd5a393ec8f2","ios":"levelo://app?vid=c0cf3127-d37e-40c5-a690-fd5a393ec8f2"},"vehicle_type_id":"4","last_reported":1679843178,"current_range_meters":6800,"station_id":"ce4bhk92rcd13ifvqgb0","pricing_plan_id":"free"},{"bike_id":"9ba8cf39-7d5a-441d-89e2-1c424a41d452","system_id":"levelo_inurba_marseille","lat":43.27392,"lon":5.42723,"is_reserved":false,"is_disabled":false,"rental_uris":{"android":"levelo://app?vid=9ba8cf39-7d5a-441d-89e2-1c424a41d452","ios":"levelo://app?vid=9ba8cf39-7d5a-441d-89e2-1c424a41d452"},"vehicle_type_id":"4","last_reported":1679843178,"current_range_meters":23200,"station_id":"","pricing_plan_id":"free"},{"bike_id":"8cdbfdeb-6be6-4d03-bfde-a91af37640e5","system_id":"levelo_inurba_marseille","lat":43.250009,"lon":5.389195,"is_reserved":false,"is_disabled":false,"rental_uris":{"android":"levelo://app?vid=8cdbfdeb-6be6-4d03-bfde-a91af37640e5","ios":"levelo://app?vid=8cdbfdeb-6be6-4d03-bfde-a91af37640e5"},"vehicle_type_id":"4","last_reported":1679843178,"current_range_meters":11600,"station_id":"ce4bhgp2rcd13ifvqfd0","pricing_plan_id":"free"},{"bike_id":"2819a97b-ab62-412f-ba95-92901ce7058e","system_id":"levelo_inurba_marseille","lat":43.250009,"lon":5.389195,"is_reserved":false,"is_disabled":false,"rental_uris":{"android":"levelo://app?vid=2819a97b-ab62-412f-ba95-92901ce7058e","ios":"levelo://app?vid=2819a97b-ab62-412f-ba95-92901ce7058e"},"vehicle_type_id":"4","last_reported":1679843178,"current_range_meters":0,"station_id":"ce4bhgp2rcd13ifvqfd0","pricing_plan_id":"free"},{"bike_id":"e89a6a9b-f1af-4504-99f6-8a39f16862a0","system_id":"levelo_inurba_marseille","lat":43.24804,"lon":5.37458,"is_reserved":false,"is_disabled":false,"rental_uris":{"android":"levelo://app?vid=e89a6a9b-f1af-4504-99f6-8a39f16862a0","ios":"levelo://app?vid=e89a6a9b-f1af-4504-99f6-8a39f16862a0"},"vehicle_type_id":"4","last_reported":1679843178,"current_range_meters":4800,"station_id":"ce4bhgh2rcd13ifvqfb0","pricing_plan_id":"free"},{"bike_id":"98014be4-8689-41f2-8c65-a3a9ad507d83","system_id":"levelo_inurba_marseille","lat":43.250865,"lon":5.395207,"is_reserved":false,"is_disabled":false,"rental_uris":{"android":"levelo://app?vid=98014be4-8689-41f2-8c65-a3a9ad507d83","ios":"levelo://app?vid=98014be4-8689-41f2-8c65-a3a9ad507d83"},"vehicle_type_id":"4","last_reported":1679843178,"current_range_meters":16800,"station_id":"ce4bhm12rcd13ifvqgkg","pricing_plan_id":"free"},{"bike_id":"efa94396-9837-4b1b-b7aa-53bbc0d88fcc","system_id":"levelo_inurba_marseille","lat":43.24693,"lon":5.382096,"is_reserved":false,"is_disabled":false,"rental_uris":{"android":"levelo://app?vid=efa94396-9837-4b1b-b7aa-53bbc0d88fcc","ios":"levelo://app?vid=efa94396-9837-4b1b-b7aa-53bbc0d88fcc"},"vehicle_type_id":"4","last_reported":1679843178,"current_range_meters":8000,"station_id":"ce4bhih2rcd13ifvqfr0","pricing_plan_id":"free"},{"bike_id":"5009e72e-f6d0-4db9-9267-598cbf489e06","system_id":"levelo_inurba_marseille","lat":43.246628,"lon":5.38162,"is_reserved":false,"is_disabled":false,"rental_uris":{"android":"levelo://app?vid=5009e72e-f6d0-4db9-9267-598cbf489e06","ios":"levelo://app?vid=5009e72e-f6d0-4db9-9267-598cbf489e06"},"vehicle_type_id":"4","last_reported":1679843178,"current_range_meters":0,"station_id":"","pricing_plan_id":"free"},{"bike_id":"f7193824-4eef-4c6e-8572-246f3cf72a65","system_id":"levelo_inurba_marseille","lat":43.243884,"lon":5.370736,"is_reserved":false,"is_disabled":false,"rental_uris":{"android":"levelo://app?vid=f7193824-4eef-4c6e-8572-246f3cf72a65","ios":"levelo://app?vid=f7193824-4eef-4c6e-8572-246f3cf72a65"},"vehicle_type_id":"4","last_reported":1679843178,"current_range_meters":2400,"station_id":"ce4bhhh2rcd13ifvqfk0","pricing_plan_id":"free"},{"bike_id":"1fde9e1d-5fd5-477c-9d4f-1dd57ba6b1b7","system_id":"levelo_inurba_marseille","lat":43.24076,"lon":5.37759,"is_reserved":false,"is_disabled":false,"rental_uris":{"android":"levelo://app?vid=1fde9e1d-5fd5-477c-9d4f-1dd57ba6b1b7","ios":"levelo://app?vid=1fde9e1d-5fd5-477c-9d4f-1dd57ba6b1b7"},"vehicle_type_id":"4","last_reported":1679843178,"current_range_meters":31200,"station_id":"ce4bhnp2rcd13ifvqgvg","pricing_plan_id":"free"},{"bike_id":"5e3ad079-aeb8-4a5f-844e-a938f67b5f37","system_id":"levelo_inurba_marseille","lat":43.24075,"lon":5.37762,"is_reserved":false,"is_disabled":false,"rental_uris":{"android":"levelo://app?vid=5e3ad079-aeb8-4a5f-844e-a938f67b5f37","ios":"levelo://app?vid=5e3ad079-aeb8-4a5f-844e-a938f67b5f37"},"vehicle_type_id":"4","last_reported":1679843178,"current_range_meters":31600,"station_id":"","pricing_plan_id":"free"},{"bike_id":"bed2cef8-69ab-4fbe-b869-b93aae890dd2","system_id":"levelo_inurba_marseille","lat":43.240623,"lon":5.377642,"is_reserved":false,"is_disabled":false,"rental_uris":{"android":"levelo://app?vid=bed2cef8-69ab-4fbe-b869-b93aae890dd2","ios":"levelo://app?vid=bed2cef8-69ab-4fbe-b869-b93aae890dd2"},"vehicle_type_id":"4","last_reported":1679843178,"current_range_meters":9200,"station_id":"ce4bhnp2rcd13ifvqgvg","pricing_plan_id":"free"},{"bike_id":"689f62ea-a6a0-496d-a66c-858035949243","system_id":"levelo_inurba_marseille","lat":43.2407,"lon":5.37762,"is_reserved":false,"is_disabled":false,"rental_uris":{"android":"levelo://app?vid=689f62ea-a6a0-496d-a66c-858035949243","ios":"levelo://app?vid=689f62ea-a6a0-496d-a66c-858035949243"},"vehicle_type_id":"4","last_reported":1679843178,"current_range_meters":21200,"station_id":"","pricing_plan_id":"free"},{"bike_id":"de96e591-eedd-476d-b6c6-74cfcb8d6d42","system_id":"levelo_inurba_marseille","lat":43.240697,"lon":5.377605,"is_reserved":false,"is_disabled":false,"rental_uris":{"android":"levelo://app?vid=de96e591-eedd-476d-b6c6-74cfcb8d6d42","ios":"levelo://app?vid=de96e591-eedd-476d-b6c6-74cfcb8d6d42"},"vehicle_type_id":"4","last_reported":1679843178,"current_range_meters":17200,"station_id":"ce4bhnp2rcd13ifvqgvg","pricing_plan_id":"free"},{"bike_id":"c788420b-a9b7-49a6-bf36-deca93c95cd8","system_id":"levelo_inurba_marseille","lat":43.240667,"lon":5.377577,"is_reserved":false,"is_disabled":false,"rental_uris":{"android":"levelo://app?vid=c788420b-a9b7-49a6-bf36-deca93c95cd8","ios":"levelo://app?vid=c788420b-a9b7-49a6-bf36-deca93c95cd8"},"vehicle_type_id":"4","last_reported":1679843178,"current_range_meters":8000,"station_id":"ce4bhnp2rcd13ifvqgvg","pricing_plan_id":"free"},{"bike_id":"229f0286-aa5b-4a20-89ae-0cbe746d5285","system_id":"levelo_inurba_marseille","lat":43.239588,"lon":5.366238,"is_reserved":false,"is_disabled":false,"rental_uris":{"android":"levelo://app?vid=229f0286-aa5b-4a20-89ae-0cbe746d5285","ios":"levelo://app?vid=229f0286-aa5b-4a20-89ae-0cbe746d5285"},"vehicle_type_id":"4","last_reported":1679843178,"current_range_meters":27600,"station_id":"ce4bhi12rcd13ifvqfp0","pricing_plan_id":"free"},{"bike_id":"9340015d-40f4-42f6-9cfc-135e11dfb166","system_id":"levelo_inurba_marseille","lat":43.239588,"lon":5.366238,"is_reserved":false,"is_disabled":false,"rental_uris":{"android":"levelo://app?vid=9340015d-40f4-42f6-9cfc-135e11dfb166","ios":"levelo://app?vid=9340015d-40f4-42f6-9cfc-135e11dfb166"},"vehicle_type_id":"4","last_reported":1679843178,"current_range_meters":30800,"station_id":"ce4bhi12rcd13ifvqfp0","pricing_plan_id":"free"},{"bike_id":"4baa9d5b-9814-4c7d-b8a9-216e46cd561c","system_id":"levelo_inurba_marseille","lat":43.239588,"lon":5.366238,"is_reserved":false,"is_disabled":false,"rental_uris":{"android":"levelo://app?vid=4baa9d5b-9814-4c7d-b8a9-216e46cd561c","ios":"levelo://app?vid=4baa9d5b-9814-4c7d-b8a9-216e46cd561c"},"vehicle_type_id":"4","last_reported":1679843178,"current_range_meters":25600,"station_id":"ce4bhi12rcd13ifvqfp0","pricing_plan_id":"free"},{"bike_id":"a4311d39-b784-4b05-99f4-7fe6e982690d","system_id":"levelo_inurba_marseille","lat":43.239588,"lon":5.366238,"is_reserved":false,"is_disabled":false,"rental_uris":{"android":"levelo://app?vid=a4311d39-b784-4b05-99f4-7fe6e982690d","ios":"levelo://app?vid=a4311d39-b784-4b05-99f4-7fe6e982690d"},"vehicle_type_id":"4","last_reported":1679843178,"current_range_meters":28000,"station_id":"ce4bhi12rcd13ifvqfp0","pricing_plan_id":"free"},{"bike_id":"99ec9591-689f-43c6-b4f0-94293b068ab3","system_id":"levelo_inurba_marseille","lat":43.243793,"lon":5.403075,"is_reserved":false,"is_disabled":false,"rental_uris":{"android":"levelo://app?vid=99ec9591-689f-43c6-b4f0-94293b068ab3","ios":"levelo://app?vid=99ec9591-689f-43c6-b4f0-94293b068ab3"},"vehicle_type_id":"4","last_reported":1679843178,"current_range_meters":12400,"station_id":"","pricing_plan_id":"free"},{"bike_id":"12781ea3-0a99-48d9-a9d3-c3337c5a2404","system_id":"levelo_inurba_marseille","lat":43.231919,"lon":5.355532,"is_reserved":false,"is_disabled":false,"rental_uris":{"android":"levelo://app?vid=12781ea3-0a99-48d9-a9d3-c3337c5a2404","ios":"levelo://app?vid=12781ea3-0a99-48d9-a9d3-c3337c5a2404"},"vehicle_type_id":"4","last_reported":1679843178,"current_range_meters":20400,"station_id":"ce4bhu92rcd13ifvqi70","pricing_plan_id":"free"},{"bike_id":"41b8c535-c5ef-4d45-af13-8511a742d8cd","system_id":"levelo_inurba_marseille","lat":43.231923,"lon":5.355545,"is_reserved":false,"is_disabled":false,"rental_uris":{"android":"levelo://app?vid=41b8c535-c5ef-4d45-af13-8511a742d8cd","ios":"levelo://app?vid=41b8c535-c5ef-4d45-af13-8511a742d8cd"},"vehicle_type_id":"4","last_reported":1679843178,"current_range_meters":24000,"station_id":"ce4bhu92rcd13ifvqi70","pricing_plan_id":"free"},{"bike_id":"34f32916-4ae1-488e-8761-9a7c624c8cd6","system_id":"levelo_inurba_marseille","lat":43.231919,"lon":5.355532,"is_reserved":false,"is_disabled":false,"rental_uris":{"android":"levelo://app?vid=34f32916-4ae1-488e-8761-9a7c624c8cd6","ios":"levelo://app?vid=34f32916-4ae1-488e-8761-9a7c624c8cd6"},"vehicle_type_id":"4","last_reported":1679843178,"current_range_meters":11200,"station_id":"ce4bhu92rcd13ifvqi70","pricing_plan_id":"free"}]}}