{"last_updated":1702393653,"ttl":30,"version":"2.2","data":{"bikes":[{"bike_id":"b31ae012-a139-4090-8033-defb86ffbd8e","system_id":"levelo_inurba_marseille","lat":43.31341,"lon":5.367098,"is_reserved":false,"is_disabled":false,"rental_uris":{"android":"levelo://app?vid=b31ae012-a139-4090-8033-defb86ffbd8e","ios":"levelo://app?vid=b31ae012-a139-4090-8033-defb86ffbd8e"},"vehicle_type_id":"4","last_reported":1702393653,"current_range_meters":29200,"station_id":"ce4bgr92rcd13ifvqc6g","pricing_plan_id":"free"},{"bike_id":"4fe897c3-8c18-434e-a325-cffe40ca8b7e","system_id":"levelo_inurba_marseille","lat":43.312239,"lon":5.368562,"is_reserved":false,"is_disabled":false,"rental_uris":{"android":"levelo://app?vid=4fe897c3-8c18-434e-a325-cffe40ca8b7e","ios":"levelo://app?vid=4fe897c3-8c18-434e-a325-cffe40ca8b7e"},"vehicle_type_id":"4","last_reported":1702393653,"current_range_meters":11200,"station_id":"ce4bgl92rcd13ifvqbq0","pricing_plan_id":"free"},{"bike_id":"7bce3b70-18b6-47e7-a8b6-a3701968b1e0","system_id":"levelo_inurba_marseille","lat":43.312239,"lon":5.368562,"is_reserved":false,"is_disabled":false,"rental_uris":{"android":"levelo://app?vid=7bce3b70-18b6-47e7-a8b6-a3701968b1e0","ios":"levelo://app?vid=7bce3b70-18b6-47e7-a8b6-a3701968b1e0"},"vehicle_type_id":"4","last_reported":1702393653,"current_range_meters":25600,"station_id":"ce4bgl92rcd13ifvqbq0","pricing_plan_id":"free"},{"bike_id":"5d765988-444e-4935-a977-114990adb71c","system_id":"levelo_inurba_marseille","lat":43.309076,"lon":5.368465,"is_reserved":false,"is_disabled":false,"rental_uris":{"android":"levelo://app?vid=5d765988-444e-4935-a977-114990adb71c","ios":"levelo://app?vid=5d765988-444e-4935-a977-114990adb71c"},"vehicle_type_id":"4","last_reported":1702393653,"current_range_meters":11600,"station_id":"ce4bgn92rcd13ifvqbvg","pricing_plan_id":"free"},{"bike_id":"1fb439f3-4deb-415a-934d-2de247213ae4","system_id":"levelo_inurba_marseille","lat":43.30537,"lon":5.367345,"is_reserved":false,"is_disabled":false,"rental_uris":{"android":"levelo://app?vid=1fb439f3-4deb-415a-934d-2de247213ae4","ios":"levelo://app?vid=1fb439f3-4deb-415a-934d-2de247213ae4"},"vehicle_type_id":"4","last_reported":1702393653,"current_range_meters":0,"station_id":"ce4bgrp2rcd13ifvqc9g","pricing_plan_id":"free"},{"bike_id":"ad74f77f-9311-48e2-906f-b8fe2815a17b","system_id":"levelo_inurba_marseille","lat":43.305706,"lon":5.365654,"is_reserved":false,"is_disabled":false,"rental_uris":{"android":"levelo://app?vid=ad74f77f-9311-48e2-906f-b8fe2815a17b","ios":"levelo://app?vid=ad74f77f-9311-48e2-906f-b8fe2815a17b"},"vehicle_type_id":"4","last_reported":1702393653,"current_range_meters":16800,"station_id":"ce4bgs12rcd13ifvqcag","pricing_plan_id":"free"},{"bike_id":"3838752c-34b3-4747-bbac-8d9e3ae88858","system_id":"levelo_inurba_marseille","lat":43.305382,"lon":5.365389,"is_reserved":false,"is_disabled":false,"rental_uris":{"android":"levelo://app?vid=3838752c-34b3-4747-bbac-8d9e3ae88858","ios":"levelo://app?vid=3838752c-34b3-4747-bbac-8d9e3ae88858"},"vehicle_type_id":"4","last_reported":1702393653,"current_range_meters":30400,"station_id":"","pricing_plan_id":"free"},{"bike_id":"2699cadf-ad7c-46db-8468-d680b4befd67","system_id":"levelo_inurba_marseille","lat":43.305989,"lon":5.37225,"is_reserved":false,"is_disabled":false,"rental_uris":{"android":"levelo://app?vid=2699cadf-ad7c-46db-8468-d680b4befd67","ios":"levelo://app?vid=2699cadf-ad7c-46db-8468-d680b4befd67"},"vehicle_type_id":"4","last_reported":1702393653,"current_range_meters":10800,"station_id":"ce4bgqh2rcd13ifvqc4g","pricing_plan_id":"free"},{"bike_id":"e1a529e1-9858-4f6b-a81e-ecbeb2f969fa","system_id":"levelo_inurba_marseille","lat":43.311125,"lon":5.377624,"is_reserved":false,"is_disabled":false,"rental_uris":{"android":"levelo://app?vid=e1a529e1-9858-4f6b-a81e-ecbeb2f969fa","ios":"levelo://app?vid=e1a529e1-9858-4f6b-a81e-ecbeb2f969fa"},"vehicle_type_id":"4","last_reported":1702393653,"current_range_meters":6800,"station_id":"ce4bgt92rcd13ifvqcg0","pricing_plan_id":"free"},{"bike_id":"92ad067f-f029-46f9-bf56-de782c48eb36","system_id":"levelo_inurba_marseille","lat":43.311155,"lon":5.377598,"is_reserved":false,"is_disabled":false,"rental_uris":{"android":"levelo://app?vid=92ad067f-f029-46f9-bf56-de782c48eb36","ios":"levelo://app?vid=92ad067f-f029-46f9-bf56-de782c48eb36"},"vehicle_type_id":"4","last_reported":1702393653,"current_range_meters":31200,"station_id":"ce4bgt92rcd13ifvqcg0","pricing_plan_id":"free"},{"bike_id":"1c18741c-f66b-4a35-aa29-ee80a6ef2114","system_id":"levelo_inurba_marseille","lat":43.311131,"lon":5.377651,"is_reserved":false,"is_disabled":false,"rental_uris":{"android":"levelo://app?vid=1c18741c-f66b-4a35-aa29-ee80a6ef2114","ios":"levelo://app?vid=1c18741c-f66b-4a35-aa29-ee80a6ef2114"},"vehicle_type_id":"4","last_reported":1702393653,"current_range_meters":27200,"station_id":"ce4bgt92rcd13ifvqcg0","pricing_plan_id":"free"},{"bike_id":"9170323c-db89-42af-b075-def968076722","system_id":"levelo_inurba_marseille","lat":43.311125,"lon":5.377624,"is_reserved":false,"is_disabled":false,"rental_uris":{"android":"levelo://app?vid=9170323c-db89-42af-b075-def968076722","ios":"levelo://app?vid=9170323c-db89-42af-b075-def968076722"},"vehicle_type_id":"4","last_reported":1702393653,"current_range_meters":21200,"station_id":"ce4bgt92rcd13ifvqcg0","pricing_plan_id":"free"},{"bike_id":"70708ce6-3518-452b-953d-ad99fa5ef0c9","system_id":"levelo_inurba_marseille","lat":43.307945,"lon":5.376487,"is_reserved":false,"is_disabled":false,"rental_uris":{"android":"levelo://app?vid=70708ce6-3518-452b-953d-ad99fa5ef0c9","ios":"levelo://app?vid=70708ce6-3518-452b-953d-ad99fa5ef0c9"},"vehicle_type_id":"4","last_reported":1702393653,"current_range_meters":24000,"station_id":"ce4bgv92rcd13ifvqcq0","pricing_plan_id":"free"},{"bike_id":"dc68debd-6203-4696-b9a5-55eea857c5a0","system_id":"levelo_inurba_marseille","lat":43.317075,"lon":5.377367,"is_reserved":false,"is_disabled":false,"rental_uris":{"android":"levelo://app?vid=dc68debd-6203-4696-b9a5-55eea857c5a0","ios":"levelo://app?vid=dc68debd-6203-4696-b9a5-55eea857c5a0"},"vehicle_type_id":"4","last_reported":1702393653,"current_range_meters":26400,"station_id":"ce4bgth2rcd13ifvqch0","pricing_plan_id":"free"},{"bike_id":"7a737edd-35fc-4cea-9fca-51095daee26c","system_id":"levelo_inurba_marseille","lat":43.31589,"lon":5.38093,"is_reserved":false,"is_disabled":false,"rental_uris":{"android":"levelo://app?vid=7a737edd-35fc-4cea-9fca-51095daee26c","ios":"levelo://app?vid=7a737edd-35fc-4cea-9fca-51095daee26c"},"vehicle_type_id":"4","last_reported":1702393653,"current_range_meters":25200,"station_id":"","pricing_plan_id":"free"},{"bike_id":"bde0e696-3b49-4902-9f86-370e683d2b0f","system_id":"levelo_inurba_marseille","lat":43.301939,"lon":5.366286,"is_reserved":false,"is_disabled":false,"rental_uris":{"android":"levelo://app?vid=bde0e696-3b49-4902-9f86-370e683d2b0f","ios":"levelo://app?vid=bde0e696-3b49-4902-9f86-370e683d2b0f"},"vehicle_type_id":"4","last_reported":1702393653,"current_range_meters":25600,"station_id":"ce4bgrh2rcd13ifvqc8g","pricing_plan_id":"free"},{"bike_id":"2146379f-af4c-4aaf-8a80-886d03828d81","system_id":"levelo_inurba_marseille","lat":43.308012,"lon":5.381511,"is_reserved":false,"is_disabled":false,"rental_uris":{"android":"levelo://app?vid=2146379f-af4c-4aaf-8a80-886d03828d81","ios":"levelo://app?vid=2146379f-af4c-4aaf-8a80-886d03828d81"},"vehicle_type_id":"4","last_reported":1702393653,"current_range_meters":17600,"station_id":"ce4bgt12rcd13ifvqce0","pricing_plan_id":"free"},{"bike_id":"07b8c697-0531-4e84-9f67-850109596542","system_id":"levelo_inurba_marseille","lat":43.30143,"lon":5.37413,"is_reserved":false,"is_disabled":false,"rental_uris":{"android":"levelo://app?vid=07b8c697-0531-4e84-9f67-850109596542","ios":"levelo://app?vid=07b8c697-0531-4e84-9f67-850109596542"},"vehicle_type_id":"4","last_reported":1702393653,"current_range_meters":7200,"station_id":"ce4bgs92rcd13ifvqcc0","pricing_plan_id":"free"},{"bike_id":"38d6b81f-c3fe-4525-bce1-d553210df287","system_id":"levelo_inurba_marseille","lat":43.299222,"lon":5.365554,"is_reserved":false,"is_disabled":false,"rental_uris":{"android":"levelo://app?vid=38d6b81f-c3fe-4525-bce1-d553210df287","ios":"levelo://app?vid=38d6b81f-c3fe-4525-bce1-d553210df287"},"vehicle_type_id":"4","last_reported":1702393653,"current_range_meters":0,"station_id":"ce4bgm92rcd13ifvqbr0","pricing_plan_id":"free"},{"bike_id":"b7f3f12b-6033-40a0-8e31-a066907810bf","system_id":"levelo_inurba_marseille","lat":43.305364,"lon":5.384119,"is_reserved":false,"is_disabled":false,"rental_uris":{"android":"levelo://app?vid=b7f3f12b-6033-40a0-8e31-a066907810bf","ios":"levelo://app?vid=b7f3f12b-6033-40a0-8e31-a066907810bf"},"vehicle_type_id":"4","last_reported":1702393653,"current_range_meters":30000,"station_id":"ce4bgg92rcd13ifvqb30","pricing_plan_id":"free"},{"bike_id":"77a6c46d-d898-4e4f-8846-efa91689c7f0","system_id":"levelo_inurba_marseille","lat":43.302006,"lon":5.38065,"is_reserved":false,"is_disabled":false,"rental_uris":{"android":"levelo://app?vid=77a6c46d-d898-4e4f-8846-efa91689c7f0","ios":"levelo://app?vid=77a6c46d-d898-4e4f-8846-efa91689c7f0"},"vehicle_type_id":"4","last_reported":1702393653,"current_range_meters":0,"station_id":"","pricing_plan_id":"free"},{"bike_id":"97715bbf-a02e-423f-bb35-3a001947e532","system_id":"levelo_inurba_marseille","lat":43.311722,"lon":5.387247,"is_reserved":false,"is_disabled":false,"rental_uris":{"android":"levelo://app?vid=97715bbf-a02e-423f-bb35-3a001947e532","ios":"levelo://app?vid=97715bbf-a02e-423f-bb35-3a001947e532"},"vehicle_type_id":"4","last_reported":1702393653,"current_range_meters":22000,"station_id":"ce4bgv12rcd13ifvqcp0","pricing_plan_id":"free"},{"bike_id":"ef62d099-880c-48b4-a857-30e56a94bd16","system_id":"levelo_inurba_marseille","lat":43.322872,"lon":5.382756,"is_reserved":false,"is_disabled":false,"rental_uris":{"android":"levelo://app?vid=ef62d099-880c-48b4-a857-30e56a94bd16","ios":"levelo://app?vid=ef62d099-880c-48b4-a857-30e56a94bd16"},"vehicle_type_id":"4","last_reported":1702393653,"current_range_meters":0,"station_id":"ce4bhr12rcd13ifvqhqg","pricing_plan_id":"free"},{"bike_id":"ced224ba-9672-4c17-a47f-ca8e0029d8cc","system_id":"levelo_inurba_marseille","lat":43.297163,"lon":5.365866,"is_reserved":false,"is_disabled":false,"rental_uris":{"android":"levelo://app?vid=ced224ba-9672-4c17-a47f-ca8e0029d8cc","ios":"levelo://app?vid=ced224ba-9672-4c17-a47f-ca8e0029d8cc"},"vehicle_type_id":"4","last_reported":1702393653,"current_range_meters":30000,"station_id":"ce4bgn12rcd13ifvqbt0","pricing_plan_id":"free"},{"bike_id":"7a878ee5-6910-45dd-b3bd-722059d35da7","system_id":"levelo_inurba_marseille","lat":43.29787,"lon":5.37679,"is_reserved":false,"is_disabled":false,"rental_uris":{"android":"levelo://app?vid=7a878ee5-6910-45dd-b3bd-722059d35da7","ios":"levelo://app?vid=7a878ee5-6910-45dd-b3bd-722059d35da7"},"vehicle_type_id":"4","last_reported":1702393653,"current_range_meters":12800,"station_id":"","pricing_plan_id":"free"},{"bike_id":"0af650a9-c756-4a99-912c-73c7e669a40e","system_id":"levelo_inurba_marseille","lat":43.317557,"lon":5.390173,"is_reserved":false,"is_disabled":false,"rental_uris":{"android":"levelo://app?vid=0af650a9-c756-4a99-912c-73c7e669a40e","ios":"levelo://app?vid=0af650a9-c756-4a99-912c-73c7e669a40e"},"vehicle_type_id":"4","last_reported":1702393653,"current_range_meters":23200,"station_id":"ce4bhqp2rcd13ifvqhng","pricing_plan_id":"free"},{"bike_id":"dd98db7d-13ac-431a-9d62-450a34114bcb","system_id":"levelo_inurba_marseille","lat":43.317557,"lon":5.390173,"is_reserved":false,"is_disabled":false,"rental_uris":{"android":"levelo://app?vid=dd98db7d-13ac-431a-9d62-450a34114bcb","ios":"levelo://app?vid=dd98db7d-13ac-431a-9d62-450a34114bcb"},"vehicle_type_id":"4","last_reported":1702393653,"current_range_meters":14400,"station_id":"ce4bhqp2rcd13ifvqhng","pricing_plan_id":"free"},{"bike_id":"dcb8979f-38e4-47c8-aff7-dd1d4407d214","system_id":"levelo_inurba_marseille","lat":43.298037,"lon":5.381066,"is_reserved":false,"is_disabled":false,"rental_uris":{"android":"levelo://app?vid=dcb8979f-38e4-47c8-aff7-dd1d4407d214","ios":"levelo://app?vid=dcb8979f-38e4-47c8-aff7-dd1d4407d214"},"vehicle_type_id":"4","last_reported":1702393653,"current_range_meters":28000,"station_id":"ce4bgip2rcd13ifvqbb0","pricing_plan_id":"free"},{"bike_id":"a4ed1dc7-4e81-4bc3-8f77-bd425e874c75","system_id":"levelo_inurba_marseille","lat":43.295748,"lon":5.37522,"is_reserved":false,"is_disabled":false,"rental_uris":{"android":"levelo://app?vid=a4ed1dc7-4e81-4bc3-8f77-bd425e874c75","ios":"levelo://app?vid=a4ed1dc7-4e81-4bc3-8f77-bd425e874c75"},"vehicle_type_id":"4","last_reported":1702393653,"current_range_meters":5200,"station_id":"ce4bgh92rcd13ifvqb50","pricing_plan_id":"free"},{"bike_id":"6bc4f2d6-b925-47bc-8eb6-468b881b3bef","system_id":"levelo_inurba_marseille","lat":43.295748,"lon":5.37522,"is_reserved":false,"is_disabled":false,"rental_uris":{"android":"levelo://app?vid=6bc4f2d6-b925-47bc-8eb6-468b881b3bef","ios":"levelo://app?vid=6bc4f2d6-b925-47bc-8eb6-468b881b3bef"},"vehicle_type_id":"4","last_reported":1702393653,"current_range_meters":20000,"station_id":"ce4bgh92rcd13ifvqb50","pricing_plan_id":"free"},{"bike_id":"a7036e89-06cc-466f-b7a0-4234826c00ae","system_id":"levelo_inurba_marseille","lat":43.295279,"lon":5.375048,"is_reserved":false,"is_disabled":false,"rental_uris":{"android":"levelo://app?vid=a7036e89-06cc-466f-b7a0-4234826c00ae","ios":"levelo://app?vid=a7036e89-06cc-466f-b7a0-4234826c00ae"},"vehicle_type_id":"4","last_reported":1702393653,"current_range_meters":10400,"station_id":"ce4bgkp2rcd13ifvqbmg","pricing_plan_id":"free"},{"bike_id":"8e406837-e4ca-4e42-9572-8d3b42955a5e","system_id":"levelo_inurba_marseille","lat":43.29963,"lon":5.385052,"is_reserved":false,"is_disabled":false,"rental_uris":{"android":"levelo://app?vid=8e406837-e4ca-4e42-9572-8d3b42955a5e","ios":"levelo://app?vid=8e406837-e4ca-4e42-9572-8d3b42955a5e"},"vehicle_type_id":"4","last_reported":1702393653,"current_range_meters":0,"station_id":"ce4bgj92rcd13ifvqbd0","pricing_plan_id":"free"},{"bike_id":"0f473322-53f4-45ab-b775-5832782c92b6","system_id":"levelo_inurba_marseille","lat":43.323637,"lon":5.38882,"is_reserved":false,"is_disabled":false,"rental_uris":{"android":"levelo://app?vid=0f473322-53f4-45ab-b775-5832782c92b6","ios":"levelo://app?vid=0f473322-53f4-45ab-b775-5832782c92b6"},"vehicle_type_id":"4","last_reported":1702393653,"current_range_meters":0,"station_id":"ce4bhqp2rcd13ifvqhog","pricing_plan_id":"free"},{"bike_id":"0cf7f0fc-0c00-4cbe-9839-10676459cbb0","system_id":"levelo_inurba_marseille","lat":43.32364,"lon":5.38886,"is_reserved":false,"is_disabled":false,"rental_uris":{"android":"levelo://app?vid=0cf7f0fc-0c00-4cbe-9839-10676459cbb0","ios":"levelo://app?vid=0cf7f0fc-0c00-4cbe-9839-10676459cbb0"},"vehicle_type_id":"4","last_reported":1702393653,"current_range_meters":22800,"station_id":"ce4bhqp2rcd13ifvqhog","pricing_plan_id":"free"},{"bike_id":"c08f8722-80df-4684-81d4-ec7797af0f85","system_id":"levelo_inurba_marseille","lat":43.32369,"lon":5.38885,"is_reserved":false,"is_disabled":false,"rental_uris":{"android":"levelo://app?vid=c08f8722-80df-4684-81d4-ec7797af0f85","ios":"levelo://app?vid=c08f8722-80df-4684-81d4-ec7797af0f85"},"vehicle_type_id":"4","last_reported":1702393653,"current_range_meters":26000,"station_id":"ce4bhqp2rcd13ifvqhog","pricing_plan_id":"free"},{"bike_id":"c9dc85f1-7374-4316-83e2-a2be2d4e9f6f","system_id":"levelo_inurba_marseille","lat":43.29601,"lon":5.381084,"is_reserved":false,"is_disabled":false,"rental_uris":{"android":"levelo://app?vid=c9dc85f1-7374-4316-83e2-a2be2d4e9f6f","ios":"levelo://app?vid=c9dc85f1-7374-4316-83e2-a2be2d4e9f6f"},"vehicle_type_id":"4","last_reported":1702393653,"current_range_meters":22000,"station_id":"ce4bgl12rcd13ifvqbo0","pricing_plan_id":"free"},{"bike_id":"8f6f2e07-3761-43b7-9817-5aa0e0f4f13d","system_id":"levelo_inurba_marseille","lat":43.293259,"lon":5.371586,"is_reserved":false,"is_disabled":false,"rental_uris":{"android":"levelo://app?vid=8f6f2e07-3761-43b7-9817-5aa0e0f4f13d","ios":"levelo://app?vid=8f6f2e07-3761-43b7-9817-5aa0e0f4f13d"},"vehicle_type_id":"4","last_reported":1702393653,"current_range_meters":23200,"station_id":"ce4bgh92rcd13ifvqb40","pricing_plan_id":"free"},{"bike_id":"3165b3a0-986f-4eef-bfcd-340add6c9878","system_id":"levelo_inurba_marseille","lat":43.303002,"lon":5.392142,"is_reserved":false,"is_disabled":false,"rental_uris":{"android":"levelo://app?vid=3165b3a0-986f-4eef-bfcd-340add6c9878","ios":"levelo://app?vid=3165b3a0-986f-4eef-bfcd-340add6c9878"},"vehicle_type_id":"4","last_reported":1702393653,"current_range_meters":24000,"station_id":"ce4bgkh2rcd13ifvqbk0","pricing_plan_id":"free"},{"bike_id":"49189c8b-3793-4153-9353-bfdd43451a59","system_id":"levelo_inurba_marseille","lat":43.2936,"lon":5.37835,"is_reserved":false,"is_disabled":false,"rental_uris":{"android":"levelo://app?vid=49189c8b-3793-4153-9353-bfdd43451a59","ios":"levelo://app?vid=49189c8b-3793-4153-9353-bfdd43451a59"},"vehicle_type_id":"4","last_reported":1702393653,"current_range_meters":18400,"station_id":"ce4bgjh2rcd13ifvqbf0","pricing_plan_id":"free"},{"bike_id":"46ce480d-53a3-4d8e-ab84-09d51065e9bf","system_id":"levelo_inurba_marseille","lat":43.2936,"lon":5.37835,"is_reserved":false,"is_disabled":false,"rental_uris":{"android":"levelo://app?vid=46ce480d-53a3-4d8e-ab84-09d51065e9bf","ios":"levelo://app?vid=46ce480d-53a3-4d8e-ab84-09d51065e9bf"},"vehicle_type_id":"4","last_reported":1702393653,"current_range_meters":23600,"station_id":"ce4bgjh2rcd13ifvqbf0","pricing_plan_id":"free"},{"bike_id":"a56b7c57-7334-4a62-adb3-233fe8bb1bb7","system_id":"levelo_inurba_marseille","lat":43.292663,"lon":5.376389,"is_reserved":false,"is_disabled":false,"rental_uris":{"android":"levelo://app?vid=a56b7c57-7334-4a62-adb3-233fe8bb1bb7","ios":"levelo://app?vid=a56b7c57-7334-4a62-adb3-233fe8bb1bb7"},"vehicle_type_id":"4","last_reported":1702393653,"current_range_meters":22800,"station_id":"ce4bgi12rcd13ifvqb80","pricing_plan_id":"free"},{"bike_id":"19187b74-35b5-4d52-b902-eb205cce7226","system_id":"levelo_inurba_marseille","lat":43.313291,"lon":5.396838,"is_reserved":false,"is_disabled":false,"rental_uris":{"android":"levelo://app?vid=19187b74-35b5-4d52-b902-eb205cce7226","ios":"levelo://app?vid=19187b74-35b5-4d52-b902-eb205cce7226"},"vehicle_type_id":"4","last_reported":1702393653,"current_range_meters":6000,"station_id":"ce4bgvp2rcd13ifvqcu0","pricing_plan_id":"free"},{"bike_id":"1a0da79e-8b5d-4c31-a4c5-1e2967cfb13b","system_id":"levelo_inurba_marseille","lat":43.313291,"lon":5.396838,"is_reserved":false,"is_disabled":false,"rental_uris":{"android":"levelo://app?vid=1a0da79e-8b5d-4c31-a4c5-1e2967cfb13b","ios":"levelo://app?vid=1a0da79e-8b5d-4c31-a4c5-1e2967cfb13b"},"vehicle_type_id":"4","last_reported":1702393653,"current_range_meters":19600,"station_id":"ce4bgvp2rcd13ifvqcu0","pricing_plan_id":"free"},{"bike_id":"34c45cc9-fa28-48ad-b8fa-977b664c6a7f","system_id":"levelo_inurba_marseille","lat":43.313291,"lon":5.396838,"is_reserved":false,"is_disabled":false,"rental_uris":{"android":"levelo://app?vid=34c45cc9-fa28-48ad-b8fa-977b664c6a7f","ios":"levelo://app?vid=34c45cc9-fa28-48ad-b8fa-977b664c6a7f"},"vehicle_type_id":"4","last_reported":1702393653,"current_range_meters":21600,"station_id":"ce4bgvp2rcd13ifvqcu0","pricing_plan_id":"free"},{"bike_id":"b3e1b0b8-373f-4162-b9e2-40cec2a34423","system_id":"levelo_inurba_marseille","lat":43.29529,"lon":5.385581,"is_reserved":false,"is_disabled":false,"rental_uris":{"android":"levelo://app?vid=b3e1b0b8-373f-4162-b9e2-40cec2a34423","ios":"levelo://app?vid=b3e1b0b8-373f-4162-b9e2-40cec2a34423"},"vehicle_type_id":"4","last_reported":1702393653,"current_range_meters":16400,"station_id":"ce4bgih2rcd13ifvqba0","pricing_plan_id":"free"},{"bike_id":"32f07b5b-6788-48ec-a07f-66e92a51a472","system_id":"levelo_inurba_marseille","lat":43.290631,"lon":5.359244,"is_reserved":false,"is_disabled":false,"rental_uris":{"android":"levelo://app?vid=32f07b5b-6788-48ec-a07f-66e92a51a472","ios":"levelo://app?vid=32f07b5b-6788-48ec-a07f-66e92a51a472"},"vehicle_type_id":"4","last_reported":1702393653,"current_range_meters":24800,"station_id":"ce4bha92rcd13ifvqeg0","pricing_plan_id":"free"},{"bike_id":"54dd2df7-8f52-44a6-a63c-f9fc55fc864d","system_id":"levelo_inurba_marseille","lat":43.29265,"lon":5.38441,"is_reserved":false,"is_disabled":false,"rental_uris":{"android":"levelo://app?vid=54dd2df7-8f52-44a6-a63c-f9fc55fc864d","ios":"levelo://app?vid=54dd2df7-8f52-44a6-a63c-f9fc55fc864d"},"vehicle_type_id":"4","last_reported":1702393653,"current_range_meters":20000,"station_id":"ce4bh692rcd13ifvqea0","pricing_plan_id":"free"},{"bike_id":"62e94a04-2220-4204-a03b-cf7d6d909360","system_id":"levelo_inurba_marseille","lat":43.330442,"lon":5.389148,"is_reserved":false,"is_disabled":false,"rental_uris":{"android":"levelo://app?vid=62e94a04-2220-4204-a03b-cf7d6d909360","ios":"levelo://app?vid=62e94a04-2220-4204-a03b-cf7d6d909360"},"vehicle_type_id":"4","last_reported":1702393653,"current_range_meters":31200,"station_id":"ce4bhr92rcd13ifvqhrg","pricing_plan_id":"free"},{"bike_id":"b759538c-75fc-4ccb-9b73-2031bf78f0fa","system_id":"levelo_inurba_marseille","lat":43.33036,"lon":5.38928,"is_reserved":false,"is_disabled":false,"rental_uris":{"android":"levelo://app?vid=b759538c-75fc-4ccb-9b73-2031bf78f0fa","ios":"levelo://app?vid=b759538c-75fc-4ccb-9b73-2031bf78f0fa"},"vehicle_type_id":"4","last_reported":1702393653,"current_range_meters":18000,"station_id":"ce4bhr92rcd13ifvqhrg","pricing_plan_id":"free"},{"bike_id":"9273e438-37c2-47ea-95df-8704d9ad734c","system_id":"levelo_inurba_marseille","lat":43.290103,"lon":5.356114,"is_reserved":false,"is_disabled":false,"rental_uris":{"android":"levelo://app?vid=9273e438-37c2-47ea-95df-8704d9ad734c","ios":"levelo://app?vid=9273e438-37c2-47ea-95df-8704d9ad734c"},"vehicle_type_id":"4","last_reported":1702393653,"current_range_meters":25200,"station_id":"ce4bhb92rcd13ifvqen0","pricing_plan_id":"free"},{"bike_id":"37b51e81-1320-4a9e-9524-20d962bf3cf9","system_id":"levelo_inurba_marseille","lat":43.290103,"lon":5.356114,"is_reserved":false,"is_disabled":false,"rental_uris":{"android":"levelo://app?vid=37b51e81-1320-4a9e-9524-20d962bf3cf9","ios":"levelo://app?vid=37b51e81-1320-4a9e-9524-20d962bf3cf9"},"vehicle_type_id":"4","last_reported":1702393653,"current_range_meters":23200,"station_id":"ce4bhb92rcd13ifvqen0","pricing_plan_id":"free"},{"bike_id":"8e325217-d6bb-4104-a4aa-18a838966512","system_id":"levelo_inurba_marseille","lat":43.290104,"lon":5.356111,"is_reserved":false,"is_disabled":false,"rental_uris":{"android":"levelo://app?vid=8e325217-d6bb-4104-a4aa-18a838966512","ios":"levelo://app?vid=8e325217-d6bb-4104-a4aa-18a838966512"},"vehicle_type_id":"4","last_reported":1702393653,"current_range_meters":26400,"station_id":"ce4bhb92rcd13ifvqen0","pricing_plan_id":"free"},{"bike_id":"66dc797c-16dc-44ce-83de-a285f981eed7","system_id":"levelo_inurba_marseille","lat":43.290952,"lon":5.381151,"is_reserved":false,"is_disabled":false,"rental_uris":{"android":"levelo://app?vid=66dc797c-16dc-44ce-83de-a285f981eed7","ios":"levelo://app?vid=66dc797c-16dc-44ce-83de-a285f981eed7"},"vehicle_type_id":"4","last_reported":1702393653,"current_range_meters":7600,"station_id":"ce4bh512rcd13ifvqe2g","pricing_plan_id":"free"},{"bike_id":"01bb97d5-51da-4f3e-b4a4-e34791698444","system_id":"levelo_inurba_marseille","lat":43.29789,"lon":5.39335,"is_reserved":false,"is_disabled":false,"rental_uris":{"android":"levelo://app?vid=01bb97d5-51da-4f3e-b4a4-e34791698444","ios":"levelo://app?vid=01bb97d5-51da-4f3e-b4a4-e34791698444"},"vehicle_type_id":"4","last_reported":1702393653,"current_range_meters":18800,"station_id":"chh1huq6cuj3fo74tm60","pricing_plan_id":"free"},{"bike_id":"714eb2c1-7b5f-4e72-9e9e-ae7d21a7dcd0","system_id":"levelo_inurba_marseille","lat":43.29778,"lon":5.39333,"is_reserved":false,"is_disabled":false,"rental_uris":{"android":"levelo://app?vid=714eb2c1-7b5f-4e72-9e9e-ae7d21a7dcd0","ios":"levelo://app?vid=714eb2c1-7b5f-4e72-9e9e-ae7d21a7dcd0"},"vehicle_type_id":"4","last_reported":1702393653,"current_range_meters":3200,"station_id":"chh1huq6cuj3fo74tm60","pricing_plan_id":"free"},{"bike_id":"76002fdb-4a44-4a48-9aff-a6dd1d11beb7","system_id":"levelo_inurba_marseille","lat":43.28856,"lon":5.358371,"is_reserved":false,"is_disabled":false,"rental_uris":{"android":"levelo://app?vid=76002fdb-4a44-4a48-9aff-a6dd1d11beb7","ios":"levelo://app?vid=76002fdb-4a44-4a48-9aff-a6dd1d11beb7"},"vehicle_type_id":"4","last_reported":1702393653,"current_range_meters":23600,"station_id":"ce4bhb12rcd13ifvqem0","pricing_plan_id":"free"},{"bike_id":"489012d6-5cd2-4bb8-8fc7-83dc91b8e50f","system_id":"levelo_inurba_marseille","lat":43.312727,"lon":5.401796,"is_reserved":false,"is_disabled":false,"rental_uris":{"android":"levelo://app?vid=489012d6-5cd2-4bb8-8fc7-83dc91b8e50f","ios":"levelo://app?vid=489012d6-5cd2-4bb8-8fc7-83dc91b8e50f"},"vehicle_type_id":"4","last_reported":1702393653,"current_range_meters":24400,"station_id":"","pricing_plan_id":"free"},{"bike_id":"242de36c-ffb6-430a-8bb0-210896a68181","system_id":"levelo_inurba_marseille","lat":43.30642,"lon":5.401031,"is_reserved":false,"is_disabled":false,"rental_uris":{"android":"levelo://app?vid=242de36c-ffb6-430a-8bb0-210896a68181","ios":"levelo://app?vid=242de36c-ffb6-430a-8bb0-210896a68181"},"vehicle_type_id":"4","last_reported":1702393653,"current_range_meters":21600,"station_id":"ce4bh112rcd13ifvqda0","pricing_plan_id":"free"},{"bike_id":"29bf50de-a4fe-4be8-b0bf-a41740d1b1cd","system_id":"levelo_inurba_marseille","lat":43.301117,"lon":5.398795,"is_reserved":false,"is_disabled":false,"rental_uris":{"android":"levelo://app?vid=29bf50de-a4fe-4be8-b0bf-a41740d1b1cd","ios":"levelo://app?vid=29bf50de-a4fe-4be8-b0bf-a41740d1b1cd"},"vehicle_type_id":"4","last_reported":1702393653,"current_range_meters":22400,"station_id":"ce4bh0h2rcd13ifvqd40","pricing_plan_id":"free"},{"bike_id":"6a15d18e-af37-408d-b876-87d529b2f5fd","system_id":"levelo_inurba_marseille","lat":43.28727,"lon":5.36078,"is_reserved":false,"is_disabled":false,"rental_uris":{"android":"levelo://app?vid=6a15d18e-af37-408d-b876-87d529b2f5fd","ios":"levelo://app?vid=6a15d18e-af37-408d-b876-87d529b2f5fd"},"vehicle_type_id":"4","last_reported":1702393653,"current_range_meters":25200,"station_id":"cki0cbj6b192h4jlfktg","pricing_plan_id":"free"},{"bike_id":"95f92516-9bdd-4b86-80c9-7327dbf901d9","system_id":"levelo_inurba_marseille","lat":43.28727,"lon":5.36078,"is_reserved":false,"is_disabled":false,"rental_uris":{"android":"levelo://app?vid=95f92516-9bdd-4b86-80c9-7327dbf901d9","ios":"levelo://app?vid=95f92516-9bdd-4b86-80c9-7327dbf901d9"},"vehicle_type_id":"4","last_reported":1702393653,"current_range_meters":24400,"station_id":"cki0cbj6b192h4jlfktg","pricing_plan_id":"free"},{"bike_id":"a69ca607-a11e-4577-bc5a-1d931c46c050","system_id":"levelo_inurba_marseille","lat":43.306489,"lon":5.40162,"is_reserved":false,"is_disabled":false,"rental_uris":{"android":"levelo://app?vid=a69ca607-a11e-4577-bc5a-1d931c46c050","ios":"levelo://app?vid=a69ca607-a11e-4577-bc5a-1d931c46c050"},"vehicle_type_id":"4","last_reported":1702393653,"current_range_meters":8400,"station_id":"","pricing_plan_id":"free"},{"bike_id":"8191ba29-cea3-44c0-9d07-299e7367d7ac","system_id":"levelo_inurba_marseille","lat":43.286593,"lon":5.363346,"is_reserved":false,"is_disabled":false,"rental_uris":{"android":"levelo://app?vid=8191ba29-cea3-44c0-9d07-299e7367d7ac","ios":"levelo://app?vid=8191ba29-cea3-44c0-9d07-299e7367d7ac"},"vehicle_type_id":"4","last_reported":1702393653,"current_range_meters":30800,"station_id":"ce4bhah2rcd13ifvqej0","pricing_plan_id":"free"},{"bike_id":"0f9d8a5c-c4e7-4144-b39c-280823a99420","system_id":"levelo_inurba_marseille","lat":43.302759,"lon":5.400793,"is_reserved":false,"is_disabled":false,"rental_uris":{"android":"levelo://app?vid=0f9d8a5c-c4e7-4144-b39c-280823a99420","ios":"levelo://app?vid=0f9d8a5c-c4e7-4144-b39c-280823a99420"},"vehicle_type_id":"4","last_reported":1702393653,"current_range_meters":0,"station_id":"ce4bgvh2rcd13ifvqcs0","pricing_plan_id":"free"},{"bike_id":"d09dd990-d5f5-4f38-b4e2-3c4e3f7da251","system_id":"levelo_inurba_marseille","lat":43.295196,"lon":5.39397,"is_reserved":false,"is_disabled":false,"rental_uris":{"android":"levelo://app?vid=d09dd990-d5f5-4f38-b4e2-3c4e3f7da251","ios":"levelo://app?vid=d09dd990-d5f5-4f38-b4e2-3c4e3f7da251"},"vehicle_type_id":"4","last_reported":1702393653,"current_range_meters":23600,"station_id":"ce4bh292rcd13ifvqdf0","pricing_plan_id":"free"},{"bike_id":"2727f812-c81a-41da-bdb5-d8184c93f76a","system_id":"levelo_inurba_marseille","lat":43.295196,"lon":5.39397,"is_reserved":false,"is_disabled":false,"rental_uris":{"android":"levelo://app?vid=2727f812-c81a-41da-bdb5-d8184c93f76a","ios":"levelo://app?vid=2727f812-c81a-41da-bdb5-d8184c93f76a"},"vehicle_type_id":"4","last_reported":1702393653,"current_range_meters":31200,"station_id":"ce4bh292rcd13ifvqdf0","pricing_plan_id":"free"},{"bike_id":"a580f8d6-fe3f-4255-a888-641437724390","system_id":"levelo_inurba_marseille","lat":43.290336,"lon":5.386425,"is_reserved":false,"is_disabled":false,"rental_uris":{"android":"levelo://app?vid=a580f8d6-fe3f-4255-a888-641437724390","ios":"levelo://app?vid=a580f8d6-fe3f-4255-a888-641437724390"},"vehicle_type_id":"4","last_reported":1702393653,"current_range_meters":12400,"station_id":"ce4bh4p2rcd13ifvqe0g","pricing_plan_id":"free"},{"bike_id":"a1082bce-708c-4518-9401-c83b063ab4db","system_id":"levelo_inurba_marseille","lat":43.286039,"lon":5.370679,"is_reserved":false,"is_disabled":false,"rental_uris":{"android":"levelo://app?vid=a1082bce-708c-4518-9401-c83b063ab4db","ios":"levelo://app?vid=a1082bce-708c-4518-9401-c83b063ab4db"},"vehicle_type_id":"4","last_reported":1702393653,"current_range_meters":18400,"station_id":"ce4bht12rcd13ifvqi60","pricing_plan_id":"free"},{"bike_id":"dd55c571-beb8-4144-9eee-a018fae0dfc2","system_id":"levelo_inurba_marseille","lat":43.286039,"lon":5.370681,"is_reserved":false,"is_disabled":false,"rental_uris":{"android":"levelo://app?vid=dd55c571-beb8-4144-9eee-a018fae0dfc2","ios":"levelo://app?vid=dd55c571-beb8-4144-9eee-a018fae0dfc2"},"vehicle_type_id":"4","last_reported":1702393653,"current_range_meters":22800,"station_id":"ce4bht12rcd13ifvqi60","pricing_plan_id":"free"},{"bike_id":"9115154f-8856-4157-935f-d3326a511e75","system_id":"levelo_inurba_marseille","lat":43.286039,"lon":5.370679,"is_reserved":false,"is_disabled":false,"rental_uris":{"android":"levelo://app?vid=9115154f-8856-4157-935f-d3326a511e75","ios":"levelo://app?vid=9115154f-8856-4157-935f-d3326a511e75"},"vehicle_type_id":"4","last_reported":1702393653,"current_range_meters":29600,"station_id":"ce4bht12rcd13ifvqi60","pricing_plan_id":"free"},{"bike_id":"83643fbd-b205-440b-a4a3-6a11271b81e9","system_id":"levelo_inurba_marseille","lat":43.291994,"lon":5.392907,"is_reserved":false,"is_disabled":false,"rental_uris":{"android":"levelo://app?vid=83643fbd-b205-440b-a4a3-6a11271b81e9","ios":"levelo://app?vid=83643fbd-b205-440b-a4a3-6a11271b81e9"},"vehicle_type_id":"4","last_reported":1702393653,"current_range_meters":22400,"station_id":"ce4bh192rcd13ifvqdd0","pricing_plan_id":"free"},{"bike_id":"8d9ed7af-7c6b-4c0c-b1d6-2efa1cfbe252","system_id":"levelo_inurba_marseille","lat":43.291994,"lon":5.392907,"is_reserved":false,"is_disabled":false,"rental_uris":{"android":"levelo://app?vid=8d9ed7af-7c6b-4c0c-b1d6-2efa1cfbe252","ios":"levelo://app?vid=8d9ed7af-7c6b-4c0c-b1d6-2efa1cfbe252"},"vehicle_type_id":"4","last_reported":1702393653,"current_range_meters":17600,"station_id":"ce4bh192rcd13ifvqdd0","pricing_plan_id":"free"},{"bike_id":"46c69dd8-078a-42e9-8050-844ca0e56e8f","system_id":"levelo_inurba_marseille","lat":43.284538,"lon":5.358657,"is_reserved":false,"is_disabled":false,"rental_uris":{"android":"levelo://app?vid=46c69dd8-078a-42e9-8050-844ca0e56e8f","ios":"levelo://app?vid=46c69dd8-078a-42e9-8050-844ca0e56e8f"},"vehicle_type_id":"4","last_reported":1702393653,"current_range_meters":14000,"station_id":"ce4bhah2rcd13ifvqei0","pricing_plan_id":"free"},{"bike_id":"b9ccc91c-1c2a-47e4-a664-9cff13ac3c5f","system_id":"levelo_inurba_marseille","lat":43.284538,"lon":5.358657,"is_reserved":false,"is_disabled":false,"rental_uris":{"android":"levelo://app?vid=b9ccc91c-1c2a-47e4-a664-9cff13ac3c5f","ios":"levelo://app?vid=b9ccc91c-1c2a-47e4-a664-9cff13ac3c5f"},"vehicle_type_id":"4","last_reported":1702393653,"current_range_meters":30000,"station_id":"ce4bhah2rcd13ifvqei0","pricing_plan_id":"free"},{"bike_id":"f0b9123c-5cd2-4d4a-9aef-09c0733d6f39","system_id":"levelo_inurba_marseille","lat":43.284538,"lon":5.358657,"is_reserved":false,"is_disabled":false,"rental_uris":{"android":"levelo://app?vid=f0b9123c-5cd2-4d4a-9aef-09c0733d6f39","ios":"levelo://app?vid=f0b9123c-5cd2-4d4a-9aef-09c0733d6f39"},"vehicle_type_id":"4","last_reported":1702393653,"current_range_meters":19200,"station_id":"ce4bhah2rcd13ifvqei0","pricing_plan_id":"free"},{"bike_id":"e066d15f-d0b5-4174-bc9c-b060004cd53a","system_id":"levelo_inurba_marseille","lat":43.284538,"lon":5.358657,"is_reserved":false,"is_disabled":false,"rental_uris":{"android":"levelo://app?vid=e066d15f-d0b5-4174-bc9c-b060004cd53a","ios":"levelo://app?vid=e066d15f-d0b5-4174-bc9c-b060004cd53a"},"vehicle_type_id":"4","last_reported":1702393653,"current_range_meters":1200,"station_id":"ce4bhah2rcd13ifvqei0","pricing_plan_id":"free"},{"bike_id":"2aee2e24-8f0f-4862-9110-3ab7aaf4c671","system_id":"levelo_inurba_marseille","lat":43.294314,"lon":5.397498,"is_reserved":false,"is_disabled":false,"rental_uris":{"android":"levelo://app?vid=2aee2e24-8f0f-4862-9110-3ab7aaf4c671","ios":"levelo://app?vid=2aee2e24-8f0f-4862-9110-3ab7aaf4c671"},"vehicle_type_id":"4","last_reported":1702393653,"current_range_meters":22400,"station_id":"ce4bh3h2rcd13ifvqdo0","pricing_plan_id":"free"},{"bike_id":"4edae2eb-d245-4bb0-9d1e-6d293f4d5899","system_id":"levelo_inurba_marseille","lat":43.283998,"lon":5.375062,"is_reserved":false,"is_disabled":false,"rental_uris":{"android":"levelo://app?vid=4edae2eb-d245-4bb0-9d1e-6d293f4d5899","ios":"levelo://app?vid=4edae2eb-d245-4bb0-9d1e-6d293f4d5899"},"vehicle_type_id":"4","last_reported":1702393653,"current_range_meters":27600,"station_id":"ce4bh412rcd13ifvqds0","pricing_plan_id":"free"},{"bike_id":"b021fc72-7af0-424c-b861-fed3e4d1ce72","system_id":"levelo_inurba_marseille","lat":43.283998,"lon":5.375062,"is_reserved":false,"is_disabled":false,"rental_uris":{"android":"levelo://app?vid=b021fc72-7af0-424c-b861-fed3e4d1ce72","ios":"levelo://app?vid=b021fc72-7af0-424c-b861-fed3e4d1ce72"},"vehicle_type_id":"4","last_reported":1702393653,"current_range_meters":0,"station_id":"ce4bh412rcd13ifvqds0","pricing_plan_id":"free"},{"bike_id":"2fa72311-9853-4347-b1d4-ff96bfd88373","system_id":"levelo_inurba_marseille","lat":43.286595,"lon":5.386795,"is_reserved":false,"is_disabled":false,"rental_uris":{"android":"levelo://app?vid=2fa72311-9853-4347-b1d4-ff96bfd88373","ios":"levelo://app?vid=2fa72311-9853-4347-b1d4-ff96bfd88373"},"vehicle_type_id":"4","last_reported":1702393653,"current_range_meters":1600,"station_id":"ce4bh492rcd13ifvqdug","pricing_plan_id":"free"},{"bike_id":"da5ff090-c704-4432-88fd-6eaeb279c8c7","system_id":"levelo_inurba_marseille","lat":43.286595,"lon":5.386795,"is_reserved":false,"is_disabled":false,"rental_uris":{"android":"levelo://app?vid=da5ff090-c704-4432-88fd-6eaeb279c8c7","ios":"levelo://app?vid=da5ff090-c704-4432-88fd-6eaeb279c8c7"},"vehicle_type_id":"4","last_reported":1702393653,"current_range_meters":22800,"station_id":"ce4bh492rcd13ifvqdug","pricing_plan_id":"free"},{"bike_id":"17e207bd-f019-4378-9816-ccd0f0b7453b","system_id":"levelo_inurba_marseille","lat":43.286595,"lon":5.386795,"is_reserved":false,"is_disabled":false,"rental_uris":{"android":"levelo://app?vid=17e207bd-f019-4378-9816-ccd0f0b7453b","ios":"levelo://app?vid=17e207bd-f019-4378-9816-ccd0f0b7453b"},"vehicle_type_id":"4","last_reported":1702393653,"current_range_meters":26000,"station_id":"ce4bh492rcd13ifvqdug","pricing_plan_id":"free"},{"bike_id":"9bfdfe9c-2e17-4644-a7a6-8326cb120fef","system_id":"levelo_inurba_marseille","lat":43.319179,"lon":5.407725,"is_reserved":false,"is_disabled":false,"rental_uris":{"android":"levelo://app?vid=9bfdfe9c-2e17-4644-a7a6-8326cb120fef","ios":"levelo://app?vid=9bfdfe9c-2e17-4644-a7a6-8326cb120fef"},"vehicle_type_id":"4","last_reported":1702393653,"current_range_meters":21600,"station_id":"ce4bhq12rcd13ifvqhig","pricing_plan_id":"free"},{"bike_id":"64b8d4b6-e4e5-44cd-b86c-e90b25be91bf","system_id":"levelo_inurba_marseille","lat":43.319179,"lon":5.407725,"is_reserved":false,"is_disabled":false,"rental_uris":{"android":"levelo://app?vid=64b8d4b6-e4e5-44cd-b86c-e90b25be91bf","ios":"levelo://app?vid=64b8d4b6-e4e5-44cd-b86c-e90b25be91bf"},"vehicle_type_id":"4","last_reported":1702393653,"current_range_meters":2800,"station_id":"ce4bhq12rcd13ifvqhig","pricing_plan_id":"free"},{"bike_id":"c472bf68-604d-42be-a4e2-963f8aaee165","system_id":"levelo_inurba_marseille","lat":43.33717,"lon":5.391857,"is_reserved":false,"is_disabled":false,"rental_uris":{"android":"levelo://app?vid=c472bf68-604d-42be-a4e2-963f8aaee165","ios":"levelo://app?vid=c472bf68-604d-42be-a4e2-963f8aaee165"},"vehicle_type_id":"4","last_reported":1702393653,"current_range_meters":26800,"station_id":"ce4bhr92rcd13ifvqhsg","pricing_plan_id":"free"},{"bike_id":"64a575ae-bf3f-4369-9c4e-f422e23c5413","system_id":"levelo_inurba_marseille","lat":43.323464,"lon":5.406297,"is_reserved":false,"is_disabled":false,"rental_uris":{"android":"levelo://app?vid=64a575ae-bf3f-4369-9c4e-f422e23c5413","ios":"levelo://app?vid=64a575ae-bf3f-4369-9c4e-f422e23c5413"},"vehicle_type_id":"4","last_reported":1702393653,"current_range_meters":12400,"station_id":"ce4bhq92rcd13ifvqhjg","pricing_plan_id":"free"},{"bike_id":"b8eda0c6-4c71-46e3-a7db-5cdae772f6dc","system_id":"levelo_inurba_marseille","lat":43.284793,"lon":5.384113,"is_reserved":false,"is_disabled":false,"rental_uris":{"android":"levelo://app?vid=b8eda0c6-4c71-46e3-a7db-5cdae772f6dc","ios":"levelo://app?vid=b8eda0c6-4c71-46e3-a7db-5cdae772f6dc"},"vehicle_type_id":"4","last_reported":1702393653,"current_range_meters":22000,"station_id":"ce4bh512rcd13ifvqe3g","pricing_plan_id":"free"},{"bike_id":"e762d1a8-ec91-4949-b92a-e2117bd3a236","system_id":"levelo_inurba_marseille","lat":43.284787,"lon":5.384116,"is_reserved":false,"is_disabled":false,"rental_uris":{"android":"levelo://app?vid=e762d1a8-ec91-4949-b92a-e2117bd3a236","ios":"levelo://app?vid=e762d1a8-ec91-4949-b92a-e2117bd3a236"},"vehicle_type_id":"4","last_reported":1702393653,"current_range_meters":15200,"station_id":"ce4bh512rcd13ifvqe3g","pricing_plan_id":"free"},{"bike_id":"b9987422-9372-443d-95a9-f6b080b033c8","system_id":"levelo_inurba_marseille","lat":43.284793,"lon":5.384119,"is_reserved":false,"is_disabled":false,"rental_uris":{"android":"levelo://app?vid=b9987422-9372-443d-95a9-f6b080b033c8","ios":"levelo://app?vid=b9987422-9372-443d-95a9-f6b080b033c8"},"vehicle_type_id":"4","last_reported":1702393653,"current_range_meters":13200,"station_id":"ce4bh512rcd13ifvqe3g","pricing_plan_id":"free"},{"bike_id":"0d6c7635-44fb-481b-8fbd-563d5e100986","system_id":"levelo_inurba_marseille","lat":43.297946,"lon":5.404063,"is_reserved":false,"is_disabled":false,"rental_uris":{"android":"levelo://app?vid=0d6c7635-44fb-481b-8fbd-563d5e100986","ios":"levelo://app?vid=0d6c7635-44fb-481b-8fbd-563d5e100986"},"vehicle_type_id":"4","last_reported":1702393653,"current_range_meters":19600,"station_id":"ce4bh112rcd13ifvqd90","pricing_plan_id":"free"},{"bike_id":"fe62ea7b-a05e-43bd-ad7b-4ae96c0a4b9a","system_id":"levelo_inurba_marseille","lat":43.288501,"lon":5.393087,"is_reserved":false,"is_disabled":false,"rental_uris":{"android":"levelo://app?vid=fe62ea7b-a05e-43bd-ad7b-4ae96c0a4b9a","ios":"levelo://app?vid=fe62ea7b-a05e-43bd-ad7b-4ae96c0a4b9a"},"vehicle_type_id":"4","last_reported":1702393653,"current_range_meters":20000,"station_id":"ce4bh2p2rcd13ifvqdi0","pricing_plan_id":"free"},{"bike_id":"b9aeb207-5687-4c2f-9312-dae7e21f5da3","system_id":"levelo_inurba_marseille","lat":43.283494,"lon":5.380945,"is_reserved":false,"is_disabled":false,"rental_uris":{"android":"levelo://app?vid=b9aeb207-5687-4c2f-9312-dae7e21f5da3","ios":"levelo://app?vid=b9aeb207-5687-4c2f-9312-dae7e21f5da3"},"vehicle_type_id":"4","last_reported":1702393653,"current_range_meters":800,"station_id":"ce4bh412rcd13ifvqdr0","pricing_plan_id":"free"},{"bike_id":"e0df34d5-2e8f-45b3-ba9b-d142412e99aa","system_id":"levelo_inurba_marseille","lat":43.283391,"lon":5.381053,"is_reserved":false,"is_disabled":false,"rental_uris":{"android":"levelo://app?vid=e0df34d5-2e8f-45b3-ba9b-d142412e99aa","ios":"levelo://app?vid=e0df34d5-2e8f-45b3-ba9b-d142412e99aa"},"vehicle_type_id":"4","last_reported":1702393653,"current_range_meters":8000,"station_id":"ce4bh412rcd13ifvqdr0","pricing_plan_id":"free"},{"bike_id":"3853326d-6f52-45dd-9f72-c1e0e4233417","system_id":"levelo_inurba_marseille","lat":43.292724,"lon":5.401131,"is_reserved":false,"is_disabled":false,"rental_uris":{"android":"levelo://app?vid=3853326d-6f52-45dd-9f72-c1e0e4233417","ios":"levelo://app?vid=3853326d-6f52-45dd-9f72-c1e0e4233417"},"vehicle_type_id":"4","last_reported":1702393653,"current_range_meters":12800,"station_id":"ce4bh312rcd13ifvqdk0","pricing_plan_id":"free"},{"bike_id":"3a75759d-2a6b-4b7a-880a-755f74a7d225","system_id":"levelo_inurba_marseille","lat":43.283502,"lon":5.386471,"is_reserved":false,"is_disabled":false,"rental_uris":{"android":"levelo://app?vid=3a75759d-2a6b-4b7a-880a-755f74a7d225","ios":"levelo://app?vid=3a75759d-2a6b-4b7a-880a-755f74a7d225"},"vehicle_type_id":"4","last_reported":1702393653,"current_range_meters":21600,"station_id":"ce4bh492rcd13ifvqdvg","pricing_plan_id":"free"},{"bike_id":"1b7cc644-b568-4379-b499-09ad32e6f770","system_id":"levelo_inurba_marseille","lat":43.282744,"lon":5.350533,"is_reserved":false,"is_disabled":false,"rental_uris":{"android":"levelo://app?vid=1b7cc644-b568-4379-b499-09ad32e6f770","ios":"levelo://app?vid=1b7cc644-b568-4379-b499-09ad32e6f770"},"vehicle_type_id":"4","last_reported":1702393653,"current_range_meters":22400,"station_id":"ce4bhbp2rcd13ifvqerg","pricing_plan_id":"free"},{"bike_id":"4a8f3725-fd99-4cef-9db4-cb8d63a8cb21","system_id":"levelo_inurba_marseille","lat":43.283502,"lon":5.386471,"is_reserved":false,"is_disabled":false,"rental_uris":{"android":"levelo://app?vid=4a8f3725-fd99-4cef-9db4-cb8d63a8cb21","ios":"levelo://app?vid=4a8f3725-fd99-4cef-9db4-cb8d63a8cb21"},"vehicle_type_id":"4","last_reported":1702393653,"current_range_meters":24400,"station_id":"ce4bh492rcd13ifvqdvg","pricing_plan_id":"free"},{"bike_id":"5d161653-694d-4bd4-9b17-d63e38256d92","system_id":"levelo_inurba_marseille","lat":43.290412,"lon":5.399633,"is_reserved":false,"is_disabled":false,"rental_uris":{"android":"levelo://app?vid=5d161653-694d-4bd4-9b17-d63e38256d92","ios":"levelo://app?vid=5d161653-694d-4bd4-9b17-d63e38256d92"},"vehicle_type_id":"4","last_reported":1702393653,"current_range_meters":13600,"station_id":"ce4bh392rcd13ifvqdm0","pricing_plan_id":"free"},{"bike_id":"a5670372-ae03-4d9a-a160-48d5164c3d6f","system_id":"levelo_inurba_marseille","lat":43.290412,"lon":5.399633,"is_reserved":false,"is_disabled":false,"rental_uris":{"android":"levelo://app?vid=a5670372-ae03-4d9a-a160-48d5164c3d6f","ios":"levelo://app?vid=a5670372-ae03-4d9a-a160-48d5164c3d6f"},"vehicle_type_id":"4","last_reported":1702393653,"current_range_meters":25200,"station_id":"ce4bh392rcd13ifvqdm0","pricing_plan_id":"free"},{"bike_id":"894832bd-ccdb-411b-a701-eddd75514353","system_id":"levelo_inurba_marseille","lat":43.296263,"lon":5.40601,"is_reserved":false,"is_disabled":false,"rental_uris":{"android":"levelo://app?vid=894832bd-ccdb-411b-a701-eddd75514353","ios":"levelo://app?vid=894832bd-ccdb-411b-a701-eddd75514353"},"vehicle_type_id":"4","last_reported":1702393653,"current_range_meters":21200,"station_id":"ce4bh0h2rcd13ifvqd60","pricing_plan_id":"free"},{"bike_id":"30f0dfb6-9dc7-4890-ad0a-64168268731d","system_id":"levelo_inurba_marseille","lat":43.281044,"lon":5.378308,"is_reserved":false,"is_disabled":false,"rental_uris":{"android":"levelo://app?vid=30f0dfb6-9dc7-4890-ad0a-64168268731d","ios":"levelo://app?vid=30f0dfb6-9dc7-4890-ad0a-64168268731d"},"vehicle_type_id":"4","last_reported":1702393653,"current_range_meters":18800,"station_id":"ce4bha12rcd13ifvqee0","pricing_plan_id":"free"},{"bike_id":"d90c4ab2-e8b4-4d41-9124-30632f8a363c","system_id":"levelo_inurba_marseille","lat":43.281044,"lon":5.378308,"is_reserved":false,"is_disabled":false,"rental_uris":{"android":"levelo://app?vid=d90c4ab2-e8b4-4d41-9124-30632f8a363c","ios":"levelo://app?vid=d90c4ab2-e8b4-4d41-9124-30632f8a363c"},"vehicle_type_id":"4","last_reported":1702393653,"current_range_meters":12000,"station_id":"ce4bha12rcd13ifvqee0","pricing_plan_id":"free"},{"bike_id":"04a51708-5827-4a61-8358-b4f3acf1e588","system_id":"levelo_inurba_marseille","lat":43.296263,"lon":5.40601,"is_reserved":false,"is_disabled":false,"rental_uris":{"android":"levelo://app?vid=04a51708-5827-4a61-8358-b4f3acf1e588","ios":"levelo://app?vid=04a51708-5827-4a61-8358-b4f3acf1e588"},"vehicle_type_id":"4","last_reported":1702393653,"current_range_meters":29200,"station_id":"ce4bh0h2rcd13ifvqd60","pricing_plan_id":"free"},{"bike_id":"37872209-b6d1-47b5-9d4c-a6f45af240c6","system_id":"levelo_inurba_marseille","lat":43.290412,"lon":5.399633,"is_reserved":false,"is_disabled":false,"rental_uris":{"android":"levelo://app?vid=37872209-b6d1-47b5-9d4c-a6f45af240c6","ios":"levelo://app?vid=37872209-b6d1-47b5-9d4c-a6f45af240c6"},"vehicle_type_id":"4","last_reported":1702393653,"current_range_meters":12000,"station_id":"ce4bh392rcd13ifvqdm0","pricing_plan_id":"free"},{"bike_id":"f674f1a7-7e2e-4a05-a667-fc1a0938852f","system_id":"levelo_inurba_marseille","lat":43.284462,"lon":5.392121,"is_reserved":false,"is_disabled":false,"rental_uris":{"android":"levelo://app?vid=f674f1a7-7e2e-4a05-a667-fc1a0938852f","ios":"levelo://app?vid=f674f1a7-7e2e-4a05-a667-fc1a0938852f"},"vehicle_type_id":"4","last_reported":1702393653,"current_range_meters":11200,"station_id":"ce4bhoh2rcd13ifvqh5g","pricing_plan_id":"free"},{"bike_id":"3dd2c6eb-7e3a-4334-a98c-10c4ec9729de","system_id":"levelo_inurba_marseille","lat":43.279087,"lon":5.380114,"is_reserved":false,"is_disabled":false,"rental_uris":{"android":"levelo://app?vid=3dd2c6eb-7e3a-4334-a98c-10c4ec9729de","ios":"levelo://app?vid=3dd2c6eb-7e3a-4334-a98c-10c4ec9729de"},"vehicle_type_id":"4","last_reported":1702393653,"current_range_meters":12400,"station_id":"ce4bhf92rcd13ifvqf50","pricing_plan_id":"free"},{"bike_id":"f7222f63-d9d8-4575-9c2d-a3a73cb1c417","system_id":"levelo_inurba_marseille","lat":43.287154,"lon":5.399979,"is_reserved":false,"is_disabled":false,"rental_uris":{"android":"levelo://app?vid=f7222f63-d9d8-4575-9c2d-a3a73cb1c417","ios":"levelo://app?vid=f7222f63-d9d8-4575-9c2d-a3a73cb1c417"},"vehicle_type_id":"4","last_reported":1702393653,"current_range_meters":15200,"station_id":"ce4bho92rcd13ifvqh3g","pricing_plan_id":"free"},{"bike_id":"77605030-090b-487d-aec3-04035f75e581","system_id":"levelo_inurba_marseille","lat":43.279742,"lon":5.38744,"is_reserved":false,"is_disabled":false,"rental_uris":{"android":"levelo://app?vid=77605030-090b-487d-aec3-04035f75e581","ios":"levelo://app?vid=77605030-090b-487d-aec3-04035f75e581"},"vehicle_type_id":"4","last_reported":1702393653,"current_range_meters":12800,"station_id":"ce4bhg12rcd13ifvqf80","pricing_plan_id":"free"},{"bike_id":"25816336-9e52-4174-a3a1-950a58bcb628","system_id":"levelo_inurba_marseille","lat":43.279742,"lon":5.38744,"is_reserved":false,"is_disabled":false,"rental_uris":{"android":"levelo://app?vid=25816336-9e52-4174-a3a1-950a58bcb628","ios":"levelo://app?vid=25816336-9e52-4174-a3a1-950a58bcb628"},"vehicle_type_id":"4","last_reported":1702393653,"current_range_meters":2400,"station_id":"ce4bhg12rcd13ifvqf80","pricing_plan_id":"free"},{"bike_id":"7c97047e-2089-4f7b-a524-35d13b8ed29b","system_id":"levelo_inurba_marseille","lat":43.325243,"lon":5.414326,"is_reserved":false,"is_disabled":false,"rental_uris":{"android":"levelo://app?vid=7c97047e-2089-4f7b-a524-35d13b8ed29b","ios":"levelo://app?vid=7c97047e-2089-4f7b-a524-35d13b8ed29b"},"vehicle_type_id":"4","last_reported":1702393653,"current_range_meters":18000,"station_id":"ce4bhq12rcd13ifvqhhg","pricing_plan_id":"free"},{"bike_id":"00ea128a-6f10-440e-b673-95d9a838807d","system_id":"levelo_inurba_marseille","lat":43.280784,"lon":5.396622,"is_reserved":false,"is_disabled":false,"rental_uris":{"android":"levelo://app?vid=00ea128a-6f10-440e-b673-95d9a838807d","ios":"levelo://app?vid=00ea128a-6f10-440e-b673-95d9a838807d"},"vehicle_type_id":"4","last_reported":1702393653,"current_range_meters":28400,"station_id":"ce4bho12rcd13ifvqh2g","pricing_plan_id":"free"},{"bike_id":"1a73af99-a4d7-46f2-b7db-7fefaec09b7d","system_id":"levelo_inurba_marseille","lat":43.273613,"lon":5.362705,"is_reserved":false,"is_disabled":false,"rental_uris":{"android":"levelo://app?vid=1a73af99-a4d7-46f2-b7db-7fefaec09b7d","ios":"levelo://app?vid=1a73af99-a4d7-46f2-b7db-7fefaec09b7d"},"vehicle_type_id":"4","last_reported":1702393653,"current_range_meters":13600,"station_id":"ce4bhbh2rcd13ifvqeo0","pricing_plan_id":"free"},{"bike_id":"87aadd95-78f8-4799-af93-8c61a3bf92a3","system_id":"levelo_inurba_marseille","lat":43.27375,"lon":5.36257,"is_reserved":false,"is_disabled":false,"rental_uris":{"android":"levelo://app?vid=87aadd95-78f8-4799-af93-8c61a3bf92a3","ios":"levelo://app?vid=87aadd95-78f8-4799-af93-8c61a3bf92a3"},"vehicle_type_id":"4","last_reported":1702393653,"current_range_meters":6400,"station_id":"ce4bhbh2rcd13ifvqeo0","pricing_plan_id":"free"},{"bike_id":"b1c028eb-0fe1-4afa-b35c-b9783a0e9537","system_id":"levelo_inurba_marseille","lat":43.31723,"lon":5.42405,"is_reserved":false,"is_disabled":false,"rental_uris":{"android":"levelo://app?vid=b1c028eb-0fe1-4afa-b35c-b9783a0e9537","ios":"levelo://app?vid=b1c028eb-0fe1-4afa-b35c-b9783a0e9537"},"vehicle_type_id":"4","last_reported":1702393653,"current_range_meters":5200,"station_id":"ce4bhp92rcd13ifvqhbg","pricing_plan_id":"free"},{"bike_id":"b096250a-8180-4226-ad5e-c8680583970f","system_id":"levelo_inurba_marseille","lat":43.340804,"lon":5.410219,"is_reserved":false,"is_disabled":false,"rental_uris":{"android":"levelo://app?vid=b096250a-8180-4226-ad5e-c8680583970f","ios":"levelo://app?vid=b096250a-8180-4226-ad5e-c8680583970f"},"vehicle_type_id":"4","last_reported":1702393653,"current_range_meters":30000,"station_id":"ce4bhqh2rcd13ifvqhlg","pricing_plan_id":"free"},{"bike_id":"f24f390c-64e5-4566-a3af-eba244eb14ad","system_id":"levelo_inurba_marseille","lat":43.273161,"lon":5.390984,"is_reserved":false,"is_disabled":false,"rental_uris":{"android":"levelo://app?vid=f24f390c-64e5-4566-a3af-eba244eb14ad","ios":"levelo://app?vid=f24f390c-64e5-4566-a3af-eba244eb14ad"},"vehicle_type_id":"4","last_reported":1702393653,"current_range_meters":30800,"station_id":"ce4bhgp2rcd13ifvqfe0","pricing_plan_id":"free"},{"bike_id":"85e9c79a-e1be-4ac2-99e1-84744a022054","system_id":"levelo_inurba_marseille","lat":43.274103,"lon":5.394016,"is_reserved":false,"is_disabled":false,"rental_uris":{"android":"levelo://app?vid=85e9c79a-e1be-4ac2-99e1-84744a022054","ios":"levelo://app?vid=85e9c79a-e1be-4ac2-99e1-84744a022054"},"vehicle_type_id":"4","last_reported":1702393653,"current_range_meters":2800,"station_id":"ce4bhdp2rcd13ifvqf20","pricing_plan_id":"free"},{"bike_id":"5106748e-e986-4e9b-9833-973798f74fb6","system_id":"levelo_inurba_marseille","lat":43.27996,"lon":5.416624,"is_reserved":false,"is_disabled":false,"rental_uris":{"android":"levelo://app?vid=5106748e-e986-4e9b-9833-973798f74fb6","ios":"levelo://app?vid=5106748e-e986-4e9b-9833-973798f74fb6"},"vehicle_type_id":"4","last_reported":1702393653,"current_range_meters":23200,"station_id":"ce4bho12rcd13ifvqh1g","pricing_plan_id":"free"},{"bike_id":"30fa5f39-c9b0-4dbf-a91d-c1c18e5a68e6","system_id":"levelo_inurba_marseille","lat":43.265714,"lon":5.372891,"is_reserved":false,"is_disabled":false,"rental_uris":{"android":"levelo://app?vid=30fa5f39-c9b0-4dbf-a91d-c1c18e5a68e6","ios":"levelo://app?vid=30fa5f39-c9b0-4dbf-a91d-c1c18e5a68e6"},"vehicle_type_id":"4","last_reported":1702393653,"current_range_meters":2800,"station_id":"ce4bhg12rcd13ifvqf70","pricing_plan_id":"free"},{"bike_id":"98762f8d-448f-4715-a355-95965254dc55","system_id":"levelo_inurba_marseille","lat":43.308051,"lon":5.43527,"is_reserved":false,"is_disabled":false,"rental_uris":{"android":"levelo://app?vid=98762f8d-448f-4715-a355-95965254dc55","ios":"levelo://app?vid=98762f8d-448f-4715-a355-95965254dc55"},"vehicle_type_id":"4","last_reported":1702393653,"current_range_meters":26400,"station_id":"ce4bhph2rcd13ifvqheg","pricing_plan_id":"free"},{"bike_id":"14bc19f9-c5ac-4814-b202-5604c65f25d1","system_id":"levelo_inurba_marseille","lat":43.308008,"lon":5.435285,"is_reserved":false,"is_disabled":false,"rental_uris":{"android":"levelo://app?vid=14bc19f9-c5ac-4814-b202-5604c65f25d1","ios":"levelo://app?vid=14bc19f9-c5ac-4814-b202-5604c65f25d1"},"vehicle_type_id":"4","last_reported":1702393653,"current_range_meters":17600,"station_id":"ce4bhph2rcd13ifvqheg","pricing_plan_id":"free"},{"bike_id":"c5dcb1f5-374e-4782-ab55-b8ad7f9e18ae","system_id":"levelo_inurba_marseille","lat":43.26949,"lon":5.40262,"is_reserved":false,"is_disabled":false,"rental_uris":{"android":"levelo://app?vid=c5dcb1f5-374e-4782-ab55-b8ad7f9e18ae","ios":"levelo://app?vid=c5dcb1f5-374e-4782-ab55-b8ad7f9e18ae"},"vehicle_type_id":"4","last_reported":1702393653,"current_range_meters":4000,"station_id":"cjm6bp8fraef2m0cb0m0","pricing_plan_id":"free"},{"bike_id":"7dcc0d71-2ad6-4b3c-92e0-a1f941b95477","system_id":"levelo_inurba_marseille","lat":43.317104,"lon":5.436818,"is_reserved":false,"is_disabled":false,"rental_uris":{"android":"levelo://app?vid=7dcc0d71-2ad6-4b3c-92e0-a1f941b95477","ios":"levelo://app?vid=7dcc0d71-2ad6-4b3c-92e0-a1f941b95477"},"vehicle_type_id":"4","last_reported":1702393653,"current_range_meters":27600,"station_id":"ce4bhp92rcd13ifvqhcg","pricing_plan_id":"free"},{"bike_id":"39f1097f-1f3b-42f3-ab92-9467e7980416","system_id":"levelo_inurba_marseille","lat":43.26808,"lon":5.402697,"is_reserved":false,"is_disabled":false,"rental_uris":{"android":"levelo://app?vid=39f1097f-1f3b-42f3-ab92-9467e7980416","ios":"levelo://app?vid=39f1097f-1f3b-42f3-ab92-9467e7980416"},"vehicle_type_id":"4","last_reported":1702393653,"current_range_meters":4000,"station_id":"ce501612rcd8frsf0b60","pricing_plan_id":"free"},{"bike_id":"5f700cde-9ca2-403c-a976-0f7ac326f8f8","system_id":"levelo_inurba_marseille","lat":43.267959,"lon":5.402685,"is_reserved":false,"is_disabled":false,"rental_uris":{"android":"levelo://app?vid=5f700cde-9ca2-403c-a976-0f7ac326f8f8","ios":"levelo://app?vid=5f700cde-9ca2-403c-a976-0f7ac326f8f8"},"vehicle_type_id":"4","last_reported":1702393653,"current_range_meters":12000,"station_id":"ce501612rcd8frsf0b60","pricing_plan_id":"free"},{"bike_id":"c6fd12df-9f3a-4af6-97ac-045eea3df2d1","system_id":"levelo_inurba_marseille","lat":43.298768,"lon":5.43643,"is_reserved":false,"is_disabled":false,"rental_uris":{"android":"levelo://app?vid=c6fd12df-9f3a-4af6-97ac-045eea3df2d1","ios":"levelo://app?vid=c6fd12df-9f3a-4af6-97ac-045eea3df2d1"},"vehicle_type_id":"4","last_reported":1702393653,"current_range_meters":10800,"station_id":"ce4bhpp2rcd13ifvqhfg","pricing_plan_id":"free"},{"bike_id":"aff378ef-68a6-4f93-ad49-037d5d45114a","system_id":"levelo_inurba_marseille","lat":43.260219,"lon":5.37546,"is_reserved":false,"is_disabled":false,"rental_uris":{"android":"levelo://app?vid=aff378ef-68a6-4f93-ad49-037d5d45114a","ios":"levelo://app?vid=aff378ef-68a6-4f93-ad49-037d5d45114a"},"vehicle_type_id":"4","last_reported":1702393653,"current_range_meters":30400,"station_id":"ce4bhgh2rcd13ifvqfa0","pricing_plan_id":"free"},{"bike_id":"10a0a2b3-71bb-4240-b3a7-0b2541567843","system_id":"levelo_inurba_marseille","lat":43.281548,"lon":5.42643,"is_reserved":false,"is_disabled":false,"rental_uris":{"android":"levelo://app?vid=10a0a2b3-71bb-4240-b3a7-0b2541567843","ios":"levelo://app?vid=10a0a2b3-71bb-4240-b3a7-0b2541567843"},"vehicle_type_id":"4","last_reported":1702393653,"current_range_meters":18800,"station_id":"ce4bhnh2rcd13ifvqgug","pricing_plan_id":"free"},{"bike_id":"8cc1b4ad-b7fd-4925-8b99-dfa91744b53f","system_id":"levelo_inurba_marseille","lat":43.281548,"lon":5.42643,"is_reserved":false,"is_disabled":false,"rental_uris":{"android":"levelo://app?vid=8cc1b4ad-b7fd-4925-8b99-dfa91744b53f","ios":"levelo://app?vid=8cc1b4ad-b7fd-4925-8b99-dfa91744b53f"},"vehicle_type_id":"4","last_reported":1702393653,"current_range_meters":25600,"station_id":"ce4bhnh2rcd13ifvqgug","pricing_plan_id":"free"},{"bike_id":"ee7af92a-15bf-41b8-81ca-d535c99d9416","system_id":"levelo_inurba_marseille","lat":43.281548,"lon":5.42643,"is_reserved":false,"is_disabled":false,"rental_uris":{"android":"levelo://app?vid=ee7af92a-15bf-41b8-81ca-d535c99d9416","ios":"levelo://app?vid=ee7af92a-15bf-41b8-81ca-d535c99d9416"},"vehicle_type_id":"4","last_reported":1702393653,"current_range_meters":0,"station_id":"ce4bhnh2rcd13ifvqgug","pricing_plan_id":"free"},{"bike_id":"3764faf7-beec-4b88-97d8-9ac6b46998c6","system_id":"levelo_inurba_marseille","lat":43.281548,"lon":5.42643,"is_reserved":false,"is_disabled":false,"rental_uris":{"android":"levelo://app?vid=3764faf7-beec-4b88-97d8-9ac6b46998c6","ios":"levelo://app?vid=3764faf7-beec-4b88-97d8-9ac6b46998c6"},"vehicle_type_id":"4","last_reported":1702393653,"current_range_meters":28800,"station_id":"ce4bhnh2rcd13ifvqgug","pricing_plan_id":"free"},{"bike_id":"6ebbab62-f6e4-44e3-b9f8-afef3b99bd4a","system_id":"levelo_inurba_marseille","lat":43.2593,"lon":5.4091,"is_reserved":false,"is_disabled":false,"rental_uris":{"android":"levelo://app?vid=6ebbab62-f6e4-44e3-b9f8-afef3b99bd4a","ios":"levelo://app?vid=6ebbab62-f6e4-44e3-b9f8-afef3b99bd4a"},"vehicle_type_id":"4","last_reported":1702393653,"current_range_meters":20000,"station_id":"ce4bhm92rcd13ifvqglg","pricing_plan_id":"free"},{"bike_id":"b6400bfa-ebb2-4e35-870b-f55b90b8f69f","system_id":"levelo_inurba_marseille","lat":43.257079,"lon":5.411051,"is_reserved":false,"is_disabled":false,"rental_uris":{"android":"levelo://app?vid=b6400bfa-ebb2-4e35-870b-f55b90b8f69f","ios":"levelo://app?vid=b6400bfa-ebb2-4e35-870b-f55b90b8f69f"},"vehicle_type_id":"4","last_reported":1702393653,"current_range_meters":27200,"station_id":"ce4bhkp2rcd13ifvqgd0","pricing_plan_id":"free"},{"bike_id":"e3872d63-0424-4bec-8e70-dbf11229c6d2","system_id":"levelo_inurba_marseille","lat":43.257079,"lon":5.411051,"is_reserved":false,"is_disabled":false,"rental_uris":{"android":"levelo://app?vid=e3872d63-0424-4bec-8e70-dbf11229c6d2","ios":"levelo://app?vid=e3872d63-0424-4bec-8e70-dbf11229c6d2"},"vehicle_type_id":"4","last_reported":1702393653,"current_range_meters":23200,"station_id":"ce4bhkp2rcd13ifvqgd0","pricing_plan_id":"free"},{"bike_id":"ebe690cf-19b6-4486-b600-29d2f1aba268","system_id":"levelo_inurba_marseille","lat":43.257079,"lon":5.411051,"is_reserved":false,"is_disabled":false,"rental_uris":{"android":"levelo://app?vid=ebe690cf-19b6-4486-b600-29d2f1aba268","ios":"levelo://app?vid=ebe690cf-19b6-4486-b600-29d2f1aba268"},"vehicle_type_id":"4","last_reported":1702393653,"current_range_meters":21600,"station_id":"ce4bhkp2rcd13ifvqgd0","pricing_plan_id":"free"},{"bike_id":"79b8ac88-7619-4da8-90ad-b08c71e26c33","system_id":"levelo_inurba_marseille","lat":43.2479,"lon":5.374457,"is_reserved":false,"is_disabled":false,"rental_uris":{"android":"levelo://app?vid=79b8ac88-7619-4da8-90ad-b08c71e26c33","ios":"levelo://app?vid=79b8ac88-7619-4da8-90ad-b08c71e26c33"},"vehicle_type_id":"4","last_reported":1702393653,"current_range_meters":800,"station_id":"ce4bhgh2rcd13ifvqfb0","pricing_plan_id":"free"},{"bike_id":"b4d71df3-89f2-4d7b-9755-65491f02fc41","system_id":"levelo_inurba_marseille","lat":43.24908,"lon":5.38762,"is_reserved":false,"is_disabled":false,"rental_uris":{"android":"levelo://app?vid=b4d71df3-89f2-4d7b-9755-65491f02fc41","ios":"levelo://app?vid=b4d71df3-89f2-4d7b-9755-65491f02fc41"},"vehicle_type_id":"4","last_reported":1702393653,"current_range_meters":0,"station_id":"","pricing_plan_id":"free"},{"bike_id":"dab8ad3a-8600-426c-8830-5c7122c03dc8","system_id":"levelo_inurba_marseille","lat":43.24693,"lon":5.382096,"is_reserved":false,"is_disabled":false,"rental_uris":{"android":"levelo://app?vid=dab8ad3a-8600-426c-8830-5c7122c03dc8","ios":"levelo://app?vid=dab8ad3a-8600-426c-8830-5c7122c03dc8"},"vehicle_type_id":"4","last_reported":1702393653,"current_range_meters":31200,"station_id":"ce4bhih2rcd13ifvqfr0","pricing_plan_id":"free"},{"bike_id":"eceb768c-f020-4e3e-b196-d662a6d3ae24","system_id":"levelo_inurba_marseille","lat":43.24693,"lon":5.382096,"is_reserved":false,"is_disabled":false,"rental_uris":{"android":"levelo://app?vid=eceb768c-f020-4e3e-b196-d662a6d3ae24","ios":"levelo://app?vid=eceb768c-f020-4e3e-b196-d662a6d3ae24"},"vehicle_type_id":"4","last_reported":1702393653,"current_range_meters":22400,"station_id":"ce4bhih2rcd13ifvqfr0","pricing_plan_id":"free"},{"bike_id":"ae84b5a2-84e1-46be-b1b1-230315dcf287","system_id":"levelo_inurba_marseille","lat":43.25102,"lon":5.403214,"is_reserved":false,"is_disabled":false,"rental_uris":{"android":"levelo://app?vid=ae84b5a2-84e1-46be-b1b1-230315dcf287","ios":"levelo://app?vid=ae84b5a2-84e1-46be-b1b1-230315dcf287"},"vehicle_type_id":"4","last_reported":1702393653,"current_range_meters":1600,"station_id":"ce4bhlh2rcd13ifvqgig","pricing_plan_id":"free"},{"bike_id":"7cfa6086-206a-4718-82e6-756c1083c92f","system_id":"levelo_inurba_marseille","lat":43.25102,"lon":5.403214,"is_reserved":false,"is_disabled":false,"rental_uris":{"android":"levelo://app?vid=7cfa6086-206a-4718-82e6-756c1083c92f","ios":"levelo://app?vid=7cfa6086-206a-4718-82e6-756c1083c92f"},"vehicle_type_id":"4","last_reported":1702393653,"current_range_meters":16000,"station_id":"ce4bhlh2rcd13ifvqgig","pricing_plan_id":"free"},{"bike_id":"31d9638c-3ea5-49d9-ae1f-e4883bd389a1","system_id":"levelo_inurba_marseille","lat":43.245402,"lon":5.373352,"is_reserved":false,"is_disabled":false,"rental_uris":{"android":"levelo://app?vid=31d9638c-3ea5-49d9-ae1f-e4883bd389a1","ios":"levelo://app?vid=31d9638c-3ea5-49d9-ae1f-e4883bd389a1"},"vehicle_type_id":"4","last_reported":1702393653,"current_range_meters":0,"station_id":"","pricing_plan_id":"free"},{"bike_id":"cddd1db9-4fc2-44bc-8069-e62bcb1e6e91","system_id":"levelo_inurba_marseille","lat":43.246461,"lon":5.389014,"is_reserved":false,"is_disabled":false,"rental_uris":{"android":"levelo://app?vid=cddd1db9-4fc2-44bc-8069-e62bcb1e6e91","ios":"levelo://app?vid=cddd1db9-4fc2-44bc-8069-e62bcb1e6e91"},"vehicle_type_id":"4","last_reported":1702393653,"current_range_meters":8800,"station_id":"ce4bhg12rcd13ifvqf60","pricing_plan_id":"free"},{"bike_id":"d42ef82a-fef5-47e8-8041-233380e92110","system_id":"levelo_inurba_marseille","lat":43.24652,"lon":5.38895,"is_reserved":false,"is_disabled":false,"rental_uris":{"android":"levelo://app?vid=d42ef82a-fef5-47e8-8041-233380e92110","ios":"levelo://app?vid=d42ef82a-fef5-47e8-8041-233380e92110"},"vehicle_type_id":"4","last_reported":1702393653,"current_range_meters":8000,"station_id":"ce4bhg12rcd13ifvqf60","pricing_plan_id":"free"},{"bike_id":"487ebe3e-f8da-45d1-a9de-6d943c8074ee","system_id":"levelo_inurba_marseille","lat":43.245581,"lon":5.395069,"is_reserved":false,"is_disabled":false,"rental_uris":{"android":"levelo://app?vid=487ebe3e-f8da-45d1-a9de-6d943c8074ee","ios":"levelo://app?vid=487ebe3e-f8da-45d1-a9de-6d943c8074ee"},"vehicle_type_id":"4","last_reported":1702393653,"current_range_meters":14000,"station_id":"ce4bhlp2rcd13ifvqgjg","pricing_plan_id":"free"},{"bike_id":"90c11212-ba4b-40d6-b1f3-914422388c7d","system_id":"levelo_inurba_marseille","lat":43.241782,"lon":5.397261,"is_reserved":false,"is_disabled":false,"rental_uris":{"android":"levelo://app?vid=90c11212-ba4b-40d6-b1f3-914422388c7d","ios":"levelo://app?vid=90c11212-ba4b-40d6-b1f3-914422388c7d"},"vehicle_type_id":"4","last_reported":1702393653,"current_range_meters":20000,"station_id":"ce4bhn12rcd13ifvqgpg","pricing_plan_id":"free"},{"bike_id":"70b53595-6346-4384-b707-e8f586116fbb","system_id":"levelo_inurba_marseille","lat":43.241782,"lon":5.397261,"is_reserved":false,"is_disabled":false,"rental_uris":{"android":"levelo://app?vid=70b53595-6346-4384-b707-e8f586116fbb","ios":"levelo://app?vid=70b53595-6346-4384-b707-e8f586116fbb"},"vehicle_type_id":"4","last_reported":1702393653,"current_range_meters":14000,"station_id":"ce4bhn12rcd13ifvqgpg","pricing_plan_id":"free"},{"bike_id":"8b3e5e4b-f4c5-49ed-a433-e4e897e6a211","system_id":"levelo_inurba_marseille","lat":43.241782,"lon":5.397261,"is_reserved":false,"is_disabled":false,"rental_uris":{"android":"levelo://app?vid=8b3e5e4b-f4c5-49ed-a433-e4e897e6a211","ios":"levelo://app?vid=8b3e5e4b-f4c5-49ed-a433-e4e897e6a211"},"vehicle_type_id":"4","last_reported":1702393653,"current_range_meters":18800,"station_id":"ce4bhn12rcd13ifvqgpg","pricing_plan_id":"free"},{"bike_id":"1bd22906-96ca-46e0-9d37-90eff248c859","system_id":"levelo_inurba_marseille","lat":43.23192,"lon":5.35553,"is_reserved":false,"is_disabled":false,"rental_uris":{"android":"levelo://app?vid=1bd22906-96ca-46e0-9d37-90eff248c859","ios":"levelo://app?vid=1bd22906-96ca-46e0-9d37-90eff248c859"},"vehicle_type_id":"4","last_reported":1702393653,"current_range_meters":3200,"station_id":"ce4bhu92rcd13ifvqi70","pricing_plan_id":"free"},{"bike_id":"e5f8a3f9-ad33-4c96-8f80-c9bb436ceb1b","system_id":"levelo_inurba_marseille","lat":43.235785,"lon":5.410408,"is_reserved":false,"is_disabled":false,"rental_uris":{"android":"levelo://app?vid=e5f8a3f9-ad33-4c96-8f80-c9bb436ceb1b","ios":"levelo://app?vid=e5f8a3f9-ad33-4c96-8f80-c9bb436ceb1b"},"vehicle_type_id":"4","last_reported":1702393653,"current_range_meters":15200,"station_id":"","pricing_plan_id":"free"},{"bike_id":"9e3ccb6d-a105-4d45-aef9-97156cdb815f","system_id":"levelo_inurba_marseille","lat":43.231794,"lon":5.400052,"is_reserved":false,"is_disabled":false,"rental_uris":{"android":"levelo://app?vid=9e3ccb6d-a105-4d45-aef9-97156cdb815f","ios":"levelo://app?vid=9e3ccb6d-a105-4d45-aef9-97156cdb815f"},"vehicle_type_id":"4","last_reported":1702393653,"current_range_meters":26400,"station_id":"ce4bhn12rcd13ifvqgqg","pricing_plan_id":"free"},{"bike_id":"cbc2927c-6269-4362-a708-f04183187904","system_id":"levelo_inurba_marseille","lat":43.231793,"lon":5.400044,"is_reserved":false,"is_disabled":false,"rental_uris":{"android":"levelo://app?vid=cbc2927c-6269-4362-a708-f04183187904","ios":"levelo://app?vid=cbc2927c-6269-4362-a708-f04183187904"},"vehicle_type_id":"4","last_reported":1702393653,"current_range_meters":25200,"station_id":"ce4bhn12rcd13ifvqgqg","pricing_plan_id":"free"},{"bike_id":"25c6b94d-cc60-4af1-862f-1923b70fae6a","system_id":"levelo_inurba_marseille","lat":43.231794,"lon":5.400052,"is_reserved":false,"is_disabled":false,"rental_uris":{"android":"levelo://app?vid=25c6b94d-cc60-4af1-862f-1923b70fae6a","ios":"levelo://app?vid=25c6b94d-cc60-4af1-862f-1923b70fae6a"},"vehicle_type_id":"4","last_reported":1702393653,"current_range_meters":31200,"station_id":"ce4bhn12rcd13ifvqgqg","pricing_plan_id":"free"},{"bike_id":"51cb0188-23bc-4ac1-bd13-f5859171bba2","system_id":"levelo_inurba_marseille","lat":43.23149,"lon":5.4372,"is_reserved":false,"is_disabled":false,"rental_uris":{"android":"levelo://app?vid=51cb0188-23bc-4ac1-bd13-f5859171bba2","ios":"levelo://app?vid=51cb0188-23bc-4ac1-bd13-f5859171bba2"},"vehicle_type_id":"4","last_reported":1702393653,"current_range_meters":9200,"station_id":"ce4bhmp2rcd13ifvqgog","pricing_plan_id":"free"},{"bike_id":"b627e804-5f4b-4dc2-9890-937ddc812b9a","system_id":"levelo_inurba_marseille","lat":43.23147,"lon":5.43725,"is_reserved":false,"is_disabled":false,"rental_uris":{"android":"levelo://app?vid=b627e804-5f4b-4dc2-9890-937ddc812b9a","ios":"levelo://app?vid=b627e804-5f4b-4dc2-9890-937ddc812b9a"},"vehicle_type_id":"4","last_reported":1702393653,"current_range_meters":4400,"station_id":"ce4bhmp2rcd13ifvqgog","pricing_plan_id":"free"}]}}