{"last_updated":1742476721,"ttl":60,"version":"2.2","data":{"bikes":[{"bike_id":"b08da962-1469-4c21-88b0-98465f164d14","system_id":"levelo_inurba_marseille","lat":43.30145,"lon":5.39864,"is_reserved":false,"is_disabled":false,"rental_uris":{"android":"levelo://app?vid=b08da962-1469-4c21-88b0-98465f164d14","ios":"levelo://app?vid=b08da962-1469-4c21-88b0-98465f164d14"},"vehicle_type_id":"4","last_reported":1742476721,"current_range_meters":2000,"station_id":"ce4bh0h2rcd13ifvqd40","pricing_plan_id":"cebpf4jnsgd1na2vs0mg"},{"bike_id":"c7d0251d-52ec-404c-bb1f-05f81b72aa88","system_id":"levelo_inurba_marseille","lat":43.24805,"lon":5.37449,"is_reserved":false,"is_disabled":false,"rental_uris":{"android":"levelo://app?vid=c7d0251d-52ec-404c-bb1f-05f81b72aa88","ios":"levelo://app?vid=c7d0251d-52ec-404c-bb1f-05f81b72aa88"},"vehicle_type_id":"4","last_reported":1742476721,"current_range_meters":2800,"station_id":"ce4bhgh2rcd13ifvqfb0","pricing_plan_id":"cebpf4jnsgd1na2vs0mg"},{"bike_id":"39f2c671-7e26-4536-acc1-ca46ed3eeff2","system_id":"levelo_inurba_marseille","lat":43.29843,"lon":5.3627,"is_reserved":false,"is_disabled":false,"rental_uris":{"android":"levelo://app?vid=39f2c671-7e26-4536-acc1-ca46ed3eeff2","ios":"levelo://app?vid=39f2c671-7e26-4536-acc1-ca46ed3eeff2"},"vehicle_type_id":"4","last_reported":1742476721,"current_range_meters":3200,"station_id":"ce4bgpp2rcd13ifvqc3g","pricing_plan_id":"cebpf4jnsgd1na2vs0mg"},{"bike_id":"09966459-4f72-4f9d-b035-cee54a1877a5","system_id":"levelo_inurba_marseille","lat":43.31225,"lon":5.36879,"is_reserved":false,"is_disabled":false,"rental_uris":{"android":"levelo://app?vid=09966459-4f72-4f9d-b035-cee54a1877a5","ios":"levelo://app?vid=09966459-4f72-4f9d-b035-cee54a1877a5"},"vehicle_type_id":"4","last_reported":1742476721,"current_range_meters":2800,"station_id":"ce4bgl92rcd13ifvqbq0","pricing_plan_id":"cebpf4jnsgd1na2vs0mg"},{"bike_id":"bf0f281a-a379-46e2-9736-db925afa53be","system_id":"levelo_inurba_marseille","lat":43.29792,"lon":5.38101,"is_reserved":false,"is_disabled":false,"rental_uris":{"android":"levelo://app?vid=bf0f281a-a379-46e2-9736-db925afa53be","ios":"levelo://app?vid=bf0f281a-a379-46e2-9736-db925afa53be"},"vehicle_type_id":"4","last_reported":1742476721,"current_range_meters":2800,"station_id":"ce4bgip2rcd13ifvqbb0","pricing_plan_id":"cebpf4jnsgd1na2vs0mg"},{"bike_id":"26a32adc-4cec-4fa6-8e7c-13ceddf1d741","system_id":"levelo_inurba_marseille","lat":43.28405,"lon":5.37521,"is_reserved":false,"is_disabled":false,"rental_uris":{"android":"levelo://app?vid=26a32adc-4cec-4fa6-8e7c-13ceddf1d741","ios":"levelo://app?vid=26a32adc-4cec-4fa6-8e7c-13ceddf1d741"},"vehicle_type_id":"4","last_reported":1742476721,"current_range_meters":3200,"station_id":"ce4bh412rcd13ifvqds0","pricing_plan_id":"cebpf4jnsgd1na2vs0mg"},{"bike_id":"9721f9de-58f7-4a3b-913c-38d23974bce7","system_id":"levelo_inurba_marseille","lat":43.28415,"lon":5.34994,"is_reserved":false,"is_disabled":false,"rental_uris":{"android":"levelo://app?vid=9721f9de-58f7-4a3b-913c-38d23974bce7","ios":"levelo://app?vid=9721f9de-58f7-4a3b-913c-38d23974bce7"},"vehicle_type_id":"4","last_reported":1742476721,"current_range_meters":3200,"station_id":"ce4bhbh2rcd13ifvqepg","pricing_plan_id":"cebpf4jnsgd1na2vs0mg"},{"bike_id":"89ec0cd9-fb27-4a74-b399-65006010a265","system_id":"levelo_inurba_marseille","lat":43.24661,"lon":5.388873,"is_reserved":false,"is_disabled":false,"rental_uris":{"android":"levelo://app?vid=89ec0cd9-fb27-4a74-b399-65006010a265","ios":"levelo://app?vid=89ec0cd9-fb27-4a74-b399-65006010a265"},"vehicle_type_id":"4","last_reported":1742476721,"current_range_meters":3200,"station_id":"ce4bhg12rcd13ifvqf60","pricing_plan_id":"cebpf4jnsgd1na2vs0mg"},{"bike_id":"3e424286-259b-4659-a322-87e2ecea3a83","system_id":"levelo_inurba_marseille","lat":43.26793,"lon":5.39414,"is_reserved":false,"is_disabled":false,"rental_uris":{"android":"levelo://app?vid=3e424286-259b-4659-a322-87e2ecea3a83","ios":"levelo://app?vid=3e424286-259b-4659-a322-87e2ecea3a83"},"vehicle_type_id":"4","last_reported":1742476721,"current_range_meters":3200,"station_id":"ce4bhh12rcd13ifvqfg0","pricing_plan_id":"cebpf4jnsgd1na2vs0mg"},{"bike_id":"a342afa1-fe1b-4de5-8f98-f3f81167fac6","system_id":"levelo_inurba_marseille","lat":43.22937,"lon":5.35367,"is_reserved":false,"is_disabled":false,"rental_uris":{"android":"levelo://app?vid=a342afa1-fe1b-4de5-8f98-f3f81167fac6","ios":"levelo://app?vid=a342afa1-fe1b-4de5-8f98-f3f81167fac6"},"vehicle_type_id":"4","last_reported":1742476721,"current_range_meters":3200,"station_id":"cpo3532slgdg3j2ikp40","pricing_plan_id":"cebpf4jnsgd1na2vs0mg"},{"bike_id":"6c25cfbd-1f7a-41b1-9966-98ff041098e0","system_id":"levelo_inurba_marseille","lat":43.27378,"lon":5.36245,"is_reserved":false,"is_disabled":false,"rental_uris":{"android":"levelo://app?vid=6c25cfbd-1f7a-41b1-9966-98ff041098e0","ios":"levelo://app?vid=6c25cfbd-1f7a-41b1-9966-98ff041098e0"},"vehicle_type_id":"4","last_reported":1742476721,"current_range_meters":3200,"station_id":"ce4bhbh2rcd13ifvqeo0","pricing_plan_id":"cebpf4jnsgd1na2vs0mg"},{"bike_id":"28673c3c-146f-492e-8892-192f33e4f333","system_id":"levelo_inurba_marseille","lat":43.29013,"lon":5.35614,"is_reserved":false,"is_disabled":false,"rental_uris":{"android":"levelo://app?vid=28673c3c-146f-492e-8892-192f33e4f333","ios":"levelo://app?vid=28673c3c-146f-492e-8892-192f33e4f333"},"vehicle_type_id":"4","last_reported":1742476721,"current_range_meters":3200,"station_id":"ce4bhb92rcd13ifvqen0","pricing_plan_id":"cebpf4jnsgd1na2vs0mg"},{"bike_id":"ce28ec21-fe4c-4faa-8e7e-ce9767bd4ded","system_id":"levelo_inurba_marseille","lat":43.25838,"lon":5.39442,"is_reserved":false,"is_disabled":false,"rental_uris":{"android":"levelo://app?vid=ce28ec21-fe4c-4faa-8e7e-ce9767bd4ded","ios":"levelo://app?vid=ce28ec21-fe4c-4faa-8e7e-ce9767bd4ded"},"vehicle_type_id":"4","last_reported":1742476721,"current_range_meters":3200,"station_id":"ce4bhip2rcd13ifvqft0","pricing_plan_id":"cebpf4jnsgd1na2vs0mg"},{"bike_id":"324a8430-fb4c-4b65-9427-04efb4b749d4","system_id":"levelo_inurba_marseille","lat":43.29305,"lon":5.37183,"is_reserved":false,"is_disabled":false,"rental_uris":{"android":"levelo://app?vid=324a8430-fb4c-4b65-9427-04efb4b749d4","ios":"levelo://app?vid=324a8430-fb4c-4b65-9427-04efb4b749d4"},"vehicle_type_id":"4","last_reported":1742476721,"current_range_meters":3200,"station_id":"ce4bgh92rcd13ifvqb40","pricing_plan_id":"cebpf4jnsgd1na2vs0mg"},{"bike_id":"dd54d078-0430-4e24-8a85-86cbb7ba3036","system_id":"levelo_inurba_marseille","lat":43.28705,"lon":5.39994,"is_reserved":false,"is_disabled":false,"rental_uris":{"android":"levelo://app?vid=dd54d078-0430-4e24-8a85-86cbb7ba3036","ios":"levelo://app?vid=dd54d078-0430-4e24-8a85-86cbb7ba3036"},"vehicle_type_id":"4","last_reported":1742476721,"current_range_meters":400,"station_id":"ce4bho92rcd13ifvqh3g","pricing_plan_id":"cebpf4jnsgd1na2vs0mg"},{"bike_id":"1f2e2c23-852c-44e8-96b8-5b272dfc881b","system_id":"levelo_inurba_marseille","lat":43.27173,"lon":5.40994,"is_reserved":false,"is_disabled":false,"rental_uris":{"android":"levelo://app?vid=1f2e2c23-852c-44e8-96b8-5b272dfc881b","ios":"levelo://app?vid=1f2e2c23-852c-44e8-96b8-5b272dfc881b"},"vehicle_type_id":"4","last_reported":1742476721,"current_range_meters":3200,"station_id":"ce4bhl12rcd13ifvqgf0","pricing_plan_id":"cebpf4jnsgd1na2vs0mg"},{"bike_id":"f57bc806-2d17-46e5-aa47-f97a6310e976","system_id":"levelo_inurba_marseille","lat":43.28488,"lon":5.38416,"is_reserved":false,"is_disabled":false,"rental_uris":{"android":"levelo://app?vid=f57bc806-2d17-46e5-aa47-f97a6310e976","ios":"levelo://app?vid=f57bc806-2d17-46e5-aa47-f97a6310e976"},"vehicle_type_id":"4","last_reported":1742476721,"current_range_meters":3600,"station_id":"ce4bh512rcd13ifvqe3g","pricing_plan_id":"cebpf4jnsgd1na2vs0mg"},{"bike_id":"17894018-6e97-42fe-a8ec-e92b4d2eb934","system_id":"levelo_inurba_marseille","lat":43.28265,"lon":5.35065,"is_reserved":false,"is_disabled":false,"rental_uris":{"android":"levelo://app?vid=17894018-6e97-42fe-a8ec-e92b4d2eb934","ios":"levelo://app?vid=17894018-6e97-42fe-a8ec-e92b4d2eb934"},"vehicle_type_id":"4","last_reported":1742476721,"current_range_meters":3600,"station_id":"ce4bhbp2rcd13ifvqerg","pricing_plan_id":"cebpf4jnsgd1na2vs0mg"},{"bike_id":"2020db7b-c89e-4bed-b205-24c1338d8c92","system_id":"levelo_inurba_marseille","lat":43.28459,"lon":5.35878,"is_reserved":false,"is_disabled":false,"rental_uris":{"android":"levelo://app?vid=2020db7b-c89e-4bed-b205-24c1338d8c92","ios":"levelo://app?vid=2020db7b-c89e-4bed-b205-24c1338d8c92"},"vehicle_type_id":"4","last_reported":1742476721,"current_range_meters":3600,"station_id":"ce4bhah2rcd13ifvqei0","pricing_plan_id":"cebpf4jnsgd1na2vs0mg"},{"bike_id":"97678fe8-68f4-4ad6-9af8-34a7931474e9","system_id":"levelo_inurba_marseille","lat":43.28378,"lon":5.38645,"is_reserved":false,"is_disabled":false,"rental_uris":{"android":"levelo://app?vid=97678fe8-68f4-4ad6-9af8-34a7931474e9","ios":"levelo://app?vid=97678fe8-68f4-4ad6-9af8-34a7931474e9"},"vehicle_type_id":"4","last_reported":1742476721,"current_range_meters":3600,"station_id":"ce4bh492rcd13ifvqdvg","pricing_plan_id":"cebpf4jnsgd1na2vs0mg"},{"bike_id":"6e8b95b1-8856-49e5-81dd-69de6c1cf2a2","system_id":"levelo_inurba_marseille","lat":43.3238,"lon":5.38886,"is_reserved":false,"is_disabled":false,"rental_uris":{"android":"levelo://app?vid=6e8b95b1-8856-49e5-81dd-69de6c1cf2a2","ios":"levelo://app?vid=6e8b95b1-8856-49e5-81dd-69de6c1cf2a2"},"vehicle_type_id":"4","last_reported":1742476721,"current_range_meters":4000,"station_id":"ce4bhqp2rcd13ifvqhog","pricing_plan_id":"cebpf4jnsgd1na2vs0mg"},{"bike_id":"2866ed21-fd98-4384-9597-f4ff866b7f84","system_id":"levelo_inurba_marseille","lat":43.28952,"lon":5.364,"is_reserved":false,"is_disabled":false,"rental_uris":{"android":"levelo://app?vid=2866ed21-fd98-4384-9597-f4ff866b7f84","ios":"levelo://app?vid=2866ed21-fd98-4384-9597-f4ff866b7f84"},"vehicle_type_id":"4","last_reported":1742476721,"current_range_meters":4000,"station_id":"ce4bhc92rcd13ifvqetg","pricing_plan_id":"cebpf4jnsgd1na2vs0mg"},{"bike_id":"d57b31ee-bb8d-4926-a9ab-95f1fb506b09","system_id":"levelo_inurba_marseille","lat":43.2657,"lon":5.39002,"is_reserved":false,"is_disabled":false,"rental_uris":{"android":"levelo://app?vid=d57b31ee-bb8d-4926-a9ab-95f1fb506b09","ios":"levelo://app?vid=d57b31ee-bb8d-4926-a9ab-95f1fb506b09"},"vehicle_type_id":"4","last_reported":1742476721,"current_range_meters":4000,"station_id":"ce4bhe12rcd13ifvqf30","pricing_plan_id":"cebpf4jnsgd1na2vs0mg"},{"bike_id":"d1ddeca9-26b9-41f0-8e2c-1c506708671f","system_id":"levelo_inurba_marseille","lat":43.23194,"lon":5.39977,"is_reserved":false,"is_disabled":false,"rental_uris":{"android":"levelo://app?vid=d1ddeca9-26b9-41f0-8e2c-1c506708671f","ios":"levelo://app?vid=d1ddeca9-26b9-41f0-8e2c-1c506708671f"},"vehicle_type_id":"4","last_reported":1742476721,"current_range_meters":4000,"station_id":"ce4bhn12rcd13ifvqgqg","pricing_plan_id":"cebpf4jnsgd1na2vs0mg"},{"bike_id":"770a8d6d-1953-448c-92f8-5b95b03d16a0","system_id":"levelo_inurba_marseille","lat":43.23196,"lon":5.35545,"is_reserved":false,"is_disabled":false,"rental_uris":{"android":"levelo://app?vid=770a8d6d-1953-448c-92f8-5b95b03d16a0","ios":"levelo://app?vid=770a8d6d-1953-448c-92f8-5b95b03d16a0"},"vehicle_type_id":"4","last_reported":1742476721,"current_range_meters":4000,"station_id":"ce4bhu92rcd13ifvqi70","pricing_plan_id":"cebpf4jnsgd1na2vs0mg"},{"bike_id":"534d024e-03a1-42f5-9cef-44c0f30c8a24","system_id":"levelo_inurba_marseille","lat":43.26691,"lon":5.38269,"is_reserved":false,"is_disabled":false,"rental_uris":{"android":"levelo://app?vid=534d024e-03a1-42f5-9cef-44c0f30c8a24","ios":"levelo://app?vid=534d024e-03a1-42f5-9cef-44c0f30c8a24"},"vehicle_type_id":"4","last_reported":1742476721,"current_range_meters":4000,"station_id":"ce4bhg92rcd13ifvqf90","pricing_plan_id":"cebpf4jnsgd1na2vs0mg"},{"bike_id":"eb1150f3-3317-42ed-829e-f29cf3de9ad5","system_id":"levelo_inurba_marseille","lat":43.27493,"lon":5.42463,"is_reserved":false,"is_disabled":false,"rental_uris":{"android":"levelo://app?vid=eb1150f3-3317-42ed-829e-f29cf3de9ad5","ios":"levelo://app?vid=eb1150f3-3317-42ed-829e-f29cf3de9ad5"},"vehicle_type_id":"4","last_reported":1742476721,"current_range_meters":4400,"station_id":"ce4bhn92rcd13ifvqgrg","pricing_plan_id":"cebpf4jnsgd1na2vs0mg"},{"bike_id":"ae9b1099-a0c3-4c6b-94c3-7604b9ad0326","system_id":"levelo_inurba_marseille","lat":43.23964,"lon":5.36645,"is_reserved":false,"is_disabled":false,"rental_uris":{"android":"levelo://app?vid=ae9b1099-a0c3-4c6b-94c3-7604b9ad0326","ios":"levelo://app?vid=ae9b1099-a0c3-4c6b-94c3-7604b9ad0326"},"vehicle_type_id":"4","last_reported":1742476721,"current_range_meters":4400,"station_id":"ce4bhi12rcd13ifvqfp0","pricing_plan_id":"cebpf4jnsgd1na2vs0mg"},{"bike_id":"67b1bf2a-4ef5-4850-9d19-98ed82feb736","system_id":"levelo_inurba_marseille","lat":43.24648,"lon":5.38889,"is_reserved":false,"is_disabled":false,"rental_uris":{"android":"levelo://app?vid=67b1bf2a-4ef5-4850-9d19-98ed82feb736","ios":"levelo://app?vid=67b1bf2a-4ef5-4850-9d19-98ed82feb736"},"vehicle_type_id":"4","last_reported":1742476721,"current_range_meters":4800,"station_id":"ce4bhg12rcd13ifvqf60","pricing_plan_id":"cebpf4jnsgd1na2vs0mg"},{"bike_id":"3c0f86bf-2134-4462-a7ab-79aaede557c9","system_id":"levelo_inurba_marseille","lat":43.31724,"lon":5.4371,"is_reserved":false,"is_disabled":false,"rental_uris":{"android":"levelo://app?vid=3c0f86bf-2134-4462-a7ab-79aaede557c9","ios":"levelo://app?vid=3c0f86bf-2134-4462-a7ab-79aaede557c9"},"vehicle_type_id":"4","last_reported":1742476721,"current_range_meters":4800,"station_id":"ce4bhp92rcd13ifvqhcg","pricing_plan_id":"cebpf4jnsgd1na2vs0mg"},{"bike_id":"9a5410cf-9b30-456f-a93d-893789204ca4","system_id":"levelo_inurba_marseille","lat":43.29278,"lon":5.40116,"is_reserved":false,"is_disabled":false,"rental_uris":{"android":"levelo://app?vid=9a5410cf-9b30-456f-a93d-893789204ca4","ios":"levelo://app?vid=9a5410cf-9b30-456f-a93d-893789204ca4"},"vehicle_type_id":"4","last_reported":1742476721,"current_range_meters":4800,"station_id":"ce4bh312rcd13ifvqdk0","pricing_plan_id":"cebpf4jnsgd1na2vs0mg"},{"bike_id":"a045fb2a-2587-4994-9868-0340a87c6827","system_id":"levelo_inurba_marseille","lat":43.24667,"lon":5.38163,"is_reserved":false,"is_disabled":false,"rental_uris":{"android":"levelo://app?vid=a045fb2a-2587-4994-9868-0340a87c6827","ios":"levelo://app?vid=a045fb2a-2587-4994-9868-0340a87c6827"},"vehicle_type_id":"4","last_reported":1742476721,"current_range_meters":4800,"station_id":"ce4bhih2rcd13ifvqfr0","pricing_plan_id":"cebpf4jnsgd1na2vs0mg"},{"bike_id":"0eb63120-1511-4c1d-891a-145a4c928d20","system_id":"levelo_inurba_marseille","lat":43.302721,"lon":5.396832,"is_reserved":false,"is_disabled":false,"rental_uris":{"android":"levelo://app?vid=0eb63120-1511-4c1d-891a-145a4c928d20","ios":"levelo://app?vid=0eb63120-1511-4c1d-891a-145a4c928d20"},"vehicle_type_id":"4","last_reported":1742476721,"current_range_meters":5600,"station_id":"ce4bh0h2rcd13ifvqd60","pricing_plan_id":"cebpf4jnsgd1na2vs0mg"},{"bike_id":"1fe8cbb2-e61f-4748-8f3f-eff906305549","system_id":"levelo_inurba_marseille","lat":43.23074,"lon":5.35497,"is_reserved":false,"is_disabled":false,"rental_uris":{"android":"levelo://app?vid=1fe8cbb2-e61f-4748-8f3f-eff906305549","ios":"levelo://app?vid=1fe8cbb2-e61f-4748-8f3f-eff906305549"},"vehicle_type_id":"4","last_reported":1742476721,"current_range_meters":5600,"station_id":"cpo3342slgdg3j2ifvpg","pricing_plan_id":"cebpf4jnsgd1na2vs0mg"},{"bike_id":"b5e15382-51f5-4515-8a72-175f844083fa","system_id":"levelo_inurba_marseille","lat":43.30916,"lon":5.39033,"is_reserved":false,"is_disabled":true,"rental_uris":{"android":"levelo://app?vid=b5e15382-51f5-4515-8a72-175f844083fa","ios":"levelo://app?vid=b5e15382-51f5-4515-8a72-175f844083fa"},"vehicle_type_id":"4","last_reported":1742476721,"current_range_meters":5600,"station_id":"ce4bgup2rcd13ifvqco0","pricing_plan_id":"cebpf4jnsgd1na2vs0mg"},{"bike_id":"e7bf7612-c0a6-4c93-ae6d-e778d000c6c1","system_id":"levelo_inurba_marseille","lat":43.25583,"lon":5.38239,"is_reserved":false,"is_disabled":false,"rental_uris":{"android":"levelo://app?vid=e7bf7612-c0a6-4c93-ae6d-e778d000c6c1","ios":"levelo://app?vid=e7bf7612-c0a6-4c93-ae6d-e778d000c6c1"},"vehicle_type_id":"4","last_reported":1742476721,"current_range_meters":5600,"station_id":"ce4bhih2rcd13ifvqfs0","pricing_plan_id":"cebpf4jnsgd1na2vs0mg"},{"bike_id":"a28abf16-b269-4dd6-8a6b-7405838384a7","system_id":"levelo_inurba_marseille","lat":43.32484,"lon":5.36613,"is_reserved":false,"is_disabled":false,"rental_uris":{"android":"levelo://app?vid=a28abf16-b269-4dd6-8a6b-7405838384a7","ios":"levelo://app?vid=a28abf16-b269-4dd6-8a6b-7405838384a7"},"vehicle_type_id":"4","last_reported":1742476721,"current_range_meters":5600,"station_id":"ce4bhs12rcd13ifvqhvg","pricing_plan_id":"cebpf4jnsgd1na2vs0mg"},{"bike_id":"50c954ca-534e-44cb-b298-4b0e6941aece","system_id":"levelo_inurba_marseille","lat":43.27181,"lon":5.40985,"is_reserved":false,"is_disabled":false,"rental_uris":{"android":"levelo://app?vid=50c954ca-534e-44cb-b298-4b0e6941aece","ios":"levelo://app?vid=50c954ca-534e-44cb-b298-4b0e6941aece"},"vehicle_type_id":"4","last_reported":1742476721,"current_range_meters":5600,"station_id":"ce4bhl12rcd13ifvqgf0","pricing_plan_id":"cebpf4jnsgd1na2vs0mg"},{"bike_id":"8f4aba26-310a-4061-907d-dd7bcaaf0b61","system_id":"levelo_inurba_marseille","lat":43.2319,"lon":5.39987,"is_reserved":false,"is_disabled":false,"rental_uris":{"android":"levelo://app?vid=8f4aba26-310a-4061-907d-dd7bcaaf0b61","ios":"levelo://app?vid=8f4aba26-310a-4061-907d-dd7bcaaf0b61"},"vehicle_type_id":"4","last_reported":1742476721,"current_range_meters":6000,"station_id":"ce4bhn12rcd13ifvqgqg","pricing_plan_id":"cebpf4jnsgd1na2vs0mg"},{"bike_id":"6a0f3a39-eb69-489e-92ba-74db4f12a9ee","system_id":"levelo_inurba_marseille","lat":43.28422,"lon":5.34998,"is_reserved":false,"is_disabled":false,"rental_uris":{"android":"levelo://app?vid=6a0f3a39-eb69-489e-92ba-74db4f12a9ee","ios":"levelo://app?vid=6a0f3a39-eb69-489e-92ba-74db4f12a9ee"},"vehicle_type_id":"4","last_reported":1742476721,"current_range_meters":6000,"station_id":"ce4bhbh2rcd13ifvqepg","pricing_plan_id":"cebpf4jnsgd1na2vs0mg"},{"bike_id":"7c9cf1fe-d9a2-4001-a629-fcc670d7bf93","system_id":"levelo_inurba_marseille","lat":43.32661,"lon":5.40986,"is_reserved":false,"is_disabled":false,"rental_uris":{"android":"levelo://app?vid=7c9cf1fe-d9a2-4001-a629-fcc670d7bf93","ios":"levelo://app?vid=7c9cf1fe-d9a2-4001-a629-fcc670d7bf93"},"vehicle_type_id":"4","last_reported":1742476721,"current_range_meters":6000,"station_id":"ce4bhpp2rcd13ifvqhgg","pricing_plan_id":"cebpf4jnsgd1na2vs0mg"},{"bike_id":"6a1f91db-22ba-4837-b9bc-12ab942c79c1","system_id":"levelo_inurba_marseille","lat":43.28108,"lon":5.37846,"is_reserved":false,"is_disabled":false,"rental_uris":{"android":"levelo://app?vid=6a1f91db-22ba-4837-b9bc-12ab942c79c1","ios":"levelo://app?vid=6a1f91db-22ba-4837-b9bc-12ab942c79c1"},"vehicle_type_id":"4","last_reported":1742476721,"current_range_meters":6000,"station_id":"ce4bha12rcd13ifvqee0","pricing_plan_id":"cebpf4jnsgd1na2vs0mg"},{"bike_id":"a084d974-65ab-4534-af5d-c72abf231f53","system_id":"levelo_inurba_marseille","lat":43.30894,"lon":5.39658,"is_reserved":false,"is_disabled":false,"rental_uris":{"android":"levelo://app?vid=a084d974-65ab-4534-af5d-c72abf231f53","ios":"levelo://app?vid=a084d974-65ab-4534-af5d-c72abf231f53"},"vehicle_type_id":"4","last_reported":1742476721,"current_range_meters":5600,"station_id":"ce4bh012rcd13ifvqcv0","pricing_plan_id":"cebpf4jnsgd1na2vs0mg"},{"bike_id":"993d2714-547c-4476-9dd3-6c9b902155ff","system_id":"levelo_inurba_marseille","lat":43.282351,"lon":5.40835,"is_reserved":false,"is_disabled":false,"rental_uris":{"android":"levelo://app?vid=993d2714-547c-4476-9dd3-6c9b902155ff","ios":"levelo://app?vid=993d2714-547c-4476-9dd3-6c9b902155ff"},"vehicle_type_id":"4","last_reported":1742476721,"current_range_meters":5600,"station_id":"ce4bhnh2rcd13ifvqgtg","pricing_plan_id":"cebpf4jnsgd1na2vs0mg"},{"bike_id":"87f8221d-e2b7-49ed-a350-def01f2caf86","system_id":"levelo_inurba_marseille","lat":43.31654,"lon":5.37404,"is_reserved":false,"is_disabled":false,"rental_uris":{"android":"levelo://app?vid=87f8221d-e2b7-49ed-a350-def01f2caf86","ios":"levelo://app?vid=87f8221d-e2b7-49ed-a350-def01f2caf86"},"vehicle_type_id":"4","last_reported":1742476721,"current_range_meters":6000,"station_id":"","pricing_plan_id":"cebpf4jnsgd1na2vs0mg"},{"bike_id":"2fae07c9-076f-4c39-b921-5cc913ddefb5","system_id":"levelo_inurba_marseille","lat":43.31676,"lon":5.37379,"is_reserved":false,"is_disabled":false,"rental_uris":{"android":"levelo://app?vid=2fae07c9-076f-4c39-b921-5cc913ddefb5","ios":"levelo://app?vid=2fae07c9-076f-4c39-b921-5cc913ddefb5"},"vehicle_type_id":"4","last_reported":1742476721,"current_range_meters":6400,"station_id":"","pricing_plan_id":"cebpf4jnsgd1na2vs0mg"},{"bike_id":"5d6040da-a22d-4644-92cc-c182b7481377","system_id":"levelo_inurba_marseille","lat":43.2718,"lon":5.40986,"is_reserved":false,"is_disabled":false,"rental_uris":{"android":"levelo://app?vid=5d6040da-a22d-4644-92cc-c182b7481377","ios":"levelo://app?vid=5d6040da-a22d-4644-92cc-c182b7481377"},"vehicle_type_id":"4","last_reported":1742476721,"current_range_meters":6400,"station_id":"ce4bhl12rcd13ifvqgf0","pricing_plan_id":"cebpf4jnsgd1na2vs0mg"},{"bike_id":"4e0a029e-d1b7-445c-8044-a51b6ffb8f2e","system_id":"levelo_inurba_marseille","lat":43.31269,"lon":5.36767,"is_reserved":false,"is_disabled":false,"rental_uris":{"android":"levelo://app?vid=4e0a029e-d1b7-445c-8044-a51b6ffb8f2e","ios":"levelo://app?vid=4e0a029e-d1b7-445c-8044-a51b6ffb8f2e"},"vehicle_type_id":"4","last_reported":1742476721,"current_range_meters":6400,"station_id":"","pricing_plan_id":"cebpf4jnsgd1na2vs0mg"},{"bike_id":"73f85d1d-124b-497a-8456-bff76bec4b29","system_id":"levelo_inurba_marseille","lat":43.3118,"lon":5.38719,"is_reserved":false,"is_disabled":false,"rental_uris":{"android":"levelo://app?vid=73f85d1d-124b-497a-8456-bff76bec4b29","ios":"levelo://app?vid=73f85d1d-124b-497a-8456-bff76bec4b29"},"vehicle_type_id":"4","last_reported":1742476721,"current_range_meters":6800,"station_id":"ce4bgv12rcd13ifvqcp0","pricing_plan_id":"cebpf4jnsgd1na2vs0mg"},{"bike_id":"3455258b-4135-46b9-9a26-10bf95160e40","system_id":"levelo_inurba_marseille","lat":43.23192,"lon":5.35563,"is_reserved":false,"is_disabled":false,"rental_uris":{"android":"levelo://app?vid=3455258b-4135-46b9-9a26-10bf95160e40","ios":"levelo://app?vid=3455258b-4135-46b9-9a26-10bf95160e40"},"vehicle_type_id":"4","last_reported":1742476721,"current_range_meters":6400,"station_id":"ce4bhu92rcd13ifvqi70","pricing_plan_id":"cebpf4jnsgd1na2vs0mg"},{"bike_id":"e8e088d9-9159-4f4c-b612-b298d7438bba","system_id":"levelo_inurba_marseille","lat":43.29817,"lon":5.3811,"is_reserved":false,"is_disabled":false,"rental_uris":{"android":"levelo://app?vid=e8e088d9-9159-4f4c-b612-b298d7438bba","ios":"levelo://app?vid=e8e088d9-9159-4f4c-b612-b298d7438bba"},"vehicle_type_id":"4","last_reported":1742476721,"current_range_meters":6400,"station_id":"ce4bgip2rcd13ifvqbb0","pricing_plan_id":"cebpf4jnsgd1na2vs0mg"},{"bike_id":"0134c4eb-cb81-45fb-8190-07fb52725b22","system_id":"levelo_inurba_marseille","lat":43.27165,"lon":5.41007,"is_reserved":false,"is_disabled":false,"rental_uris":{"android":"levelo://app?vid=0134c4eb-cb81-45fb-8190-07fb52725b22","ios":"levelo://app?vid=0134c4eb-cb81-45fb-8190-07fb52725b22"},"vehicle_type_id":"4","last_reported":1742476721,"current_range_meters":6400,"station_id":"ce4bhl12rcd13ifvqgf0","pricing_plan_id":"cebpf4jnsgd1na2vs0mg"},{"bike_id":"2c19ccb2-df76-4ec4-bc02-1225f1ba868d","system_id":"levelo_inurba_marseille","lat":43.27497,"lon":5.42469,"is_reserved":false,"is_disabled":true,"rental_uris":{"android":"levelo://app?vid=2c19ccb2-df76-4ec4-bc02-1225f1ba868d","ios":"levelo://app?vid=2c19ccb2-df76-4ec4-bc02-1225f1ba868d"},"vehicle_type_id":"4","last_reported":1742476721,"current_range_meters":6400,"station_id":"","pricing_plan_id":"cebpf4jnsgd1na2vs0mg"},{"bike_id":"d0a24069-cb08-4879-8ddc-731ca8ca2549","system_id":"levelo_inurba_marseille","lat":43.23074,"lon":5.35486,"is_reserved":false,"is_disabled":false,"rental_uris":{"android":"levelo://app?vid=d0a24069-cb08-4879-8ddc-731ca8ca2549","ios":"levelo://app?vid=d0a24069-cb08-4879-8ddc-731ca8ca2549"},"vehicle_type_id":"4","last_reported":1742476721,"current_range_meters":6800,"station_id":"cpo3342slgdg3j2ifvpg","pricing_plan_id":"cebpf4jnsgd1na2vs0mg"},{"bike_id":"3058eb37-35b9-4277-898b-f9025638e045","system_id":"levelo_inurba_marseille","lat":43.25914,"lon":5.40886,"is_reserved":false,"is_disabled":false,"rental_uris":{"android":"levelo://app?vid=3058eb37-35b9-4277-898b-f9025638e045","ios":"levelo://app?vid=3058eb37-35b9-4277-898b-f9025638e045"},"vehicle_type_id":"4","last_reported":1742476721,"current_range_meters":6800,"station_id":"ce4bhm92rcd13ifvqglg","pricing_plan_id":"cebpf4jnsgd1na2vs0mg"},{"bike_id":"9e8dcf8e-6741-4644-b97d-cb8eb9d74684","system_id":"levelo_inurba_marseille","lat":43.30145,"lon":5.38081,"is_reserved":false,"is_disabled":false,"rental_uris":{"android":"levelo://app?vid=9e8dcf8e-6741-4644-b97d-cb8eb9d74684","ios":"levelo://app?vid=9e8dcf8e-6741-4644-b97d-cb8eb9d74684"},"vehicle_type_id":"4","last_reported":1742476721,"current_range_meters":6800,"station_id":"ce4bgjp2rcd13ifvqbh0","pricing_plan_id":"cebpf4jnsgd1na2vs0mg"},{"bike_id":"d45aa902-4bcb-471b-8a0f-8cdc3416ec8c","system_id":"levelo_inurba_marseille","lat":43.27596,"lon":5.36128,"is_reserved":false,"is_disabled":false,"rental_uris":{"android":"levelo://app?vid=d45aa902-4bcb-471b-8a0f-8cdc3416ec8c","ios":"levelo://app?vid=d45aa902-4bcb-471b-8a0f-8cdc3416ec8c"},"vehicle_type_id":"4","last_reported":1742476721,"current_range_meters":6800,"station_id":"ce4bgj92rcd13ifvqbe0","pricing_plan_id":"cebpf4jnsgd1na2vs0mg"},{"bike_id":"e2373ad1-2b50-4dc9-9234-06298adab2ab","system_id":"levelo_inurba_marseille","lat":43.2731,"lon":5.39116,"is_reserved":false,"is_disabled":false,"rental_uris":{"android":"levelo://app?vid=e2373ad1-2b50-4dc9-9234-06298adab2ab","ios":"levelo://app?vid=e2373ad1-2b50-4dc9-9234-06298adab2ab"},"vehicle_type_id":"4","last_reported":1742476721,"current_range_meters":6800,"station_id":"ce4bhgp2rcd13ifvqfe0","pricing_plan_id":"cebpf4jnsgd1na2vs0mg"},{"bike_id":"0f635bde-4e1c-4f1b-b735-23eeb41e0e5e","system_id":"levelo_inurba_marseille","lat":43.2397,"lon":5.36622,"is_reserved":false,"is_disabled":false,"rental_uris":{"android":"levelo://app?vid=0f635bde-4e1c-4f1b-b735-23eeb41e0e5e","ios":"levelo://app?vid=0f635bde-4e1c-4f1b-b735-23eeb41e0e5e"},"vehicle_type_id":"4","last_reported":1742476721,"current_range_meters":6800,"station_id":"ce4bhi12rcd13ifvqfp0","pricing_plan_id":"cebpf4jnsgd1na2vs0mg"},{"bike_id":"afd76fae-b42a-4726-93d3-479e6916b8aa","system_id":"levelo_inurba_marseille","lat":43.27175,"lon":5.40995,"is_reserved":false,"is_disabled":false,"rental_uris":{"android":"levelo://app?vid=afd76fae-b42a-4726-93d3-479e6916b8aa","ios":"levelo://app?vid=afd76fae-b42a-4726-93d3-479e6916b8aa"},"vehicle_type_id":"4","last_reported":1742476721,"current_range_meters":6800,"station_id":"ce4bhl12rcd13ifvqgf0","pricing_plan_id":"cebpf4jnsgd1na2vs0mg"},{"bike_id":"feee4f95-eaad-4cb7-a78d-fc3c31261f89","system_id":"levelo_inurba_marseille","lat":43.24682,"lon":5.38159,"is_reserved":false,"is_disabled":false,"rental_uris":{"android":"levelo://app?vid=feee4f95-eaad-4cb7-a78d-fc3c31261f89","ios":"levelo://app?vid=feee4f95-eaad-4cb7-a78d-fc3c31261f89"},"vehicle_type_id":"4","last_reported":1742476721,"current_range_meters":6800,"station_id":"ce4bhih2rcd13ifvqfr0","pricing_plan_id":"cebpf4jnsgd1na2vs0mg"},{"bike_id":"758493f8-5375-4668-b161-60908d5f8763","system_id":"levelo_inurba_marseille","lat":43.337444,"lon":5.374475,"is_reserved":false,"is_disabled":true,"rental_uris":{"android":"levelo://app?vid=758493f8-5375-4668-b161-60908d5f8763","ios":"levelo://app?vid=758493f8-5375-4668-b161-60908d5f8763"},"vehicle_type_id":"4","last_reported":1742476721,"current_range_meters":6800,"station_id":"","pricing_plan_id":"cebpf4jnsgd1na2vs0mg"},{"bike_id":"0054eef3-ee29-4a36-ab07-3d96b8ef5456","system_id":"levelo_inurba_marseille","lat":43.28737,"lon":5.37938,"is_reserved":false,"is_disabled":false,"rental_uris":{"android":"levelo://app?vid=0054eef3-ee29-4a36-ab07-3d96b8ef5456","ios":"levelo://app?vid=0054eef3-ee29-4a36-ab07-3d96b8ef5456"},"vehicle_type_id":"4","last_reported":1742476721,"current_range_meters":6800,"station_id":"ce4bh9p2rcd13ifvqec0","pricing_plan_id":"cebpf4jnsgd1na2vs0mg"},{"bike_id":"516a14f2-e527-4a6d-99db-d5ad118faf7c","system_id":"levelo_inurba_marseille","lat":43.25919,"lon":5.4088,"is_reserved":false,"is_disabled":false,"rental_uris":{"android":"levelo://app?vid=516a14f2-e527-4a6d-99db-d5ad118faf7c","ios":"levelo://app?vid=516a14f2-e527-4a6d-99db-d5ad118faf7c"},"vehicle_type_id":"4","last_reported":1742476721,"current_range_meters":6800,"station_id":"ce4bhm92rcd13ifvqglg","pricing_plan_id":"cebpf4jnsgd1na2vs0mg"},{"bike_id":"06d3f1c0-f428-429d-9ab3-e931004fbba8","system_id":"levelo_inurba_marseille","lat":43.27526,"lon":5.42438,"is_reserved":false,"is_disabled":false,"rental_uris":{"android":"levelo://app?vid=06d3f1c0-f428-429d-9ab3-e931004fbba8","ios":"levelo://app?vid=06d3f1c0-f428-429d-9ab3-e931004fbba8"},"vehicle_type_id":"4","last_reported":1742476721,"current_range_meters":3600,"station_id":"ce4bhn92rcd13ifvqgrg","pricing_plan_id":"cebpf4jnsgd1na2vs0mg"},{"bike_id":"fa0437cf-a815-4fee-83e9-6d3dae573a83","system_id":"levelo_inurba_marseille","lat":43.33736,"lon":5.39176,"is_reserved":false,"is_disabled":false,"rental_uris":{"android":"levelo://app?vid=fa0437cf-a815-4fee-83e9-6d3dae573a83","ios":"levelo://app?vid=fa0437cf-a815-4fee-83e9-6d3dae573a83"},"vehicle_type_id":"4","last_reported":1742476721,"current_range_meters":6800,"station_id":"ce4bhr92rcd13ifvqhsg","pricing_plan_id":"cebpf4jnsgd1na2vs0mg"},{"bike_id":"35971730-6c6f-4719-99f2-a8cdad28de63","system_id":"levelo_inurba_marseille","lat":43.298944,"lon":5.43673,"is_reserved":false,"is_disabled":false,"rental_uris":{"android":"levelo://app?vid=35971730-6c6f-4719-99f2-a8cdad28de63","ios":"levelo://app?vid=35971730-6c6f-4719-99f2-a8cdad28de63"},"vehicle_type_id":"4","last_reported":1742476721,"current_range_meters":6800,"station_id":"ce4bhpp2rcd13ifvqhfg","pricing_plan_id":"cebpf4jnsgd1na2vs0mg"},{"bike_id":"ea91aac8-fd90-4aa0-97fd-ec515209a88f","system_id":"levelo_inurba_marseille","lat":43.27957,"lon":5.38744,"is_reserved":false,"is_disabled":false,"rental_uris":{"android":"levelo://app?vid=ea91aac8-fd90-4aa0-97fd-ec515209a88f","ios":"levelo://app?vid=ea91aac8-fd90-4aa0-97fd-ec515209a88f"},"vehicle_type_id":"4","last_reported":1742476721,"current_range_meters":6800,"station_id":"ce4bhg12rcd13ifvqf80","pricing_plan_id":"cebpf4jnsgd1na2vs0mg"},{"bike_id":"c76a4d35-3f4b-4728-a54f-decfdc407403","system_id":"levelo_inurba_marseille","lat":43.24655,"lon":5.38159,"is_reserved":false,"is_disabled":false,"rental_uris":{"android":"levelo://app?vid=c76a4d35-3f4b-4728-a54f-decfdc407403","ios":"levelo://app?vid=c76a4d35-3f4b-4728-a54f-decfdc407403"},"vehicle_type_id":"4","last_reported":1742476721,"current_range_meters":7200,"station_id":"ce4bhih2rcd13ifvqfr0","pricing_plan_id":"cebpf4jnsgd1na2vs0mg"},{"bike_id":"0f0379d0-9e31-4d59-aa71-1b8fef29c39c","system_id":"levelo_inurba_marseille","lat":43.25641,"lon":5.41068,"is_reserved":false,"is_disabled":false,"rental_uris":{"android":"levelo://app?vid=0f0379d0-9e31-4d59-aa71-1b8fef29c39c","ios":"levelo://app?vid=0f0379d0-9e31-4d59-aa71-1b8fef29c39c"},"vehicle_type_id":"4","last_reported":1742476721,"current_range_meters":7200,"station_id":"","pricing_plan_id":"cebpf4jnsgd1na2vs0mg"},{"bike_id":"a27e9e25-06bf-4175-9bd6-9c00c02ad86d","system_id":"levelo_inurba_marseille","lat":43.24398,"lon":5.37066,"is_reserved":false,"is_disabled":false,"rental_uris":{"android":"levelo://app?vid=a27e9e25-06bf-4175-9bd6-9c00c02ad86d","ios":"levelo://app?vid=a27e9e25-06bf-4175-9bd6-9c00c02ad86d"},"vehicle_type_id":"4","last_reported":1742476721,"current_range_meters":7200,"station_id":"ce4bhhh2rcd13ifvqfk0","pricing_plan_id":"cebpf4jnsgd1na2vs0mg"},{"bike_id":"504ee4bc-f94f-46d1-b4aa-bb159ff861b7","system_id":"levelo_inurba_marseille","lat":43.27176,"lon":5.40991,"is_reserved":false,"is_disabled":false,"rental_uris":{"android":"levelo://app?vid=504ee4bc-f94f-46d1-b4aa-bb159ff861b7","ios":"levelo://app?vid=504ee4bc-f94f-46d1-b4aa-bb159ff861b7"},"vehicle_type_id":"4","last_reported":1742476721,"current_range_meters":7200,"station_id":"ce4bhl12rcd13ifvqgf0","pricing_plan_id":"cebpf4jnsgd1na2vs0mg"},{"bike_id":"73233ca8-538d-4717-8e73-c9ecd284ed12","system_id":"levelo_inurba_marseille","lat":43.29037,"lon":5.38625,"is_reserved":false,"is_disabled":false,"rental_uris":{"android":"levelo://app?vid=73233ca8-538d-4717-8e73-c9ecd284ed12","ios":"levelo://app?vid=73233ca8-538d-4717-8e73-c9ecd284ed12"},"vehicle_type_id":"4","last_reported":1742476721,"current_range_meters":7200,"station_id":"ce4bh4p2rcd13ifvqe0g","pricing_plan_id":"cebpf4jnsgd1na2vs0mg"},{"bike_id":"f8e532d6-e317-445d-91cb-19a6e01b4151","system_id":"levelo_inurba_marseille","lat":43.25924,"lon":5.40902,"is_reserved":false,"is_disabled":false,"rental_uris":{"android":"levelo://app?vid=f8e532d6-e317-445d-91cb-19a6e01b4151","ios":"levelo://app?vid=f8e532d6-e317-445d-91cb-19a6e01b4151"},"vehicle_type_id":"4","last_reported":1742476721,"current_range_meters":7200,"station_id":"ce4bhm92rcd13ifvqglg","pricing_plan_id":"cebpf4jnsgd1na2vs0mg"},{"bike_id":"1fea0b3c-94ab-41af-b18e-d9bbaa7dda49","system_id":"levelo_inurba_marseille","lat":43.31727,"lon":5.43691,"is_reserved":false,"is_disabled":false,"rental_uris":{"android":"levelo://app?vid=1fea0b3c-94ab-41af-b18e-d9bbaa7dda49","ios":"levelo://app?vid=1fea0b3c-94ab-41af-b18e-d9bbaa7dda49"},"vehicle_type_id":"4","last_reported":1742476721,"current_range_meters":7200,"station_id":"ce4bhp92rcd13ifvqhcg","pricing_plan_id":"cebpf4jnsgd1na2vs0mg"},{"bike_id":"24a62d5a-3514-4888-880e-8a2f7f2046a9","system_id":"levelo_inurba_marseille","lat":43.24077,"lon":5.37761,"is_reserved":false,"is_disabled":false,"rental_uris":{"android":"levelo://app?vid=24a62d5a-3514-4888-880e-8a2f7f2046a9","ios":"levelo://app?vid=24a62d5a-3514-4888-880e-8a2f7f2046a9"},"vehicle_type_id":"4","last_reported":1742476721,"current_range_meters":7200,"station_id":"ce4bhnp2rcd13ifvqgvg","pricing_plan_id":"cebpf4jnsgd1na2vs0mg"},{"bike_id":"c22de885-16c5-4c6e-b1c1-bd13bb312ed1","system_id":"levelo_inurba_marseille","lat":43.23074,"lon":5.35488,"is_reserved":false,"is_disabled":false,"rental_uris":{"android":"levelo://app?vid=c22de885-16c5-4c6e-b1c1-bd13bb312ed1","ios":"levelo://app?vid=c22de885-16c5-4c6e-b1c1-bd13bb312ed1"},"vehicle_type_id":"4","last_reported":1742476721,"current_range_meters":7200,"station_id":"cpo3342slgdg3j2ifvpg","pricing_plan_id":"cebpf4jnsgd1na2vs0mg"},{"bike_id":"a8b8dae1-87ef-4f8a-a2c8-fe9fd9bf0f77","system_id":"levelo_inurba_marseille","lat":43.23521,"lon":5.37762,"is_reserved":false,"is_disabled":false,"rental_uris":{"android":"levelo://app?vid=a8b8dae1-87ef-4f8a-a2c8-fe9fd9bf0f77","ios":"levelo://app?vid=a8b8dae1-87ef-4f8a-a2c8-fe9fd9bf0f77"},"vehicle_type_id":"4","last_reported":1742476721,"current_range_meters":8000,"station_id":"","pricing_plan_id":"cebpf4jnsgd1na2vs0mg"},{"bike_id":"51303281-4f04-43e8-b00c-08d0d12305ef","system_id":"levelo_inurba_marseille","lat":43.32665,"lon":5.40991,"is_reserved":false,"is_disabled":false,"rental_uris":{"android":"levelo://app?vid=51303281-4f04-43e8-b00c-08d0d12305ef","ios":"levelo://app?vid=51303281-4f04-43e8-b00c-08d0d12305ef"},"vehicle_type_id":"4","last_reported":1742476721,"current_range_meters":8000,"station_id":"ce4bhpp2rcd13ifvqhgg","pricing_plan_id":"cebpf4jnsgd1na2vs0mg"},{"bike_id":"bfd67b10-fd7c-4b25-bc6e-0830b23c1f4b","system_id":"levelo_inurba_marseille","lat":43.25826,"lon":5.39432,"is_reserved":false,"is_disabled":false,"rental_uris":{"android":"levelo://app?vid=bfd67b10-fd7c-4b25-bc6e-0830b23c1f4b","ios":"levelo://app?vid=bfd67b10-fd7c-4b25-bc6e-0830b23c1f4b"},"vehicle_type_id":"4","last_reported":1742476721,"current_range_meters":8000,"station_id":"ce4bhip2rcd13ifvqft0","pricing_plan_id":"cebpf4jnsgd1na2vs0mg"},{"bike_id":"02f43b01-3b74-45fa-a40e-2df823c84cda","system_id":"levelo_inurba_marseille","lat":43.24172,"lon":5.39699,"is_reserved":false,"is_disabled":false,"rental_uris":{"android":"levelo://app?vid=02f43b01-3b74-45fa-a40e-2df823c84cda","ios":"levelo://app?vid=02f43b01-3b74-45fa-a40e-2df823c84cda"},"vehicle_type_id":"4","last_reported":1742476721,"current_range_meters":8000,"station_id":"ce4bhn12rcd13ifvqgpg","pricing_plan_id":"cebpf4jnsgd1na2vs0mg"},{"bike_id":"9d26c008-8ec1-4269-9cd2-f45774f03ccb","system_id":"levelo_inurba_marseille","lat":43.27944,"lon":5.37934,"is_reserved":false,"is_disabled":false,"rental_uris":{"android":"levelo://app?vid=9d26c008-8ec1-4269-9cd2-f45774f03ccb","ios":"levelo://app?vid=9d26c008-8ec1-4269-9cd2-f45774f03ccb"},"vehicle_type_id":"4","last_reported":1742476721,"current_range_meters":8000,"station_id":"","pricing_plan_id":"cebpf4jnsgd1na2vs0mg"},{"bike_id":"ace03f6b-f2d6-45e9-8357-f872c39bd7e9","system_id":"levelo_inurba_marseille","lat":43.23192,"lon":5.35554,"is_reserved":false,"is_disabled":false,"rental_uris":{"android":"levelo://app?vid=ace03f6b-f2d6-45e9-8357-f872c39bd7e9","ios":"levelo://app?vid=ace03f6b-f2d6-45e9-8357-f872c39bd7e9"},"vehicle_type_id":"4","last_reported":1742476721,"current_range_meters":8000,"station_id":"ce4bhu92rcd13ifvqi70","pricing_plan_id":"cebpf4jnsgd1na2vs0mg"},{"bike_id":"b10c0e83-eb28-4985-8e8d-7d9f06100b49","system_id":"levelo_inurba_marseille","lat":43.28572,"lon":5.395,"is_reserved":false,"is_disabled":false,"rental_uris":{"android":"levelo://app?vid=b10c0e83-eb28-4985-8e8d-7d9f06100b49","ios":"levelo://app?vid=b10c0e83-eb28-4985-8e8d-7d9f06100b49"},"vehicle_type_id":"4","last_reported":1742476721,"current_range_meters":8400,"station_id":"ce4bh292rcd13ifvqdg0","pricing_plan_id":"cebpf4jnsgd1na2vs0mg"},{"bike_id":"bed4aaa6-72e4-4a47-a392-c371744a9538","system_id":"levelo_inurba_marseille","lat":43.2837,"lon":5.38638,"is_reserved":false,"is_disabled":false,"rental_uris":{"android":"levelo://app?vid=bed4aaa6-72e4-4a47-a392-c371744a9538","ios":"levelo://app?vid=bed4aaa6-72e4-4a47-a392-c371744a9538"},"vehicle_type_id":"4","last_reported":1742476721,"current_range_meters":8400,"station_id":"ce4bh492rcd13ifvqdvg","pricing_plan_id":"cebpf4jnsgd1na2vs0mg"},{"bike_id":"ed5cea79-0bea-4c86-8c80-f8de23687c7f","system_id":"levelo_inurba_marseille","lat":43.27493,"lon":5.43988,"is_reserved":false,"is_disabled":false,"rental_uris":{"android":"levelo://app?vid=ed5cea79-0bea-4c86-8c80-f8de23687c7f","ios":"levelo://app?vid=ed5cea79-0bea-4c86-8c80-f8de23687c7f"},"vehicle_type_id":"4","last_reported":1742476721,"current_range_meters":8400,"station_id":"","pricing_plan_id":"cebpf4jnsgd1na2vs0mg"},{"bike_id":"b7d7f342-1a92-4d45-8c3a-58d5270f4a90","system_id":"levelo_inurba_marseille","lat":43.259123,"lon":5.408769,"is_reserved":false,"is_disabled":false,"rental_uris":{"android":"levelo://app?vid=b7d7f342-1a92-4d45-8c3a-58d5270f4a90","ios":"levelo://app?vid=b7d7f342-1a92-4d45-8c3a-58d5270f4a90"},"vehicle_type_id":"4","last_reported":1742476721,"current_range_meters":8400,"station_id":"ce4bhm92rcd13ifvqglg","pricing_plan_id":"cebpf4jnsgd1na2vs0mg"},{"bike_id":"070ba091-59d4-4def-b3bc-85cbcce35c11","system_id":"levelo_inurba_marseille","lat":43.29571,"lon":5.39981,"is_reserved":false,"is_disabled":false,"rental_uris":{"android":"levelo://app?vid=070ba091-59d4-4def-b3bc-85cbcce35c11","ios":"levelo://app?vid=070ba091-59d4-4def-b3bc-85cbcce35c11"},"vehicle_type_id":"4","last_reported":1742476721,"current_range_meters":8000,"station_id":"ce4bh312rcd13ifvqdj0","pricing_plan_id":"cebpf4jnsgd1na2vs0mg"},{"bike_id":"f73ea29f-f283-48fd-b3f6-955c325c870d","system_id":"levelo_inurba_marseille","lat":43.25939,"lon":5.40924,"is_reserved":false,"is_disabled":false,"rental_uris":{"android":"levelo://app?vid=f73ea29f-f283-48fd-b3f6-955c325c870d","ios":"levelo://app?vid=f73ea29f-f283-48fd-b3f6-955c325c870d"},"vehicle_type_id":"4","last_reported":1742476721,"current_range_meters":8400,"station_id":"ce4bhm92rcd13ifvqglg","pricing_plan_id":"cebpf4jnsgd1na2vs0mg"},{"bike_id":"b9b5be6c-f86f-496e-b4a8-0c8057884a3d","system_id":"levelo_inurba_marseille","lat":43.26687,"lon":5.38269,"is_reserved":false,"is_disabled":false,"rental_uris":{"android":"levelo://app?vid=b9b5be6c-f86f-496e-b4a8-0c8057884a3d","ios":"levelo://app?vid=b9b5be6c-f86f-496e-b4a8-0c8057884a3d"},"vehicle_type_id":"4","last_reported":1742476721,"current_range_meters":8400,"station_id":"ce4bhg92rcd13ifvqf90","pricing_plan_id":"cebpf4jnsgd1na2vs0mg"},{"bike_id":"88e86119-e3da-4581-a0b1-1747519f01e3","system_id":"levelo_inurba_marseille","lat":43.31321,"lon":5.39699,"is_reserved":false,"is_disabled":false,"rental_uris":{"android":"levelo://app?vid=88e86119-e3da-4581-a0b1-1747519f01e3","ios":"levelo://app?vid=88e86119-e3da-4581-a0b1-1747519f01e3"},"vehicle_type_id":"4","last_reported":1742476721,"current_range_meters":8400,"station_id":"ce4bgvp2rcd13ifvqcu0","pricing_plan_id":"cebpf4jnsgd1na2vs0mg"},{"bike_id":"176d2e0b-da43-4b98-b92e-b45d4ab12b2f","system_id":"levelo_inurba_marseille","lat":43.30239,"lon":5.38446,"is_reserved":false,"is_disabled":false,"rental_uris":{"android":"levelo://app?vid=176d2e0b-da43-4b98-b92e-b45d4ab12b2f","ios":"levelo://app?vid=176d2e0b-da43-4b98-b92e-b45d4ab12b2f"},"vehicle_type_id":"4","last_reported":1742476721,"current_range_meters":8400,"station_id":"","pricing_plan_id":"cebpf4jnsgd1na2vs0mg"},{"bike_id":"6eb98e18-92f8-411c-92c0-82d5569fb85c","system_id":"levelo_inurba_marseille","lat":43.32343,"lon":5.36741,"is_reserved":false,"is_disabled":false,"rental_uris":{"android":"levelo://app?vid=6eb98e18-92f8-411c-92c0-82d5569fb85c","ios":"levelo://app?vid=6eb98e18-92f8-411c-92c0-82d5569fb85c"},"vehicle_type_id":"4","last_reported":1742476721,"current_range_meters":8800,"station_id":"ce4bhsh2rcd13ifvqi2g","pricing_plan_id":"cebpf4jnsgd1na2vs0mg"},{"bike_id":"ee2d4e07-ff9c-4a7b-9e71-b0e6e842d986","system_id":"levelo_inurba_marseille","lat":43.2953,"lon":5.37498,"is_reserved":false,"is_disabled":true,"rental_uris":{"android":"levelo://app?vid=ee2d4e07-ff9c-4a7b-9e71-b0e6e842d986","ios":"levelo://app?vid=ee2d4e07-ff9c-4a7b-9e71-b0e6e842d986"},"vehicle_type_id":"4","last_reported":1742476721,"current_range_meters":8800,"station_id":"ce4bgkp2rcd13ifvqbmg","pricing_plan_id":"cebpf4jnsgd1na2vs0mg"},{"bike_id":"df8fdc72-f4f0-42f3-90b7-957801e7040f","system_id":"levelo_inurba_marseille","lat":43.24083,"lon":5.37744,"is_reserved":false,"is_disabled":false,"rental_uris":{"android":"levelo://app?vid=df8fdc72-f4f0-42f3-90b7-957801e7040f","ios":"levelo://app?vid=df8fdc72-f4f0-42f3-90b7-957801e7040f"},"vehicle_type_id":"4","last_reported":1742476721,"current_range_meters":8800,"station_id":"ce4bhnp2rcd13ifvqgvg","pricing_plan_id":"cebpf4jnsgd1na2vs0mg"},{"bike_id":"f4c4bf6d-48a4-4198-942b-eda89b945e41","system_id":"levelo_inurba_marseille","lat":43.27367,"lon":5.36255,"is_reserved":false,"is_disabled":false,"rental_uris":{"android":"levelo://app?vid=f4c4bf6d-48a4-4198-942b-eda89b945e41","ios":"levelo://app?vid=f4c4bf6d-48a4-4198-942b-eda89b945e41"},"vehicle_type_id":"4","last_reported":1742476721,"current_range_meters":8800,"station_id":"ce4bhbh2rcd13ifvqeo0","pricing_plan_id":"cebpf4jnsgd1na2vs0mg"},{"bike_id":"e6c8473b-6f16-40c7-9d09-903e0bcd4e87","system_id":"levelo_inurba_marseille","lat":43.32575,"lon":5.41939,"is_reserved":false,"is_disabled":false,"rental_uris":{"android":"levelo://app?vid=e6c8473b-6f16-40c7-9d09-903e0bcd4e87","ios":"levelo://app?vid=e6c8473b-6f16-40c7-9d09-903e0bcd4e87"},"vehicle_type_id":"4","last_reported":1742476721,"current_range_meters":8800,"station_id":"","pricing_plan_id":"cebpf4jnsgd1na2vs0mg"},{"bike_id":"471b8c1a-1a85-4080-b533-fb41f3dbfd81","system_id":"levelo_inurba_marseille","lat":43.23201,"lon":5.35545,"is_reserved":false,"is_disabled":false,"rental_uris":{"android":"levelo://app?vid=471b8c1a-1a85-4080-b533-fb41f3dbfd81","ios":"levelo://app?vid=471b8c1a-1a85-4080-b533-fb41f3dbfd81"},"vehicle_type_id":"4","last_reported":1742476721,"current_range_meters":8800,"station_id":"ce4bhu92rcd13ifvqi70","pricing_plan_id":"cebpf4jnsgd1na2vs0mg"},{"bike_id":"97dd53ba-93f3-4994-a43c-245c31357955","system_id":"levelo_inurba_marseille","lat":43.2695,"lon":5.38674,"is_reserved":false,"is_disabled":false,"rental_uris":{"android":"levelo://app?vid=97dd53ba-93f3-4994-a43c-245c31357955","ios":"levelo://app?vid=97dd53ba-93f3-4994-a43c-245c31357955"},"vehicle_type_id":"4","last_reported":1742476721,"current_range_meters":8800,"station_id":"ce4bhh92rcd13ifvqfh0","pricing_plan_id":"cebpf4jnsgd1na2vs0mg"},{"bike_id":"0b74de9f-e2b4-4a02-b6c3-278b27f0b52d","system_id":"levelo_inurba_marseille","lat":43.23147,"lon":5.43718,"is_reserved":false,"is_disabled":false,"rental_uris":{"android":"levelo://app?vid=0b74de9f-e2b4-4a02-b6c3-278b27f0b52d","ios":"levelo://app?vid=0b74de9f-e2b4-4a02-b6c3-278b27f0b52d"},"vehicle_type_id":"4","last_reported":1742476721,"current_range_meters":8800,"station_id":"ce4bhmp2rcd13ifvqgog","pricing_plan_id":"cebpf4jnsgd1na2vs0mg"},{"bike_id":"2156f1fc-c1b8-48ef-9645-fa1d17b65e4a","system_id":"levelo_inurba_marseille","lat":43.27498,"lon":5.42447,"is_reserved":false,"is_disabled":false,"rental_uris":{"android":"levelo://app?vid=2156f1fc-c1b8-48ef-9645-fa1d17b65e4a","ios":"levelo://app?vid=2156f1fc-c1b8-48ef-9645-fa1d17b65e4a"},"vehicle_type_id":"4","last_reported":1742476721,"current_range_meters":8800,"station_id":"ce4bhn92rcd13ifvqgrg","pricing_plan_id":"cebpf4jnsgd1na2vs0mg"},{"bike_id":"6d3f830c-4185-4d92-aa5d-1c17ab550c3a","system_id":"levelo_inurba_marseille","lat":43.321073,"lon":5.367673,"is_reserved":false,"is_disabled":false,"rental_uris":{"android":"levelo://app?vid=6d3f830c-4185-4d92-aa5d-1c17ab550c3a","ios":"levelo://app?vid=6d3f830c-4185-4d92-aa5d-1c17ab550c3a"},"vehicle_type_id":"4","last_reported":1742476721,"current_range_meters":9600,"station_id":"ce4bhrh2rcd13ifvqhug","pricing_plan_id":"cebpf4jnsgd1na2vs0mg"},{"bike_id":"ac175b87-6392-45f4-b206-972201e6c7e6","system_id":"levelo_inurba_marseille","lat":43.30224,"lon":5.39459,"is_reserved":false,"is_disabled":false,"rental_uris":{"android":"levelo://app?vid=ac175b87-6392-45f4-b206-972201e6c7e6","ios":"levelo://app?vid=ac175b87-6392-45f4-b206-972201e6c7e6"},"vehicle_type_id":"4","last_reported":1742476721,"current_range_meters":9200,"station_id":"ce4bh0p2rcd13ifvqd70","pricing_plan_id":"cebpf4jnsgd1na2vs0mg"},{"bike_id":"9b2a4ae1-45d2-42a7-b1d8-970226b193d0","system_id":"levelo_inurba_marseille","lat":43.24165,"lon":5.39711,"is_reserved":false,"is_disabled":false,"rental_uris":{"android":"levelo://app?vid=9b2a4ae1-45d2-42a7-b1d8-970226b193d0","ios":"levelo://app?vid=9b2a4ae1-45d2-42a7-b1d8-970226b193d0"},"vehicle_type_id":"4","last_reported":1742476721,"current_range_meters":9200,"station_id":"ce4bhn12rcd13ifvqgpg","pricing_plan_id":"cebpf4jnsgd1na2vs0mg"},{"bike_id":"9b29acbc-225e-4060-9cfd-799eec522fc0","system_id":"levelo_inurba_marseille","lat":43.29596,"lon":5.38117,"is_reserved":false,"is_disabled":false,"rental_uris":{"android":"levelo://app?vid=9b29acbc-225e-4060-9cfd-799eec522fc0","ios":"levelo://app?vid=9b29acbc-225e-4060-9cfd-799eec522fc0"},"vehicle_type_id":"4","last_reported":1742476721,"current_range_meters":9200,"station_id":"ce4bgl12rcd13ifvqbo0","pricing_plan_id":"cebpf4jnsgd1na2vs0mg"},{"bike_id":"671210b1-9e8f-4893-953f-985ab8b97e34","system_id":"levelo_inurba_marseille","lat":43.3211,"lon":5.36774,"is_reserved":false,"is_disabled":false,"rental_uris":{"android":"levelo://app?vid=671210b1-9e8f-4893-953f-985ab8b97e34","ios":"levelo://app?vid=671210b1-9e8f-4893-953f-985ab8b97e34"},"vehicle_type_id":"4","last_reported":1742476721,"current_range_meters":9200,"station_id":"ce4bhrh2rcd13ifvqhug","pricing_plan_id":"cebpf4jnsgd1na2vs0mg"},{"bike_id":"9b1ab9d1-6497-43c1-8958-d421383bc8b1","system_id":"levelo_inurba_marseille","lat":43.24074,"lon":5.37762,"is_reserved":false,"is_disabled":false,"rental_uris":{"android":"levelo://app?vid=9b1ab9d1-6497-43c1-8958-d421383bc8b1","ios":"levelo://app?vid=9b1ab9d1-6497-43c1-8958-d421383bc8b1"},"vehicle_type_id":"4","last_reported":1742476721,"current_range_meters":9200,"station_id":"ce4bhnp2rcd13ifvqgvg","pricing_plan_id":"cebpf4jnsgd1na2vs0mg"},{"bike_id":"5bb77139-1578-4a8e-8114-9c0f2450d678","system_id":"levelo_inurba_marseille","lat":43.30551,"lon":5.36517,"is_reserved":false,"is_disabled":true,"rental_uris":{"android":"levelo://app?vid=5bb77139-1578-4a8e-8114-9c0f2450d678","ios":"levelo://app?vid=5bb77139-1578-4a8e-8114-9c0f2450d678"},"vehicle_type_id":"4","last_reported":1742476721,"current_range_meters":9200,"station_id":"ce4bgs12rcd13ifvqcag","pricing_plan_id":"cebpf4jnsgd1na2vs0mg"},{"bike_id":"1983241e-dcf4-412a-b965-b9e661a9d6d5","system_id":"levelo_inurba_marseille","lat":43.29853,"lon":5.40178,"is_reserved":false,"is_disabled":false,"rental_uris":{"android":"levelo://app?vid=1983241e-dcf4-412a-b965-b9e661a9d6d5","ios":"levelo://app?vid=1983241e-dcf4-412a-b965-b9e661a9d6d5"},"vehicle_type_id":"4","last_reported":1742476721,"current_range_meters":9200,"station_id":"","pricing_plan_id":"cebpf4jnsgd1na2vs0mg"},{"bike_id":"cb6062cd-3cfa-4917-b79b-5707b99e3c03","system_id":"levelo_inurba_marseille","lat":43.321185,"lon":5.367534,"is_reserved":false,"is_disabled":false,"rental_uris":{"android":"levelo://app?vid=cb6062cd-3cfa-4917-b79b-5707b99e3c03","ios":"levelo://app?vid=cb6062cd-3cfa-4917-b79b-5707b99e3c03"},"vehicle_type_id":"4","last_reported":1742476721,"current_range_meters":9600,"station_id":"ce4bho92rcd13ifvqh3g","pricing_plan_id":"cebpf4jnsgd1na2vs0mg"},{"bike_id":"f32def60-4f1a-4807-ac2f-c107a8732cdb","system_id":"levelo_inurba_marseille","lat":43.23153,"lon":5.43711,"is_reserved":false,"is_disabled":false,"rental_uris":{"android":"levelo://app?vid=f32def60-4f1a-4807-ac2f-c107a8732cdb","ios":"levelo://app?vid=f32def60-4f1a-4807-ac2f-c107a8732cdb"},"vehicle_type_id":"4","last_reported":1742476721,"current_range_meters":9600,"station_id":"ce4bhmp2rcd13ifvqgog","pricing_plan_id":"cebpf4jnsgd1na2vs0mg"},{"bike_id":"adf45155-6c44-423c-b527-aca2f88485fd","system_id":"levelo_inurba_marseille","lat":43.28926,"lon":5.38396,"is_reserved":false,"is_disabled":false,"rental_uris":{"android":"levelo://app?vid=adf45155-6c44-423c-b527-aca2f88485fd","ios":"levelo://app?vid=adf45155-6c44-423c-b527-aca2f88485fd"},"vehicle_type_id":"4","last_reported":1742476721,"current_range_meters":9600,"station_id":"ce4bh612rcd13ifvqe6g","pricing_plan_id":"cebpf4jnsgd1na2vs0mg"},{"bike_id":"12c8d64e-a113-46d0-a4a4-ed59d367ed5e","system_id":"levelo_inurba_marseille","lat":43.28409,"lon":5.37525,"is_reserved":false,"is_disabled":false,"rental_uris":{"android":"levelo://app?vid=12c8d64e-a113-46d0-a4a4-ed59d367ed5e","ios":"levelo://app?vid=12c8d64e-a113-46d0-a4a4-ed59d367ed5e"},"vehicle_type_id":"4","last_reported":1742476721,"current_range_meters":9600,"station_id":"ce4bh412rcd13ifvqds0","pricing_plan_id":"cebpf4jnsgd1na2vs0mg"},{"bike_id":"83193107-b9af-4265-a8cd-796183911dbe","system_id":"levelo_inurba_marseille","lat":43.24066,"lon":5.37772,"is_reserved":false,"is_disabled":false,"rental_uris":{"android":"levelo://app?vid=83193107-b9af-4265-a8cd-796183911dbe","ios":"levelo://app?vid=83193107-b9af-4265-a8cd-796183911dbe"},"vehicle_type_id":"4","last_reported":1742476721,"current_range_meters":9600,"station_id":"ce4bhnp2rcd13ifvqgvg","pricing_plan_id":"cebpf4jnsgd1na2vs0mg"},{"bike_id":"de84da4a-3571-420d-b198-b16185707696","system_id":"levelo_inurba_marseille","lat":43.2587,"lon":5.4097,"is_reserved":false,"is_disabled":false,"rental_uris":{"android":"levelo://app?vid=de84da4a-3571-420d-b198-b16185707696","ios":"levelo://app?vid=de84da4a-3571-420d-b198-b16185707696"},"vehicle_type_id":"4","last_reported":1742476721,"current_range_meters":9600,"station_id":"","pricing_plan_id":"cebpf4jnsgd1na2vs0mg"},{"bike_id":"b1602240-9f7b-4d3a-aec9-38d0314e2579","system_id":"levelo_inurba_marseille","lat":43.28611,"lon":5.35106,"is_reserved":false,"is_disabled":false,"rental_uris":{"android":"levelo://app?vid=b1602240-9f7b-4d3a-aec9-38d0314e2579","ios":"levelo://app?vid=b1602240-9f7b-4d3a-aec9-38d0314e2579"},"vehicle_type_id":"4","last_reported":1742476721,"current_range_meters":9600,"station_id":"ce4bhch2rcd13ifvqeug","pricing_plan_id":"cebpf4jnsgd1na2vs0mg"},{"bike_id":"d7645557-54c5-44ed-8c44-41e433a350da","system_id":"levelo_inurba_marseille","lat":43.29486,"lon":5.35565,"is_reserved":false,"is_disabled":false,"rental_uris":{"android":"levelo://app?vid=d7645557-54c5-44ed-8c44-41e433a350da","ios":"levelo://app?vid=d7645557-54c5-44ed-8c44-41e433a350da"},"vehicle_type_id":"4","last_reported":1742476721,"current_range_meters":9600,"station_id":"","pricing_plan_id":"cebpf4jnsgd1na2vs0mg"},{"bike_id":"6b4d3245-0ea0-4bf4-9273-dbfaae8fbb83","system_id":"levelo_inurba_marseille","lat":43.31269,"lon":5.40183,"is_reserved":false,"is_disabled":false,"rental_uris":{"android":"levelo://app?vid=6b4d3245-0ea0-4bf4-9273-dbfaae8fbb83","ios":"levelo://app?vid=6b4d3245-0ea0-4bf4-9273-dbfaae8fbb83"},"vehicle_type_id":"4","last_reported":1742476721,"current_range_meters":10000,"station_id":"ce4bh092rcd13ifvqd30","pricing_plan_id":"cebpf4jnsgd1na2vs0mg"},{"bike_id":"0d95e6a4-60fa-4989-a414-058ecea80aee","system_id":"levelo_inurba_marseille","lat":43.30547,"lon":5.36524,"is_reserved":false,"is_disabled":false,"rental_uris":{"android":"levelo://app?vid=0d95e6a4-60fa-4989-a414-058ecea80aee","ios":"levelo://app?vid=0d95e6a4-60fa-4989-a414-058ecea80aee"},"vehicle_type_id":"4","last_reported":1742476721,"current_range_meters":10000,"station_id":"ce4bgs12rcd13ifvqcag","pricing_plan_id":"cebpf4jnsgd1na2vs0mg"},{"bike_id":"7b5188f9-55f5-476b-94a8-e5d784ca45c6","system_id":"levelo_inurba_marseille","lat":43.25869,"lon":5.39902,"is_reserved":false,"is_disabled":false,"rental_uris":{"android":"levelo://app?vid=7b5188f9-55f5-476b-94a8-e5d784ca45c6","ios":"levelo://app?vid=7b5188f9-55f5-476b-94a8-e5d784ca45c6"},"vehicle_type_id":"4","last_reported":1742476721,"current_range_meters":9600,"station_id":"ce4bhl92rcd13ifvqghg","pricing_plan_id":"cebpf4jnsgd1na2vs0mg"},{"bike_id":"ce182464-32b0-40b3-81e6-c61a9815b891","system_id":"levelo_inurba_marseille","lat":43.2798,"lon":5.38746,"is_reserved":false,"is_disabled":false,"rental_uris":{"android":"levelo://app?vid=ce182464-32b0-40b3-81e6-c61a9815b891","ios":"levelo://app?vid=ce182464-32b0-40b3-81e6-c61a9815b891"},"vehicle_type_id":"4","last_reported":1742476721,"current_range_meters":10000,"station_id":"ce4bhg12rcd13ifvqf80","pricing_plan_id":"cebpf4jnsgd1na2vs0mg"},{"bike_id":"efb9ed43-dd51-4c99-a034-3cda93bac910","system_id":"levelo_inurba_marseille","lat":43.29943,"lon":5.36537,"is_reserved":false,"is_disabled":false,"rental_uris":{"android":"levelo://app?vid=efb9ed43-dd51-4c99-a034-3cda93bac910","ios":"levelo://app?vid=efb9ed43-dd51-4c99-a034-3cda93bac910"},"vehicle_type_id":"4","last_reported":1742476721,"current_range_meters":10000,"station_id":"ce4bgm92rcd13ifvqbr0","pricing_plan_id":"cebpf4jnsgd1na2vs0mg"},{"bike_id":"a0deeb6c-62a7-4efb-834c-1bec837aaba6","system_id":"levelo_inurba_marseille","lat":43.33716,"lon":5.37804,"is_reserved":false,"is_disabled":false,"rental_uris":{"android":"levelo://app?vid=a0deeb6c-62a7-4efb-834c-1bec837aaba6","ios":"levelo://app?vid=a0deeb6c-62a7-4efb-834c-1bec837aaba6"},"vehicle_type_id":"4","last_reported":1742476721,"current_range_meters":10000,"station_id":"","pricing_plan_id":"cebpf4jnsgd1na2vs0mg"},{"bike_id":"c34e1eb4-695a-47d2-9efe-b13fa6a7a54e","system_id":"levelo_inurba_marseille","lat":43.33589,"lon":5.41008,"is_reserved":false,"is_disabled":false,"rental_uris":{"android":"levelo://app?vid=c34e1eb4-695a-47d2-9efe-b13fa6a7a54e","ios":"levelo://app?vid=c34e1eb4-695a-47d2-9efe-b13fa6a7a54e"},"vehicle_type_id":"4","last_reported":1742476721,"current_range_meters":10000,"station_id":"ce4bhqh2rcd13ifvqhmg","pricing_plan_id":"cebpf4jnsgd1na2vs0mg"},{"bike_id":"e8d3a509-9897-44d8-853b-b0764a0a3880","system_id":"levelo_inurba_marseille","lat":43.28985,"lon":5.3784,"is_reserved":false,"is_disabled":false,"rental_uris":{"android":"levelo://app?vid=e8d3a509-9897-44d8-853b-b0764a0a3880","ios":"levelo://app?vid=e8d3a509-9897-44d8-853b-b0764a0a3880"},"vehicle_type_id":"4","last_reported":1742476721,"current_range_meters":10000,"station_id":"ce4bh9p2rcd13ifvqed0","pricing_plan_id":"cebpf4jnsgd1na2vs0mg"},{"bike_id":"85782564-15b3-42d4-8810-12088c1abb61","system_id":"levelo_inurba_marseille","lat":43.30174,"lon":5.38077,"is_reserved":false,"is_disabled":false,"rental_uris":{"android":"levelo://app?vid=85782564-15b3-42d4-8810-12088c1abb61","ios":"levelo://app?vid=85782564-15b3-42d4-8810-12088c1abb61"},"vehicle_type_id":"4","last_reported":1742476721,"current_range_meters":10000,"station_id":"ce4bgjp2rcd13ifvqbh0","pricing_plan_id":"cebpf4jnsgd1na2vs0mg"},{"bike_id":"481d7844-e0b3-4b65-8c82-039f5b7a0ed9","system_id":"levelo_inurba_marseille","lat":43.2873,"lon":5.36084,"is_reserved":false,"is_disabled":false,"rental_uris":{"android":"levelo://app?vid=481d7844-e0b3-4b65-8c82-039f5b7a0ed9","ios":"levelo://app?vid=481d7844-e0b3-4b65-8c82-039f5b7a0ed9"},"vehicle_type_id":"4","last_reported":1742476721,"current_range_meters":10800,"station_id":"cki0cbj6b192h4jlfktg","pricing_plan_id":"cebpf4jnsgd1na2vs0mg"},{"bike_id":"d4f7973b-5481-40ab-b1cc-10535c63e0c8","system_id":"levelo_inurba_marseille","lat":43.28436,"lon":5.37508,"is_reserved":false,"is_disabled":false,"rental_uris":{"android":"levelo://app?vid=d4f7973b-5481-40ab-b1cc-10535c63e0c8","ios":"levelo://app?vid=d4f7973b-5481-40ab-b1cc-10535c63e0c8"},"vehicle_type_id":"4","last_reported":1742476721,"current_range_meters":11200,"station_id":"ce4bh412rcd13ifvqds0","pricing_plan_id":"cebpf4jnsgd1na2vs0mg"},{"bike_id":"6641d614-2ae6-4c08-a02f-3cdb507a027a","system_id":"levelo_inurba_marseille","lat":43.26058,"lon":5.3938,"is_reserved":false,"is_disabled":false,"rental_uris":{"android":"levelo://app?vid=6641d614-2ae6-4c08-a02f-3cdb507a027a","ios":"levelo://app?vid=6641d614-2ae6-4c08-a02f-3cdb507a027a"},"vehicle_type_id":"4","last_reported":1742476721,"current_range_meters":10000,"station_id":"ce4bhh92rcd13ifvqfj0","pricing_plan_id":"cebpf4jnsgd1na2vs0mg"},{"bike_id":"7a142c40-c597-4214-96c7-c209a9ae0a3a","system_id":"levelo_inurba_marseille","lat":43.27496,"lon":5.42451,"is_reserved":false,"is_disabled":false,"rental_uris":{"android":"levelo://app?vid=7a142c40-c597-4214-96c7-c209a9ae0a3a","ios":"levelo://app?vid=7a142c40-c597-4214-96c7-c209a9ae0a3a"},"vehicle_type_id":"4","last_reported":1742476721,"current_range_meters":10800,"station_id":"ce4bhn92rcd13ifvqgrg","pricing_plan_id":"cebpf4jnsgd1na2vs0mg"},{"bike_id":"ffbee1c9-ab8d-45ee-b606-c546ab78c5f2","system_id":"levelo_inurba_marseille","lat":43.29741,"lon":5.3776,"is_reserved":false,"is_disabled":false,"rental_uris":{"android":"levelo://app?vid=ffbee1c9-ab8d-45ee-b606-c546ab78c5f2","ios":"levelo://app?vid=ffbee1c9-ab8d-45ee-b606-c546ab78c5f2"},"vehicle_type_id":"4","last_reported":1742476721,"current_range_meters":10800,"station_id":"","pricing_plan_id":"cebpf4jnsgd1na2vs0mg"},{"bike_id":"8243db06-e2ef-426c-a473-8f681558dd6b","system_id":"levelo_inurba_marseille","lat":43.29982,"lon":5.38491,"is_reserved":false,"is_disabled":false,"rental_uris":{"android":"levelo://app?vid=8243db06-e2ef-426c-a473-8f681558dd6b","ios":"levelo://app?vid=8243db06-e2ef-426c-a473-8f681558dd6b"},"vehicle_type_id":"4","last_reported":1742476721,"current_range_meters":10800,"station_id":"ce4bgj92rcd13ifvqbd0","pricing_plan_id":"cebpf4jnsgd1na2vs0mg"},{"bike_id":"ab53bd43-0fd9-40b0-bedd-84357013e2ab","system_id":"levelo_inurba_marseille","lat":43.25574,"lon":5.38249,"is_reserved":false,"is_disabled":false,"rental_uris":{"android":"levelo://app?vid=ab53bd43-0fd9-40b0-bedd-84357013e2ab","ios":"levelo://app?vid=ab53bd43-0fd9-40b0-bedd-84357013e2ab"},"vehicle_type_id":"4","last_reported":1742476721,"current_range_meters":10800,"station_id":"ce4bhih2rcd13ifvqfs0","pricing_plan_id":"cebpf4jnsgd1na2vs0mg"},{"bike_id":"b95a62fc-b408-4adc-8c2b-074acc23983d","system_id":"levelo_inurba_marseille","lat":43.27495,"lon":5.42457,"is_reserved":false,"is_disabled":false,"rental_uris":{"android":"levelo://app?vid=b95a62fc-b408-4adc-8c2b-074acc23983d","ios":"levelo://app?vid=b95a62fc-b408-4adc-8c2b-074acc23983d"},"vehicle_type_id":"4","last_reported":1742476721,"current_range_meters":10800,"station_id":"ce4bhn92rcd13ifvqgrg","pricing_plan_id":"cebpf4jnsgd1na2vs0mg"},{"bike_id":"067fb92d-3b64-43d5-9d88-fcb8897d2567","system_id":"levelo_inurba_marseille","lat":43.286,"lon":5.35199,"is_reserved":false,"is_disabled":false,"rental_uris":{"android":"levelo://app?vid=067fb92d-3b64-43d5-9d88-fcb8897d2567","ios":"levelo://app?vid=067fb92d-3b64-43d5-9d88-fcb8897d2567"},"vehicle_type_id":"4","last_reported":1742476721,"current_range_meters":10800,"station_id":"ce4bhch2rcd13ifvqeug","pricing_plan_id":"cebpf4jnsgd1na2vs0mg"},{"bike_id":"92f31abb-25e7-481b-baf0-01963f45f7b3","system_id":"levelo_inurba_marseille","lat":43.30552,"lon":5.36525,"is_reserved":false,"is_disabled":false,"rental_uris":{"android":"levelo://app?vid=92f31abb-25e7-481b-baf0-01963f45f7b3","ios":"levelo://app?vid=92f31abb-25e7-481b-baf0-01963f45f7b3"},"vehicle_type_id":"4","last_reported":1742476721,"current_range_meters":10800,"station_id":"ce4bgs12rcd13ifvqcag","pricing_plan_id":"cebpf4jnsgd1na2vs0mg"},{"bike_id":"5a744e10-af42-4895-8ea6-4be2388dba33","system_id":"levelo_inurba_marseille","lat":43.28442,"lon":5.39208,"is_reserved":false,"is_disabled":false,"rental_uris":{"android":"levelo://app?vid=5a744e10-af42-4895-8ea6-4be2388dba33","ios":"levelo://app?vid=5a744e10-af42-4895-8ea6-4be2388dba33"},"vehicle_type_id":"4","last_reported":1742476721,"current_range_meters":10800,"station_id":"ce4bhoh2rcd13ifvqh5g","pricing_plan_id":"cebpf4jnsgd1na2vs0mg"},{"bike_id":"6883c811-8746-429a-bd41-848ecf4dd19e","system_id":"levelo_inurba_marseille","lat":43.23523,"lon":5.37742,"is_reserved":false,"is_disabled":false,"rental_uris":{"android":"levelo://app?vid=6883c811-8746-429a-bd41-848ecf4dd19e","ios":"levelo://app?vid=6883c811-8746-429a-bd41-848ecf4dd19e"},"vehicle_type_id":"4","last_reported":1742476721,"current_range_meters":10800,"station_id":"","pricing_plan_id":"cebpf4jnsgd1na2vs0mg"},{"bike_id":"1d0da440-9eeb-4675-a2dc-ead8ee6f60ef","system_id":"levelo_inurba_marseille","lat":43.28621,"lon":5.35093,"is_reserved":false,"is_disabled":false,"rental_uris":{"android":"levelo://app?vid=1d0da440-9eeb-4675-a2dc-ead8ee6f60ef","ios":"levelo://app?vid=1d0da440-9eeb-4675-a2dc-ead8ee6f60ef"},"vehicle_type_id":"4","last_reported":1742476721,"current_range_meters":10800,"station_id":"ce4bhch2rcd13ifvqeug","pricing_plan_id":"cebpf4jnsgd1na2vs0mg"},{"bike_id":"181b1742-09ee-46ab-8712-67d8396af664","system_id":"levelo_inurba_marseille","lat":43.24179,"lon":5.39716,"is_reserved":false,"is_disabled":false,"rental_uris":{"android":"levelo://app?vid=181b1742-09ee-46ab-8712-67d8396af664","ios":"levelo://app?vid=181b1742-09ee-46ab-8712-67d8396af664"},"vehicle_type_id":"4","last_reported":1742476721,"current_range_meters":10800,"station_id":"ce4bhn12rcd13ifvqgpg","pricing_plan_id":"cebpf4jnsgd1na2vs0mg"},{"bike_id":"c5bb5dca-1dc9-450e-9a3d-9fa737cf345d","system_id":"levelo_inurba_marseille","lat":43.2468,"lon":5.38879,"is_reserved":false,"is_disabled":false,"rental_uris":{"android":"levelo://app?vid=c5bb5dca-1dc9-450e-9a3d-9fa737cf345d","ios":"levelo://app?vid=c5bb5dca-1dc9-450e-9a3d-9fa737cf345d"},"vehicle_type_id":"4","last_reported":1742476721,"current_range_meters":10800,"station_id":"ce4bhg12rcd13ifvqf60","pricing_plan_id":"cebpf4jnsgd1na2vs0mg"},{"bike_id":"b4f58fb9-f8fc-49f3-b537-d6ea695f1338","system_id":"levelo_inurba_marseille","lat":43.24667,"lon":5.38166,"is_reserved":false,"is_disabled":false,"rental_uris":{"android":"levelo://app?vid=b4f58fb9-f8fc-49f3-b537-d6ea695f1338","ios":"levelo://app?vid=b4f58fb9-f8fc-49f3-b537-d6ea695f1338"},"vehicle_type_id":"4","last_reported":1742476721,"current_range_meters":10800,"station_id":"ce4bhih2rcd13ifvqfr0","pricing_plan_id":"cebpf4jnsgd1na2vs0mg"},{"bike_id":"2e78a2bb-c8fd-40f0-816e-5e0fec01c77f","system_id":"levelo_inurba_marseille","lat":43.31315,"lon":5.36696,"is_reserved":false,"is_disabled":false,"rental_uris":{"android":"levelo://app?vid=2e78a2bb-c8fd-40f0-816e-5e0fec01c77f","ios":"levelo://app?vid=2e78a2bb-c8fd-40f0-816e-5e0fec01c77f"},"vehicle_type_id":"4","last_reported":1742476721,"current_range_meters":11200,"station_id":"ce4bgr92rcd13ifvqc6g","pricing_plan_id":"cebpf4jnsgd1na2vs0mg"},{"bike_id":"e4fa4be4-c48f-4bf6-af84-7a8304cec4b3","system_id":"levelo_inurba_marseille","lat":43.24171,"lon":5.39696,"is_reserved":false,"is_disabled":false,"rental_uris":{"android":"levelo://app?vid=e4fa4be4-c48f-4bf6-af84-7a8304cec4b3","ios":"levelo://app?vid=e4fa4be4-c48f-4bf6-af84-7a8304cec4b3"},"vehicle_type_id":"4","last_reported":1742476721,"current_range_meters":11200,"station_id":"ce4bhn12rcd13ifvqgpg","pricing_plan_id":"cebpf4jnsgd1na2vs0mg"},{"bike_id":"20421dec-436f-4569-bc46-a1403d57d946","system_id":"levelo_inurba_marseille","lat":43.29847,"lon":5.36269,"is_reserved":false,"is_disabled":false,"rental_uris":{"android":"levelo://app?vid=20421dec-436f-4569-bc46-a1403d57d946","ios":"levelo://app?vid=20421dec-436f-4569-bc46-a1403d57d946"},"vehicle_type_id":"4","last_reported":1742476721,"current_range_meters":11200,"station_id":"ce4bgpp2rcd13ifvqc3g","pricing_plan_id":"cebpf4jnsgd1na2vs0mg"},{"bike_id":"7ade570d-3604-49b0-810a-fdeff6c96512","system_id":"levelo_inurba_marseille","lat":43.292,"lon":5.39322,"is_reserved":false,"is_disabled":false,"rental_uris":{"android":"levelo://app?vid=7ade570d-3604-49b0-810a-fdeff6c96512","ios":"levelo://app?vid=7ade570d-3604-49b0-810a-fdeff6c96512"},"vehicle_type_id":"4","last_reported":1742476721,"current_range_meters":11600,"station_id":"ce4bh192rcd13ifvqdd0","pricing_plan_id":"cebpf4jnsgd1na2vs0mg"},{"bike_id":"24ea597e-5efe-4b0e-b607-64144170e3ec","system_id":"levelo_inurba_marseille","lat":43.28721,"lon":5.37943,"is_reserved":false,"is_disabled":false,"rental_uris":{"android":"levelo://app?vid=24ea597e-5efe-4b0e-b607-64144170e3ec","ios":"levelo://app?vid=24ea597e-5efe-4b0e-b607-64144170e3ec"},"vehicle_type_id":"4","last_reported":1742476721,"current_range_meters":11200,"station_id":"ce4bh9p2rcd13ifvqec0","pricing_plan_id":"cebpf4jnsgd1na2vs0mg"},{"bike_id":"5d140f11-2514-4c56-baaa-dbeb599f4ee3","system_id":"levelo_inurba_marseille","lat":43.26679,"lon":5.3827,"is_reserved":false,"is_disabled":false,"rental_uris":{"android":"levelo://app?vid=5d140f11-2514-4c56-baaa-dbeb599f4ee3","ios":"levelo://app?vid=5d140f11-2514-4c56-baaa-dbeb599f4ee3"},"vehicle_type_id":"4","last_reported":1742476721,"current_range_meters":10800,"station_id":"ce4bhg92rcd13ifvqf90","pricing_plan_id":"cebpf4jnsgd1na2vs0mg"},{"bike_id":"b9e4bdd0-024c-4547-9a94-39d0c7923642","system_id":"levelo_inurba_marseille","lat":43.24167,"lon":5.36416,"is_reserved":false,"is_disabled":false,"rental_uris":{"android":"levelo://app?vid=b9e4bdd0-024c-4547-9a94-39d0c7923642","ios":"levelo://app?vid=b9e4bdd0-024c-4547-9a94-39d0c7923642"},"vehicle_type_id":"4","last_reported":1742476721,"current_range_meters":11200,"station_id":"cpo36qri1sfpv3e86is0","pricing_plan_id":"cebpf4jnsgd1na2vs0mg"},{"bike_id":"92e37c2f-6ae1-4a8b-a488-97b3ecb4f583","system_id":"levelo_inurba_marseille","lat":43.29556,"lon":5.42283,"is_reserved":false,"is_disabled":false,"rental_uris":{"android":"levelo://app?vid=92e37c2f-6ae1-4a8b-a488-97b3ecb4f583","ios":"levelo://app?vid=92e37c2f-6ae1-4a8b-a488-97b3ecb4f583"},"vehicle_type_id":"4","last_reported":1742476721,"current_range_meters":11200,"station_id":"ce4bhph2rcd13ifvqhdg","pricing_plan_id":"cebpf4jnsgd1na2vs0mg"},{"bike_id":"d9f42609-0794-433b-b3d4-e891156e9823","system_id":"levelo_inurba_marseille","lat":43.25003,"lon":5.38924,"is_reserved":false,"is_disabled":false,"rental_uris":{"android":"levelo://app?vid=d9f42609-0794-433b-b3d4-e891156e9823","ios":"levelo://app?vid=d9f42609-0794-433b-b3d4-e891156e9823"},"vehicle_type_id":"4","last_reported":1742476721,"current_range_meters":11200,"station_id":"ce4bhgp2rcd13ifvqfd0","pricing_plan_id":"cebpf4jnsgd1na2vs0mg"},{"bike_id":"ec73b40e-cc3f-4ab6-85be-b8c3a3764b12","system_id":"levelo_inurba_marseille","lat":43.30884,"lon":5.39663,"is_reserved":false,"is_disabled":false,"rental_uris":{"android":"levelo://app?vid=ec73b40e-cc3f-4ab6-85be-b8c3a3764b12","ios":"levelo://app?vid=ec73b40e-cc3f-4ab6-85be-b8c3a3764b12"},"vehicle_type_id":"4","last_reported":1742476721,"current_range_meters":11600,"station_id":"ce4bh012rcd13ifvqcv0","pricing_plan_id":"cebpf4jnsgd1na2vs0mg"},{"bike_id":"4cb944c5-d4d2-4916-86e8-7284075c74ac","system_id":"levelo_inurba_marseille","lat":43.26026,"lon":5.37551,"is_reserved":false,"is_disabled":false,"rental_uris":{"android":"levelo://app?vid=4cb944c5-d4d2-4916-86e8-7284075c74ac","ios":"levelo://app?vid=4cb944c5-d4d2-4916-86e8-7284075c74ac"},"vehicle_type_id":"4","last_reported":1742476721,"current_range_meters":11600,"station_id":"ce4bhgh2rcd13ifvqfa0","pricing_plan_id":"cebpf4jnsgd1na2vs0mg"},{"bike_id":"6d912d52-cfce-4799-acca-e1dcfde97817","system_id":"levelo_inurba_marseille","lat":43.2318,"lon":5.39988,"is_reserved":false,"is_disabled":false,"rental_uris":{"android":"levelo://app?vid=6d912d52-cfce-4799-acca-e1dcfde97817","ios":"levelo://app?vid=6d912d52-cfce-4799-acca-e1dcfde97817"},"vehicle_type_id":"4","last_reported":1742476721,"current_range_meters":11600,"station_id":"ce4bhn12rcd13ifvqgqg","pricing_plan_id":"cebpf4jnsgd1na2vs0mg"},{"bike_id":"5269e028-8467-446e-9fc5-2da8714d5280","system_id":"levelo_inurba_marseille","lat":43.29275,"lon":5.36832,"is_reserved":false,"is_disabled":false,"rental_uris":{"android":"levelo://app?vid=5269e028-8467-446e-9fc5-2da8714d5280","ios":"levelo://app?vid=5269e028-8467-446e-9fc5-2da8714d5280"},"vehicle_type_id":"4","last_reported":1742476721,"current_range_meters":11600,"station_id":"ce4bhbp2rcd13ifvqesg","pricing_plan_id":"cebpf4jnsgd1na2vs0mg"},{"bike_id":"c5544639-2d44-4b2d-a154-7c53abb9719f","system_id":"levelo_inurba_marseille","lat":43.24063,"lon":5.37723,"is_reserved":false,"is_disabled":false,"rental_uris":{"android":"levelo://app?vid=c5544639-2d44-4b2d-a154-7c53abb9719f","ios":"levelo://app?vid=c5544639-2d44-4b2d-a154-7c53abb9719f"},"vehicle_type_id":"4","last_reported":1742476721,"current_range_meters":11600,"station_id":"ce4bhnp2rcd13ifvqgvg","pricing_plan_id":"cebpf4jnsgd1na2vs0mg"},{"bike_id":"d4ccba5b-0491-4fb3-b583-074afc615cf8","system_id":"levelo_inurba_marseille","lat":43.30429,"lon":5.39745,"is_reserved":false,"is_disabled":false,"rental_uris":{"android":"levelo://app?vid=d4ccba5b-0491-4fb3-b583-074afc615cf8","ios":"levelo://app?vid=d4ccba5b-0491-4fb3-b583-074afc615cf8"},"vehicle_type_id":"4","last_reported":1742476721,"current_range_meters":11600,"station_id":"ce4bh092rcd13ifvqd20","pricing_plan_id":"cebpf4jnsgd1na2vs0mg"},{"bike_id":"cfcd43ac-55d6-41fe-bcae-b87609468037","system_id":"levelo_inurba_marseille","lat":43.27661,"lon":5.38907,"is_reserved":false,"is_disabled":true,"rental_uris":{"android":"levelo://app?vid=cfcd43ac-55d6-41fe-bcae-b87609468037","ios":"levelo://app?vid=cfcd43ac-55d6-41fe-bcae-b87609468037"},"vehicle_type_id":"4","last_reported":1742476721,"current_range_meters":11600,"station_id":"ce4bhi12rcd13ifvqfo0","pricing_plan_id":"cebpf4jnsgd1na2vs0mg"},{"bike_id":"6370e802-1ce7-46b3-ab38-c299ec041499","system_id":"levelo_inurba_marseille","lat":43.26687,"lon":5.38268,"is_reserved":false,"is_disabled":false,"rental_uris":{"android":"levelo://app?vid=6370e802-1ce7-46b3-ab38-c299ec041499","ios":"levelo://app?vid=6370e802-1ce7-46b3-ab38-c299ec041499"},"vehicle_type_id":"4","last_reported":1742476721,"current_range_meters":11600,"station_id":"ce4bhg92rcd13ifvqf90","pricing_plan_id":"cebpf4jnsgd1na2vs0mg"},{"bike_id":"208631cd-3387-4e41-8f64-bd48453d1b77","system_id":"levelo_inurba_marseille","lat":43.29093,"lon":5.38136,"is_reserved":false,"is_disabled":false,"rental_uris":{"android":"levelo://app?vid=208631cd-3387-4e41-8f64-bd48453d1b77","ios":"levelo://app?vid=208631cd-3387-4e41-8f64-bd48453d1b77"},"vehicle_type_id":"4","last_reported":1742476721,"current_range_meters":11600,"station_id":"ce4bh512rcd13ifvqe2g","pricing_plan_id":"cebpf4jnsgd1na2vs0mg"},{"bike_id":"4c44c71d-64d5-4bb1-9445-5c9bbff69c6e","system_id":"levelo_inurba_marseille","lat":43.24105,"lon":5.37745,"is_reserved":false,"is_disabled":false,"rental_uris":{"android":"levelo://app?vid=4c44c71d-64d5-4bb1-9445-5c9bbff69c6e","ios":"levelo://app?vid=4c44c71d-64d5-4bb1-9445-5c9bbff69c6e"},"vehicle_type_id":"4","last_reported":1742476721,"current_range_meters":11600,"station_id":"ce4bhnp2rcd13ifvqgvg","pricing_plan_id":"cebpf4jnsgd1na2vs0mg"},{"bike_id":"10040ff5-09c7-4549-9697-fbeae20cf216","system_id":"levelo_inurba_marseille","lat":43.24658,"lon":5.38871,"is_reserved":false,"is_disabled":false,"rental_uris":{"android":"levelo://app?vid=10040ff5-09c7-4549-9697-fbeae20cf216","ios":"levelo://app?vid=10040ff5-09c7-4549-9697-fbeae20cf216"},"vehicle_type_id":"4","last_reported":1742476721,"current_range_meters":12000,"station_id":"ce4bhg12rcd13ifvqf60","pricing_plan_id":"cebpf4jnsgd1na2vs0mg"},{"bike_id":"8b822955-876b-4a35-ae38-897c81563b42","system_id":"levelo_inurba_marseille","lat":43.28368,"lon":5.38645,"is_reserved":false,"is_disabled":false,"rental_uris":{"android":"levelo://app?vid=8b822955-876b-4a35-ae38-897c81563b42","ios":"levelo://app?vid=8b822955-876b-4a35-ae38-897c81563b42"},"vehicle_type_id":"4","last_reported":1742476721,"current_range_meters":12000,"station_id":"ce4bh492rcd13ifvqdvg","pricing_plan_id":"cebpf4jnsgd1na2vs0mg"},{"bike_id":"d5aa0721-797f-4746-a0cb-a478a7f7ab51","system_id":"levelo_inurba_marseille","lat":43.29307,"lon":5.37183,"is_reserved":false,"is_disabled":false,"rental_uris":{"android":"levelo://app?vid=d5aa0721-797f-4746-a0cb-a478a7f7ab51","ios":"levelo://app?vid=d5aa0721-797f-4746-a0cb-a478a7f7ab51"},"vehicle_type_id":"4","last_reported":1742476721,"current_range_meters":11600,"station_id":"ce4bgh92rcd13ifvqb40","pricing_plan_id":"cebpf4jnsgd1na2vs0mg"},{"bike_id":"0ae8b85b-0c5d-4e11-9c4d-0c3c57c36aca","system_id":"levelo_inurba_marseille","lat":43.30579,"lon":5.36666,"is_reserved":false,"is_disabled":false,"rental_uris":{"android":"levelo://app?vid=0ae8b85b-0c5d-4e11-9c4d-0c3c57c36aca","ios":"levelo://app?vid=0ae8b85b-0c5d-4e11-9c4d-0c3c57c36aca"},"vehicle_type_id":"4","last_reported":1742476721,"current_range_meters":12400,"station_id":"","pricing_plan_id":"cebpf4jnsgd1na2vs0mg"},{"bike_id":"8d1667ce-2adc-431e-959e-13e7bce3e62f","system_id":"levelo_inurba_marseille","lat":43.31087,"lon":5.42415,"is_reserved":false,"is_disabled":false,"rental_uris":{"android":"levelo://app?vid=8d1667ce-2adc-431e-959e-13e7bce3e62f","ios":"levelo://app?vid=8d1667ce-2adc-431e-959e-13e7bce3e62f"},"vehicle_type_id":"4","last_reported":1742476721,"current_range_meters":12400,"station_id":"ce4bhp92rcd13ifvqhag","pricing_plan_id":"cebpf4jnsgd1na2vs0mg"},{"bike_id":"1d88d6ad-cc36-4cac-ba43-a0c0a09f760d","system_id":"levelo_inurba_marseille","lat":43.25007,"lon":5.38923,"is_reserved":false,"is_disabled":false,"rental_uris":{"android":"levelo://app?vid=1d88d6ad-cc36-4cac-ba43-a0c0a09f760d","ios":"levelo://app?vid=1d88d6ad-cc36-4cac-ba43-a0c0a09f760d"},"vehicle_type_id":"4","last_reported":1742476721,"current_range_meters":12400,"station_id":"ce4bhgp2rcd13ifvqfd0","pricing_plan_id":"cebpf4jnsgd1na2vs0mg"},{"bike_id":"353db73b-2f27-485a-a6f6-bde30ceef45e","system_id":"levelo_inurba_marseille","lat":43.320155,"lon":5.414089,"is_reserved":false,"is_disabled":false,"rental_uris":{"android":"levelo://app?vid=353db73b-2f27-485a-a6f6-bde30ceef45e","ios":"levelo://app?vid=353db73b-2f27-485a-a6f6-bde30ceef45e"},"vehicle_type_id":"4","last_reported":1742476721,"current_range_meters":12000,"station_id":"ce4bhqh2rcd13ifvqhmg","pricing_plan_id":"cebpf4jnsgd1na2vs0mg"},{"bike_id":"d88871c7-84ca-4733-bb3b-a22d1cf9f7c3","system_id":"levelo_inurba_marseille","lat":43.25576,"lon":5.3824,"is_reserved":false,"is_disabled":false,"rental_uris":{"android":"levelo://app?vid=d88871c7-84ca-4733-bb3b-a22d1cf9f7c3","ios":"levelo://app?vid=d88871c7-84ca-4733-bb3b-a22d1cf9f7c3"},"vehicle_type_id":"4","last_reported":1742476721,"current_range_meters":12400,"station_id":"ce4bhih2rcd13ifvqfs0","pricing_plan_id":"cebpf4jnsgd1na2vs0mg"},{"bike_id":"ff43cedd-1f0c-437e-b994-18caa88f5862","system_id":"levelo_inurba_marseille","lat":43.29934,"lon":5.3656,"is_reserved":false,"is_disabled":false,"rental_uris":{"android":"levelo://app?vid=ff43cedd-1f0c-437e-b994-18caa88f5862","ios":"levelo://app?vid=ff43cedd-1f0c-437e-b994-18caa88f5862"},"vehicle_type_id":"4","last_reported":1742476721,"current_range_meters":12800,"station_id":"ce4bgm92rcd13ifvqbr0","pricing_plan_id":"cebpf4jnsgd1na2vs0mg"},{"bike_id":"f564ac17-24cc-4d7b-aa44-a8a5453d8dcb","system_id":"levelo_inurba_marseille","lat":43.31717,"lon":5.37727,"is_reserved":false,"is_disabled":false,"rental_uris":{"android":"levelo://app?vid=f564ac17-24cc-4d7b-aa44-a8a5453d8dcb","ios":"levelo://app?vid=f564ac17-24cc-4d7b-aa44-a8a5453d8dcb"},"vehicle_type_id":"4","last_reported":1742476721,"current_range_meters":12400,"station_id":"ce4bgth2rcd13ifvqch0","pricing_plan_id":"cebpf4jnsgd1na2vs0mg"},{"bike_id":"e74fce09-490e-4ae2-9de7-a533dd9876c1","system_id":"levelo_inurba_marseille","lat":43.23135,"lon":5.43704,"is_reserved":false,"is_disabled":false,"rental_uris":{"android":"levelo://app?vid=e74fce09-490e-4ae2-9de7-a533dd9876c1","ios":"levelo://app?vid=e74fce09-490e-4ae2-9de7-a533dd9876c1"},"vehicle_type_id":"4","last_reported":1742476721,"current_range_meters":12800,"station_id":"ce4bhmp2rcd13ifvqgog","pricing_plan_id":"cebpf4jnsgd1na2vs0mg"},{"bike_id":"854e39d3-5860-46d2-8f3b-903f8f094ba9","system_id":"levelo_inurba_marseille","lat":43.31173,"lon":5.38724,"is_reserved":false,"is_disabled":false,"rental_uris":{"android":"levelo://app?vid=854e39d3-5860-46d2-8f3b-903f8f094ba9","ios":"levelo://app?vid=854e39d3-5860-46d2-8f3b-903f8f094ba9"},"vehicle_type_id":"4","last_reported":1742476721,"current_range_meters":12400,"station_id":"ce4bgv12rcd13ifvqcp0","pricing_plan_id":"cebpf4jnsgd1na2vs0mg"},{"bike_id":"c169c3ed-b0b4-46a8-b8f6-cf446124b8df","system_id":"levelo_inurba_marseille","lat":43.24659,"lon":5.38161,"is_reserved":false,"is_disabled":false,"rental_uris":{"android":"levelo://app?vid=c169c3ed-b0b4-46a8-b8f6-cf446124b8df","ios":"levelo://app?vid=c169c3ed-b0b4-46a8-b8f6-cf446124b8df"},"vehicle_type_id":"4","last_reported":1742476721,"current_range_meters":12800,"station_id":"ce4bhih2rcd13ifvqfr0","pricing_plan_id":"cebpf4jnsgd1na2vs0mg"},{"bike_id":"7f413815-a4c0-4e54-9ddf-802388b83474","system_id":"levelo_inurba_marseille","lat":43.3135,"lon":5.39659,"is_reserved":false,"is_disabled":false,"rental_uris":{"android":"levelo://app?vid=7f413815-a4c0-4e54-9ddf-802388b83474","ios":"levelo://app?vid=7f413815-a4c0-4e54-9ddf-802388b83474"},"vehicle_type_id":"4","last_reported":1742476721,"current_range_meters":12800,"station_id":"ce4bgvp2rcd13ifvqcu0","pricing_plan_id":"cebpf4jnsgd1na2vs0mg"},{"bike_id":"1c3b5361-695c-4ccc-94f9-aca7f37b6d45","system_id":"levelo_inurba_marseille","lat":43.23194,"lon":5.35562,"is_reserved":false,"is_disabled":false,"rental_uris":{"android":"levelo://app?vid=1c3b5361-695c-4ccc-94f9-aca7f37b6d45","ios":"levelo://app?vid=1c3b5361-695c-4ccc-94f9-aca7f37b6d45"},"vehicle_type_id":"4","last_reported":1742476721,"current_range_meters":13600,"station_id":"ce4bhu92rcd13ifvqi70","pricing_plan_id":"cebpf4jnsgd1na2vs0mg"},{"bike_id":"16dd521d-50df-4f0b-a335-57ba62bdd742","system_id":"levelo_inurba_marseille","lat":43.24077,"lon":5.37753,"is_reserved":false,"is_disabled":false,"rental_uris":{"android":"levelo://app?vid=16dd521d-50df-4f0b-a335-57ba62bdd742","ios":"levelo://app?vid=16dd521d-50df-4f0b-a335-57ba62bdd742"},"vehicle_type_id":"4","last_reported":1742476721,"current_range_meters":13600,"station_id":"ce4bhnp2rcd13ifvqgvg","pricing_plan_id":"cebpf4jnsgd1na2vs0mg"},{"bike_id":"8dd12a5d-b606-4d5f-a85a-92afae50cd61","system_id":"levelo_inurba_marseille","lat":43.24387,"lon":5.37058,"is_reserved":false,"is_disabled":false,"rental_uris":{"android":"levelo://app?vid=8dd12a5d-b606-4d5f-a85a-92afae50cd61","ios":"levelo://app?vid=8dd12a5d-b606-4d5f-a85a-92afae50cd61"},"vehicle_type_id":"4","last_reported":1742476721,"current_range_meters":14800,"station_id":"ce4bhhh2rcd13ifvqfk0","pricing_plan_id":"cebpf4jnsgd1na2vs0mg"},{"bike_id":"89931dd0-537e-48bf-be5a-31a31475b33b","system_id":"levelo_inurba_marseille","lat":43.30319,"lon":5.36897,"is_reserved":false,"is_disabled":false,"rental_uris":{"android":"levelo://app?vid=89931dd0-537e-48bf-be5a-31a31475b33b","ios":"levelo://app?vid=89931dd0-537e-48bf-be5a-31a31475b33b"},"vehicle_type_id":"4","last_reported":1742476721,"current_range_meters":13600,"station_id":"ce4bgqh2rcd13ifvqc5g","pricing_plan_id":"cebpf4jnsgd1na2vs0mg"},{"bike_id":"5ab8203f-eb0f-4226-8b1b-c576589f6cc2","system_id":"levelo_inurba_marseille","lat":43.23188,"lon":5.39983,"is_reserved":false,"is_disabled":false,"rental_uris":{"android":"levelo://app?vid=5ab8203f-eb0f-4226-8b1b-c576589f6cc2","ios":"levelo://app?vid=5ab8203f-eb0f-4226-8b1b-c576589f6cc2"},"vehicle_type_id":"4","last_reported":1742476721,"current_range_meters":13600,"station_id":"ce4bhn12rcd13ifvqgqg","pricing_plan_id":"cebpf4jnsgd1na2vs0mg"},{"bike_id":"42510201-02b4-4f38-82bc-9dc134d4342c","system_id":"levelo_inurba_marseille","lat":43.22927,"lon":5.3535,"is_reserved":false,"is_disabled":false,"rental_uris":{"android":"levelo://app?vid=42510201-02b4-4f38-82bc-9dc134d4342c","ios":"levelo://app?vid=42510201-02b4-4f38-82bc-9dc134d4342c"},"vehicle_type_id":"4","last_reported":1742476721,"current_range_meters":13600,"station_id":"cpo3532slgdg3j2ikp40","pricing_plan_id":"cebpf4jnsgd1na2vs0mg"},{"bike_id":"aa4da1cd-bb52-4005-9098-ae901ea07a72","system_id":"levelo_inurba_marseille","lat":43.32287,"lon":5.38274,"is_reserved":false,"is_disabled":false,"rental_uris":{"android":"levelo://app?vid=aa4da1cd-bb52-4005-9098-ae901ea07a72","ios":"levelo://app?vid=aa4da1cd-bb52-4005-9098-ae901ea07a72"},"vehicle_type_id":"4","last_reported":1742476721,"current_range_meters":12800,"station_id":"ce4bhr12rcd13ifvqhqg","pricing_plan_id":"cebpf4jnsgd1na2vs0mg"},{"bike_id":"c7e0e5a2-27b7-4c47-9a8a-6aae29c85ebf","system_id":"levelo_inurba_marseille","lat":43.3061,"lon":5.37226,"is_reserved":false,"is_disabled":false,"rental_uris":{"android":"levelo://app?vid=c7e0e5a2-27b7-4c47-9a8a-6aae29c85ebf","ios":"levelo://app?vid=c7e0e5a2-27b7-4c47-9a8a-6aae29c85ebf"},"vehicle_type_id":"4","last_reported":1742476721,"current_range_meters":12800,"station_id":"ce4bgqh2rcd13ifvqc4g","pricing_plan_id":"cebpf4jnsgd1na2vs0mg"},{"bike_id":"33eac996-04c1-4244-862e-d262aa2b7f9f","system_id":"levelo_inurba_marseille","lat":43.29934,"lon":5.36511,"is_reserved":false,"is_disabled":false,"rental_uris":{"android":"levelo://app?vid=33eac996-04c1-4244-862e-d262aa2b7f9f","ios":"levelo://app?vid=33eac996-04c1-4244-862e-d262aa2b7f9f"},"vehicle_type_id":"4","last_reported":1742476721,"current_range_meters":13600,"station_id":"ce4bgm92rcd13ifvqbr0","pricing_plan_id":"cebpf4jnsgd1na2vs0mg"},{"bike_id":"bb657bda-96fd-4cbb-a0e8-4bafe9c06e5c","system_id":"levelo_inurba_marseille","lat":43.26947,"lon":5.38904,"is_reserved":false,"is_disabled":false,"rental_uris":{"android":"levelo://app?vid=bb657bda-96fd-4cbb-a0e8-4bafe9c06e5c","ios":"levelo://app?vid=bb657bda-96fd-4cbb-a0e8-4bafe9c06e5c"},"vehicle_type_id":"4","last_reported":1742476721,"current_range_meters":13600,"station_id":"ce4bhhh2rcd13ifvqfl0","pricing_plan_id":"cebpf4jnsgd1na2vs0mg"},{"bike_id":"becc46fd-297c-4448-b069-5feb84f4b379","system_id":"levelo_inurba_marseille","lat":43.28418,"lon":5.3751,"is_reserved":false,"is_disabled":false,"rental_uris":{"android":"levelo://app?vid=becc46fd-297c-4448-b069-5feb84f4b379","ios":"levelo://app?vid=becc46fd-297c-4448-b069-5feb84f4b379"},"vehicle_type_id":"4","last_reported":1742476721,"current_range_meters":13600,"station_id":"ce4bh412rcd13ifvqds0","pricing_plan_id":"cebpf4jnsgd1na2vs0mg"},{"bike_id":"83fe4b7d-c313-402b-a1b1-9f765824d193","system_id":"levelo_inurba_marseille","lat":43.26204,"lon":5.37442,"is_reserved":false,"is_disabled":false,"rental_uris":{"android":"levelo://app?vid=83fe4b7d-c313-402b-a1b1-9f765824d193","ios":"levelo://app?vid=83fe4b7d-c313-402b-a1b1-9f765824d193"},"vehicle_type_id":"4","last_reported":1742476721,"current_range_meters":13600,"station_id":"ce4bhgp2rcd13ifvqfc0","pricing_plan_id":"cebpf4jnsgd1na2vs0mg"},{"bike_id":"2678929a-312d-4089-b116-1e816de7db90","system_id":"levelo_inurba_marseille","lat":43.32117,"lon":5.36779,"is_reserved":false,"is_disabled":false,"rental_uris":{"android":"levelo://app?vid=2678929a-312d-4089-b116-1e816de7db90","ios":"levelo://app?vid=2678929a-312d-4089-b116-1e816de7db90"},"vehicle_type_id":"4","last_reported":1742476721,"current_range_meters":14000,"station_id":"ce4bhrh2rcd13ifvqhug","pricing_plan_id":"cebpf4jnsgd1na2vs0mg"},{"bike_id":"0f4829c5-f12d-44ea-8a46-b6170105c343","system_id":"levelo_inurba_marseille","lat":43.23065,"lon":5.35498,"is_reserved":false,"is_disabled":false,"rental_uris":{"android":"levelo://app?vid=0f4829c5-f12d-44ea-8a46-b6170105c343","ios":"levelo://app?vid=0f4829c5-f12d-44ea-8a46-b6170105c343"},"vehicle_type_id":"4","last_reported":1742476721,"current_range_meters":14000,"station_id":"cpo3342slgdg3j2ifvpg","pricing_plan_id":"cebpf4jnsgd1na2vs0mg"},{"bike_id":"30b97ec3-9a6a-489f-ba4a-a0840d846d73","system_id":"levelo_inurba_marseille","lat":43.30905,"lon":5.36856,"is_reserved":false,"is_disabled":true,"rental_uris":{"android":"levelo://app?vid=30b97ec3-9a6a-489f-ba4a-a0840d846d73","ios":"levelo://app?vid=30b97ec3-9a6a-489f-ba4a-a0840d846d73"},"vehicle_type_id":"4","last_reported":1742476721,"current_range_meters":14400,"station_id":"ce4bgn92rcd13ifvqbvg","pricing_plan_id":"cebpf4jnsgd1na2vs0mg"},{"bike_id":"91d97eb4-9802-4074-bc8a-9f1c8b35df17","system_id":"levelo_inurba_marseille","lat":43.24809,"lon":5.37452,"is_reserved":false,"is_disabled":false,"rental_uris":{"android":"levelo://app?vid=91d97eb4-9802-4074-bc8a-9f1c8b35df17","ios":"levelo://app?vid=91d97eb4-9802-4074-bc8a-9f1c8b35df17"},"vehicle_type_id":"4","last_reported":1742476721,"current_range_meters":14400,"station_id":"ce4bhgh2rcd13ifvqfb0","pricing_plan_id":"cebpf4jnsgd1na2vs0mg"},{"bike_id":"ece8e889-5e4c-40b4-848d-b20748cfde1a","system_id":"levelo_inurba_marseille","lat":43.26779,"lon":5.39413,"is_reserved":false,"is_disabled":false,"rental_uris":{"android":"levelo://app?vid=ece8e889-5e4c-40b4-848d-b20748cfde1a","ios":"levelo://app?vid=ece8e889-5e4c-40b4-848d-b20748cfde1a"},"vehicle_type_id":"4","last_reported":1742476721,"current_range_meters":14400,"station_id":"ce4bhh12rcd13ifvqfg0","pricing_plan_id":"cebpf4jnsgd1na2vs0mg"},{"bike_id":"fc7d3299-db9a-40a4-b62c-8b438c38430d","system_id":"levelo_inurba_marseille","lat":43.28981,"lon":5.37861,"is_reserved":false,"is_disabled":false,"rental_uris":{"android":"levelo://app?vid=fc7d3299-db9a-40a4-b62c-8b438c38430d","ios":"levelo://app?vid=fc7d3299-db9a-40a4-b62c-8b438c38430d"},"vehicle_type_id":"4","last_reported":1742476721,"current_range_meters":14400,"station_id":"ce4bh9p2rcd13ifvqed0","pricing_plan_id":"cebpf4jnsgd1na2vs0mg"},{"bike_id":"bab12d1d-be6a-41a2-b960-b928b24c2425","system_id":"levelo_inurba_marseille","lat":43.32293,"lon":5.38277,"is_reserved":false,"is_disabled":false,"rental_uris":{"android":"levelo://app?vid=bab12d1d-be6a-41a2-b960-b928b24c2425","ios":"levelo://app?vid=bab12d1d-be6a-41a2-b960-b928b24c2425"},"vehicle_type_id":"4","last_reported":1742476721,"current_range_meters":14000,"station_id":"ce4bhr12rcd13ifvqhqg","pricing_plan_id":"cebpf4jnsgd1na2vs0mg"},{"bike_id":"963ffb9c-504b-4fa5-b930-1c659ba0b9b3","system_id":"levelo_inurba_marseille","lat":43.29805,"lon":5.38097,"is_reserved":false,"is_disabled":false,"rental_uris":{"android":"levelo://app?vid=963ffb9c-504b-4fa5-b930-1c659ba0b9b3","ios":"levelo://app?vid=963ffb9c-504b-4fa5-b930-1c659ba0b9b3"},"vehicle_type_id":"4","last_reported":1742476721,"current_range_meters":14400,"station_id":"ce4bgip2rcd13ifvqbb0","pricing_plan_id":"cebpf4jnsgd1na2vs0mg"},{"bike_id":"52801b30-faa5-4912-8b1c-d6f2e330bea2","system_id":"levelo_inurba_marseille","lat":43.29795,"lon":5.38129,"is_reserved":false,"is_disabled":false,"rental_uris":{"android":"levelo://app?vid=52801b30-faa5-4912-8b1c-d6f2e330bea2","ios":"levelo://app?vid=52801b30-faa5-4912-8b1c-d6f2e330bea2"},"vehicle_type_id":"4","last_reported":1742476721,"current_range_meters":14400,"station_id":"ce4bgip2rcd13ifvqbb0","pricing_plan_id":"cebpf4jnsgd1na2vs0mg"},{"bike_id":"45839125-6170-42f2-a406-763e0fb3fd06","system_id":"levelo_inurba_marseille","lat":43.301422,"lon":5.387746,"is_reserved":false,"is_disabled":false,"rental_uris":{"android":"levelo://app?vid=45839125-6170-42f2-a406-763e0fb3fd06","ios":"levelo://app?vid=45839125-6170-42f2-a406-763e0fb3fd06"},"vehicle_type_id":"4","last_reported":1742476721,"current_range_meters":14800,"station_id":"ce4bh612rcd13ifvqe6g","pricing_plan_id":"cebpf4jnsgd1na2vs0mg"},{"bike_id":"727c2aa1-fc61-478a-828f-de8ac706e90c","system_id":"levelo_inurba_marseille","lat":43.2626,"lon":5.37973,"is_reserved":false,"is_disabled":false,"rental_uris":{"android":"levelo://app?vid=727c2aa1-fc61-478a-828f-de8ac706e90c","ios":"levelo://app?vid=727c2aa1-fc61-478a-828f-de8ac706e90c"},"vehicle_type_id":"4","last_reported":1742476721,"current_range_meters":14800,"station_id":"ce4bhjp2rcd13ifvqg90","pricing_plan_id":"cebpf4jnsgd1na2vs0mg"},{"bike_id":"5f7ebdce-bcfd-49f5-b353-98d524adb295","system_id":"levelo_inurba_marseille","lat":43.23066,"lon":5.3549,"is_reserved":false,"is_disabled":false,"rental_uris":{"android":"levelo://app?vid=5f7ebdce-bcfd-49f5-b353-98d524adb295","ios":"levelo://app?vid=5f7ebdce-bcfd-49f5-b353-98d524adb295"},"vehicle_type_id":"4","last_reported":1742476721,"current_range_meters":14800,"station_id":"cpo3342slgdg3j2ifvpg","pricing_plan_id":"cebpf4jnsgd1na2vs0mg"},{"bike_id":"135896c3-a3f2-4c10-9d59-9b861112de5a","system_id":"levelo_inurba_marseille","lat":43.32485,"lon":5.36605,"is_reserved":false,"is_disabled":false,"rental_uris":{"android":"levelo://app?vid=135896c3-a3f2-4c10-9d59-9b861112de5a","ios":"levelo://app?vid=135896c3-a3f2-4c10-9d59-9b861112de5a"},"vehicle_type_id":"4","last_reported":1742476721,"current_range_meters":14800,"station_id":"ce4bhs12rcd13ifvqhvg","pricing_plan_id":"cebpf4jnsgd1na2vs0mg"},{"bike_id":"e3dcf81a-a673-4ac1-be2e-1db043500701","system_id":"levelo_inurba_marseille","lat":43.31226,"lon":5.36882,"is_reserved":false,"is_disabled":false,"rental_uris":{"android":"levelo://app?vid=e3dcf81a-a673-4ac1-be2e-1db043500701","ios":"levelo://app?vid=e3dcf81a-a673-4ac1-be2e-1db043500701"},"vehicle_type_id":"4","last_reported":1742476721,"current_range_meters":14800,"station_id":"ce4bgl92rcd13ifvqbq0","pricing_plan_id":"cebpf4jnsgd1na2vs0mg"},{"bike_id":"7c8dc349-8081-4620-8cbb-dba2ae2b343c","system_id":"levelo_inurba_marseille","lat":43.29716,"lon":5.36605,"is_reserved":false,"is_disabled":false,"rental_uris":{"android":"levelo://app?vid=7c8dc349-8081-4620-8cbb-dba2ae2b343c","ios":"levelo://app?vid=7c8dc349-8081-4620-8cbb-dba2ae2b343c"},"vehicle_type_id":"4","last_reported":1742476721,"current_range_meters":14400,"station_id":"ce4bgn12rcd13ifvqbt0","pricing_plan_id":"cebpf4jnsgd1na2vs0mg"},{"bike_id":"92ef917e-790a-4770-b9eb-5624129f589c","system_id":"levelo_inurba_marseille","lat":43.30905,"lon":5.36853,"is_reserved":false,"is_disabled":false,"rental_uris":{"android":"levelo://app?vid=92ef917e-790a-4770-b9eb-5624129f589c","ios":"levelo://app?vid=92ef917e-790a-4770-b9eb-5624129f589c"},"vehicle_type_id":"4","last_reported":1742476721,"current_range_meters":15200,"station_id":"ce4bgn92rcd13ifvqbvg","pricing_plan_id":"cebpf4jnsgd1na2vs0mg"},{"bike_id":"3297ba78-94f2-49ea-94bb-3dbe06aac92c","system_id":"levelo_inurba_marseille","lat":43.27066,"lon":5.40283,"is_reserved":false,"is_disabled":false,"rental_uris":{"android":"levelo://app?vid=3297ba78-94f2-49ea-94bb-3dbe06aac92c","ios":"levelo://app?vid=3297ba78-94f2-49ea-94bb-3dbe06aac92c"},"vehicle_type_id":"4","last_reported":1742476721,"current_range_meters":15200,"station_id":"ce4bhk92rcd13ifvqgc0","pricing_plan_id":"cebpf4jnsgd1na2vs0mg"},{"bike_id":"de617a19-4330-4912-b332-c188604c3dc4","system_id":"levelo_inurba_marseille","lat":43.290367,"lon":5.399607,"is_reserved":false,"is_disabled":false,"rental_uris":{"android":"levelo://app?vid=de617a19-4330-4912-b332-c188604c3dc4","ios":"levelo://app?vid=de617a19-4330-4912-b332-c188604c3dc4"},"vehicle_type_id":"4","last_reported":1742476721,"current_range_meters":15200,"station_id":"ce4bh392rcd13ifvqdm0","pricing_plan_id":"cebpf4jnsgd1na2vs0mg"},{"bike_id":"bf5d7bdb-65a8-4310-b955-6a76e2cbd7fe","system_id":"levelo_inurba_marseille","lat":43.33734,"lon":5.39193,"is_reserved":false,"is_disabled":false,"rental_uris":{"android":"levelo://app?vid=bf5d7bdb-65a8-4310-b955-6a76e2cbd7fe","ios":"levelo://app?vid=bf5d7bdb-65a8-4310-b955-6a76e2cbd7fe"},"vehicle_type_id":"4","last_reported":1742476721,"current_range_meters":15200,"station_id":"ce4bhr92rcd13ifvqhsg","pricing_plan_id":"cebpf4jnsgd1na2vs0mg"},{"bike_id":"47607dd3-629d-4f70-878c-8cf1fb291880","system_id":"levelo_inurba_marseille","lat":43.26573,"lon":5.39001,"is_reserved":false,"is_disabled":false,"rental_uris":{"android":"levelo://app?vid=47607dd3-629d-4f70-878c-8cf1fb291880","ios":"levelo://app?vid=47607dd3-629d-4f70-878c-8cf1fb291880"},"vehicle_type_id":"4","last_reported":1742476721,"current_range_meters":15200,"station_id":"ce4bhe12rcd13ifvqf30","pricing_plan_id":"cebpf4jnsgd1na2vs0mg"},{"bike_id":"d2dd5f58-37d5-4943-bcee-6670365953d2","system_id":"levelo_inurba_marseille","lat":43.31328,"lon":5.39689,"is_reserved":false,"is_disabled":false,"rental_uris":{"android":"levelo://app?vid=d2dd5f58-37d5-4943-bcee-6670365953d2","ios":"levelo://app?vid=d2dd5f58-37d5-4943-bcee-6670365953d2"},"vehicle_type_id":"4","last_reported":1742476721,"current_range_meters":14800,"station_id":"ce4bgvp2rcd13ifvqcu0","pricing_plan_id":"cebpf4jnsgd1na2vs0mg"},{"bike_id":"292bf2df-2116-470d-8ad0-b5019abaf2d6","system_id":"levelo_inurba_marseille","lat":43.3031,"lon":5.39189,"is_reserved":false,"is_disabled":true,"rental_uris":{"android":"levelo://app?vid=292bf2df-2116-470d-8ad0-b5019abaf2d6","ios":"levelo://app?vid=292bf2df-2116-470d-8ad0-b5019abaf2d6"},"vehicle_type_id":"4","last_reported":1742476721,"current_range_meters":15200,"station_id":"ce4bgkh2rcd13ifvqbk0","pricing_plan_id":"cebpf4jnsgd1na2vs0mg"},{"bike_id":"2bb5676d-f968-495b-9670-043a46122322","system_id":"levelo_inurba_marseille","lat":43.23153,"lon":5.43719,"is_reserved":false,"is_disabled":false,"rental_uris":{"android":"levelo://app?vid=2bb5676d-f968-495b-9670-043a46122322","ios":"levelo://app?vid=2bb5676d-f968-495b-9670-043a46122322"},"vehicle_type_id":"4","last_reported":1742476721,"current_range_meters":16000,"station_id":"ce4bhmp2rcd13ifvqgog","pricing_plan_id":"cebpf4jnsgd1na2vs0mg"},{"bike_id":"f7dd368a-f3e4-428c-8e69-9fa2dbd7bc73","system_id":"levelo_inurba_marseille","lat":43.33036,"lon":5.39014,"is_reserved":false,"is_disabled":false,"rental_uris":{"android":"levelo://app?vid=f7dd368a-f3e4-428c-8e69-9fa2dbd7bc73","ios":"levelo://app?vid=f7dd368a-f3e4-428c-8e69-9fa2dbd7bc73"},"vehicle_type_id":"4","last_reported":1742476721,"current_range_meters":16400,"station_id":"ce4bhr92rcd13ifvqhrg","pricing_plan_id":"cebpf4jnsgd1na2vs0mg"},{"bike_id":"c239b307-a42c-4cfd-b5fc-105d04a3256f","system_id":"levelo_inurba_marseille","lat":43.2396,"lon":5.36657,"is_reserved":false,"is_disabled":false,"rental_uris":{"android":"levelo://app?vid=c239b307-a42c-4cfd-b5fc-105d04a3256f","ios":"levelo://app?vid=c239b307-a42c-4cfd-b5fc-105d04a3256f"},"vehicle_type_id":"4","last_reported":1742476721,"current_range_meters":16000,"station_id":"ce4bhi12rcd13ifvqfp0","pricing_plan_id":"cebpf4jnsgd1na2vs0mg"},{"bike_id":"e995ba22-7d73-4881-be74-f2b05f335b89","system_id":"levelo_inurba_marseille","lat":43.29045,"lon":5.37564,"is_reserved":false,"is_disabled":false,"rental_uris":{"android":"levelo://app?vid=e995ba22-7d73-4881-be74-f2b05f335b89","ios":"levelo://app?vid=e995ba22-7d73-4881-be74-f2b05f335b89"},"vehicle_type_id":"4","last_reported":1742476721,"current_range_meters":16000,"station_id":"ce4bh692rcd13ifvqe90","pricing_plan_id":"cebpf4jnsgd1na2vs0mg"},{"bike_id":"a1041188-6377-4dc0-808b-553dfa8836d0","system_id":"levelo_inurba_marseille","lat":43.30534,"lon":5.36493,"is_reserved":false,"is_disabled":false,"rental_uris":{"android":"levelo://app?vid=a1041188-6377-4dc0-808b-553dfa8836d0","ios":"levelo://app?vid=a1041188-6377-4dc0-808b-553dfa8836d0"},"vehicle_type_id":"4","last_reported":1742476721,"current_range_meters":16000,"station_id":"ce4bgs12rcd13ifvqcag","pricing_plan_id":"cebpf4jnsgd1na2vs0mg"},{"bike_id":"689badc6-3b4f-4742-af66-d6a0e2197c54","system_id":"levelo_inurba_marseille","lat":43.29297,"lon":5.37465,"is_reserved":false,"is_disabled":false,"rental_uris":{"android":"levelo://app?vid=689badc6-3b4f-4742-af66-d6a0e2197c54","ios":"levelo://app?vid=689badc6-3b4f-4742-af66-d6a0e2197c54"},"vehicle_type_id":"4","last_reported":1742476721,"current_range_meters":16000,"station_id":"ce4bgi12rcd13ifvqb70","pricing_plan_id":"cebpf4jnsgd1na2vs0mg"},{"bike_id":"4b1f88be-bc6b-4118-a64f-fef7c5c182ff","system_id":"levelo_inurba_marseille","lat":43.30144,"lon":5.37423,"is_reserved":false,"is_disabled":false,"rental_uris":{"android":"levelo://app?vid=4b1f88be-bc6b-4118-a64f-fef7c5c182ff","ios":"levelo://app?vid=4b1f88be-bc6b-4118-a64f-fef7c5c182ff"},"vehicle_type_id":"4","last_reported":1742476721,"current_range_meters":16000,"station_id":"ce4bgs92rcd13ifvqcc0","pricing_plan_id":"cebpf4jnsgd1na2vs0mg"},{"bike_id":"6ebbf998-1ab5-4d20-ac68-3f4080273a21","system_id":"levelo_inurba_marseille","lat":43.23183,"lon":5.39982,"is_reserved":false,"is_disabled":false,"rental_uris":{"android":"levelo://app?vid=6ebbf998-1ab5-4d20-ac68-3f4080273a21","ios":"levelo://app?vid=6ebbf998-1ab5-4d20-ac68-3f4080273a21"},"vehicle_type_id":"4","last_reported":1742476721,"current_range_meters":16000,"station_id":"ce4bhn12rcd13ifvqgqg","pricing_plan_id":"cebpf4jnsgd1na2vs0mg"},{"bike_id":"1b7b7a5d-e0a5-4952-a7b5-611e07ba1964","system_id":"levelo_inurba_marseille","lat":43.29264,"lon":5.38429,"is_reserved":false,"is_disabled":false,"rental_uris":{"android":"levelo://app?vid=1b7b7a5d-e0a5-4952-a7b5-611e07ba1964","ios":"levelo://app?vid=1b7b7a5d-e0a5-4952-a7b5-611e07ba1964"},"vehicle_type_id":"4","last_reported":1742476721,"current_range_meters":16000,"station_id":"ce4bh692rcd13ifvqea0","pricing_plan_id":"cebpf4jnsgd1na2vs0mg"},{"bike_id":"8cfa2c15-64c0-4c2f-9158-c66b335a455b","system_id":"levelo_inurba_marseille","lat":43.32366,"lon":5.36771,"is_reserved":false,"is_disabled":false,"rental_uris":{"android":"levelo://app?vid=8cfa2c15-64c0-4c2f-9158-c66b335a455b","ios":"levelo://app?vid=8cfa2c15-64c0-4c2f-9158-c66b335a455b"},"vehicle_type_id":"4","last_reported":1742476721,"current_range_meters":16000,"station_id":"ce4bhsh2rcd13ifvqi2g","pricing_plan_id":"cebpf4jnsgd1na2vs0mg"},{"bike_id":"ab392795-033a-4f18-9239-498e82197522","system_id":"levelo_inurba_marseille","lat":43.24059,"lon":5.37764,"is_reserved":false,"is_disabled":false,"rental_uris":{"android":"levelo://app?vid=ab392795-033a-4f18-9239-498e82197522","ios":"levelo://app?vid=ab392795-033a-4f18-9239-498e82197522"},