{"last_updated":1741439263,"ttl":60,"version":"2.2","data":{"bikes":[{"bike_id":"3763ca09-281c-481c-9755-79dce3edd104","system_id":"levelo_inurba_marseille","lat":43.31993,"lon":5.38145,"is_reserved":false,"is_disabled":false,"rental_uris":{"android":"levelo://app?vid=3763ca09-281c-481c-9755-79dce3edd104","ios":"levelo://app?vid=3763ca09-281c-481c-9755-79dce3edd104"},"vehicle_type_id":"4","last_reported":1741439263,"current_range_meters":2800,"station_id":"ce4bhr12rcd13ifvqhpg","pricing_plan_id":"cebpf4jnsgd1na2vs0mg"},{"bike_id":"afa1b3d4-140c-4023-b381-99d91163bada","system_id":"levelo_inurba_marseille","lat":43.2511,"lon":5.40329,"is_reserved":false,"is_disabled":false,"rental_uris":{"android":"levelo://app?vid=afa1b3d4-140c-4023-b381-99d91163bada","ios":"levelo://app?vid=afa1b3d4-140c-4023-b381-99d91163bada"},"vehicle_type_id":"4","last_reported":1741439263,"current_range_meters":3200,"station_id":"ce4bhlh2rcd13ifvqgig","pricing_plan_id":"cebpf4jnsgd1na2vs0mg"},{"bike_id":"a3a5df47-4d63-47b1-89e2-ae6d9ac31c8b","system_id":"levelo_inurba_marseille","lat":43.23056,"lon":5.35491,"is_reserved":false,"is_disabled":false,"rental_uris":{"android":"levelo://app?vid=a3a5df47-4d63-47b1-89e2-ae6d9ac31c8b","ios":"levelo://app?vid=a3a5df47-4d63-47b1-89e2-ae6d9ac31c8b"},"vehicle_type_id":"4","last_reported":1741439263,"current_range_meters":3600,"station_id":"cpo3342slgdg3j2ifvpg","pricing_plan_id":"cebpf4jnsgd1na2vs0mg"},{"bike_id":"3332297b-ddda-468e-86eb-33cdac2c9b94","system_id":"levelo_inurba_marseille","lat":43.30353,"lon":5.41907,"is_reserved":false,"is_disabled":false,"rental_uris":{"android":"levelo://app?vid=3332297b-ddda-468e-86eb-33cdac2c9b94","ios":"levelo://app?vid=3332297b-ddda-468e-86eb-33cdac2c9b94"},"vehicle_type_id":"4","last_reported":1741439263,"current_range_meters":3600,"station_id":"ce4bhop2rcd13ifvqh7g","pricing_plan_id":"cebpf4jnsgd1na2vs0mg"},{"bike_id":"43bc5e18-7bfb-4e30-b758-942e653f0d5a","system_id":"levelo_inurba_marseille","lat":43.24637,"lon":5.40259,"is_reserved":false,"is_disabled":false,"rental_uris":{"android":"levelo://app?vid=43bc5e18-7bfb-4e30-b758-942e653f0d5a","ios":"levelo://app?vid=43bc5e18-7bfb-4e30-b758-942e653f0d5a"},"vehicle_type_id":"4","last_reported":1741439263,"current_range_meters":3600,"station_id":"","pricing_plan_id":"cebpf4jnsgd1na2vs0mg"},{"bike_id":"6cb5bd99-34cf-40ea-92c5-3e12670da3bf","system_id":"levelo_inurba_marseille","lat":43.30969,"lon":5.37964,"is_reserved":false,"is_disabled":false,"rental_uris":{"android":"levelo://app?vid=6cb5bd99-34cf-40ea-92c5-3e12670da3bf","ios":"levelo://app?vid=6cb5bd99-34cf-40ea-92c5-3e12670da3bf"},"vehicle_type_id":"4","last_reported":1741439263,"current_range_meters":4000,"station_id":"","pricing_plan_id":"cebpf4jnsgd1na2vs0mg"},{"bike_id":"37919e7a-a70b-465c-81e0-ba233bdf142e","system_id":"levelo_inurba_marseille","lat":43.30151,"lon":5.39825,"is_reserved":false,"is_disabled":false,"rental_uris":{"android":"levelo://app?vid=37919e7a-a70b-465c-81e0-ba233bdf142e","ios":"levelo://app?vid=37919e7a-a70b-465c-81e0-ba233bdf142e"},"vehicle_type_id":"4","last_reported":1741439263,"current_range_meters":4000,"station_id":"ce4bh0h2rcd13ifvqd40","pricing_plan_id":"cebpf4jnsgd1na2vs0mg"},{"bike_id":"53ba06d6-3b6c-4f49-bc80-8f7e1937ded3","system_id":"levelo_inurba_marseille","lat":43.27897,"lon":5.41237,"is_reserved":false,"is_disabled":false,"rental_uris":{"android":"levelo://app?vid=53ba06d6-3b6c-4f49-bc80-8f7e1937ded3","ios":"levelo://app?vid=53ba06d6-3b6c-4f49-bc80-8f7e1937ded3"},"vehicle_type_id":"4","last_reported":1741439263,"current_range_meters":4000,"station_id":"","pricing_plan_id":"cebpf4jnsgd1na2vs0mg"},{"bike_id":"3aad1144-78e3-48cd-a04f-fd33c498da78","system_id":"levelo_inurba_marseille","lat":43.26192,"lon":5.37452,"is_reserved":false,"is_disabled":false,"rental_uris":{"android":"levelo://app?vid=3aad1144-78e3-48cd-a04f-fd33c498da78","ios":"levelo://app?vid=3aad1144-78e3-48cd-a04f-fd33c498da78"},"vehicle_type_id":"4","last_reported":1741439263,"current_range_meters":4000,"station_id":"ce4bhgp2rcd13ifvqfc0","pricing_plan_id":"cebpf4jnsgd1na2vs0mg"},{"bike_id":"5d60016d-5466-408f-95a3-7a37d4605781","system_id":"levelo_inurba_marseille","lat":43.27973,"lon":5.38742,"is_reserved":false,"is_disabled":false,"rental_uris":{"android":"levelo://app?vid=5d60016d-5466-408f-95a3-7a37d4605781","ios":"levelo://app?vid=5d60016d-5466-408f-95a3-7a37d4605781"},"vehicle_type_id":"4","last_reported":1741439263,"current_range_meters":4400,"station_id":"ce4bhg12rcd13ifvqf80","pricing_plan_id":"cebpf4jnsgd1na2vs0mg"},{"bike_id":"9ebd7552-c55e-4942-8def-640ce12584fb","system_id":"levelo_inurba_marseille","lat":43.261935,"lon":5.374518,"is_reserved":false,"is_disabled":false,"rental_uris":{"android":"levelo://app?vid=9ebd7552-c55e-4942-8def-640ce12584fb","ios":"levelo://app?vid=9ebd7552-c55e-4942-8def-640ce12584fb"},"vehicle_type_id":"4","last_reported":1741439263,"current_range_meters":4400,"station_id":"ce4bhg92rcd13ifvqf90","pricing_plan_id":"cebpf4jnsgd1na2vs0mg"},{"bike_id":"3a090aba-8792-4e90-ae22-5154f3f7f1bc","system_id":"levelo_inurba_marseille","lat":43.32092,"lon":5.36822,"is_reserved":false,"is_disabled":false,"rental_uris":{"android":"levelo://app?vid=3a090aba-8792-4e90-ae22-5154f3f7f1bc","ios":"levelo://app?vid=3a090aba-8792-4e90-ae22-5154f3f7f1bc"},"vehicle_type_id":"4","last_reported":1741439263,"current_range_meters":4400,"station_id":"ce4bhrh2rcd13ifvqhug","pricing_plan_id":"cebpf4jnsgd1na2vs0mg"},{"bike_id":"1fee6973-e38d-4ace-bdac-29acc87ed0ab","system_id":"levelo_inurba_marseille","lat":43.29895,"lon":5.43672,"is_reserved":false,"is_disabled":false,"rental_uris":{"android":"levelo://app?vid=1fee6973-e38d-4ace-bdac-29acc87ed0ab","ios":"levelo://app?vid=1fee6973-e38d-4ace-bdac-29acc87ed0ab"},"vehicle_type_id":"4","last_reported":1741439263,"current_range_meters":5600,"station_id":"ce4bhpp2rcd13ifvqhfg","pricing_plan_id":"cebpf4jnsgd1na2vs0mg"},{"bike_id":"f613efe9-ed82-422a-b6e0-3bc555424538","system_id":"levelo_inurba_marseille","lat":43.27614,"lon":5.36111,"is_reserved":false,"is_disabled":false,"rental_uris":{"android":"levelo://app?vid=f613efe9-ed82-422a-b6e0-3bc555424538","ios":"levelo://app?vid=f613efe9-ed82-422a-b6e0-3bc555424538"},"vehicle_type_id":"4","last_reported":1741439263,"current_range_meters":5600,"station_id":"ce4bgj92rcd13ifvqbe0","pricing_plan_id":"cebpf4jnsgd1na2vs0mg"},{"bike_id":"c5427385-0137-4abc-9580-6be9f7dca4ca","system_id":"levelo_inurba_marseille","lat":43.27049,"lon":5.4026,"is_reserved":false,"is_disabled":false,"rental_uris":{"android":"levelo://app?vid=c5427385-0137-4abc-9580-6be9f7dca4ca","ios":"levelo://app?vid=c5427385-0137-4abc-9580-6be9f7dca4ca"},"vehicle_type_id":"4","last_reported":1741439263,"current_range_meters":5600,"station_id":"ce4bhk92rcd13ifvqgc0","pricing_plan_id":"cebpf4jnsgd1na2vs0mg"},{"bike_id":"17862a34-3eec-4197-9fce-46ac0067e359","system_id":"levelo_inurba_marseille","lat":43.26835,"lon":5.41345,"is_reserved":false,"is_disabled":false,"rental_uris":{"android":"levelo://app?vid=17862a34-3eec-4197-9fce-46ac0067e359","ios":"levelo://app?vid=17862a34-3eec-4197-9fce-46ac0067e359"},"vehicle_type_id":"4","last_reported":1741439263,"current_range_meters":5600,"station_id":"","pricing_plan_id":"cebpf4jnsgd1na2vs0mg"},{"bike_id":"4ef37d01-3a7e-42f1-a9f7-e3be7c1afc72","system_id":"levelo_inurba_marseille","lat":43.23192,"lon":5.35555,"is_reserved":false,"is_disabled":false,"rental_uris":{"android":"levelo://app?vid=4ef37d01-3a7e-42f1-a9f7-e3be7c1afc72","ios":"levelo://app?vid=4ef37d01-3a7e-42f1-a9f7-e3be7c1afc72"},"vehicle_type_id":"4","last_reported":1741439263,"current_range_meters":6000,"station_id":"ce4bhu92rcd13ifvqi70","pricing_plan_id":"cebpf4jnsgd1na2vs0mg"},{"bike_id":"0af30f24-954a-46d7-b033-51d52f807b8c","system_id":"levelo_inurba_marseille","lat":43.25007,"lon":5.38916,"is_reserved":false,"is_disabled":false,"rental_uris":{"android":"levelo://app?vid=0af30f24-954a-46d7-b033-51d52f807b8c","ios":"levelo://app?vid=0af30f24-954a-46d7-b033-51d52f807b8c"},"vehicle_type_id":"4","last_reported":1741439263,"current_range_meters":6400,"station_id":"ce4bhgp2rcd13ifvqfd0","pricing_plan_id":"cebpf4jnsgd1na2vs0mg"},{"bike_id":"51510a95-54e3-4b84-9b22-bfa3391426f3","system_id":"levelo_inurba_marseille","lat":43.2319,"lon":5.35566,"is_reserved":false,"is_disabled":false,"rental_uris":{"android":"levelo://app?vid=51510a95-54e3-4b84-9b22-bfa3391426f3","ios":"levelo://app?vid=51510a95-54e3-4b84-9b22-bfa3391426f3"},"vehicle_type_id":"4","last_reported":1741439263,"current_range_meters":6400,"station_id":"ce4bhu92rcd13ifvqi70","pricing_plan_id":"cebpf4jnsgd1na2vs0mg"},{"bike_id":"f43c8d05-be4c-4367-bc7f-d6f49ddc8941","system_id":"levelo_inurba_marseille","lat":43.29704,"lon":5.3661,"is_reserved":false,"is_disabled":false,"rental_uris":{"android":"levelo://app?vid=f43c8d05-be4c-4367-bc7f-d6f49ddc8941","ios":"levelo://app?vid=f43c8d05-be4c-4367-bc7f-d6f49ddc8941"},"vehicle_type_id":"4","last_reported":1741439263,"current_range_meters":6400,"station_id":"ce4bgn12rcd13ifvqbt0","pricing_plan_id":"cebpf4jnsgd1na2vs0mg"},{"bike_id":"4afdbfd0-98cd-490e-8f08-f8fabefa21b1","system_id":"levelo_inurba_marseille","lat":43.23975,"lon":5.3663,"is_reserved":false,"is_disabled":false,"rental_uris":{"android":"levelo://app?vid=4afdbfd0-98cd-490e-8f08-f8fabefa21b1","ios":"levelo://app?vid=4afdbfd0-98cd-490e-8f08-f8fabefa21b1"},"vehicle_type_id":"4","last_reported":1741439263,"current_range_meters":6400,"station_id":"ce4bhi12rcd13ifvqfp0","pricing_plan_id":"cebpf4jnsgd1na2vs0mg"},{"bike_id":"0afd2f1d-2926-410d-9508-06320cd44670","system_id":"levelo_inurba_marseille","lat":43.22932,"lon":5.35371,"is_reserved":false,"is_disabled":false,"rental_uris":{"android":"levelo://app?vid=0afd2f1d-2926-410d-9508-06320cd44670","ios":"levelo://app?vid=0afd2f1d-2926-410d-9508-06320cd44670"},"vehicle_type_id":"4","last_reported":1741439263,"current_range_meters":6400,"station_id":"cpo3532slgdg3j2ikp40","pricing_plan_id":"cebpf4jnsgd1na2vs0mg"},{"bike_id":"91430f92-37ec-4b3a-adcd-b885833bcc0b","system_id":"levelo_inurba_marseille","lat":43.32338,"lon":5.40642,"is_reserved":false,"is_disabled":false,"rental_uris":{"android":"levelo://app?vid=91430f92-37ec-4b3a-adcd-b885833bcc0b","ios":"levelo://app?vid=91430f92-37ec-4b3a-adcd-b885833bcc0b"},"vehicle_type_id":"4","last_reported":1741439263,"current_range_meters":6400,"station_id":"ce4bhq92rcd13ifvqhjg","pricing_plan_id":"cebpf4jnsgd1na2vs0mg"},{"bike_id":"d7f75b0b-b95c-4334-9134-db6a786df874","system_id":"levelo_inurba_marseille","lat":43.28427,"lon":5.34986,"is_reserved":false,"is_disabled":false,"rental_uris":{"android":"levelo://app?vid=d7f75b0b-b95c-4334-9134-db6a786df874","ios":"levelo://app?vid=d7f75b0b-b95c-4334-9134-db6a786df874"},"vehicle_type_id":"4","last_reported":1741439263,"current_range_meters":6400,"station_id":"ce4bhbh2rcd13ifvqepg","pricing_plan_id":"cebpf4jnsgd1na2vs0mg"},{"bike_id":"344fc8f5-db38-4820-b470-717a722e192c","system_id":"levelo_inurba_marseille","lat":43.26788,"lon":5.39413,"is_reserved":false,"is_disabled":false,"rental_uris":{"android":"levelo://app?vid=344fc8f5-db38-4820-b470-717a722e192c","ios":"levelo://app?vid=344fc8f5-db38-4820-b470-717a722e192c"},"vehicle_type_id":"4","last_reported":1741439263,"current_range_meters":6800,"station_id":"ce4bhh12rcd13ifvqfg0","pricing_plan_id":"cebpf4jnsgd1na2vs0mg"},{"bike_id":"62391f34-3130-43d3-9ff9-87e80b4db075","system_id":"levelo_inurba_marseille","lat":43.32096,"lon":5.36785,"is_reserved":false,"is_disabled":false,"rental_uris":{"android":"levelo://app?vid=62391f34-3130-43d3-9ff9-87e80b4db075","ios":"levelo://app?vid=62391f34-3130-43d3-9ff9-87e80b4db075"},"vehicle_type_id":"4","last_reported":1741439263,"current_range_meters":6800,"station_id":"ce4bhrh2rcd13ifvqhug","pricing_plan_id":"cebpf4jnsgd1na2vs0mg"},{"bike_id":"78966d57-eba1-403d-b849-482da80dea4a","system_id":"levelo_inurba_marseille","lat":43.30122,"lon":5.39867,"is_reserved":false,"is_disabled":false,"rental_uris":{"android":"levelo://app?vid=78966d57-eba1-403d-b849-482da80dea4a","ios":"levelo://app?vid=78966d57-eba1-403d-b849-482da80dea4a"},"vehicle_type_id":"4","last_reported":1741439263,"current_range_meters":6800,"station_id":"ce4bh0h2rcd13ifvqd40","pricing_plan_id":"cebpf4jnsgd1na2vs0mg"},{"bike_id":"d9708d6d-83b9-47c9-a90c-62bff4505670","system_id":"levelo_inurba_marseille","lat":43.27495,"lon":5.42461,"is_reserved":false,"is_disabled":false,"rental_uris":{"android":"levelo://app?vid=d9708d6d-83b9-47c9-a90c-62bff4505670","ios":"levelo://app?vid=d9708d6d-83b9-47c9-a90c-62bff4505670"},"vehicle_type_id":"4","last_reported":1741439263,"current_range_meters":6800,"station_id":"ce4bhn92rcd13ifvqgrg","pricing_plan_id":"cebpf4jnsgd1na2vs0mg"},{"bike_id":"33fdcb46-0c2d-4e71-ae12-a8f13d5fae3a","system_id":"levelo_inurba_marseille","lat":43.25496,"lon":5.37648,"is_reserved":false,"is_disabled":false,"rental_uris":{"android":"levelo://app?vid=33fdcb46-0c2d-4e71-ae12-a8f13d5fae3a","ios":"levelo://app?vid=33fdcb46-0c2d-4e71-ae12-a8f13d5fae3a"},"vehicle_type_id":"4","last_reported":1741439263,"current_range_meters":7200,"station_id":"ce4bhh12rcd13ifvqff0","pricing_plan_id":"cebpf4jnsgd1na2vs0mg"},{"bike_id":"d530a9af-79c5-4570-aa80-b6479ab81018","system_id":"levelo_inurba_marseille","lat":43.3025,"lon":5.40028,"is_reserved":false,"is_disabled":false,"rental_uris":{"android":"levelo://app?vid=d530a9af-79c5-4570-aa80-b6479ab81018","ios":"levelo://app?vid=d530a9af-79c5-4570-aa80-b6479ab81018"},"vehicle_type_id":"4","last_reported":1741439263,"current_range_meters":7200,"station_id":"ce4bgvh2rcd13ifvqcs0","pricing_plan_id":"cebpf4jnsgd1na2vs0mg"},{"bike_id":"59ef7ab1-f072-4315-9e2a-a3482cc569d5","system_id":"levelo_inurba_marseille","lat":43.29892,"lon":5.43659,"is_reserved":false,"is_disabled":false,"rental_uris":{"android":"levelo://app?vid=59ef7ab1-f072-4315-9e2a-a3482cc569d5","ios":"levelo://app?vid=59ef7ab1-f072-4315-9e2a-a3482cc569d5"},"vehicle_type_id":"4","last_reported":1741439263,"current_range_meters":7200,"station_id":"ce4bhpp2rcd13ifvqhfg","pricing_plan_id":"cebpf4jnsgd1na2vs0mg"},{"bike_id":"bd1ca430-15b2-40f5-ab85-6f767aed8061","system_id":"levelo_inurba_marseille","lat":43.23055,"lon":5.3549,"is_reserved":false,"is_disabled":false,"rental_uris":{"android":"levelo://app?vid=bd1ca430-15b2-40f5-ab85-6f767aed8061","ios":"levelo://app?vid=bd1ca430-15b2-40f5-ab85-6f767aed8061"},"vehicle_type_id":"4","last_reported":1741439263,"current_range_meters":7200,"station_id":"cpo3342slgdg3j2ifvpg","pricing_plan_id":"cebpf4jnsgd1na2vs0mg"},{"bike_id":"18929949-f808-49c9-addd-579e3fba1e66","system_id":"levelo_inurba_marseille","lat":43.26961,"lon":5.38648,"is_reserved":false,"is_disabled":false,"rental_uris":{"android":"levelo://app?vid=18929949-f808-49c9-addd-579e3fba1e66","ios":"levelo://app?vid=18929949-f808-49c9-addd-579e3fba1e66"},"vehicle_type_id":"4","last_reported":1741439263,"current_range_meters":7200,"station_id":"ce4bhh92rcd13ifvqfh0","pricing_plan_id":"cebpf4jnsgd1na2vs0mg"},{"bike_id":"f4554ca1-399b-4f7b-b7b5-5dba61051f04","system_id":"levelo_inurba_marseille","lat":43.29647,"lon":5.40576,"is_reserved":false,"is_disabled":false,"rental_uris":{"android":"levelo://app?vid=f4554ca1-399b-4f7b-b7b5-5dba61051f04","ios":"levelo://app?vid=f4554ca1-399b-4f7b-b7b5-5dba61051f04"},"vehicle_type_id":"4","last_reported":1741439263,"current_range_meters":8000,"station_id":"ce4bh0h2rcd13ifvqd60","pricing_plan_id":"cebpf4jnsgd1na2vs0mg"},{"bike_id":"d3ff678b-39ee-4dba-ae1a-9ce03355ce18","system_id":"levelo_inurba_marseille","lat":43.29615,"lon":5.37725,"is_reserved":false,"is_disabled":false,"rental_uris":{"android":"levelo://app?vid=d3ff678b-39ee-4dba-ae1a-9ce03355ce18","ios":"levelo://app?vid=d3ff678b-39ee-4dba-ae1a-9ce03355ce18"},"vehicle_type_id":"4","last_reported":1741439263,"current_range_meters":8000,"station_id":"ce4bgi92rcd13ifvqb90","pricing_plan_id":"cebpf4jnsgd1na2vs0mg"},{"bike_id":"bb201f4c-3170-4d1a-ba67-b8eae93ec0ee","system_id":"levelo_inurba_marseille","lat":43.2953,"lon":5.38545,"is_reserved":false,"is_disabled":false,"rental_uris":{"android":"levelo://app?vid=bb201f4c-3170-4d1a-ba67-b8eae93ec0ee","ios":"levelo://app?vid=bb201f4c-3170-4d1a-ba67-b8eae93ec0ee"},"vehicle_type_id":"4","last_reported":1741439263,"current_range_meters":8000,"station_id":"ce4bgih2rcd13ifvqba0","pricing_plan_id":"cebpf4jnsgd1na2vs0mg"},{"bike_id":"4b324a3d-e79e-4f44-8b87-8f55ac7a7b02","system_id":"levelo_inurba_marseille","lat":43.30546,"lon":5.36677,"is_reserved":false,"is_disabled":false,"rental_uris":{"android":"levelo://app?vid=4b324a3d-e79e-4f44-8b87-8f55ac7a7b02","ios":"levelo://app?vid=4b324a3d-e79e-4f44-8b87-8f55ac7a7b02"},"vehicle_type_id":"4","last_reported":1741439263,"current_range_meters":8000,"station_id":"ce4bgrp2rcd13ifvqc9g","pricing_plan_id":"cebpf4jnsgd1na2vs0mg"},{"bike_id":"a88b4020-160b-4d6c-b81c-275bfd9c24ac","system_id":"levelo_inurba_marseille","lat":43.26033,"lon":5.37548,"is_reserved":false,"is_disabled":false,"rental_uris":{"android":"levelo://app?vid=a88b4020-160b-4d6c-b81c-275bfd9c24ac","ios":"levelo://app?vid=a88b4020-160b-4d6c-b81c-275bfd9c24ac"},"vehicle_type_id":"4","last_reported":1741439263,"current_range_meters":8000,"station_id":"ce4bhgh2rcd13ifvqfa0","pricing_plan_id":"cebpf4jnsgd1na2vs0mg"},{"bike_id":"efa0fc87-1d7d-488e-9fd2-3801fce539e2","system_id":"levelo_inurba_marseille","lat":43.29606,"lon":5.38115,"is_reserved":false,"is_disabled":false,"rental_uris":{"android":"levelo://app?vid=efa0fc87-1d7d-488e-9fd2-3801fce539e2","ios":"levelo://app?vid=efa0fc87-1d7d-488e-9fd2-3801fce539e2"},"vehicle_type_id":"4","last_reported":1741439263,"current_range_meters":8000,"station_id":"ce4bgl12rcd13ifvqbo0","pricing_plan_id":"cebpf4jnsgd1na2vs0mg"},{"bike_id":"a9369571-956f-43e6-a5ed-a7157ad06e5e","system_id":"levelo_inurba_marseille","lat":43.23053,"lon":5.35495,"is_reserved":false,"is_disabled":false,"rental_uris":{"android":"levelo://app?vid=a9369571-956f-43e6-a5ed-a7157ad06e5e","ios":"levelo://app?vid=a9369571-956f-43e6-a5ed-a7157ad06e5e"},"vehicle_type_id":"4","last_reported":1741439263,"current_range_meters":8000,"station_id":"cpo3342slgdg3j2ifvpg","pricing_plan_id":"cebpf4jnsgd1na2vs0mg"},{"bike_id":"805e60eb-0027-4ccc-9fef-9309861e6ed7","system_id":"levelo_inurba_marseille","lat":43.25495,"lon":5.37649,"is_reserved":false,"is_disabled":false,"rental_uris":{"android":"levelo://app?vid=805e60eb-0027-4ccc-9fef-9309861e6ed7","ios":"levelo://app?vid=805e60eb-0027-4ccc-9fef-9309861e6ed7"},"vehicle_type_id":"4","last_reported":1741439263,"current_range_meters":8000,"station_id":"ce4bhh12rcd13ifvqff0","pricing_plan_id":"cebpf4jnsgd1na2vs0mg"},{"bike_id":"32c67028-3196-40d7-8211-181006ab64ac","system_id":"levelo_inurba_marseille","lat":43.27245,"lon":5.3627,"is_reserved":false,"is_disabled":false,"rental_uris":{"android":"levelo://app?vid=32c67028-3196-40d7-8211-181006ab64ac","ios":"levelo://app?vid=32c67028-3196-40d7-8211-181006ab64ac"},"vehicle_type_id":"4","last_reported":1741439263,"current_range_meters":8000,"station_id":"ce4bhbh2rcd13ifvqeo0","pricing_plan_id":"cebpf4jnsgd1na2vs0mg"},{"bike_id":"b9c7ad84-7bfa-4cc0-90ab-2011c1896e0e","system_id":"levelo_inurba_marseille","lat":43.22924,"lon":5.35373,"is_reserved":false,"is_disabled":false,"rental_uris":{"android":"levelo://app?vid=b9c7ad84-7bfa-4cc0-90ab-2011c1896e0e","ios":"levelo://app?vid=b9c7ad84-7bfa-4cc0-90ab-2011c1896e0e"},"vehicle_type_id":"4","last_reported":1741439263,"current_range_meters":8000,"station_id":"cpo3532slgdg3j2ikp40","pricing_plan_id":"cebpf4jnsgd1na2vs0mg"},{"bike_id":"0a9bc1bd-e305-40d4-8852-5005300b12a0","system_id":"levelo_inurba_marseille","lat":43.22948,"lon":5.35363,"is_reserved":false,"is_disabled":false,"rental_uris":{"android":"levelo://app?vid=0a9bc1bd-e305-40d4-8852-5005300b12a0","ios":"levelo://app?vid=0a9bc1bd-e305-40d4-8852-5005300b12a0"},"vehicle_type_id":"4","last_reported":1741439263,"current_range_meters":8400,"station_id":"cpo3532slgdg3j2ikp40","pricing_plan_id":"cebpf4jnsgd1na2vs0mg"},{"bike_id":"d104b859-75c5-4354-b8c2-4240476e906c","system_id":"levelo_inurba_marseille","lat":43.29443,"lon":5.37907,"is_reserved":false,"is_disabled":false,"rental_uris":{"android":"levelo://app?vid=d104b859-75c5-4354-b8c2-4240476e906c","ios":"levelo://app?vid=d104b859-75c5-4354-b8c2-4240476e906c"},"vehicle_type_id":"4","last_reported":1741439263,"current_range_meters":8400,"station_id":"ce4bgjh2rcd13ifvqbf0","pricing_plan_id":"cebpf4jnsgd1na2vs0mg"},{"bike_id":"21713182-057e-40a9-9341-906b750ca39c","system_id":"levelo_inurba_marseille","lat":43.237609,"lon":5.363837,"is_reserved":false,"is_disabled":false,"rental_uris":{"android":"levelo://app?vid=21713182-057e-40a9-9341-906b750ca39c","ios":"levelo://app?vid=21713182-057e-40a9-9341-906b750ca39c"},"vehicle_type_id":"4","last_reported":1741439263,"current_range_meters":8400,"station_id":"ce4bhu92rcd13ifvqi70","pricing_plan_id":"cebpf4jnsgd1na2vs0mg"},{"bike_id":"7b62c62b-d961-49e1-afe1-b0b21a291801","system_id":"levelo_inurba_marseille","lat":43.27874,"lon":5.417396,"is_reserved":false,"is_disabled":false,"rental_uris":{"android":"levelo://app?vid=7b62c62b-d961-49e1-afe1-b0b21a291801","ios":"levelo://app?vid=7b62c62b-d961-49e1-afe1-b0b21a291801"},"vehicle_type_id":"4","last_reported":1741439263,"current_range_meters":8400,"station_id":"","pricing_plan_id":"cebpf4jnsgd1na2vs0mg"},{"bike_id":"997e377d-aae4-4150-80f8-c1a8508e166d","system_id":"levelo_inurba_marseille","lat":43.27373,"lon":5.3626,"is_reserved":false,"is_disabled":false,"rental_uris":{"android":"levelo://app?vid=997e377d-aae4-4150-80f8-c1a8508e166d","ios":"levelo://app?vid=997e377d-aae4-4150-80f8-c1a8508e166d"},"vehicle_type_id":"4","last_reported":1741439263,"current_range_meters":8400,"station_id":"ce4bhbh2rcd13ifvqeo0","pricing_plan_id":"cebpf4jnsgd1na2vs0mg"},{"bike_id":"60fba7df-4520-4d63-9c5b-9a7a002cedfb","system_id":"levelo_inurba_marseille","lat":43.28029,"lon":5.39132,"is_reserved":false,"is_disabled":false,"rental_uris":{"android":"levelo://app?vid=60fba7df-4520-4d63-9c5b-9a7a002cedfb","ios":"levelo://app?vid=60fba7df-4520-4d63-9c5b-9a7a002cedfb"},"vehicle_type_id":"4","last_reported":1741439263,"current_range_meters":8400,"station_id":"","pricing_plan_id":"cebpf4jnsgd1na2vs0mg"},{"bike_id":"a87065c9-28cf-4102-9b00-38cbc7c2919f","system_id":"levelo_inurba_marseille","lat":43.29571,"lon":5.37529,"is_reserved":false,"is_disabled":false,"rental_uris":{"android":"levelo://app?vid=a87065c9-28cf-4102-9b00-38cbc7c2919f","ios":"levelo://app?vid=a87065c9-28cf-4102-9b00-38cbc7c2919f"},"vehicle_type_id":"4","last_reported":1741439263,"current_range_meters":8400,"station_id":"ce4bgh92rcd13ifvqb50","pricing_plan_id":"cebpf4jnsgd1na2vs0mg"},{"bike_id":"4ce1148f-94dc-4742-8f6c-b798d2b0023b","system_id":"levelo_inurba_marseille","lat":43.279957,"lon":5.416532,"is_reserved":false,"is_disabled":false,"rental_uris":{"android":"levelo://app?vid=4ce1148f-94dc-4742-8f6c-b798d2b0023b","ios":"levelo://app?vid=4ce1148f-94dc-4742-8f6c-b798d2b0023b"},"vehicle_type_id":"4","last_reported":1741439263,"current_range_meters":8400,"station_id":"ce4bho12rcd13ifvqh1g","pricing_plan_id":"cebpf4jnsgd1na2vs0mg"},{"bike_id":"2f7d9f34-8c81-40c4-9800-77242899a452","system_id":"levelo_inurba_marseille","lat":43.26547,"lon":5.37304,"is_reserved":false,"is_disabled":false,"rental_uris":{"android":"levelo://app?vid=2f7d9f34-8c81-40c4-9800-77242899a452","ios":"levelo://app?vid=2f7d9f34-8c81-40c4-9800-77242899a452"},"vehicle_type_id":"4","last_reported":1741439263,"current_range_meters":8400,"station_id":"ce4bhg12rcd13ifvqf70","pricing_plan_id":"cebpf4jnsgd1na2vs0mg"},{"bike_id":"43c2fc0d-f617-49fb-8a49-07edf3f564d8","system_id":"levelo_inurba_marseille","lat":43.30878,"lon":5.39672,"is_reserved":false,"is_disabled":false,"rental_uris":{"android":"levelo://app?vid=43c2fc0d-f617-49fb-8a49-07edf3f564d8","ios":"levelo://app?vid=43c2fc0d-f617-49fb-8a49-07edf3f564d8"},"vehicle_type_id":"4","last_reported":1741439263,"current_range_meters":8400,"station_id":"ce4bh012rcd13ifvqcv0","pricing_plan_id":"cebpf4jnsgd1na2vs0mg"},{"bike_id":"cc812cab-295d-4941-a660-5449b465dc36","system_id":"levelo_inurba_marseille","lat":43.25581,"lon":5.38231,"is_reserved":false,"is_disabled":false,"rental_uris":{"android":"levelo://app?vid=cc812cab-295d-4941-a660-5449b465dc36","ios":"levelo://app?vid=cc812cab-295d-4941-a660-5449b465dc36"},"vehicle_type_id":"4","last_reported":1741439263,"current_range_meters":8800,"station_id":"ce4bhih2rcd13ifvqfs0","pricing_plan_id":"cebpf4jnsgd1na2vs0mg"},{"bike_id":"2495f4d9-94e4-4421-8dde-a820cbdeb9a0","system_id":"levelo_inurba_marseille","lat":43.23059,"lon":5.35492,"is_reserved":false,"is_disabled":false,"rental_uris":{"android":"levelo://app?vid=2495f4d9-94e4-4421-8dde-a820cbdeb9a0","ios":"levelo://app?vid=2495f4d9-94e4-4421-8dde-a820cbdeb9a0"},"vehicle_type_id":"4","last_reported":1741439263,"current_range_meters":8800,"station_id":"cpo3342slgdg3j2ifvpg","pricing_plan_id":"cebpf4jnsgd1na2vs0mg"},{"bike_id":"dac09d9e-9ab6-4c54-8fe2-7fcfc9203869","system_id":"levelo_inurba_marseille","lat":43.26555,"lon":5.37294,"is_reserved":false,"is_disabled":false,"rental_uris":{"android":"levelo://app?vid=dac09d9e-9ab6-4c54-8fe2-7fcfc9203869","ios":"levelo://app?vid=dac09d9e-9ab6-4c54-8fe2-7fcfc9203869"},"vehicle_type_id":"4","last_reported":1741439263,"current_range_meters":8800,"station_id":"ce4bhg12rcd13ifvqf70","pricing_plan_id":"cebpf4jnsgd1na2vs0mg"},{"bike_id":"43456c74-e00d-453e-b1bf-9ca7ed6bb364","system_id":"levelo_inurba_marseille","lat":43.28615,"lon":5.35114,"is_reserved":false,"is_disabled":false,"rental_uris":{"android":"levelo://app?vid=43456c74-e00d-453e-b1bf-9ca7ed6bb364","ios":"levelo://app?vid=43456c74-e00d-453e-b1bf-9ca7ed6bb364"},"vehicle_type_id":"4","last_reported":1741439263,"current_range_meters":8800,"station_id":"ce4bhch2rcd13ifvqeug","pricing_plan_id":"cebpf4jnsgd1na2vs0mg"},{"bike_id":"0e674cb4-f37d-4bd5-aaff-7ec953d386c6","system_id":"levelo_inurba_marseille","lat":43.24166,"lon":5.36395,"is_reserved":false,"is_disabled":false,"rental_uris":{"android":"levelo://app?vid=0e674cb4-f37d-4bd5-aaff-7ec953d386c6","ios":"levelo://app?vid=0e674cb4-f37d-4bd5-aaff-7ec953d386c6"},"vehicle_type_id":"4","last_reported":1741439263,"current_range_meters":8800,"station_id":"cpo36qri1sfpv3e86is0","pricing_plan_id":"cebpf4jnsgd1na2vs0mg"},{"bike_id":"ec3169be-6124-4593-8e8d-a617e5610656","system_id":"levelo_inurba_marseille","lat":43.2926,"lon":5.40917,"is_reserved":false,"is_disabled":false,"rental_uris":{"android":"levelo://app?vid=ec3169be-6124-4593-8e8d-a617e5610656","ios":"levelo://app?vid=ec3169be-6124-4593-8e8d-a617e5610656"},"vehicle_type_id":"4","last_reported":1741439263,"current_range_meters":8800,"station_id":"ce4bh192rcd13ifvqdc0","pricing_plan_id":"cebpf4jnsgd1na2vs0mg"},{"bike_id":"ae6c2ddb-44a3-4426-a54e-ff25a33d1dd4","system_id":"levelo_inurba_marseille","lat":43.28488,"lon":5.38583,"is_reserved":false,"is_disabled":false,"rental_uris":{"android":"levelo://app?vid=ae6c2ddb-44a3-4426-a54e-ff25a33d1dd4","ios":"levelo://app?vid=ae6c2ddb-44a3-4426-a54e-ff25a33d1dd4"},"vehicle_type_id":"4","last_reported":1741439263,"current_range_meters":9200,"station_id":"ce4bh8p2rcd13ifvqeb0","pricing_plan_id":"cebpf4jnsgd1na2vs0mg"},{"bike_id":"ae99eef4-0d01-432b-b9f3-30beda5f0e73","system_id":"levelo_inurba_marseille","lat":43.298985,"lon":5.436714,"is_reserved":false,"is_disabled":false,"rental_uris":{"android":"levelo://app?vid=ae99eef4-0d01-432b-b9f3-30beda5f0e73","ios":"levelo://app?vid=ae99eef4-0d01-432b-b9f3-30beda5f0e73"},"vehicle_type_id":"4","last_reported":1741439263,"current_range_meters":9200,"station_id":"ce4bhpp2rcd13ifvqhfg","pricing_plan_id":"cebpf4jnsgd1na2vs0mg"},{"bike_id":"8b1cb5e9-d413-4658-b997-23504a874d1d","system_id":"levelo_inurba_marseille","lat":43.29256,"lon":5.38442,"is_reserved":false,"is_disabled":false,"rental_uris":{"android":"levelo://app?vid=8b1cb5e9-d413-4658-b997-23504a874d1d","ios":"levelo://app?vid=8b1cb5e9-d413-4658-b997-23504a874d1d"},"vehicle_type_id":"4","last_reported":1741439263,"current_range_meters":9200,"station_id":"ce4bh692rcd13ifvqea0","pricing_plan_id":"cebpf4jnsgd1na2vs0mg"},{"bike_id":"ccf7c0de-51e7-4f47-8490-4f88e2c7896c","system_id":"levelo_inurba_marseille","lat":43.26029,"lon":5.37549,"is_reserved":false,"is_disabled":false,"rental_uris":{"android":"levelo://app?vid=ccf7c0de-51e7-4f47-8490-4f88e2c7896c","ios":"levelo://app?vid=ccf7c0de-51e7-4f47-8490-4f88e2c7896c"},"vehicle_type_id":"4","last_reported":1741439263,"current_range_meters":8800,"station_id":"ce4bhgh2rcd13ifvqfa0","pricing_plan_id":"cebpf4jnsgd1na2vs0mg"},{"bike_id":"e524bcef-a391-41b2-bad2-673eae53ea51","system_id":"levelo_inurba_marseille","lat":43.31716,"lon":5.437092,"is_reserved":false,"is_disabled":false,"rental_uris":{"android":"levelo://app?vid=e524bcef-a391-41b2-bad2-673eae53ea51","ios":"levelo://app?vid=e524bcef-a391-41b2-bad2-673eae53ea51"},"vehicle_type_id":"4","last_reported":1741439263,"current_range_meters":9200,"station_id":"ce4bhp92rcd13ifvqhcg","pricing_plan_id":"cebpf4jnsgd1na2vs0mg"},{"bike_id":"01d620f8-764a-4a82-9a0c-d1e022a7f8d2","system_id":"levelo_inurba_marseille","lat":43.28003,"lon":5.40009,"is_reserved":false,"is_disabled":false,"rental_uris":{"android":"levelo://app?vid=01d620f8-764a-4a82-9a0c-d1e022a7f8d2","ios":"levelo://app?vid=01d620f8-764a-4a82-9a0c-d1e022a7f8d2"},"vehicle_type_id":"4","last_reported":1741439263,"current_range_meters":9200,"station_id":"ce4bho92rcd13ifvqh4g","pricing_plan_id":"cebpf4jnsgd1na2vs0mg"},{"bike_id":"5bdf4920-4195-476f-bc71-f6faaf7f7598","system_id":"levelo_inurba_marseille","lat":43.26515,"lon":5.39531,"is_reserved":false,"is_disabled":false,"rental_uris":{"android":"levelo://app?vid=5bdf4920-4195-476f-bc71-f6faaf7f7598","ios":"levelo://app?vid=5bdf4920-4195-476f-bc71-f6faaf7f7598"},"vehicle_type_id":"4","last_reported":1741439263,"current_range_meters":9200,"station_id":"ce4bhi12rcd13ifvqfq0","pricing_plan_id":"cebpf4jnsgd1na2vs0mg"},{"bike_id":"0c6e8b0c-e7bd-48cb-a773-74632f1f1eee","system_id":"levelo_inurba_marseille","lat":43.25864,"lon":5.39899,"is_reserved":false,"is_disabled":false,"rental_uris":{"android":"levelo://app?vid=0c6e8b0c-e7bd-48cb-a773-74632f1f1eee","ios":"levelo://app?vid=0c6e8b0c-e7bd-48cb-a773-74632f1f1eee"},"vehicle_type_id":"4","last_reported":1741439263,"current_range_meters":9200,"station_id":"ce4bhl92rcd13ifvqghg","pricing_plan_id":"cebpf4jnsgd1na2vs0mg"},{"bike_id":"9bfe4e82-241b-4620-b471-d226beb88b23","system_id":"levelo_inurba_marseille","lat":43.22919,"lon":5.35371,"is_reserved":false,"is_disabled":false,"rental_uris":{"android":"levelo://app?vid=9bfe4e82-241b-4620-b471-d226beb88b23","ios":"levelo://app?vid=9bfe4e82-241b-4620-b471-d226beb88b23"},"vehicle_type_id":"4","last_reported":1741439263,"current_range_meters":9200,"station_id":"cpo3532slgdg3j2ikp40","pricing_plan_id":"cebpf4jnsgd1na2vs0mg"},{"bike_id":"f434f250-6f3b-4f81-87f7-8be1eb48cad2","system_id":"levelo_inurba_marseille","lat":43.25719,"lon":5.41121,"is_reserved":false,"is_disabled":false,"rental_uris":{"android":"levelo://app?vid=f434f250-6f3b-4f81-87f7-8be1eb48cad2","ios":"levelo://app?vid=f434f250-6f3b-4f81-87f7-8be1eb48cad2"},"vehicle_type_id":"4","last_reported":1741439263,"current_range_meters":9600,"station_id":"ce4bhkp2rcd13ifvqgd0","pricing_plan_id":"cebpf4jnsgd1na2vs0mg"},{"bike_id":"4f508b50-1e3d-40c5-be77-1e6495edbe07","system_id":"levelo_inurba_marseille","lat":43.25683,"lon":5.41124,"is_reserved":false,"is_disabled":false,"rental_uris":{"android":"levelo://app?vid=4f508b50-1e3d-40c5-be77-1e6495edbe07","ios":"levelo://app?vid=4f508b50-1e3d-40c5-be77-1e6495edbe07"},"vehicle_type_id":"4","last_reported":1741439263,"current_range_meters":9600,"station_id":"ce4bhkp2rcd13ifvqgd0","pricing_plan_id":"cebpf4jnsgd1na2vs0mg"},{"bike_id":"51fc9418-31ab-4501-ba2e-832b6722570d","system_id":"levelo_inurba_marseille","lat":43.23067,"lon":5.35483,"is_reserved":false,"is_disabled":false,"rental_uris":{"android":"levelo://app?vid=51fc9418-31ab-4501-ba2e-832b6722570d","ios":"levelo://app?vid=51fc9418-31ab-4501-ba2e-832b6722570d"},"vehicle_type_id":"4","last_reported":1741439263,"current_range_meters":9600,"station_id":"cpo3342slgdg3j2ifvpg","pricing_plan_id":"cebpf4jnsgd1na2vs0mg"},{"bike_id":"0a45037e-9e79-4808-ad66-bf3685cb705d","system_id":"levelo_inurba_marseille","lat":43.23065,"lon":5.35492,"is_reserved":false,"is_disabled":false,"rental_uris":{"android":"levelo://app?vid=0a45037e-9e79-4808-ad66-bf3685cb705d","ios":"levelo://app?vid=0a45037e-9e79-4808-ad66-bf3685cb705d"},"vehicle_type_id":"4","last_reported":1741439263,"current_range_meters":9600,"station_id":"cpo3342slgdg3j2ifvpg","pricing_plan_id":"cebpf4jnsgd1na2vs0mg"},{"bike_id":"a61622e2-b0cd-41e0-a1f8-cd9a43552e70","system_id":"levelo_inurba_marseille","lat":43.29263,"lon":5.384533,"is_reserved":false,"is_disabled":false,"rental_uris":{"android":"levelo://app?vid=a61622e2-b0cd-41e0-a1f8-cd9a43552e70","ios":"levelo://app?vid=a61622e2-b0cd-41e0-a1f8-cd9a43552e70"},"vehicle_type_id":"4","last_reported":1741439263,"current_range_meters":9600,"station_id":"ce4bh692rcd13ifvqea0","pricing_plan_id":"cebpf4jnsgd1na2vs0mg"},{"bike_id":"b54292f7-ba5a-4ca2-851d-b34190bdf4a8","system_id":"levelo_inurba_marseille","lat":43.33016,"lon":5.39025,"is_reserved":false,"is_disabled":false,"rental_uris":{"android":"levelo://app?vid=b54292f7-ba5a-4ca2-851d-b34190bdf4a8","ios":"levelo://app?vid=b54292f7-ba5a-4ca2-851d-b34190bdf4a8"},"vehicle_type_id":"4","last_reported":1741439263,"current_range_meters":9600,"station_id":"ce4bhr92rcd13ifvqhrg","pricing_plan_id":"cebpf4jnsgd1na2vs0mg"},{"bike_id":"4048f4cb-c79a-4e84-a8e6-068b2a53463d","system_id":"levelo_inurba_marseille","lat":43.29733,"lon":5.39388,"is_reserved":false,"is_disabled":false,"rental_uris":{"android":"levelo://app?vid=4048f4cb-c79a-4e84-a8e6-068b2a53463d","ios":"levelo://app?vid=4048f4cb-c79a-4e84-a8e6-068b2a53463d"},"vehicle_type_id":"4","last_reported":1741439263,"current_range_meters":9600,"station_id":"","pricing_plan_id":"cebpf4jnsgd1na2vs0mg"},{"bike_id":"63e9eb89-2838-4d15-ae58-c4a6136489b2","system_id":"levelo_inurba_marseille","lat":43.29588,"lon":5.36753,"is_reserved":false,"is_disabled":false,"rental_uris":{"android":"levelo://app?vid=63e9eb89-2838-4d15-ae58-c4a6136489b2","ios":"levelo://app?vid=63e9eb89-2838-4d15-ae58-c4a6136489b2"},"vehicle_type_id":"4","last_reported":1741439263,"current_range_meters":9600,"station_id":"ce4bgph2rcd13ifvqc2g","pricing_plan_id":"cebpf4jnsgd1na2vs0mg"},{"bike_id":"23e63b7c-0174-45a4-87db-f00a0d8ed8bc","system_id":"levelo_inurba_marseille","lat":43.30528,"lon":5.36719,"is_reserved":false,"is_disabled":false,"rental_uris":{"android":"levelo://app?vid=23e63b7c-0174-45a4-87db-f00a0d8ed8bc","ios":"levelo://app?vid=23e63b7c-0174-45a4-87db-f00a0d8ed8bc"},"vehicle_type_id":"4","last_reported":1741439263,"current_range_meters":9200,"station_id":"ce4bgrp2rcd13ifvqc9g","pricing_plan_id":"cebpf4jnsgd1na2vs0mg"},{"bike_id":"201e16e9-1f9c-45a3-8dec-2d516ef1efcb","system_id":"levelo_inurba_marseille","lat":43.23967,"lon":5.36616,"is_reserved":false,"is_disabled":false,"rental_uris":{"android":"levelo://app?vid=201e16e9-1f9c-45a3-8dec-2d516ef1efcb","ios":"levelo://app?vid=201e16e9-1f9c-45a3-8dec-2d516ef1efcb"},"vehicle_type_id":"4","last_reported":1741439263,"current_range_meters":9600,"station_id":"ce4bhi12rcd13ifvqfp0","pricing_plan_id":"cebpf4jnsgd1na2vs0mg"},{"bike_id":"9b8789be-c150-4679-b8ba-e1d5e4639da2","system_id":"levelo_inurba_marseille","lat":43.25686,"lon":5.41062,"is_reserved":false,"is_disabled":false,"rental_uris":{"android":"levelo://app?vid=9b8789be-c150-4679-b8ba-e1d5e4639da2","ios":"levelo://app?vid=9b8789be-c150-4679-b8ba-e1d5e4639da2"},"vehicle_type_id":"4","last_reported":1741439263,"current_range_meters":9600,"station_id":"ce4bhkp2rcd13ifvqgd0","pricing_plan_id":"cebpf4jnsgd1na2vs0mg"},{"bike_id":"fe26fd78-c21a-489a-935f-586d6749759b","system_id":"levelo_inurba_marseille","lat":43.29281,"lon":5.36839,"is_reserved":false,"is_disabled":true,"rental_uris":{"android":"levelo://app?vid=fe26fd78-c21a-489a-935f-586d6749759b","ios":"levelo://app?vid=fe26fd78-c21a-489a-935f-586d6749759b"},"vehicle_type_id":"4","last_reported":1741439263,"current_range_meters":9600,"station_id":"ce4bhbp2rcd13ifvqesg","pricing_plan_id":"cebpf4jnsgd1na2vs0mg"},{"bike_id":"72e4fd2f-50c1-4556-96c0-e6698f8ecd30","system_id":"levelo_inurba_marseille","lat":43.29796,"lon":5.40391,"is_reserved":false,"is_disabled":false,"rental_uris":{"android":"levelo://app?vid=72e4fd2f-50c1-4556-96c0-e6698f8ecd30","ios":"levelo://app?vid=72e4fd2f-50c1-4556-96c0-e6698f8ecd30"},"vehicle_type_id":"4","last_reported":1741439263,"current_range_meters":9600,"station_id":"ce4bh112rcd13ifvqd90","pricing_plan_id":"cebpf4jnsgd1na2vs0mg"},{"bike_id":"ca7a5c62-8d30-47df-89c0-3e235efd19a6","system_id":"levelo_inurba_marseille","lat":43.29622,"lon":5.37725,"is_reserved":false,"is_disabled":false,"rental_uris":{"android":"levelo://app?vid=ca7a5c62-8d30-47df-89c0-3e235efd19a6","ios":"levelo://app?vid=ca7a5c62-8d30-47df-89c0-3e235efd19a6"},"vehicle_type_id":"4","last_reported":1741439263,"current_range_meters":9600,"station_id":"ce4bgi92rcd13ifvqb90","pricing_plan_id":"cebpf4jnsgd1na2vs0mg"},{"bike_id":"049fb279-0f85-4d71-9946-2c1f9d5cd1a0","system_id":"levelo_inurba_marseille","lat":43.23189,"lon":5.39982,"is_reserved":false,"is_disabled":false,"rental_uris":{"android":"levelo://app?vid=049fb279-0f85-4d71-9946-2c1f9d5cd1a0","ios":"levelo://app?vid=049fb279-0f85-4d71-9946-2c1f9d5cd1a0"},"vehicle_type_id":"4","last_reported":1741439263,"current_range_meters":10000,"station_id":"ce4bhn12rcd13ifvqgqg","pricing_plan_id":"cebpf4jnsgd1na2vs0mg"},{"bike_id":"2a05418a-c15e-41be-9ef6-6eaf66a40432","system_id":"levelo_inurba_marseille","lat":43.26036,"lon":5.37544,"is_reserved":false,"is_disabled":false,"rental_uris":{"android":"levelo://app?vid=2a05418a-c15e-41be-9ef6-6eaf66a40432","ios":"levelo://app?vid=2a05418a-c15e-41be-9ef6-6eaf66a40432"},"vehicle_type_id":"4","last_reported":1741439263,"current_range_meters":10000,"station_id":"ce4bhgh2rcd13ifvqfa0","pricing_plan_id":"cebpf4jnsgd1na2vs0mg"},{"bike_id":"44c0f9a1-99ba-41cb-8f36-0e033c5e16cc","system_id":"levelo_inurba_marseille","lat":43.26183,"lon":5.37464,"is_reserved":false,"is_disabled":false,"rental_uris":{"android":"levelo://app?vid=44c0f9a1-99ba-41cb-8f36-0e033c5e16cc","ios":"levelo://app?vid=44c0f9a1-99ba-41cb-8f36-0e033c5e16cc"},"vehicle_type_id":"4","last_reported":1741439263,"current_range_meters":10000,"station_id":"ce4bhgp2rcd13ifvqfc0","pricing_plan_id":"cebpf4jnsgd1na2vs0mg"},{"bike_id":"c787a0ef-03a5-4d36-b53c-60238e9036da","system_id":"levelo_inurba_marseille","lat":43.231948,"lon":5.399989,"is_reserved":false,"is_disabled":false,"rental_uris":{"android":"levelo://app?vid=c787a0ef-03a5-4d36-b53c-60238e9036da","ios":"levelo://app?vid=c787a0ef-03a5-4d36-b53c-60238e9036da"},"vehicle_type_id":"4","last_reported":1741439263,"current_range_meters":10000,"station_id":"ce4bhn12rcd13ifvqgqg","pricing_plan_id":"cebpf4jnsgd1na2vs0mg"},{"bike_id":"9e2a9734-63cc-4a01-8102-7cc50f45d2cf","system_id":"levelo_inurba_marseille","lat":43.28429,"lon":5.34994,"is_reserved":false,"is_disabled":false,"rental_uris":{"android":"levelo://app?vid=9e2a9734-63cc-4a01-8102-7cc50f45d2cf","ios":"levelo://app?vid=9e2a9734-63cc-4a01-8102-7cc50f45d2cf"},"vehicle_type_id":"4","last_reported":1741439263,"current_range_meters":10000,"station_id":"ce4bhbh2rcd13ifvqepg","pricing_plan_id":"cebpf4jnsgd1na2vs0mg"},{"bike_id":"5860d925-ddd3-4098-a759-51207f488a84","system_id":"levelo_inurba_marseille","lat":43.294158,"lon":5.374083,"is_reserved":false,"is_disabled":false,"rental_uris":{"android":"levelo://app?vid=5860d925-ddd3-4098-a759-51207f488a84","ios":"levelo://app?vid=5860d925-ddd3-4098-a759-51207f488a84"},"vehicle_type_id":"4","last_reported":1741439263,"current_range_meters":10000,"station_id":"ce4bgi12rcd13ifvqb70","pricing_plan_id":"cebpf4jnsgd1na2vs0mg"},{"bike_id":"6c23a2b5-53ff-4de0-973d-72a69d9420f3","system_id":"levelo_inurba_marseille","lat":43.23076,"lon":5.35488,"is_reserved":false,"is_disabled":false,"rental_uris":{"android":"levelo://app?vid=6c23a2b5-53ff-4de0-973d-72a69d9420f3","ios":"levelo://app?vid=6c23a2b5-53ff-4de0-973d-72a69d9420f3"},"vehicle_type_id":"4","last_reported":1741439263,"current_range_meters":10000,"station_id":"cpo3342slgdg3j2ifvpg","pricing_plan_id":"cebpf4jnsgd1na2vs0mg"},{"bike_id":"5345365a-cb10-4f0d-a29c-3733f75b7932","system_id":"levelo_inurba_marseille","lat":43.32004,"lon":5.38129,"is_reserved":false,"is_disabled":false,"rental_uris":{"android":"levelo://app?vid=5345365a-cb10-4f0d-a29c-3733f75b7932","ios":"levelo://app?vid=5345365a-cb10-4f0d-a29c-3733f75b7932"},"vehicle_type_id":"4","last_reported":1741439263,"current_range_meters":10000,"station_id":"ce4bhr12rcd13ifvqhpg","pricing_plan_id":"cebpf4jnsgd1na2vs0mg"},{"bike_id":"b6d03f7d-48f0-4f19-9571-b5ead08ae183","system_id":"levelo_inurba_marseille","lat":43.23067,"lon":5.35499,"is_reserved":false,"is_disabled":false,"rental_uris":{"android":"levelo://app?vid=b6d03f7d-48f0-4f19-9571-b5ead08ae183","ios":"levelo://app?vid=b6d03f7d-48f0-4f19-9571-b5ead08ae183"},"vehicle_type_id":"4","last_reported":1741439263,"current_range_meters":10800,"station_id":"cpo3342slgdg3j2ifvpg","pricing_plan_id":"cebpf4jnsgd1na2vs0mg"},{"bike_id":"1d642fdb-a1ff-4fcc-9ebb-c727a994a4df","system_id":"levelo_inurba_marseille","lat":43.25113,"lon":5.40337,"is_reserved":false,"is_disabled":false,"rental_uris":{"android":"levelo://app?vid=1d642fdb-a1ff-4fcc-9ebb-c727a994a4df","ios":"levelo://app?vid=1d642fdb-a1ff-4fcc-9ebb-c727a994a4df"},"vehicle_type_id":"4","last_reported":1741439263,"current_range_meters":10800,"station_id":"ce4bhlh2rcd13ifvqgig","pricing_plan_id":"cebpf4jnsgd1na2vs0mg"},{"bike_id":"5832083a-af6c-455b-9dbd-d8b68bd79a1e","system_id":"levelo_inurba_marseille","lat":43.29894,"lon":5.43661,"is_reserved":false,"is_disabled":false,"rental_uris":{"android":"levelo://app?vid=5832083a-af6c-455b-9dbd-d8b68bd79a1e","ios":"levelo://app?vid=5832083a-af6c-455b-9dbd-d8b68bd79a1e"},"vehicle_type_id":"4","last_reported":1741439263,"current_range_meters":10800,"station_id":"ce4bhpp2rcd13ifvqhfg","pricing_plan_id":"cebpf4jnsgd1na2vs0mg"},{"bike_id":"2c17b157-37d9-408b-97c8-eb2ce2fa8932","system_id":"levelo_inurba_marseille","lat":43.25502,"lon":5.37647,"is_reserved":false,"is_disabled":false,"rental_uris":{"android":"levelo://app?vid=2c17b157-37d9-408b-97c8-eb2ce2fa8932","ios":"levelo://app?vid=2c17b157-37d9-408b-97c8-eb2ce2fa8932"},"vehicle_type_id":"4","last_reported":1741439263,"current_range_meters":10800,"station_id":"ce4bhh12rcd13ifvqff0","pricing_plan_id":"cebpf4jnsgd1na2vs0mg"},{"bike_id":"693b324b-22ae-4477-b845-3fa66a131915","system_id":"levelo_inurba_marseille","lat":43.30544,"lon":5.36547,"is_reserved":false,"is_disabled":false,"rental_uris":{"android":"levelo://app?vid=693b324b-22ae-4477-b845-3fa66a131915","ios":"levelo://app?vid=693b324b-22ae-4477-b845-3fa66a131915"},"vehicle_type_id":"4","last_reported":1741439263,"current_range_meters":10800,"station_id":"ce4bgs12rcd13ifvqcag","pricing_plan_id":"cebpf4jnsgd1na2vs0mg"},{"bike_id":"78a18f63-76ef-4ea6-a32c-25a68354914c","system_id":"levelo_inurba_marseille","lat":43.27209,"lon":5.39179,"is_reserved":false,"is_disabled":false,"rental_uris":{"android":"levelo://app?vid=78a18f63-76ef-4ea6-a32c-25a68354914c","ios":"levelo://app?vid=78a18f63-76ef-4ea6-a32c-25a68354914c"},"vehicle_type_id":"4","last_reported":1741439263,"current_range_meters":10800,"station_id":"ce4bhhp2rcd13ifvqfm0","pricing_plan_id":"cebpf4jnsgd1na2vs0mg"},{"bike_id":"4971b3ff-261f-40af-8f8b-2369ef77942a","system_id":"levelo_inurba_marseille","lat":43.26556,"lon":5.37302,"is_reserved":false,"is_disabled":false,"rental_uris":{"android":"levelo://app?vid=4971b3ff-261f-40af-8f8b-2369ef77942a","ios":"levelo://app?vid=4971b3ff-261f-40af-8f8b-2369ef77942a"},"vehicle_type_id":"4","last_reported":1741439263,"current_range_meters":10800,"station_id":"ce4bhg12rcd13ifvqf70","pricing_plan_id":"cebpf4jnsgd1na2vs0mg"},{"bike_id":"b533f38f-df9a-4e01-86fb-08f4b9bfcdfb","system_id":"levelo_inurba_marseille","lat":43.262369,"lon":5.421315,"is_reserved":false,"is_disabled":false,"rental_uris":{"android":"levelo://app?vid=b533f38f-df9a-4e01-86fb-08f4b9bfcdfb","ios":"levelo://app?vid=b533f38f-df9a-4e01-86fb-08f4b9bfcdfb"},"vehicle_type_id":"4","last_reported":1741439263,"current_range_meters":10800,"station_id":"","pricing_plan_id":"cebpf4jnsgd1na2vs0mg"},{"bike_id":"40727ac6-4880-4abd-8b08-b3c4bd1e8d22","system_id":"levelo_inurba_marseille","lat":43.25584,"lon":5.38225,"is_reserved":false,"is_disabled":false,"rental_uris":{"android":"levelo://app?vid=40727ac6-4880-4abd-8b08-b3c4bd1e8d22","ios":"levelo://app?vid=40727ac6-4880-4abd-8b08-b3c4bd1e8d22"},"vehicle_type_id":"4","last_reported":1741439263,"current_range_meters":10800,"station_id":"ce4bhih2rcd13ifvqfs0","pricing_plan_id":"cebpf4jnsgd1na2vs0mg"},{"bike_id":"4f9945c4-fa46-4a36-8b9e-2f103a46569e","system_id":"levelo_inurba_marseille","lat":43.29311,"lon":5.37467,"is_reserved":false,"is_disabled":false,"rental_uris":{"android":"levelo://app?vid=4f9945c4-fa46-4a36-8b9e-2f103a46569e","ios":"levelo://app?vid=4f9945c4-fa46-4a36-8b9e-2f103a46569e"},"vehicle_type_id":"4","last_reported":1741439263,"current_range_meters":10800,"station_id":"ce4bgi12rcd13ifvqb70","pricing_plan_id":"cebpf4jnsgd1na2vs0mg"},{"bike_id":"8db4e760-4d8d-49c6-b711-4a7bcde496d5","system_id":"levelo_inurba_marseille","lat":43.29551,"lon":5.42278,"is_reserved":false,"is_disabled":false,"rental_uris":{"android":"levelo://app?vid=8db4e760-4d8d-49c6-b711-4a7bcde496d5","ios":"levelo://app?vid=8db4e760-4d8d-49c6-b711-4a7bcde496d5"},"vehicle_type_id":"4","last_reported":1741439263,"current_range_meters":10800,"station_id":"ce4bhph2rcd13ifvqhdg","pricing_plan_id":"cebpf4jnsgd1na2vs0mg"},{"bike_id":"fb626a73-8dff-437b-b442-b1f6ec537a81","system_id":"levelo_inurba_marseille","lat":43.320015,"lon":5.381576,"is_reserved":false,"is_disabled":false,"rental_uris":{"android":"levelo://app?vid=fb626a73-8dff-437b-b442-b1f6ec537a81","ios":"levelo://app?vid=fb626a73-8dff-437b-b442-b1f6ec537a81"},"vehicle_type_id":"4","last_reported":1741439263,"current_range_meters":10800,"station_id":"ce4bhr12rcd13ifvqhpg","pricing_plan_id":"cebpf4jnsgd1na2vs0mg"},{"bike_id":"d72d70f5-cb0a-40d7-9806-259b05b8cc97","system_id":"levelo_inurba_marseille","lat":43.24182,"lon":5.39725,"is_reserved":false,"is_disabled":false,"rental_uris":{"android":"levelo://app?vid=d72d70f5-cb0a-40d7-9806-259b05b8cc97","ios":"levelo://app?vid=d72d70f5-cb0a-40d7-9806-259b05b8cc97"},"vehicle_type_id":"4","last_reported":1741439263,"current_range_meters":10800,"station_id":"ce4bhn12rcd13ifvqgpg","pricing_plan_id":"cebpf4jnsgd1na2vs0mg"},{"bike_id":"3c7cb629-a989-4010-917f-b6565022dddc","system_id":"levelo_inurba_marseille","lat":43.313302,"lon":5.396949,"is_reserved":false,"is_disabled":false,"rental_uris":{"android":"levelo://app?vid=3c7cb629-a989-4010-917f-b6565022dddc","ios":"levelo://app?vid=3c7cb629-a989-4010-917f-b6565022dddc"},"vehicle_type_id":"4","last_reported":1741439263,"current_range_meters":11200,"station_id":"ce4bgvp2rcd13ifvqcu0","pricing_plan_id":"cebpf4jnsgd1na2vs0mg"},{"bike_id":"b2c2514d-58df-4080-9acc-0a3325c87525","system_id":"levelo_inurba_marseille","lat":43.32364,"lon":5.36728,"is_reserved":false,"is_disabled":false,"rental_uris":{"android":"levelo://app?vid=b2c2514d-58df-4080-9acc-0a3325c87525","ios":"levelo://app?vid=b2c2514d-58df-4080-9acc-0a3325c87525"},"vehicle_type_id":"4","last_reported":1741439263,"current_range_meters":11200,"station_id":"ce4bhsh2rcd13ifvqi2g","pricing_plan_id":"cebpf4jnsgd1na2vs0mg"},{"bike_id":"89422f8a-45be-442c-bf0c-b286afd8512f","system_id":"levelo_inurba_marseille","lat":43.23054,"lon":5.35492,"is_reserved":false,"is_disabled":false,"rental_uris":{"android":"levelo://app?vid=89422f8a-45be-442c-bf0c-b286afd8512f","ios":"levelo://app?vid=89422f8a-45be-442c-bf0c-b286afd8512f"},"vehicle_type_id":"4","last_reported":1741439263,"current_range_meters":11200,"station_id":"cpo3342slgdg3j2ifvpg","pricing_plan_id":"cebpf4jnsgd1na2vs0mg"},{"bike_id":"78e35e8e-d5ae-46ca-bf9a-5a84807e4e77","system_id":"levelo_inurba_marseille","lat":43.27052,"lon":5.40263,"is_reserved":false,"is_disabled":false,"rental_uris":{"android":"levelo://app?vid=78e35e8e-d5ae-46ca-bf9a-5a84807e4e77","ios":"levelo://app?vid=78e35e8e-d5ae-46ca-bf9a-5a84807e4e77"},"vehicle_type_id":"4","last_reported":1741439263,"current_range_meters":11600,"station_id":"ce4bhk92rcd13ifvqgc0","pricing_plan_id":"cebpf4jnsgd1na2vs0mg"},{"bike_id":"8b722601-abad-44fa-88e3-ce51624ce56d","system_id":"levelo_inurba_marseille","lat":43.31124,"lon":5.37766,"is_reserved":false,"is_disabled":false,"rental_uris":{"android":"levelo://app?vid=8b722601-abad-44fa-88e3-ce51624ce56d","ios":"levelo://app?vid=8b722601-abad-44fa-88e3-ce51624ce56d"},"vehicle_type_id":"4","last_reported":1741439263,"current_range_meters":11600,"station_id":"ce4bgt92rcd13ifvqcg0","pricing_plan_id":"cebpf4jnsgd1na2vs0mg"},{"bike_id":"388ea826-f5fa-4632-a530-45d13cc0a769","system_id":"levelo_inurba_marseille","lat":43.23197,"lon":5.39995,"is_reserved":false,"is_disabled":false,"rental_uris":{"android":"levelo://app?vid=388ea826-f5fa-4632-a530-45d13cc0a769","ios":"levelo://app?vid=388ea826-f5fa-4632-a530-45d13cc0a769"},"vehicle_type_id":"4","last_reported":1741439263,"current_range_meters":11600,"station_id":"ce4bhn12rcd13ifvqgqg","pricing_plan_id":"cebpf4jnsgd1na2vs0mg"},{"bike_id":"65d2271a-97b5-4913-95aa-cf77a293f0eb","system_id":"levelo_inurba_marseille","lat":43.26031,"lon":5.37544,"is_reserved":false,"is_disabled":false,"rental_uris":{"android":"levelo://app?vid=65d2271a-97b5-4913-95aa-cf77a293f0eb","ios":"levelo://app?vid=65d2271a-97b5-4913-95aa-cf77a293f0eb"},"vehicle_type_id":"4","last_reported":1741439263,"current_range_meters":11600,"station_id":"ce4bhgh2rcd13ifvqfa0","pricing_plan_id":"cebpf4jnsgd1na2vs0mg"},{"bike_id":"07ec0d69-a2c2-4fc4-bbb1-873ceb65ec0d","system_id":"levelo_inurba_marseille","lat":43.25579,"lon":5.38229,"is_reserved":false,"is_disabled":false,"rental_uris":{"android":"levelo://app?vid=07ec0d69-a2c2-4fc4-bbb1-873ceb65ec0d","ios":"levelo://app?vid=07ec0d69-a2c2-4fc4-bbb1-873ceb65ec0d"},"vehicle_type_id":"4","last_reported":1741439263,"current_range_meters":11600,"station_id":"ce4bhih2rcd13ifvqfs0","pricing_plan_id":"cebpf4jnsgd1na2vs0mg"},{"bike_id":"a4c567bd-3a3a-4f92-bec4-2b37e19a0310","system_id":"levelo_inurba_marseille","lat":43.28425,"lon":5.37528,"is_reserved":false,"is_disabled":false,"rental_uris":{"android":"levelo://app?vid=a4c567bd-3a3a-4f92-bec4-2b37e19a0310","ios":"levelo://app?vid=a4c567bd-3a3a-4f92-bec4-2b37e19a0310"},"vehicle_type_id":"4","last_reported":1741439263,"current_range_meters":11600,"station_id":"ce4bh412rcd13ifvqds0","pricing_plan_id":"cebpf4jnsgd1na2vs0mg"},{"bike_id":"433b9051-56f9-4e62-aae3-dd609f268d6e","system_id":"levelo_inurba_marseille","lat":43.24073,"lon":5.37751,"is_reserved":false,"is_disabled":false,"rental_uris":{"android":"levelo://app?vid=433b9051-56f9-4e62-aae3-dd609f268d6e","ios":"levelo://app?vid=433b9051-56f9-4e62-aae3-dd609f268d6e"},"vehicle_type_id":"4","last_reported":1741439263,"current_range_meters":11600,"station_id":"ce4bhnp2rcd13ifvqgvg","pricing_plan_id":"cebpf4jnsgd1na2vs0mg"},{"bike_id":"65f047ab-ec07-440a-8847-ca6c8e676e9e","system_id":"levelo_inurba_marseille","lat":43.29578,"lon":5.37515,"is_reserved":false,"is_disabled":false,"rental_uris":{"android":"levelo://app?vid=65f047ab-ec07-440a-8847-ca6c8e676e9e","ios":"levelo://app?vid=65f047ab-ec07-440a-8847-ca6c8e676e9e"},"vehicle_type_id":"4","last_reported":1741439263,"current_range_meters":12000,"station_id":"ce4bgh92rcd13ifvqb50","pricing_plan_id":"cebpf4jnsgd1na2vs0mg"},{"bike_id":"fbf804d7-6c73-46e9-abdb-acb74deb6dc4","system_id":"levelo_inurba_marseille","lat":43.23061,"lon":5.35497,"is_reserved":false,"is_disabled":false,"rental_uris":{"android":"levelo://app?vid=fbf804d7-6c73-46e9-abdb-acb74deb6dc4","ios":"levelo://app?vid=fbf804d7-6c73-46e9-abdb-acb74deb6dc4"},"vehicle_type_id":"4","last_reported":1741439263,"current_range_meters":12000,"station_id":"cpo3342slgdg3j2ifvpg","pricing_plan_id":"cebpf4jnsgd1na2vs0mg"},{"bike_id":"dd8cec60-8ea0-4242-b7e4-eb6de8ca7419","system_id":"levelo_inurba_marseille","lat":43.26825,"lon":5.40229,"is_reserved":false,"is_disabled":false,"rental_uris":{"android":"levelo://app?vid=dd8cec60-8ea0-4242-b7e4-eb6de8ca7419","ios":"levelo://app?vid=dd8cec60-8ea0-4242-b7e4-eb6de8ca7419"},"vehicle_type_id":"4","last_reported":1741439263,"current_range_meters":12000,"station_id":"ce501612rcd8frsf0b60","pricing_plan_id":"cebpf4jnsgd1na2vs0mg"},{"bike_id":"bcca7c14-578d-447e-98ee-3917fb77be1f","system_id":"levelo_inurba_marseille","lat":43.30962,"lon":5.39043,"is_reserved":false,"is_disabled":false,"rental_uris":{"android":"levelo://app?vid=bcca7c14-578d-447e-98ee-3917fb77be1f","ios":"levelo://app?vid=bcca7c14-578d-447e-98ee-3917fb77be1f"},"vehicle_type_id":"4","last_reported":1741439263,"current_range_meters":12000,"station_id":"ce4bgup2rcd13ifvqco0","pricing_plan_id":"cebpf4jnsgd1na2vs0mg"},{"bike_id":"05ac6b58-0cc0-47b2-a77d-a5e53e092874","system_id":"levelo_inurba_marseille","lat":43.27328,"lon":5.39109,"is_reserved":false,"is_disabled":false,"rental_uris":{"android":"levelo://app?vid=05ac6b58-0cc0-47b2-a77d-a5e53e092874","ios":"levelo://app?vid=05ac6b58-0cc0-47b2-a77d-a5e53e092874"},"vehicle_type_id":"4","last_reported":1741439263,"current_range_meters":12400,"station_id":"ce4bhgp2rcd13ifvqfe0","pricing_plan_id":"cebpf4jnsgd1na2vs0mg"},{"bike_id":"cdc6fa71-b8c0-46e7-902c-4e18b52385d2","system_id":"levelo_inurba_marseille","lat":43.288521,"lon":5.400032,"is_reserved":false,"is_disabled":false,"rental_uris":{"android":"levelo://app?vid=cdc6fa71-b8c0-46e7-902c-4e18b52385d2","ios":"levelo://app?vid=cdc6fa71-b8c0-46e7-902c-4e18b52385d2"},"vehicle_type_id":"4","last_reported":1741439263,"current_range_meters":12400,"station_id":"","pricing_plan_id":"cebpf4jnsgd1na2vs0mg"},{"bike_id":"e3b6b7c2-e8d8-49bb-add8-e8422231d67a","system_id":"levelo_inurba_marseille","lat":43.31489,"lon":5.37315,"is_reserved":false,"is_disabled":false,"rental_uris":{"android":"levelo://app?vid=e3b6b7c2-e8d8-49bb-add8-e8422231d67a","ios":"levelo://app?vid=e3b6b7c2-e8d8-49bb-add8-e8422231d67a"},"vehicle_type_id":"4","last_reported":1741439263,"current_range_meters":12400,"station_id":"ce4bgt12rcd13ifvqcd0","pricing_plan_id":"cebpf4jnsgd1na2vs0mg"},{"bike_id":"c1c412b3-ae23-45ab-894a-fe5b494cc9e6","system_id":"levelo_inurba_marseille","lat":43.23189,"lon":5.35562,"is_reserved":false,"is_disabled":false,"rental_uris":{"android":"levelo://app?vid=c1c412b3-ae23-45ab-894a-fe5b494cc9e6","ios":"levelo://app?vid=c1c412b3-ae23-45ab-894a-fe5b494cc9e6"},"vehicle_type_id":"4","last_reported":1741439263,"current_range_meters":12400,"station_id":"ce4bhu92rcd13ifvqi70","pricing_plan_id":"cebpf4jnsgd1na2vs0mg"},{"bike_id":"33a897c7-10f7-48f2-a6b5-9c0314880e6f","system_id":"levelo_inurba_marseille","lat":43.30924,"lon":5.40337,"is_reserved":false,"is_disabled":false,"rental_uris":{"android":"levelo://app?vid=33a897c7-10f7-48f2-a6b5-9c0314880e6f","ios":"levelo://app?vid=33a897c7-10f7-48f2-a6b5-9c0314880e6f"},"vehicle_type_id":"4","last_reported":1741439263,"current_range_meters":12400,"station_id":"","pricing_plan_id":"cebpf4jnsgd1na2vs0mg"},{"bike_id":"ae454a88-f24c-4e88-a7cf-9a915082084f","system_id":"levelo_inurba_marseille","lat":43.25868,"lon":5.39901,"is_reserved":false,"is_disabled":false,"rental_uris":{"android":"levelo://app?vid=ae454a88-f24c-4e88-a7cf-9a915082084f","ios":"levelo://app?vid=ae454a88-f24c-4e88-a7cf-9a915082084f"},"vehicle_type_id":"4","last_reported":1741439263,"current_range_meters":12800,"station_id":"ce4bhl92rcd13ifvqghg","pricing_plan_id":"cebpf4jnsgd1na2vs0mg"},{"bike_id":"36bd4b3e-748f-47f3-b7d4-77e18a87f122","system_id":"levelo_inurba_marseille","lat":43.295147,"lon":5.385132,"is_reserved":false,"is_disabled":false,"rental_uris":{"android":"levelo://app?vid=36bd4b3e-748f-47f3-b7d4-77e18a87f122","ios":"levelo://app?vid=36bd4b3e-748f-47f3-b7d4-77e18a87f122"},"vehicle_type_id":"4","last_reported":1741439263,"current_range_meters":12800,"station_id":"ce4bgih2rcd13ifvqba0","pricing_plan_id":"cebpf4jnsgd1na2vs0mg"},{"bike_id":"b7ca8830-f079-4a46-b3e5-e3b497346e8a","system_id":"levelo_inurba_marseille","lat":43.26209,"lon":5.37449,"is_reserved":false,"is_disabled":false,"rental_uris":{"android":"levelo://app?vid=b7ca8830-f079-4a46-b3e5-e3b497346e8a","ios":"levelo://app?vid=b7ca8830-f079-4a46-b3e5-e3b497346e8a"},"vehicle_type_id":"4","last_reported":1741439263,"current_range_meters":12800,"station_id":"ce4bhgp2rcd13ifvqfc0","pricing_plan_id":"cebpf4jnsgd1na2vs0mg"},{"bike_id":"ba250795-28b5-4c20-aa7d-f81ee081f3e7","system_id":"levelo_inurba_marseille","lat":43.30525,"lon":5.3671,"is_reserved":false,"is_disabled":false,"rental_uris":{"android":"levelo://app?vid=ba250795-28b5-4c20-aa7d-f81ee081f3e7","ios":"levelo://app?vid=ba250795-28b5-4c20-aa7d-f81ee081f3e7"},"vehicle_type_id":"4","last_reported":1741439263,"current_range_meters":12800,"station_id":"ce4bgrp2rcd13ifvqc9g","pricing_plan_id":"cebpf4jnsgd1na2vs0mg"},{"bike_id":"fce1721b-10f6-488f-a38f-69c74da44d19","system_id":"levelo_inurba_marseille","lat":43.29897,"lon":5.38148,"is_reserved":false,"is_disabled":false,"rental_uris":{"android":"levelo://app?vid=fce1721b-10f6-488f-a38f-69c74da44d19","ios":"levelo://app?vid=fce1721b-10f6-488f-a38f-69c74da44d19"},"vehicle_type_id":"4","last_reported":1741439263,"current_range_meters":12800,"station_id":"ce4bgj12rcd13ifvqbc0","pricing_plan_id":"cebpf4jnsgd1na2vs0mg"},{"bike_id":"abdcf80d-e6a4-489f-a971-fe0c63212ff8","system_id":"levelo_inurba_marseille","lat":43.23065,"lon":5.35478,"is_reserved":false,"is_disabled":false,"rental_uris":{"android":"levelo://app?vid=abdcf80d-e6a4-489f-a971-fe0c63212ff8","ios":"levelo://app?vid=abdcf80d-e6a4-489f-a971-fe0c63212ff8"},"vehicle_type_id":"4","last_reported":1741439263,"current_range_meters":12800,"station_id":"cpo3342slgdg3j2ifvpg","pricing_plan_id":"cebpf4jnsgd1na2vs0mg"},{"bike_id":"ec7b86b1-d2ba-4a31-a6b7-3733d23fbb99","system_id":"levelo_inurba_marseille","lat":43.2846,"lon":5.38547,"is_reserved":false,"is_disabled":false,"rental_uris":{"android":"levelo://app?vid=ec7b86b1-d2ba-4a31-a6b7-3733d23fbb99","ios":"levelo://app?vid=ec7b86b1-d2ba-4a31-a6b7-3733d23fbb99"},"vehicle_type_id":"4","last_reported":1741439263,"current_range_meters":13600,"station_id":"ce4bh8p2rcd13ifvqeb0","pricing_plan_id":"cebpf4jnsgd1na2vs0mg"},{"bike_id":"19bbe8da-d7df-496e-a677-cbaab925cf5e","system_id":"levelo_inurba_marseille","lat":43.24892,"lon":5.42521,"is_reserved":false,"is_disabled":false,"rental_uris":{"android":"levelo://app?vid=19bbe8da-d7df-496e-a677-cbaab925cf5e","ios":"levelo://app?vid=19bbe8da-d7df-496e-a677-cbaab925cf5e"},"vehicle_type_id":"4","last_reported":1741439263,"current_range_meters":13600,"station_id":"","pricing_plan_id":"cebpf4jnsgd1na2vs0mg"},{"bike_id":"568a854c-fc7e-4163-8085-2c6b9bf99771","system_id":"levelo_inurba_marseille","lat":43.27616,"lon":5.36102,"is_reserved":false,"is_disabled":false,"rental_uris":{"android":"levelo://app?vid=568a854c-fc7e-4163-8085-2c6b9bf99771","ios":"levelo://app?vid=568a854c-fc7e-4163-8085-2c6b9bf99771"},"vehicle_type_id":"4","last_reported":1741439263,"current_range_meters":13600,"station_id":"ce4bgj92rcd13ifvqbe0","pricing_plan_id":"cebpf4jnsgd1na2vs0mg"},{"bike_id":"b7d2f953-3da7-4daa-9fad-166d1f8731aa","system_id":"levelo_inurba_marseille","lat":43.24654,"lon":5.38896,"is_reserved":false,"is_disabled":false,"rental_uris":{"android":"levelo://app?vid=b7d2f953-3da7-4daa-9fad-166d1f8731aa","ios":"levelo://app?vid=b7d2f953-3da7-4daa-9fad-166d1f8731aa"},"vehicle_type_id":"4","last_reported":1741439263,"current_range_meters":13600,"station_id":"ce4bhg12rcd13ifvqf60","pricing_plan_id":"cebpf4jnsgd1na2vs0mg"},{"bike_id":"67c61671-e5f4-44ee-9eae-960d2e68f5ea","system_id":"levelo_inurba_marseille","lat":43.2962,"lon":5.37169,"is_reserved":false,"is_disabled":false,"rental_uris":{"android":"levelo://app?vid=67c61671-e5f4-44ee-9eae-960d2e68f5ea","ios":"levelo://app?vid=67c61671-e5f4-44ee-9eae-960d2e68f5ea"},"vehicle_type_id":"4","last_reported":1741439263,"current_range_meters":13600,"station_id":"ce4bgnh2rcd13ifvqc0g","pricing_plan_id":"cebpf4jnsgd1na2vs0mg"},{"bike_id":"079238e1-0d04-432b-9c0f-009ab548ccfa","system_id":"levelo_inurba_marseille","lat":43.27955,"lon":5.38688,"is_reserved":false,"is_disabled":false,"rental_uris":{"android":"levelo://app?vid=079238e1-0d04-432b-9c0f-009ab548ccfa","ios":"levelo://app?vid=079238e1-0d04-432b-9c0f-009ab548ccfa"},"vehicle_type_id":"4","last_reported":1741439263,"current_range_meters":14000,"station_id":"ce4bhg12rcd13ifvqf80","pricing_plan_id":"cebpf4jnsgd1na2vs0mg"},{"bike_id":"716ad52e-6276-401a-9565-37b068cf8f1c","system_id":"levelo_inurba_marseille","lat":43.24822,"lon":5.37463,"is_reserved":false,"is_disabled":false,"rental_uris":{"android":"levelo://app?vid=716ad52e-6276-401a-9565-37b068cf8f1c","ios":"levelo://app?vid=716ad52e-6276-401a-9565-37b068cf8f1c"},"vehicle_type_id":"4","last_reported":1741439263,"current_range_meters":14400,"station_id":"ce4bhgh2rcd13ifvqfb0","pricing_plan_id":"cebpf4jnsgd1na2vs0mg"},{"bike_id":"d01e90ea-51a9-4a13-9c65-527a65da3de3","system_id":"levelo_inurba_marseille","lat":43.28031,"lon":5.36958,"is_reserved":false,"is_disabled":false,"rental_uris":{"android":"levelo://app?vid=d01e90ea-51a9-4a13-9c65-527a65da3de3","ios":"levelo://app?vid=d01e90ea-51a9-4a13-9c65-527a65da3de3"},"vehicle_type_id":"4","last_reported":1741439263,"current_range_meters":14400,"station_id":"ce4bha12rcd13ifvqef0","pricing_plan_id":"cebpf4jnsgd1na2vs0mg"},{"bike_id":"158f781d-2622-4711-94cc-c5020e1e5d37","system_id":"levelo_inurba_marseille","lat":43.28615,"lon":5.3511,"is_reserved":false,"is_disabled":false,"rental_uris":{"android":"levelo://app?vid=158f781d-2622-4711-94cc-c5020e1e5d37","ios":"levelo://app?vid=158f781d-2622-4711-94cc-c5020e1e5d37"},"vehicle_type_id":"4","last_reported":1741439263,"current_range_meters":14400,"station_id":"ce4bhch2rcd13ifvqeug","pricing_plan_id":"cebpf4jnsgd1na2vs0mg"},{"bike_id":"b3951b8f-8388-46e0-9060-ee008a75aea1","system_id":"levelo_inurba_marseille","lat":43.29715,"lon":5.379767,"is_reserved":false,"is_disabled":false,"rental_uris":{"android":"levelo://app?vid=b3951b8f-8388-46e0-9060-ee008a75aea1","ios":"levelo://app?vid=b3951b8f-8388-46e0-9060-ee008a75aea1"},"vehicle_type_id":"4","last_reported":1741439263,"current_range_meters":14400,"station_id":"","pricing_plan_id":"cebpf4jnsgd1na2vs0mg"},{"bike_id":"94e06677-7dd9-4e07-80d2-040455873e46","system_id":"levelo_inurba_marseille","lat":43.29623,"lon":5.37164,"is_reserved":false,"is_disabled":false,"rental_uris":{"android":"levelo://app?vid=94e06677-7dd9-4e07-80d2-040455873e46","ios":"levelo://app?vid=94e06677-7dd9-4e07-80d2-040455873e46"},"vehicle_type_id":"4","last_reported":1741439263,"current_range_meters":14800,"station_id":"ce4bgnh2rcd13ifvqc0g","pricing_plan_id":"cebpf4jnsgd1na2vs0mg"},{"bike_id":"1c832463-d8b1-4dc4-9559-8d5dd0848c71","system_id":"levelo_inurba_marseille","lat":43.29978,"lon":5.38495,"is_reserved":false,"is_disabled":false,"rental_uris":{"android":"levelo://app?vid=1c832463-d8b1-4dc4-9559-8d5dd0848c71","ios":"levelo://app?vid=1c832463-d8b1-4dc4-9559-8d5dd0848c71"},"vehicle_type_id":"4","last_reported":1741439263,"current_range_meters":14800,"station_id":"ce4bgj92rcd13ifvqbd0","pricing_plan_id":"cebpf4jnsgd1na2vs0mg"},{"bike_id":"ae29ac39-191b-412e-bebe-511bcd92396a","system_id":"levelo_inurba_marseille","lat":43.22935,"lon":5.35376,"is_reserved":false,"is_disabled":false,"rental_uris":{"android":"levelo://app?vid=ae29ac39-191b-412e-bebe-511bcd92396a","ios":"levelo://app?vid=ae29ac39-191b-412e-bebe-511bcd92396a"},"vehicle_type_id":"4","last_reported":1741439263,"current_range_meters":14800,"station_id":"cpo3532slgdg3j2ikp40","pricing_plan_id":"cebpf4jnsgd1na2vs0mg"},{"bike_id":"c14d7feb-080e-43e2-95f2-40c85436f912","system_id":"levelo_inurba_marseille","lat":43.3377,"lon":5.37436,"is_reserved":false,"is_disabled":false,"rental_uris":{"android":"levelo://app?vid=c14d7feb-080e-43e2-95f2-40c85436f912","ios":"levelo://app?vid=c14d7feb-080e-43e2-95f2-40c85436f912"},"vehicle_type_id":"4","last_reported":1741439263,"current_range_meters":14800,"station_id":"","pricing_plan_id":"cebpf4jnsgd1na2vs0mg"},{"bike_id":"ddc39988-a570-4cb5-887e-38ca131edce5","system_id":"levelo_inurba_marseille","lat":43.31492,"lon":5.3732,"is_reserved":false,"is_disabled":false,"rental_uris":{"android":"levelo://app?vid=ddc39988-a570-4cb5-887e-38ca131edce5","ios":"levelo://app?vid=ddc39988-a570-4cb5-887e-38ca131edce5"},"vehicle_type_id":"4","last_reported":1741439263,"current_range_meters":14800,"station_id":"ce4bgt12rcd13ifvqcd0","pricing_plan_id":"cebpf4jnsgd1na2vs0mg"},{"bike_id":"6d39a540-cd1a-4f23-8238-ebc7959a6ead","system_id":"levelo_inurba_marseille","lat":43.2993,"lon":5.36554,"is_reserved":false,"is_disabled":false,"rental_uris":{"android":"levelo://app?vid=6d39a540-cd1a-4f23-8238-ebc7959a6ead","ios":"levelo://app?vid=6d39a540-cd1a-4f23-8238-ebc7959a6ead"},"vehicle_type_id":"4","last_reported":1741439263,"current_range_meters":14800,"station_id":"ce4bgm92rcd13ifvqbr0","pricing_plan_id":"cebpf4jnsgd1na2vs0mg"},{"bike_id":"1b22cc85-56a0-4856-8269-5dc8c9fa3a49","system_id":"levelo_inurba_marseille","lat":43.29803,"lon":5.38088,"is_reserved":false,"is_disabled":false,"rental_uris":{"android":"levelo://app?vid=1b22cc85-56a0-4856-8269-5dc8c9fa3a49","ios":"levelo://app?vid=1b22cc85-56a0-4856-8269-5dc8c9fa3a49"},"vehicle_type_id":"4","last_reported":1741439263,"current_range_meters":14000,"station_id":"ce4bgip2rcd13ifvqbb0","pricing_plan_id":"cebpf4jnsgd1na2vs0mg"},{"bike_id":"563788b4-ec3f-41f2-b12a-6832383c7e38","system_id":"levelo_inurba_marseille","lat":43.29046,"lon":5.37565,"is_reserved":false,"is_disabled":false,"rental_uris":{"android":"levelo://app?vid=563788b4-ec3f-41f2-b12a-6832383c7e38","ios":"levelo://app?vid=563788b4-ec3f-41f2-b12a-6832383c7e38"},"vehicle_type_id":"4","last_reported":1741439263,"current_range_meters":15200,"station_id":"ce4bh692rcd13ifvqe90","pricing_plan_id":"cebpf4jnsgd1na2vs0mg"},{"bike_id":"51871b16-d4b8-45e5-9862-b7fd2add88a3","system_id":"levelo_inurba_marseille","lat":43.301482,"lon":5.380848,"is_reserved":false,"is_disabled":false,"rental_uris":{"android":"levelo://app?vid=51871b16-d4b8-45e5-9862-b7fd2add88a3","ios":"levelo://app?vid=51871b16-d4b8-45e5-9862-b7fd2add88a3"},"vehicle_type_id":"4","last_reported":1741439263,"current_range_meters":15200,"station_id":"ce4bgjp2rcd13ifvqbh0","pricing_plan_id":"cebpf4jnsgd1na2vs0mg"},{"bike_id":"d3c27099-0bb1-4319-94c4-220d94919da8","system_id":"levelo_inurba_marseille","lat":43.28376,"lon":5.38636,"is_reserved":false,"is_disabled":false,"rental_uris":{"android":"levelo://app?vid=d3c27099-0bb1-4319-94c4-220d94919da8","ios":"levelo://app?vid=d3c27099-0bb1-4319-94c4-220d94919da8"},"vehicle_type_id":"4","last_reported":1741439263,"current_range_meters":15200,"station_id":"ce4bh492rcd13ifvqdvg","pricing_plan_id":"cebpf4jnsgd1na2vs0mg"},{"bike_id":"11e7fc3b-ed5a-4401-a0af-6e80583f87e8","system_id":"levelo_inurba_marseille","lat":43.27832,"lon":5.40706,"is_reserved":false,"is_disabled":false,"rental_uris":{"android":"levelo://app?vid=11e7fc3b-ed5a-4401-a0af-6e80583f87e8","ios":"levelo://app?vid=11e7fc3b-ed5a-4401-a0af-6e80583f87e8"},"vehicle_type_id":"4","last_reported":1741439263,"current_range_meters":14800,"station_id":"ce4bhnh2rcd13ifvqgtg","pricing_plan_id":"cebpf4jnsgd1na2vs0mg"},{"bike_id":"5447f4a3-a511-4855-9238-830c32a4f6cf","system_id":"levelo_inurba_marseille","lat":43.27933,"lon":5.38724,"is_reserved":false,"is_disabled":false,"rental_uris":{"android":"levelo://app?vid=5447f4a3-a511-4855-9238-830c32a4f6cf","ios":"levelo://app?vid=5447f4a3-a511-4855-9238-830c32a4f6cf"},"vehicle_type_id":"4","last_reported":1741439263,"current_range_meters":16000,"station_id":"ce4bhg12rcd13ifvqf80","pricing_plan_id":"cebpf4jnsgd1na2vs0mg"},{"bike_id":"59bd44fe-c53a-480c-9bf0-09a306db2bf2","system_id":"levelo_inurba_marseille","lat":43.31686,"lon":5.40478,"is_reserved":false,"is_disabled":false,"rental_uris":{"android":"levelo://app?vid=59bd44fe-c53a-480c-9bf0-09a306db2bf2","ios":"levelo://app?vid=59bd44fe-c53a-480c-9bf0-09a306db2bf2"},"vehicle_type_id":"4","last_reported":1741439263,"current_range_meters":16000,"station_id":"ce4bh012rcd13ifvqd00","pricing_plan_id":"cebpf4jnsgd1na2vs0mg"},{"bike_id":"e864a5f8-5d09-44e4-ac13-510caec44d44","system_id":"levelo_inurba_marseille","lat":43.29848,"lon":5.36285,"is_reserved":false,"is_disabled":false,"rental_uris":{"android":"levelo://app?vid=e864a5f8-5d09-44e4-ac13-510caec44d44","ios":"levelo://app?vid=e864a5f8-5d09-44e4-ac13-510caec44d44"},"vehicle_type_id":"4","last_reported":1741439263,"current_range_meters":16000,"station_id":"ce4bgpp2rcd13ifvqc3g","pricing_plan_id":"cebpf4jnsgd1na2vs0mg"},{"bike_id":"0b6b8dd8-3450-4779-834c-499fd12aab96","system_id":"levelo_inurba_marseille","lat":43.27823,"lon":5.40715,"is_reserved":false,"is_disabled":false,"rental_uris":{"android":"levelo://app?vid=0b6b8dd8-3450-4779-834c-499fd12aab96","ios":"levelo://app?vid=0b6b8dd8-3450-4779-834c-499fd12aab96"},"vehicle_type_id":"4","last_reported":1741439263,"current_range_meters":16000,"station_id":"ce4bhnh2rcd13ifvqgtg","pricing_plan_id":"cebpf4jnsgd1na2vs0mg"},{"bike_id":"716ca31c-7b02-43d6-b885-1a8f61d663f0","system_id":"levelo_inurba_marseille","lat":43.26962,"lon":5.38632,"is_reserved":false,"is_disabled":false,"rental_uris":{"android":"levelo://app?vid=716ca31c-7b02-43d6-b885-1a8f61d663f0","ios":"levelo://app?vid=716ca31c-7b02-43d6-b885-1a8f61d663f0"},"vehicle_type_id":"4","last_reported":1741439263,"current_range_meters":16000,"station_id":"ce4bhh92rcd13ifvqfh0","pricing_plan_id":"cebpf4jnsgd1na2vs0mg"},{"bike_id":"11384956-509e-4a33-b3a9-03c9d93b4448","system_id":"levelo_inurba_marseille","lat":43.27211,"lon":5.39186,"is_reserved":false,"is_disabled":false,"rental_uris":{"android":"levelo://app?vid=11384956-509e-4a33-b3a9-03c9d93b4448","ios":"levelo://app?vid=11384956-509e-4a33-b3a9-03c9d93b4448"},"vehicle_type_id":"4","last_reported":1741439263,"current_range_meters":16000,"station_id":"ce4bhhp2rcd13ifvqfm0","pricing_plan_id":"cebpf4jnsgd1na2vs0mg"},{"bike_id":"418008e9-ba6e-4d74-9f4e-6d20b68a68ad","system_id":"levelo_inurba_marseille","lat":43.23829,"lon":5.42875,"is_reserved":false,"is_disabled":false,"rental_uris":{"android":"levelo://app?vid=418008e9-ba6e-4d74-9f4e-6d20b68a68ad","ios":"levelo://app?vid=418008e9-ba6e-4d74-9f4e-6d20b68a68ad"},"vehicle_type_id":"4","last_reported":1741439263,"current_range_meters":16400,"station_id":"","pricing_plan_id":"cebpf4jnsgd1na2vs0mg"},{"bike_id":"5b3feac3-b03c-46f0-be7e-bd037d3dd045","system_id":"levelo_inurba_marseille","lat":43.25726,"lon":5.4111,"is_reserved":false,"is_disabled":false,"rental_uris":{"android":"levelo://app?vid=5b3feac3-b03c-46f0-be7e-bd037d3dd045","ios":"levelo://app?vid=5b3feac3-b03c-46f0-be7e-bd037d3dd045"},"vehicle_type_id":"4","last_reported":1741439263,"current_range_meters":16400,"station_id":"ce4bhkp2rcd13ifvqgd0","pricing_plan_id":"cebpf4jnsgd1na2vs0mg"},{"bike_id":"7e721a1c-54a2-4088-a9a3-a8128c882ef2","system_id":"levelo_inurba_marseille","lat":43.31084,"lon":5.42431,"is_reserved":false,"is_disabled":false,"rental_uris":{"android":"levelo://app?vid=7e721a1c-54a2-4088-a9a3-a8128c882ef2","ios":"levelo://app?vid=7e721a1c-54a2-4088-a9a3-a8128c882ef2"},"vehicle_type_id":"4","last_reported":1741439263,"current_range_meters":17200,"station_id":"ce4bhp92rcd13ifvqhag","pricing_plan_id":"cebpf4jnsgd1na2vs0mg"},{"bike_id":"8b37ca13-43db-4702-aa6c-3dadb474f360","system_id":"levelo_inurba_marseille","lat":43.28672,"lon":5.38659,"is_reserved":false,"is_disabled":false,"rental_uris":{"android":"levelo://app?vid=8b37ca13-43db-4702-aa6c-3dadb474f360","ios":"levelo://app?vid=8b37ca13-43db-4702-aa6c-3dadb474f360"},"vehicle_type_id":"4","last_reported":1741439263,"current_range_meters":16400,"station_id":"ce4bh492rcd13ifvqdug","pricing_plan_id":"cebpf4jnsgd1na2vs0mg"},{"bike_id":"f5298d71-ccf5-43e2-8713-22ed3c534548","system_id":"levelo_inurba_marseille","lat":43.29204,"lon":5.39318,"is_reserved":false,"is_disabled":false,"rental_uris":{"android":"levelo://app?vid=f5298d71-ccf5-43e2-8713-22ed3c534548","ios":"levelo://app?vid=f5298d71-ccf5-43e2-8713-22ed3c534548"},"vehicle_type_id":"4","last_reported":1741439263,"current_range_meters":16400,"station_id":"ce4bh192rcd13ifvqdd0","pricing_plan_id":"cebpf4jnsgd1na2vs0mg"},{"bike_id":"06e1cee7-7c99-4479-8f4d-bab500867740","system_id":"levelo_inurba_marseille","lat":43.23064,"lon":5.35491,"is_reserved":false,"is_disabled":false,"rental_uris":{"android":"levelo://app?vid=06e1cee7-7c99-4479-8f4d-bab500867740","ios":"levelo://app?vid=06e1cee7-7c99-4479-8f4d-bab500867740"},"vehicle_type_id":"4","last_reported":1741439263,"current_range_meters":16400,"station_id":"cpo3342slgdg3j2ifvpg","pricing_plan_id":"cebpf4jnsgd1na2vs0mg"},{"bike_id":"ee926f57-a308-4c18-a6fa-c5abc65e8c4e","system_id":"levelo_inurba_marseille","lat":43.2398,"lon":5.36618,"is_reserved":false,"is_disabled":false,"rental_uris":{"android":"levelo://app?vid=ee926f57-a308-4c18-a6fa-c5abc65e8c4e","ios":"levelo://app?vid=ee926f57-a308-4c18-a6fa-c5abc65e8c4e"},"vehicle_type_id":"4","last_reported":1741439263,"current_range_meters":16400,"station_id":"ce4bhi12rcd13ifvqfp0","pricing_plan_id":"cebpf4jnsgd1na2vs0mg"},{"bike_id":"3435b552-a537-44f0-9ef7-489cdb85e218","system_id":"levelo_inurba_marseille","lat":43.27813,"lon":5.40721,"is_reserved":false,"is_disabled":false,"rental_uris":{"android":"levelo://app?vid=3435b552-a537-44f0-9ef7-489cdb85e218","ios":"levelo://app?vid=3435b552-a537-44f0-9ef7-489cdb85e218"},"vehicle_type_id":"4","last_reported":1741439263,"current_range_meters":16400,"station_id":"ce4bhnh2rcd13ifvqgtg","pricing_plan_id":"cebpf4jnsgd1na2vs0mg"},{"bike_id":"3a1203da-b99d-4623-9c0f-d962bb601f56","system_id":"levelo_inurba_marseille","lat":43.29561,"lon":5.37503,"is_reserved":false,"is_disabled":false,"rental_uris":{"android":"levelo://app?vid=3a1203da-b99d-4623-9c0f-d962bb601f56","ios":"levelo://app?vid=3a1203da-b99d-4623-9c0f-d962bb601f56"},"vehicle_type_id":"4","last_reported":1741439263,"current_range_meters":16400,"station_id":"ce4bgh92rcd13ifvqb50","pricing_plan_id":"cebpf4jnsgd1na2vs0mg"},{"bike_id":"d10f4563-0230-4e9a-817d-5d1c1f2e8988","system_id":"levelo_inurba_marseille","lat":43.31333,"lon":5.39686,"is_reserved":false,"is_disabled":false,"rental_uris":{"android":"levelo://app?vid=d10f4563-0230-4e9a-817d-5d1c1f2e8988","ios":"levelo://app?vid=d10f4563-0230-4e9a-817d-5d1c1f2e8988"},"vehicle_type_id":"4","last_reported":1741439263,"current_range_meters":16400,"station_id":"ce4bgvp2rcd13ifvqcu0","pricing_plan_id":"cebpf4jnsgd1na2vs0mg"},{"bike_id":"170c6a74-9162-4bac-bd1c-f47e00d4d6fb","system_id":"levelo_inurba_marseille","lat":43.29801,"lon":5.38085,"is_reserved":false,"is_disabled":false,"rental_uris":{"android":"levelo://app?vid=170c6a74-9162-4bac-bd1c-f47e00d4d6fb","ios":"levelo://app?vid=170c6a74-9162-4bac-bd1c-f47e00d4d6fb"},"vehicle_type_id":"4","last_reported":1741439263,"current_range_meters":16400,"station_id":"ce4bgip2rcd13ifvqbb0","pricing_plan_id":"cebpf4jnsgd1na2vs0mg"},{"bike_id":"b67ea5ad-547c-47fe-9883-70652af03759","system_id":"levelo_inurba_marseille","lat":43.29254,"lon":5.40911,"is_reserved":false,"is_disabled":false,"rental_uris":{"android":"levelo://app?vid=b67ea5ad-547c-47fe-9883-70652af03759","ios":"levelo://app?vid=b67ea5ad-547c-47fe-9883-70652af03759"},"vehicle_type_id":"4","last_reported":1741439263,"current_range_meters":16400,"station_id":"ce4bh192rcd13ifvqdc0","pricing_plan_id":"cebpf4jnsgd1na2vs0mg"},{"bike_id":"723c67fa-b4b3-48ca-834f-0eace723680b","system_id":"levelo_inurba_marseille","lat":43.26565,"lon":5.37306,"is_reserved":false,"is_disabled":false,"rental_uris":{"android":"levelo://app?vid=723c67fa-b4b3-48ca-834f-0eace723680b","ios":"levelo://app?vid=723c67fa-b4b3-48ca-834f-0eace723680b"},"vehicle_type_id":"4","last_reported":1741439263,"current_range_meters":16400,"station_id":"ce4bhg12rcd13ifvqf70","pricing_plan_id":"cebpf4jnsgd1na2vs0mg"},{"bike_id":"89cdc5a5-a744-4269-a86d-3ed5ecc287d5","system_id":"levelo_inurba_marseille","lat":43.24183,"lon":5.39721,"is_reserved":false,"is_disabled":false,"rental_uris":{"android":"levelo://app?vid=89cdc5a5-a744-4269-a86d-3ed5ecc287d5","ios":"levelo://app?vid=89cdc5a5-a744-4269-a86d-3ed5ecc287d5"},"vehicle_type_id":"4","last_reported":1741439263,"current_range_meters":16400,"station_id":"ce4bhn12rcd13ifvqgpg","pricing_plan_id":"cebpf4jnsgd1na2vs0mg"},{"bike_id":"04b4258d-0927-4a5b-8ce0-e4accd04b333","system_id":"levelo_inurba_marseille","lat":43.23052,"lon":5.3549,"is_reserved":false,"is_disabled":false,"rental_uris":{"android":"levelo://app?vid=04b4258d-0927-4a5b-8ce0-e4accd04b333","ios":"levelo://app?vid=04b4258d-0927-4a5b-8ce0-e4accd04b333"},"vehicle_type_id":"4","last_reported":1741439263,"current_range_meters":16400,"station_id":"cpo3342slgdg3j2ifvpg","pricing_plan_id":"cebpf4jnsgd1na2vs0mg"},{"bike_id":"bf5f31c5-c205-46db-8daa-df328e1c916a","system_id":"levelo_inurba_marseille","lat":43.34141,"lon":5.40904,"is_reserved":false,"is_disabled":false,"rental_uris":{"android":"levelo://app?vid=bf5f31c5-c205-46db-8daa-df328e1c916a","ios":"levelo://app?vid=bf5f31c5-c205-46db-8daa-df328e1c916a"},"vehicle_type_id":"4","last_reported":1741439263,"current_range_meters":16400,"station_id":"ce4bhqh2rcd13ifvqhlg","pricing_plan_id":"cebpf4jnsgd1na2vs0mg"},{"bike_id":"c248e88d-97cc-4e4f-9462-b52e28c3fa30","system_id":"levelo_inurba_marseille","lat":43.30429,"lon":5.39748,"is_reserved":false,"is_disabled":false,"rental_uris":{"android":"levelo://app?vid=c248e88d-97cc-4e4f-9462-b52e28c3fa30","ios":"levelo://app?vid=c248e88d-97cc-4e4f-9462-b52e28c3fa30"},"vehicle_type_id":"4","last_reported":1741439263,"current_range_meters":16800,"station_id":"ce4bh092rcd13ifvqd20","pricing_plan_id":"cebpf4jnsgd1na2vs0mg"},{"bike_id":"e9dab2ce-7c7d-40d2-82aa-ed5c703d86fd","system_id":"levelo_inurba_marseille","lat":43.32116,"lon":5.36794,"is_reserved":false,"is_disabled":false,"rental_uris":{"android":"levelo://app?vid=e9dab2ce-7c7d-40d2-82aa-ed5c703d86fd","ios":"levelo://app?vid=e9dab2ce-7c7d-40d2-82aa-ed5c703d86fd"},"vehicle_type_id":"4","last_reported":1741439263,"current_range_meters":16800,"station_id":"ce4bhrh2rcd13ifvqhug","pricing_plan_id":"cebpf4jnsgd1na2vs0mg"},{"bike_id":"deb81f77-c6e9-45d2-b680-8c00a5704cb4","system_id":"levelo_inurba_marseille","lat":43.32123,"lon":5.36776,"is_reserved":false,"is_disabled":false,"rental_uris":{"android":"levelo://app?vid=deb81f77-c6e9-45d2-b680-8c00a5704cb4","ios":"levelo://app?vid=deb81f77-c6e9-45d2-b680-8c00a5704cb4"},"vehicle_type_id":"4","last_reported":1741439263,"current_range_meters":16800,"station_id":"ce4bhrh2rcd13ifvqhug","pricing_plan_id":"cebpf4jnsgd1na2vs0mg"},{"bike_id":"edee6663-fff1-4591-ad8a-5ffa917da020","system_id":"levelo_inurba_marseille","lat":43.28269,"lon":5.35064,"is_reserved":false,"is_disabled":false,"rental_uris":{"android":"levelo://app?vid=edee6663-fff1-4591-ad8a-5ffa917da020","ios":"levelo://app?vid=edee6663-fff1-4591-ad8a-5ffa917da020"},"vehicle_type_id":"4","last_reported":1741439263,"current_range_meters":16800,"station_id":"ce4bhbp2rcd13ifvqerg","pricing_plan_id":"cebpf4jnsgd1na2vs0mg"},{"bike_id":"dc404e46-8217-49df-a9f9-0b1fb5b9d87a","system_id":"levelo_inurba_marseille","lat":43.2798,"lon":5.40464,"is_reserved":false,"is_disabled":false,"rental_uris":{"android":"levelo://app?vid=dc404e46-8217-49df-a9f9-0b1fb5b9d87a","ios":"levelo://app?vid=dc404e46-8217-49df-a9f9-0b1fb5b9d87a"},"vehicle_type_id":"4","last_reported":1741439263,"current_range_meters":16800,"station_id":"","pricing_plan_id":"cebpf4jnsgd1na2vs0mg"},{"bike_id":"7d5784fa-4cd9-4805-80bd-e45d001be8a2","system_id":"levelo_inurba_marseille","lat":43.257188,"lon":5.411129,"is_reserved":false,"is_disabled":false,"rental_uris":{"android":"levelo://app?vid=7d5784fa-4cd9-4805-80bd-e45d001be8a2","ios":"levelo://app?vid=7d5784fa-4cd9-4805-80bd-e45d001be8a2"},"vehicle_type_id":"4","last_reported":1741439263,"current_range_meters":16800,"station_id":"ce4bhkp2rcd13ifvqgd0","pricing_plan_id":"cebpf4jnsgd1na2vs0mg"},{"bike_id":"d880fb32-3ea8-4123-bdac-bd51be649f45","system_id":"levelo_inurba_marseille","lat":43.23062,"lon":5.35494,"is_reserved":false,"is_disabled":false,"rental_uris":{"android":"levelo://app?vid=d880fb32-3ea8-4123-bdac-bd51be649f45","ios":"levelo://app?vid=d880fb32-3ea8-4123-bdac-bd51be649f45"},"vehicle_type_id":"4","last_reported":1741439263,"current_range_meters":16800,"station_id":"cpo3342slgdg3j2ifvpg","pricing_plan_id":"cebpf4jnsgd1na2vs0mg"},{"bike_id":"07c44846-d3d0-4e12-a442-a02159848798","system_id":"levelo_inurba_marseille","lat":43.32472,"lon":5.36552,"is_reserved":false,"is_disabled":false,"rental_uris":{"android":"levelo://app?vid=07c44846-d3d0-4e12-a442-a02159848798","ios":"levelo://app?vid=07c44846-d3d0-4e12-a442-a02159848798"},"vehicle_type_id":"4","last_reported":1741439263,"current_range_meters":17200,"station_id":"ce4bhs12rcd13ifvqhvg","pricing_plan_id":"cebpf4jnsgd1na2vs0mg"},{"bike_id":"6aae2964-9efb-44eb-b278-42e84da4d116","system_id":"levelo_inurba_marseille","lat":43.30277,"lon":5.37708,"is_reserved":false,"is_disabled":false,"rental_uris":{"android":"levelo://app?vid=6aae2964-9efb-44eb-b278-42e84da4d116","ios":"levelo://app?vid=6aae2964-9efb-44eb-b278-42e84da4d116"},"vehicle_type_id":"4","last_reported":1741439263,"current_range_meters":17200,"station_id":"ce4bguh2rcd13ifvqcj0","pricing_plan_id":"cebpf4jnsgd1na2vs0mg"},{"bike_id":"ac28f047-cdec-4827-a9a5-65793bb8dab3","system_id":"levelo_inurba_marseille","lat":43.28614,"lon":5.35104,"is_reserved":false,"is_disabled":false,"rental_uris":{"android":"levelo://app?vid=ac28f047-cdec-4827-a9a5-65793bb8dab3","ios":"levelo://app?vid=ac28f047-cdec-4827-a9a5-65793bb8dab3"},"vehicle_type_id":"4","last_reported":1741439263,"current_range_meters":17200,"station_id":"ce4bhch2rcd13ifvqeug","pricing_plan_id":"cebpf4jnsgd1na2vs0mg"},{"bike_id":"d96a9b99-82c0-439c-90da-5cd0aed77495","system_id":"levelo_inurba_marseille","lat":43.26198,"lon":5.37447,"is_reserved":false,"is_disabled":false,"rental_uris":{"android":"levelo://app?vid=d96a9b99-82c0-439c-90da-5cd0aed77495","ios":"levelo://app?vid=d96a9b99-82c0-439c-90da-5cd0aed77495"},"vehicle_type_id":"4","last_reported":1741439263,"current_range_meters":17200,"station_id":"ce4bhgp2rcd13ifvqfc0","pricing_plan_id":"cebpf4jnsgd1na2vs0mg"},{"bike_id":"94e5c145-3ad9-419d-a025-3c7dea81bc8c","system_id":"levelo_inurba_marseille","lat":43.27615,"lon":5.36115,"is_reserved":false,"is_disabled":false,"rental_uris":{"android":"levelo://app?vid=94e5c145-3ad9-419d-a025-3c7dea81bc8c","ios":"levelo://app?vid=94e5c145-3ad9-419d-a025-3c7dea81bc8c"},"vehicle_type_id":"4","last_reported":1741439263,"current_range_meters":17200,"station_id":"ce4bgj92rcd13ifvqbe0","pricing_plan_id":"cebpf4jnsgd1na2vs0mg"},{"bike_id":"2d201668-e0ff-4085-9ec0-5c082a94ad30","system_id":"levelo_inurba_marseille","lat":43.33755,"lon":5.37464,"is_reserved":false,"is_disabled":false,"rental_uris":{"android":"levelo://app?vid=2d201668-e0ff-4085-9ec0-5c082a94ad30","ios":"levelo://app?vid=2d201668-e0ff-4085-9ec0-5c082a94ad30"},"vehicle_type_id":"4","last_reported":1741439263,"current_range_meters":17200,"station_id":"","pricing_plan_id":"cebpf4jnsgd1na2vs0mg"},{"bike_id":"71697849-ec58-4518-9158-9a1b7a1ea659","system_id":"levelo_inurba_marseille","lat":43.25121,"lon":5.40322,"is_reserved":false,"is_disabled":false,"rental_uris":{"android":"levelo://app?vid=71697849-ec58-4518-9158-9a1b7a1ea659","ios":"levelo://app?vid=71697849-ec58-4518-9158-9a1b7a1ea659"},"vehicle_type_id":"4","last_reported":1741439263,"current_range_meters":17200,"station_id":"ce4bhlh2rcd13ifvqgig","pricing_plan_id":"cebpf4jnsgd1na2vs0mg"},{"bike_id":"98d6b5e7-ab8a-48b4-a847-7124bae4afc6","system_id":"levelo_inurba_marseille","lat":43.23062,"lon":5.35501,"is_reserved":false,"is_disabled":false,"rental_uris":{"android":"levelo://app?vid=98d6b5e7-ab8a-48b4-a847-7124bae4afc6","ios":"levelo://app?vid=98d6b5e7-ab8a-48b4-a847-7124bae4afc6"},"vehicle_type_id":"4","last_reported":1741439263,"current_range_meters":17200,"station_id":"cpo3342slgdg3j2ifvpg","pricing_plan_id":"cebpf4jnsgd1na2vs0mg"},{"bike_id":"0ac66333-6a60-44db-814a-99009cb715b0","system_id":"levelo_inurba_marseille","lat":43.22935,"lon":5.35368,"is_reserved":false,"is_disabled":false,"rental_uris":{"android":"levelo://app?vid=0ac66333-6a60-44db-814a-99009cb715b0","ios":"levelo://app?vid=0ac66333-6a60-44db-814a-99009cb715b0"},"vehicle_type_id":"4","last_reported":1741439263,"current_range_meters":17200,"station_id":"cpo3532slgdg3j2ikp40","pricing_plan_id":"cebpf4jnsgd1na2vs0mg"},{"bike_id":"99e69bf6-dc57-4127-a1aa-9a36825d1a88","system_id":"levelo_inurba_marseille","lat":43.32372,"lon":5.36773,"is_reserved":false,"is_disabled":false,"rental_uris":{"android":"levelo://app?vid=99e69bf6-dc57-4127-a1aa-9a36825d1a88","ios":"levelo://app?vid=99e69bf6-dc57-4127-a1aa-9a36825d1a88"},"vehicle_type_id":"4","last_reported":1741439263,"current_range_meters":17200,"station_id":"ce4bhsh2rcd13ifvqi2g","pricing_plan_id":"cebpf4jnsgd1na2vs0mg"},{"bike_id":"3a28e81b-0b61-43f7-9a78-761aabf632e6","system_id":"levelo_inurba_marseille","lat":43.30136,"lon":5.37419,"is_reserved":false,"is_disabled":false,"rental_uris":{"android":"levelo://app?vid=3a28e81b-0b61-43f7-9a78-761aabf632e6","ios":"levelo://app?vid=3a28e81b-0b61-43f7-9a78-761aabf632e6"},"vehicle_type_id":"4","last_reported":1741439263,"current_range_meters":17600,"station_id":"ce4bgs92rcd13ifvqcc0","pricing_plan_id":"cebpf4jnsgd1na2vs0mg"},{"bike_id":"11ebf985-b073-454a-baa8-beec3c04cd37","system_id":"levelo_inurba_marseille","lat":43.33062,"lon":5.39066,"is_reserved":false,"is_disabled":false,"rental_uris":{"android":"levelo://app?vid=11ebf985-b073-454a-baa8-beec3c04cd37","ios":"levelo://app?vid=11ebf985-b073-454a-baa8-beec3c04cd37"},"vehicle_type_id":"4","last_reported":1741439263,"current_range_meters":17600,"station_id":"","pricing_plan_id":"cebpf4jnsgd1na2vs0mg"},{"bike_id":"c66e977b-e56f-46ed-89d4-394fd708c38d","system_id":"levelo_inurba_marseille","lat":43.25823,"lon":5.39423,"is_reserved":false,"is_disabled":false,"rental_uris":{"android":"levelo://app?vid=c66e977b-e56f-46ed-89d4-394fd708c38d","ios":"levelo://app?vid=c66e977b-e56f-46ed-89d4-394fd708c38d"},"vehicle_type_id":"4","last_reported":1741439263,"current_range_meters":17600,"station_id":"ce4bhip2rcd13ifvqft0","pricing_plan_id":"cebpf4jnsgd1na2vs0mg"},{"bike_id":"eaf95cb1-b676-4e8c-b5d6-922a79f56434","system_id":"levelo_inurba_marseille","lat":43.23188,"lon":5.35565,"is_reserved":false,"is_disabled":false,"rental_uris":{"android":"levelo://app?vid=eaf95cb1-b676-4e8c-b5d6-922a79f56434","ios":"levelo://app?vid=eaf95cb1-b676-4e8c-b5d6-922a79f56434"},"vehicle_type_id":"4","last_reported":1741439263,"current_range_meters":17600,"station_id":"ce4bhu92rcd13ifvqi70","pricing_plan_id":"cebpf4jnsgd1na2vs0mg"},{"bike_id":"e1a0293b-333d-4a97-9af3-0c51ffe4ad6e","system_id":"levelo_inurba_marseille","lat":43.2669,"lon":5.38268,"is_reserved":false,"is_disabled":false,"rental_uris":{"android":"levelo://app?vid=e1a0293b-333d-4a97-9af3-0c51ffe4ad6e","ios":"levelo://app?vid=e1a0293b-333d-4a97-9af3-0c51ffe4ad6e"},"vehicle_type_id":"4","last_reported":1741439263,"current_range_meters":17600,"station_id":"ce4bhg92rcd13ifvqf90","pricing_plan_id":"cebpf4jnsgd1na2vs0mg"},{"bike_id":"b7ac1a9b-646b-4e6f-980d-f307cd7542ea","system_id":"levelo_inurba_marseille","lat":43.29932,"lon":5.3655,"is_reserved":false,"is_disabled":false,"rental_uris":{"android":"levelo://app?vid=b7ac1a9b-646b-4e6f-980d-f307cd7542ea","ios":"levelo://app?vid=b7ac1a9b-646b-4e6f-980d-f307cd7542ea"},"vehicle_type_id":"4","last_reported":1741439263,"current_range_meters":17600,"station_id":"ce4bgm92rcd13ifvqbr0","pricing_plan_id":"cebpf4jnsgd1na2vs0mg"},{"bike_id":"14101884-f651-4525-abac-60e7b000d0ce","system_id":"levelo_inurba_marseille","lat":43.24391,"lon":5.37061,"is_reserved":false,"is_disabled":false,"rental_uris":{"android":"levelo://app?vid=14101884-f651-4525-abac-60e7b000d0ce","ios":"levelo://app?vid=14101884-f651-4525-abac-60e7b000d0ce"},"vehicle_type_id":"4","last_reported":1741439263,"current_range_meters":17600,"station_id":"ce4bhhh2rcd13ifvqfk0","pricing_plan_id":"cebpf4jnsgd1na2vs0mg"},{"bike_id":"a71f5391-91f9-4d09-a601-92c62e162a41","system_id":"levelo_inurba_marseille","lat":43.29338,"lon":5.37934,"is_reserved":false,"is_disabled":false,"rental_uris":{"android":"levelo://app?vid=a71f5391-91f9-4d09-a601-92c62e162a41","ios":"levelo://app?vid=a71f5391-91f9-4d09-a601-92c62e162a41"},"vehicle_type_id":"4","last_reported":1741439263,"current_range_meters":17600,"station_id":"","pricing_plan_id":"cebpf4jnsgd1na2vs0mg"},{"bike_id":"4c2f31be-d910-44a0-bf80-42c6447a123d","system_id":"levelo_inurba_marseille","lat":43.32087,"lon":5.4151,"is_reserved":false,"is_disabled":false,"rental_uris":{"android":"levelo://app?vid=4c2f31be-d910-44a0-bf80-42c6447a123d","ios":"levelo://app?vid=4c2f31be-d910-44a0-bf80-42c6447a123d"},"vehicle_type_id":"4","last_reported":1741439263,"current_range_meters":17600,"station_id":"","pricing_plan_id":"cebpf4jnsgd1na2vs0mg"},{"bike_id":"a540861e-4176-4142-940d-a52c68ceae64","system_id":"levelo_inurba_marseille","lat":43.25513,"lon":5.37657,"is_reserved":false,"is_disabled":false,"rental_uris":{"android":"levelo://app?vid=a540861e-4176-4142-940d-a52c68ceae64","ios":"levelo://app?vid=a540861e-4176-4142-940d-a52c68ceae64"},"vehicle_type_id":"4","last_reported":1741439263,"current_range_meters":17600,"station_id":"ce4bhh12rcd13ifvqff0","pricing_plan_id":"cebpf4jnsgd1na2vs0mg"},{"bike_id":"db770aa1-b2c8-4d91-980b-b1ead4bc1f13","system_id":"levelo_inurba_marseille","lat":43.27069,"lon":5.40258,"is_reserved":false,"is_disabled":false,"rental_uris":{"android":"levelo://app?vid=db770aa1-b2c8-4d91-980b-b1ead4bc1f13","ios":"levelo://app?vid=db770aa1-b2c8-4d91-980b-b1ead4bc1f13"},"vehicle_type_id":"4","last_reported":1741439263,"current_range_meters":17600,"station_id":"ce4bhk92rcd13ifvqgc0","pricing_plan_id":"cebpf4jnsgd1na2vs0mg"},{"bike_id":"d60e2ba2-9d3a-4067-8d8a-3ebb91302584","system_id":"levelo_inurba_marseille","lat":43.29277,"lon":5.37776,"is_reserved":false,"is_disabled":false,"rental_uris":{"android":"levelo://app?vid=d60e2ba2-9d3a-4067-8d8a-3ebb91302584","ios":"levelo://app?vid=d60e2ba2-9d3a-4067-8d8a-3ebb91302584"},"vehicle_type_id":"4","last_reported":1741439263,"current_range_meters":18000,"station_id":"","pricing_plan_id":"cebpf4jnsgd1na2vs0mg"},{"bike_id":"c1867d3c-1323-4629-96f9-1a65e040ba35","system_id":"levelo_inurba_marseille","lat":43.25574,"lon":5.38222,"is_reserved":false,"is_disabled":false,"rental_uris":{"android":"levelo://app?vid=c1867d3c-1323-4629-96f9-1a65e040ba35","ios":"levelo://app?vid=c1867d3c-1323-4629-96f9-1a65e040ba35"},"vehicle_type_id":"4","last_reported":1741439263,"current_range_meters":18000,"station_id":"ce4bhih2rcd13ifvqfs0","pricing_plan_id":"cebpf4jnsgd1na2vs0mg"},{"bike_id":"83563c1c-bef7-4eab-bee7-f6756eeed608","system_id":"levelo_inurba_marseille","lat":43.25605,"lon":5.38221,"is_reserved":false,"is_disabled":false,"rental_uris":{"android":"levelo://app?vid=83563c1c-bef7-4eab-bee7-f6756eeed608","ios":"levelo://app?vid=83563c1c-bef7-4eab-bee7-f6756eeed608"},"vehicle_type_id":"4","last_reported":1741439263,"current_range_meters":18000,"station_id":"ce4bhih2rcd13ifvqfs0","pricing_plan_id":"cebpf4jnsgd1na2vs0mg"},{"bike_id":"e39cce55-f5eb-46e2-8d01-deca9e0dc868","system_id":"levelo_inurba_marseille","lat":43.28426,"lon":5.34989,"is_reserved":false,"is_disabled":false,"rental_uris":{"android":"levelo://app?vid=e39cce55-f5eb-46e2-8d01-deca9e0dc868","ios":"levelo://app?vid=e39cce55-f5eb-46e2-8d01-deca9e0dc868"},"vehicle_type_id":"4","last_reported":1741439263,"current_range_meters":18000,"station_id":"ce4bhbh2rcd13ifvqepg","pricing_plan_id":"cebpf4jnsgd1na2vs0mg"},{"bike_id":"2992c590-b877-454a-9977-7d5f4269557b","system_id":"levelo_inurba_marseille","lat":43.3095,"lon":5.37932,"is_reserved":false,"is_disabled":false,"rental_uris":{"android":"levelo://app?vid=2992c590-b877-454a-9977-7d5f4269557b","ios":"levelo://app?vid=2992c590-b877-454a-9977-7d5f4269557b"},"vehicle_type_id":"4","last_reported":1741439263,"current_range_meters":18000,"station_id":"ce4bhqh2rcd13ifvqhlg","pricing_plan_id":"cebpf4jnsgd1na2vs0mg"},{"bike_id":"d35caae8-f4b3-4a1f-b4e5-a43076da933c","system_id":"levelo_inurba_marseille","lat":43.31706,"lon":5.37643,"is_reserved":false,"is_disabled":false,"rental_uris":{"android":"levelo://app?vid=d35caae8-f4b3-4a1f-b4e5-a43076da933c","ios":"levelo://app?vid=d35caae8-f4b3-4a1f-b4e5-a43076da933c"},"vehicle_type_id":"4","last_reported":1741439263,"current_range_meters":18000,"station_id":"","pricing_plan_id":"cebpf4jnsgd1na2vs0mg"},{"bike_id":"f9c47b6e-9094-45bc-a72a-056e5cd2e553","system_id":"levelo_inurba_marseille","lat":43.264923,"lon":5.395346,"is_reserved":false,"is_disabled":false,"rental_uris":{"android":"levelo://app?vid=f9c47b6e-9094-45bc-a72a-056e5cd2e553","ios":"levelo://app?vid=f9c47b6e-9094-45bc-a72a-056e5cd2e553"},"vehicle_type_id":"4","last_reported":1741439263,"current_range_meters":17600,"station_id":"ce4bhip2rcd13ifvqft0","pricing_plan_id":"cebpf4jnsgd1na2vs0mg"},{"bike_id":"0de1b0e3-627d-4472-8cf5-9b7b0f4f99ae","system_id":"levelo_inurba_marseille","lat":43.30422,"lon":5.41287,"is_reserved":false,"is_disabled":false,"rental_uris":{"android":"levelo://app?vid=0de1b0e3-627d-4472-8cf5-9b7b0f4f99ae","ios":"levelo://app?vid=0de1b0e3-627d-4472-8cf5-9b7b0f4f99ae"},"vehicle_type_id":"4","last_reported":1741439263,"current_range_meters":18000,"station_id":"ce4bhop2rcd13ifvqh8g","pricing_plan_id":"cebpf4jnsgd1na2vs0mg"},{"bike_id":"6332f21c-b735-409b-8f12-ffcec3dc9b39","system_id":"levelo_inurba_marseille","lat":43.23179,"lon":5.39991,"is_reserved":false,"is_disabled":false,"rental_uris":{"android":"levelo://app?vid=6332f21c-b735-409b-8f12-ffcec3dc9b39","ios":"levelo://app?vid=6332f21c-b735-409b-8f12-ffcec3dc9b39"},"vehicle_type_id":"4","last_reported":1741439263,"current_range_meters":18000,"station_id":"ce4bhn12rcd13ifvqgqg","pricing_plan_id":"cebpf4jnsgd1na2vs0mg"},{"bike_id":"f4e5bfa9-3ef2-44b4-adaa-362ec3cebcd0","system_id":"levelo_inurba_marseille","lat":43.33011,"lon":5.39046,"is_reserved":false,"is_disabled":false,"rental_uris":{"android":"levelo://app?vid=f4e5bfa9-3ef2-44b4-adaa-362ec3cebcd0","ios":"levelo://app?vid=f4e5bfa9-3ef2-44b4-adaa-362ec3cebcd0"},"vehicle_type_id":"4","last_reported":1741439263,"current_range_meters":18000,"station_id":"ce4bhr92rcd13ifvqhrg","pricing_plan_id":"cebpf4jnsgd1na2vs0mg"},{"bike_id":"40182a5a-0b15-455b-8291-9fff5e227cdd","system_id":"levelo_inurba_marseille","lat":43.28611,"lon":5.37065,"is_reserved":false,"is_disabled":false,"rental_uris":{"android":"levelo://app?vid=40182a5a-0b15-455b-8291-9fff5e227cdd","ios":"levelo://app?vid=40182a5a-0b15-455b-8291-9fff5e227cdd"},"vehicle_type_id":"4","last_reported":1741439263,"current_range_meters":18000,"station_id":"ce4bht12rcd13ifvqi60","pricing_plan_id":"cebpf4jnsgd1na2vs0mg"},{"bike_id":"efb35257-b025-422d-be62-dd0ec14a15d0","system_id":"levelo_inurba_marseille","lat":43.29263,"lon":5.40899,"is_reserved":false,"is_disabled":false,"rental_uris":{"android":"levelo://app?vid=efb35257-b025-422d-be62-dd0ec14a15d0","ios":"levelo://app?vid=efb35257-b025-422d-be62-dd0ec14a15d0"},"vehicle_type_id":"4","last_reported":1741439263,"current_range_meters":18000,"station_id":"ce4bh192rcd13ifvqdc0","pricing_plan_id":"cebpf4jnsgd1na2vs0mg"},{"bike_id":"7f963301-df90-4303-b263-933cdfcaf613","system_id":"levelo_inurba_marseille","lat":43.29864,"lon":5.36268,"is_reserved":false,"is_disabled":false,"rental_uris":{"android":"levelo://app?vid=7f963301-df90-4303-b263-933cdfcaf613","ios":"levelo://app?vid=7f963301-df90-4303-b263-933cdfcaf613"},"vehicle_type_id":"4","last_reported":1741439263,"current_range_meters":18000,"station_id":"ce4bgpp2rcd13ifvqc3g","pricing_plan_id":"cebpf4jnsgd1na2vs0mg"},{"bike_id":"5a90c755-5607-4bf6-a7b2-4afdeca917ec","system_id":"levelo_inurba_marseille","lat":43.26572,"lon":5.37277,"is_reserved":false,"is_disabled":false,"rental_uris":{"android":"levelo://app?vid=5a90c755-5607-4bf6-a7b2-4afdeca917ec","ios":"levelo://app?vid=5a90c755-5607-4bf6-a7b2-4afdeca917ec"},"vehicle_type_id":"4","last_reported":1741439263,"current_range_meters":18800,"station_id":"ce4bhg12rcd13ifvqf70","pricing_plan_id":"cebpf4jnsgd1na2vs0mg"},{"bike_id":"25b778c2-7102-4dfe-8b16-b15e62a28bb6","system_id":"levelo_inurba_marseille","lat":43.31117,"lon":5.37757,"is_reserved":false,"is_disabled":false,"rental_uris":{"android":"levelo://app?vid=25b778c2-7102-4dfe-8b16-b15e62a28bb6","ios":"levelo://app?vid=25b778c2-7102-4dfe-8b16-b15e62a28bb6"},"vehicle_type_id":"4","last_reported":1741439263,"current_range_meters":18800,"station_id":"ce4bgt92rcd13ifvqcg0","pricing_plan_id":"cebpf4jnsgd1na2vs0mg"},{"bike_id":"f8ccbec5-265e-48aa-b3a5-799b2375ca19","system_id":"levelo_inurba_marseille","lat":43.29057,"lon":5.35881,"is_reserved":false,"is_disabled":false,"rental_uris":{"android":"levelo://app?vid=f8ccbec5-265e-48aa-b3a5-799b2375ca19","ios":"levelo://app?vid=f8ccbec5-265e-48aa-b3a5-799b2375ca19"},"vehicle_type_id":"4","last_reported":1741439263,"current_range_meters":18800,"station_id":"ce4bha92rcd13ifvqeg0","pricing_plan_id":"cebpf4jnsgd1na2vs0mg"},{"bike_id":"746a93f7-48b8-47de-8ffb-c90833f2c4aa","system_id":"levelo_inurba_marseille","lat":43.27952,"lon":5.41044,"is_reserved":false,"is_disabled":false,"rental_uris":{"android":"levelo://app?vid=746a93f7-48b8-47de-8ffb-c90833f2c4aa","ios":"levelo://app?vid=746a93f7-48b8-47de-8ffb-c90833f2c4aa"},"vehicle_type_id":"4","last_reported":1741439263,"current_range_meters":18800,"station_id":"ce4bhnp2rcd13ifvqh0g","pricing_plan_id":"cebpf4jnsgd1na2vs0mg"},{"bike_id":"3a485042-bed2-4fa2-bde1-80d3db621928","system_id":"levelo_inurba_marseille","lat":43.27044,"lon":5.40285,"is_reserved":false,"is_disabled":false,"rental_uris":{"android":"levelo://app?vid=3a485042-bed2-4fa2-bde1-80d3db621928","ios":"levelo://app?vid=3a485042-bed2-4fa2-bde1-80d3db621928"},"vehicle_type_id":"4","last_reported":1741439263,"current_range_meters":18800,"station_id":"ce4bhk92rcd13ifvqgc0","pricing_plan_id":"cebpf4jnsgd1na2vs0mg"},{"bike_id":"58516daf-5c8f-48f7-a55c-f40a545449df","system_id":"levelo_inurba_marseille","lat":43.28095,"lon":5.37871,"is_reserved":false,"is_disabled":false,"rental_uris":{"android":"levelo://app?vid=58516daf-5c8f-48f7-a55c-f40a545449df","ios":"levelo://app?vid=58516daf-5c8f-48f7-a55c-f40a545449df"},"vehicle_type_id":"4","last_reported":1741439263,"current_range_meters":19200,"station_id":"ce4bha12rcd13ifvqee0","pricing_plan_id":"cebpf4jnsgd1na2vs0mg"},{"bike_id":"3795c289-beea-44c3-a7ae-fd3e55b72f22","system_id":"levelo_inurba_marseille","lat":43.28615,"lon":5.351,"is_reserved":false,"is_disabled":true,"rental_uris":{"android":"levelo://app?vid=3795c289-beea-44c3-a7ae-fd3e55b72f22","ios":"levelo://app?vid=3795c289-beea-44c3-a7ae-fd3e55b72f22"},"vehicle_type_id":"4","last_reported":1741439263,"current_range_meters":19200,"station_id":"ce4bhch2rcd13ifvqeug","pricing_plan_id":"cebpf4jnsgd1na2vs0mg"},{"bike_id":"441f2b3a-05c7-44c5-bcd4-da840189ca3d","system_id":"levelo_inurba_marseille","lat":43.27043,"lon":5.4027,"is_reserved":false,"is_disabled":false,"rental_uris":{"android":"levelo://app?vid=441f2b3a-05c7-44c5-bcd4-da840189ca3d","ios":"levelo://app?vid=441f2b3a-05c7-44c5-bcd4-da840189ca3d"},