{"last_updated":1781207310,"ttl":60,"version":"2.2","data":{"bikes":[{"bike_id":"ec12d144-24c8-4071-abf6-197e520eae96","system_id":"levelo_inurba_marseille","lat":43.337444,"lon":5.374475,"is_reserved":false,"is_disabled":false,"rental_uris":{"android":"levelo://app?vid=ec12d144-24c8-4071-abf6-197e520eae96","ios":"levelo://app?vid=ec12d144-24c8-4071-abf6-197e520eae96"},"vehicle_type_id":"4","last_reported":1781207311,"current_range_meters":0,"station_id":"","pricing_plan_id":"cebpf4jnsgd1na2vs0mg"},{"bike_id":"abb86029-51b5-49ed-a010-e64a292b46c6","system_id":"levelo_inurba_marseille","lat":43.26504,"lon":5.39534,"is_reserved":false,"is_disabled":false,"rental_uris":{"android":"levelo://app?vid=abb86029-51b5-49ed-a010-e64a292b46c6","ios":"levelo://app?vid=abb86029-51b5-49ed-a010-e64a292b46c6"},"vehicle_type_id":"4","last_reported":1781207311,"current_range_meters":2800,"station_id":"ce4bhi12rcd13ifvqfq0","pricing_plan_id":"cebpf4jnsgd1na2vs0mg"},{"bike_id":"bf9eed74-a4ba-4237-a09c-6e73855cd6a8","system_id":"levelo_inurba_marseille","lat":43.2815,"lon":5.42643,"is_reserved":false,"is_disabled":false,"rental_uris":{"android":"levelo://app?vid=bf9eed74-a4ba-4237-a09c-6e73855cd6a8","ios":"levelo://app?vid=bf9eed74-a4ba-4237-a09c-6e73855cd6a8"},"vehicle_type_id":"4","last_reported":1781207311,"current_range_meters":2800,"station_id":"ce4bhnh2rcd13ifvqgug","pricing_plan_id":"cebpf4jnsgd1na2vs0mg"},{"bike_id":"1b6ca918-1743-49ab-af19-a83031407f07","system_id":"levelo_inurba_marseille","lat":43.2389,"lon":5.37461,"is_reserved":false,"is_disabled":true,"rental_uris":{"android":"levelo://app?vid=1b6ca918-1743-49ab-af19-a83031407f07","ios":"levelo://app?vid=1b6ca918-1743-49ab-af19-a83031407f07"},"vehicle_type_id":"4","last_reported":1781207311,"current_range_meters":2800,"station_id":"st_d6sm7csbq4hs73f8fpjg","pricing_plan_id":"cebpf4jnsgd1na2vs0mg"},{"bike_id":"5a5ac9f0-ff16-4226-8a7d-30362127445a","system_id":"levelo_inurba_marseille","lat":43.25581,"lon":5.38225,"is_reserved":false,"is_disabled":false,"rental_uris":{"android":"levelo://app?vid=5a5ac9f0-ff16-4226-8a7d-30362127445a","ios":"levelo://app?vid=5a5ac9f0-ff16-4226-8a7d-30362127445a"},"vehicle_type_id":"4","last_reported":1781207311,"current_range_meters":2800,"station_id":"ce4bhih2rcd13ifvqfs0","pricing_plan_id":"cebpf4jnsgd1na2vs0mg"},{"bike_id":"950b4615-e9c9-4bfc-9fa6-de9b41e4a257","system_id":"levelo_inurba_marseille","lat":43.27616,"lon":5.36106,"is_reserved":false,"is_disabled":false,"rental_uris":{"android":"levelo://app?vid=950b4615-e9c9-4bfc-9fa6-de9b41e4a257","ios":"levelo://app?vid=950b4615-e9c9-4bfc-9fa6-de9b41e4a257"},"vehicle_type_id":"4","last_reported":1781207311,"current_range_meters":2800,"station_id":"ce4bgj92rcd13ifvqbe0","pricing_plan_id":"cebpf4jnsgd1na2vs0mg"},{"bike_id":"1b0eac04-f591-4a98-a859-f6b12de18cd7","system_id":"levelo_inurba_marseille","lat":43.28724,"lon":5.4667,"is_reserved":false,"is_disabled":false,"rental_uris":{"android":"levelo://app?vid=1b0eac04-f591-4a98-a859-f6b12de18cd7","ios":"levelo://app?vid=1b0eac04-f591-4a98-a859-f6b12de18cd7"},"vehicle_type_id":"4","last_reported":1781207311,"current_range_meters":2800,"station_id":"st_d6tc3vkotcvc738tfjhg","pricing_plan_id":"cebpf4jnsgd1na2vs0mg"},{"bike_id":"9e3cae08-2b0a-4ff3-90a8-4fa3cb38a15d","system_id":"levelo_inurba_marseille","lat":43.29375,"lon":5.37852,"is_reserved":false,"is_disabled":false,"rental_uris":{"android":"levelo://app?vid=9e3cae08-2b0a-4ff3-90a8-4fa3cb38a15d","ios":"levelo://app?vid=9e3cae08-2b0a-4ff3-90a8-4fa3cb38a15d"},"vehicle_type_id":"4","last_reported":1781207311,"current_range_meters":2800,"station_id":"ce4bgjh2rcd13ifvqbf0","pricing_plan_id":"cebpf4jnsgd1na2vs0mg"},{"bike_id":"564980c7-4086-4d0c-b20e-906bc61640a8","system_id":"levelo_inurba_marseille","lat":43.29675,"lon":5.36326,"is_reserved":false,"is_disabled":false,"rental_uris":{"android":"levelo://app?vid=564980c7-4086-4d0c-b20e-906bc61640a8","ios":"levelo://app?vid=564980c7-4086-4d0c-b20e-906bc61640a8"},"vehicle_type_id":"4","last_reported":1781207311,"current_range_meters":2800,"station_id":"","pricing_plan_id":"cebpf4jnsgd1na2vs0mg"},{"bike_id":"48712959-2889-4897-8071-869dab143f1a","system_id":"levelo_inurba_marseille","lat":43.28074,"lon":5.39659,"is_reserved":false,"is_disabled":false,"rental_uris":{"android":"levelo://app?vid=48712959-2889-4897-8071-869dab143f1a","ios":"levelo://app?vid=48712959-2889-4897-8071-869dab143f1a"},"vehicle_type_id":"4","last_reported":1781207311,"current_range_meters":2800,"station_id":"ce4bho12rcd13ifvqh2g","pricing_plan_id":"cebpf4jnsgd1na2vs0mg"},{"bike_id":"380eeb0a-ddcf-4d2f-a116-c2459cb019db","system_id":"levelo_inurba_marseille","lat":43.25583,"lon":5.38225,"is_reserved":false,"is_disabled":false,"rental_uris":{"android":"levelo://app?vid=380eeb0a-ddcf-4d2f-a116-c2459cb019db","ios":"levelo://app?vid=380eeb0a-ddcf-4d2f-a116-c2459cb019db"},"vehicle_type_id":"4","last_reported":1781207311,"current_range_meters":2800,"station_id":"ce4bhih2rcd13ifvqfs0","pricing_plan_id":"cebpf4jnsgd1na2vs0mg"},{"bike_id":"12df29cc-abfa-41e4-9d8d-6005376fb963","system_id":"levelo_inurba_marseille","lat":43.266188,"lon":5.394222,"is_reserved":false,"is_disabled":false,"rental_uris":{"android":"levelo://app?vid=12df29cc-abfa-41e4-9d8d-6005376fb963","ios":"levelo://app?vid=12df29cc-abfa-41e4-9d8d-6005376fb963"},"vehicle_type_id":"4","last_reported":1781207311,"current_range_meters":3200,"station_id":"","pricing_plan_id":"cebpf4jnsgd1na2vs0mg"},{"bike_id":"09e18ee6-d7a9-4621-a532-a41938bf3fb1","system_id":"levelo_inurba_marseille","lat":43.30181,"lon":5.36595,"is_reserved":false,"is_disabled":false,"rental_uris":{"android":"levelo://app?vid=09e18ee6-d7a9-4621-a532-a41938bf3fb1","ios":"levelo://app?vid=09e18ee6-d7a9-4621-a532-a41938bf3fb1"},"vehicle_type_id":"4","last_reported":1781207311,"current_range_meters":3200,"station_id":"ce4bgrh2rcd13ifvqc8g","pricing_plan_id":"cebpf4jnsgd1na2vs0mg"},{"bike_id":"33676267-77eb-4130-9e3f-9f08bed2d07a","system_id":"levelo_inurba_marseille","lat":43.28864,"lon":5.42529,"is_reserved":false,"is_disabled":false,"rental_uris":{"android":"levelo://app?vid=33676267-77eb-4130-9e3f-9f08bed2d07a","ios":"levelo://app?vid=33676267-77eb-4130-9e3f-9f08bed2d07a"},"vehicle_type_id":"4","last_reported":1781207311,"current_range_meters":3200,"station_id":"st_d3b462108ojc7389ooeg","pricing_plan_id":"cebpf4jnsgd1na2vs0mg"},{"bike_id":"1a63c251-af14-41fb-839f-6a652d14a508","system_id":"levelo_inurba_marseille","lat":43.2737,"lon":5.3626,"is_reserved":false,"is_disabled":false,"rental_uris":{"android":"levelo://app?vid=1a63c251-af14-41fb-839f-6a652d14a508","ios":"levelo://app?vid=1a63c251-af14-41fb-839f-6a652d14a508"},"vehicle_type_id":"4","last_reported":1781207311,"current_range_meters":3200,"station_id":"ce4bhbh2rcd13ifvqeo0","pricing_plan_id":"cebpf4jnsgd1na2vs0mg"},{"bike_id":"da4e93ca-2f76-4d8a-b5a6-90e430f83af2","system_id":"levelo_inurba_marseille","lat":43.29537,"lon":5.3852,"is_reserved":false,"is_disabled":false,"rental_uris":{"android":"levelo://app?vid=da4e93ca-2f76-4d8a-b5a6-90e430f83af2","ios":"levelo://app?vid=da4e93ca-2f76-4d8a-b5a6-90e430f83af2"},"vehicle_type_id":"4","last_reported":1781207311,"current_range_meters":3200,"station_id":"ce4bgih2rcd13ifvqba0","pricing_plan_id":"cebpf4jnsgd1na2vs0mg"},{"bike_id":"2a8ee5a0-6852-44b0-a6e2-f4e4bf4a3fe5","system_id":"levelo_inurba_marseille","lat":43.25505,"lon":5.38922,"is_reserved":false,"is_disabled":true,"rental_uris":{"android":"levelo://app?vid=2a8ee5a0-6852-44b0-a6e2-f4e4bf4a3fe5","ios":"levelo://app?vid=2a8ee5a0-6852-44b0-a6e2-f4e4bf4a3fe5"},"vehicle_type_id":"4","last_reported":1781207311,"current_range_meters":3200,"station_id":"","pricing_plan_id":"cebpf4jnsgd1na2vs0mg"},{"bike_id":"85d35f28-5e49-4592-9024-d37c6ea12dc7","system_id":"levelo_inurba_marseille","lat":43.27616,"lon":5.36116,"is_reserved":false,"is_disabled":false,"rental_uris":{"android":"levelo://app?vid=85d35f28-5e49-4592-9024-d37c6ea12dc7","ios":"levelo://app?vid=85d35f28-5e49-4592-9024-d37c6ea12dc7"},"vehicle_type_id":"4","last_reported":1781207311,"current_range_meters":3200,"station_id":"ce4bgj92rcd13ifvqbe0","pricing_plan_id":"cebpf4jnsgd1na2vs0mg"},{"bike_id":"7ae71271-0e51-4120-a3c1-66c1898efaff","system_id":"levelo_inurba_marseille","lat":43.30311,"lon":5.36891,"is_reserved":false,"is_disabled":false,"rental_uris":{"android":"levelo://app?vid=7ae71271-0e51-4120-a3c1-66c1898efaff","ios":"levelo://app?vid=7ae71271-0e51-4120-a3c1-66c1898efaff"},"vehicle_type_id":"4","last_reported":1781207311,"current_range_meters":3200,"station_id":"ce4bgqh2rcd13ifvqc5g","pricing_plan_id":"cebpf4jnsgd1na2vs0mg"},{"bike_id":"26a548b1-2ac5-4ad7-89b5-8bc650cf2caa","system_id":"levelo_inurba_marseille","lat":43.24657,"lon":5.38159,"is_reserved":false,"is_disabled":false,"rental_uris":{"android":"levelo://app?vid=26a548b1-2ac5-4ad7-89b5-8bc650cf2caa","ios":"levelo://app?vid=26a548b1-2ac5-4ad7-89b5-8bc650cf2caa"},"vehicle_type_id":"4","last_reported":1781207311,"current_range_meters":3200,"station_id":"ce4bhih2rcd13ifvqfr0","pricing_plan_id":"cebpf4jnsgd1na2vs0mg"},{"bike_id":"4c9315b6-5037-48f8-acd1-7a92cedaad02","system_id":"levelo_inurba_marseille","lat":43.27291,"lon":5.41023,"is_reserved":false,"is_disabled":false,"rental_uris":{"android":"levelo://app?vid=4c9315b6-5037-48f8-acd1-7a92cedaad02","ios":"levelo://app?vid=4c9315b6-5037-48f8-acd1-7a92cedaad02"},"vehicle_type_id":"4","last_reported":1781207311,"current_range_meters":3200,"station_id":"","pricing_plan_id":"cebpf4jnsgd1na2vs0mg"},{"bike_id":"4cf4a57f-7f39-4e6d-9c3f-ccda5af3ecde","system_id":"levelo_inurba_marseille","lat":43.29038,"lon":5.35882,"is_reserved":false,"is_disabled":false,"rental_uris":{"android":"levelo://app?vid=4cf4a57f-7f39-4e6d-9c3f-ccda5af3ecde","ios":"levelo://app?vid=4cf4a57f-7f39-4e6d-9c3f-ccda5af3ecde"},"vehicle_type_id":"4","last_reported":1781207311,"current_range_meters":3200,"station_id":"ce4bha92rcd13ifvqeg0","pricing_plan_id":"cebpf4jnsgd1na2vs0mg"},{"bike_id":"627383c3-1ca4-4292-a0f0-c21bf7584678","system_id":"levelo_inurba_marseille","lat":43.28751,"lon":5.4272,"is_reserved":false,"is_disabled":false,"rental_uris":{"android":"levelo://app?vid=627383c3-1ca4-4292-a0f0-c21bf7584678","ios":"levelo://app?vid=627383c3-1ca4-4292-a0f0-c21bf7584678"},"vehicle_type_id":"4","last_reported":1781207311,"current_range_meters":3200,"station_id":"","pricing_plan_id":"cebpf4jnsgd1na2vs0mg"},{"bike_id":"291a9c35-35dd-42aa-bdfc-4e281234a90a","system_id":"levelo_inurba_marseille","lat":43.28471,"lon":5.38537,"is_reserved":false,"is_disabled":true,"rental_uris":{"android":"levelo://app?vid=291a9c35-35dd-42aa-bdfc-4e281234a90a","ios":"levelo://app?vid=291a9c35-35dd-42aa-bdfc-4e281234a90a"},"vehicle_type_id":"4","last_reported":1781207311,"current_range_meters":3200,"station_id":"ce4bh8p2rcd13ifvqeb0","pricing_plan_id":"cebpf4jnsgd1na2vs0mg"},{"bike_id":"fb1a1b12-204e-4db3-87a0-407694d41ea0","system_id":"levelo_inurba_marseille","lat":43.28463,"lon":5.35887,"is_reserved":false,"is_disabled":false,"rental_uris":{"android":"levelo://app?vid=fb1a1b12-204e-4db3-87a0-407694d41ea0","ios":"levelo://app?vid=fb1a1b12-204e-4db3-87a0-407694d41ea0"},"vehicle_type_id":"4","last_reported":1781207311,"current_range_meters":3200,"station_id":"ce4bhah2rcd13ifvqei0","pricing_plan_id":"cebpf4jnsgd1na2vs0mg"},{"bike_id":"a949ab75-be2f-4de3-87b1-03b69d2967c5","system_id":"levelo_inurba_marseille","lat":43.25181,"lon":5.41127,"is_reserved":false,"is_disabled":false,"rental_uris":{"android":"levelo://app?vid=a949ab75-be2f-4de3-87b1-03b69d2967c5","ios":"levelo://app?vid=a949ab75-be2f-4de3-87b1-03b69d2967c5"},"vehicle_type_id":"4","last_reported":1781207311,"current_range_meters":3200,"station_id":"","pricing_plan_id":"cebpf4jnsgd1na2vs0mg"},{"bike_id":"66a57e97-9916-4ab9-af0c-be880c2d5570","system_id":"levelo_inurba_marseille","lat":43.28732,"lon":5.40418,"is_reserved":false,"is_disabled":false,"rental_uris":{"android":"levelo://app?vid=66a57e97-9916-4ab9-af0c-be880c2d5570","ios":"levelo://app?vid=66a57e97-9916-4ab9-af0c-be880c2d5570"},"vehicle_type_id":"4","last_reported":1781207311,"current_range_meters":3200,"station_id":"","pricing_plan_id":"cebpf4jnsgd1na2vs0mg"},{"bike_id":"ac554b10-1a3b-4a6c-9faa-4db88d4f5bfa","system_id":"levelo_inurba_marseille","lat":43.24807,"lon":5.3746,"is_reserved":false,"is_disabled":false,"rental_uris":{"android":"levelo://app?vid=ac554b10-1a3b-4a6c-9faa-4db88d4f5bfa","ios":"levelo://app?vid=ac554b10-1a3b-4a6c-9faa-4db88d4f5bfa"},"vehicle_type_id":"4","last_reported":1781207311,"current_range_meters":3200,"station_id":"ce4bhgh2rcd13ifvqfb0","pricing_plan_id":"cebpf4jnsgd1na2vs0mg"},{"bike_id":"9167f767-0d7d-4a75-a2ed-c3bb3be42588","system_id":"levelo_inurba_marseille","lat":43.31361,"lon":5.3848,"is_reserved":false,"is_disabled":false,"rental_uris":{"android":"levelo://app?vid=9167f767-0d7d-4a75-a2ed-c3bb3be42588","ios":"levelo://app?vid=9167f767-0d7d-4a75-a2ed-c3bb3be42588"},"vehicle_type_id":"4","last_reported":1781207311,"current_range_meters":3200,"station_id":"ce4bgt92rcd13ifvqcf0","pricing_plan_id":"cebpf4jnsgd1na2vs0mg"},{"bike_id":"fafdb545-4263-4738-90a4-2c4a24e0b45a","system_id":"levelo_inurba_marseille","lat":43.3335,"lon":5.4105,"is_reserved":false,"is_disabled":false,"rental_uris":{"android":"levelo://app?vid=fafdb545-4263-4738-90a4-2c4a24e0b45a","ios":"levelo://app?vid=fafdb545-4263-4738-90a4-2c4a24e0b45a"},"vehicle_type_id":"4","last_reported":1781207311,"current_range_meters":3200,"station_id":"","pricing_plan_id":"cebpf4jnsgd1na2vs0mg"},{"bike_id":"8a0978f4-6f03-4a2d-bda9-9e8367c1623c","system_id":"levelo_inurba_marseille","lat":43.30821,"lon":5.38148,"is_reserved":false,"is_disabled":false,"rental_uris":{"android":"levelo://app?vid=8a0978f4-6f03-4a2d-bda9-9e8367c1623c","ios":"levelo://app?vid=8a0978f4-6f03-4a2d-bda9-9e8367c1623c"},"vehicle_type_id":"4","last_reported":1781207311,"current_range_meters":3200,"station_id":"ce4bgt12rcd13ifvqce0","pricing_plan_id":"cebpf4jnsgd1na2vs0mg"},{"bike_id":"0adc8e9f-7880-42db-9e68-19cdef99c12e","system_id":"levelo_inurba_marseille","lat":43.28709,"lon":5.37389,"is_reserved":false,"is_disabled":false,"rental_uris":{"android":"levelo://app?vid=0adc8e9f-7880-42db-9e68-19cdef99c12e","ios":"levelo://app?vid=0adc8e9f-7880-42db-9e68-19cdef99c12e"},"vehicle_type_id":"4","last_reported":1781207311,"current_range_meters":3200,"station_id":"ce4bh3p2rcd13ifvqdq0","pricing_plan_id":"cebpf4jnsgd1na2vs0mg"},{"bike_id":"60726254-c8fc-4392-ad13-50ba34082b25","system_id":"levelo_inurba_marseille","lat":43.28124,"lon":5.40485,"is_reserved":false,"is_disabled":false,"rental_uris":{"android":"levelo://app?vid=60726254-c8fc-4392-ad13-50ba34082b25","ios":"levelo://app?vid=60726254-c8fc-4392-ad13-50ba34082b25"},"vehicle_type_id":"4","last_reported":1781207311,"current_range_meters":3200,"station_id":"","pricing_plan_id":"cebpf4jnsgd1na2vs0mg"},{"bike_id":"dc5f45dd-2a13-4735-b625-d10894a9745f","system_id":"levelo_inurba_marseille","lat":43.28402,"lon":5.37507,"is_reserved":false,"is_disabled":false,"rental_uris":{"android":"levelo://app?vid=dc5f45dd-2a13-4735-b625-d10894a9745f","ios":"levelo://app?vid=dc5f45dd-2a13-4735-b625-d10894a9745f"},"vehicle_type_id":"4","last_reported":1781207311,"current_range_meters":3200,"station_id":"ce4bh412rcd13ifvqds0","pricing_plan_id":"cebpf4jnsgd1na2vs0mg"},{"bike_id":"c50a9e43-666a-4ebb-bb15-fba6ac3b0d59","system_id":"levelo_inurba_marseille","lat":43.29322,"lon":5.36333,"is_reserved":false,"is_disabled":false,"rental_uris":{"android":"levelo://app?vid=c50a9e43-666a-4ebb-bb15-fba6ac3b0d59","ios":"levelo://app?vid=c50a9e43-666a-4ebb-bb15-fba6ac3b0d59"},"vehicle_type_id":"4","last_reported":1781207311,"current_range_meters":3200,"station_id":"","pricing_plan_id":"cebpf4jnsgd1na2vs0mg"},{"bike_id":"3a0a3c1e-d128-4138-b2e1-df846eb876c4","system_id":"levelo_inurba_marseille","lat":43.2869,"lon":5.39435,"is_reserved":false,"is_disabled":false,"rental_uris":{"android":"levelo://app?vid=3a0a3c1e-d128-4138-b2e1-df846eb876c4","ios":"levelo://app?vid=3a0a3c1e-d128-4138-b2e1-df846eb876c4"},"vehicle_type_id":"4","last_reported":1781207311,"current_range_meters":3600,"station_id":"","pricing_plan_id":"cebpf4jnsgd1na2vs0mg"},{"bike_id":"cc044a5d-6424-486c-a90d-3884464a6b29","system_id":"levelo_inurba_marseille","lat":43.32078,"lon":5.36279,"is_reserved":false,"is_disabled":false,"rental_uris":{"android":"levelo://app?vid=cc044a5d-6424-486c-a90d-3884464a6b29","ios":"levelo://app?vid=cc044a5d-6424-486c-a90d-3884464a6b29"},"vehicle_type_id":"4","last_reported":1781207311,"current_range_meters":3600,"station_id":"","pricing_plan_id":"cebpf4jnsgd1na2vs0mg"},{"bike_id":"0b542d53-e4b2-4fd5-adf4-084e17c09620","system_id":"levelo_inurba_marseille","lat":43.30121,"lon":5.43112,"is_reserved":false,"is_disabled":false,"rental_uris":{"android":"levelo://app?vid=0b542d53-e4b2-4fd5-adf4-084e17c09620","ios":"levelo://app?vid=0b542d53-e4b2-4fd5-adf4-084e17c09620"},"vehicle_type_id":"4","last_reported":1781207311,"current_range_meters":3600,"station_id":"st_d3js3co5814s73ftftug","pricing_plan_id":"cebpf4jnsgd1na2vs0mg"},{"bike_id":"1b5b933a-fa6e-43ab-a13f-79a56a3ca6a4","system_id":"levelo_inurba_marseille","lat":43.29192,"lon":5.39311,"is_reserved":false,"is_disabled":false,"rental_uris":{"android":"levelo://app?vid=1b5b933a-fa6e-43ab-a13f-79a56a3ca6a4","ios":"levelo://app?vid=1b5b933a-fa6e-43ab-a13f-79a56a3ca6a4"},"vehicle_type_id":"4","last_reported":1781207311,"current_range_meters":3600,"station_id":"ce4bh192rcd13ifvqdd0","pricing_plan_id":"cebpf4jnsgd1na2vs0mg"},{"bike_id":"293abf0b-6082-414c-9fe5-7c6d82528a49","system_id":"levelo_inurba_marseille","lat":43.29273,"lon":5.40106,"is_reserved":false,"is_disabled":false,"rental_uris":{"android":"levelo://app?vid=293abf0b-6082-414c-9fe5-7c6d82528a49","ios":"levelo://app?vid=293abf0b-6082-414c-9fe5-7c6d82528a49"},"vehicle_type_id":"4","last_reported":1781207311,"current_range_meters":3600,"station_id":"ce4bh312rcd13ifvqdk0","pricing_plan_id":"cebpf4jnsgd1na2vs0mg"},{"bike_id":"a6bbc9c3-7b45-439a-a02a-8d725555f6ba","system_id":"levelo_inurba_marseille","lat":43.29967,"lon":5.38489,"is_reserved":false,"is_disabled":false,"rental_uris":{"android":"levelo://app?vid=a6bbc9c3-7b45-439a-a02a-8d725555f6ba","ios":"levelo://app?vid=a6bbc9c3-7b45-439a-a02a-8d725555f6ba"},"vehicle_type_id":"4","last_reported":1781207311,"current_range_meters":3600,"station_id":"ce4bgj92rcd13ifvqbd0","pricing_plan_id":"cebpf4jnsgd1na2vs0mg"},{"bike_id":"a35d6ad5-98df-4043-bf93-164e38cc614c","system_id":"levelo_inurba_marseille","lat":43.33115,"lon":5.40804,"is_reserved":false,"is_disabled":false,"rental_uris":{"android":"levelo://app?vid=a35d6ad5-98df-4043-bf93-164e38cc614c","ios":"levelo://app?vid=a35d6ad5-98df-4043-bf93-164e38cc614c"},"vehicle_type_id":"4","last_reported":1781207311,"current_range_meters":3600,"station_id":"","pricing_plan_id":"cebpf4jnsgd1na2vs0mg"},{"bike_id":"db84e909-f3c0-4c59-b5ea-648558288536","system_id":"levelo_inurba_marseille","lat":43.27566,"lon":5.38413,"is_reserved":false,"is_disabled":false,"rental_uris":{"android":"levelo://app?vid=db84e909-f3c0-4c59-b5ea-648558288536","ios":"levelo://app?vid=db84e909-f3c0-4c59-b5ea-648558288536"},"vehicle_type_id":"4","last_reported":1781207311,"current_range_meters":3600,"station_id":"ce4bhh92rcd13ifvqfi0","pricing_plan_id":"cebpf4jnsgd1na2vs0mg"},{"bike_id":"f8671556-b7c4-4a04-86c9-422f70a6fa84","system_id":"levelo_inurba_marseille","lat":43.33479,"lon":5.42049,"is_reserved":false,"is_disabled":false,"rental_uris":{"android":"levelo://app?vid=f8671556-b7c4-4a04-86c9-422f70a6fa84","ios":"levelo://app?vid=f8671556-b7c4-4a04-86c9-422f70a6fa84"},"vehicle_type_id":"4","last_reported":1781207311,"current_range_meters":3600,"station_id":"","pricing_plan_id":"cebpf4jnsgd1na2vs0mg"},{"bike_id":"c5ab485f-9d17-4442-8a02-4fd199bef794","system_id":"levelo_inurba_marseille","lat":43.2495,"lon":5.40476,"is_reserved":false,"is_disabled":false,"rental_uris":{"android":"levelo://app?vid=c5ab485f-9d17-4442-8a02-4fd199bef794","ios":"levelo://app?vid=c5ab485f-9d17-4442-8a02-4fd199bef794"},"vehicle_type_id":"4","last_reported":1781207311,"current_range_meters":3600,"station_id":"st_d2ngiaodas8pm72gd1h0","pricing_plan_id":"cebpf4jnsgd1na2vs0mg"},{"bike_id":"0d2d2cdb-99b5-46aa-b23f-2365f4a13f5b","system_id":"levelo_inurba_marseille","lat":43.23142,"lon":5.43712,"is_reserved":false,"is_disabled":false,"rental_uris":{"android":"levelo://app?vid=0d2d2cdb-99b5-46aa-b23f-2365f4a13f5b","ios":"levelo://app?vid=0d2d2cdb-99b5-46aa-b23f-2365f4a13f5b"},"vehicle_type_id":"4","last_reported":1781207311,"current_range_meters":3600,"station_id":"ce4bhmp2rcd13ifvqgog","pricing_plan_id":"cebpf4jnsgd1na2vs0mg"},{"bike_id":"f6c6251a-fe65-430b-8a3f-2ca08dc7ffcd","system_id":"levelo_inurba_marseille","lat":43.28105,"lon":5.37826,"is_reserved":false,"is_disabled":false,"rental_uris":{"android":"levelo://app?vid=f6c6251a-fe65-430b-8a3f-2ca08dc7ffcd","ios":"levelo://app?vid=f6c6251a-fe65-430b-8a3f-2ca08dc7ffcd"},"vehicle_type_id":"4","last_reported":1781207311,"current_range_meters":4000,"station_id":"ce4bha12rcd13ifvqee0","pricing_plan_id":"cebpf4jnsgd1na2vs0mg"},{"bike_id":"402cee7f-7d33-47c7-a4a6-ec74389838c4","system_id":"levelo_inurba_marseille","lat":43.3145,"lon":5.37355,"is_reserved":false,"is_disabled":false,"rental_uris":{"android":"levelo://app?vid=402cee7f-7d33-47c7-a4a6-ec74389838c4","ios":"levelo://app?vid=402cee7f-7d33-47c7-a4a6-ec74389838c4"},"vehicle_type_id":"4","last_reported":1781207311,"current_range_meters":4000,"station_id":"","pricing_plan_id":"cebpf4jnsgd1na2vs0mg"},{"bike_id":"6f92623e-58a5-48f2-a25f-da14fd5d97cb","system_id":"levelo_inurba_marseille","lat":43.29269,"lon":5.38427,"is_reserved":false,"is_disabled":false,"rental_uris":{"android":"levelo://app?vid=6f92623e-58a5-48f2-a25f-da14fd5d97cb","ios":"levelo://app?vid=6f92623e-58a5-48f2-a25f-da14fd5d97cb"},"vehicle_type_id":"4","last_reported":1781207311,"current_range_meters":4000,"station_id":"ce4bh692rcd13ifvqea0","pricing_plan_id":"cebpf4jnsgd1na2vs0mg"},{"bike_id":"720b7a81-8ca4-4e49-b6a1-61c4c62a08f7","system_id":"levelo_inurba_marseille","lat":43.24817,"lon":5.37449,"is_reserved":false,"is_disabled":true,"rental_uris":{"android":"levelo://app?vid=720b7a81-8ca4-4e49-b6a1-61c4c62a08f7","ios":"levelo://app?vid=720b7a81-8ca4-4e49-b6a1-61c4c62a08f7"},"vehicle_type_id":"4","last_reported":1781207311,"current_range_meters":4000,"station_id":"ce4bhgh2rcd13ifvqfb0","pricing_plan_id":"cebpf4jnsgd1na2vs0mg"},{"bike_id":"4ac9e88b-c671-4557-8838-fe3557509874","system_id":"levelo_inurba_marseille","lat":43.24067,"lon":5.37733,"is_reserved":false,"is_disabled":true,"rental_uris":{"android":"levelo://app?vid=4ac9e88b-c671-4557-8838-fe3557509874","ios":"levelo://app?vid=4ac9e88b-c671-4557-8838-fe3557509874"},"vehicle_type_id":"4","last_reported":1781207311,"current_range_meters":4000,"station_id":"ce4bhnp2rcd13ifvqgvg","pricing_plan_id":"cebpf4jnsgd1na2vs0mg"},{"bike_id":"f8546570-fa2b-4ba3-bf49-3e69c77ebd2d","system_id":"levelo_inurba_marseille","lat":43.30093,"lon":5.39082,"is_reserved":false,"is_disabled":false,"rental_uris":{"android":"levelo://app?vid=f8546570-fa2b-4ba3-bf49-3e69c77ebd2d","ios":"levelo://app?vid=f8546570-fa2b-4ba3-bf49-3e69c77ebd2d"},"vehicle_type_id":"4","last_reported":1781207311,"current_range_meters":4000,"station_id":"ce4bh192rcd13ifvqdb0","pricing_plan_id":"cebpf4jnsgd1na2vs0mg"},{"bike_id":"845a3784-b288-41b3-8cc0-32d8dd65a7d5","system_id":"levelo_inurba_marseille","lat":43.29491,"lon":5.43304,"is_reserved":false,"is_disabled":false,"rental_uris":{"android":"levelo://app?vid=845a3784-b288-41b3-8cc0-32d8dd65a7d5","ios":"levelo://app?vid=845a3784-b288-41b3-8cc0-32d8dd65a7d5"},"vehicle_type_id":"4","last_reported":1781207311,"current_range_meters":4000,"station_id":"st_d3j5ugp08ojc73fj9d10","pricing_plan_id":"cebpf4jnsgd1na2vs0mg"},{"bike_id":"8b476511-21d9-4a0f-a1a0-2547d4284bd0","system_id":"levelo_inurba_marseille","lat":43.28718,"lon":5.36104,"is_reserved":false,"is_disabled":false,"rental_uris":{"android":"levelo://app?vid=8b476511-21d9-4a0f-a1a0-2547d4284bd0","ios":"levelo://app?vid=8b476511-21d9-4a0f-a1a0-2547d4284bd0"},"vehicle_type_id":"4","last_reported":1781207311,"current_range_meters":4000,"station_id":"cki0cbj6b192h4jlfktg","pricing_plan_id":"cebpf4jnsgd1na2vs0mg"},{"bike_id":"e1c6c299-9da3-4fb8-8020-b461c214840d","system_id":"levelo_inurba_marseille","lat":43.32005,"lon":5.39006,"is_reserved":false,"is_disabled":false,"rental_uris":{"android":"levelo://app?vid=e1c6c299-9da3-4fb8-8020-b461c214840d","ios":"levelo://app?vid=e1c6c299-9da3-4fb8-8020-b461c214840d"},"vehicle_type_id":"4","last_reported":1781207311,"current_range_meters":4000,"station_id":"","pricing_plan_id":"cebpf4jnsgd1na2vs0mg"},{"bike_id":"51285819-5207-44f1-bdef-3afe3acb97ba","system_id":"levelo_inurba_marseille","lat":43.2927,"lon":5.40143,"is_reserved":false,"is_disabled":false,"rental_uris":{"android":"levelo://app?vid=51285819-5207-44f1-bdef-3afe3acb97ba","ios":"levelo://app?vid=51285819-5207-44f1-bdef-3afe3acb97ba"},"vehicle_type_id":"4","last_reported":1781207311,"current_range_meters":4000,"station_id":"ce4bh312rcd13ifvqdk0","pricing_plan_id":"cebpf4jnsgd1na2vs0mg"},{"bike_id":"a261e416-085f-43ad-be55-095f325ab0d1","system_id":"levelo_inurba_marseille","lat":43.29169,"lon":5.37151,"is_reserved":false,"is_disabled":false,"rental_uris":{"android":"levelo://app?vid=a261e416-085f-43ad-be55-095f325ab0d1","ios":"levelo://app?vid=a261e416-085f-43ad-be55-095f325ab0d1"},"vehicle_type_id":"4","last_reported":1781207311,"current_range_meters":4000,"station_id":"ce4bha92rcd13ifvqeh0","pricing_plan_id":"cebpf4jnsgd1na2vs0mg"},{"bike_id":"75fef152-62c5-4e54-978d-e8ddf81662d8","system_id":"levelo_inurba_marseille","lat":43.29289,"lon":5.40127,"is_reserved":false,"is_disabled":false,"rental_uris":{"android":"levelo://app?vid=75fef152-62c5-4e54-978d-e8ddf81662d8","ios":"levelo://app?vid=75fef152-62c5-4e54-978d-e8ddf81662d8"},"vehicle_type_id":"4","last_reported":1781207311,"current_range_meters":4000,"station_id":"ce4bh312rcd13ifvqdk0","pricing_plan_id":"cebpf4jnsgd1na2vs0mg"},{"bike_id":"80523438-5de1-4acb-aa7c-07ea88be4dae","system_id":"levelo_inurba_marseille","lat":43.31309,"lon":5.40252,"is_reserved":false,"is_disabled":false,"rental_uris":{"android":"levelo://app?vid=80523438-5de1-4acb-aa7c-07ea88be4dae","ios":"levelo://app?vid=80523438-5de1-4acb-aa7c-07ea88be4dae"},"vehicle_type_id":"4","last_reported":1781207311,"current_range_meters":4000,"station_id":"","pricing_plan_id":"cebpf4jnsgd1na2vs0mg"},{"bike_id":"9f4fcf20-1a53-472f-9347-4549e57b79ba","system_id":"levelo_inurba_marseille","lat":43.29313,"lon":5.37469,"is_reserved":false,"is_disabled":false,"rental_uris":{"android":"levelo://app?vid=9f4fcf20-1a53-472f-9347-4549e57b79ba","ios":"levelo://app?vid=9f4fcf20-1a53-472f-9347-4549e57b79ba"},"vehicle_type_id":"4","last_reported":1781207311,"current_range_meters":4000,"station_id":"ce4bgi12rcd13ifvqb70","pricing_plan_id":"cebpf4jnsgd1na2vs0mg"},{"bike_id":"1140d017-c3b9-43dd-ba73-6e5a45e2fcc8","system_id":"levelo_inurba_marseille","lat":43.32002,"lon":5.38146,"is_reserved":false,"is_disabled":false,"rental_uris":{"android":"levelo://app?vid=1140d017-c3b9-43dd-ba73-6e5a45e2fcc8","ios":"levelo://app?vid=1140d017-c3b9-43dd-ba73-6e5a45e2fcc8"},"vehicle_type_id":"4","last_reported":1781207311,"current_range_meters":4000,"station_id":"ce4bhr12rcd13ifvqhpg","pricing_plan_id":"cebpf4jnsgd1na2vs0mg"},{"bike_id":"14b4b371-8f26-4cf1-95b4-880cc3bc4611","system_id":"levelo_inurba_marseille","lat":43.29299,"lon":5.37186,"is_reserved":false,"is_disabled":true,"rental_uris":{"android":"levelo://app?vid=14b4b371-8f26-4cf1-95b4-880cc3bc4611","ios":"levelo://app?vid=14b4b371-8f26-4cf1-95b4-880cc3bc4611"},"vehicle_type_id":"4","last_reported":1781207311,"current_range_meters":4000,"station_id":"ce4bgh92rcd13ifvqb40","pricing_plan_id":"cebpf4jnsgd1na2vs0mg"},{"bike_id":"accbe499-7105-4f46-ac3b-85520f67d2a9","system_id":"levelo_inurba_marseille","lat":43.25577,"lon":5.38223,"is_reserved":false,"is_disabled":false,"rental_uris":{"android":"levelo://app?vid=accbe499-7105-4f46-ac3b-85520f67d2a9","ios":"levelo://app?vid=accbe499-7105-4f46-ac3b-85520f67d2a9"},"vehicle_type_id":"4","last_reported":1781207311,"current_range_meters":4000,"station_id":"ce4bhih2rcd13ifvqfs0","pricing_plan_id":"cebpf4jnsgd1na2vs0mg"},{"bike_id":"4df93a2d-aa6a-4b31-93fb-7fa77fa8a80d","system_id":"levelo_inurba_marseille","lat":43.32213,"lon":5.44023,"is_reserved":false,"is_disabled":false,"rental_uris":{"android":"levelo://app?vid=4df93a2d-aa6a-4b31-93fb-7fa77fa8a80d","ios":"levelo://app?vid=4df93a2d-aa6a-4b31-93fb-7fa77fa8a80d"},"vehicle_type_id":"4","last_reported":1781207311,"current_range_meters":4000,"station_id":"","pricing_plan_id":"cebpf4jnsgd1na2vs0mg"},{"bike_id":"ffea2c2b-4f86-48b5-b103-1dee459a7a42","system_id":"levelo_inurba_marseille","lat":43.284688,"lon":5.358786,"is_reserved":false,"is_disabled":false,"rental_uris":{"android":"levelo://app?vid=ffea2c2b-4f86-48b5-b103-1dee459a7a42","ios":"levelo://app?vid=ffea2c2b-4f86-48b5-b103-1dee459a7a42"},"vehicle_type_id":"4","last_reported":1781207311,"current_range_meters":4400,"station_id":"ce4bhah2rcd13ifvqei0","pricing_plan_id":"cebpf4jnsgd1na2vs0mg"},{"bike_id":"582c6b7b-37e6-4a03-8f89-52fb5665e43d","system_id":"levelo_inurba_marseille","lat":43.29019,"lon":5.38635,"is_reserved":false,"is_disabled":true,"rental_uris":{"android":"levelo://app?vid=582c6b7b-37e6-4a03-8f89-52fb5665e43d","ios":"levelo://app?vid=582c6b7b-37e6-4a03-8f89-52fb5665e43d"},"vehicle_type_id":"4","last_reported":1781207311,"current_range_meters":4400,"station_id":"ce4bh4p2rcd13ifvqe0g","pricing_plan_id":"cebpf4jnsgd1na2vs0mg"},{"bike_id":"858bc1f1-e9df-4cf9-9233-92d9caba6756","system_id":"levelo_inurba_marseille","lat":43.26553,"lon":5.37288,"is_reserved":false,"is_disabled":true,"rental_uris":{"android":"levelo://app?vid=858bc1f1-e9df-4cf9-9233-92d9caba6756","ios":"levelo://app?vid=858bc1f1-e9df-4cf9-9233-92d9caba6756"},"vehicle_type_id":"4","last_reported":1781207311,"current_range_meters":4400,"station_id":"ce4bhg12rcd13ifvqf70","pricing_plan_id":"cebpf4jnsgd1na2vs0mg"},{"bike_id":"6ba15c2b-70bf-4892-8b14-66870b37121b","system_id":"levelo_inurba_marseille","lat":43.29795,"lon":5.37093,"is_reserved":false,"is_disabled":true,"rental_uris":{"android":"levelo://app?vid=6ba15c2b-70bf-4892-8b14-66870b37121b","ios":"levelo://app?vid=6ba15c2b-70bf-4892-8b14-66870b37121b"},"vehicle_type_id":"4","last_reported":1781207311,"current_range_meters":4400,"station_id":"ce4bgop2rcd13ifvqc1g","pricing_plan_id":"cebpf4jnsgd1na2vs0mg"},{"bike_id":"5daabd28-ff4d-47c3-ba5e-68e013918ede","system_id":"levelo_inurba_marseille","lat":43.288582,"lon":5.393095,"is_reserved":false,"is_disabled":false,"rental_uris":{"android":"levelo://app?vid=5daabd28-ff4d-47c3-ba5e-68e013918ede","ios":"levelo://app?vid=5daabd28-ff4d-47c3-ba5e-68e013918ede"},"vehicle_type_id":"4","last_reported":1781207311,"current_range_meters":4400,"station_id":"ce4bh2p2rcd13ifvqdi0","pricing_plan_id":"cebpf4jnsgd1na2vs0mg"},{"bike_id":"6c96fca7-4a83-479d-ac62-b341b0e9aa74","system_id":"levelo_inurba_marseille","lat":43.30435,"lon":5.38872,"is_reserved":false,"is_disabled":false,"rental_uris":{"android":"levelo://app?vid=6c96fca7-4a83-479d-ac62-b341b0e9aa74","ios":"levelo://app?vid=6c96fca7-4a83-479d-ac62-b341b0e9aa74"},"vehicle_type_id":"4","last_reported":1781207311,"current_range_meters":4400,"station_id":"ce4bgk12rcd13ifvqbi0","pricing_plan_id":"cebpf4jnsgd1na2vs0mg"},{"bike_id":"5ded1d33-5ff9-400f-a493-905c032c65d1","system_id":"levelo_inurba_marseille","lat":43.27812,"lon":5.40709,"is_reserved":false,"is_disabled":false,"rental_uris":{"android":"levelo://app?vid=5ded1d33-5ff9-400f-a493-905c032c65d1","ios":"levelo://app?vid=5ded1d33-5ff9-400f-a493-905c032c65d1"},"vehicle_type_id":"4","last_reported":1781207311,"current_range_meters":4400,"station_id":"ce4bhnh2rcd13ifvqgtg","pricing_plan_id":"cebpf4jnsgd1na2vs0mg"},{"bike_id":"18ef74f6-f248-4a2c-8cf7-9e3e238771e6","system_id":"levelo_inurba_marseille","lat":43.28621,"lon":5.35078,"is_reserved":false,"is_disabled":false,"rental_uris":{"android":"levelo://app?vid=18ef74f6-f248-4a2c-8cf7-9e3e238771e6","ios":"levelo://app?vid=18ef74f6-f248-4a2c-8cf7-9e3e238771e6"},"vehicle_type_id":"4","last_reported":1781207311,"current_range_meters":4400,"station_id":"ce4bhch2rcd13ifvqeug","pricing_plan_id":"cebpf4jnsgd1na2vs0mg"},{"bike_id":"36a52cc1-4b60-4aac-8384-5286b63a149c","system_id":"levelo_inurba_marseille","lat":43.32119,"lon":5.36735,"is_reserved":false,"is_disabled":false,"rental_uris":{"android":"levelo://app?vid=36a52cc1-4b60-4aac-8384-5286b63a149c","ios":"levelo://app?vid=36a52cc1-4b60-4aac-8384-5286b63a149c"},"vehicle_type_id":"4","last_reported":1781207311,"current_range_meters":4400,"station_id":"ce4bhrh2rcd13ifvqhug","pricing_plan_id":"cebpf4jnsgd1na2vs0mg"},{"bike_id":"683a5cb4-23ad-4e17-a7ba-421543a86b87","system_id":"levelo_inurba_marseille","lat":43.27943,"lon":5.41041,"is_reserved":false,"is_disabled":false,"rental_uris":{"android":"levelo://app?vid=683a5cb4-23ad-4e17-a7ba-421543a86b87","ios":"levelo://app?vid=683a5cb4-23ad-4e17-a7ba-421543a86b87"},"vehicle_type_id":"4","last_reported":1781207311,"current_range_meters":4400,"station_id":"ce4bhnp2rcd13ifvqh0g","pricing_plan_id":"cebpf4jnsgd1na2vs0mg"},{"bike_id":"a4b00031-ee09-4aec-8eb7-94d1603e3e96","system_id":"levelo_inurba_marseille","lat":43.32102,"lon":5.36756,"is_reserved":false,"is_disabled":false,"rental_uris":{"android":"levelo://app?vid=a4b00031-ee09-4aec-8eb7-94d1603e3e96","ios":"levelo://app?vid=a4b00031-ee09-4aec-8eb7-94d1603e3e96"},"vehicle_type_id":"4","last_reported":1781207311,"current_range_meters":4400,"station_id":"ce4bhrh2rcd13ifvqhug","pricing_plan_id":"cebpf4jnsgd1na2vs0mg"},{"bike_id":"3a75f0d0-f871-460b-9645-7adb90b5c1ca","system_id":"levelo_inurba_marseille","lat":43.25115,"lon":5.40274,"is_reserved":false,"is_disabled":true,"rental_uris":{"android":"levelo://app?vid=3a75f0d0-f871-460b-9645-7adb90b5c1ca","ios":"levelo://app?vid=3a75f0d0-f871-460b-9645-7adb90b5c1ca"},"vehicle_type_id":"4","last_reported":1781207311,"current_range_meters":4400,"station_id":"ce4bhlh2rcd13ifvqgig","pricing_plan_id":"cebpf4jnsgd1na2vs0mg"},{"bike_id":"10735159-3397-4800-83f9-6dea2cbec6ca","system_id":"levelo_inurba_marseille","lat":43.33532,"lon":5.37448,"is_reserved":false,"is_disabled":false,"rental_uris":{"android":"levelo://app?vid=10735159-3397-4800-83f9-6dea2cbec6ca","ios":"levelo://app?vid=10735159-3397-4800-83f9-6dea2cbec6ca"},"vehicle_type_id":"4","last_reported":1781207311,"current_range_meters":4400,"station_id":"st_d46tts09ee8s73dlu43g","pricing_plan_id":"cebpf4jnsgd1na2vs0mg"},{"bike_id":"9caa4f18-c443-48c6-a3d1-f58fac60bb1f","system_id":"levelo_inurba_marseille","lat":43.26117,"lon":5.37498,"is_reserved":false,"is_disabled":false,"rental_uris":{"android":"levelo://app?vid=9caa4f18-c443-48c6-a3d1-f58fac60bb1f","ios":"levelo://app?vid=9caa4f18-c443-48c6-a3d1-f58fac60bb1f"},"vehicle_type_id":"4","last_reported":1781207311,"current_range_meters":4400,"station_id":"","pricing_plan_id":"cebpf4jnsgd1na2vs0mg"},{"bike_id":"55e7feae-4011-4373-89b7-db0e48e15420","system_id":"levelo_inurba_marseille","lat":43.29362,"lon":5.37819,"is_reserved":false,"is_disabled":false,"rental_uris":{"android":"levelo://app?vid=55e7feae-4011-4373-89b7-db0e48e15420","ios":"levelo://app?vid=55e7feae-4011-4373-89b7-db0e48e15420"},"vehicle_type_id":"4","last_reported":1781207311,"current_range_meters":4400,"station_id":"ce4bgjh2rcd13ifvqbf0","pricing_plan_id":"cebpf4jnsgd1na2vs0mg"},{"bike_id":"8bc2b223-959c-47a8-9e5b-f88cc9bb8051","system_id":"levelo_inurba_marseille","lat":43.26197,"lon":5.37452,"is_reserved":false,"is_disabled":false,"rental_uris":{"android":"levelo://app?vid=8bc2b223-959c-47a8-9e5b-f88cc9bb8051","ios":"levelo://app?vid=8bc2b223-959c-47a8-9e5b-f88cc9bb8051"},"vehicle_type_id":"4","last_reported":1781207311,"current_range_meters":4400,"station_id":"ce4bhgp2rcd13ifvqfc0","pricing_plan_id":"cebpf4jnsgd1na2vs0mg"},{"bike_id":"e2efc7c7-a347-4a56-a140-e9f45c94d1eb","system_id":"levelo_inurba_marseille","lat":43.28489,"lon":5.38549,"is_reserved":false,"is_disabled":true,"rental_uris":{"android":"levelo://app?vid=e2efc7c7-a347-4a56-a140-e9f45c94d1eb","ios":"levelo://app?vid=e2efc7c7-a347-4a56-a140-e9f45c94d1eb"},"vehicle_type_id":"4","last_reported":1781207311,"current_range_meters":4800,"station_id":"ce4bh8p2rcd13ifvqeb0","pricing_plan_id":"cebpf4jnsgd1na2vs0mg"},{"bike_id":"428c3e3c-12af-4f39-baa9-d9e5d7e21c93","system_id":"levelo_inurba_marseille","lat":43.28989,"lon":5.37842,"is_reserved":false,"is_disabled":false,"rental_uris":{"android":"levelo://app?vid=428c3e3c-12af-4f39-baa9-d9e5d7e21c93","ios":"levelo://app?vid=428c3e3c-12af-4f39-baa9-d9e5d7e21c93"},"vehicle_type_id":"4","last_reported":1781207311,"current_range_meters":4800,"station_id":"ce4bh9p2rcd13ifvqed0","pricing_plan_id":"cebpf4jnsgd1na2vs0mg"},{"bike_id":"581eb976-4601-4f87-b521-f567cf030906","system_id":"levelo_inurba_marseille","lat":43.23946,"lon":5.43806,"is_reserved":false,"is_disabled":false,"rental_uris":{"android":"levelo://app?vid=581eb976-4601-4f87-b521-f567cf030906","ios":"levelo://app?vid=581eb976-4601-4f87-b521-f567cf030906"},"vehicle_type_id":"4","last_reported":1781207311,"current_range_meters":4800,"station_id":"","pricing_plan_id":"cebpf4jnsgd1na2vs0mg"},{"bike_id":"5c17057b-bf5f-46fb-a6d3-4474bdd8a421","system_id":"levelo_inurba_marseille","lat":43.2929,"lon":5.38406,"is_reserved":false,"is_disabled":false,"rental_uris":{"android":"levelo://app?vid=5c17057b-bf5f-46fb-a6d3-4474bdd8a421","ios":"levelo://app?vid=5c17057b-bf5f-46fb-a6d3-4474bdd8a421"},"vehicle_type_id":"4","last_reported":1781207311,"current_range_meters":4800,"station_id":"ce4bh692rcd13ifvqea0","pricing_plan_id":"cebpf4jnsgd1na2vs0mg"},{"bike_id":"a1c015e9-3e11-46f0-b642-1fa3036dfa73","system_id":"levelo_inurba_marseille","lat":43.33159,"lon":5.37702,"is_reserved":false,"is_disabled":false,"rental_uris":{"android":"levelo://app?vid=a1c015e9-3e11-46f0-b642-1fa3036dfa73","ios":"levelo://app?vid=a1c015e9-3e11-46f0-b642-1fa3036dfa73"},"vehicle_type_id":"4","last_reported":1781207311,"current_range_meters":4800,"station_id":"st_d46cu089ee8s73dldbu0","pricing_plan_id":"cebpf4jnsgd1na2vs0mg"},{"bike_id":"9845ecd6-c2e1-44c8-9b95-22ed5860c660","system_id":"levelo_inurba_marseille","lat":43.23182,"lon":5.40512,"is_reserved":false,"is_disabled":false,"rental_uris":{"android":"levelo://app?vid=9845ecd6-c2e1-44c8-9b95-22ed5860c660","ios":"levelo://app?vid=9845ecd6-c2e1-44c8-9b95-22ed5860c660"},"vehicle_type_id":"4","last_reported":1781207311,"current_range_meters":4800,"station_id":"","pricing_plan_id":"cebpf4jnsgd1na2vs0mg"},{"bike_id":"ee630227-b472-4a9b-99e9-bdd036978952","system_id":"levelo_inurba_marseille","lat":43.2858,"lon":5.39385,"is_reserved":false,"is_disabled":false,"rental_uris":{"android":"levelo://app?vid=ee630227-b472-4a9b-99e9-bdd036978952","ios":"levelo://app?vid=ee630227-b472-4a9b-99e9-bdd036978952"},"vehicle_type_id":"4","last_reported":1781207311,"current_range_meters":4800,"station_id":"","pricing_plan_id":"cebpf4jnsgd1na2vs0mg"},{"bike_id":"76f5dd5d-ca31-4b0e-8dbb-b6ce3553ebe9","system_id":"levelo_inurba_marseille","lat":43.26052,"lon":5.3939,"is_reserved":false,"is_disabled":false,"rental_uris":{"android":"levelo://app?vid=76f5dd5d-ca31-4b0e-8dbb-b6ce3553ebe9","ios":"levelo://app?vid=76f5dd5d-ca31-4b0e-8dbb-b6ce3553ebe9"},"vehicle_type_id":"4","last_reported":1781207311,"current_range_meters":4800,"station_id":"ce4bhh92rcd13ifvqfj0","pricing_plan_id":"cebpf4jnsgd1na2vs0mg"},{"bike_id":"0be2ecc3-07f5-4760-b184-9d28bdbbf08a","system_id":"levelo_inurba_marseille","lat":43.28616,"lon":5.35076,"is_reserved":false,"is_disabled":false,"rental_uris":{"android":"levelo://app?vid=0be2ecc3-07f5-4760-b184-9d28bdbbf08a","ios":"levelo://app?vid=0be2ecc3-07f5-4760-b184-9d28bdbbf08a"},"vehicle_type_id":"4","last_reported":1781207311,"current_range_meters":4800,"station_id":"ce4bhch2rcd13ifvqeug","pricing_plan_id":"cebpf4jnsgd1na2vs0mg"},{"bike_id":"a5738529-d6fe-4d63-b356-4ef3c5027584","system_id":"levelo_inurba_marseille","lat":43.24936,"lon":5.39,"is_reserved":false,"is_disabled":false,"rental_uris":{"android":"levelo://app?vid=a5738529-d6fe-4d63-b356-4ef3c5027584","ios":"levelo://app?vid=a5738529-d6fe-4d63-b356-4ef3c5027584"},"vehicle_type_id":"4","last_reported":1781207311,"current_range_meters":4800,"station_id":"","pricing_plan_id":"cebpf4jnsgd1na2vs0mg"},{"bike_id":"c2fd1dcf-9515-4468-8e03-d5ed5d6a02f1","system_id":"levelo_inurba_marseille","lat":43.28869,"lon":5.35837,"is_reserved":false,"is_disabled":false,"rental_uris":{"android":"levelo://app?vid=c2fd1dcf-9515-4468-8e03-d5ed5d6a02f1","ios":"levelo://app?vid=c2fd1dcf-9515-4468-8e03-d5ed5d6a02f1"},"vehicle_type_id":"4","last_reported":1781207311,"current_range_meters":4800,"station_id":"ce4bhb12rcd13ifvqem0","pricing_plan_id":"cebpf4jnsgd1na2vs0mg"},{"bike_id":"aed2beb6-ffc2-4060-94a2-de5c4c1dbbf9","system_id":"levelo_inurba_marseille","lat":43.30881,"lon":5.39644,"is_reserved":false,"is_disabled":false,"rental_uris":{"android":"levelo://app?vid=aed2beb6-ffc2-4060-94a2-de5c4c1dbbf9","ios":"levelo://app?vid=aed2beb6-ffc2-4060-94a2-de5c4c1dbbf9"},"vehicle_type_id":"4","last_reported":1781207311,"current_range_meters":4800,"station_id":"ce4bh012rcd13ifvqcv0","pricing_plan_id":"cebpf4jnsgd1na2vs0mg"},{"bike_id":"06b0e4c9-7d0e-4204-99ac-ea2c0040b0a5","system_id":"levelo_inurba_marseille","lat":43.27947,"lon":5.41036,"is_reserved":false,"is_disabled":false,"rental_uris":{"android":"levelo://app?vid=06b0e4c9-7d0e-4204-99ac-ea2c0040b0a5","ios":"levelo://app?vid=06b0e4c9-7d0e-4204-99ac-ea2c0040b0a5"},"vehicle_type_id":"4","last_reported":1781207311,"current_range_meters":5600,"station_id":"ce4bhnp2rcd13ifvqh0g","pricing_plan_id":"cebpf4jnsgd1na2vs0mg"},{"bike_id":"e30ddbc6-0254-49b9-9ae4-b157e53a94df","system_id":"levelo_inurba_marseille","lat":43.26217,"lon":5.3743,"is_reserved":false,"is_disabled":false,"rental_uris":{"android":"levelo://app?vid=e30ddbc6-0254-49b9-9ae4-b157e53a94df","ios":"levelo://app?vid=e30ddbc6-0254-49b9-9ae4-b157e53a94df"},"vehicle_type_id":"4","last_reported":1781207311,"current_range_meters":5600,"station_id":"ce4bhgp2rcd13ifvqfc0","pricing_plan_id":"cebpf4jnsgd1na2vs0mg"},{"bike_id":"e24b70c6-3a8a-4e01-ab56-31a97bcc3861","system_id":"levelo_inurba_marseille","lat":43.29259,"lon":5.38427,"is_reserved":false,"is_disabled":false,"rental_uris":{"android":"levelo://app?vid=e24b70c6-3a8a-4e01-ab56-31a97bcc3861","ios":"levelo://app?vid=e24b70c6-3a8a-4e01-ab56-31a97bcc3861"},"vehicle_type_id":"4","last_reported":1781207311,"current_range_meters":5600,"station_id":"ce4bh692rcd13ifvqea0","pricing_plan_id":"cebpf4jnsgd1na2vs0mg"},{"bike_id":"a9c6ea0e-e582-4254-8783-076f5e9d8d41","system_id":"levelo_inurba_marseille","lat":43.28864,"lon":5.39306,"is_reserved":false,"is_disabled":true,"rental_uris":{"android":"levelo://app?vid=a9c6ea0e-e582-4254-8783-076f5e9d8d41","ios":"levelo://app?vid=a9c6ea0e-e582-4254-8783-076f5e9d8d41"},"vehicle_type_id":"4","last_reported":1781207311,"current_range_meters":5600,"station_id":"ce4bh2p2rcd13ifvqdi0","pricing_plan_id":"cebpf4jnsgd1na2vs0mg"},{"bike_id":"c69fc585-ff62-496c-87f2-6287cb91c479","system_id":"levelo_inurba_marseille","lat":43.29607,"lon":5.38082,"is_reserved":false,"is_disabled":false,"rental_uris":{"android":"levelo://app?vid=c69fc585-ff62-496c-87f2-6287cb91c479","ios":"levelo://app?vid=c69fc585-ff62-496c-87f2-6287cb91c479"},"vehicle_type_id":"4","last_reported":1781207311,"current_range_meters":5600,"station_id":"ce4bgl12rcd13ifvqbo0","pricing_plan_id":"cebpf4jnsgd1na2vs0mg"},{"bike_id":"becf7538-a49a-47b2-898c-da691a16b228","system_id":"levelo_inurba_marseille","lat":43.29038,"lon":5.35914,"is_reserved":false,"is_disabled":true,"rental_uris":{"android":"levelo://app?vid=becf7538-a49a-47b2-898c-da691a16b228","ios":"levelo://app?vid=becf7538-a49a-47b2-898c-da691a16b228"},"vehicle_type_id":"4","last_reported":1781207311,"current_range_meters":5600,"station_id":"ce4bha92rcd13ifvqeg0","pricing_plan_id":"cebpf4jnsgd1na2vs0mg"},{"bike_id":"4f400fb0-7b5c-4c35-ba18-dc0934bbd600","system_id":"levelo_inurba_marseille","lat":43.29522,"lon":5.39394,"is_reserved":false,"is_disabled":false,"rental_uris":{"android":"levelo://app?vid=4f400fb0-7b5c-4c35-ba18-dc0934bbd600","ios":"levelo://app?vid=4f400fb0-7b5c-4c35-ba18-dc0934bbd600"},"vehicle_type_id":"4","last_reported":1781207311,"current_range_meters":5600,"station_id":"ce4bh292rcd13ifvqdf0","pricing_plan_id":"cebpf4jnsgd1na2vs0mg"},{"bike_id":"7c131e63-4882-494d-814c-185065bffc7c","system_id":"levelo_inurba_marseille","lat":43.28472,"lon":5.48395,"is_reserved":false,"is_disabled":false,"rental_uris":{"android":"levelo://app?vid=7c131e63-4882-494d-814c-185065bffc7c","ios":"levelo://app?vid=7c131e63-4882-494d-814c-185065bffc7c"},"vehicle_type_id":"4","last_reported":1781207311,"current_range_meters":5600,"station_id":"st_d3svhcjqgbts73a3dn0g","pricing_plan_id":"cebpf4jnsgd1na2vs0mg"},{"bike_id":"4343f291-38b8-47e7-a883-039a0fd0f77e","system_id":"levelo_inurba_marseille","lat":43.32094,"lon":5.36766,"is_reserved":false,"is_disabled":false,"rental_uris":{"android":"levelo://app?vid=4343f291-38b8-47e7-a883-039a0fd0f77e","ios":"levelo://app?vid=4343f291-38b8-47e7-a883-039a0fd0f77e"},"vehicle_type_id":"4","last_reported":1781207311,"current_range_meters":5600,"station_id":"ce4bhrh2rcd13ifvqhug","pricing_plan_id":"cebpf4jnsgd1na2vs0mg"},{"bike_id":"d2fae584-e8a4-411b-8497-01e9defa4f72","system_id":"levelo_inurba_marseille","lat":43.28609,"lon":5.35087,"is_reserved":false,"is_disabled":false,"rental_uris":{"android":"levelo://app?vid=d2fae584-e8a4-411b-8497-01e9defa4f72","ios":"levelo://app?vid=d2fae584-e8a4-411b-8497-01e9defa4f72"},"vehicle_type_id":"4","last_reported":1781207311,"current_range_meters":5600,"station_id":"ce4bhch2rcd13ifvqeug","pricing_plan_id":"cebpf4jnsgd1na2vs0mg"},{"bike_id":"1daca02d-5dd9-45e2-a35c-136aca774320","system_id":"levelo_inurba_marseille","lat":43.29264,"lon":5.38436,"is_reserved":false,"is_disabled":false,"rental_uris":{"android":"levelo://app?vid=1daca02d-5dd9-45e2-a35c-136aca774320","ios":"levelo://app?vid=1daca02d-5dd9-45e2-a35c-136aca774320"},"vehicle_type_id":"4","last_reported":1781207311,"current_range_meters":5600,"station_id":"ce4bh692rcd13ifvqea0","pricing_plan_id":"cebpf4jnsgd1na2vs0mg"},{"bike_id":"55b5bfc5-4cc2-4013-8a9d-77fc56d78c5e","system_id":"levelo_inurba_marseille","lat":43.29264,"lon":5.38427,"is_reserved":false,"is_disabled":false,"rental_uris":{"android":"levelo://app?vid=55b5bfc5-4cc2-4013-8a9d-77fc56d78c5e","ios":"levelo://app?vid=55b5bfc5-4cc2-4013-8a9d-77fc56d78c5e"},"vehicle_type_id":"4","last_reported":1781207311,"current_range_meters":5600,"station_id":"ce4bh692rcd13ifvqea0","pricing_plan_id":"cebpf4jnsgd1na2vs0mg"},{"bike_id":"563e7e66-6e25-4625-b398-b66a26715b2e","system_id":"levelo_inurba_marseille","lat":43.26561,"lon":5.39021,"is_reserved":false,"is_disabled":false,"rental_uris":{"android":"levelo://app?vid=563e7e66-6e25-4625-b398-b66a26715b2e","ios":"levelo://app?vid=563e7e66-6e25-4625-b398-b66a26715b2e"},"vehicle_type_id":"4","last_reported":1781207311,"current_range_meters":5600,"station_id":"ce4bhe12rcd13ifvqf30","pricing_plan_id":"cebpf4jnsgd1na2vs0mg"},{"bike_id":"05bd6ad4-86ab-4ea4-be8b-0282834ba308","system_id":"levelo_inurba_marseille","lat":43.29719,"lon":5.36612,"is_reserved":false,"is_disabled":false,"rental_uris":{"android":"levelo://app?vid=05bd6ad4-86ab-4ea4-be8b-0282834ba308","ios":"levelo://app?vid=05bd6ad4-86ab-4ea4-be8b-0282834ba308"},"vehicle_type_id":"4","last_reported":1781207311,"current_range_meters":5600,"station_id":"ce4bgn12rcd13ifvqbt0","pricing_plan_id":"cebpf4jnsgd1na2vs0mg"},{"bike_id":"6c1032c8-b06f-4947-9782-f7d96757e793","system_id":"levelo_inurba_marseille","lat":43.30149,"lon":5.38765,"is_reserved":false,"is_disabled":false,"rental_uris":{"android":"levelo://app?vid=6c1032c8-b06f-4947-9782-f7d96757e793","ios":"levelo://app?vid=6c1032c8-b06f-4947-9782-f7d96757e793"},"vehicle_type_id":"4","last_reported":1781207311,"current_range_meters":5600,"station_id":"ce4bghh2rcd13ifvqb60","pricing_plan_id":"cebpf4jnsgd1na2vs0mg"},{"bike_id":"9c950017-90b1-4f2a-8b80-26f2a3bd699c","system_id":"levelo_inurba_marseille","lat":43.27184,"lon":5.40962,"is_reserved":false,"is_disabled":false,"rental_uris":{"android":"levelo://app?vid=9c950017-90b1-4f2a-8b80-26f2a3bd699c","ios":"levelo://app?vid=9c950017-90b1-4f2a-8b80-26f2a3bd699c"},"vehicle_type_id":"4","last_reported":1781207311,"current_range_meters":5600,"station_id":"ce4bhl12rcd13ifvqgf0","pricing_plan_id":"cebpf4jnsgd1na2vs0mg"},{"bike_id":"0ae2479e-38d3-48bf-8199-89c9a9150b07","system_id":"levelo_inurba_marseille","lat":43.26026,"lon":5.37551,"is_reserved":false,"is_disabled":false,"rental_uris":{"android":"levelo://app?vid=0ae2479e-38d3-48bf-8199-89c9a9150b07","ios":"levelo://app?vid=0ae2479e-38d3-48bf-8199-89c9a9150b07"},"vehicle_type_id":"4","last_reported":1781207311,"current_range_meters":5600,"station_id":"ce4bhgh2rcd13ifvqfa0","pricing_plan_id":"cebpf4jnsgd1na2vs0mg"},{"bike_id":"bc21bf03-4137-4d04-86ac-ec41e9d80439","system_id":"levelo_inurba_marseille","lat":43.28868,"lon":5.42509,"is_reserved":false,"is_disabled":false,"rental_uris":{"android":"levelo://app?vid=bc21bf03-4137-4d04-86ac-ec41e9d80439","ios":"levelo://app?vid=bc21bf03-4137-4d04-86ac-ec41e9d80439"},"vehicle_type_id":"4","last_reported":1781207311,"current_range_meters":5600,"station_id":"st_d3b462108ojc7389ooeg","pricing_plan_id":"cebpf4jnsgd1na2vs0mg"},{"bike_id":"f6bac920-035a-425f-9d43-04738b60b9e9","system_id":"levelo_inurba_marseille","lat":43.29282,"lon":5.3889,"is_reserved":false,"is_disabled":false,"rental_uris":{"android":"levelo://app?vid=f6bac920-035a-425f-9d43-04738b60b9e9","ios":"levelo://app?vid=f6bac920-035a-425f-9d43-04738b60b9e9"},"vehicle_type_id":"4","last_reported":1781207311,"current_range_meters":5600,"station_id":"","pricing_plan_id":"cebpf4jnsgd1na2vs0mg"},{"bike_id":"cd5a14bb-0a63-467e-9f0c-b01832d5b670","system_id":"levelo_inurba_marseille","lat":43.290352,"lon":5.375622,"is_reserved":false,"is_disabled":false,"rental_uris":{"android":"levelo://app?vid=cd5a14bb-0a63-467e-9f0c-b01832d5b670","ios":"levelo://app?vid=cd5a14bb-0a63-467e-9f0c-b01832d5b670"},"vehicle_type_id":"4","last_reported":1781207311,"current_range_meters":5600,"station_id":"ce4bh692rcd13ifvqe90","pricing_plan_id":"cebpf4jnsgd1na2vs0mg"},{"bike_id":"1a40880f-06f1-44a4-ba92-708afeb30515","system_id":"levelo_inurba_marseille","lat":43.26208,"lon":5.3741,"is_reserved":false,"is_disabled":false,"rental_uris":{"android":"levelo://app?vid=1a40880f-06f1-44a4-ba92-708afeb30515","ios":"levelo://app?vid=1a40880f-06f1-44a4-ba92-708afeb30515"},"vehicle_type_id":"4","last_reported":1781207311,"current_range_meters":6000,"station_id":"ce4bhgp2rcd13ifvqfc0","pricing_plan_id":"cebpf4jnsgd1na2vs0mg"},{"bike_id":"496910fd-d34a-40cf-aa13-cf6e4fdbf73c","system_id":"levelo_inurba_marseille","lat":43.28464,"lon":5.35875,"is_reserved":false,"is_disabled":false,"rental_uris":{"android":"levelo://app?vid=496910fd-d34a-40cf-aa13-cf6e4fdbf73c","ios":"levelo://app?vid=496910fd-d34a-40cf-aa13-cf6e4fdbf73c"},"vehicle_type_id":"4","last_reported":1781207311,"current_range_meters":6000,"station_id":"ce4bhah2rcd13ifvqei0","pricing_plan_id":"cebpf4jnsgd1na2vs0mg"},{"bike_id":"a2e67601-4678-407f-a001-e53cd8d57696","system_id":"levelo_inurba_marseille","lat":43.29535,"lon":5.38539,"is_reserved":false,"is_disabled":false,"rental_uris":{"android":"levelo://app?vid=a2e67601-4678-407f-a001-e53cd8d57696","ios":"levelo://app?vid=a2e67601-4678-407f-a001-e53cd8d57696"},"vehicle_type_id":"4","last_reported":1781207311,"current_range_meters":6000,"station_id":"ce4bgih2rcd13ifvqba0","pricing_plan_id":"cebpf4jnsgd1na2vs0mg"},{"bike_id":"a49e079e-56e5-45de-9def-f5d53e5437d9","system_id":"levelo_inurba_marseille","lat":43.2804,"lon":5.35364,"is_reserved":false,"is_disabled":false,"rental_uris":{"android":"levelo://app?vid=a49e079e-56e5-45de-9def-f5d53e5437d9","ios":"levelo://app?vid=a49e079e-56e5-45de-9def-f5d53e5437d9"},"vehicle_type_id":"4","last_reported":1781207311,"current_range_meters":6000,"station_id":"","pricing_plan_id":"cebpf4jnsgd1na2vs0mg"},{"bike_id":"f42ad956-5eb1-4d9b-82e8-cfaf1aa616a2","system_id":"levelo_inurba_marseille","lat":43.26024,"lon":5.37542,"is_reserved":false,"is_disabled":false,"rental_uris":{"android":"levelo://app?vid=f42ad956-5eb1-4d9b-82e8-cfaf1aa616a2","ios":"levelo://app?vid=f42ad956-5eb1-4d9b-82e8-cfaf1aa616a2"},"vehicle_type_id":"4","last_reported":1781207311,"current_range_meters":6000,"station_id":"ce4bhgh2rcd13ifvqfa0","pricing_plan_id":"cebpf4jnsgd1na2vs0mg"},{"bike_id":"d5feda4f-4474-4556-9254-3f45721e2a24","system_id":"levelo_inurba_marseille","lat":43.27903,"lon":5.38,"is_reserved":false,"is_disabled":false,"rental_uris":{"android":"levelo://app?vid=d5feda4f-4474-4556-9254-3f45721e2a24","ios":"levelo://app?vid=d5feda4f-4474-4556-9254-3f45721e2a24"},"vehicle_type_id":"4","last_reported":1781207311,"current_range_meters":6000,"station_id":"ce4bhf92rcd13ifvqf50","pricing_plan_id":"cebpf4jnsgd1na2vs0mg"},{"bike_id":"7a2582a1-9f4e-4b77-a662-c666529e13ef","system_id":"levelo_inurba_marseille","lat":43.28042,"lon":5.35028,"is_reserved":false,"is_disabled":false,"rental_uris":{"android":"levelo://app?vid=7a2582a1-9f4e-4b77-a662-c666529e13ef","ios":"levelo://app?vid=7a2582a1-9f4e-4b77-a662-c666529e13ef"},"vehicle_type_id":"4","last_reported":1781207311,"current_range_meters":6000,"station_id":"","pricing_plan_id":"cebpf4jnsgd1na2vs0mg"},{"bike_id":"de648162-aaef-4bfd-86bb-810a5c9563cf","system_id":"levelo_inurba_marseille","lat":43.26496,"lon":5.3952,"is_reserved":false,"is_disabled":false,"rental_uris":{"android":"levelo://app?vid=de648162-aaef-4bfd-86bb-810a5c9563cf","ios":"levelo://app?vid=de648162-aaef-4bfd-86bb-810a5c9563cf"},"vehicle_type_id":"4","last_reported":1781207311,"current_range_meters":6000,"station_id":"ce4bhi12rcd13ifvqfq0","pricing_plan_id":"cebpf4jnsgd1na2vs0mg"},{"bike_id":"1b19ecd1-a8c9-42eb-b4bc-6e17a49af936","system_id":"levelo_inurba_marseille","lat":43.29016,"lon":5.38605,"is_reserved":false,"is_disabled":false,"rental_uris":{"android":"levelo://app?vid=1b19ecd1-a8c9-42eb-b4bc-6e17a49af936","ios":"levelo://app?vid=1b19ecd1-a8c9-42eb-b4bc-6e17a49af936"},"vehicle_type_id":"4","last_reported":1781207311,"current_range_meters":6000,"station_id":"ce4bh4p2rcd13ifvqe0g","pricing_plan_id":"cebpf4jnsgd1na2vs0mg"},{"bike_id":"05cb6286-1955-4fb9-9132-52963aaae345","system_id":"levelo_inurba_marseille","lat":43.29524,"lon":5.38523,"is_reserved":false,"is_disabled":false,"rental_uris":{"android":"levelo://app?vid=05cb6286-1955-4fb9-9132-52963aaae345","ios":"levelo://app?vid=05cb6286-1955-4fb9-9132-52963aaae345"},"vehicle_type_id":"4","last_reported":1781207311,"current_range_meters":6000,"station_id":"ce4bgih2rcd13ifvqba0","pricing_plan_id":"cebpf4jnsgd1na2vs0mg"},{"bike_id":"eef80d5e-0c37-4e3b-a7c8-e434f4ea77e2","system_id":"levelo_inurba_marseille","lat":43.30433,"lon":5.38885,"is_reserved":false,"is_disabled":false,"rental_uris":{"android":"levelo://app?vid=eef80d5e-0c37-4e3b-a7c8-e434f4ea77e2","ios":"levelo://app?vid=eef80d5e-0c37-4e3b-a7c8-e434f4ea77e2"},"vehicle_type_id":"4","last_reported":1781207311,"current_range_meters":6000,"station_id":"ce4bgk12rcd13ifvqbi0","pricing_plan_id":"cebpf4jnsgd1na2vs0mg"},{"bike_id":"cdaffa5f-9ecb-409f-93bc-f132f49ebaf0","system_id":"levelo_inurba_marseille","lat":43.27619,"lon":5.36106,"is_reserved":false,"is_disabled":false,"rental_uris":{"android":"levelo://app?vid=cdaffa5f-9ecb-409f-93bc-f132f49ebaf0","ios":"levelo://app?vid=cdaffa5f-9ecb-409f-93bc-f132f49ebaf0"},"vehicle_type_id":"4","last_reported":1781207311,"current_range_meters":6000,"station_id":"ce4bgj92rcd13ifvqbe0","pricing_plan_id":"cebpf4jnsgd1na2vs0mg"},{"bike_id":"72596ebd-ea6d-4b6d-968a-acb42e5b04cf","system_id":"levelo_inurba_marseille","lat":43.29621,"lon":5.3787,"is_reserved":false,"is_disabled":false,"rental_uris":{"android":"levelo://app?vid=72596ebd-ea6d-4b6d-968a-acb42e5b04cf","ios":"levelo://app?vid=72596ebd-ea6d-4b6d-968a-acb42e5b04cf"},"vehicle_type_id":"4","last_reported":1781207311,"current_range_meters":6000,"station_id":"","pricing_plan_id":"cebpf4jnsgd1na2vs0mg"},{"bike_id":"1f9ce275-7633-4feb-bcf5-02b13c6860a4","system_id":"levelo_inurba_marseille","lat":43.31107,"lon":5.37744,"is_reserved":false,"is_disabled":false,"rental_uris":{"android":"levelo://app?vid=1f9ce275-7633-4feb-bcf5-02b13c6860a4","ios":"levelo://app?vid=1f9ce275-7633-4feb-bcf5-02b13c6860a4"},"vehicle_type_id":"4","last_reported":1781207311,"current_range_meters":6000,"station_id":"ce4bgt92rcd13ifvqcg0","pricing_plan_id":"cebpf4jnsgd1na2vs0mg"},{"bike_id":"e2e0aaf9-5234-4f7c-8827-f41cdeee5a7a","system_id":"levelo_inurba_marseille","lat":43.31129,"lon":5.37765,"is_reserved":false,"is_disabled":false,"rental_uris":{"android":"levelo://app?vid=e2e0aaf9-5234-4f7c-8827-f41cdeee5a7a","ios":"levelo://app?vid=e2e0aaf9-5234-4f7c-8827-f41cdeee5a7a"},"vehicle_type_id":"4","last_reported":1781207311,"current_range_meters":6000,"station_id":"ce4bgt92rcd13ifvqcg0","pricing_plan_id":"cebpf4jnsgd1na2vs0mg"},{"bike_id":"5ef8b45c-5a2e-4ef3-b317-791d97d054bf","system_id":"levelo_inurba_marseille","lat":43.27191,"lon":5.4143,"is_reserved":false,"is_disabled":false,"rental_uris":{"android":"levelo://app?vid=5ef8b45c-5a2e-4ef3-b317-791d97d054bf","ios":"levelo://app?vid=5ef8b45c-5a2e-4ef3-b317-791d97d054bf"},"vehicle_type_id":"4","last_reported":1781207311,"current_range_meters":6000,"station_id":"","pricing_plan_id":"cebpf4jnsgd1na2vs0mg"},{"bike_id":"eb46c40f-0c39-4990-86d7-bff8c11cf8b6","system_id":"levelo_inurba_marseille","lat":43.27364,"lon":5.36246,"is_reserved":false,"is_disabled":false,"rental_uris":{"android":"levelo://app?vid=eb46c40f-0c39-4990-86d7-bff8c11cf8b6","ios":"levelo://app?vid=eb46c40f-0c39-4990-86d7-bff8c11cf8b6"},"vehicle_type_id":"4","last_reported":1781207311,"current_range_meters":6000,"station_id":"ce4bhbh2rcd13ifvqeo0","pricing_plan_id":"cebpf4jnsgd1na2vs0mg"},{"bike_id":"070057c1-c992-4bf0-8866-a67f352f117e","system_id":"levelo_inurba_marseille","lat":43.29525,"lon":5.38536,"is_reserved":false,"is_disabled":false,"rental_uris":{"android":"levelo://app?vid=070057c1-c992-4bf0-8866-a67f352f117e","ios":"levelo://app?vid=070057c1-c992-4bf0-8866-a67f352f117e"},"vehicle_type_id":"4","last_reported":1781207311,"current_range_meters":6000,"station_id":"ce4bgih2rcd13ifvqba0","pricing_plan_id":"cebpf4jnsgd1na2vs0mg"},{"bike_id":"05dbeb00-c94d-4fd8-88ff-0b9e5369bba0","system_id":"levelo_inurba_marseille","lat":43.24396,"lon":5.3701,"is_reserved":false,"is_disabled":false,"rental_uris":{"android":"levelo://app?vid=05dbeb00-c94d-4fd8-88ff-0b9e5369bba0","ios":"levelo://app?vid=05dbeb00-c94d-4fd8-88ff-0b9e5369bba0"},"vehicle_type_id":"4","last_reported":1781207311,"current_range_meters":6400,"station_id":"","pricing_plan_id":"cebpf4jnsgd1na2vs0mg"},{"bike_id":"3baa0b0a-3f15-4a6e-8e8a-c926251735e9","system_id":"levelo_inurba_marseille","lat":43.3056,"lon":5.36492,"is_reserved":false,"is_disabled":true,"rental_uris":{"android":"levelo://app?vid=3baa0b0a-3f15-4a6e-8e8a-c926251735e9","ios":"levelo://app?vid=3baa0b0a-3f15-4a6e-8e8a-c926251735e9"},"vehicle_type_id":"4","last_reported":1781207311,"current_range_meters":6400,"station_id":"ce4bgs12rcd13ifvqcag","pricing_plan_id":"cebpf4jnsgd1na2vs0mg"},{"bike_id":"23ae47f5-c564-485d-805f-a3f32f7b712a","system_id":"levelo_inurba_marseille","lat":43.278123,"lon":5.40714,"is_reserved":false,"is_disabled":false,"rental_uris":{"android":"levelo://app?vid=23ae47f5-c564-485d-805f-a3f32f7b712a","ios":"levelo://app?vid=23ae47f5-c564-485d-805f-a3f32f7b712a"},"vehicle_type_id":"4","last_reported":1781207311,"current_range_meters":6400,"station_id":"ce4bhnh2rcd13ifvqgtg","pricing_plan_id":"cebpf4jnsgd1na2vs0mg"},{"bike_id":"742dca8c-f5db-4c45-bb54-d3bc982dbb56","system_id":"levelo_inurba_marseille","lat":43.30464,"lon":5.38902,"is_reserved":false,"is_disabled":false,"rental_uris":{"android":"levelo://app?vid=742dca8c-f5db-4c45-bb54-d3bc982dbb56","ios":"levelo://app?vid=742dca8c-f5db-4c45-bb54-d3bc982dbb56"},"vehicle_type_id":"4","last_reported":1781207311,"current_range_meters":6400,"station_id":"ce4bgk12rcd13ifvqbi0","pricing_plan_id":"cebpf4jnsgd1na2vs0mg"},{"bike_id":"406c92e3-e806-4551-a2b6-fea67fbe0a72","system_id":"levelo_inurba_marseille","lat":43.28615,"lon":5.35103,"is_reserved":false,"is_disabled":false,"rental_uris":{"android":"levelo://app?vid=406c92e3-e806-4551-a2b6-fea67fbe0a72","ios":"levelo://app?vid=406c92e3-e806-4551-a2b6-fea67fbe0a72"},"vehicle_type_id":"4","last_reported":1781207311,"current_range_meters":6400,"station_id":"ce4bhch2rcd13ifvqeug","pricing_plan_id":"cebpf4jnsgd1na2vs0mg"},{"bike_id":"6bcc356f-7f69-45b4-a42f-c8af24594173","system_id":"levelo_inurba_marseille","lat":43.29634,"lon":5.38072,"is_reserved":false,"is_disabled":false,"rental_uris":{"android":"levelo://app?vid=6bcc356f-7f69-45b4-a42f-c8af24594173","ios":"levelo://app?vid=6bcc356f-7f69-45b4-a42f-c8af24594173"},"vehicle_type_id":"4","last_reported":1781207311,"current_range_meters":6400,"station_id":"ce4bgl12rcd13ifvqbo0","pricing_plan_id":"cebpf4jnsgd1na2vs0mg"},{"bike_id":"1d00e877-a9f8-4a55-8de8-7f231d49d2e1","system_id":"levelo_inurba_marseille","lat":43.28573,"lon":5.39491,"is_reserved":false,"is_disabled":true,"rental_uris":{"android":"levelo://app?vid=1d00e877-a9f8-4a55-8de8-7f231d49d2e1","ios":"levelo://app?vid=1d00e877-a9f8-4a55-8de8-7f231d49d2e1"},"vehicle_type_id":"4","last_reported":1781207311,"current_range_meters":6400,"station_id":"ce4bh292rcd13ifvqdg0","pricing_plan_id":"cebpf4jnsgd1na2vs0mg"},{"bike_id":"f4604c3b-a56a-425f-8d90-3b8e1f77f859","system_id":"levelo_inurba_marseille","lat":43.31344,"lon":5.38477,"is_reserved":false,"is_disabled":false,"rental_uris":{"android":"levelo://app?vid=f4604c3b-a56a-425f-8d90-3b8e1f77f859","ios":"levelo://app?vid=f4604c3b-a56a-425f-8d90-3b8e1f77f859"},"vehicle_type_id":"4","last_reported":1781207311,"current_range_meters":6400,"station_id":"ce4bgt92rcd13ifvqcf0","pricing_plan_id":"cebpf4jnsgd1na2vs0mg"},{"bike_id":"d8fd00c5-f9e0-47d1-b4ac-74d5b8a0457d","system_id":"levelo_inurba_marseille","lat":43.26791,"lon":5.39402,"is_reserved":false,"is_disabled":false,"rental_uris":{"android":"levelo://app?vid=d8fd00c5-f9e0-47d1-b4ac-74d5b8a0457d","ios":"levelo://app?vid=d8fd00c5-f9e0-47d1-b4ac-74d5b8a0457d"},"vehicle_type_id":"4","last_reported":1781207311,"current_range_meters":6400,"station_id":"ce4bhh12rcd13ifvqfg0","pricing_plan_id":"cebpf4jnsgd1na2vs0mg"},{"bike_id":"72477282-3901-47f8-8e4f-cec0d47fffe9","system_id":"levelo_inurba_marseille","lat":43.2707,"lon":5.4227,"is_reserved":false,"is_disabled":false,"rental_uris":{"android":"levelo://app?vid=72477282-3901-47f8-8e4f-cec0d47fffe9","ios":"levelo://app?vid=72477282-3901-47f8-8e4f-cec0d47fffe9"},"vehicle_type_id":"4","last_reported":1781207311,"current_range_meters":6400,"station_id":"ce4bhk92rcd13ifvqgb0","pricing_plan_id":"cebpf4jnsgd1na2vs0mg"},{"bike_id":"aa6cab79-c2c3-408a-b9d6-b691804efdf5","system_id":"levelo_inurba_marseille","lat":43.29548,"lon":5.38537,"is_reserved":false,"is_disabled":false,"rental_uris":{"android":"levelo://app?vid=aa6cab79-c2c3-408a-b9d6-b691804efdf5","ios":"levelo://app?vid=aa6cab79-c2c3-408a-b9d6-b691804efdf5"},"vehicle_type_id":"4","last_reported":1781207311,"current_range_meters":6400,"station_id":"ce4bgih2rcd13ifvqba0","pricing_plan_id":"cebpf4jnsgd1na2vs0mg"},{"bike_id":"02797b44-e4ac-4d9f-bf40-097abb6419e3","system_id":"levelo_inurba_marseille","lat":43.30216,"lon":5.39463,"is_reserved":false,"is_disabled":false,"rental_uris":{"android":"levelo://app?vid=02797b44-e4ac-4d9f-bf40-097abb6419e3","ios":"levelo://app?vid=02797b44-e4ac-4d9f-bf40-097abb6419e3"},"vehicle_type_id":"4","last_reported":1781207311,"current_range_meters":6400,"station_id":"ce4bh0p2rcd13ifvqd70","pricing_plan_id":"cebpf4jnsgd1na2vs0mg"},{"bike_id":"bf0d513d-d24a-47b1-bcdb-11e9c8e00198","system_id":"levelo_inurba_marseille","lat":43.26388,"lon":5.41055,"is_reserved":false,"is_disabled":true,"rental_uris":{"android":"levelo://app?vid=bf0d513d-d24a-47b1-bcdb-11e9c8e00198","ios":"levelo://app?vid=bf0d513d-d24a-47b1-bcdb-11e9c8e00198"},"vehicle_type_id":"4","last_reported":1781207311,"current_range_meters":6400,"station_id":"st_d4e5ca6na9uc73bfl5fg","pricing_plan_id":"cebpf4jnsgd1na2vs0mg"},{"bike_id":"e9821af1-9020-40ef-8394-c2fbd16cf750","system_id":"levelo_inurba_marseille","lat":43.23795,"lon":5.36635,"is_reserved":false,"is_disabled":false,"rental_uris":{"android":"levelo://app?vid=e9821af1-9020-40ef-8394-c2fbd16cf750","ios":"levelo://app?vid=e9821af1-9020-40ef-8394-c2fbd16cf750"},"vehicle_type_id":"4","last_reported":1781207311,"current_range_meters":6400,"station_id":"st_d3nk18o9ro0c73en2l3g","pricing_plan_id":"cebpf4jnsgd1na2vs0mg"},{"bike_id":"d15eba13-a915-482c-b275-d8bc0a704605","system_id":"levelo_inurba_marseille","lat":43.29603,"lon":5.37707,"is_reserved":false,"is_disabled":false,"rental_uris":{"android":"levelo://app?vid=d15eba13-a915-482c-b275-d8bc0a704605","ios":"levelo://app?vid=d15eba13-a915-482c-b275-d8bc0a704605"},"vehicle_type_id":"4","last_reported":1781207311,"current_range_meters":6400,"station_id":"ce4bgi92rcd13ifvqb90","pricing_plan_id":"cebpf4jnsgd1na2vs0mg"},{"bike_id":"cf22b638-ad97-4876-a6a3-d7d97ac7fb68","system_id":"levelo_inurba_marseille","lat":43.29716,"lon":5.35944,"is_reserved":false,"is_disabled":false,"rental_uris":{"android":"levelo://app?vid=cf22b638-ad97-4876-a6a3-d7d97ac7fb68","ios":"levelo://app?vid=cf22b638-ad97-4876-a6a3-d7d97ac7fb68"},"vehicle_type_id":"4","last_reported":1781207311,"current_range_meters":6400,"station_id":"","pricing_plan_id":"cebpf4jnsgd1na2vs0mg"},{"bike_id":"159ca4e0-27c0-49f9-87e2-6d8603f88a9a","system_id":"levelo_inurba_marseille","lat":43.27814,"lon":5.40705,"is_reserved":false,"is_disabled":false,"rental_uris":{"android":"levelo://app?vid=159ca4e0-27c0-49f9-87e2-6d8603f88a9a","ios":"levelo://app?vid=159ca4e0-27c0-49f9-87e2-6d8603f88a9a"},"vehicle_type_id":"4","last_reported":1781207311,"current_range_meters":6400,"station_id":"ce4bhnh2rcd13ifvqgtg","pricing_plan_id":"cebpf4jnsgd1na2vs0mg"},{"bike_id":"032a058d-587e-416f-9121-00129a1a3567","system_id":"levelo_inurba_marseille","lat":43.31484,"lon":5.37309,"is_reserved":false,"is_disabled":false,"rental_uris":{"android":"levelo://app?vid=032a058d-587e-416f-9121-00129a1a3567","ios":"levelo://app?vid=032a058d-587e-416f-9121-00129a1a3567"},"vehicle_type_id":"4","last_reported":1781207311,"current_range_meters":6400,"station_id":"ce4bgt12rcd13ifvqcd0","pricing_plan_id":"cebpf4jnsgd1na2vs0mg"},{"bike_id":"f62974f2-a176-458d-b1d1-8bd89b0b69cc","system_id":"levelo_inurba_marseille","lat":43.29991,"lon":5.38494,"is_reserved":false,"is_disabled":true,"rental_uris":{"android":"levelo://app?vid=f62974f2-a176-458d-b1d1-8bd89b0b69cc","ios":"levelo://app?vid=f62974f2-a176-458d-b1d1-8bd89b0b69cc"},"vehicle_type_id":"4","last_reported":1781207311,"current_range_meters":6400,"station_id":"ce4bgj92rcd13ifvqbd0","pricing_plan_id":"cebpf4jnsgd1na2vs0mg"},{"bike_id":"8682f4e8-0798-4b4f-8fef-c4dc002ea1c8","system_id":"levelo_inurba_marseille","lat":43.2916,"lon":5.4612,"is_reserved":false,"is_disabled":false,"rental_uris":{"android":"levelo://app?vid=8682f4e8-0798-4b4f-8fef-c4dc002ea1c8","ios":"levelo://app?vid=8682f4e8-0798-4b4f-8fef-c4dc002ea1c8"},"vehicle_type_id":"4","last_reported":1781207311,"current_range_meters":6400,"station_id":"","pricing_plan_id":"cebpf4jnsgd1na2vs0mg"},{"bike_id":"1cb8ef7c-e98e-4cfb-992d-d3305541d0a3","system_id":"levelo_inurba_marseille","lat":43.27379,"lon":5.36251,"is_reserved":false,"is_disabled":false,"rental_uris":{"android":"levelo://app?vid=1cb8ef7c-e98e-4cfb-992d-d3305541d0a3","ios":"levelo://app?vid=1cb8ef7c-e98e-4cfb-992d-d3305541d0a3"},"vehicle_type_id":"4","last_reported":1781207311,"current_range_meters":6400,"station_id":"ce4bhbh2rcd13ifvqeo0","pricing_plan_id":"cebpf4jnsgd1na2vs0mg"},{"bike_id":"3abe1d9f-f17d-4ae0-bb9b-4604a0aa2f9a","system_id":"levelo_inurba_marseille","lat":43.276676,"lon":5.388807,"is_reserved":false,"is_disabled":false,"rental_uris":{"android":"levelo://app?vid=3abe1d9f-f17d-4ae0-bb9b-4604a0aa2f9a","ios":"levelo://app?vid=3abe1d9f-f17d-4ae0-bb9b-4604a0aa2f9a"},"vehicle_type_id":"4","last_reported":1781207311,"current_range_meters":6400,"station_id":"ce4bhi12rcd13ifvqfo0","pricing_plan_id":"cebpf4jnsgd1na2vs0mg"},{"bike_id":"643a5108-6712-460c-84ac-96a9e310c2a1","system_id":"levelo_inurba_marseille","lat":43.32317,"lon":5.36689,"is_reserved":false,"is_disabled":false,"rental_uris":{"android":"levelo://app?vid=643a5108-6712-460c-84ac-96a9e310c2a1","ios":"levelo://app?vid=643a5108-6712-460c-84ac-96a9e310c2a1"},"vehicle_type_id":"4","last_reported":1781207311,"current_range_meters":6800,"station_id":"","pricing_plan_id":"cebpf4jnsgd1na2vs0mg"},{"bike_id":"b2ad6388-0d4f-4e9c-8ff3-f1ad38b97382","system_id":"levelo_inurba_marseille","lat":43.27676,"lon":5.42441,"is_reserved":false,"is_disabled":false,"rental_uris":{"android":"levelo://app?vid=b2ad6388-0d4f-4e9c-8ff3-f1ad38b97382","ios":"levelo://app?vid=b2ad6388-0d4f-4e9c-8ff3-f1ad38b97382"},"vehicle_type_id":"4","last_reported":1781207311,"current_range_meters":6800,"station_id":"","pricing_plan_id":"cebpf4jnsgd1na2vs0mg"},{"bike_id":"a4519ab8-8a91-4627-a831-ddbbcc2b09e2","system_id":"levelo_inurba_marseille","lat":43.30418,"lon":5.3976,"is_reserved":false,"is_disabled":true,"rental_uris":{"android":"levelo://app?vid=a4519ab8-8a91-4627-a831-ddbbcc2b09e2","ios":"levelo://app?vid=a4519ab8-8a91-4627-a831-ddbbcc2b09e2"},"vehicle_type_id":"4","last_reported":1781207311,"current_range_meters":6800,"station_id":"ce4bh092rcd13ifvqd20","pricing_plan_id":"cebpf4jnsgd1na2vs0mg"},{"bike_id":"70eaaf10-991d-4235-857f-4132c8289c1e","system_id":"levelo_inurba_marseille","lat":43.25505,"lon":5.37646,"is_reserved":false,"is_disabled":false,"rental_uris":{"android":"levelo://app?vid=70eaaf10-991d-4235-857f-4132c8289c1e","ios":"levelo://app?vid=70eaaf10-991d-4235-857f-4132c8289c1e"},"vehicle_type_id":"4","last_reported":1781207311,"current_range_meters":6800,"station_id":"ce4bhh12rcd13ifvqff0","pricing_plan_id":"cebpf4jnsgd1na2vs0mg"},{"bike_id":"67799720-e017-4463-93c1-4b1015965ae9","system_id":"levelo_inurba_marseille","lat":43.29036,"lon":5.39956,"is_reserved":false,"is_disabled":false,"rental_uris":{"android":"levelo://app?vid=67799720-e017-4463-93c1-4b1015965ae9","ios":"levelo://app?vid=67799720-e017-4463-93c1-4b1015965ae9"},"vehicle_type_id":"4","last_reported":1781207311,"current_range_meters":6800,"station_id":"ce4bh392rcd13ifvqdm0","pricing_plan_id":"cebpf4jnsgd1na2vs0mg"},{"bike_id":"17369bee-43fb-4510-ab11-4bc54a77a2f2","system_id":"levelo_inurba_marseille","lat":43.28622,"lon":5.35071,"is_reserved":false,"is_disabled":false,"rental_uris":{"android":"levelo://app?vid=17369bee-43fb-4510-ab11-4bc54a77a2f2","ios":"levelo://app?vid=17369bee-43fb-4510-ab11-4bc54a77a2f2"},"vehicle_type_id":"4","last_reported":1781207311,"current_range_meters":6800,"station_id":"ce4bhch2rcd13ifvqeug","pricing_plan_id":"cebpf4jnsgd1na2vs0mg"},{"bike_id":"fb7a7915-3284-46c7-8f39-e4136b86d37e","system_id":"levelo_inurba_marseille","lat":43.30741,"lon":5.42429,"is_reserved":false,"is_disabled":false,"rental_uris":{"android":"levelo://app?vid=fb7a7915-3284-46c7-8f39-e4136b86d37e","ios":"levelo://app?vid=fb7a7915-3284-46c7-8f39-e4136b86d37e"},"vehicle_type_id":"4","last_reported":1781207311,"current_range_meters":6800,"station_id":"st_cvj6ca6bvosntc0bfgr0","pricing_plan_id":"cebpf4jnsgd1na2vs0mg"},{"bike_id":"4313f4a8-e448-48f6-a77b-52f407980397","system_id":"levelo_inurba_marseille","lat":43.29022,"lon":5.38137,"is_reserved":false,"is_disabled":false,"rental_uris":{"android":"levelo://app?vid=4313f4a8-e448-48f6-a77b-52f407980397","ios":"levelo://app?vid=4313f4a8-e448-48f6-a77b-52f407980397"},"vehicle_type_id":"4","last_reported":1781207311,"current_range_meters":6800,"station_id":"ce4bh4p2rcd13ifvqe1g","pricing_plan_id":"cebpf4jnsgd1na2vs0mg"},{"bike_id":"58f3b7a4-2899-49d0-9e34-3aa19aecec65","system_id":"levelo_inurba_marseille","lat":43.25505,"lon":5.37651,"is_reserved":false,"is_disabled":false,"rental_uris":{"android":"levelo://app?vid=58f3b7a4-2899-49d0-9e34-3aa19aecec65","ios":"levelo://app?vid=58f3b7a4-2899-49d0-9e34-3aa19aecec65"},"vehicle_type_id":"4","last_reported":1781207311,"current_range_meters":6800,"station_id":"ce4bhh12rcd13ifvqff0","pricing_plan_id":"cebpf4jnsgd1na2vs0mg"},{"bike_id":"40de0209-043c-4ed6-84c3-7ac1da5cf58d","system_id":"levelo_inurba_marseille","lat":43.32102,"lon":5.36764,"is_reserved":false,"is_disabled":false,"rental_uris":{"android":"levelo://app?vid=40de0209-043c-4ed6-84c3-7ac1da5cf58d","ios":"levelo://app?vid=40de0209-043c-4ed6-84c3-7ac1da5cf58d"},"vehicle_type_id":"4","last_reported":1781207311,"current_range_meters":6800,"station_id":"ce4bhrh2rcd13ifvqhug","pricing_plan_id":"cebpf4jnsgd1na2vs0mg"},{"bike_id":"95d4cd27-1914-4549-910d-e788342e2817","system_id":"levelo_inurba_marseille","lat":43.25504,"lon":5.37653,"is_reserved":false,"is_disabled":false,"rental_uris":{"android":"levelo://app?vid=95d4cd27-1914-4549-910d-e788342e2817","ios":"levelo://app?vid=95d4cd27-1914-4549-910d-e788342e2817"},"vehicle_type_id":"4","last_reported":1781207311,"current_range_meters":6800,"station_id":"ce4bhh12rcd13ifvqff0","pricing_plan_id":"cebpf4jnsgd1na2vs0mg"},{"bike_id":"60210465-87aa-4993-adce-44c433a76140","system_id":"levelo_inurba_marseille","lat":43.27328,"lon":5.36268,"is_reserved":false,"is_disabled":false,"rental_uris":{"android":"levelo://app?vid=60210465-87aa-4993-adce-44c433a76140","ios":"levelo://app?vid=60210465-87aa-4993-adce-44c433a76140"},"vehicle_type_id":"4","last_reported":1781207311,"current_range_meters":6800,"station_id":"ce4bhbh2rcd13ifvqeo0","pricing_plan_id":"cebpf4jnsgd1na2vs0mg"},{"bike_id":"3a413cf9-41c2-4da2-9d6e-b12a59c2f17a","system_id":"levelo_inurba_marseille","lat":43.30795,"lon":5.381468,"is_reserved":false,"is_disabled":false,"rental_uris":{"android":"levelo://app?vid=3a413cf9-41c2-4da2-9d6e-b12a59c2f17a","ios":"levelo://app?vid=3a413cf9-41c2-4da2-9d6e-b12a59c2f17a"},"vehicle_type_id":"4","last_reported":1781207311,"current_range_meters":6800,"station_id":"ce4bgt12rcd13ifvqce0","pricing_plan_id":"cebpf4jnsgd1na2vs0mg"},{"bike_id":"3577bf75-9a8a-496e-823b-45c97da1febd","system_id":"levelo_inurba_marseille","lat":43.29502,"lon":5.387,"is_reserved":false,"is_disabled":false,"rental_uris":{"android":"levelo://app?vid=3577bf75-9a8a-496e-823b-45c97da1febd","ios":"levelo://app?vid=3577bf75-9a8a-496e-823b-45c97da1febd"},"vehicle_type_id":"4","last_reported":1781207311,"current_range_meters":6800,"station_id":"","pricing_plan_id":"cebpf4jnsgd1na2vs0mg"},{"bike_id":"397736ae-ddf7-4a55-b20d-a9b88be08d15","system_id":"levelo_inurba_marseille","lat":43.29246,"lon":5.38398,"is_reserved":false,"is_disabled":false,"rental_uris":{"android":"levelo://app?vid=397736ae-ddf7-4a55-b20d-a9b88be08d15","ios":"levelo://app?vid=397736ae-ddf7-4a55-b20d-a9b88be08d15"},"vehicle_type_id":"4","last_reported":1781207311,"current_range_meters":6800,"station_id":"ce4bh692rcd13ifvqea0","pricing_plan_id":"cebpf4jnsgd1na2vs0mg"},{"bike_id":"3584e241-1942-4015-86a4-f6e09519a952","system_id":"levelo_inurba_marseille","lat":43.28931,"lon":5.36609,"is_reserved":false,"is_disabled":false,"rental_uris":{"android":"levelo://app?vid=3584e241-1942-4015-86a4-f6e09519a952","ios":"levelo://app?vid=3584e241-1942-4015-86a4-f6e09519a952"},"vehicle_type_id":"4","last_reported":1781207311,"current_range_meters":6800,"station_id":"ce4bhap2rcd13ifvqek0","pricing_plan_id":"cebpf4jnsgd1na2vs0mg"},{"bike_id":"ff3f8ae3-b500-4185-bec6-1d96949fa697","system_id":"levelo_inurba_marseille","lat":43.30946,"lon":5.40137,"is_reserved":false,"is_disabled":false,"rental_uris":{"android":"levelo://app?vid=ff3f8ae3-b500-4185-bec6-1d96949fa697","ios":"levelo://app?vid=ff3f8ae3-b500-4185-bec6-1d96949fa697"},"vehicle_type_id":"4","last_reported":1781207311,"current_range_meters":6800,"station_id":"ce4bgvp2rcd13ifvqct0","pricing_plan_id":"cebpf4jnsgd1na2vs0mg"},{"bike_id":"75248494-6e46-4c4b-92d2-9db9ddbe9016","system_id":"levelo_inurba_marseille","lat":43.28478,"lon":5.48394,"is_reserved":false,"is_disabled":false,"rental_uris":{"android":"levelo://app?vid=75248494-6e46-4c4b-92d2-9db9ddbe9016","ios":"levelo://app?vid=75248494-6e46-4c4b-92d2-9db9ddbe9016"},"vehicle_type_id":"4","last_reported":1781207311,"current_range_meters":6800,"station_id":"st_d3svhcjqgbts73a3dn0g","pricing_plan_id":"cebpf4jnsgd1na2vs0mg"},{"bike_id":"078a9912-314b-4791-a1b5-9e120e7893fe","system_id":"levelo_inurba_marseille","lat":43.26041,"lon":5.37536,"is_reserved":false,"is_disabled":false,"rental_uris":{"android":"levelo://app?vid=078a9912-314b-4791-a1b5-9e120e7893fe","ios":"levelo://app?vid=078a9912-314b-4791-a1b5-9e120e7893fe"},"vehicle_type_id":"4","last_reported":1781207311,"current_range_meters":6800,"station_id":"ce4bhgh2rcd13ifvqfa0","pricing_plan_id":"cebpf4jnsgd1na2vs0mg"},{"bike_id":"808cd27b-bc54-4cd5-ab9c-cadf3a914efb","system_id":"levelo_inurba_marseille","lat":43.29624,"lon":5.37718,"is_reserved":false,"is_disabled":false,"rental_uris":{"android":"levelo://app?vid=808cd27b-bc54-4cd5-ab9c-cadf3a914efb","ios":"levelo://app?vid=808cd27b-bc54-4cd5-ab9c-cadf3a914efb"},"vehicle_type_id":"4","last_reported":1781207311,"current_range_meters":6800,"station_id":"ce4bgi92rcd13ifvqb90","pricing_plan_id":"cebpf4jnsgd1na2vs0mg"},{"bike_id":"a8cff10f-925f-47d3-8d2a-4913d17e9425","system_id":"levelo_inurba_marseille","lat":43.30243,"lon":5.40045,"is_reserved":false,"is_disabled":true,"rental_uris":{"android":"levelo://app?vid=a8cff10f-925f-47d3-8d2a-4913d17e9425","ios":"levelo://app?vid=a8cff10f-925f-47d3-8d2a-4913d17e9425"},"vehicle_type_id":"4","last_reported":1781207311,"current_range_meters":7200,"station_id":"ce4bgvh2rcd13ifvqcs0","pricing_plan_id":"cebpf4jnsgd1na2vs0mg"},{"bike_id":"e2301970-743d-48b6-a9cc-2abc9beb0150","system_id":"levelo_inurba_marseille","lat":43.29317,"lon":5.37138,"is_reserved":false,"is_disabled":false,"rental_uris":{"android":"levelo://app?vid=e2301970-743d-48b6-a9cc-2abc9beb0150","ios":"levelo://app?vid=e2301970-743d-48b6-a9cc-2abc9beb0150"},"vehicle_type_id":"4","last_reported":1781207311,"current_range_meters":7200,"station_id":"ce4bgh92rcd13ifvqb40","pricing_plan_id":"cebpf4jnsgd1na2vs0mg"},{"bike_id":"5dda0c1e-5914-4508-9627-2d422139c7a9","system_id":"levelo_inurba_marseille","lat":43.306014,"lon":5.372275,"is_reserved":false,"is_disabled":false,"rental_uris":{"android":"levelo://app?vid=5dda0c1e-5914-4508-9627-2d422139c7a9","ios":"levelo://app?vid=5dda0c1e-5914-4508-9627-2d422139c7a9"},"vehicle_type_id":"4","last_reported":1781207311,"current_range_meters":7200,"station_id":"ce4bgqh2rcd13ifvqc4g","pricing_plan_id":"cebpf4jnsgd1na2vs0mg"},{"bike_id":"3c1659d8-5e56-4dbb-908b-68c028d3c70c","system_id":"levelo_inurba_marseille","lat":43.24802,"lon":5.37456,"is_reserved":false,"is_disabled":false,"rental_uris":{"android":"levelo://app?vid=3c1659d8-5e56-4dbb-908b-68c028d3c70c","ios":"levelo://app?vid=3c1659d8-5e56-4dbb-908b-68c028d3c70c"},"vehicle_type_id":"4","last_reported":1781207311,"current_range_meters":7200,"station_id":"ce4bhgh2rcd13ifvqfb0","pricing_plan_id":"cebpf4jnsgd1na2vs0mg"},{"bike_id":"cebd1f5e-4615-475e-bb1f-b98342d910da","system_id":"levelo_inurba_marseille","lat":43.25072,"lon":5.39443,"is_reserved":false,"is_disabled":false,"rental_uris":{"android":"levelo://app?vid=cebd1f5e-4615-475e-bb1f-b98342d910da","ios":"levelo://app?vid=cebd1f5e-4615-475e-bb1f-b98342d910da"},"vehicle_type_id":"4","last_reported":1781207311,"current_range_meters":7200,"station_id":"ce4bhm12rcd13ifvqgkg","pricing_plan_id":"cebpf4jnsgd1na2vs0mg"},{"bike_id":"59d963d0-d1fe-483b-80d5-41df37ab3e9b","system_id":"levelo_inurba_marseille","lat":43.25576,"lon":5.38234,"is_reserved":false,"is_disabled":false,"rental_uris":{"android":"levelo://app?vid=59d963d0-d1fe-483b-80d5-41df37ab3e9b","ios":"levelo://app?vid=59d963d0-d1fe-483b-80d5-41df37ab3e9b"},"vehicle_type_id":"4","last_reported":1781207311,"current_range_meters":7200,"station_id":"ce4bhih2rcd13ifvqfs0","pricing_plan_id":"cebpf4jnsgd1na2vs0mg"},{"bike_id":"2e41d0d3-9e86-4c08-89a6-e0a70cc8ae89","system_id":"levelo_inurba_marseille","lat":43.29248,"lon":5.38251,"is_reserved":false,"is_disabled":true,"rental_uris":{"android":"levelo://app?vid=2e41d0d3-9e86-4c08-89a6-e0a70cc8ae89","ios":"levelo://app?vid=2e41d0d3-9e86-4c08-89a6-e0a70cc8ae89"},"vehicle_type_id":"4","last_reported":1781207311,"current_range_meters":7200,"station_id":"","pricing_plan_id":"cebpf4jnsgd1na2vs0mg"},{"bike_id":"315d3cd3-9556-47d2-bf87-42573b9faa84","system_id":"levelo_inurba_marseille","lat":43.29948,"lon":5.38351,"is_reserved":false,"is_disabled":false,"rental_uris":{"android":"levelo://app?vid=315d3cd3-9556-47d2-bf87-42573b9faa84","ios":"levelo://app?vid=315d3cd3-9556-47d2-bf87-42573b9faa84"},"vehicle_type_id":"4","last_reported":1781207311,"current_range_meters":7200,"station_id":"","pricing_plan_id":"cebpf4jnsgd1na2vs0mg"},{"bike_id":"5ac28b06-af05-4d8b-a509-2f5043908588","system_id":"levelo_inurba_marseille","lat":43.23446,"lon":5.36825,"is_reserved":false,"is_disabled":false,"rental_uris":{"android":"levelo://app?vid=5ac28b06-af05-4d8b-a509-2f5043908588","ios":"levelo://app?vid=5ac28b06-af05-4d8b-a509-2f5043908588"},"vehicle_type_id":"4","last_reported":1781207311,"current_range_meters":7200,"station_id":"","pricing_plan_id":"cebpf4jnsgd1na2vs0mg"},{"bike_id":"e47dfd39-5c0c-45eb-a41f-cf3fd7d5df32","system_id":"levelo_inurba_marseille","lat":43.28961,"lon":5.46112,"is_reserved":false,"is_disabled":true,"rental_uris":{"android":"levelo://app?vid=e47dfd39-5c0c-45eb-a41f-cf3fd7d5df32","ios":"levelo://app?vid=e47dfd39-5c0c-45eb-a41f-cf3fd7d5df32"},"vehicle_type_id":"4","last_reported":1781207311,"current_range_meters":7200,"station_id":"","pricing_plan_id":"cebpf4jnsgd1na2vs0mg"},{"bike_id":"14308449-0dbe-45aa-a61a-4feced6ded38","system_id":"levelo_inurba_marseille","lat":43.28724,"lon":5.37932,"is_reserved":false,"is_disabled":false,"rental_uris":{"android":"levelo://app?vid=14308449-0dbe-45aa-a61a-4feced6ded38","ios":"levelo://app?vid=14308449-0dbe-45aa-a61a-4feced6ded38"},"vehicle_type_id":"4","last_reported":1781207311,"current_range_meters":7200,"station_id":"ce4bh9p2rcd13ifvqec0","pricing_plan_id":"cebpf4jnsgd1na2vs0mg"},{"bike_id":"e11eb246-67c3-4f5b-a5ba-6160aaedd36d","system_id":"levelo_inurba_marseille","lat":43.2953,"lon":5.38545,"is_reserved":false,"is_disabled":false,"rental_uris":{"android":"levelo://app?vid=e11eb246-67c3-4f5b-a5ba-6160aaedd36d","ios":"levelo://app?vid=e11eb246-67c3-4f5b-a5ba-6160aaedd36d"},"vehicle_type_id":"4","last_reported":1781207311,"current_range_meters":7200,"station_id":"ce4bgih2rcd13ifvqba0","pricing_plan_id":"cebpf4jnsgd1na2vs0mg"},{"bike_id":"b6d507f5-c915-4915-8d1e-3c84726370da","system_id":"levelo_inurba_marseille","lat":43.32116,"lon":5.3676,"is_reserved":false,"is_disabled":false,"rental_uris":{"android":"levelo://app?vid=b6d507f5-c915-4915-8d1e-3c84726370da","ios":"levelo://app?vid=b6d507f5-c915-4915-8d1e-3c84726370da"},"vehicle_type_id":"4","last_reported":1781207311,"current_range_meters":7200,"station_id":"ce4bhrh2rcd13ifvqhug","pricing_plan_id":"cebpf4jnsgd1na2vs0mg"},{"bike_id":"f63e0e69-6a54-4e19-8d8e-f67680de3ed1","system_id":"levelo_inurba_marseille","lat":43.24638,"lon":5.43141,"is_reserved":false,"is_disabled":false,"rental_uris":{"android":"levelo://app?vid=f63e0e69-6a54-4e19-8d8e-f67680de3ed1","ios":"levelo://app?vid=f63e0e69-6a54-4e19-8d8e-f67680de3ed1"},"vehicle_type_id":"4","last_reported":1781207311,"current_range_meters":7200,"station_id":"st_d2m6c4gdas8pm72e190g","pricing_plan_id":"cebpf4jnsgd1na2vs0mg"},{"bike_id":"2b30f3fc-003b-4403-8c3c-1b01799bfe6b","system_id":"levelo_inurba_marseille","lat":43.29297,"lon":5.40155,"is_reserved":false,"is_disabled":false,"rental_uris":{"android":"levelo://app?vid=2b30f3fc-003b-4403-8c3c-1b01799bfe6b","ios":"levelo://app?vid=2b30f3fc-003b-4403-8c3c-1b01799bfe6b"},"vehicle_type_id":"4","last_reported":1781207311,"current_range_meters":7200,"station_id":"ce4bh312rcd13ifvqdk0","pricing_plan_id":"cebpf4jnsgd1na2vs0mg"},{"bike_id":"c93c5c3d-0399-41f2-9364-8579b4d871cd","system_id":"levelo_inurba_marseille","lat":43.24022,"lon":5.36256,"is_reserved":false,"is_disabled":false,"rental_uris":{"android":"levelo://app?vid=c93c5c3d-0399-41f2-9364-8579b4d871cd","ios":"levelo://app?vid=c93c5c3d-0399-41f2-9364-8579b4d871cd"},"vehicle_type_id":"4","last_reported":1781207311,"current_range_meters":7200,"station_id":"","pricing_plan_id":"cebpf4jnsgd1na2vs0mg"},{"bike_id":"8859d173-9f5d-4e39-86ed-34ec86a90175","system_id":"levelo_inurba_marseille","lat":43.2992,"lon":5.42785,"is_reserved":false,"is_disabled":false,"rental_uris":{"android":"levelo://app?vid=8859d173-9f5d-4e39-86ed-34ec86a90175","ios":"levelo://app?vid=8859d173-9f5d-4e39-86ed-34ec86a90175"},"vehicle_type_id":"4","last_reported":1781207311,"current_range_meters":7200,"station_id":"","pricing_plan_id":"cebpf4jnsgd1na2vs0mg"},{"bike_id":"2507d607-3822-4c87-a669-ab9b0690fc01","system_id":"levelo_inurba_marseille","lat":43.28619,"lon":5.35117,"is_reserved":false,"is_disabled":false,"rental_uris":{"android":"levelo://app?vid=2507d607-3822-4c87-a669-ab9b0690fc01","ios":"levelo://app?vid=2507d607-3822-4c87-a669-ab9b0690fc01"},"vehicle_type_id":"4","last_reported":1781207311,"current_range_meters":7200,"station_id":"ce4bhch2rcd13ifvqeug","pricing_plan_id":"cebpf4jnsgd1na2vs0mg"},{"bike_id":"e9ce25b8-b480-4907-8ce1-b8aecfbb3105","system_id":"levelo_inurba_marseille","lat":43.32317,"lon":5.36758,"is_reserved":false,"is_disabled":false,"rental_uris":{"android":"levelo://app?vid=e9ce25b8-b480-4907-8ce1-b8aecfbb3105","ios":"levelo://app?vid=e9ce25b8-b480-4907-8ce1-b8aecfbb3105"},"vehicle_type_id":"4","last_reported":1781207311,"current_range_meters":7200,"station_id":"ce4bhsh2rcd13ifvqi2g","pricing_plan_id":"cebpf4jnsgd1na2vs0mg"},{"bike_id":"154a4988-c768-4d61-b1b6-de5533699c92","system_id":"levelo_inurba_marseille","lat":43.25343,"lon":5.42194,"is_reserved":false,"is_disabled":false,"rental_uris":{"android":"levelo://app?vid=154a4988-c768-4d61-b1b6-de5533699c92","ios":"levelo://app?vid=154a4988-c768-4d61-b1b6-de5533699c92"},"vehicle_type_id":"4","last_reported":1781207311,"current_range_meters":7200,"station_id":"st_d2m65c5bi1j21697t3ng","pricing_plan_id":"cebpf4jnsgd1na2vs0mg"},{"bike_id":"dedca6ab-ea1a-4adc-8ebc-caf57a72d77b","system_id":"levelo_inurba_marseille","lat":43.25349,"lon":5.42147,"is_reserved":false,"is_disabled":false,"rental_uris":{"android":"levelo://app?vid=dedca6ab-ea1a-4adc-8ebc-caf57a72d77b","ios":"levelo://app?vid=dedca6ab-ea1a-4adc-8ebc-caf57a72d77b"},"vehicle_type_id":"4","last_reported":1781207311,"current_range_meters":7200,"station_id":"st_d2m65c5bi1j21697t3ng","pricing_plan_id":"cebpf4jnsgd1na2vs0mg"},{"bike_id":"feeaf8b9-320a-45d1-baf0-7a0561f10b2b","system_id":"levelo_inurba_marseille","lat":43.29603,"lon":5.38094,"is_reserved":false,"is_disabled":false,"rental_uris":{"android":"levelo://app?vid=feeaf8b9-320a-45d1-baf0-7a0561f10b2b","ios":"levelo://app?vid=feeaf8b9-320a-45d1-baf0-7a0561f10b2b"},"vehicle_type_id":"4","last_reported":1781207311,"current_range_meters":7200,"station_id":"ce4bgl12rcd13ifvqbo0","pricing_plan_id":"cebpf4jnsgd1na2vs0mg"},{"bike_id":"79d01324-9f74-484c-b09a-955c321f0067","system_id":"levelo_inurba_marseille","lat":43.23896,"lon":5.37454,"is_reserved":false,"is_disabled":false,"rental_uris":{"android":"levelo://app?vid=79d01324-9f74-484c-b09a-955c321f0067","ios":"levelo://app?vid=79d01324-9f74-484c-b09a-955c321f0067"},"vehicle_type_id":"4","last_reported":1781207311,"current_range_meters":7200,"station_id":"st_d6sm7csbq4hs73f8fpjg","pricing_plan_id":"cebpf4jnsgd1na2vs0mg"},{"bike_id":"2b77c4c7-5c8a-485c-8ae0-c6e07643f197","system_id":"levelo_inurba_marseille","lat":43.29266,"lon":5.38406,"is_reserved":false,"is_disabled":false,"rental_uris":{"android":"levelo://app?vid=2b77c4c7-5c8a-485c-8ae0-c6e07643f197","ios":"levelo://app?vid=2b77c4c7-5c8a-485c-8ae0-c6e07643f197"},"vehicle_type_id":"4","last_reported":1781207311,"current_range_meters":7200,"station_id":"ce4bh692rcd13ifvqea0","pricing_plan_id":"cebpf4jnsgd1na2vs0mg"},{"bike_id":"7174a037-033a-4532-b7d8-62a6cadea8be","system_id":"levelo_inurba_marseille","lat":43.30646,"lon":5.39861,"is_reserved":false,"is_disabled":false,"rental_uris":{"android":"levelo://app?vid=7174a037-033a-4532-b7d8-62a6cadea8be","ios":"levelo://app?vid=7174a037-033a-4532-b7d8-62a6cadea8be"},"vehicle_type_id":"4","last_reported":1781207311,"current_range_meters":7200,"station_id":"","pricing_plan_id":"cebpf4jnsgd1na2vs0mg"},{"bike_id":"0fcc1e55-dd11-4945-850f-e822f1e1f046","system_id":"levelo_inurba_marseille","lat":43.24947,"lon":5.40478,"is_reserved":false,"is_disabled":false,"rental_uris":{"android":"levelo://app?vid=0fcc1e55-dd11-4945-850f-e822f1e1f046","ios":"levelo://app?vid=0fcc1e55-dd11-4945-850f-e822f1e1f046"},"vehicle_type_id":"4","last_reported":1781207311,"current_range_meters":7200,"station_id":"st_d2ngiaodas8pm72gd1h0","pricing_plan_id":"cebpf4jnsgd1na2vs0mg"},{"bike_id":"db0e3959-b4ac-4435-b5cb-76e95721a23b","system_id":"levelo_inurba_marseille","lat":43.29682,"lon":5.37276,"is_reserved":false,"is_disabled":false,"rental_uris":{"android":"levelo://app?vid=db0e3959-b4ac-4435-b5cb-76e95721a23b","ios":"levelo://app?vid=db0e3959-b4ac-4435-b5cb-76e95721a23b"},"vehicle_type_id":"4","last_reported":1781207311,"current_range_meters":8000,"station_id":"ce4bgk12rcd13ifvqbj0","pricing_plan_id":"cebpf4jnsgd1na2vs0mg"},{"bike_id":"a200d566-3b72-4371-b090-fdc6d9d5e7f6","system_id":"levelo_inurba_marseille","lat":43.29536,"lon":5.3854,"is_reserved":false,"is_disabled":false,"rental_uris":{"android":"levelo://app?vid=a200d566-3b72-4371-b090-fdc6d9d5e7f6","ios":"levelo://app?vid=a200d566-3b72-4371-b090-fdc6d9d5e7f6"},"vehicle_type_id":"4","last_reported":1781207311,"current_range_meters":8000,"station_id":"ce4bgih2rcd13ifvqba0","pricing_plan_id":"cebpf4jnsgd1na2vs0mg"},{"bike_id":"490137b5-27e8-4439-82b1-1a734d651ab0","system_id":"levelo_inurba_marseille","lat":43.31541,"lon":5.3804,"is_reserved":false,"is_disabled":false,"rental_uris":{"android":"levelo://app?vid=490137b5-27e8-4439-82b1-1a734d651ab0","ios":"levelo://app?vid=490137b5-27e8-4439-82b1-1a734d651ab0"},"vehicle_type_id":"4","last_reported":1781207311,"current_range_meters":8000,"station_id":"ce4bhsp2rcd13ifvqi50","pricing_plan_id":"cebpf4jnsgd1na2vs0mg"},{"bike_id":"779fdad7-e7f4-436c-9fce-9a7825f91cf8","system_id":"levelo_inurba_marseille","lat":43.26226,"lon":5.37435,"is_reserved":false,"is_disabled":false,"rental_uris":{"android":"levelo://app?vid=779fdad7-e7f4-436c-9fce-9a7825f91cf8","ios":"levelo://app?vid=779fdad7-e7f4-436c-9fce-9a7825f91cf8"},"vehicle_type_id":"4","last_reported":1781207311,"current_range_meters":8000,"station_id":"","pricing_plan_id":"cebpf4jnsgd1na2vs0mg"},{"bike_id":"1c2a1b5b-c049-4e5c-b1d0-b40ecc795b35","system_id":"levelo_inurba_marseille","lat":43.23018,"lon":5.43689,"is_reserved":false,"is_disabled":false,"rental_uris":{"android":"levelo://app?vid=1c2a1b5b-c049-4e5c-b1d0-b40ecc795b35","ios":"levelo://app?vid=1c2a1b5b-c049-4e5c-b1d0-b40ecc795b35"},"vehicle_type_id":"4","last_reported":1781207311,"current_range_meters":8000,"station_id":"","pricing_plan_id":"cebpf4jnsgd1na2vs0mg"},{"bike_id":"0e86ce8f-0e91-432f-80bf-d4513463cb14","system_id":"levelo_inurba_marseille","lat":43.26225,"lon":5.37457,"is_reserved":false,"is_disabled":false,"rental_uris":{"android":"levelo://app?vid=0e86ce8f-0e91-432f-80bf-d4513463cb14","ios":"levelo://app?vid=0e86ce8f-0e91-432f-80bf-d4513463cb14"},"vehicle_type_id":"4","last_reported":1781207311,"current_range_meters":8000,"station_id":"ce4bhgp2rcd13ifvqfc0","pricing_plan_id":"cebpf4jnsgd1na2vs0mg"},{"bike_id":"58c6dcaa-5d0c-4dbc-99d5-3a5cd9ef72a5","system_id":"levelo_inurba_marseille","lat":43.24648,"lon":5.38152,"is_reserved":false,"is_disabled":false,"rental_uris":{"android":"levelo://app?vid=58c6dcaa-5d0c-4dbc-99d5-3a5cd9ef72a5","ios":"levelo://app?vid=58c6dcaa-5d0c-4dbc-99d5-3a5cd9ef72a5"},"vehicle_type_id":"4","last_reported":1781207311,"current_range_meters":8000,"station_id":"ce4bhih2rcd13ifvqfr0","pricing_plan_id":"cebpf4jnsgd1na2vs0mg"},{"bike_id":"3643eb2e-b0e4-40f6-9aa2-b567c4963540","system_id":"levelo_inurba_marseille","lat":43.32093,"lon":5.36781,"is_reserved":false,"is_disabled":false,"rental_uris":{"android":"levelo://app?vid=3643eb2e-b0e4-40f6-9aa2-b567c4963540","ios":"levelo://app?vid=3643eb2e-b0e4-40f6-9aa2-b567c4963540"},"vehicle_type_id":"4","last_reported":1781207311,"current_range_meters":8000,"station_id":"ce4bhrh2rcd13ifvqhug","pricing_plan_id":"cebpf4jnsgd1na2vs0mg"},{"bike_id":"fbdfa317-724b-4527-894d-7d409cedbf5f","system_id":"levelo_inurba_marseille","lat":43.2606,"lon":5.39384,"is_reserved":false,"is_disabled":false,"rental_uris":{"android":"levelo://app?vid=fbdfa317-724b-4527-894d-7d409cedbf5f","ios":"levelo://app?vid=fbdfa317-724b-4527-894d-7d409cedbf5f"},"vehicle_type_id":"4","last_reported":1781207311,"current_range_meters":8000,"station_id":"ce4bhh92rcd13ifvqfj0","pricing_plan_id":"cebpf4jnsgd1na2vs0mg"},{"bike_id":"cbb16737-bcd7-402c-8690-3019f42a1be1","system_id":"levelo_inurba_marseille","lat":43.28428,"lon":5.39184,"is_reserved":false,"is_disabled":false,"rental_uris":{"android":"levelo://app?vid=cbb16737-bcd7-402c-8690-3019f42a1be1","ios":"levelo://app?vid=cbb16737-bcd7-402c-8690-3019f42a1be1"},"vehicle_type_id":"4","last_reported":1781207311,"current_range_meters":8000,"station_id":"ce4bhoh2rcd13ifvqh5g","pricing_plan_id":"cebpf4jnsgd1na2vs0mg"},{"bike_id":"3570045d-68d1-44c4-89a4-c4877f8e7816","system_id":"levelo_inurba_marseille","lat":43.28272,"lon":5.35024,"is_reserved":false,"is_disabled":true,"rental_uris":{"android":"levelo://app?vid=3570045d-68d1-44c4-89a4-c4877f8e7816","ios":"levelo://app?vid=3570045d-68d1-44c4-89a4-c4877f8e7816"},"vehicle_type_id":"4","last_reported":1781207311,"current_range_meters":8000,"station_id":"ce4bhbp2rcd13ifvqerg","pricing_plan_id":"cebpf4jnsgd1na2vs0mg"},{"bike_id":"78486d95-eae8-4f9f-af58-decc1476efea","system_id":"levelo_inurba_marseille","lat":43.26561,"lon":5.37275,"is_reserved":false,"is_disabled":false,"rental_uris":{"android":"levelo://app?vid=78486d95-eae8-4f9f-af58-decc1476efea","ios":"levelo://app?vid=78486d95-eae8-4f9f-af58-decc1476efea"},"vehicle_type_id":"4","last_reported":1781207311,"current_range_meters":8000,"station_id":"ce4bhg12rcd13ifvqf70","pricing_plan_id":"cebpf4jnsgd1na2vs0mg"},{"bike_id":"f36a7326-9811-479f-8f8d-7d9611e1577d","system_id":"levelo_inurba_marseille","lat":43.26286,"lon":5.37533,"is_reserved":false,"is_disabled":false,"rental_uris":{"android":"levelo://app?vid=f36a7326-9811-479f-8f8d-7d9611e1577d","ios":"levelo://app?vid=f36a7326-9811-479f-8f8d-7d9611e1577d"},"vehicle_type_id":"4","last_reported":1781207311,"current_range_meters":8000,"station_id":"","pricing_plan_id":"cebpf4jnsgd1na2vs0mg"},{"bike_id":"ad76d0d0-de48-4521-8957-9ea62ade903d","system_id":"levelo_inurba_marseille","lat":43.2989,"lon":5.39724,"is_reserved":false,"is_disabled":false,"rental_uris":{"android":"levelo://app?vid=ad76d0d0-de48-4521-8957-9ea62ade903d","ios":"levelo://app?vid=ad76d0d0-de48-4521-8957-9ea62ade903d"},"vehicle_type_id":"4","last_reported":1781207311,"current_range_meters":8000,"station_id":"ce4bh0h2rcd13ifvqd50","pricing_plan_id":"cebpf4jnsgd1na2vs0mg"},{"bike_id":"c59256da-821e-42bd-9bae-e23e92cfd004","system_id":"levelo_inurba_marseille","lat":43.28937,"lon":5.38838,"is_reserved":false,"is_disabled":false,"rental_uris":{"android":"levelo://app?vid=c59256da-821e-42bd-9bae-e23e92cfd004","ios":"levelo://app?vid=c59256da-821e-42bd-9bae-e23e92cfd004"},"vehicle_type_id":"4","last_reported":1781207311,"current_range_meters":8000,"station_id":"","pricing_plan_id":"cebpf4jnsgd1na2vs0mg"},{"bike_id":"24f02d56-4cb2-4734-b396-c4353be9b86c","system_id":"levelo_inurba_marseille","lat":43.32115,"lon":5.36749,"is_reserved":false,"is_disabled":false,"rental_uris":{"android":"levelo://app?vid=24f02d56-4cb2-4734-b396-c4353be9b86c","ios":"levelo://app?vid=24f02d56-4cb2-4734-b396-c4353be9b86c"},"vehicle_type_id":"4","last_reported":1781207311,"current_range_meters":8000,"station_id":"ce4bhrh2rcd13ifvqhug","pricing_plan_id":"cebpf4jnsgd1na2vs0mg"},{"bike_id":"d1805a17-cbfa-4b97-9239-e455dc65e6d8","system_id":"levelo_inurba_marseille","lat":43.293,"lon":5.37457,"is_reserved":false,"is_disabled":false,"rental_uris":{"android":"levelo://app?vid=d1805a17-cbfa-4b97-9239-e455dc65e6d8","ios":"levelo://app?vid=d1805a17-cbfa-4b97-9239-e455dc65e6d8"},"vehicle_type_id":"4","last_reported":1781207311,"current_range_meters":8000,"station_id":"ce4bgi12rcd13ifvqb70","pricing_plan_id":"cebpf4jnsgd1na2vs0mg"},{"bike_id":"d408008d-ddfc-4d2e-9900-9d1d38f856d4","system_id":"levelo_inurba_marseille","lat":43.30926,"lon":5.40204,"is_reserved":false,"is_disabled":false,"rental_uris":{"android":"levelo://app?vid=d408008d-ddfc-4d2e-9900-9d1d38f856d4","ios":"levelo://app?vid=d408008d-ddfc-4d2e-9900-9d1d38f856d4"},"vehicle_type_id":"4","last_reported":1781207311,"current_range_meters":8000,"station_id":"ce4bgvp2rcd13ifvqct0","pricing_plan_id":"cebpf4jnsgd1na2vs0mg"},{"bike_id":"edd7f6cf-c00d-4334-ba4f-ddda86c6a12e","system_id":"levelo_inurba_marseille","lat":43.30287,"lon":5.37634,"is_reserved":false,"is_disabled":false,"rental_uris":{"android":"levelo://app?vid=edd7f6cf-c00d-4334-ba4f-ddda86c6a12e","ios":"levelo://app?vid=edd7f6cf-c00d-4334-ba4f-ddda86c6a12e"},"vehicle_type_id":"4","last_reported":1781207311,"current_range_meters":8000,"station_id":"","pricing_plan_id":"cebpf4jnsgd1na2vs0mg"},{"bike_id":"32e65dbb-64c4-4911-9176-a4e011b0a593","system_id":"levelo_inurba_marseille","lat":43.28666,"lon":5.42649,"is_reserved":false,"is_disabled":false,"rental_uris":{"android":"levelo://app?vid=32e65dbb-64c4-4911-9176-a4e011b0a593","ios":"levelo://app?vid=32e65dbb-64c4-4911-9176-a4e011b0a593"},"vehicle_type_id":"4","last_reported":1781207311,"current_range_meters":8000,"station_id":"","pricing_plan_id":"cebpf4jnsgd1na2vs0mg"},{"bike_id":"0193df8e-e671-4439-b878-059ede893bd0","system_id":"levelo_inurba_marseille","lat":43.24676,"lon":5.38181,"is_reserved":false,"is_disabled":false,"rental_uris":{"android":"levelo://app?vid=0193df8e-e671-4439-b878-059ede893bd0","ios":"levelo://app?vid=0193df8e-e671-4439-b878-059ede893bd0"},"vehicle_type_id":"4","last_reported":1781207311,"current_range_meters":8000,"station_id":"ce4bhih2rcd13ifvqfr0","pricing_plan_id":"cebpf4jnsgd1na2vs0mg"},{"bike_id":"46fbfb70-1112-4e82-8a9d-e04748007869","system_id":"levelo_inurba_marseille","lat":43.26034,"lon":5.37537,"is_reserved":false,"is_disabled":false,"rental_uris":{"android":"levelo://app?vid=46fbfb70-1112-4e82-8a9d-e04748007869","ios":"levelo://app?vid=46fbfb70-1112-4e82-8a9d-e04748007869"},"vehicle_type_id":"4","last_reported":1781207311,"current_range_meters":8000,"station_id":"ce4bhgh2rcd13ifvqfa0","pricing_plan_id":"cebpf4jnsgd1na2vs0mg"},{"bike_id":"3a44773b-a64a-45f6-9197-56969bf49878","system_id":"levelo_inurba_marseille","lat":43.29704,"lon":5.37027,"is_reserved":false,"is_disabled":false,"rental_uris":{"android":"levelo://app?vid=3a44773b-a64a-45f6-9197-56969bf49878","ios":"levelo://app?vid=3a44773b-a64a-45f6-9197-56969bf49878"},"vehicle_type_id":"4","last_reported":1781207311,"current_range_meters":8000,"station_id":"","pricing_plan_id":"cebpf4jnsgd1na2vs0mg"},