{"last_updated":1761563404,"ttl":60,"version":"2.2","data":{"bikes":[{"bike_id":"b0abf714-dce9-427c-860d-fed34f87ca30","system_id":"levelo_inurba_marseille","lat":43.258606,"lon":5.398962,"is_reserved":false,"is_disabled":false,"rental_uris":{"android":"levelo://app?vid=b0abf714-dce9-427c-860d-fed34f87ca30","ios":"levelo://app?vid=b0abf714-dce9-427c-860d-fed34f87ca30"},"vehicle_type_id":"4","last_reported":1761563404,"current_range_meters":2800,"station_id":"ce4bhl92rcd13ifvqghg","pricing_plan_id":"cebpf4jnsgd1na2vs0mg"},{"bike_id":"dab36927-4328-48fa-bffb-145a737de07e","system_id":"levelo_inurba_marseille","lat":43.30798,"lon":5.43529,"is_reserved":false,"is_disabled":false,"rental_uris":{"android":"levelo://app?vid=dab36927-4328-48fa-bffb-145a737de07e","ios":"levelo://app?vid=dab36927-4328-48fa-bffb-145a737de07e"},"vehicle_type_id":"4","last_reported":1761563404,"current_range_meters":3200,"station_id":"ce4bhph2rcd13ifvqheg","pricing_plan_id":"cebpf4jnsgd1na2vs0mg"},{"bike_id":"d035dc80-6691-4974-a431-41af60a303dd","system_id":"levelo_inurba_marseille","lat":43.33007,"lon":5.39038,"is_reserved":false,"is_disabled":false,"rental_uris":{"android":"levelo://app?vid=d035dc80-6691-4974-a431-41af60a303dd","ios":"levelo://app?vid=d035dc80-6691-4974-a431-41af60a303dd"},"vehicle_type_id":"4","last_reported":1761563404,"current_range_meters":3200,"station_id":"ce4bhr92rcd13ifvqhrg","pricing_plan_id":"cebpf4jnsgd1na2vs0mg"},{"bike_id":"e0c0e289-abfa-46b0-8d40-9b8cda538472","system_id":"levelo_inurba_marseille","lat":43.32351,"lon":5.36767,"is_reserved":false,"is_disabled":false,"rental_uris":{"android":"levelo://app?vid=e0c0e289-abfa-46b0-8d40-9b8cda538472","ios":"levelo://app?vid=e0c0e289-abfa-46b0-8d40-9b8cda538472"},"vehicle_type_id":"4","last_reported":1761563404,"current_range_meters":3600,"station_id":"ce4bhsh2rcd13ifvqi2g","pricing_plan_id":"cebpf4jnsgd1na2vs0mg"},{"bike_id":"6f2151a1-5d6e-4503-9e99-904a5a6156f4","system_id":"levelo_inurba_marseille","lat":43.30324,"lon":5.40423,"is_reserved":false,"is_disabled":false,"rental_uris":{"android":"levelo://app?vid=6f2151a1-5d6e-4503-9e99-904a5a6156f4","ios":"levelo://app?vid=6f2151a1-5d6e-4503-9e99-904a5a6156f4"},"vehicle_type_id":"4","last_reported":1761563404,"current_range_meters":3600,"station_id":"ce4bh012rcd13ifvqd10","pricing_plan_id":"cebpf4jnsgd1na2vs0mg"},{"bike_id":"4ade9d83-f2d5-4d19-a54e-74fbd9ec2b53","system_id":"levelo_inurba_marseille","lat":43.32366,"lon":5.38873,"is_reserved":false,"is_disabled":false,"rental_uris":{"android":"levelo://app?vid=4ade9d83-f2d5-4d19-a54e-74fbd9ec2b53","ios":"levelo://app?vid=4ade9d83-f2d5-4d19-a54e-74fbd9ec2b53"},"vehicle_type_id":"4","last_reported":1761563404,"current_range_meters":3600,"station_id":"ce4bhqp2rcd13ifvqhog","pricing_plan_id":"cebpf4jnsgd1na2vs0mg"},{"bike_id":"91ac39d1-3e7d-40fe-8f52-f109c5aafe5a","system_id":"levelo_inurba_marseille","lat":43.28156,"lon":5.42648,"is_reserved":false,"is_disabled":false,"rental_uris":{"android":"levelo://app?vid=91ac39d1-3e7d-40fe-8f52-f109c5aafe5a","ios":"levelo://app?vid=91ac39d1-3e7d-40fe-8f52-f109c5aafe5a"},"vehicle_type_id":"4","last_reported":1761563404,"current_range_meters":3600,"station_id":"ce4bhnh2rcd13ifvqgug","pricing_plan_id":"cebpf4jnsgd1na2vs0mg"},{"bike_id":"f661f8f5-11ed-4312-8ecc-92753a99ad6b","system_id":"levelo_inurba_marseille","lat":43.27943,"lon":5.41039,"is_reserved":false,"is_disabled":false,"rental_uris":{"android":"levelo://app?vid=f661f8f5-11ed-4312-8ecc-92753a99ad6b","ios":"levelo://app?vid=f661f8f5-11ed-4312-8ecc-92753a99ad6b"},"vehicle_type_id":"4","last_reported":1761563404,"current_range_meters":4000,"station_id":"ce4bhnp2rcd13ifvqh0g","pricing_plan_id":"cebpf4jnsgd1na2vs0mg"},{"bike_id":"8be6a47c-9542-4fed-8109-f6d91a0f2b3f","system_id":"levelo_inurba_marseille","lat":43.29174,"lon":5.37161,"is_reserved":false,"is_disabled":false,"rental_uris":{"android":"levelo://app?vid=8be6a47c-9542-4fed-8109-f6d91a0f2b3f","ios":"levelo://app?vid=8be6a47c-9542-4fed-8109-f6d91a0f2b3f"},"vehicle_type_id":"4","last_reported":1761563404,"current_range_meters":4000,"station_id":"ce4bha92rcd13ifvqeh0","pricing_plan_id":"cebpf4jnsgd1na2vs0mg"},{"bike_id":"2d305dc6-e68d-4fc0-af3c-18b4adb6047b","system_id":"levelo_inurba_marseille","lat":43.225311,"lon":5.34837,"is_reserved":false,"is_disabled":false,"rental_uris":{"android":"levelo://app?vid=2d305dc6-e68d-4fc0-af3c-18b4adb6047b","ios":"levelo://app?vid=2d305dc6-e68d-4fc0-af3c-18b4adb6047b"},"vehicle_type_id":"4","last_reported":1761563404,"current_range_meters":4000,"station_id":"","pricing_plan_id":"cebpf4jnsgd1na2vs0mg"},{"bike_id":"7853cb11-638d-4b94-9ca8-693dc3733567","system_id":"levelo_inurba_marseille","lat":43.29527,"lon":5.37502,"is_reserved":false,"is_disabled":false,"rental_uris":{"android":"levelo://app?vid=7853cb11-638d-4b94-9ca8-693dc3733567","ios":"levelo://app?vid=7853cb11-638d-4b94-9ca8-693dc3733567"},"vehicle_type_id":"4","last_reported":1761563404,"current_range_meters":4400,"station_id":"ce4bgkp2rcd13ifvqbmg","pricing_plan_id":"cebpf4jnsgd1na2vs0mg"},{"bike_id":"69880247-38f2-48e7-ab49-326f3d5eca30","system_id":"levelo_inurba_marseille","lat":43.21188,"lon":5.35082,"is_reserved":false,"is_disabled":false,"rental_uris":{"android":"levelo://app?vid=69880247-38f2-48e7-ab49-326f3d5eca30","ios":"levelo://app?vid=69880247-38f2-48e7-ab49-326f3d5eca30"},"vehicle_type_id":"4","last_reported":1761563404,"current_range_meters":5600,"station_id":"","pricing_plan_id":"cebpf4jnsgd1na2vs0mg"},{"bike_id":"45a8feb9-8f9f-45c5-9374-0e195d24493f","system_id":"levelo_inurba_marseille","lat":43.24807,"lon":5.37465,"is_reserved":false,"is_disabled":true,"rental_uris":{"android":"levelo://app?vid=45a8feb9-8f9f-45c5-9374-0e195d24493f","ios":"levelo://app?vid=45a8feb9-8f9f-45c5-9374-0e195d24493f"},"vehicle_type_id":"4","last_reported":1761563404,"current_range_meters":6000,"station_id":"ce4bhgh2rcd13ifvqfb0","pricing_plan_id":"cebpf4jnsgd1na2vs0mg"},{"bike_id":"8b978098-665e-4f78-991f-8c8ae767f8aa","system_id":"levelo_inurba_marseille","lat":43.30908,"lon":5.36852,"is_reserved":false,"is_disabled":false,"rental_uris":{"android":"levelo://app?vid=8b978098-665e-4f78-991f-8c8ae767f8aa","ios":"levelo://app?vid=8b978098-665e-4f78-991f-8c8ae767f8aa"},"vehicle_type_id":"4","last_reported":1761563404,"current_range_meters":6000,"station_id":"ce4bgn92rcd13ifvqbvg","pricing_plan_id":"cebpf4jnsgd1na2vs0mg"},{"bike_id":"ba652f5c-7f87-446f-8027-4512883f3d16","system_id":"levelo_inurba_marseille","lat":43.29269,"lon":5.38435,"is_reserved":false,"is_disabled":false,"rental_uris":{"android":"levelo://app?vid=ba652f5c-7f87-446f-8027-4512883f3d16","ios":"levelo://app?vid=ba652f5c-7f87-446f-8027-4512883f3d16"},"vehicle_type_id":"4","last_reported":1761563404,"current_range_meters":6000,"station_id":"ce4bh692rcd13ifvqea0","pricing_plan_id":"cebpf4jnsgd1na2vs0mg"},{"bike_id":"794e19f4-8a54-4c4a-9e65-046e8fe6c55d","system_id":"levelo_inurba_marseille","lat":43.29025,"lon":5.38648,"is_reserved":false,"is_disabled":false,"rental_uris":{"android":"levelo://app?vid=794e19f4-8a54-4c4a-9e65-046e8fe6c55d","ios":"levelo://app?vid=794e19f4-8a54-4c4a-9e65-046e8fe6c55d"},"vehicle_type_id":"4","last_reported":1761563404,"current_range_meters":6000,"station_id":"ce4bh4p2rcd13ifvqe0g","pricing_plan_id":"cebpf4jnsgd1na2vs0mg"},{"bike_id":"1d827994-3664-4489-9540-ff55f133dc4e","system_id":"levelo_inurba_marseille","lat":43.29014,"lon":5.38123,"is_reserved":false,"is_disabled":false,"rental_uris":{"android":"levelo://app?vid=1d827994-3664-4489-9540-ff55f133dc4e","ios":"levelo://app?vid=1d827994-3664-4489-9540-ff55f133dc4e"},"vehicle_type_id":"4","last_reported":1761563404,"current_range_meters":6000,"station_id":"ce4bh4p2rcd13ifvqe1g","pricing_plan_id":"cebpf4jnsgd1na2vs0mg"},{"bike_id":"11ed3229-da96-464f-bee1-15ff06dff35a","system_id":"levelo_inurba_marseille","lat":43.212,"lon":5.3508,"is_reserved":false,"is_disabled":false,"rental_uris":{"android":"levelo://app?vid=11ed3229-da96-464f-bee1-15ff06dff35a","ios":"levelo://app?vid=11ed3229-da96-464f-bee1-15ff06dff35a"},"vehicle_type_id":"4","last_reported":1761563404,"current_range_meters":6400,"station_id":"st_cvj6sg6p6f1abm77japg","pricing_plan_id":"cebpf4jnsgd1na2vs0mg"},{"bike_id":"e631b0a5-bb73-49d1-b876-2fd539325545","system_id":"levelo_inurba_marseille","lat":43.30263,"lon":5.40074,"is_reserved":false,"is_disabled":false,"rental_uris":{"android":"levelo://app?vid=e631b0a5-bb73-49d1-b876-2fd539325545","ios":"levelo://app?vid=e631b0a5-bb73-49d1-b876-2fd539325545"},"vehicle_type_id":"4","last_reported":1761563404,"current_range_meters":6400,"station_id":"ce4bgvh2rcd13ifvqcs0","pricing_plan_id":"cebpf4jnsgd1na2vs0mg"},{"bike_id":"13f12d24-3fc3-4202-88f0-68cc1be473cc","system_id":"levelo_inurba_marseille","lat":43.285335,"lon":5.440991,"is_reserved":false,"is_disabled":false,"rental_uris":{"android":"levelo://app?vid=13f12d24-3fc3-4202-88f0-68cc1be473cc","ios":"levelo://app?vid=13f12d24-3fc3-4202-88f0-68cc1be473cc"},"vehicle_type_id":"4","last_reported":1761563404,"current_range_meters":6800,"station_id":"st_d3j3df2ikq2c7380ej80","pricing_plan_id":"cebpf4jnsgd1na2vs0mg"},{"bike_id":"a1af1599-cc74-4f16-9c0a-a193bd0718ae","system_id":"levelo_inurba_marseille","lat":43.28151,"lon":5.42648,"is_reserved":false,"is_disabled":false,"rental_uris":{"android":"levelo://app?vid=a1af1599-cc74-4f16-9c0a-a193bd0718ae","ios":"levelo://app?vid=a1af1599-cc74-4f16-9c0a-a193bd0718ae"},"vehicle_type_id":"4","last_reported":1761563404,"current_range_meters":6800,"station_id":"ce4bhnh2rcd13ifvqgug","pricing_plan_id":"cebpf4jnsgd1na2vs0mg"},{"bike_id":"e2a1ebed-bfbf-4bd3-8b50-9c03f3dff106","system_id":"levelo_inurba_marseille","lat":43.31983,"lon":5.38136,"is_reserved":false,"is_disabled":false,"rental_uris":{"android":"levelo://app?vid=e2a1ebed-bfbf-4bd3-8b50-9c03f3dff106","ios":"levelo://app?vid=e2a1ebed-bfbf-4bd3-8b50-9c03f3dff106"},"vehicle_type_id":"4","last_reported":1761563404,"current_range_meters":6800,"station_id":"ce4bhr12rcd13ifvqhpg","pricing_plan_id":"cebpf4jnsgd1na2vs0mg"},{"bike_id":"9d943b33-e12f-4684-b457-eab990b642ab","system_id":"levelo_inurba_marseille","lat":43.21186,"lon":5.35076,"is_reserved":false,"is_disabled":false,"rental_uris":{"android":"levelo://app?vid=9d943b33-e12f-4684-b457-eab990b642ab","ios":"levelo://app?vid=9d943b33-e12f-4684-b457-eab990b642ab"},"vehicle_type_id":"4","last_reported":1761563404,"current_range_meters":6800,"station_id":"st_cvj6sg6p6f1abm77japg","pricing_plan_id":"cebpf4jnsgd1na2vs0mg"},{"bike_id":"347050e8-829c-4691-8377-86be557b33d2","system_id":"levelo_inurba_marseille","lat":43.23153,"lon":5.43707,"is_reserved":false,"is_disabled":false,"rental_uris":{"android":"levelo://app?vid=347050e8-829c-4691-8377-86be557b33d2","ios":"levelo://app?vid=347050e8-829c-4691-8377-86be557b33d2"},"vehicle_type_id":"4","last_reported":1761563404,"current_range_meters":6800,"station_id":"ce4bhmp2rcd13ifvqgog","pricing_plan_id":"cebpf4jnsgd1na2vs0mg"},{"bike_id":"1e06e241-207f-4985-8e4c-c5ffb3a0d105","system_id":"levelo_inurba_marseille","lat":43.26937,"lon":5.38908,"is_reserved":false,"is_disabled":false,"rental_uris":{"android":"levelo://app?vid=1e06e241-207f-4985-8e4c-c5ffb3a0d105","ios":"levelo://app?vid=1e06e241-207f-4985-8e4c-c5ffb3a0d105"},"vehicle_type_id":"4","last_reported":1761563404,"current_range_meters":7200,"station_id":"ce4bhhh2rcd13ifvqfl0","pricing_plan_id":"cebpf4jnsgd1na2vs0mg"},{"bike_id":"6ee611b3-bf13-495e-a0dc-dfd1a8718271","system_id":"levelo_inurba_marseille","lat":43.29823,"lon":5.44056,"is_reserved":false,"is_disabled":false,"rental_uris":{"android":"levelo://app?vid=6ee611b3-bf13-495e-a0dc-dfd1a8718271","ios":"levelo://app?vid=6ee611b3-bf13-495e-a0dc-dfd1a8718271"},"vehicle_type_id":"4","last_reported":1761563404,"current_range_meters":7200,"station_id":"st_d3jp68qikq2c7381ktn0","pricing_plan_id":"cebpf4jnsgd1na2vs0mg"},{"bike_id":"53619b52-f6a4-4a36-9715-aa47e9e64dbc","system_id":"levelo_inurba_marseille","lat":43.28533,"lon":5.35879,"is_reserved":false,"is_disabled":false,"rental_uris":{"android":"levelo://app?vid=53619b52-f6a4-4a36-9715-aa47e9e64dbc","ios":"levelo://app?vid=53619b52-f6a4-4a36-9715-aa47e9e64dbc"},"vehicle_type_id":"4","last_reported":1761563404,"current_range_meters":7200,"station_id":"","pricing_plan_id":"cebpf4jnsgd1na2vs0mg"},{"bike_id":"169d21d4-f093-4f50-940d-7012435908e5","system_id":"levelo_inurba_marseille","lat":43.28956,"lon":5.38167,"is_reserved":false,"is_disabled":false,"rental_uris":{"android":"levelo://app?vid=169d21d4-f093-4f50-940d-7012435908e5","ios":"levelo://app?vid=169d21d4-f093-4f50-940d-7012435908e5"},"vehicle_type_id":"4","last_reported":1761563404,"current_range_meters":7200,"station_id":"ce4bgjh2rcd13ifvqbf0","pricing_plan_id":"cebpf4jnsgd1na2vs0mg"},{"bike_id":"bd33795f-4eea-4942-ace1-50b7db9010e0","system_id":"levelo_inurba_marseille","lat":43.24664,"lon":5.38167,"is_reserved":false,"is_disabled":false,"rental_uris":{"android":"levelo://app?vid=bd33795f-4eea-4942-ace1-50b7db9010e0","ios":"levelo://app?vid=bd33795f-4eea-4942-ace1-50b7db9010e0"},"vehicle_type_id":"4","last_reported":1761563404,"current_range_meters":7200,"station_id":"ce4bhih2rcd13ifvqfr0","pricing_plan_id":"cebpf4jnsgd1na2vs0mg"},{"bike_id":"e1aa20f8-799a-4567-bfd0-31e71eee617f","system_id":"levelo_inurba_marseille","lat":43.31437,"lon":5.38885,"is_reserved":false,"is_disabled":false,"rental_uris":{"android":"levelo://app?vid=e1aa20f8-799a-4567-bfd0-31e71eee617f","ios":"levelo://app?vid=e1aa20f8-799a-4567-bfd0-31e71eee617f"},"vehicle_type_id":"4","last_reported":1761563404,"current_range_meters":8000,"station_id":"","pricing_plan_id":"cebpf4jnsgd1na2vs0mg"},{"bike_id":"0c8681f7-f865-4671-bdbb-962a5d8d1307","system_id":"levelo_inurba_marseille","lat":43.25485,"lon":5.3763,"is_reserved":false,"is_disabled":false,"rental_uris":{"android":"levelo://app?vid=0c8681f7-f865-4671-bdbb-962a5d8d1307","ios":"levelo://app?vid=0c8681f7-f865-4671-bdbb-962a5d8d1307"},"vehicle_type_id":"4","last_reported":1761563404,"current_range_meters":8000,"station_id":"","pricing_plan_id":"cebpf4jnsgd1na2vs0mg"},{"bike_id":"435fe6ee-2777-4641-8e2e-a3e2c782b8b7","system_id":"levelo_inurba_marseille","lat":43.2853,"lon":5.358622,"is_reserved":false,"is_disabled":false,"rental_uris":{"android":"levelo://app?vid=435fe6ee-2777-4641-8e2e-a3e2c782b8b7","ios":"levelo://app?vid=435fe6ee-2777-4641-8e2e-a3e2c782b8b7"},"vehicle_type_id":"4","last_reported":1761563404,"current_range_meters":8000,"station_id":"","pricing_plan_id":"cebpf4jnsgd1na2vs0mg"},{"bike_id":"4ebfc9c9-75aa-4d2a-b7b8-7db1ded305e6","system_id":"levelo_inurba_marseille","lat":43.2119,"lon":5.35071,"is_reserved":false,"is_disabled":false,"rental_uris":{"android":"levelo://app?vid=4ebfc9c9-75aa-4d2a-b7b8-7db1ded305e6","ios":"levelo://app?vid=4ebfc9c9-75aa-4d2a-b7b8-7db1ded305e6"},"vehicle_type_id":"4","last_reported":1761563404,"current_range_meters":8400,"station_id":"st_cvj6sg6p6f1abm77japg","pricing_plan_id":"cebpf4jnsgd1na2vs0mg"},{"bike_id":"cc00ac37-6dcf-481e-86bc-494e0df85899","system_id":"levelo_inurba_marseille","lat":43.28568,"lon":5.39491,"is_reserved":false,"is_disabled":false,"rental_uris":{"android":"levelo://app?vid=cc00ac37-6dcf-481e-86bc-494e0df85899","ios":"levelo://app?vid=cc00ac37-6dcf-481e-86bc-494e0df85899"},"vehicle_type_id":"4","last_reported":1761563404,"current_range_meters":8400,"station_id":"ce4bh292rcd13ifvqdg0","pricing_plan_id":"cebpf4jnsgd1na2vs0mg"},{"bike_id":"68892708-3367-456d-9028-17ab8789f30e","system_id":"levelo_inurba_marseille","lat":43.23217,"lon":5.43611,"is_reserved":false,"is_disabled":false,"rental_uris":{"android":"levelo://app?vid=68892708-3367-456d-9028-17ab8789f30e","ios":"levelo://app?vid=68892708-3367-456d-9028-17ab8789f30e"},"vehicle_type_id":"4","last_reported":1761563404,"current_range_meters":8400,"station_id":"","pricing_plan_id":"cebpf4jnsgd1na2vs0mg"},{"bike_id":"5947034f-19ea-4d71-bc4b-92db934cd50e","system_id":"levelo_inurba_marseille","lat":43.21195,"lon":5.35061,"is_reserved":false,"is_disabled":true,"rental_uris":{"android":"levelo://app?vid=5947034f-19ea-4d71-bc4b-92db934cd50e","ios":"levelo://app?vid=5947034f-19ea-4d71-bc4b-92db934cd50e"},"vehicle_type_id":"4","last_reported":1761563404,"current_range_meters":8400,"station_id":"st_cvj6sg6p6f1abm77japg","pricing_plan_id":"cebpf4jnsgd1na2vs0mg"},{"bike_id":"3587856d-30a5-4445-9d55-9e3eef050308","system_id":"levelo_inurba_marseille","lat":43.23153,"lon":5.43709,"is_reserved":false,"is_disabled":false,"rental_uris":{"android":"levelo://app?vid=3587856d-30a5-4445-9d55-9e3eef050308","ios":"levelo://app?vid=3587856d-30a5-4445-9d55-9e3eef050308"},"vehicle_type_id":"4","last_reported":1761563404,"current_range_meters":8400,"station_id":"ce4bhmp2rcd13ifvqgog","pricing_plan_id":"cebpf4jnsgd1na2vs0mg"},{"bike_id":"671f5cb2-17e6-442b-889f-90f5630815d2","system_id":"levelo_inurba_marseille","lat":43.2794,"lon":5.41039,"is_reserved":false,"is_disabled":false,"rental_uris":{"android":"levelo://app?vid=671f5cb2-17e6-442b-889f-90f5630815d2","ios":"levelo://app?vid=671f5cb2-17e6-442b-889f-90f5630815d2"},"vehicle_type_id":"4","last_reported":1761563404,"current_range_meters":8400,"station_id":"ce4bhnp2rcd13ifvqh0g","pricing_plan_id":"cebpf4jnsgd1na2vs0mg"},{"bike_id":"c91a2f1f-9746-43e0-a5d2-28ad01a8e4c1","system_id":"levelo_inurba_marseille","lat":43.24398,"lon":5.37066,"is_reserved":false,"is_disabled":false,"rental_uris":{"android":"levelo://app?vid=c91a2f1f-9746-43e0-a5d2-28ad01a8e4c1","ios":"levelo://app?vid=c91a2f1f-9746-43e0-a5d2-28ad01a8e4c1"},"vehicle_type_id":"4","last_reported":1761563404,"current_range_meters":8800,"station_id":"ce4bhhh2rcd13ifvqfk0","pricing_plan_id":"cebpf4jnsgd1na2vs0mg"},{"bike_id":"41d45b45-3a52-4b5a-b2b3-1e62d5490ada","system_id":"levelo_inurba_marseille","lat":43.285387,"lon":5.440949,"is_reserved":false,"is_disabled":false,"rental_uris":{"android":"levelo://app?vid=41d45b45-3a52-4b5a-b2b3-1e62d5490ada","ios":"levelo://app?vid=41d45b45-3a52-4b5a-b2b3-1e62d5490ada"},"vehicle_type_id":"4","last_reported":1761563404,"current_range_meters":8800,"station_id":"st_d3j3df2ikq2c7380ej80","pricing_plan_id":"cebpf4jnsgd1na2vs0mg"},{"bike_id":"e77b816f-be7f-4dcb-b720-13c638a87ddf","system_id":"levelo_inurba_marseille","lat":43.23145,"lon":5.43706,"is_reserved":false,"is_disabled":false,"rental_uris":{"android":"levelo://app?vid=e77b816f-be7f-4dcb-b720-13c638a87ddf","ios":"levelo://app?vid=e77b816f-be7f-4dcb-b720-13c638a87ddf"},"vehicle_type_id":"4","last_reported":1761563404,"current_range_meters":8800,"station_id":"ce4bhmp2rcd13ifvqgog","pricing_plan_id":"cebpf4jnsgd1na2vs0mg"},{"bike_id":"2ff820dd-4701-4c44-978c-027d1723e1a8","system_id":"levelo_inurba_marseille","lat":43.2174,"lon":5.34639,"is_reserved":false,"is_disabled":false,"rental_uris":{"android":"levelo://app?vid=2ff820dd-4701-4c44-978c-027d1723e1a8","ios":"levelo://app?vid=2ff820dd-4701-4c44-978c-027d1723e1a8"},"vehicle_type_id":"4","last_reported":1761563404,"current_range_meters":8800,"station_id":"st_cvj6r9ubvosntc0bgbag","pricing_plan_id":"cebpf4jnsgd1na2vs0mg"},{"bike_id":"c0b81f28-bbba-4247-a74b-c55a34b31846","system_id":"levelo_inurba_marseille","lat":43.33258,"lon":5.41086,"is_reserved":false,"is_disabled":false,"rental_uris":{"android":"levelo://app?vid=c0b81f28-bbba-4247-a74b-c55a34b31846","ios":"levelo://app?vid=c0b81f28-bbba-4247-a74b-c55a34b31846"},"vehicle_type_id":"4","last_reported":1761563404,"current_range_meters":9200,"station_id":"","pricing_plan_id":"cebpf4jnsgd1na2vs0mg"},{"bike_id":"b64d1acc-b6a4-4d40-b8b3-a208a396b856","system_id":"levelo_inurba_marseille","lat":43.29196,"lon":5.39318,"is_reserved":false,"is_disabled":false,"rental_uris":{"android":"levelo://app?vid=b64d1acc-b6a4-4d40-b8b3-a208a396b856","ios":"levelo://app?vid=b64d1acc-b6a4-4d40-b8b3-a208a396b856"},"vehicle_type_id":"4","last_reported":1761563404,"current_range_meters":9200,"station_id":"ce4bh192rcd13ifvqdd0","pricing_plan_id":"cebpf4jnsgd1na2vs0mg"},{"bike_id":"61e35669-bebb-443d-8601-985c12c6d9ec","system_id":"levelo_inurba_marseille","lat":43.324596,"lon":5.365517,"is_reserved":false,"is_disabled":false,"rental_uris":{"android":"levelo://app?vid=61e35669-bebb-443d-8601-985c12c6d9ec","ios":"levelo://app?vid=61e35669-bebb-443d-8601-985c12c6d9ec"},"vehicle_type_id":"4","last_reported":1761563404,"current_range_meters":9200,"station_id":"ce4bhs12rcd13ifvqhvg","pricing_plan_id":"cebpf4jnsgd1na2vs0mg"},{"bike_id":"67f8857f-0853-46d2-b9ef-96c5ce2639bc","system_id":"levelo_inurba_marseille","lat":43.230522,"lon":5.354915,"is_reserved":false,"is_disabled":false,"rental_uris":{"android":"levelo://app?vid=67f8857f-0853-46d2-b9ef-96c5ce2639bc","ios":"levelo://app?vid=67f8857f-0853-46d2-b9ef-96c5ce2639bc"},"vehicle_type_id":"4","last_reported":1761563404,"current_range_meters":9200,"station_id":"cpo3342slgdg3j2ifvpg","pricing_plan_id":"cebpf4jnsgd1na2vs0mg"},{"bike_id":"af01d055-b0f4-4e21-ab26-45fb6440de15","system_id":"levelo_inurba_marseille","lat":43.29902,"lon":5.43659,"is_reserved":false,"is_disabled":false,"rental_uris":{"android":"levelo://app?vid=af01d055-b0f4-4e21-ab26-45fb6440de15","ios":"levelo://app?vid=af01d055-b0f4-4e21-ab26-45fb6440de15"},"vehicle_type_id":"4","last_reported":1761563404,"current_range_meters":9200,"station_id":"ce4bhpp2rcd13ifvqhfg","pricing_plan_id":"cebpf4jnsgd1na2vs0mg"},{"bike_id":"45ce567c-1a9d-4eda-8237-39b85a93a701","system_id":"levelo_inurba_marseille","lat":43.274261,"lon":5.394241,"is_reserved":false,"is_disabled":false,"rental_uris":{"android":"levelo://app?vid=45ce567c-1a9d-4eda-8237-39b85a93a701","ios":"levelo://app?vid=45ce567c-1a9d-4eda-8237-39b85a93a701"},"vehicle_type_id":"4","last_reported":1761563404,"current_range_meters":9200,"station_id":"ce4bhdp2rcd13ifvqf20","pricing_plan_id":"cebpf4jnsgd1na2vs0mg"},{"bike_id":"de5cece4-6186-4ccb-b70e-a25e8bd3fc86","system_id":"levelo_inurba_marseille","lat":43.337444,"lon":5.374475,"is_reserved":false,"is_disabled":false,"rental_uris":{"android":"levelo://app?vid=de5cece4-6186-4ccb-b70e-a25e8bd3fc86","ios":"levelo://app?vid=de5cece4-6186-4ccb-b70e-a25e8bd3fc86"},"vehicle_type_id":"4","last_reported":1761563404,"current_range_meters":9200,"station_id":"","pricing_plan_id":"cebpf4jnsgd1na2vs0mg"},{"bike_id":"76779b02-0663-404f-a09a-86da4de06a55","system_id":"levelo_inurba_marseille","lat":43.243854,"lon":5.370565,"is_reserved":false,"is_disabled":false,"rental_uris":{"android":"levelo://app?vid=76779b02-0663-404f-a09a-86da4de06a55","ios":"levelo://app?vid=76779b02-0663-404f-a09a-86da4de06a55"},"vehicle_type_id":"4","last_reported":1761563404,"current_range_meters":9600,"station_id":"ce4bhhh2rcd13ifvqfk0","pricing_plan_id":"cebpf4jnsgd1na2vs0mg"},{"bike_id":"64b75b4a-3497-4861-8cc2-90dd62cd9f5e","system_id":"levelo_inurba_marseille","lat":43.293063,"lon":5.434448,"is_reserved":false,"is_disabled":false,"rental_uris":{"android":"levelo://app?vid=64b75b4a-3497-4861-8cc2-90dd62cd9f5e","ios":"levelo://app?vid=64b75b4a-3497-4861-8cc2-90dd62cd9f5e"},"vehicle_type_id":"4","last_reported":1761563404,"current_range_meters":9600,"station_id":"","pricing_plan_id":"cebpf4jnsgd1na2vs0mg"},{"bike_id":"8cf544ae-1784-4e5d-b09a-2bef75769339","system_id":"levelo_inurba_marseille","lat":43.29522,"lon":5.39044,"is_reserved":false,"is_disabled":false,"rental_uris":{"android":"levelo://app?vid=8cf544ae-1784-4e5d-b09a-2bef75769339","ios":"levelo://app?vid=8cf544ae-1784-4e5d-b09a-2bef75769339"},"vehicle_type_id":"4","last_reported":1761563404,"current_range_meters":9600,"station_id":"ce4bh3p2rcd13ifvqdp0","pricing_plan_id":"cebpf4jnsgd1na2vs0mg"},{"bike_id":"e4ccce50-4824-4895-aa8c-033835526f23","system_id":"levelo_inurba_marseille","lat":43.3188,"lon":5.39972,"is_reserved":false,"is_disabled":false,"rental_uris":{"android":"levelo://app?vid=e4ccce50-4824-4895-aa8c-033835526f23","ios":"levelo://app?vid=e4ccce50-4824-4895-aa8c-033835526f23"},"vehicle_type_id":"4","last_reported":1761563404,"current_range_meters":9600,"station_id":"","pricing_plan_id":"cebpf4jnsgd1na2vs0mg"},{"bike_id":"8847af5d-c1ad-4d8d-a5c1-273c3b41c105","system_id":"levelo_inurba_marseille","lat":43.32245,"lon":5.41957,"is_reserved":false,"is_disabled":false,"rental_uris":{"android":"levelo://app?vid=8847af5d-c1ad-4d8d-a5c1-273c3b41c105","ios":"levelo://app?vid=8847af5d-c1ad-4d8d-a5c1-273c3b41c105"},"vehicle_type_id":"4","last_reported":1761563404,"current_range_meters":10000,"station_id":"","pricing_plan_id":"cebpf4jnsgd1na2vs0mg"},{"bike_id":"de0ca7a8-116a-46c8-8c50-6b445a473423","system_id":"levelo_inurba_marseille","lat":43.2889,"lon":5.42533,"is_reserved":false,"is_disabled":false,"rental_uris":{"android":"levelo://app?vid=de0ca7a8-116a-46c8-8c50-6b445a473423","ios":"levelo://app?vid=de0ca7a8-116a-46c8-8c50-6b445a473423"},"vehicle_type_id":"4","last_reported":1761563404,"current_range_meters":10000,"station_id":"st_d3b462108ojc7389ooeg","pricing_plan_id":"cebpf4jnsgd1na2vs0mg"},{"bike_id":"ac287b60-9a66-447a-9257-5a0b63c4d473","system_id":"levelo_inurba_marseille","lat":43.28407,"lon":5.3497,"is_reserved":false,"is_disabled":false,"rental_uris":{"android":"levelo://app?vid=ac287b60-9a66-447a-9257-5a0b63c4d473","ios":"levelo://app?vid=ac287b60-9a66-447a-9257-5a0b63c4d473"},"vehicle_type_id":"4","last_reported":1761563404,"current_range_meters":10000,"station_id":"ce4bhbh2rcd13ifvqepg","pricing_plan_id":"cebpf4jnsgd1na2vs0mg"},{"bike_id":"6b72c8e1-fe87-4635-90aa-72f1e663fb65","system_id":"levelo_inurba_marseille","lat":43.27374,"lon":5.36256,"is_reserved":false,"is_disabled":false,"rental_uris":{"android":"levelo://app?vid=6b72c8e1-fe87-4635-90aa-72f1e663fb65","ios":"levelo://app?vid=6b72c8e1-fe87-4635-90aa-72f1e663fb65"},"vehicle_type_id":"4","last_reported":1761563404,"current_range_meters":10000,"station_id":"ce4bhbh2rcd13ifvqeo0","pricing_plan_id":"cebpf4jnsgd1na2vs0mg"},{"bike_id":"29f9f416-4811-4863-a643-fe6253206a79","system_id":"levelo_inurba_marseille","lat":43.31531,"lon":5.38027,"is_reserved":false,"is_disabled":false,"rental_uris":{"android":"levelo://app?vid=29f9f416-4811-4863-a643-fe6253206a79","ios":"levelo://app?vid=29f9f416-4811-4863-a643-fe6253206a79"},"vehicle_type_id":"4","last_reported":1761563404,"current_range_meters":10000,"station_id":"ce4bhsp2rcd13ifvqi50","pricing_plan_id":"cebpf4jnsgd1na2vs0mg"},{"bike_id":"08b89487-7647-4a54-9c05-2a9b71119650","system_id":"levelo_inurba_marseille","lat":43.3248,"lon":5.36595,"is_reserved":false,"is_disabled":false,"rental_uris":{"android":"levelo://app?vid=08b89487-7647-4a54-9c05-2a9b71119650","ios":"levelo://app?vid=08b89487-7647-4a54-9c05-2a9b71119650"},"vehicle_type_id":"4","last_reported":1761563404,"current_range_meters":10800,"station_id":"ce4bhs12rcd13ifvqhvg","pricing_plan_id":"cebpf4jnsgd1na2vs0mg"},{"bike_id":"06e0b583-56e3-4369-a385-12661632fe0f","system_id":"levelo_inurba_marseille","lat":43.251083,"lon":5.403258,"is_reserved":false,"is_disabled":false,"rental_uris":{"android":"levelo://app?vid=06e0b583-56e3-4369-a385-12661632fe0f","ios":"levelo://app?vid=06e0b583-56e3-4369-a385-12661632fe0f"},"vehicle_type_id":"4","last_reported":1761563404,"current_range_meters":10800,"station_id":"ce4bhlh2rcd13ifvqgig","pricing_plan_id":"cebpf4jnsgd1na2vs0mg"},{"bike_id":"6874060c-b03e-4d5e-95fe-78f50e66c087","system_id":"levelo_inurba_marseille","lat":43.27964,"lon":5.38744,"is_reserved":false,"is_disabled":false,"rental_uris":{"android":"levelo://app?vid=6874060c-b03e-4d5e-95fe-78f50e66c087","ios":"levelo://app?vid=6874060c-b03e-4d5e-95fe-78f50e66c087"},"vehicle_type_id":"4","last_reported":1761563404,"current_range_meters":10800,"station_id":"ce4bhg12rcd13ifvqf80","pricing_plan_id":"cebpf4jnsgd1na2vs0mg"},{"bike_id":"e6abf807-8c00-446a-9735-80e3339903a1","system_id":"levelo_inurba_marseille","lat":43.293696,"lon":5.378318,"is_reserved":false,"is_disabled":false,"rental_uris":{"android":"levelo://app?vid=e6abf807-8c00-446a-9735-80e3339903a1","ios":"levelo://app?vid=e6abf807-8c00-446a-9735-80e3339903a1"},"vehicle_type_id":"4","last_reported":1761563404,"current_range_meters":10800,"station_id":"ce4bgjh2rcd13ifvqbf0","pricing_plan_id":"cebpf4jnsgd1na2vs0mg"},{"bike_id":"d9bb607d-1ecc-49cc-9f82-e52383a3bc84","system_id":"levelo_inurba_marseille","lat":43.293177,"lon":5.411579,"is_reserved":false,"is_disabled":false,"rental_uris":{"android":"levelo://app?vid=d9bb607d-1ecc-49cc-9f82-e52383a3bc84","ios":"levelo://app?vid=d9bb607d-1ecc-49cc-9f82-e52383a3bc84"},"vehicle_type_id":"4","last_reported":1761563404,"current_range_meters":11200,"station_id":"","pricing_plan_id":"cebpf4jnsgd1na2vs0mg"},{"bike_id":"508c8438-dc7e-4416-b19a-2c0f418f5626","system_id":"levelo_inurba_marseille","lat":43.30214,"lon":5.39471,"is_reserved":false,"is_disabled":false,"rental_uris":{"android":"levelo://app?vid=508c8438-dc7e-4416-b19a-2c0f418f5626","ios":"levelo://app?vid=508c8438-dc7e-4416-b19a-2c0f418f5626"},"vehicle_type_id":"4","last_reported":1761563404,"current_range_meters":11200,"station_id":"ce4bh0p2rcd13ifvqd70","pricing_plan_id":"cebpf4jnsgd1na2vs0mg"},{"bike_id":"b021df2f-fd27-4beb-85b8-ce1742af0adf","system_id":"levelo_inurba_marseille","lat":43.23147,"lon":5.43699,"is_reserved":false,"is_disabled":false,"rental_uris":{"android":"levelo://app?vid=b021df2f-fd27-4beb-85b8-ce1742af0adf","ios":"levelo://app?vid=b021df2f-fd27-4beb-85b8-ce1742af0adf"},"vehicle_type_id":"4","last_reported":1761563404,"current_range_meters":11200,"station_id":"ce4bhmp2rcd13ifvqgog","pricing_plan_id":"cebpf4jnsgd1na2vs0mg"},{"bike_id":"81a1b6fb-1f88-4713-82cd-8758a38cffd9","system_id":"levelo_inurba_marseille","lat":43.212092,"lon":5.350695,"is_reserved":false,"is_disabled":false,"rental_uris":{"android":"levelo://app?vid=81a1b6fb-1f88-4713-82cd-8758a38cffd9","ios":"levelo://app?vid=81a1b6fb-1f88-4713-82cd-8758a38cffd9"},"vehicle_type_id":"4","last_reported":1761563404,"current_range_meters":11200,"station_id":"","pricing_plan_id":"cebpf4jnsgd1na2vs0mg"},{"bike_id":"3c3e6e53-ae07-4fe4-8ae9-2af490932076","system_id":"levelo_inurba_marseille","lat":43.30423,"lon":5.388836,"is_reserved":false,"is_disabled":false,"rental_uris":{"android":"levelo://app?vid=3c3e6e53-ae07-4fe4-8ae9-2af490932076","ios":"levelo://app?vid=3c3e6e53-ae07-4fe4-8ae9-2af490932076"},"vehicle_type_id":"4","last_reported":1761563404,"current_range_meters":11600,"station_id":"ce4bgk12rcd13ifvqbi0","pricing_plan_id":"cebpf4jnsgd1na2vs0mg"},{"bike_id":"7348219f-62a2-4f61-9dc3-4c6ae6e126f0","system_id":"levelo_inurba_marseille","lat":43.33731,"lon":5.37447,"is_reserved":false,"is_disabled":false,"rental_uris":{"android":"levelo://app?vid=7348219f-62a2-4f61-9dc3-4c6ae6e126f0","ios":"levelo://app?vid=7348219f-62a2-4f61-9dc3-4c6ae6e126f0"},"vehicle_type_id":"4","last_reported":1761563404,"current_range_meters":11600,"station_id":"","pricing_plan_id":"cebpf4jnsgd1na2vs0mg"},{"bike_id":"376f37db-9367-433a-9ac4-7f57991dd845","system_id":"levelo_inurba_marseille","lat":43.32108,"lon":5.36776,"is_reserved":false,"is_disabled":false,"rental_uris":{"android":"levelo://app?vid=376f37db-9367-433a-9ac4-7f57991dd845","ios":"levelo://app?vid=376f37db-9367-433a-9ac4-7f57991dd845"},"vehicle_type_id":"4","last_reported":1761563404,"current_range_meters":11600,"station_id":"ce4bhrh2rcd13ifvqhug","pricing_plan_id":"cebpf4jnsgd1na2vs0mg"},{"bike_id":"399633de-eaa1-422a-b740-1ad2fe095c5d","system_id":"levelo_inurba_marseille","lat":43.298,"lon":5.38077,"is_reserved":false,"is_disabled":false,"rental_uris":{"android":"levelo://app?vid=399633de-eaa1-422a-b740-1ad2fe095c5d","ios":"levelo://app?vid=399633de-eaa1-422a-b740-1ad2fe095c5d"},"vehicle_type_id":"4","last_reported":1761563404,"current_range_meters":11600,"station_id":"ce4bgip2rcd13ifvqbb0","pricing_plan_id":"cebpf4jnsgd1na2vs0mg"},{"bike_id":"e1e52986-b4be-48cf-8d1b-469bd3ba3bac","system_id":"levelo_inurba_marseille","lat":43.26511,"lon":5.39566,"is_reserved":false,"is_disabled":false,"rental_uris":{"android":"levelo://app?vid=e1e52986-b4be-48cf-8d1b-469bd3ba3bac","ios":"levelo://app?vid=e1e52986-b4be-48cf-8d1b-469bd3ba3bac"},"vehicle_type_id":"4","last_reported":1761563404,"current_range_meters":11600,"station_id":"ce4bhi12rcd13ifvqfq0","pricing_plan_id":"cebpf4jnsgd1na2vs0mg"},{"bike_id":"985cf2a5-6560-4622-9131-59ec4174ede8","system_id":"levelo_inurba_marseille","lat":43.29576,"lon":5.36739,"is_reserved":false,"is_disabled":false,"rental_uris":{"android":"levelo://app?vid=985cf2a5-6560-4622-9131-59ec4174ede8","ios":"levelo://app?vid=985cf2a5-6560-4622-9131-59ec4174ede8"},"vehicle_type_id":"4","last_reported":1761563404,"current_range_meters":11600,"station_id":"ce4bgph2rcd13ifvqc2g","pricing_plan_id":"cebpf4jnsgd1na2vs0mg"},{"bike_id":"50de7a3f-3b9a-4bf0-8140-5f942a00b83c","system_id":"levelo_inurba_marseille","lat":43.3117,"lon":5.38715,"is_reserved":false,"is_disabled":false,"rental_uris":{"android":"levelo://app?vid=50de7a3f-3b9a-4bf0-8140-5f942a00b83c","ios":"levelo://app?vid=50de7a3f-3b9a-4bf0-8140-5f942a00b83c"},"vehicle_type_id":"4","last_reported":1761563404,"current_range_meters":11600,"station_id":"ce4bgv12rcd13ifvqcp0","pricing_plan_id":"cebpf4jnsgd1na2vs0mg"},{"bike_id":"ce15d64c-7bd4-4017-a01a-0dc353c2995b","system_id":"levelo_inurba_marseille","lat":43.281299,"lon":5.350252,"is_reserved":false,"is_disabled":false,"rental_uris":{"android":"levelo://app?vid=ce15d64c-7bd4-4017-a01a-0dc353c2995b","ios":"levelo://app?vid=ce15d64c-7bd4-4017-a01a-0dc353c2995b"},"vehicle_type_id":"4","last_reported":1761563404,"current_range_meters":11600,"station_id":"","pricing_plan_id":"cebpf4jnsgd1na2vs0mg"},{"bike_id":"610eea1f-f079-48f2-94f5-adebecc11543","system_id":"levelo_inurba_marseille","lat":43.3006,"lon":5.38625,"is_reserved":false,"is_disabled":false,"rental_uris":{"android":"levelo://app?vid=610eea1f-f079-48f2-94f5-adebecc11543","ios":"levelo://app?vid=610eea1f-f079-48f2-94f5-adebecc11543"},"vehicle_type_id":"4","last_reported":1761563404,"current_range_meters":12000,"station_id":"","pricing_plan_id":"cebpf4jnsgd1na2vs0mg"},{"bike_id":"2d81c006-1fd2-4272-a05a-8c5795aa776d","system_id":"levelo_inurba_marseille","lat":43.28702,"lon":5.37383,"is_reserved":false,"is_disabled":false,"rental_uris":{"android":"levelo://app?vid=2d81c006-1fd2-4272-a05a-8c5795aa776d","ios":"levelo://app?vid=2d81c006-1fd2-4272-a05a-8c5795aa776d"},"vehicle_type_id":"4","last_reported":1761563404,"current_range_meters":12400,"station_id":"ce4bh3p2rcd13ifvqdq0","pricing_plan_id":"cebpf4jnsgd1na2vs0mg"},{"bike_id":"9257d08c-8829-4b03-a26b-db35ab9def75","system_id":"levelo_inurba_marseille","lat":43.24998,"lon":5.38944,"is_reserved":false,"is_disabled":false,"rental_uris":{"android":"levelo://app?vid=9257d08c-8829-4b03-a26b-db35ab9def75","ios":"levelo://app?vid=9257d08c-8829-4b03-a26b-db35ab9def75"},"vehicle_type_id":"4","last_reported":1761563404,"current_range_meters":12800,"station_id":"ce4bhgp2rcd13ifvqfd0","pricing_plan_id":"cebpf4jnsgd1na2vs0mg"},{"bike_id":"3f6c6431-76b3-4a82-b8f3-459522b4f5a4","system_id":"levelo_inurba_marseille","lat":43.2998,"lon":5.37178,"is_reserved":false,"is_disabled":false,"rental_uris":{"android":"levelo://app?vid=3f6c6431-76b3-4a82-b8f3-459522b4f5a4","ios":"levelo://app?vid=3f6c6431-76b3-4a82-b8f3-459522b4f5a4"},"vehicle_type_id":"4","last_reported":1761563404,"current_range_meters":12800,"station_id":"ce4bgr92rcd13ifvqc7g","pricing_plan_id":"cebpf4jnsgd1na2vs0mg"},{"bike_id":"8ce4acf9-3cce-4a2c-80a0-2e9ba0bb1c6c","system_id":"levelo_inurba_marseille","lat":43.24183,"lon":5.39727,"is_reserved":false,"is_disabled":false,"rental_uris":{"android":"levelo://app?vid=8ce4acf9-3cce-4a2c-80a0-2e9ba0bb1c6c","ios":"levelo://app?vid=8ce4acf9-3cce-4a2c-80a0-2e9ba0bb1c6c"},"vehicle_type_id":"4","last_reported":1761563404,"current_range_meters":13600,"station_id":"ce4bhn12rcd13ifvqgpg","pricing_plan_id":"cebpf4jnsgd1na2vs0mg"},{"bike_id":"f6f41915-49e3-4fb8-8c5c-96d42e084e15","system_id":"levelo_inurba_marseille","lat":43.3204,"lon":5.37085,"is_reserved":false,"is_disabled":false,"rental_uris":{"android":"levelo://app?vid=f6f41915-49e3-4fb8-8c5c-96d42e084e15","ios":"levelo://app?vid=f6f41915-49e3-4fb8-8c5c-96d42e084e15"},"vehicle_type_id":"4","last_reported":1761563404,"current_range_meters":13600,"station_id":"","pricing_plan_id":"cebpf4jnsgd1na2vs0mg"},{"bike_id":"7cd06c8e-20e0-4a7b-bdd0-d1a902d0086a","system_id":"levelo_inurba_marseille","lat":43.262257,"lon":5.404557,"is_reserved":false,"is_disabled":false,"rental_uris":{"android":"levelo://app?vid=7cd06c8e-20e0-4a7b-bdd0-d1a902d0086a","ios":"levelo://app?vid=7cd06c8e-20e0-4a7b-bdd0-d1a902d0086a"},"vehicle_type_id":"4","last_reported":1761563404,"current_range_meters":13600,"station_id":"ce4bhmh2rcd13ifvqgmg","pricing_plan_id":"cebpf4jnsgd1na2vs0mg"},{"bike_id":"71fe0d6a-f99e-45a0-9c75-e294b78524b2","system_id":"levelo_inurba_marseille","lat":43.21197,"lon":5.35064,"is_reserved":false,"is_disabled":false,"rental_uris":{"android":"levelo://app?vid=71fe0d6a-f99e-45a0-9c75-e294b78524b2","ios":"levelo://app?vid=71fe0d6a-f99e-45a0-9c75-e294b78524b2"},"vehicle_type_id":"4","last_reported":1761563404,"current_range_meters":14000,"station_id":"st_cvj6sg6p6f1abm77japg","pricing_plan_id":"cebpf4jnsgd1na2vs0mg"},{"bike_id":"83106217-f024-4381-9607-50194d3370ce","system_id":"levelo_inurba_marseille","lat":43.24137,"lon":5.36387,"is_reserved":false,"is_disabled":false,"rental_uris":{"android":"levelo://app?vid=83106217-f024-4381-9607-50194d3370ce","ios":"levelo://app?vid=83106217-f024-4381-9607-50194d3370ce"},"vehicle_type_id":"4","last_reported":1761563404,"current_range_meters":14000,"station_id":"cpo36qri1sfpv3e86is0","pricing_plan_id":"cebpf4jnsgd1na2vs0mg"},{"bike_id":"d23bf304-8579-4071-b2a4-61dc68f83575","system_id":"levelo_inurba_marseille","lat":43.21194,"lon":5.35074,"is_reserved":false,"is_disabled":false,"rental_uris":{"android":"levelo://app?vid=d23bf304-8579-4071-b2a4-61dc68f83575","ios":"levelo://app?vid=d23bf304-8579-4071-b2a4-61dc68f83575"},"vehicle_type_id":"4","last_reported":1761563404,"current_range_meters":14000,"station_id":"st_cvj6sg6p6f1abm77japg","pricing_plan_id":"cebpf4jnsgd1na2vs0mg"},{"bike_id":"bffeb00f-b3a2-490c-bdf1-90b7d30a1af7","system_id":"levelo_inurba_marseille","lat":43.29107,"lon":5.38162,"is_reserved":false,"is_disabled":false,"rental_uris":{"android":"levelo://app?vid=bffeb00f-b3a2-490c-bdf1-90b7d30a1af7","ios":"levelo://app?vid=bffeb00f-b3a2-490c-bdf1-90b7d30a1af7"},"vehicle_type_id":"4","last_reported":1761563404,"current_range_meters":14000,"station_id":"ce4bh512rcd13ifvqe2g","pricing_plan_id":"cebpf4jnsgd1na2vs0mg"},{"bike_id":"02dd205b-e97c-4104-9683-066d2523fd3f","system_id":"levelo_inurba_marseille","lat":43.21197,"lon":5.35078,"is_reserved":false,"is_disabled":false,"rental_uris":{"android":"levelo://app?vid=02dd205b-e97c-4104-9683-066d2523fd3f","ios":"levelo://app?vid=02dd205b-e97c-4104-9683-066d2523fd3f"},"vehicle_type_id":"4","last_reported":1761563404,"current_range_meters":14000,"station_id":"st_cvj6sg6p6f1abm77japg","pricing_plan_id":"cebpf4jnsgd1na2vs0mg"},{"bike_id":"b83891d3-7971-45ae-9af3-651a6e6209e2","system_id":"levelo_inurba_marseille","lat":43.23193,"lon":5.35544,"is_reserved":false,"is_disabled":false,"rental_uris":{"android":"levelo://app?vid=b83891d3-7971-45ae-9af3-651a6e6209e2","ios":"levelo://app?vid=b83891d3-7971-45ae-9af3-651a6e6209e2"},"vehicle_type_id":"4","last_reported":1761563404,"current_range_meters":14400,"station_id":"ce4bhu92rcd13ifvqi70","pricing_plan_id":"cebpf4jnsgd1na2vs0mg"},{"bike_id":"36dae71f-ce97-4300-afd0-d3737980e549","system_id":"levelo_inurba_marseille","lat":43.30901,"lon":5.40197,"is_reserved":false,"is_disabled":false,"rental_uris":{"android":"levelo://app?vid=36dae71f-ce97-4300-afd0-d3737980e549","ios":"levelo://app?vid=36dae71f-ce97-4300-afd0-d3737980e549"},"vehicle_type_id":"4","last_reported":1761563404,"current_range_meters":14400,"station_id":"","pricing_plan_id":"cebpf4jnsgd1na2vs0mg"},{"bike_id":"9d809314-4d51-474c-a833-be8d97774ed7","system_id":"levelo_inurba_marseille","lat":43.29007,"lon":5.38132,"is_reserved":false,"is_disabled":false,"rental_uris":{"android":"levelo://app?vid=9d809314-4d51-474c-a833-be8d97774ed7","ios":"levelo://app?vid=9d809314-4d51-474c-a833-be8d97774ed7"},"vehicle_type_id":"4","last_reported":1761563404,"current_range_meters":14400,"station_id":"ce4bh4p2rcd13ifvqe1g","pricing_plan_id":"cebpf4jnsgd1na2vs0mg"},{"bike_id":"99604b58-d182-4334-99ee-a0cd33dddfef","system_id":"levelo_inurba_marseille","lat":43.29507,"lon":5.38491,"is_reserved":false,"is_disabled":false,"rental_uris":{"android":"levelo://app?vid=99604b58-d182-4334-99ee-a0cd33dddfef","ios":"levelo://app?vid=99604b58-d182-4334-99ee-a0cd33dddfef"},"vehicle_type_id":"4","last_reported":1761563404,"current_range_meters":14400,"station_id":"","pricing_plan_id":"cebpf4jnsgd1na2vs0mg"},{"bike_id":"bbbf3dbb-fbe2-4b7e-bfad-c027ca4e1c25","system_id":"levelo_inurba_marseille","lat":43.28488,"lon":5.4839,"is_reserved":false,"is_disabled":false,"rental_uris":{"android":"levelo://app?vid=bbbf3dbb-fbe2-4b7e-bfad-c027ca4e1c25","ios":"levelo://app?vid=bbbf3dbb-fbe2-4b7e-bfad-c027ca4e1c25"},"vehicle_type_id":"4","last_reported":1761563404,"current_range_meters":14800,"station_id":"st_d3svhcjqgbts73a3dn0g","pricing_plan_id":"cebpf4jnsgd1na2vs0mg"},{"bike_id":"271da916-783e-464e-93b7-6b000893aeba","system_id":"levelo_inurba_marseille","lat":43.32051,"lon":5.4154,"is_reserved":false,"is_disabled":false,"rental_uris":{"android":"levelo://app?vid=271da916-783e-464e-93b7-6b000893aeba","ios":"levelo://app?vid=271da916-783e-464e-93b7-6b000893aeba"},"vehicle_type_id":"4","last_reported":1761563404,"current_range_meters":14800,"station_id":"ce4bhq92rcd13ifvqhkg","pricing_plan_id":"cebpf4jnsgd1na2vs0mg"},{"bike_id":"e92a5181-3093-4535-adde-2230374de0aa","system_id":"levelo_inurba_marseille","lat":43.31316,"lon":5.377,"is_reserved":false,"is_disabled":false,"rental_uris":{"android":"levelo://app?vid=e92a5181-3093-4535-adde-2230374de0aa","ios":"levelo://app?vid=e92a5181-3093-4535-adde-2230374de0aa"},"vehicle_type_id":"4","last_reported":1761563404,"current_range_meters":14800,"station_id":"","pricing_plan_id":"cebpf4jnsgd1na2vs0mg"},{"bike_id":"1b7829fd-c993-41fc-94f6-0cddf3da8a25","system_id":"levelo_inurba_marseille","lat":43.24808,"lon":5.374644,"is_reserved":false,"is_disabled":false,"rental_uris":{"android":"levelo://app?vid=1b7829fd-c993-41fc-94f6-0cddf3da8a25","ios":"levelo://app?vid=1b7829fd-c993-41fc-94f6-0cddf3da8a25"},"vehicle_type_id":"4","last_reported":1761563404,"current_range_meters":14800,"station_id":"ce4bhgh2rcd13ifvqfb0","pricing_plan_id":"cebpf4jnsgd1na2vs0mg"},{"bike_id":"1880ebb9-7edb-463e-976b-226e958b9ebe","system_id":"levelo_inurba_marseille","lat":43.31097,"lon":5.37487,"is_reserved":false,"is_disabled":false,"rental_uris":{"android":"levelo://app?vid=1880ebb9-7edb-463e-976b-226e958b9ebe","ios":"levelo://app?vid=1880ebb9-7edb-463e-976b-226e958b9ebe"},"vehicle_type_id":"4","last_reported":1761563404,"current_range_meters":15200,"station_id":"ce4bgt12rcd13ifvqce0","pricing_plan_id":"cebpf4jnsgd1na2vs0mg"},{"bike_id":"93ef566c-0909-48d1-8deb-d11c9c5aea5b","system_id":"levelo_inurba_marseille","lat":43.32358,"lon":5.36745,"is_reserved":false,"is_disabled":false,"rental_uris":{"android":"levelo://app?vid=93ef566c-0909-48d1-8deb-d11c9c5aea5b","ios":"levelo://app?vid=93ef566c-0909-48d1-8deb-d11c9c5aea5b"},"vehicle_type_id":"4","last_reported":1761563404,"current_range_meters":15200,"station_id":"ce4bhsh2rcd13ifvqi2g","pricing_plan_id":"cebpf4jnsgd1na2vs0mg"},{"bike_id":"27e624cb-064c-4d87-8b98-5d613fc327dd","system_id":"levelo_inurba_marseille","lat":43.31343,"lon":5.36702,"is_reserved":false,"is_disabled":false,"rental_uris":{"android":"levelo://app?vid=27e624cb-064c-4d87-8b98-5d613fc327dd","ios":"levelo://app?vid=27e624cb-064c-4d87-8b98-5d613fc327dd"},"vehicle_type_id":"4","last_reported":1761563404,"current_range_meters":15200,"station_id":"ce4bgr92rcd13ifvqc6g","pricing_plan_id":"cebpf4jnsgd1na2vs0mg"},{"bike_id":"30ea1a6a-6cfd-46f9-9198-834c4f607595","system_id":"levelo_inurba_marseille","lat":43.32534,"lon":5.41426,"is_reserved":false,"is_disabled":false,"rental_uris":{"android":"levelo://app?vid=30ea1a6a-6cfd-46f9-9198-834c4f607595","ios":"levelo://app?vid=30ea1a6a-6cfd-46f9-9198-834c4f607595"},"vehicle_type_id":"4","last_reported":1761563404,"current_range_meters":15200,"station_id":"ce4bhq12rcd13ifvqhhg","pricing_plan_id":"cebpf4jnsgd1na2vs0mg"},{"bike_id":"fdc43030-5704-454e-ad42-cd94061c06a1","system_id":"levelo_inurba_marseille","lat":43.321009,"lon":5.367741,"is_reserved":false,"is_disabled":false,"rental_uris":{"android":"levelo://app?vid=fdc43030-5704-454e-ad42-cd94061c06a1","ios":"levelo://app?vid=fdc43030-5704-454e-ad42-cd94061c06a1"},"vehicle_type_id":"4","last_reported":1761563404,"current_range_meters":15200,"station_id":"ce4bhrh2rcd13ifvqhug","pricing_plan_id":"cebpf4jnsgd1na2vs0mg"},{"bike_id":"2319520a-fc10-4ea5-a5ca-d3a4702f6c7b","system_id":"levelo_inurba_marseille","lat":43.29899,"lon":5.43674,"is_reserved":false,"is_disabled":true,"rental_uris":{"android":"levelo://app?vid=2319520a-fc10-4ea5-a5ca-d3a4702f6c7b","ios":"levelo://app?vid=2319520a-fc10-4ea5-a5ca-d3a4702f6c7b"},"vehicle_type_id":"4","last_reported":1761563404,"current_range_meters":16000,"station_id":"ce4bhpp2rcd13ifvqhfg","pricing_plan_id":"cebpf4jnsgd1na2vs0mg"},{"bike_id":"a41981bd-a928-4902-9568-a616a6fe5616","system_id":"levelo_inurba_marseille","lat":43.3148,"lon":5.37322,"is_reserved":false,"is_disabled":false,"rental_uris":{"android":"levelo://app?vid=a41981bd-a928-4902-9568-a616a6fe5616","ios":"levelo://app?vid=a41981bd-a928-4902-9568-a616a6fe5616"},"vehicle_type_id":"4","last_reported":1761563404,"current_range_meters":16000,"station_id":"ce4bgt12rcd13ifvqcd0","pricing_plan_id":"cebpf4jnsgd1na2vs0mg"},{"bike_id":"9d8ebc8c-f00c-42c5-a2de-7f9b8c36d074","system_id":"levelo_inurba_marseille","lat":43.26684,"lon":5.38271,"is_reserved":false,"is_disabled":false,"rental_uris":{"android":"levelo://app?vid=9d8ebc8c-f00c-42c5-a2de-7f9b8c36d074","ios":"levelo://app?vid=9d8ebc8c-f00c-42c5-a2de-7f9b8c36d074"},"vehicle_type_id":"4","last_reported":1761563404,"current_range_meters":16000,"station_id":"ce4bhg92rcd13ifvqf90","pricing_plan_id":"cebpf4jnsgd1na2vs0mg"},{"bike_id":"ee00fa64-a92f-4fda-bb40-f51fb03baad1","system_id":"levelo_inurba_marseille","lat":43.3117,"lon":5.38708,"is_reserved":false,"is_disabled":false,"rental_uris":{"android":"levelo://app?vid=ee00fa64-a92f-4fda-bb40-f51fb03baad1","ios":"levelo://app?vid=ee00fa64-a92f-4fda-bb40-f51fb03baad1"},"vehicle_type_id":"4","last_reported":1761563404,"current_range_meters":16400,"station_id":"ce4bgv12rcd13ifvqcp0","pricing_plan_id":"cebpf4jnsgd1na2vs0mg"},{"bike_id":"58d54a94-11ca-496d-b749-be7839fd4ed9","system_id":"levelo_inurba_marseille","lat":43.2603,"lon":5.37543,"is_reserved":false,"is_disabled":false,"rental_uris":{"android":"levelo://app?vid=58d54a94-11ca-496d-b749-be7839fd4ed9","ios":"levelo://app?vid=58d54a94-11ca-496d-b749-be7839fd4ed9"},"vehicle_type_id":"4","last_reported":1761563404,"current_range_meters":16400,"station_id":"ce4bhgh2rcd13ifvqfa0","pricing_plan_id":"cebpf4jnsgd1na2vs0mg"},{"bike_id":"a3742816-3b43-434e-9db0-9ab9379fa4b3","system_id":"levelo_inurba_marseille","lat":43.27384,"lon":5.36261,"is_reserved":false,"is_disabled":true,"rental_uris":{"android":"levelo://app?vid=a3742816-3b43-434e-9db0-9ab9379fa4b3","ios":"levelo://app?vid=a3742816-3b43-434e-9db0-9ab9379fa4b3"},"vehicle_type_id":"4","last_reported":1761563404,"current_range_meters":16400,"station_id":"ce4bhbh2rcd13ifvqeo0","pricing_plan_id":"cebpf4jnsgd1na2vs0mg"},{"bike_id":"a507e789-f440-40a8-85cf-09841d81676c","system_id":"levelo_inurba_marseille","lat":43.22564,"lon":5.34827,"is_reserved":false,"is_disabled":false,"rental_uris":{"android":"levelo://app?vid=a507e789-f440-40a8-85cf-09841d81676c","ios":"levelo://app?vid=a507e789-f440-40a8-85cf-09841d81676c"},"vehicle_type_id":"4","last_reported":1761563404,"current_range_meters":16400,"station_id":"","pricing_plan_id":"cebpf4jnsgd1na2vs0mg"},{"bike_id":"596e07e5-ee28-4f19-90c1-99ddc246077a","system_id":"levelo_inurba_marseille","lat":43.297562,"lon":5.427798,"is_reserved":false,"is_disabled":false,"rental_uris":{"android":"levelo://app?vid=596e07e5-ee28-4f19-90c1-99ddc246077a","ios":"levelo://app?vid=596e07e5-ee28-4f19-90c1-99ddc246077a"},"vehicle_type_id":"4","last_reported":1761563404,"current_range_meters":16400,"station_id":"st_d3md5207bmas73dh9klg","pricing_plan_id":"cebpf4jnsgd1na2vs0mg"},{"bike_id":"a3100ff0-76ab-498b-bebf-b9c52f3d2538","system_id":"levelo_inurba_marseille","lat":43.28475,"lon":5.48402,"is_reserved":false,"is_disabled":false,"rental_uris":{"android":"levelo://app?vid=a3100ff0-76ab-498b-bebf-b9c52f3d2538","ios":"levelo://app?vid=a3100ff0-76ab-498b-bebf-b9c52f3d2538"},"vehicle_type_id":"4","last_reported":1761563404,"current_range_meters":16400,"station_id":"","pricing_plan_id":"cebpf4jnsgd1na2vs0mg"},{"bike_id":"04f05742-34e4-4285-9012-d64d097608c7","system_id":"levelo_inurba_marseille","lat":43.25862,"lon":5.39917,"is_reserved":false,"is_disabled":false,"rental_uris":{"android":"levelo://app?vid=04f05742-34e4-4285-9012-d64d097608c7","ios":"levelo://app?vid=04f05742-34e4-4285-9012-d64d097608c7"},"vehicle_type_id":"4","last_reported":1761563404,"current_range_meters":16400,"station_id":"ce4bhl92rcd13ifvqghg","pricing_plan_id":"cebpf4jnsgd1na2vs0mg"},{"bike_id":"f41a6845-02a5-45fd-8f67-03fd68d78092","system_id":"levelo_inurba_marseille","lat":43.29742,"lon":5.42793,"is_reserved":false,"is_disabled":false,"rental_uris":{"android":"levelo://app?vid=f41a6845-02a5-45fd-8f67-03fd68d78092","ios":"levelo://app?vid=f41a6845-02a5-45fd-8f67-03fd68d78092"},"vehicle_type_id":"4","last_reported":1761563404,"current_range_meters":16400,"station_id":"st_d3md5207bmas73dh9klg","pricing_plan_id":"cebpf4jnsgd1na2vs0mg"},{"bike_id":"6372606c-145e-4f43-b440-ebbc93e9b343","system_id":"levelo_inurba_marseille","lat":43.32657,"lon":5.40995,"is_reserved":false,"is_disabled":false,"rental_uris":{"android":"levelo://app?vid=6372606c-145e-4f43-b440-ebbc93e9b343","ios":"levelo://app?vid=6372606c-145e-4f43-b440-ebbc93e9b343"},"vehicle_type_id":"4","last_reported":1761563404,"current_range_meters":16400,"station_id":"ce4bhpp2rcd13ifvqhgg","pricing_plan_id":"cebpf4jnsgd1na2vs0mg"},{"bike_id":"10fd37ff-b09a-4b81-9087-12e56ef032e6","system_id":"levelo_inurba_marseille","lat":43.23151,"lon":5.43707,"is_reserved":false,"is_disabled":false,"rental_uris":{"android":"levelo://app?vid=10fd37ff-b09a-4b81-9087-12e56ef032e6","ios":"levelo://app?vid=10fd37ff-b09a-4b81-9087-12e56ef032e6"},"vehicle_type_id":"4","last_reported":1761563404,"current_range_meters":16400,"station_id":"ce4bhmp2rcd13ifvqgog","pricing_plan_id":"cebpf4jnsgd1na2vs0mg"},{"bike_id":"f293915a-2317-4f29-8b60-22338cf5cb85","system_id":"levelo_inurba_marseille","lat":43.24073,"lon":5.37759,"is_reserved":false,"is_disabled":false,"rental_uris":{"android":"levelo://app?vid=f293915a-2317-4f29-8b60-22338cf5cb85","ios":"levelo://app?vid=f293915a-2317-4f29-8b60-22338cf5cb85"},"vehicle_type_id":"4","last_reported":1761563404,"current_range_meters":16400,"station_id":"ce4bhnp2rcd13ifvqgvg","pricing_plan_id":"cebpf4jnsgd1na2vs0mg"},{"bike_id":"5b9809d9-446b-489b-8de0-c686ebc94628","system_id":"levelo_inurba_marseille","lat":43.28722,"lon":5.36088,"is_reserved":false,"is_disabled":false,"rental_uris":{"android":"levelo://app?vid=5b9809d9-446b-489b-8de0-c686ebc94628","ios":"levelo://app?vid=5b9809d9-446b-489b-8de0-c686ebc94628"},"vehicle_type_id":"4","last_reported":1761563404,"current_range_meters":16800,"station_id":"cki0cbj6b192h4jlfktg","pricing_plan_id":"cebpf4jnsgd1na2vs0mg"},{"bike_id":"eea3c3c3-734f-4fd3-8061-ed84cfe47b38","system_id":"levelo_inurba_marseille","lat":43.32563,"lon":5.39134,"is_reserved":false,"is_disabled":false,"rental_uris":{"android":"levelo://app?vid=eea3c3c3-734f-4fd3-8061-ed84cfe47b38","ios":"levelo://app?vid=eea3c3c3-734f-4fd3-8061-ed84cfe47b38"},"vehicle_type_id":"4","last_reported":1761563404,"current_range_meters":16800,"station_id":"","pricing_plan_id":"cebpf4jnsgd1na2vs0mg"},{"bike_id":"2a667dcd-47ec-49a8-8204-3d19e70b3d65","system_id":"levelo_inurba_marseille","lat":43.30559,"lon":5.365514,"is_reserved":false,"is_disabled":false,"rental_uris":{"android":"levelo://app?vid=2a667dcd-47ec-49a8-8204-3d19e70b3d65","ios":"levelo://app?vid=2a667dcd-47ec-49a8-8204-3d19e70b3d65"},"vehicle_type_id":"4","last_reported":1761563404,"current_range_meters":16800,"station_id":"ce4bgs12rcd13ifvqcag","pricing_plan_id":"cebpf4jnsgd1na2vs0mg"},{"bike_id":"562aeba9-6f03-4a1d-97da-dbcfb74c9a4d","system_id":"levelo_inurba_marseille","lat":43.30552,"lon":5.36542,"is_reserved":false,"is_disabled":false,"rental_uris":{"android":"levelo://app?vid=562aeba9-6f03-4a1d-97da-dbcfb74c9a4d","ios":"levelo://app?vid=562aeba9-6f03-4a1d-97da-dbcfb74c9a4d"},"vehicle_type_id":"4","last_reported":1761563404,"current_range_meters":16800,"station_id":"ce4bgs12rcd13ifvqcag","pricing_plan_id":"cebpf4jnsgd1na2vs0mg"},{"bike_id":"21dbf7f2-eb19-4663-b1c0-879822879492","system_id":"levelo_inurba_marseille","lat":43.337643,"lon":5.374308,"is_reserved":false,"is_disabled":false,"rental_uris":{"android":"levelo://app?vid=21dbf7f2-eb19-4663-b1c0-879822879492","ios":"levelo://app?vid=21dbf7f2-eb19-4663-b1c0-879822879492"},"vehicle_type_id":"4","last_reported":1761563404,"current_range_meters":16800,"station_id":"","pricing_plan_id":"cebpf4jnsgd1na2vs0mg"},{"bike_id":"fc712d46-7cd5-44df-96cf-023c09b26bd0","system_id":"levelo_inurba_marseille","lat":43.31882,"lon":5.40729,"is_reserved":false,"is_disabled":false,"rental_uris":{"android":"levelo://app?vid=fc712d46-7cd5-44df-96cf-023c09b26bd0","ios":"levelo://app?vid=fc712d46-7cd5-44df-96cf-023c09b26bd0"},"vehicle_type_id":"4","last_reported":1761563404,"current_range_meters":16800,"station_id":"ce4bhq12rcd13ifvqhig","pricing_plan_id":"cebpf4jnsgd1na2vs0mg"},{"bike_id":"6a1d2475-9b76-4fee-b2c9-3a1f0ed26a05","system_id":"levelo_inurba_marseille","lat":43.24177,"lon":5.39729,"is_reserved":false,"is_disabled":false,"rental_uris":{"android":"levelo://app?vid=6a1d2475-9b76-4fee-b2c9-3a1f0ed26a05","ios":"levelo://app?vid=6a1d2475-9b76-4fee-b2c9-3a1f0ed26a05"},"vehicle_type_id":"4","last_reported":1761563404,"current_range_meters":17200,"station_id":"ce4bhn12rcd13ifvqgpg","pricing_plan_id":"cebpf4jnsgd1na2vs0mg"},{"bike_id":"ae370987-28fe-40f3-a635-81ed88e6b14e","system_id":"levelo_inurba_marseille","lat":43.337444,"lon":5.374475,"is_reserved":false,"is_disabled":false,"rental_uris":{"android":"levelo://app?vid=ae370987-28fe-40f3-a635-81ed88e6b14e","ios":"levelo://app?vid=ae370987-28fe-40f3-a635-81ed88e6b14e"},"vehicle_type_id":"4","last_reported":1761563404,"current_range_meters":17200,"station_id":"","pricing_plan_id":"cebpf4jnsgd1na2vs0mg"},{"bike_id":"b2819236-bc49-4dce-961d-00d63c22fd25","system_id":"levelo_inurba_marseille","lat":43.29036,"lon":5.38124,"is_reserved":false,"is_disabled":false,"rental_uris":{"android":"levelo://app?vid=b2819236-bc49-4dce-961d-00d63c22fd25","ios":"levelo://app?vid=b2819236-bc49-4dce-961d-00d63c22fd25"},"vehicle_type_id":"4","last_reported":1761563404,"current_range_meters":17200,"station_id":"ce4bh4p2rcd13ifvqe1g","pricing_plan_id":"cebpf4jnsgd1na2vs0mg"},{"bike_id":"0bbc239a-da27-4714-a802-1c546dd89778","system_id":"levelo_inurba_marseille","lat":43.23139,"lon":5.43692,"is_reserved":false,"is_disabled":false,"rental_uris":{"android":"levelo://app?vid=0bbc239a-da27-4714-a802-1c546dd89778","ios":"levelo://app?vid=0bbc239a-da27-4714-a802-1c546dd89778"},"vehicle_type_id":"4","last_reported":1761563404,"current_range_meters":17200,"station_id":"ce4bhmp2rcd13ifvqgog","pricing_plan_id":"cebpf4jnsgd1na2vs0mg"},{"bike_id":"1402c78f-c319-469c-bc77-486a72b788a1","system_id":"levelo_inurba_marseille","lat":43.28038,"lon":5.36946,"is_reserved":false,"is_disabled":false,"rental_uris":{"android":"levelo://app?vid=1402c78f-c319-469c-bc77-486a72b788a1","ios":"levelo://app?vid=1402c78f-c319-469c-bc77-486a72b788a1"},"vehicle_type_id":"4","last_reported":1761563404,"current_range_meters":17200,"station_id":"ce4bha12rcd13ifvqef0","pricing_plan_id":"cebpf4jnsgd1na2vs0mg"},{"bike_id":"6707e9ca-92a2-4e95-8654-3b145595537a","system_id":"levelo_inurba_marseille","lat":43.29841,"lon":5.36265,"is_reserved":false,"is_disabled":false,"rental_uris":{"android":"levelo://app?vid=6707e9ca-92a2-4e95-8654-3b145595537a","ios":"levelo://app?vid=6707e9ca-92a2-4e95-8654-3b145595537a"},"vehicle_type_id":"4","last_reported":1761563404,"current_range_meters":17200,"station_id":"ce4bgpp2rcd13ifvqc3g","pricing_plan_id":"cebpf4jnsgd1na2vs0mg"},{"bike_id":"ef71f27f-a727-473b-9cee-1dc46a90d2ac","system_id":"levelo_inurba_marseille","lat":43.284612,"lon":5.358906,"is_reserved":false,"is_disabled":false,"rental_uris":{"android":"levelo://app?vid=ef71f27f-a727-473b-9cee-1dc46a90d2ac","ios":"levelo://app?vid=ef71f27f-a727-473b-9cee-1dc46a90d2ac"},"vehicle_type_id":"4","last_reported":1761563404,"current_range_meters":17200,"station_id":"ce4bh012rcd13ifvqcv0","pricing_plan_id":"cebpf4jnsgd1na2vs0mg"},{"bike_id":"b689a5bf-875d-4ab1-9212-a71e85899faa","system_id":"levelo_inurba_marseille","lat":43.29753,"lon":5.42784,"is_reserved":false,"is_disabled":false,"rental_uris":{"android":"levelo://app?vid=b689a5bf-875d-4ab1-9212-a71e85899faa","ios":"levelo://app?vid=b689a5bf-875d-4ab1-9212-a71e85899faa"},"vehicle_type_id":"4","last_reported":1761563404,"current_range_meters":17600,"station_id":"st_d3md5207bmas73dh9klg","pricing_plan_id":"cebpf4jnsgd1na2vs0mg"},{"bike_id":"ab2e4a23-a9c6-497a-9bdc-0239a2e25863","system_id":"levelo_inurba_marseille","lat":43.2928,"lon":5.36848,"is_reserved":false,"is_disabled":false,"rental_uris":{"android":"levelo://app?vid=ab2e4a23-a9c6-497a-9bdc-0239a2e25863","ios":"levelo://app?vid=ab2e4a23-a9c6-497a-9bdc-0239a2e25863"},"vehicle_type_id":"4","last_reported":1761563404,"current_range_meters":17600,"station_id":"ce4bhbp2rcd13ifvqesg","pricing_plan_id":"cebpf4jnsgd1na2vs0mg"},{"bike_id":"e77f1956-d535-4a09-a24d-bcd7bdf095ea","system_id":"levelo_inurba_marseille","lat":43.31239,"lon":5.36845,"is_reserved":false,"is_disabled":false,"rental_uris":{"android":"levelo://app?vid=e77f1956-d535-4a09-a24d-bcd7bdf095ea","ios":"levelo://app?vid=e77f1956-d535-4a09-a24d-bcd7bdf095ea"},"vehicle_type_id":"4","last_reported":1761563404,"current_range_meters":17600,"station_id":"ce4bgl92rcd13ifvqbq0","pricing_plan_id":"cebpf4jnsgd1na2vs0mg"},{"bike_id":"6865232e-a588-47ef-9fb8-8d4bfd9bf3f5","system_id":"levelo_inurba_marseille","lat":43.23139,"lon":5.4371,"is_reserved":false,"is_disabled":false,"rental_uris":{"android":"levelo://app?vid=6865232e-a588-47ef-9fb8-8d4bfd9bf3f5","ios":"levelo://app?vid=6865232e-a588-47ef-9fb8-8d4bfd9bf3f5"},"vehicle_type_id":"4","last_reported":1761563404,"current_range_meters":17600,"station_id":"ce4bhmp2rcd13ifvqgog","pricing_plan_id":"cebpf4jnsgd1na2vs0mg"},{"bike_id":"68685cfb-0a0a-4822-b6cc-910397a0de67","system_id":"levelo_inurba_marseille","lat":43.27373,"lon":5.362608,"is_reserved":false,"is_disabled":false,"rental_uris":{"android":"levelo://app?vid=68685cfb-0a0a-4822-b6cc-910397a0de67","ios":"levelo://app?vid=68685cfb-0a0a-4822-b6cc-910397a0de67"},"vehicle_type_id":"4","last_reported":1761563404,"current_range_meters":17600,"station_id":"ce4bhbh2rcd13ifvqeo0","pricing_plan_id":"cebpf4jnsgd1na2vs0mg"},{"bike_id":"d5ca831f-8041-403e-ada8-7b4196c3d5be","system_id":"levelo_inurba_marseille","lat":43.293714,"lon":5.379385,"is_reserved":false,"is_disabled":false,"rental_uris":{"android":"levelo://app?vid=d5ca831f-8041-403e-ada8-7b4196c3d5be","ios":"levelo://app?vid=d5ca831f-8041-403e-ada8-7b4196c3d5be"},"vehicle_type_id":"4","last_reported":1761563404,"current_range_meters":17600,"station_id":"","pricing_plan_id":"cebpf4jnsgd1na2vs0mg"},{"bike_id":"eb0f1571-26c5-49ed-a883-df107a148f54","system_id":"levelo_inurba_marseille","lat":43.29571,"lon":5.39955,"is_reserved":false,"is_disabled":false,"rental_uris":{"android":"levelo://app?vid=eb0f1571-26c5-49ed-a883-df107a148f54","ios":"levelo://app?vid=eb0f1571-26c5-49ed-a883-df107a148f54"},"vehicle_type_id":"4","last_reported":1761563404,"current_range_meters":18000,"station_id":"ce4bh312rcd13ifvqdj0","pricing_plan_id":"cebpf4jnsgd1na2vs0mg"},{"bike_id":"d7b556e6-ac3d-4fe4-b136-c7cd05c756e3","system_id":"levelo_inurba_marseille","lat":43.21185,"lon":5.35063,"is_reserved":false,"is_disabled":false,"rental_uris":{"android":"levelo://app?vid=d7b556e6-ac3d-4fe4-b136-c7cd05c756e3","ios":"levelo://app?vid=d7b556e6-ac3d-4fe4-b136-c7cd05c756e3"},"vehicle_type_id":"4","last_reported":1761563404,"current_range_meters":18000,"station_id":"st_cvj6sg6p6f1abm77japg","pricing_plan_id":"cebpf4jnsgd1na2vs0mg"},{"bike_id":"0709da96-3569-4b3f-9bc8-3bb4680af42a","system_id":"levelo_inurba_marseille","lat":43.31521,"lon":5.37308,"is_reserved":false,"is_disabled":false,"rental_uris":{"android":"levelo://app?vid=0709da96-3569-4b3f-9bc8-3bb4680af42a","ios":"levelo://app?vid=0709da96-3569-4b3f-9bc8-3bb4680af42a"},"vehicle_type_id":"4","last_reported":1761563404,"current_range_meters":18000,"station_id":"ce4bgt12rcd13ifvqcd0","pricing_plan_id":"cebpf4jnsgd1na2vs0mg"},{"bike_id":"59fc1b01-a651-4707-bac1-be5af5c2681c","system_id":"levelo_inurba_marseille","lat":43.24075,"lon":5.37754,"is_reserved":false,"is_disabled":false,"rental_uris":{"android":"levelo://app?vid=59fc1b01-a651-4707-bac1-be5af5c2681c","ios":"levelo://app?vid=59fc1b01-a651-4707-bac1-be5af5c2681c"},"vehicle_type_id":"4","last_reported":1761563404,"current_range_meters":18000,"station_id":"ce4bhnp2rcd13ifvqgvg","pricing_plan_id":"cebpf4jnsgd1na2vs0mg"},{"bike_id":"f43866ad-5dc5-46f4-956d-32689b39a349","system_id":"levelo_inurba_marseille","lat":43.3027,"lon":5.37717,"is_reserved":false,"is_disabled":false,"rental_uris":{"android":"levelo://app?vid=f43866ad-5dc5-46f4-956d-32689b39a349","ios":"levelo://app?vid=f43866ad-5dc5-46f4-956d-32689b39a349"},"vehicle_type_id":"4","last_reported":1761563404,"current_range_meters":18000,"station_id":"ce4bguh2rcd13ifvqcj0","pricing_plan_id":"cebpf4jnsgd1na2vs0mg"},{"bike_id":"584373b2-7857-4514-ba1b-a8cbf8f807e7","system_id":"levelo_inurba_marseille","lat":43.29843,"lon":5.36267,"is_reserved":false,"is_disabled":false,"rental_uris":{"android":"levelo://app?vid=584373b2-7857-4514-ba1b-a8cbf8f807e7","ios":"levelo://app?vid=584373b2-7857-4514-ba1b-a8cbf8f807e7"},"vehicle_type_id":"4","last_reported":1761563404,"current_range_meters":18800,"station_id":"ce4bgpp2rcd13ifvqc3g","pricing_plan_id":"cebpf4jnsgd1na2vs0mg"},{"bike_id":"3d52c25e-3644-4e82-9db8-a6f05f8cda92","system_id":"levelo_inurba_marseille","lat":43.32112,"lon":5.36764,"is_reserved":false,"is_disabled":false,"rental_uris":{"android":"levelo://app?vid=3d52c25e-3644-4e82-9db8-a6f05f8cda92","ios":"levelo://app?vid=3d52c25e-3644-4e82-9db8-a6f05f8cda92"},"vehicle_type_id":"4","last_reported":1761563404,"current_range_meters":18800,"station_id":"ce4bhrh2rcd13ifvqhug","pricing_plan_id":"cebpf4jnsgd1na2vs0mg"},{"bike_id":"edf5f0fb-0959-44c0-b6b3-9db9d272d2c0","system_id":"levelo_inurba_marseille","lat":43.24169,"lon":5.39716,"is_reserved":false,"is_disabled":false,"rental_uris":{"android":"levelo://app?vid=edf5f0fb-0959-44c0-b6b3-9db9d272d2c0","ios":"levelo://app?vid=edf5f0fb-0959-44c0-b6b3-9db9d272d2c0"},"vehicle_type_id":"4","last_reported":1761563404,"current_range_meters":18800,"station_id":"ce4bhn12rcd13ifvqgpg","pricing_plan_id":"cebpf4jnsgd1na2vs0mg"},{"bike_id":"2484d73d-0ed9-4aeb-b08e-8d8cbd56d7f7","system_id":"levelo_inurba_marseille","lat":43.312379,"lon":5.368484,"is_reserved":false,"is_disabled":false,"rental_uris":{"android":"levelo://app?vid=2484d73d-0ed9-4aeb-b08e-8d8cbd56d7f7","ios":"levelo://app?vid=2484d73d-0ed9-4aeb-b08e-8d8cbd56d7f7"},"vehicle_type_id":"4","last_reported":1761563404,"current_range_meters":18800,"station_id":"ce4bgr92rcd13ifvqc6g","pricing_plan_id":"cebpf4jnsgd1na2vs0mg"},{"bike_id":"34c10aaa-7627-4124-af3d-822f6353dea1","system_id":"levelo_inurba_marseille","lat":43.30534,"lon":5.367,"is_reserved":false,"is_disabled":false,"rental_uris":{"android":"levelo://app?vid=34c10aaa-7627-4124-af3d-822f6353dea1","ios":"levelo://app?vid=34c10aaa-7627-4124-af3d-822f6353dea1"},"vehicle_type_id":"4","last_reported":1761563404,"current_range_meters":18800,"station_id":"ce4bgrp2rcd13ifvqc9g","pricing_plan_id":"cebpf4jnsgd1na2vs0mg"},{"bike_id":"a630ed88-3f05-4926-bbab-8387ab6b6a28","system_id":"levelo_inurba_marseille","lat":43.231545,"lon":5.436989,"is_reserved":false,"is_disabled":true,"rental_uris":{"android":"levelo://app?vid=a630ed88-3f05-4926-bbab-8387ab6b6a28","ios":"levelo://app?vid=a630ed88-3f05-4926-bbab-8387ab6b6a28"},"vehicle_type_id":"4","last_reported":1761563404,"current_range_meters":18800,"station_id":"ce4bhmp2rcd13ifvqgog","pricing_plan_id":"cebpf4jnsgd1na2vs0mg"},{"bike_id":"6259f55b-2b03-426c-926a-c8a432bd1482","system_id":"levelo_inurba_marseille","lat":43.21758,"lon":5.34589,"is_reserved":false,"is_disabled":false,"rental_uris":{"android":"levelo://app?vid=6259f55b-2b03-426c-926a-c8a432bd1482","ios":"levelo://app?vid=6259f55b-2b03-426c-926a-c8a432bd1482"},"vehicle_type_id":"4","last_reported":1761563404,"current_range_meters":18800,"station_id":"","pricing_plan_id":"cebpf4jnsgd1na2vs0mg"},{"bike_id":"bcbad100-57f1-4ae2-871f-13c721e4e329","system_id":"levelo_inurba_marseille","lat":43.25932,"lon":5.40894,"is_reserved":false,"is_disabled":false,"rental_uris":{"android":"levelo://app?vid=bcbad100-57f1-4ae2-871f-13c721e4e329","ios":"levelo://app?vid=bcbad100-57f1-4ae2-871f-13c721e4e329"},"vehicle_type_id":"4","last_reported":1761563404,"current_range_meters":18800,"station_id":"ce4bhm92rcd13ifvqglg","pricing_plan_id":"cebpf4jnsgd1na2vs0mg"},{"bike_id":"e1ca1064-3ac1-495e-b8d2-df8047d11b2e","system_id":"levelo_inurba_marseille","lat":43.284772,"lon":5.48387,"is_reserved":false,"is_disabled":false,"rental_uris":{"android":"levelo://app?vid=e1ca1064-3ac1-495e-b8d2-df8047d11b2e","ios":"levelo://app?vid=e1ca1064-3ac1-495e-b8d2-df8047d11b2e"},"vehicle_type_id":"4","last_reported":1761563404,"current_range_meters":18800,"station_id":"st_d3svhcjqgbts73a3dn0g","pricing_plan_id":"cebpf4jnsgd1na2vs0mg"},{"bike_id":"df94896d-c58b-459d-81e3-39f98a9915b5","system_id":"levelo_inurba_marseille","lat":43.28275,"lon":5.35072,"is_reserved":false,"is_disabled":false,"rental_uris":{"android":"levelo://app?vid=df94896d-c58b-459d-81e3-39f98a9915b5","ios":"levelo://app?vid=df94896d-c58b-459d-81e3-39f98a9915b5"},"vehicle_type_id":"4","last_reported":1761563404,"current_range_meters":18800,"station_id":"ce4bhbp2rcd13ifvqerg","pricing_plan_id":"cebpf4jnsgd1na2vs0mg"},{"bike_id":"4dbaeb7e-2ce2-4537-ad02-3d10af1dac9f","system_id":"levelo_inurba_marseille","lat":43.29273,"lon":5.38438,"is_reserved":false,"is_disabled":false,"rental_uris":{"android":"levelo://app?vid=4dbaeb7e-2ce2-4537-ad02-3d10af1dac9f","ios":"levelo://app?vid=4dbaeb7e-2ce2-4537-ad02-3d10af1dac9f"},"vehicle_type_id":"4","last_reported":1761563404,"current_range_meters":19200,"station_id":"ce4bh692rcd13ifvqea0","pricing_plan_id":"cebpf4jnsgd1na2vs0mg"},{"bike_id":"73831710-31eb-43ff-a323-f5b815a9af26","system_id":"levelo_inurba_marseille","lat":43.305834,"lon":5.365969,"is_reserved":false,"is_disabled":false,"rental_uris":{"android":"levelo://app?vid=73831710-31eb-43ff-a323-f5b815a9af26","ios":"levelo://app?vid=73831710-31eb-43ff-a323-f5b815a9af26"},"vehicle_type_id":"4","last_reported":1761563404,"current_range_meters":19600,"station_id":"ce4bgs12rcd13ifvqcag","pricing_plan_id":"cebpf4jnsgd1na2vs0mg"},{"bike_id":"310e927d-d5b8-4a6f-82be-2d623690659d","system_id":"levelo_inurba_marseille","lat":43.312737,"lon":5.377718,"is_reserved":false,"is_disabled":false,"rental_uris":{"android":"levelo://app?vid=310e927d-d5b8-4a6f-82be-2d623690659d","ios":"levelo://app?vid=310e927d-d5b8-4a6f-82be-2d623690659d"},"vehicle_type_id":"4","last_reported":1761563404,"current_range_meters":19600,"station_id":"","pricing_plan_id":"cebpf4jnsgd1na2vs0mg"},{"bike_id":"8f6192e7-77f1-4cdc-b88e-acb0883f545d","system_id":"levelo_inurba_marseille","lat":43.28973,"lon":5.37822,"is_reserved":false,"is_disabled":false,"rental_uris":{"android":"levelo://app?vid=8f6192e7-77f1-4cdc-b88e-acb0883f545d","ios":"levelo://app?vid=8f6192e7-77f1-4cdc-b88e-acb0883f545d"},"vehicle_type_id":"4","last_reported":1761563404,"current_range_meters":19600,"station_id":"ce4bh9p2rcd13ifvqed0","pricing_plan_id":"cebpf4jnsgd1na2vs0mg"},{"bike_id":"16b2586f-072f-49e0-be90-bc6a7f318969","system_id":"levelo_inurba_marseille","lat":43.30193,"lon":5.36608,"is_reserved":false,"is_disabled":false,"rental_uris":{"android":"levelo://app?vid=16b2586f-072f-49e0-be90-bc6a7f318969","ios":"levelo://app?vid=16b2586f-072f-49e0-be90-bc6a7f318969"},"vehicle_type_id":"4","last_reported":1761563404,"current_range_meters":19600,"station_id":"ce4bgrh2rcd13ifvqc8g","pricing_plan_id":"cebpf4jnsgd1na2vs0mg"},{"bike_id":"1cfcc920-8dcb-4c11-93f2-fc86de994255","system_id":"levelo_inurba_marseille","lat":43.29292,"lon":5.37458,"is_reserved":false,"is_disabled":false,"rental_uris":{"android":"levelo://app?vid=1cfcc920-8dcb-4c11-93f2-fc86de994255","ios":"levelo://app?vid=1cfcc920-8dcb-4c11-93f2-fc86de994255"},"vehicle_type_id":"4","last_reported":1761563404,"current_range_meters":19600,"station_id":"","pricing_plan_id":"cebpf4jnsgd1na2vs0mg"},{"bike_id":"95776420-3835-4e2e-9f18-70b3b25b01dd","system_id":"levelo_inurba_marseille","lat":43.29283,"lon":5.36848,"is_reserved":false,"is_disabled":false,"rental_uris":{"android":"levelo://app?vid=95776420-3835-4e2e-9f18-70b3b25b01dd","ios":"levelo://app?vid=95776420-3835-4e2e-9f18-70b3b25b01dd"},"vehicle_type_id":"4","last_reported":1761563404,"current_range_meters":20000,"station_id":"ce4bhbp2rcd13ifvqesg","pricing_plan_id":"cebpf4jnsgd1na2vs0mg"},{"bike_id":"58c4dbde-6a7d-4645-959d-588177b9dc81","system_id":"levelo_inurba_marseille","lat":43.25909,"lon":5.40885,"is_reserved":false,"is_disabled":false,"rental_uris":{"android":"levelo://app?vid=58c4dbde-6a7d-4645-959d-588177b9dc81","ios":"levelo://app?vid=58c4dbde-6a7d-4645-959d-588177b9dc81"},"vehicle_type_id":"4","last_reported":1761563404,"current_range_meters":20000,"station_id":"ce4bhm92rcd13ifvqglg","pricing_plan_id":"cebpf4jnsgd1na2vs0mg"},{"bike_id":"dccef0b1-edb3-49b5-866c-43e10e5763cc","system_id":"levelo_inurba_marseille","lat":43.28804,"lon":5.438418,"is_reserved":false,"is_disabled":false,"rental_uris":{"android":"levelo://app?vid=dccef0b1-edb3-49b5-866c-43e10e5763cc","ios":"levelo://app?vid=dccef0b1-edb3-49b5-866c-43e10e5763cc"},"vehicle_type_id":"4","last_reported":1761563404,"current_range_meters":20000,"station_id":"","pricing_plan_id":"cebpf4jnsgd1na2vs0mg"},{"bike_id":"5b695131-e4d3-42de-92db-42fa233a5063","system_id":"levelo_inurba_marseille","lat":43.29371,"lon":5.37857,"is_reserved":false,"is_disabled":true,"rental_uris":{"android":"levelo://app?vid=5b695131-e4d3-42de-92db-42fa233a5063","ios":"levelo://app?vid=5b695131-e4d3-42de-92db-42fa233a5063"},"vehicle_type_id":"4","last_reported":1761563404,"current_range_meters":20000,"station_id":"ce4bgjh2rcd13ifvqbf0","pricing_plan_id":"cebpf4jnsgd1na2vs0mg"},{"bike_id":"2be3bf9b-39f4-4c37-8c01-9e9bcabe1c53","system_id":"levelo_inurba_marseille","lat":43.33741,"lon":5.37444,"is_reserved":false,"is_disabled":false,"rental_uris":{"android":"levelo://app?vid=2be3bf9b-39f4-4c37-8c01-9e9bcabe1c53","ios":"levelo://app?vid=2be3bf9b-39f4-4c37-8c01-9e9bcabe1c53"},"vehicle_type_id":"4","last_reported":1761563404,"current_range_meters":20000,"station_id":"","pricing_plan_id":"cebpf4jnsgd1na2vs0mg"},{"bike_id":"adbe3405-5e3d-43bb-b931-f9de8c3b9921","system_id":"levelo_inurba_marseille","lat":43.30553,"lon":5.36535,"is_reserved":false,"is_disabled":false,"rental_uris":{"android":"levelo://app?vid=adbe3405-5e3d-43bb-b931-f9de8c3b9921","ios":"levelo://app?vid=adbe3405-5e3d-43bb-b931-f9de8c3b9921"},"vehicle_type_id":"4","last_reported":1761563404,"current_range_meters":20000,"station_id":"ce4bgs12rcd13ifvqcag","pricing_plan_id":"cebpf4jnsgd1na2vs0mg"},{"bike_id":"f568391f-b71f-4807-9099-53eb6b0dc22d","system_id":"levelo_inurba_marseille","lat":43.297966,"lon":5.381321,"is_reserved":false,"is_disabled":false,"rental_uris":{"android":"levelo://app?vid=f568391f-b71f-4807-9099-53eb6b0dc22d","ios":"levelo://app?vid=f568391f-b71f-4807-9099-53eb6b0dc22d"},"vehicle_type_id":"4","last_reported":1761563404,"current_range_meters":20000,"station_id":"ce4bgip2rcd13ifvqbb0","pricing_plan_id":"cebpf4jnsgd1na2vs0mg"},{"bike_id":"97d64e7a-40ce-4e0c-adf8-9a823ea518ce","system_id":"levelo_inurba_marseille","lat":43.23153,"lon":5.43708,"is_reserved":false,"is_disabled":false,"rental_uris":{"android":"levelo://app?vid=97d64e7a-40ce-4e0c-adf8-9a823ea518ce","ios":"levelo://app?vid=97d64e7a-40ce-4e0c-adf8-9a823ea518ce"},"vehicle_type_id":"4","last_reported":1761563404,"current_range_meters":20000,"station_id":"ce4bhmp2rcd13ifvqgog","pricing_plan_id":"cebpf4jnsgd1na2vs0mg"},{"bike_id":"d80381c1-49ce-405e-9d9b-7afcebd0ca96","system_id":"levelo_inurba_marseille","lat":43.231463,"lon":5.43735,"is_reserved":false,"is_disabled":false,"rental_uris":{"android":"levelo://app?vid=d80381c1-49ce-405e-9d9b-7afcebd0ca96","ios":"levelo://app?vid=d80381c1-49ce-405e-9d9b-7afcebd0ca96"},"vehicle_type_id":"4","last_reported":1761563404,"current_range_meters":20000,"station_id":"ce4bhmp2rcd13ifvqgog","pricing_plan_id":"cebpf4jnsgd1na2vs0mg"},{"bike_id":"5e2de3da-bfdd-4667-9682-acc99568b892","system_id":"levelo_inurba_marseille","lat":43.24179,"lon":5.39723,"is_reserved":false,"is_disabled":false,"rental_uris":{"android":"levelo://app?vid=5e2de3da-bfdd-4667-9682-acc99568b892","ios":"levelo://app?vid=5e2de3da-bfdd-4667-9682-acc99568b892"},"vehicle_type_id":"4","last_reported":1761563404,"current_range_meters":20000,"station_id":"ce4bhn12rcd13ifvqgpg","pricing_plan_id":"cebpf4jnsgd1na2vs0mg"},{"bike_id":"ae8ebe94-fc0f-4409-8f77-39eb5c613a67","system_id":"levelo_inurba_marseille","lat":43.337444,"lon":5.374475,"is_reserved":false,"is_disabled":false,"rental_uris":{"android":"levelo://app?vid=ae8ebe94-fc0f-4409-8f77-39eb5c613a67","ios":"levelo://app?vid=ae8ebe94-fc0f-4409-8f77-39eb5c613a67"},"vehicle_type_id":"4","last_reported":1761563404,"current_range_meters":20400,"station_id":"","pricing_plan_id":"cebpf4jnsgd1na2vs0mg"},{"bike_id":"61ccfc1d-47c2-41cd-a83a-4a3daff8c02d","system_id":"levelo_inurba_marseille","lat":43.24072,"lon":5.37757,"is_reserved":false,"is_disabled":false,"rental_uris":{"android":"levelo://app?vid=61ccfc1d-47c2-41cd-a83a-4a3daff8c02d","ios":"levelo://app?vid=61ccfc1d-47c2-41cd-a83a-4a3daff8c02d"},"vehicle_type_id":"4","last_reported":1761563404,"current_range_meters":20400,"station_id":"ce4bhnp2rcd13ifvqgvg","pricing_plan_id":"cebpf4jnsgd1na2vs0mg"},{"bike_id":"dced2bcc-e95f-44ce-b7d8-7bb47def612a","system_id":"levelo_inurba_marseille","lat":43.211913,"lon":5.350724,"is_reserved":false,"is_disabled":false,"rental_uris":{"android":"levelo://app?vid=dced2bcc-e95f-44ce-b7d8-7bb47def612a","ios":"levelo://app?vid=dced2bcc-e95f-44ce-b7d8-7bb47def612a"},"vehicle_type_id":"4","last_reported":1761563404,"current_range_meters":20400,"station_id":"st_cvj6sg6p6f1abm77japg","pricing_plan_id":"cebpf4jnsgd1na2vs0mg"},{"bike_id":"87301e08-7a50-4b21-8716-63de377bc711","system_id":"levelo_inurba_marseille","lat":43.31348,"lon":5.38477,"is_reserved":false,"is_disabled":false,"rental_uris":{"android":"levelo://app?vid=87301e08-7a50-4b21-8716-63de377bc711","ios":"levelo://app?vid=87301e08-7a50-4b21-8716-63de377bc711"},"vehicle_type_id":"4","last_reported":1761563404,"current_range_meters":20400,"station_id":"ce4bgt92rcd13ifvqcf0","pricing_plan_id":"cebpf4jnsgd1na2vs0mg"},{"bike_id":"74ee4f15-5df0-4492-bd6c-aca1c173625d","system_id":"levelo_inurba_marseille","lat":43.284088,"lon":5.374976,"is_reserved":false,"is_disabled":false,"rental_uris":{"android":"levelo://app?vid=74ee4f15-5df0-4492-bd6c-aca1c173625d","ios":"levelo://app?vid=74ee4f15-5df0-4492-bd6c-aca1c173625d"},"vehicle_type_id":"4","last_reported":1761563404,"current_range_meters":20400,"station_id":"ce4bh412rcd13ifvqds0","pricing_plan_id":"cebpf4jnsgd1na2vs0mg"},{"bike_id":"a9d6f84c-7daf-4c59-adfe-f1faabb86893","system_id":"levelo_inurba_marseille","lat":43.323554,"lon":5.367572,"is_reserved":false,"is_disabled":false,"rental_uris":{"android":"levelo://app?vid=a9d6f84c-7daf-4c59-adfe-f1faabb86893","ios":"levelo://app?vid=a9d6f84c-7daf-4c59-adfe-f1faabb86893"},"vehicle_type_id":"4","last_reported":1761563404,"current_range_meters":20400,"station_id":"ce4bhsh2rcd13ifvqi2g","pricing_plan_id":"cebpf4jnsgd1na2vs0mg"},{"bike_id":"46292dbd-4a2f-46bb-964b-a4a3d10786f9","system_id":"levelo_inurba_marseille","lat":43.248106,"lon":5.374503,"is_reserved":false,"is_disabled":false,"rental_uris":{"android":"levelo://app?vid=46292dbd-4a2f-46bb-964b-a4a3d10786f9","ios":"levelo://app?vid=46292dbd-4a2f-46bb-964b-a4a3d10786f9"},"vehicle_type_id":"4","last_reported":1761563404,"current_range_meters":20800,"station_id":"ce4bhgh2rcd13ifvqfb0","pricing_plan_id":"cebpf4jnsgd1na2vs0mg"},{"bike_id":"55ac339c-4813-4fb3-ae9e-0baca28d2223","system_id":"levelo_inurba_marseille","lat":43.262218,"lon":5.404623,"is_reserved":false,"is_disabled":false,"rental_uris":{"android":"levelo://app?vid=55ac339c-4813-4fb3-ae9e-0baca28d2223","ios":"levelo://app?vid=55ac339c-4813-4fb3-ae9e-0baca28d2223"},"vehicle_type_id":"4","last_reported":1761563404,"current_range_meters":20800,"station_id":"ce4bhmh2rcd13ifvqgmg","pricing_plan_id":"cebpf4jnsgd1na2vs0mg"},{"bike_id":"eb06ef63-86e5-4c0f-beaa-f2f3551e85f8","system_id":"levelo_inurba_marseille","lat":43.24953,"lon":5.40495,"is_reserved":false,"is_disabled":false,"rental_uris":{"android":"levelo://app?vid=eb06ef63-86e5-4c0f-beaa-f2f3551e85f8","ios":"levelo://app?vid=eb06ef63-86e5-4c0f-beaa-f2f3551e85f8"},"vehicle_type_id":"4","last_reported":1761563404,"current_range_meters":20800,"station_id":"st_d2ngiaodas8pm72gd1h0","pricing_plan_id":"cebpf4jnsgd1na2vs0mg"},{"bike_id":"e95c152f-9a92-487e-b777-09b960897a9d","system_id":"levelo_inurba_marseille","lat":43.29535,"lon":5.3854,"is_reserved":false,"is_disabled":false,"rental_uris":{"android":"levelo://app?vid=e95c152f-9a92-487e-b777-09b960897a9d","ios":"levelo://app?vid=e95c152f-9a92-487e-b777-09b960897a9d"},"vehicle_type_id":"4","last_reported":1761563404,"current_range_meters":20800,"station_id":"ce4bgih2rcd13ifvqba0","pricing_plan_id":"cebpf4jnsgd1na2vs0mg"},{"bike_id":"4ffc7064-2dd7-48f1-b63b-df2df6273531","system_id":"levelo_inurba_marseille","lat":43.21189,"lon":5.35071,"is_reserved":false,"is_disabled":false,"rental_uris":{"android":"levelo://app?vid=4ffc7064-2dd7-48f1-b63b-df2df6273531","ios":"levelo://app?vid=4ffc7064-2dd7-48f1-b63b-df2df6273531"},"vehicle_type_id":"4","last_reported":1761563404,"current_range_meters":20800,"station_id":"st_cvj6sg6p6f1abm77japg","pricing_plan_id":"cebpf4jnsgd1na2vs0mg"},{"bike_id":"feaf1fab-d50a-4ede-88b6-de09731b5d12","system_id":"levelo_inurba_marseille","lat":43.30139,"lon":5.38775,"is_reserved":false,"is_disabled":false,"rental_uris":{"android":"levelo://app?vid=feaf1fab-d50a-4ede-88b6-de09731b5d12","ios":"levelo://app?vid=feaf1fab-d50a-4ede-88b6-de09731b5d12"},"vehicle_type_id":"4","last_reported":1761563404,"current_range_meters":20800,"station_id":"ce4bghh2rcd13ifvqb60","pricing_plan_id":"cebpf4jnsgd1na2vs0mg"},{"bike_id":"6f60b159-83c5-40f3-a1b0-7b6a6268dfa5","system_id":"levelo_inurba_marseille","lat":43.29169,"lon":5.35613,"is_reserved":false,"is_disabled":false,"rental_uris":{"android":"levelo://app?vid=6f60b159-83c5-40f3-a1b0-7b6a6268dfa5","ios":"levelo://app?vid=6f60b159-83c5-40f3-a1b0-7b6a6268dfa5"},"vehicle_type_id":"4","last_reported":1761563404,"current_range_meters":20800,"station_id":"","pricing_plan_id":"cebpf4jnsgd1na2vs0mg"},{"bike_id":"6ddc5edc-c935-4b79-aaa2-387ff1e7a968","system_id":"levelo_inurba_marseille","lat":43.28414,"lon":5.34977,"is_reserved":false,"is_disabled":false,"rental_uris":{"android":"levelo://app?vid=6ddc5edc-c935-4b79-aaa2-387ff1e7a968","ios":"levelo://app?vid=6ddc5edc-c935-4b79-aaa2-387ff1e7a968"},"vehicle_type_id":"4","last_reported":1761563404,"current_range_meters":20800,"station_id":"ce4bhbh2rcd13ifvqepg","pricing_plan_id":"cebpf4jnsgd1na2vs0mg"},{"bike_id":"6742a2c8-ec35-4b90-a373-230c4c291c17","system_id":"levelo_inurba_marseille","lat":43.30484,"lon":5.37917,"is_reserved":false,"is_disabled":false,"rental_uris":{"android":"levelo://app?vid=6742a2c8-ec35-4b90-a373-230c4c291c17","ios":"levelo://app?vid=6742a2c8-ec35-4b90-a373-230c4c291c17"},"vehicle_type_id":"4","last_reported":1761563404,"current_range_meters":20800,"station_id":"ce4bgup2rcd13ifvqcn0","pricing_plan_id":"cebpf4jnsgd1na2vs0mg"},{"bike_id":"190406e8-a8eb-421f-a0e6-93d2ffe41e46","system_id":"levelo_inurba_marseille","lat":43.2841,"lon":5.34977,"is_reserved":false,"is_disabled":false,"rental_uris":{"android":"levelo://app?vid=190406e8-a8eb-421f-a0e6-93d2ffe41e46","ios":"levelo://app?vid=190406e8-a8eb-421f-a0e6-93d2ffe41e46"},"vehicle_type_id":"4","last_reported":1761563404,"current_range_meters":20800,"station_id":"ce4bgop2rcd13ifvqc1g","pricing_plan_id":"cebpf4jnsgd1na2vs0mg"},{"bike_id":"6aa9a1ee-9778-4d45-859f-f81494315a8d","system_id":"levelo_inurba_marseille","lat":43.21194,"lon":5.35066,"is_reserved":false,"is_disabled":false,"rental_uris":{"android":"levelo://app?vid=6aa9a1ee-9778-4d45-859f-f81494315a8d","ios":"levelo://app?vid=6aa9a1ee-9778-4d45-859f-f81494315a8d"},"vehicle_type_id":"4","last_reported":1761563404,"current_range_meters":20800,"station_id":"st_cvj6sg6p6f1abm77japg","pricing_plan_id":"cebpf4jnsgd1na2vs0mg"},{"bike_id":"b67e4d89-eb40-4705-8e55-320922c7b91b","system_id":"levelo_inurba_marseille","lat":43.22568,"lon":5.41621,"is_reserved":false,"is_disabled":false,"rental_uris":{"android":"levelo://app?vid=b67e4d89-eb40-4705-8e55-320922c7b91b","ios":"levelo://app?vid=b67e4d89-eb40-4705-8e55-320922c7b91b"},"vehicle_type_id":"4","last_reported":1761563404,"current_range_meters":21600,"station_id":"st_d2o4gvlbi1j2169b742g","pricing_plan_id":"cebpf4jnsgd1na2vs0mg"},{"bike_id":"0a030c6e-a572-4c62-9574-ac7fcf20c662","system_id":"levelo_inurba_marseille","lat":43.29554,"lon":5.4229,"is_reserved":false,"is_disabled":false,"rental_uris":{"android":"levelo://app?vid=0a030c6e-a572-4c62-9574-ac7fcf20c662","ios":"levelo://app?vid=0a030c6e-a572-4c62-9574-ac7fcf20c662"},"vehicle_type_id":"4","last_reported":1761563404,"current_range_meters":21600,"station_id":"ce4bhph2rcd13ifvqhdg","pricing_plan_id":"cebpf4jnsgd1na2vs0mg"},{"bike_id":"f923b8b8-81d4-4921-bb23-f10e537b2244","system_id":"levelo_inurba_marseille","lat":43.3172,"lon":5.42392,"is_reserved":false,"is_disabled":false,"rental_uris":{"android":"levelo://app?vid=f923b8b8-81d4-4921-bb23-f10e537b2244","ios":"levelo://app?vid=f923b8b8-81d4-4921-bb23-f10e537b2244"},"vehicle_type_id":"4","last_reported":1761563404,"current_range_meters":21600,"station_id":"ce4bhp92rcd13ifvqhbg","pricing_plan_id":"cebpf4jnsgd1na2vs0mg"},{"bike_id":"914951f9-b4c0-4749-a4f3-cd14d9c6e55d","system_id":"levelo_inurba_marseille","lat":43.250058,"lon":5.38924,"is_reserved":false,"is_disabled":false,"rental_uris":{"android":"levelo://app?vid=914951f9-b4c0-4749-a4f3-cd14d9c6e55d","ios":"levelo://app?vid=914951f9-b4c0-4749-a4f3-cd14d9c6e55d"},"vehicle_type_id":"4","last_reported":1761563404,"current_range_meters":21600,"station_id":"ce4bhgp2rcd13ifvqfd0","pricing_plan_id":"cebpf4jnsgd1na2vs0mg"},{"bike_id":"ad315ea3-1ff1-468a-9a73-8d1005d1707f","system_id":"levelo_inurba_marseille","lat":43.29532,"lon":5.37503,"is_reserved":false,"is_disabled":true,"rental_uris":{"android":"levelo://app?vid=ad315ea3-1ff1-468a-9a73-8d1005d1707f","ios":"levelo://app?vid=ad315ea3-1ff1-468a-9a73-8d1005d1707f"},"vehicle_type_id":"4","last_reported":1761563404,"current_range_meters":21600,"station_id":"ce4bgkp2rcd13ifvqbmg","pricing_plan_id":"cebpf4jnsgd1na2vs0mg"},{"bike_id":"9d447215-7097-463a-ab01-ffec67831b86","system_id":"levelo_inurba_marseille","lat":43.32337,"lon":5.36722,"is_reserved":false,"is_disabled":false,"rental_uris":{"android":"levelo://app?vid=9d447215-7097-463a-ab01-ffec67831b86","ios":"levelo://app?vid=9d447215-7097-463a-ab01-ffec67831b86"},"vehicle_type_id":"4","last_reported":1761563404,"current_range_meters":21600,"station_id":"ce4bhsh2rcd13ifvqi2g","pricing_plan_id":"cebpf4jnsgd1na2vs0mg"},{"bike_id":"f7a1a0c8-9151-4af2-a3f8-6d2dacac8fb6","system_id":"levelo_inurba_marseille","lat":43.30302,"lon":5.3921,"is_reserved":false,"is_disabled":false,"rental_uris":{"android":"levelo://app?vid=f7a1a0c8-9151-4af2-a3f8-6d2dacac8fb6","ios":"levelo://app?vid=f7a1a0c8-9151-4af2-a3f8-6d2dacac8fb6"},"vehicle_type_id":"4","last_reported":1761563404,"current_range_meters":21600,"station_id":"ce4bgkh2rcd13ifvqbk0","pricing_plan_id":"cebpf4jnsgd1na2vs0mg"},{"bike_id":"d5d744bc-1e5d-4657-b38b-3a76833d6d31","system_id":"levelo_inurba_marseille","lat":43.23151,"lon":5.43713,"is_reserved":false,"is_disabled":false,"rental_uris":{"android":"levelo://app?vid=d5d744bc-1e5d-4657-b38b-3a76833d6d31","ios":"levelo://app?vid=d5d744bc-1e5d-4657-b38b-3a76833d6d31"},"vehicle_type_id":"4","last_reported":1761563404,"current_range_meters":21600,"station_id":"ce4bhmp2rcd13ifvqgog","pricing_plan_id":"cebpf4jnsgd1na2vs0mg"},{"bike_id":"56ef6859-a3bc-4016-a535-2635282cfe61","system_id":"levelo_inurba_marseille","lat":43.30199,"lon":5.36625,"is_reserved":false,"is_disabled":false,"rental_uris":{"android":"levelo://app?vid=56ef6859-a3bc-4016-a535-2635282cfe61","ios":"levelo://app?vid=56ef6859-a3bc-4016-a535-2635282cfe61"},"vehicle_type_id":"4","last_reported":1761563404,"current_range_meters":21600,"station_id":"ce4bgrh2rcd13ifvqc8g","pricing_plan_id":"cebpf4jnsgd1na2vs0mg"},{"bike_id":"30b1827d-4b67-45fd-b720-302d29fb571b","system_id":"levelo_inurba_marseille","lat":43.23195,"lon":5.35537,"is_reserved":false,"is_disabled":true,"rental_uris":{"android":"levelo://app?vid=30b1827d-4b67-45fd-b720-302d29fb571b","ios":"levelo://app?vid=30b1827d-4b67-45fd-b720-302d29fb571b"},"vehicle_type_id":"4","last_reported":1761563404,"current_range_meters":22000,"station_id":"ce4bhu92rcd13ifvqi70","pricing_plan_id":"cebpf4jnsgd1na2vs0mg"},{"bike_id":"32d7653e-b033-4183-b4c0-f44169bb9067","system_id":"levelo_inurba_marseille","lat":43.32703,"lon":5.3924,"is_reserved":false,"is_disabled":false,"rental_uris":{"android":"levelo://app?vid=32d7653e-b033-4183-b4c0-f44169bb9067","ios":"levelo://app?vid=32d7653e-b033-4183-b4c0-f44169bb9067"},"vehicle_type_id":"4","last_reported":1761563404,"current_range_meters":22000,"station_id":"","pricing_plan_id":"cebpf4jnsgd1na2vs0mg"},{"bike_id":"8c71c05b-dd29-470b-8b05-4159f459865a","system_id":"levelo_inurba_marseille","lat":43.27679,"lon":5.38901,"is_reserved":false,"is_disabled":false,"rental_uris":{"android":"levelo://app?vid=8c71c05b-dd29-470b-8b05-4159f459865a","ios":"levelo://app?vid=8c71c05b-dd29-470b-8b05-4159f459865a"},"vehicle_type_id":"4","last_reported":1761563404,"current_range_meters":22000,"station_id":"ce4bhi12rcd13ifvqfo0","pricing_plan_id":"cebpf4jnsgd1na2vs0mg"},{"bike_id":"979822cf-56f6-44e7-8388-b5caf88ac3e5","system_id":"levelo_inurba_marseille","lat":43.29928,"lon":5.36549,"is_reserved":false,"is_disabled":false,"rental_uris":{"android":"levelo://app?vid=979822cf-56f6-44e7-8388-b5caf88ac3e5","ios":"levelo://app?vid=979822cf-56f6-44e7-8388-b5caf88ac3e5"},"vehicle_type_id":"4","last_reported":1761563404,"current_range_meters":22000,"station_id":"ce4bgm92rcd13ifvqbr0","pricing_plan_id":"cebpf4jnsgd1na2vs0mg"},{"bike_id":"8e95e25a-9212-4196-9c7e-97ab4e6b1bd8","system_id":"levelo_inurba_marseille","lat":43.257116,"lon":5.41116,"is_reserved":false,"is_disabled":false,"rental_uris":{"android":"levelo://app?vid=8e95e25a-9212-4196-9c7e-97ab4e6b1bd8","ios":"levelo://app?vid=8e95e25a-9212-4196-9c7e-97ab4e6b1bd8"},"vehicle_type_id":"4","last_reported":1761563404,"current_range_meters":22000,"station_id":"ce4bhkp2rcd13ifvqgd0","pricing_plan_id":"cebpf4jnsgd1na2vs0mg"},{"bike_id":"b81da258-3d3a-4132-bc1b-b45bf36a647e","system_id":"levelo_inurba_marseille","lat":43.288061,"lon":5.382524,"is_reserved":false,"is_disabled":false,"rental_uris":{"android":"levelo://app?vid=b81da258-3d3a-4132-bc1b-b45bf36a647e","ios":"levelo://app?vid=b81da258-3d3a-4132-bc1b-b45bf36a647e"},"vehicle_type_id":"4","last_reported":1761563404,"current_range_meters":22000,"station_id":"ce4bh492rcd13ifvqdug","pricing_plan_id":"cebpf4jnsgd1na2vs0mg"},{"bike_id":"b3dfab59-f504-4316-830b-928467e31878","system_id":"levelo_inurba_marseille","lat":43.29966,"lon":5.38494,"is_reserved":false,"is_disabled":false,"rental_uris":{"android":"levelo://app?vid=b3dfab59-f504-4316-830b-928467e31878","ios":"levelo://app?vid=b3dfab59-f504-4316-830b-928467e31878"},"vehicle_type_id":"4","last_reported":1761563404,"current_range_meters":22000,"station_id":"ce4bgj92rcd13ifvqbd0","pricing_plan_id":"cebpf4jnsgd1na2vs0mg"},{"bike_id":"51a7e268-9562-4b96-8e84-f568b0acc7b7","system_id":"levelo_inurba_marseille","lat":43.247969,"lon":5.37456,"is_reserved":false,"is_disabled":false,"rental_uris":{"android":"levelo://app?vid=51a7e268-9562-4b96-8e84-f568b0acc7b7","ios":"levelo://app?vid=51a7e268-9562-4b96-8e84-f568b0acc7b7"},"vehicle_type_id":"4","last_reported":1761563404,"current_range_meters":22400,"station_id":"","pricing_plan_id":"cebpf4jnsgd1na2vs0mg"},{"bike_id":"5c5cf98e-7fa3-4ae7-a298-ae5413831201","system_id":"levelo_inurba_marseille","lat":43.29169,"lon":5.3714,"is_reserved":false,"is_disabled":false,"rental_uris":{"android":"levelo://app?vid=5c5cf98e-7fa3-4ae7-a298-ae5413831201","ios":"levelo://app?vid=5c5cf98e-7fa3-4ae7-a298-ae5413831201"},"vehicle_type_id":"4","last_reported":1761563404,"current_range_meters":22400,"station_id":"ce4bha92rcd13ifvqeh0","pricing_plan_id":"cebpf4jnsgd1na2vs0mg"},{"bike_id":"bb3d6f43-fe8d-4027-a7f4-02cf8b0450bf","system_id":"levelo_inurba_marseille","lat":43.288544,"lon":5.358528,"is_reserved":false,"is_disabled":false,"rental_uris":{"android":"levelo://app?vid=bb3d6f43-fe8d-4027-a7f4-02cf8b0450bf","ios":"levelo://app?vid=bb3d6f43-fe8d-4027-a7f4-02cf8b0450bf"},"vehicle_type_id":"4","last_reported":1761563404,"current_range_meters":22400,"station_id":"","pricing_plan_id":"cebpf4jnsgd1na2vs0mg"},{"bike_id":"5f6c4fea-ada2-453b-9aa3-59bf116cef02","system_id":"levelo_inurba_marseille","lat":43.225341,"lon":5.348319,"is_reserved":false,"is_disabled":false,"rental_uris":{"android":"levelo://app?vid=5f6c4fea-ada2-453b-9aa3-59bf116cef02","ios":"levelo://app?vid=5f6c4fea-ada2-453b-9aa3-59bf116cef02"},"vehicle_type_id":"4","last_reported":1761563404,"current_range_meters":22400,"station_id":"","pricing_plan_id":"cebpf4jnsgd1na2vs0mg"},{"bike_id":"6dd90436-597a-4fb3-8805-cbd3cfbb2f5e","system_id":"levelo_inurba_marseille","lat":43.29538,"lon":5.37497,"is_reserved":false,"is_disabled":false,"rental_uris":{"android":"levelo://app?vid=6dd90436-597a-4fb3-8805-cbd3cfbb2f5e","ios":"levelo://app?vid=6dd90436-597a-4fb3-8805-cbd3cfbb2f5e"},"vehicle_type_id":"4","last_reported":1761563404,"current_range_meters":22400,"station_id":"ce4bgkp2rcd13ifvqbmg","pricing_plan_id":"cebpf4jnsgd1na2vs0mg"},{"bike_id":"92eaf39d-1ab7-4bac-9cc0-9ae6867f8bc4","system_id":"levelo_inurba_marseille","lat":43.33751,"lon":5.36293,"is_reserved":false,"is_disabled":false,"rental_uris":{"android":"levelo://app?vid=92eaf39d-1ab7-4bac-9cc0-9ae6867f8bc4","ios":"levelo://app?vid=92eaf39d-1ab7-4bac-9cc0-9ae6867f8bc4"},"vehicle_type_id":"4","last_reported":1761563404,"current_range_meters":22400,"station_id":"","pricing_plan_id":"cebpf4jnsgd1na2vs0mg"},{"bike_id":"6a182c72-1e9b-4e86-80e3-b01876af8da8","system_id":"levelo_inurba_marseille","lat":43.2985,"lon":5.36289,"is_reserved":false,"is_disabled":false,"rental_uris":{"android":"levelo://app?vid=6a182c72-1e9b-4e86-80e3-b01876af8da8","ios":"levelo://app?vid=6a182c72-1e9b-4e86-80e3-b01876af8da8"},"vehicle_type_id":"4","last_reported":1761563404,"current_range_meters":22400,"station_id":"ce4bgpp2rcd13ifvqc3g","pricing_plan_id":"cebpf4jnsgd1na2vs0mg"},{"bike_id":"8f408273-c5a8-4b8e-acaf-f79b02fe3397","system_id":"levelo_inurba_marseille","lat":43.30553,"lon":5.36698,"is_reserved":false,"is_disabled":false,"rental_uris":{"android":"levelo://app?vid=8f408273-c5a8-4b8e-acaf-f79b02fe3397","ios":"levelo://app?vid=8f408273-c5a8-4b8e-acaf-f79b02fe3397"},"vehicle_type_id":"4","last_reported":1761563404,"current_range_meters":22400,"station_id":"ce4bgrp2rcd13ifvqc9g","pricing_plan_id":"cebpf4jnsgd1na2vs0mg"},{"bike_id":"ad489c9e-f3f7-4768-b652-e504fc46c98d","system_id":"levelo_inurba_marseille","lat":43.26491,"lon":5.39545,"is_reserved":false,"is_disabled":false,"rental_uris":{"android":"levelo://app?vid=ad489c9e-f3f7-4768-b652-e504fc46c98d","ios":"levelo://app?vid=ad489c9e-f3f7-4768-b652-e504fc46c98d"},"vehicle_type_id":"4","last_reported":1761563404,"current_range_meters":22400,"station_id":"ce4bhi12rcd13ifvqfq0","pricing_plan_id":"cebpf4jnsgd1na2vs0mg"},{"bike_id":"a9cc1880-77d2-4e2b-b036-a7d9900d5aee","system_id":"levelo_inurba_marseille","lat":43.25579,"lon":5.38227,"is_reserved":false,"is_disabled":false,"rental_uris":{"android":"levelo://app?vid=a9cc1880-77d2-4e2b-b036-a7d9900d5aee","ios":"levelo://app?vid=a9cc1880-77d2-4e2b-b036-a7d9900d5aee"},"vehicle_type_id":"4","last_reported":1761563404,"current_range_meters":22400,"station_id":"ce4bhih2rcd13ifvqfs0","pricing_plan_id":"cebpf4jnsgd1na2vs0mg"},{"bike_id":"67b793e9-a241-4578-a20c-225fb61a9ace","system_id":"levelo_inurba_marseille","lat":43.312321,"lon":5.368573,"is_reserved":false,"is_disabled":false,"rental_uris":{"android":"levelo://app?vid=67b793e9-a241-4578-a20c-225fb61a9ace","ios":"levelo://app?vid=67b793e9-a241-4578-a20c-225fb61a9ace"},"vehicle_type_id":"4","last_reported":1761563404,"current_range_meters":22400,"station_id":"ce4bgl92rcd13ifvqbq0","pricing_plan_id":"cebpf4jnsgd1na2vs0mg"},{"bike_id":"57185adc-6152-4762-b3ab-836c5f2dcef3","system_id":"levelo_inurba_marseille","lat":43.23142,"lon":5.43708,"is_reserved":false,"is_disabled":false,"rental_uris":{"android":"levelo://app?vid=57185adc-6152-4762-b3ab-836c5f2dcef3","ios":"levelo://app?vid=57185adc-6152-4762-b3ab-836c5f2dcef3"},"vehicle_type_id":"4","last_reported":1761563404,"current_range_meters":22400,"station_id":"ce4bhmp2rcd13ifvqgog","pricing_plan_id":"cebpf4jnsgd1na2vs0mg"},{"bike_id":"49ed0d39-51fe-4cd4-8527-50556baa8749","system_id":"levelo_inurba_marseille","lat":43.225318,"lon":5.348308,"is_reserved":false,"is_disabled":false,"rental_uris":{"android":"levelo://app?vid=49ed0d39-51fe-4cd4-8527-50556baa8749","ios":"levelo://app?vid=49ed0d39-51fe-4cd4-8527-50556baa8749"},"vehicle_type_id":"4","last_reported":1761563404,"current_range_meters":22400,"station_id":"","pricing_plan_id":"cebpf4jnsgd1na2vs0mg"},{"bike_id":"230bdc26-1259-4147-b66a-c2b3eca9636b","system_id":"levelo_inurba_marseille","lat":43.298421,"lon":5.385715,"is_reserved":false,"is_disabled":false,"rental_uris":{"android":"levelo://app?vid=230bdc26-1259-4147-b66a-c2b3eca9636b","ios":"levelo://app?vid=230bdc26-1259-4147-b66a-c2b3eca9636b"},"vehicle_type_id":"4","last_reported":1761563404,"current_range_meters":22800,"station_id":"","pricing_plan_id":"cebpf4jnsgd1na2vs0mg"},{"bike_id":"987c1dfe-9139-415b-a70f-808d28aaf9cd","system_id":"levelo_inurba_marseille","lat":43.271725,"lon":5.409921,"is_reserved":false,"is_disabled":false,"rental_uris":{"android":"levelo://app?vid=987c1dfe-9139-415b-a70f-808d28aaf9cd","ios":"levelo://app?vid=987c1dfe-9139-415b-a70f-808d28aaf9cd"},"vehicle_type_id":"4","last_reported":1761563404,"current_range_meters":22800,"station_id":"ce4bhl12rcd13ifvqgf0","pricing_plan_id":"cebpf4jnsgd1na2vs0mg"},{"bike_id":"f537fcde-cbf3-499e-aead-1fcf08107e88","system_id":"levelo_inurba_marseille","lat":43.30553,"lon":5.36554,"is_reserved":false,"is_disabled":false,"rental_uris":{"android":"levelo://app?vid=f537fcde-cbf3-499e-aead-1fcf08107e88","ios":"levelo://app?vid=f537fcde-cbf3-499e-aead-1fcf08107e88"},"vehicle_type_id":"4","last_reported":1761563404,"current_range_meters":22800,"station_id":"ce4bgs12rcd13ifvqcag","pricing_plan_id":"cebpf4jnsgd1na2vs0mg"},{"bike_id":"aa90b5b8-f694-41cf-a6c8-5922fbf4a5cd","system_id":"levelo_inurba_marseille","lat":43.262013,"lon":5.379327,"is_reserved":false,"is_disabled":false,"rental_uris":{"android":"levelo://app?vid=aa90b5b8-f694-41cf-a6c8-5922fbf4a5cd","ios":"levelo://app?vid=aa90b5b8-f694-41cf-a6c8-5922fbf4a5cd"},"vehicle_type_id":"4","last_reported":1761563404,"current_range_meters":22800,"station_id":"ce4bhjp2rcd13ifvqg90","pricing_plan_id":"cebpf4jnsgd1na2vs0mg"},{"bike_id":"65be2296-1e9f-4dfb-aa3e-c9aaba7b4fc8","system_id":"levelo_inurba_marseille","lat":43.29092,"lon":5.381148,"is_reserved":false,"is_disabled":false,"rental_uris":{"android":"levelo://app?vid=65be2296-1e9f-4dfb-aa3e-c9aaba7b4fc8","ios":"levelo://app?vid=65be2296-1e9f-4dfb-aa3e-c9aaba7b4fc8"},"vehicle_type_id":"4","last_reported":1761563404,"current_range_meters":22800,"station_id":"ce4bh512rcd13ifvqe2g","pricing_plan_id":"cebpf4jnsgd1na2vs0mg"},{"bike_id":"1ff7ce71-6986-4ead-9e15-3005917b08f9","system_id":"levelo_inurba_marseille","lat":43.25582,"lon":5.38239,"is_reserved":false,"is_disabled":false,"rental_uris":{"android":"levelo://app?vid=1ff7ce71-6986-4ead-9e15-3005917b08f9","ios":"levelo://app?vid=1ff7ce71-6986-4ead-9e15-3005917b08f9"},"vehicle_type_id":"4","last_reported":1761563404,"current_range_meters":22800,"station_id":"ce4bhih2rcd13ifvqfs0","pricing_plan_id":"cebpf4jnsgd1na2vs0mg"},{"bike_id":"bcd78ce9-5465-45f7-ac5c-b1e612c68ca8","system_id":"levelo_inurba_marseille","lat":43.29631,"lon":5.40594,"is_reserved":false,"is_disabled":false,"rental_uris":{"android":"levelo://app?vid=bcd78ce9-5465-45f7-ac5c-b1e612c68ca8","ios":"levelo://app?vid=bcd78ce9-5465-45f7-ac5c-b1e612c68ca8"},"vehicle_type_id":"4","last_reported":1761563404,"current_range_meters":22800,"station_id":"ce4bh0h2rcd13ifvqd60","pricing_plan_id":"cebpf4jnsgd1na2vs0mg"},{"bike_id":"ff46e116-b451-466b-9405-8b88e3cc412c","system_id":"levelo_inurba_marseille","lat":43.2621,"lon":5.37439,"is_reserved":false,"is_disabled":false,"rental_uris":{"android":"levelo://app?vid=ff46e116-b451-466b-9405-8b88e3cc412c","ios":"levelo://app?vid=ff46e116-b451-466b-9405-8b88e3cc412c"},"vehicle_type_id":"4","last_reported":1761563404,"current_range_meters":23200,"station_id":"ce4bhgp2rcd13ifvqfc0","pricing_plan_id":"cebpf4jnsgd1na2vs0mg"},{"bike_id":"22e116be-13d7-470e-9fca-525004ad7cf3","system_id":"levelo_inurba_marseille","lat":43.27309,"lon":5.3908,"is_reserved":false,"is_disabled":false,"rental_uris":{"android":"levelo://app?vid=22e116be-13d7-470e-9fca-525004ad7cf3","ios":"levelo://app?vid=22e116be-13d7-470e-9fca-525004ad7cf3"},"vehicle_type_id":"4","last_reported":1761563404,"current_range_meters":23200,"station_id":"ce4bhgp2rcd13ifvqfe0","pricing_plan_id":"cebpf4jnsgd1na2vs0mg"},{"bike_id":"06e1f881-984a-4cb2-a1b8-1f7192a8f772","system_id":"levelo_inurba_marseille","lat":43.27942,"lon":5.41044,"is_reserved":false,"is_disabled":false,"rental_uris":{"android":"levelo://app?vid=06e1f881-984a-4cb2-a1b8-1f7192a8f772","ios":"levelo://app?vid=06e1f881-984a-4cb2-a1b8-1f7192a8f772"},"vehicle_type_id":"4","last_reported":1761563404,"current_range_meters":23200,"station_id":"ce4bhnp2rcd13ifvqh0g","pricing_plan_id":"cebpf4jnsgd1na2vs0mg"},{"bike_id":"26fb1292-3795-47ce-9dba-5411522bb698","system_id":"levelo_inurba_marseille","lat":43.24071,"lon":5.37746,"is_reserved":false,"is_disabled":false,"rental_uris":{"android":"levelo://app?vid=26fb1292-3795-47ce-9dba-5411522bb698","ios":"levelo://app?vid=26fb1292-3795-47ce-9dba-5411522bb698"},"vehicle_type_id":"4","last_reported":1761563404,"current_range_meters":23200,"station_id":"ce4bhnp2rcd13ifvqgvg","pricing_plan_id":"cebpf4jnsgd1na2vs0mg"},