{"last_updated":1752660734,"ttl":60,"version":"2.2","data":{"bikes":[{"bike_id":"53b742a7-31ae-4272-9bba-7740339e2a2f","system_id":"levelo_inurba_marseille","lat":43.33747,"lon":5.37463,"is_reserved":false,"is_disabled":false,"rental_uris":{"android":"levelo://app?vid=53b742a7-31ae-4272-9bba-7740339e2a2f","ios":"levelo://app?vid=53b742a7-31ae-4272-9bba-7740339e2a2f"},"vehicle_type_id":"1","last_reported":1752660735,"current_range_meters":29600,"station_id":"","pricing_plan_id":"cebpf4jnsgd1na2vs0mg"},{"bike_id":"595080bd-6cc9-4518-9a75-681d13b84028","system_id":"levelo_inurba_marseille","lat":43.297275,"lon":5.377199,"is_reserved":false,"is_disabled":false,"rental_uris":{"android":"levelo://app?vid=595080bd-6cc9-4518-9a75-681d13b84028","ios":"levelo://app?vid=595080bd-6cc9-4518-9a75-681d13b84028"},"vehicle_type_id":"4","last_reported":1752660735,"current_range_meters":2800,"station_id":"","pricing_plan_id":"cebpf4jnsgd1na2vs0mg"},{"bike_id":"81eb016e-2a08-4e61-9703-e47413e3c831","system_id":"levelo_inurba_marseille","lat":43.22512,"lon":5.34828,"is_reserved":false,"is_disabled":false,"rental_uris":{"android":"levelo://app?vid=81eb016e-2a08-4e61-9703-e47413e3c831","ios":"levelo://app?vid=81eb016e-2a08-4e61-9703-e47413e3c831"},"vehicle_type_id":"4","last_reported":1752660735,"current_range_meters":2800,"station_id":"st_cvj5dfep6f1abm77gieg","pricing_plan_id":"cebpf4jnsgd1na2vs0mg"},{"bike_id":"52707f90-74e8-4775-a13b-a7050dba178a","system_id":"levelo_inurba_marseille","lat":43.25576,"lon":5.38266,"is_reserved":false,"is_disabled":false,"rental_uris":{"android":"levelo://app?vid=52707f90-74e8-4775-a13b-a7050dba178a","ios":"levelo://app?vid=52707f90-74e8-4775-a13b-a7050dba178a"},"vehicle_type_id":"4","last_reported":1752660735,"current_range_meters":2800,"station_id":"ce4bhih2rcd13ifvqfs0","pricing_plan_id":"cebpf4jnsgd1na2vs0mg"},{"bike_id":"0517f226-9c35-473e-b2c6-52179b326362","system_id":"levelo_inurba_marseille","lat":43.282639,"lon":5.350543,"is_reserved":false,"is_disabled":false,"rental_uris":{"android":"levelo://app?vid=0517f226-9c35-473e-b2c6-52179b326362","ios":"levelo://app?vid=0517f226-9c35-473e-b2c6-52179b326362"},"vehicle_type_id":"4","last_reported":1752660735,"current_range_meters":4000,"station_id":"","pricing_plan_id":"cebpf4jnsgd1na2vs0mg"},{"bike_id":"9900ce30-acf5-4ce9-8911-e367a415afd9","system_id":"levelo_inurba_marseille","lat":43.28971,"lon":5.3784,"is_reserved":false,"is_disabled":false,"rental_uris":{"android":"levelo://app?vid=9900ce30-acf5-4ce9-8911-e367a415afd9","ios":"levelo://app?vid=9900ce30-acf5-4ce9-8911-e367a415afd9"},"vehicle_type_id":"4","last_reported":1752660735,"current_range_meters":4000,"station_id":"ce4bh9p2rcd13ifvqed0","pricing_plan_id":"cebpf4jnsgd1na2vs0mg"},{"bike_id":"afb4a4da-8392-4e49-9997-16fc997f05e9","system_id":"levelo_inurba_marseille","lat":43.257176,"lon":5.41117,"is_reserved":false,"is_disabled":false,"rental_uris":{"android":"levelo://app?vid=afb4a4da-8392-4e49-9997-16fc997f05e9","ios":"levelo://app?vid=afb4a4da-8392-4e49-9997-16fc997f05e9"},"vehicle_type_id":"4","last_reported":1752660735,"current_range_meters":4000,"station_id":"ce4bhkp2rcd13ifvqgd0","pricing_plan_id":"cebpf4jnsgd1na2vs0mg"},{"bike_id":"6368de16-d144-4f73-833e-ca19d2aeee12","system_id":"levelo_inurba_marseille","lat":43.22531,"lon":5.34767,"is_reserved":false,"is_disabled":false,"rental_uris":{"android":"levelo://app?vid=6368de16-d144-4f73-833e-ca19d2aeee12","ios":"levelo://app?vid=6368de16-d144-4f73-833e-ca19d2aeee12"},"vehicle_type_id":"4","last_reported":1752660735,"current_range_meters":4400,"station_id":"st_cvj5dfep6f1abm77gieg","pricing_plan_id":"cebpf4jnsgd1na2vs0mg"},{"bike_id":"bebd60d1-65a1-476d-b953-8601ee8a1ae5","system_id":"levelo_inurba_marseille","lat":43.22928,"lon":5.35364,"is_reserved":false,"is_disabled":false,"rental_uris":{"android":"levelo://app?vid=bebd60d1-65a1-476d-b953-8601ee8a1ae5","ios":"levelo://app?vid=bebd60d1-65a1-476d-b953-8601ee8a1ae5"},"vehicle_type_id":"4","last_reported":1752660735,"current_range_meters":4400,"station_id":"cpo3532slgdg3j2ikp40","pricing_plan_id":"cebpf4jnsgd1na2vs0mg"},{"bike_id":"10c10861-e7b8-4ba2-ad12-a34f438a5ffd","system_id":"levelo_inurba_marseille","lat":43.309,"lon":5.36853,"is_reserved":false,"is_disabled":false,"rental_uris":{"android":"levelo://app?vid=10c10861-e7b8-4ba2-ad12-a34f438a5ffd","ios":"levelo://app?vid=10c10861-e7b8-4ba2-ad12-a34f438a5ffd"},"vehicle_type_id":"4","last_reported":1752660735,"current_range_meters":4800,"station_id":"ce4bgn92rcd13ifvqbvg","pricing_plan_id":"cebpf4jnsgd1na2vs0mg"},{"bike_id":"17c934c0-f0d3-4eb2-aeff-ba8dd88e16b8","system_id":"levelo_inurba_marseille","lat":43.292534,"lon":5.376396,"is_reserved":false,"is_disabled":false,"rental_uris":{"android":"levelo://app?vid=17c934c0-f0d3-4eb2-aeff-ba8dd88e16b8","ios":"levelo://app?vid=17c934c0-f0d3-4eb2-aeff-ba8dd88e16b8"},"vehicle_type_id":"4","last_reported":1752660735,"current_range_meters":4800,"station_id":"","pricing_plan_id":"cebpf4jnsgd1na2vs0mg"},{"bike_id":"9e22eac6-6361-476a-badf-ae6078f362bb","system_id":"levelo_inurba_marseille","lat":43.26933,"lon":5.38922,"is_reserved":false,"is_disabled":false,"rental_uris":{"android":"levelo://app?vid=9e22eac6-6361-476a-badf-ae6078f362bb","ios":"levelo://app?vid=9e22eac6-6361-476a-badf-ae6078f362bb"},"vehicle_type_id":"4","last_reported":1752660735,"current_range_meters":4800,"station_id":"ce4bhhh2rcd13ifvqfl0","pricing_plan_id":"cebpf4jnsgd1na2vs0mg"},{"bike_id":"05607a54-8270-41a3-91c6-6232bcb1075e","system_id":"levelo_inurba_marseille","lat":43.27207,"lon":5.39176,"is_reserved":false,"is_disabled":false,"rental_uris":{"android":"levelo://app?vid=05607a54-8270-41a3-91c6-6232bcb1075e","ios":"levelo://app?vid=05607a54-8270-41a3-91c6-6232bcb1075e"},"vehicle_type_id":"4","last_reported":1752660735,"current_range_meters":4800,"station_id":"ce4bhhp2rcd13ifvqfm0","pricing_plan_id":"cebpf4jnsgd1na2vs0mg"},{"bike_id":"56fdb07c-396f-4a09-a265-bd87c6e1d174","system_id":"levelo_inurba_marseille","lat":43.33612,"lon":5.41016,"is_reserved":false,"is_disabled":false,"rental_uris":{"android":"levelo://app?vid=56fdb07c-396f-4a09-a265-bd87c6e1d174","ios":"levelo://app?vid=56fdb07c-396f-4a09-a265-bd87c6e1d174"},"vehicle_type_id":"4","last_reported":1752660735,"current_range_meters":5600,"station_id":"ce4bhqh2rcd13ifvqhmg","pricing_plan_id":"cebpf4jnsgd1na2vs0mg"},{"bike_id":"e60c63ed-56b2-4ed3-b2b9-1fec082689c8","system_id":"levelo_inurba_marseille","lat":43.26932,"lon":5.38933,"is_reserved":false,"is_disabled":false,"rental_uris":{"android":"levelo://app?vid=e60c63ed-56b2-4ed3-b2b9-1fec082689c8","ios":"levelo://app?vid=e60c63ed-56b2-4ed3-b2b9-1fec082689c8"},"vehicle_type_id":"4","last_reported":1752660735,"current_range_meters":6000,"station_id":"ce4bhhh2rcd13ifvqfl0","pricing_plan_id":"cebpf4jnsgd1na2vs0mg"},{"bike_id":"05b7a9d7-b279-4c58-82dc-dfe962c37cc6","system_id":"levelo_inurba_marseille","lat":43.21776,"lon":5.34631,"is_reserved":false,"is_disabled":false,"rental_uris":{"android":"levelo://app?vid=05b7a9d7-b279-4c58-82dc-dfe962c37cc6","ios":"levelo://app?vid=05b7a9d7-b279-4c58-82dc-dfe962c37cc6"},"vehicle_type_id":"4","last_reported":1752660735,"current_range_meters":6000,"station_id":"st_cvj6r9ubvosntc0bgbag","pricing_plan_id":"cebpf4jnsgd1na2vs0mg"},{"bike_id":"5c45cf5e-22b0-4bf5-83b5-366fccb7856f","system_id":"levelo_inurba_marseille","lat":43.29582,"lon":5.36737,"is_reserved":false,"is_disabled":false,"rental_uris":{"android":"levelo://app?vid=5c45cf5e-22b0-4bf5-83b5-366fccb7856f","ios":"levelo://app?vid=5c45cf5e-22b0-4bf5-83b5-366fccb7856f"},"vehicle_type_id":"4","last_reported":1752660735,"current_range_meters":6400,"station_id":"ce4bgph2rcd13ifvqc2g","pricing_plan_id":"cebpf4jnsgd1na2vs0mg"},{"bike_id":"de8dc9ab-c59f-4938-9d10-fb8c5d97ab5c","system_id":"levelo_inurba_marseille","lat":43.22932,"lon":5.353762,"is_reserved":false,"is_disabled":false,"rental_uris":{"android":"levelo://app?vid=de8dc9ab-c59f-4938-9d10-fb8c5d97ab5c","ios":"levelo://app?vid=de8dc9ab-c59f-4938-9d10-fb8c5d97ab5c"},"vehicle_type_id":"4","last_reported":1752660735,"current_range_meters":6400,"station_id":"cpo3532slgdg3j2ikp40","pricing_plan_id":"cebpf4jnsgd1na2vs0mg"},{"bike_id":"6c80601b-38ed-4ad9-b09b-408724cc78f3","system_id":"levelo_inurba_marseille","lat":43.30535,"lon":5.36557,"is_reserved":false,"is_disabled":false,"rental_uris":{"android":"levelo://app?vid=6c80601b-38ed-4ad9-b09b-408724cc78f3","ios":"levelo://app?vid=6c80601b-38ed-4ad9-b09b-408724cc78f3"},"vehicle_type_id":"4","last_reported":1752660735,"current_range_meters":6800,"station_id":"ce4bgs12rcd13ifvqcag","pricing_plan_id":"cebpf4jnsgd1na2vs0mg"},{"bike_id":"b731b493-bd47-4af5-b74f-84aaf532a7df","system_id":"levelo_inurba_marseille","lat":43.31342,"lon":5.3672,"is_reserved":false,"is_disabled":false,"rental_uris":{"android":"levelo://app?vid=b731b493-bd47-4af5-b74f-84aaf532a7df","ios":"levelo://app?vid=b731b493-bd47-4af5-b74f-84aaf532a7df"},"vehicle_type_id":"4","last_reported":1752660735,"current_range_meters":7200,"station_id":"ce4bgr92rcd13ifvqc6g","pricing_plan_id":"cebpf4jnsgd1na2vs0mg"},{"bike_id":"047759e6-22e1-4bd3-a4b9-9d3f2851d6c9","system_id":"levelo_inurba_marseille","lat":43.30314,"lon":5.36897,"is_reserved":false,"is_disabled":false,"rental_uris":{"android":"levelo://app?vid=047759e6-22e1-4bd3-a4b9-9d3f2851d6c9","ios":"levelo://app?vid=047759e6-22e1-4bd3-a4b9-9d3f2851d6c9"},"vehicle_type_id":"4","last_reported":1752660735,"current_range_meters":7200,"station_id":"ce4bgqh2rcd13ifvqc5g","pricing_plan_id":"cebpf4jnsgd1na2vs0mg"},{"bike_id":"19aa427c-af28-4982-9225-b28cf6a3f1a3","system_id":"levelo_inurba_marseille","lat":43.326503,"lon":5.392099,"is_reserved":false,"is_disabled":false,"rental_uris":{"android":"levelo://app?vid=19aa427c-af28-4982-9225-b28cf6a3f1a3","ios":"levelo://app?vid=19aa427c-af28-4982-9225-b28cf6a3f1a3"},"vehicle_type_id":"4","last_reported":1752660735,"current_range_meters":7200,"station_id":"","pricing_plan_id":"cebpf4jnsgd1na2vs0mg"},{"bike_id":"084eace8-045f-4012-9455-c501cad7ce10","system_id":"levelo_inurba_marseille","lat":43.225067,"lon":5.347755,"is_reserved":false,"is_disabled":false,"rental_uris":{"android":"levelo://app?vid=084eace8-045f-4012-9455-c501cad7ce10","ios":"levelo://app?vid=084eace8-045f-4012-9455-c501cad7ce10"},"vehicle_type_id":"4","last_reported":1752660735,"current_range_meters":7200,"station_id":"st_cvj5dfep6f1abm77gieg","pricing_plan_id":"cebpf4jnsgd1na2vs0mg"},{"bike_id":"99d50ea3-2426-47f1-95f4-7c4819fe3299","system_id":"levelo_inurba_marseille","lat":43.29781,"lon":5.3811,"is_reserved":false,"is_disabled":false,"rental_uris":{"android":"levelo://app?vid=99d50ea3-2426-47f1-95f4-7c4819fe3299","ios":"levelo://app?vid=99d50ea3-2426-47f1-95f4-7c4819fe3299"},"vehicle_type_id":"4","last_reported":1752660735,"current_range_meters":7200,"station_id":"ce4bgip2rcd13ifvqbb0","pricing_plan_id":"cebpf4jnsgd1na2vs0mg"},{"bike_id":"967b380d-1f0e-4435-873e-763674670725","system_id":"levelo_inurba_marseille","lat":43.25116,"lon":5.40315,"is_reserved":false,"is_disabled":false,"rental_uris":{"android":"levelo://app?vid=967b380d-1f0e-4435-873e-763674670725","ios":"levelo://app?vid=967b380d-1f0e-4435-873e-763674670725"},"vehicle_type_id":"4","last_reported":1752660735,"current_range_meters":7200,"station_id":"ce4bhlh2rcd13ifvqgig","pricing_plan_id":"cebpf4jnsgd1na2vs0mg"},{"bike_id":"e2f2f893-16c7-42e5-8c51-893940a1136e","system_id":"levelo_inurba_marseille","lat":43.30094,"lon":5.36873,"is_reserved":false,"is_disabled":false,"rental_uris":{"android":"levelo://app?vid=e2f2f893-16c7-42e5-8c51-893940a1136e","ios":"levelo://app?vid=e2f2f893-16c7-42e5-8c51-893940a1136e"},"vehicle_type_id":"4","last_reported":1752660735,"current_range_meters":8000,"station_id":"","pricing_plan_id":"cebpf4jnsgd1na2vs0mg"},{"bike_id":"892165f6-25a5-4f0a-a9a6-cf4efe50c3be","system_id":"levelo_inurba_marseille","lat":43.24843,"lon":5.42533,"is_reserved":false,"is_disabled":false,"rental_uris":{"android":"levelo://app?vid=892165f6-25a5-4f0a-a9a6-cf4efe50c3be","ios":"levelo://app?vid=892165f6-25a5-4f0a-a9a6-cf4efe50c3be"},"vehicle_type_id":"4","last_reported":1752660735,"current_range_meters":8000,"station_id":"","pricing_plan_id":"cebpf4jnsgd1na2vs0mg"},{"bike_id":"413d3779-0baa-44d0-8b50-e869b1458adf","system_id":"levelo_inurba_marseille","lat":43.26587,"lon":5.39483,"is_reserved":false,"is_disabled":false,"rental_uris":{"android":"levelo://app?vid=413d3779-0baa-44d0-8b50-e869b1458adf","ios":"levelo://app?vid=413d3779-0baa-44d0-8b50-e869b1458adf"},"vehicle_type_id":"4","last_reported":1752660735,"current_range_meters":8000,"station_id":"","pricing_plan_id":"cebpf4jnsgd1na2vs0mg"},{"bike_id":"45dd7a3f-bb5c-42a7-b86e-d49c17c5e1ab","system_id":"levelo_inurba_marseille","lat":43.323633,"lon":5.38884,"is_reserved":false,"is_disabled":false,"rental_uris":{"android":"levelo://app?vid=45dd7a3f-bb5c-42a7-b86e-d49c17c5e1ab","ios":"levelo://app?vid=45dd7a3f-bb5c-42a7-b86e-d49c17c5e1ab"},"vehicle_type_id":"4","last_reported":1752660735,"current_range_meters":8000,"station_id":"ce4bhqp2rcd13ifvqhog","pricing_plan_id":"cebpf4jnsgd1na2vs0mg"},{"bike_id":"dbc64a30-186c-4b72-9422-bc83ab0aef1f","system_id":"levelo_inurba_marseille","lat":43.2827,"lon":5.3507,"is_reserved":false,"is_disabled":false,"rental_uris":{"android":"levelo://app?vid=dbc64a30-186c-4b72-9422-bc83ab0aef1f","ios":"levelo://app?vid=dbc64a30-186c-4b72-9422-bc83ab0aef1f"},"vehicle_type_id":"4","last_reported":1752660735,"current_range_meters":8000,"station_id":"ce4bhbp2rcd13ifvqerg","pricing_plan_id":"cebpf4jnsgd1na2vs0mg"},{"bike_id":"5aa1d555-a8b5-48de-9366-2a4446d71308","system_id":"levelo_inurba_marseille","lat":43.31369,"lon":5.3672,"is_reserved":false,"is_disabled":false,"rental_uris":{"android":"levelo://app?vid=5aa1d555-a8b5-48de-9366-2a4446d71308","ios":"levelo://app?vid=5aa1d555-a8b5-48de-9366-2a4446d71308"},"vehicle_type_id":"4","last_reported":1752660735,"current_range_meters":8400,"station_id":"ce4bgr92rcd13ifvqc6g","pricing_plan_id":"cebpf4jnsgd1na2vs0mg"},{"bike_id":"4b6f554b-3f03-4b8d-9377-52b0d17097b1","system_id":"levelo_inurba_marseille","lat":43.269016,"lon":5.403097,"is_reserved":false,"is_disabled":false,"rental_uris":{"android":"levelo://app?vid=4b6f554b-3f03-4b8d-9377-52b0d17097b1","ios":"levelo://app?vid=4b6f554b-3f03-4b8d-9377-52b0d17097b1"},"vehicle_type_id":"4","last_reported":1752660735,"current_range_meters":8400,"station_id":"ce4bhk92rcd13ifvqgc0","pricing_plan_id":"cebpf4jnsgd1na2vs0mg"},{"bike_id":"5df2d5f3-b404-433f-af34-7d8db65b99bc","system_id":"levelo_inurba_marseille","lat":43.32358,"lon":5.4063,"is_reserved":false,"is_disabled":false,"rental_uris":{"android":"levelo://app?vid=5df2d5f3-b404-433f-af34-7d8db65b99bc","ios":"levelo://app?vid=5df2d5f3-b404-433f-af34-7d8db65b99bc"},"vehicle_type_id":"4","last_reported":1752660735,"current_range_meters":8400,"station_id":"ce4bhq92rcd13ifvqhjg","pricing_plan_id":"cebpf4jnsgd1na2vs0mg"},{"bike_id":"d06041a0-3617-4540-978c-8cb156ceb548","system_id":"levelo_inurba_marseille","lat":43.32096,"lon":5.36802,"is_reserved":false,"is_disabled":false,"rental_uris":{"android":"levelo://app?vid=d06041a0-3617-4540-978c-8cb156ceb548","ios":"levelo://app?vid=d06041a0-3617-4540-978c-8cb156ceb548"},"vehicle_type_id":"4","last_reported":1752660735,"current_range_meters":8800,"station_id":"ce4bhrh2rcd13ifvqhug","pricing_plan_id":"cebpf4jnsgd1na2vs0mg"},{"bike_id":"e5ec4b25-dbcc-42eb-bf86-2cca309a0b15","system_id":"levelo_inurba_marseille","lat":43.264945,"lon":5.395365,"is_reserved":false,"is_disabled":false,"rental_uris":{"android":"levelo://app?vid=e5ec4b25-dbcc-42eb-bf86-2cca309a0b15","ios":"levelo://app?vid=e5ec4b25-dbcc-42eb-bf86-2cca309a0b15"},"vehicle_type_id":"4","last_reported":1752660735,"current_range_meters":8800,"station_id":"","pricing_plan_id":"cebpf4jnsgd1na2vs0mg"},{"bike_id":"1539c758-810f-4960-bef2-61c980c07063","system_id":"levelo_inurba_marseille","lat":43.2862,"lon":5.35106,"is_reserved":false,"is_disabled":false,"rental_uris":{"android":"levelo://app?vid=1539c758-810f-4960-bef2-61c980c07063","ios":"levelo://app?vid=1539c758-810f-4960-bef2-61c980c07063"},"vehicle_type_id":"4","last_reported":1752660735,"current_range_meters":8800,"station_id":"ce4bhch2rcd13ifvqeug","pricing_plan_id":"cebpf4jnsgd1na2vs0mg"},{"bike_id":"8578488d-4cad-4eae-9847-199b23807f33","system_id":"levelo_inurba_marseille","lat":43.27371,"lon":5.36262,"is_reserved":false,"is_disabled":false,"rental_uris":{"android":"levelo://app?vid=8578488d-4cad-4eae-9847-199b23807f33","ios":"levelo://app?vid=8578488d-4cad-4eae-9847-199b23807f33"},"vehicle_type_id":"4","last_reported":1752660735,"current_range_meters":9200,"station_id":"ce4bhbh2rcd13ifvqeo0","pricing_plan_id":"cebpf4jnsgd1na2vs0mg"},{"bike_id":"15bcaff5-0a28-4b81-aee1-f8e3090153d0","system_id":"levelo_inurba_marseille","lat":43.31398,"lon":5.36712,"is_reserved":false,"is_disabled":false,"rental_uris":{"android":"levelo://app?vid=15bcaff5-0a28-4b81-aee1-f8e3090153d0","ios":"levelo://app?vid=15bcaff5-0a28-4b81-aee1-f8e3090153d0"},"vehicle_type_id":"4","last_reported":1752660735,"current_range_meters":9200,"station_id":"","pricing_plan_id":"cebpf4jnsgd1na2vs0mg"},{"bike_id":"1fc7ba43-795e-4d4d-b4b4-3da29eb47bcf","system_id":"levelo_inurba_marseille","lat":43.2756,"lon":5.38417,"is_reserved":false,"is_disabled":true,"rental_uris":{"android":"levelo://app?vid=1fc7ba43-795e-4d4d-b4b4-3da29eb47bcf","ios":"levelo://app?vid=1fc7ba43-795e-4d4d-b4b4-3da29eb47bcf"},"vehicle_type_id":"4","last_reported":1752660735,"current_range_meters":9200,"station_id":"ce4bhh92rcd13ifvqfi0","pricing_plan_id":"cebpf4jnsgd1na2vs0mg"},{"bike_id":"6a778f6a-260b-474f-a065-5f744567af13","system_id":"levelo_inurba_marseille","lat":43.29225,"lon":5.36051,"is_reserved":false,"is_disabled":false,"rental_uris":{"android":"levelo://app?vid=6a778f6a-260b-474f-a065-5f744567af13","ios":"levelo://app?vid=6a778f6a-260b-474f-a065-5f744567af13"},"vehicle_type_id":"4","last_reported":1752660735,"current_range_meters":9200,"station_id":"ce4bhbh2rcd13ifvqeqg","pricing_plan_id":"cebpf4jnsgd1na2vs0mg"},{"bike_id":"4409158c-0e42-4505-b036-6f038dda32f6","system_id":"levelo_inurba_marseille","lat":43.30537,"lon":5.3656,"is_reserved":false,"is_disabled":false,"rental_uris":{"android":"levelo://app?vid=4409158c-0e42-4505-b036-6f038dda32f6","ios":"levelo://app?vid=4409158c-0e42-4505-b036-6f038dda32f6"},"vehicle_type_id":"4","last_reported":1752660735,"current_range_meters":9600,"station_id":"ce4bgs12rcd13ifvqcag","pricing_plan_id":"cebpf4jnsgd1na2vs0mg"},{"bike_id":"38193aff-d8cf-464e-98b9-b38895efd882","system_id":"levelo_inurba_marseille","lat":43.21757,"lon":5.34603,"is_reserved":false,"is_disabled":false,"rental_uris":{"android":"levelo://app?vid=38193aff-d8cf-464e-98b9-b38895efd882","ios":"levelo://app?vid=38193aff-d8cf-464e-98b9-b38895efd882"},"vehicle_type_id":"4","last_reported":1752660735,"current_range_meters":9600,"station_id":"","pricing_plan_id":"cebpf4jnsgd1na2vs0mg"},{"bike_id":"23172215-d7ef-4192-8a12-56eb8fd149c8","system_id":"levelo_inurba_marseille","lat":43.286089,"lon":5.351016,"is_reserved":false,"is_disabled":false,"rental_uris":{"android":"levelo://app?vid=23172215-d7ef-4192-8a12-56eb8fd149c8","ios":"levelo://app?vid=23172215-d7ef-4192-8a12-56eb8fd149c8"},"vehicle_type_id":"4","last_reported":1752660735,"current_range_meters":9600,"station_id":"ce4bhch2rcd13ifvqeug","pricing_plan_id":"cebpf4jnsgd1na2vs0mg"},{"bike_id":"6e76e946-00e3-43d3-9158-daf270b36c3b","system_id":"levelo_inurba_marseille","lat":43.26995,"lon":5.38764,"is_reserved":false,"is_disabled":false,"rental_uris":{"android":"levelo://app?vid=6e76e946-00e3-43d3-9158-daf270b36c3b","ios":"levelo://app?vid=6e76e946-00e3-43d3-9158-daf270b36c3b"},"vehicle_type_id":"4","last_reported":1752660735,"current_range_meters":9600,"station_id":"","pricing_plan_id":"cebpf4jnsgd1na2vs0mg"},{"bike_id":"f39a3268-269f-4fea-bdc7-b800aa9e7b1a","system_id":"levelo_inurba_marseille","lat":43.32006,"lon":5.38148,"is_reserved":false,"is_disabled":false,"rental_uris":{"android":"levelo://app?vid=f39a3268-269f-4fea-bdc7-b800aa9e7b1a","ios":"levelo://app?vid=f39a3268-269f-4fea-bdc7-b800aa9e7b1a"},"vehicle_type_id":"4","last_reported":1752660735,"current_range_meters":9600,"station_id":"ce4bhr12rcd13ifvqhpg","pricing_plan_id":"cebpf4jnsgd1na2vs0mg"},{"bike_id":"6ac57016-4ff6-44b9-8745-89516c09d880","system_id":"levelo_inurba_marseille","lat":43.23179,"lon":5.39993,"is_reserved":false,"is_disabled":false,"rental_uris":{"android":"levelo://app?vid=6ac57016-4ff6-44b9-8745-89516c09d880","ios":"levelo://app?vid=6ac57016-4ff6-44b9-8745-89516c09d880"},"vehicle_type_id":"4","last_reported":1752660735,"current_range_meters":9600,"station_id":"ce4bhn12rcd13ifvqgqg","pricing_plan_id":"cebpf4jnsgd1na2vs0mg"},{"bike_id":"aa0f7bbc-d0bf-45d3-a8f4-2ba41837547a","system_id":"levelo_inurba_marseille","lat":43.225007,"lon":5.34784,"is_reserved":false,"is_disabled":false,"rental_uris":{"android":"levelo://app?vid=aa0f7bbc-d0bf-45d3-a8f4-2ba41837547a","ios":"levelo://app?vid=aa0f7bbc-d0bf-45d3-a8f4-2ba41837547a"},"vehicle_type_id":"4","last_reported":1752660735,"current_range_meters":10000,"station_id":"st_cvj5dfep6f1abm77gieg","pricing_plan_id":"cebpf4jnsgd1na2vs0mg"},{"bike_id":"89bf8736-0e4c-436e-8b7f-a90286b4886b","system_id":"levelo_inurba_marseille","lat":43.331428,"lon":5.381683,"is_reserved":false,"is_disabled":false,"rental_uris":{"android":"levelo://app?vid=89bf8736-0e4c-436e-8b7f-a90286b4886b","ios":"levelo://app?vid=89bf8736-0e4c-436e-8b7f-a90286b4886b"},"vehicle_type_id":"4","last_reported":1752660735,"current_range_meters":10000,"station_id":"","pricing_plan_id":"cebpf4jnsgd1na2vs0mg"},{"bike_id":"51396765-9ad0-4d1d-a813-68fff86b2907","system_id":"levelo_inurba_marseille","lat":43.30451,"lon":5.3669,"is_reserved":false,"is_disabled":false,"rental_uris":{"android":"levelo://app?vid=51396765-9ad0-4d1d-a813-68fff86b2907","ios":"levelo://app?vid=51396765-9ad0-4d1d-a813-68fff86b2907"},"vehicle_type_id":"4","last_reported":1752660735,"current_range_meters":10000,"station_id":"","pricing_plan_id":"cebpf4jnsgd1na2vs0mg"},{"bike_id":"69a89f44-1b34-4fd0-a0e6-00294a8713e8","system_id":"levelo_inurba_marseille","lat":43.31346,"lon":5.36727,"is_reserved":false,"is_disabled":false,"rental_uris":{"android":"levelo://app?vid=69a89f44-1b34-4fd0-a0e6-00294a8713e8","ios":"levelo://app?vid=69a89f44-1b34-4fd0-a0e6-00294a8713e8"},"vehicle_type_id":"4","last_reported":1752660735,"current_range_meters":10000,"station_id":"ce4bgr92rcd13ifvqc6g","pricing_plan_id":"cebpf4jnsgd1na2vs0mg"},{"bike_id":"5136a044-e011-47d4-86ee-aa51466ca6b1","system_id":"levelo_inurba_marseille","lat":43.29211,"lon":5.36048,"is_reserved":false,"is_disabled":false,"rental_uris":{"android":"levelo://app?vid=5136a044-e011-47d4-86ee-aa51466ca6b1","ios":"levelo://app?vid=5136a044-e011-47d4-86ee-aa51466ca6b1"},"vehicle_type_id":"4","last_reported":1752660735,"current_range_meters":10000,"station_id":"ce4bhbh2rcd13ifvqeqg","pricing_plan_id":"cebpf4jnsgd1na2vs0mg"},{"bike_id":"5620b388-078b-4a94-959e-8dac7e666363","system_id":"levelo_inurba_marseille","lat":43.279979,"lon":5.400041,"is_reserved":false,"is_disabled":false,"rental_uris":{"android":"levelo://app?vid=5620b388-078b-4a94-959e-8dac7e666363","ios":"levelo://app?vid=5620b388-078b-4a94-959e-8dac7e666363"},"vehicle_type_id":"4","last_reported":1752660735,"current_range_meters":10000,"station_id":"","pricing_plan_id":"cebpf4jnsgd1na2vs0mg"},{"bike_id":"c7dae4b3-3c48-4c1f-b2bd-2b587be62e22","system_id":"levelo_inurba_marseille","lat":43.29288,"lon":5.37467,"is_reserved":false,"is_disabled":false,"rental_uris":{"android":"levelo://app?vid=c7dae4b3-3c48-4c1f-b2bd-2b587be62e22","ios":"levelo://app?vid=c7dae4b3-3c48-4c1f-b2bd-2b587be62e22"},"vehicle_type_id":"4","last_reported":1752660735,"current_range_meters":10000,"station_id":"ce4bgi12rcd13ifvqb70","pricing_plan_id":"cebpf4jnsgd1na2vs0mg"},{"bike_id":"9e54f3b7-f319-4429-a983-963f349d6557","system_id":"levelo_inurba_marseille","lat":43.317025,"lon":5.377556,"is_reserved":false,"is_disabled":false,"rental_uris":{"android":"levelo://app?vid=9e54f3b7-f319-4429-a983-963f349d6557","ios":"levelo://app?vid=9e54f3b7-f319-4429-a983-963f349d6557"},"vehicle_type_id":"4","last_reported":1752660735,"current_range_meters":10000,"station_id":"ce4bgth2rcd13ifvqch0","pricing_plan_id":"cebpf4jnsgd1na2vs0mg"},{"bike_id":"d98ef30e-38a0-41ef-a00a-304afa979a1e","system_id":"levelo_inurba_marseille","lat":43.29899,"lon":5.43661,"is_reserved":false,"is_disabled":true,"rental_uris":{"android":"levelo://app?vid=d98ef30e-38a0-41ef-a00a-304afa979a1e","ios":"levelo://app?vid=d98ef30e-38a0-41ef-a00a-304afa979a1e"},"vehicle_type_id":"4","last_reported":1752660735,"current_range_meters":10800,"station_id":"ce4bhpp2rcd13ifvqhfg","pricing_plan_id":"cebpf4jnsgd1na2vs0mg"},{"bike_id":"c976a6cc-f8e3-4593-b522-f233edc3013e","system_id":"levelo_inurba_marseille","lat":43.29263,"lon":5.37624,"is_reserved":false,"is_disabled":false,"rental_uris":{"android":"levelo://app?vid=c976a6cc-f8e3-4593-b522-f233edc3013e","ios":"levelo://app?vid=c976a6cc-f8e3-4593-b522-f233edc3013e"},"vehicle_type_id":"4","last_reported":1752660735,"current_range_meters":10800,"station_id":"ce4bgi12rcd13ifvqb80","pricing_plan_id":"cebpf4jnsgd1na2vs0mg"},{"bike_id":"48600688-f1bd-43c3-830d-e9e1b1078d02","system_id":"levelo_inurba_marseille","lat":43.225043,"lon":5.347844,"is_reserved":false,"is_disabled":false,"rental_uris":{"android":"levelo://app?vid=48600688-f1bd-43c3-830d-e9e1b1078d02","ios":"levelo://app?vid=48600688-f1bd-43c3-830d-e9e1b1078d02"},"vehicle_type_id":"4","last_reported":1752660735,"current_range_meters":10800,"station_id":"st_cvj5dfep6f1abm77gieg","pricing_plan_id":"cebpf4jnsgd1na2vs0mg"},{"bike_id":"ebfbf557-fa7c-443f-93b7-71a856f308cb","system_id":"levelo_inurba_marseille","lat":43.2972,"lon":5.37806,"is_reserved":false,"is_disabled":false,"rental_uris":{"android":"levelo://app?vid=ebfbf557-fa7c-443f-93b7-71a856f308cb","ios":"levelo://app?vid=ebfbf557-fa7c-443f-93b7-71a856f308cb"},"vehicle_type_id":"4","last_reported":1752660735,"current_range_meters":10800,"station_id":"","pricing_plan_id":"cebpf4jnsgd1na2vs0mg"},{"bike_id":"b5886712-827e-4e42-ae0a-fd111ae9e64f","system_id":"levelo_inurba_marseille","lat":43.30422,"lon":5.41291,"is_reserved":false,"is_disabled":false,"rental_uris":{"android":"levelo://app?vid=b5886712-827e-4e42-ae0a-fd111ae9e64f","ios":"levelo://app?vid=b5886712-827e-4e42-ae0a-fd111ae9e64f"},"vehicle_type_id":"4","last_reported":1752660735,"current_range_meters":10800,"station_id":"ce4bhop2rcd13ifvqh8g","pricing_plan_id":"cebpf4jnsgd1na2vs0mg"},{"bike_id":"adfe475e-4fad-42ce-985f-b88b312e5e64","system_id":"levelo_inurba_marseille","lat":43.29447,"lon":5.375399,"is_reserved":false,"is_disabled":false,"rental_uris":{"android":"levelo://app?vid=adfe475e-4fad-42ce-985f-b88b312e5e64","ios":"levelo://app?vid=adfe475e-4fad-42ce-985f-b88b312e5e64"},"vehicle_type_id":"4","last_reported":1752660735,"current_range_meters":11200,"station_id":"","pricing_plan_id":"cebpf4jnsgd1na2vs0mg"},{"bike_id":"ec0f65bf-a4ca-445c-b1be-8ec497bd655f","system_id":"levelo_inurba_marseille","lat":43.29664,"lon":5.37294,"is_reserved":false,"is_disabled":false,"rental_uris":{"android":"levelo://app?vid=ec0f65bf-a4ca-445c-b1be-8ec497bd655f","ios":"levelo://app?vid=ec0f65bf-a4ca-445c-b1be-8ec497bd655f"},"vehicle_type_id":"4","last_reported":1752660735,"current_range_meters":11200,"station_id":"ce4bgk12rcd13ifvqbj0","pricing_plan_id":"cebpf4jnsgd1na2vs0mg"},{"bike_id":"74b4390d-0242-429b-b32a-0523a3e24ef3","system_id":"levelo_inurba_marseille","lat":43.25473,"lon":5.37626,"is_reserved":false,"is_disabled":false,"rental_uris":{"android":"levelo://app?vid=74b4390d-0242-429b-b32a-0523a3e24ef3","ios":"levelo://app?vid=74b4390d-0242-429b-b32a-0523a3e24ef3"},"vehicle_type_id":"4","last_reported":1752660735,"current_range_meters":11600,"station_id":"ce4bhh12rcd13ifvqff0","pricing_plan_id":"cebpf4jnsgd1na2vs0mg"},{"bike_id":"b733d901-5f75-4493-9960-b987b87cd8f7","system_id":"levelo_inurba_marseille","lat":43.22544,"lon":5.34833,"is_reserved":false,"is_disabled":false,"rental_uris":{"android":"levelo://app?vid=b733d901-5f75-4493-9960-b987b87cd8f7","ios":"levelo://app?vid=b733d901-5f75-4493-9960-b987b87cd8f7"},"vehicle_type_id":"4","last_reported":1752660735,"current_range_meters":11600,"station_id":"","pricing_plan_id":"cebpf4jnsgd1na2vs0mg"},{"bike_id":"a6d698b7-5121-4989-867f-fe72d33072b2","system_id":"levelo_inurba_marseille","lat":43.28354,"lon":5.38627,"is_reserved":false,"is_disabled":true,"rental_uris":{"android":"levelo://app?vid=a6d698b7-5121-4989-867f-fe72d33072b2","ios":"levelo://app?vid=a6d698b7-5121-4989-867f-fe72d33072b2"},"vehicle_type_id":"4","last_reported":1752660735,"current_range_meters":11600,"station_id":"ce4bh492rcd13ifvqdvg","pricing_plan_id":"cebpf4jnsgd1na2vs0mg"},{"bike_id":"a9790315-3594-43eb-8327-587c70315a15","system_id":"levelo_inurba_marseille","lat":43.30427,"lon":5.38901,"is_reserved":false,"is_disabled":false,"rental_uris":{"android":"levelo://app?vid=a9790315-3594-43eb-8327-587c70315a15","ios":"levelo://app?vid=a9790315-3594-43eb-8327-587c70315a15"},"vehicle_type_id":"4","last_reported":1752660735,"current_range_meters":12000,"station_id":"ce4bgk12rcd13ifvqbi0","pricing_plan_id":"cebpf4jnsgd1na2vs0mg"},{"bike_id":"11953d4b-0909-479a-86c6-84ac4f5effe5","system_id":"levelo_inurba_marseille","lat":43.24386,"lon":5.37061,"is_reserved":false,"is_disabled":false,"rental_uris":{"android":"levelo://app?vid=11953d4b-0909-479a-86c6-84ac4f5effe5","ios":"levelo://app?vid=11953d4b-0909-479a-86c6-84ac4f5effe5"},"vehicle_type_id":"4","last_reported":1752660735,"current_range_meters":12000,"station_id":"ce4bhhh2rcd13ifvqfk0","pricing_plan_id":"cebpf4jnsgd1na2vs0mg"},{"bike_id":"2dea1e72-5f49-4f71-8334-0b7b1b4fb68f","system_id":"levelo_inurba_marseille","lat":43.30522,"lon":5.36558,"is_reserved":false,"is_disabled":false,"rental_uris":{"android":"levelo://app?vid=2dea1e72-5f49-4f71-8334-0b7b1b4fb68f","ios":"levelo://app?vid=2dea1e72-5f49-4f71-8334-0b7b1b4fb68f"},"vehicle_type_id":"4","last_reported":1752660735,"current_range_meters":12000,"station_id":"ce4bgs12rcd13ifvqcag","pricing_plan_id":"cebpf4jnsgd1na2vs0mg"},{"bike_id":"18e63307-2e2f-4b10-807e-7a8ed91df0e5","system_id":"levelo_inurba_marseille","lat":43.305342,"lon":5.365486,"is_reserved":false,"is_disabled":false,"rental_uris":{"android":"levelo://app?vid=18e63307-2e2f-4b10-807e-7a8ed91df0e5","ios":"levelo://app?vid=18e63307-2e2f-4b10-807e-7a8ed91df0e5"},"vehicle_type_id":"4","last_reported":1752660735,"current_range_meters":12400,"station_id":"ce4bgs12rcd13ifvqcag","pricing_plan_id":"cebpf4jnsgd1na2vs0mg"},{"bike_id":"805c3226-5afa-4e8f-a27e-43a1923288b5","system_id":"levelo_inurba_marseille","lat":43.29694,"lon":5.377,"is_reserved":false,"is_disabled":false,"rental_uris":{"android":"levelo://app?vid=805c3226-5afa-4e8f-a27e-43a1923288b5","ios":"levelo://app?vid=805c3226-5afa-4e8f-a27e-43a1923288b5"},"vehicle_type_id":"4","last_reported":1752660735,"current_range_meters":12400,"station_id":"ce4bgkh2rcd13ifvqbl0","pricing_plan_id":"cebpf4jnsgd1na2vs0mg"},{"bike_id":"f82ea022-17aa-4cf3-be55-20026fbc5038","system_id":"levelo_inurba_marseille","lat":43.30916,"lon":5.3721,"is_reserved":false,"is_disabled":false,"rental_uris":{"android":"levelo://app?vid=f82ea022-17aa-4cf3-be55-20026fbc5038","ios":"levelo://app?vid=f82ea022-17aa-4cf3-be55-20026fbc5038"},"vehicle_type_id":"4","last_reported":1752660735,"current_range_meters":12400,"station_id":"ce4bguh2rcd13ifvqckg","pricing_plan_id":"cebpf4jnsgd1na2vs0mg"},{"bike_id":"54b283c6-c314-444c-b492-3e78ed7f2d30","system_id":"levelo_inurba_marseille","lat":43.32968,"lon":5.39069,"is_reserved":false,"is_disabled":false,"rental_uris":{"android":"levelo://app?vid=54b283c6-c314-444c-b492-3e78ed7f2d30","ios":"levelo://app?vid=54b283c6-c314-444c-b492-3e78ed7f2d30"},"vehicle_type_id":"4","last_reported":1752660735,"current_range_meters":12800,"station_id":"","pricing_plan_id":"cebpf4jnsgd1na2vs0mg"},{"bike_id":"0514b2b6-6eff-4ec5-9337-b373d7a8d804","system_id":"levelo_inurba_marseille","lat":43.293104,"lon":5.371793,"is_reserved":false,"is_disabled":false,"rental_uris":{"android":"levelo://app?vid=0514b2b6-6eff-4ec5-9337-b373d7a8d804","ios":"levelo://app?vid=0514b2b6-6eff-4ec5-9337-b373d7a8d804"},"vehicle_type_id":"4","last_reported":1752660735,"current_range_meters":12800,"station_id":"ce4bgh92rcd13ifvqb40","pricing_plan_id":"cebpf4jnsgd1na2vs0mg"},{"bike_id":"2e704519-e9fa-4ea3-9e82-340dba6b4b2e","system_id":"levelo_inurba_marseille","lat":43.25493,"lon":5.37646,"is_reserved":false,"is_disabled":false,"rental_uris":{"android":"levelo://app?vid=2e704519-e9fa-4ea3-9e82-340dba6b4b2e","ios":"levelo://app?vid=2e704519-e9fa-4ea3-9e82-340dba6b4b2e"},"vehicle_type_id":"4","last_reported":1752660735,"current_range_meters":12800,"station_id":"ce4bhh12rcd13ifvqff0","pricing_plan_id":"cebpf4jnsgd1na2vs0mg"},{"bike_id":"5d66e543-1138-48ae-a1d2-9241a10c7477","system_id":"levelo_inurba_marseille","lat":43.30885,"lon":5.39651,"is_reserved":false,"is_disabled":false,"rental_uris":{"android":"levelo://app?vid=5d66e543-1138-48ae-a1d2-9241a10c7477","ios":"levelo://app?vid=5d66e543-1138-48ae-a1d2-9241a10c7477"},"vehicle_type_id":"4","last_reported":1752660735,"current_range_meters":12800,"station_id":"ce4bh012rcd13ifvqcv0","pricing_plan_id":"cebpf4jnsgd1na2vs0mg"},{"bike_id":"2581d7c7-5af7-42f3-b1d5-339094da6df8","system_id":"levelo_inurba_marseille","lat":43.29325,"lon":5.37173,"is_reserved":false,"is_disabled":false,"rental_uris":{"android":"levelo://app?vid=2581d7c7-5af7-42f3-b1d5-339094da6df8","ios":"levelo://app?vid=2581d7c7-5af7-42f3-b1d5-339094da6df8"},"vehicle_type_id":"4","last_reported":1752660735,"current_range_meters":12800,"station_id":"ce4bgh92rcd13ifvqb40","pricing_plan_id":"cebpf4jnsgd1na2vs0mg"},{"bike_id":"4067f6c6-2295-4849-95b3-70f5a09cf757","system_id":"levelo_inurba_marseille","lat":43.30192,"lon":5.36627,"is_reserved":false,"is_disabled":false,"rental_uris":{"android":"levelo://app?vid=4067f6c6-2295-4849-95b3-70f5a09cf757","ios":"levelo://app?vid=4067f6c6-2295-4849-95b3-70f5a09cf757"},"vehicle_type_id":"4","last_reported":1752660735,"current_range_meters":12800,"station_id":"ce4bgrh2rcd13ifvqc8g","pricing_plan_id":"cebpf4jnsgd1na2vs0mg"},{"bike_id":"39662579-0de3-4e5e-897e-528f1ba04045","system_id":"levelo_inurba_marseille","lat":43.30419,"lon":5.412993,"is_reserved":false,"is_disabled":false,"rental_uris":{"android":"levelo://app?vid=39662579-0de3-4e5e-897e-528f1ba04045","ios":"levelo://app?vid=39662579-0de3-4e5e-897e-528f1ba04045"},"vehicle_type_id":"4","last_reported":1752660735,"current_range_meters":13600,"station_id":"ce4bhop2rcd13ifvqh8g","pricing_plan_id":"cebpf4jnsgd1na2vs0mg"},{"bike_id":"04c535c3-1433-4848-88c4-68cf5f956506","system_id":"levelo_inurba_marseille","lat":43.23196,"lon":5.35547,"is_reserved":false,"is_disabled":false,"rental_uris":{"android":"levelo://app?vid=04c535c3-1433-4848-88c4-68cf5f956506","ios":"levelo://app?vid=04c535c3-1433-4848-88c4-68cf5f956506"},"vehicle_type_id":"4","last_reported":1752660735,"current_range_meters":14000,"station_id":"ce4bhu92rcd13ifvqi70","pricing_plan_id":"cebpf4jnsgd1na2vs0mg"},{"bike_id":"0f47a07f-39c5-4fea-a0ee-56d71688ebb3","system_id":"levelo_inurba_marseille","lat":43.242452,"lon":5.369341,"is_reserved":false,"is_disabled":false,"rental_uris":{"android":"levelo://app?vid=0f47a07f-39c5-4fea-a0ee-56d71688ebb3","ios":"levelo://app?vid=0f47a07f-39c5-4fea-a0ee-56d71688ebb3"},"vehicle_type_id":"4","last_reported":1752660735,"current_range_meters":14000,"station_id":"","pricing_plan_id":"cebpf4jnsgd1na2vs0mg"},{"bike_id":"1c046620-fe08-4798-bd73-0afeb82d11ca","system_id":"levelo_inurba_marseille","lat":43.27175,"lon":5.40996,"is_reserved":false,"is_disabled":false,"rental_uris":{"android":"levelo://app?vid=1c046620-fe08-4798-bd73-0afeb82d11ca","ios":"levelo://app?vid=1c046620-fe08-4798-bd73-0afeb82d11ca"},"vehicle_type_id":"4","last_reported":1752660735,"current_range_meters":14000,"station_id":"ce4bhl12rcd13ifvqgf0","pricing_plan_id":"cebpf4jnsgd1na2vs0mg"},{"bike_id":"2b35441d-be12-43e5-8f1c-c4924e3cdace","system_id":"levelo_inurba_marseille","lat":43.24803,"lon":5.37453,"is_reserved":false,"is_disabled":false,"rental_uris":{"android":"levelo://app?vid=2b35441d-be12-43e5-8f1c-c4924e3cdace","ios":"levelo://app?vid=2b35441d-be12-43e5-8f1c-c4924e3cdace"},"vehicle_type_id":"4","last_reported":1752660735,"current_range_meters":14000,"station_id":"ce4bhgh2rcd13ifvqfb0","pricing_plan_id":"cebpf4jnsgd1na2vs0mg"},{"bike_id":"bc27a26e-b398-431b-881e-997fea45a2ad","system_id":"levelo_inurba_marseille","lat":43.280012,"lon":5.400082,"is_reserved":false,"is_disabled":false,"rental_uris":{"android":"levelo://app?vid=bc27a26e-b398-431b-881e-997fea45a2ad","ios":"levelo://app?vid=bc27a26e-b398-431b-881e-997fea45a2ad"},"vehicle_type_id":"4","last_reported":1752660735,"current_range_meters":14000,"station_id":"","pricing_plan_id":"cebpf4jnsgd1na2vs0mg"},{"bike_id":"c0a9515f-3545-4dae-9742-c5101d8187a5","system_id":"levelo_inurba_marseille","lat":43.305302,"lon":5.365342,"is_reserved":false,"is_disabled":false,"rental_uris":{"android":"levelo://app?vid=c0a9515f-3545-4dae-9742-c5101d8187a5","ios":"levelo://app?vid=c0a9515f-3545-4dae-9742-c5101d8187a5"},"vehicle_type_id":"4","last_reported":1752660735,"current_range_meters":14000,"station_id":"ce4bgs12rcd13ifvqcag","pricing_plan_id":"cebpf4jnsgd1na2vs0mg"},{"bike_id":"fed5c2b5-4d52-4fbc-aa92-200d7583efe2","system_id":"levelo_inurba_marseille","lat":43.27834,"lon":5.40717,"is_reserved":false,"is_disabled":false,"rental_uris":{"android":"levelo://app?vid=fed5c2b5-4d52-4fbc-aa92-200d7583efe2","ios":"levelo://app?vid=fed5c2b5-4d52-4fbc-aa92-200d7583efe2"},"vehicle_type_id":"4","last_reported":1752660735,"current_range_meters":14000,"station_id":"ce4bhnh2rcd13ifvqgtg","pricing_plan_id":"cebpf4jnsgd1na2vs0mg"},{"bike_id":"794b998d-7e45-4d53-b270-ae51136a9420","system_id":"levelo_inurba_marseille","lat":43.31629,"lon":5.38154,"is_reserved":false,"is_disabled":false,"rental_uris":{"android":"levelo://app?vid=794b998d-7e45-4d53-b270-ae51136a9420","ios":"levelo://app?vid=794b998d-7e45-4d53-b270-ae51136a9420"},"vehicle_type_id":"4","last_reported":1752660735,"current_range_meters":14000,"station_id":"","pricing_plan_id":"cebpf4jnsgd1na2vs0mg"},{"bike_id":"0d14f441-7cc4-44b1-abf4-bbb5d100780b","system_id":"levelo_inurba_marseille","lat":43.32101,"lon":5.36812,"is_reserved":false,"is_disabled":false,"rental_uris":{"android":"levelo://app?vid=0d14f441-7cc4-44b1-abf4-bbb5d100780b","ios":"levelo://app?vid=0d14f441-7cc4-44b1-abf4-bbb5d100780b"},"vehicle_type_id":"4","last_reported":1752660735,"current_range_meters":14400,"station_id":"ce4bhrh2rcd13ifvqhug","pricing_plan_id":"cebpf4jnsgd1na2vs0mg"},{"bike_id":"f53ab926-2de1-4f3c-a7d9-6743ca1bfb1f","system_id":"levelo_inurba_marseille","lat":43.211856,"lon":5.350729,"is_reserved":false,"is_disabled":false,"rental_uris":{"android":"levelo://app?vid=f53ab926-2de1-4f3c-a7d9-6743ca1bfb1f","ios":"levelo://app?vid=f53ab926-2de1-4f3c-a7d9-6743ca1bfb1f"},"vehicle_type_id":"4","last_reported":1752660735,"current_range_meters":14400,"station_id":"st_cvj6sg6p6f1abm77japg","pricing_plan_id":"cebpf4jnsgd1na2vs0mg"},{"bike_id":"5c4ddbd9-59de-43e7-8c62-b1ffc6e275b1","system_id":"levelo_inurba_marseille","lat":43.29623,"lon":5.3717,"is_reserved":false,"is_disabled":false,"rental_uris":{"android":"levelo://app?vid=5c4ddbd9-59de-43e7-8c62-b1ffc6e275b1","ios":"levelo://app?vid=5c4ddbd9-59de-43e7-8c62-b1ffc6e275b1"},"vehicle_type_id":"4","last_reported":1752660735,"current_range_meters":14400,"station_id":"ce4bgnh2rcd13ifvqc0g","pricing_plan_id":"cebpf4jnsgd1na2vs0mg"},{"bike_id":"ff24bfae-392d-4e65-b701-2ea1d80e61eb","system_id":"levelo_inurba_marseille","lat":43.31365,"lon":5.38497,"is_reserved":false,"is_disabled":false,"rental_uris":{"android":"levelo://app?vid=ff24bfae-392d-4e65-b701-2ea1d80e61eb","ios":"levelo://app?vid=ff24bfae-392d-4e65-b701-2ea1d80e61eb"},"vehicle_type_id":"4","last_reported":1752660735,"current_range_meters":14800,"station_id":"ce4bgt92rcd13ifvqcf0","pricing_plan_id":"cebpf4jnsgd1na2vs0mg"},{"bike_id":"efa2f58b-e4a8-4e86-b16a-5c0e02e2d1cd","system_id":"levelo_inurba_marseille","lat":43.29787,"lon":5.38099,"is_reserved":false,"is_disabled":false,"rental_uris":{"android":"levelo://app?vid=efa2f58b-e4a8-4e86-b16a-5c0e02e2d1cd","ios":"levelo://app?vid=efa2f58b-e4a8-4e86-b16a-5c0e02e2d1cd"},"vehicle_type_id":"4","last_reported":1752660735,"current_range_meters":14800,"station_id":"ce4bgip2rcd13ifvqbb0","pricing_plan_id":"cebpf4jnsgd1na2vs0mg"},{"bike_id":"c69bc997-ce52-495c-8931-c242dd209b03","system_id":"levelo_inurba_marseille","lat":43.28342,"lon":5.38108,"is_reserved":false,"is_disabled":false,"rental_uris":{"android":"levelo://app?vid=c69bc997-ce52-495c-8931-c242dd209b03","ios":"levelo://app?vid=c69bc997-ce52-495c-8931-c242dd209b03"},"vehicle_type_id":"4","last_reported":1752660735,"current_range_meters":14800,"station_id":"ce4bh412rcd13ifvqdr0","pricing_plan_id":"cebpf4jnsgd1na2vs0mg"},{"bike_id":"cabf9dae-b50a-4de5-b319-24a005a18270","system_id":"levelo_inurba_marseille","lat":43.299678,"lon":5.37177,"is_reserved":false,"is_disabled":false,"rental_uris":{"android":"levelo://app?vid=cabf9dae-b50a-4de5-b319-24a005a18270","ios":"levelo://app?vid=cabf9dae-b50a-4de5-b319-24a005a18270"},"vehicle_type_id":"4","last_reported":1752660735,"current_range_meters":14800,"station_id":"ce4bgr92rcd13ifvqc7g","pricing_plan_id":"cebpf4jnsgd1na2vs0mg"},{"bike_id":"bc6b6e03-ca99-4643-adad-4108f1a4b430","system_id":"levelo_inurba_marseille","lat":43.30309,"lon":5.36891,"is_reserved":false,"is_disabled":false,"rental_uris":{"android":"levelo://app?vid=bc6b6e03-ca99-4643-adad-4108f1a4b430","ios":"levelo://app?vid=bc6b6e03-ca99-4643-adad-4108f1a4b430"},"vehicle_type_id":"4","last_reported":1752660735,"current_range_meters":14800,"station_id":"ce4bgqh2rcd13ifvqc5g","pricing_plan_id":"cebpf4jnsgd1na2vs0mg"},{"bike_id":"4b4819bc-d02d-416f-917b-f9521294df7e","system_id":"levelo_inurba_marseille","lat":43.30534,"lon":5.36537,"is_reserved":false,"is_disabled":false,"rental_uris":{"android":"levelo://app?vid=4b4819bc-d02d-416f-917b-f9521294df7e","ios":"levelo://app?vid=4b4819bc-d02d-416f-917b-f9521294df7e"},"vehicle_type_id":"4","last_reported":1752660735,"current_range_meters":15200,"station_id":"ce4bgs12rcd13ifvqcag","pricing_plan_id":"cebpf4jnsgd1na2vs0mg"},{"bike_id":"0a88e90f-79ea-4752-a523-c02b184ee919","system_id":"levelo_inurba_marseille","lat":43.28438,"lon":5.39198,"is_reserved":false,"is_disabled":false,"rental_uris":{"android":"levelo://app?vid=0a88e90f-79ea-4752-a523-c02b184ee919","ios":"levelo://app?vid=0a88e90f-79ea-4752-a523-c02b184ee919"},"vehicle_type_id":"4","last_reported":1752660735,"current_range_meters":15200,"station_id":"ce4bhoh2rcd13ifvqh5g","pricing_plan_id":"cebpf4jnsgd1na2vs0mg"},{"bike_id":"8179b31c-ce3a-4f1d-9f38-de069ea9ffb5","system_id":"levelo_inurba_marseille","lat":43.32107,"lon":5.36814,"is_reserved":false,"is_disabled":false,"rental_uris":{"android":"levelo://app?vid=8179b31c-ce3a-4f1d-9f38-de069ea9ffb5","ios":"levelo://app?vid=8179b31c-ce3a-4f1d-9f38-de069ea9ffb5"},"vehicle_type_id":"4","last_reported":1752660735,"current_range_meters":15200,"station_id":"ce4bhrh2rcd13ifvqhug","pricing_plan_id":"cebpf4jnsgd1na2vs0mg"},{"bike_id":"229a51b8-d35a-46ef-90d9-099d3d4f556b","system_id":"levelo_inurba_marseille","lat":43.29413,"lon":5.38589,"is_reserved":false,"is_disabled":true,"rental_uris":{"android":"levelo://app?vid=229a51b8-d35a-46ef-90d9-099d3d4f556b","ios":"levelo://app?vid=229a51b8-d35a-46ef-90d9-099d3d4f556b"},"vehicle_type_id":"4","last_reported":1752660735,"current_range_meters":15200,"station_id":"ce4bh2h2rcd13ifvqdh0","pricing_plan_id":"cebpf4jnsgd1na2vs0mg"},{"bike_id":"86de67ad-75df-4cb9-a9da-d14da0b92312","system_id":"levelo_inurba_marseille","lat":43.29565,"lon":5.37528,"is_reserved":false,"is_disabled":false,"rental_uris":{"android":"levelo://app?vid=86de67ad-75df-4cb9-a9da-d14da0b92312","ios":"levelo://app?vid=86de67ad-75df-4cb9-a9da-d14da0b92312"},"vehicle_type_id":"4","last_reported":1752660735,"current_range_meters":15200,"station_id":"ce4bgh92rcd13ifvqb50","pricing_plan_id":"cebpf4jnsgd1na2vs0mg"},{"bike_id":"ebb9abe2-4f0f-4695-9a01-8c1fe2e6f5ed","system_id":"levelo_inurba_marseille","lat":43.295232,"lon":5.394075,"is_reserved":false,"is_disabled":false,"rental_uris":{"android":"levelo://app?vid=ebb9abe2-4f0f-4695-9a01-8c1fe2e6f5ed","ios":"levelo://app?vid=ebb9abe2-4f0f-4695-9a01-8c1fe2e6f5ed"},"vehicle_type_id":"4","last_reported":1752660735,"current_range_meters":15200,"station_id":"","pricing_plan_id":"cebpf4jnsgd1na2vs0mg"},{"bike_id":"e5bec6b1-43e6-46f2-9810-affd93766dd8","system_id":"levelo_inurba_marseille","lat":43.2175,"lon":5.3461,"is_reserved":false,"is_disabled":true,"rental_uris":{"android":"levelo://app?vid=e5bec6b1-43e6-46f2-9810-affd93766dd8","ios":"levelo://app?vid=e5bec6b1-43e6-46f2-9810-affd93766dd8"},"vehicle_type_id":"4","last_reported":1752660735,"current_range_meters":16000,"station_id":"st_cvj6r9ubvosntc0bgbag","pricing_plan_id":"cebpf4jnsgd1na2vs0mg"},{"bike_id":"def306cb-d4a1-4947-b4b4-be483b4eae95","system_id":"levelo_inurba_marseille","lat":43.26662,"lon":5.382339,"is_reserved":false,"is_disabled":false,"rental_uris":{"android":"levelo://app?vid=def306cb-d4a1-4947-b4b4-be483b4eae95","ios":"levelo://app?vid=def306cb-d4a1-4947-b4b4-be483b4eae95"},"vehicle_type_id":"4","last_reported":1752660735,"current_range_meters":16000,"station_id":"ce4bhg92rcd13ifvqf90","pricing_plan_id":"cebpf4jnsgd1na2vs0mg"},{"bike_id":"a37d9495-6556-4138-8ff8-e2ca82375175","system_id":"levelo_inurba_marseille","lat":43.21762,"lon":5.34658,"is_reserved":false,"is_disabled":false,"rental_uris":{"android":"levelo://app?vid=a37d9495-6556-4138-8ff8-e2ca82375175","ios":"levelo://app?vid=a37d9495-6556-4138-8ff8-e2ca82375175"},"vehicle_type_id":"4","last_reported":1752660735,"current_range_meters":16000,"station_id":"","pricing_plan_id":"cebpf4jnsgd1na2vs0mg"},{"bike_id":"e881459d-618c-4383-80d7-27cd5357787f","system_id":"levelo_inurba_marseille","lat":43.27046,"lon":5.40275,"is_reserved":false,"is_disabled":false,"rental_uris":{"android":"levelo://app?vid=e881459d-618c-4383-80d7-27cd5357787f","ios":"levelo://app?vid=e881459d-618c-4383-80d7-27cd5357787f"},"vehicle_type_id":"4","last_reported":1752660735,"current_range_meters":16000,"station_id":"ce4bhk92rcd13ifvqgc0","pricing_plan_id":"cebpf4jnsgd1na2vs0mg"},{"bike_id":"bb26da83-b9d4-417b-86a6-11268259925b","system_id":"levelo_inurba_marseille","lat":43.27667,"lon":5.38883,"is_reserved":false,"is_disabled":false,"rental_uris":{"android":"levelo://app?vid=bb26da83-b9d4-417b-86a6-11268259925b","ios":"levelo://app?vid=bb26da83-b9d4-417b-86a6-11268259925b"},"vehicle_type_id":"4","last_reported":1752660735,"current_range_meters":16000,"station_id":"ce4bhi12rcd13ifvqfo0","pricing_plan_id":"cebpf4jnsgd1na2vs0mg"},{"bike_id":"d64dc9ee-1136-4d15-9424-fc4b1ef2e649","system_id":"levelo_inurba_marseille","lat":43.25573,"lon":5.38252,"is_reserved":false,"is_disabled":false,"rental_uris":{"android":"levelo://app?vid=d64dc9ee-1136-4d15-9424-fc4b1ef2e649","ios":"levelo://app?vid=d64dc9ee-1136-4d15-9424-fc4b1ef2e649"},"vehicle_type_id":"4","last_reported":1752660735,"current_range_meters":16000,"station_id":"ce4bhih2rcd13ifvqfs0","pricing_plan_id":"cebpf4jnsgd1na2vs0mg"},{"bike_id":"2ab84517-55a3-470a-b703-6e62a8d4eacb","system_id":"levelo_inurba_marseille","lat":43.29362,"lon":5.37192,"is_reserved":false,"is_disabled":false,"rental_uris":{"android":"levelo://app?vid=2ab84517-55a3-470a-b703-6e62a8d4eacb","ios":"levelo://app?vid=2ab84517-55a3-470a-b703-6e62a8d4eacb"},"vehicle_type_id":"4","last_reported":1752660735,"current_range_meters":16000,"station_id":"ce4bgh92rcd13ifvqb40","pricing_plan_id":"cebpf4jnsgd1na2vs0mg"},{"bike_id":"0bab8eaa-166d-470a-8ea5-7972bb8994ce","system_id":"levelo_inurba_marseille","lat":43.29253,"lon":5.376228,"is_reserved":false,"is_disabled":false,"rental_uris":{"android":"levelo://app?vid=0bab8eaa-166d-470a-8ea5-7972bb8994ce","ios":"levelo://app?vid=0bab8eaa-166d-470a-8ea5-7972bb8994ce"},"vehicle_type_id":"4","last_reported":1752660735,"current_range_meters":16400,"station_id":"ce4bgi12rcd13ifvqb80","pricing_plan_id":"cebpf4jnsgd1na2vs0mg"},{"bike_id":"f2b5273e-88ec-4ec3-bf34-9d57642ad4a1","system_id":"levelo_inurba_marseille","lat":43.279977,"lon":5.400045,"is_reserved":false,"is_disabled":false,"rental_uris":{"android":"levelo://app?vid=f2b5273e-88ec-4ec3-bf34-9d57642ad4a1","ios":"levelo://app?vid=f2b5273e-88ec-4ec3-bf34-9d57642ad4a1"},"vehicle_type_id":"4","last_reported":1752660735,"current_range_meters":16400,"station_id":"ce4bho92rcd13ifvqh4g","pricing_plan_id":"cebpf4jnsgd1na2vs0mg"},{"bike_id":"25d21dd5-50fb-4996-87d8-bbf287af2190","system_id":"levelo_inurba_marseille","lat":43.287084,"lon":5.399988,"is_reserved":false,"is_disabled":true,"rental_uris":{"android":"levelo://app?vid=25d21dd5-50fb-4996-87d8-bbf287af2190","ios":"levelo://app?vid=25d21dd5-50fb-4996-87d8-bbf287af2190"},"vehicle_type_id":"4","last_reported":1752660735,"current_range_meters":16400,"station_id":"ce4bho92rcd13ifvqh3g","pricing_plan_id":"cebpf4jnsgd1na2vs0mg"},{"bike_id":"84536aa9-7a3a-4baf-ad03-b8e16bcbbd9c","system_id":"levelo_inurba_marseille","lat":43.25933,"lon":5.40921,"is_reserved":false,"is_disabled":false,"rental_uris":{"android":"levelo://app?vid=84536aa9-7a3a-4baf-ad03-b8e16bcbbd9c","ios":"levelo://app?vid=84536aa9-7a3a-4baf-ad03-b8e16bcbbd9c"},"vehicle_type_id":"4","last_reported":1752660735,"current_range_meters":16400,"station_id":"ce4bhm92rcd13ifvqglg","pricing_plan_id":"cebpf4jnsgd1na2vs0mg"},{"bike_id":"d9b313e2-c44d-44f9-b4f7-33eb8e496ae1","system_id":"levelo_inurba_marseille","lat":43.29301,"lon":5.37156,"is_reserved":false,"is_disabled":false,"rental_uris":{"android":"levelo://app?vid=d9b313e2-c44d-44f9-b4f7-33eb8e496ae1","ios":"levelo://app?vid=d9b313e2-c44d-44f9-b4f7-33eb8e496ae1"},"vehicle_type_id":"4","last_reported":1752660735,"current_range_meters":16400,"station_id":"ce4bgh92rcd13ifvqb40","pricing_plan_id":"cebpf4jnsgd1na2vs0mg"},{"bike_id":"bb91fdfd-e2e6-4861-a682-9985a5c5d97b","system_id":"levelo_inurba_marseille","lat":43.231868,"lon":5.399906,"is_reserved":false,"is_disabled":false,"rental_uris":{"android":"levelo://app?vid=bb91fdfd-e2e6-4861-a682-9985a5c5d97b","ios":"levelo://app?vid=bb91fdfd-e2e6-4861-a682-9985a5c5d97b"},"vehicle_type_id":"4","last_reported":1752660735,"current_range_meters":16400,"station_id":"ce4bhn12rcd13ifvqgqg","pricing_plan_id":"cebpf4jnsgd1na2vs0mg"},{"bike_id":"c6d91ae2-c240-4923-96e3-0767a73981dc","system_id":"levelo_inurba_marseille","lat":43.286375,"lon":5.379708,"is_reserved":false,"is_disabled":false,"rental_uris":{"android":"levelo://app?vid=c6d91ae2-c240-4923-96e3-0767a73981dc","ios":"levelo://app?vid=c6d91ae2-c240-4923-96e3-0767a73981dc"},"vehicle_type_id":"4","last_reported":1752660735,"current_range_meters":16400,"station_id":"ce4bh9p2rcd13ifvqec0","pricing_plan_id":"cebpf4jnsgd1na2vs0mg"},{"bike_id":"7dee92bf-5b07-4927-aa41-9e9493644eeb","system_id":"levelo_inurba_marseille","lat":43.21183,"lon":5.35092,"is_reserved":false,"is_disabled":false,"rental_uris":{"android":"levelo://app?vid=7dee92bf-5b07-4927-aa41-9e9493644eeb","ios":"levelo://app?vid=7dee92bf-5b07-4927-aa41-9e9493644eeb"},"vehicle_type_id":"4","last_reported":1752660735,"current_range_meters":16400,"station_id":"st_cvj6sg6p6f1abm77japg","pricing_plan_id":"cebpf4jnsgd1na2vs0mg"},{"bike_id":"eb86ccdf-eb08-4d83-8bb4-db7d3853281b","system_id":"levelo_inurba_marseille","lat":43.336157,"lon":5.410198,"is_reserved":false,"is_disabled":false,"rental_uris":{"android":"levelo://app?vid=eb86ccdf-eb08-4d83-8bb4-db7d3853281b","ios":"levelo://app?vid=eb86ccdf-eb08-4d83-8bb4-db7d3853281b"},"vehicle_type_id":"4","last_reported":1752660735,"current_range_meters":16800,"station_id":"ce4bhqh2rcd13ifvqhmg","pricing_plan_id":"cebpf4jnsgd1na2vs0mg"},{"bike_id":"d647170c-f548-45c4-bf20-d1db5fe65144","system_id":"levelo_inurba_marseille","lat":43.26205,"lon":5.37503,"is_reserved":false,"is_disabled":false,"rental_uris":{"android":"levelo://app?vid=d647170c-f548-45c4-bf20-d1db5fe65144","ios":"levelo://app?vid=d647170c-f548-45c4-bf20-d1db5fe65144"},"vehicle_type_id":"4","last_reported":1752660735,"current_range_meters":16800,"station_id":"ce4bhgp2rcd13ifvqfc0","pricing_plan_id":"cebpf4jnsgd1na2vs0mg"},{"bike_id":"03957b8c-a357-4df6-b5fc-ece2d25dc51b","system_id":"levelo_inurba_marseille","lat":43.3133,"lon":5.39701,"is_reserved":false,"is_disabled":false,"rental_uris":{"android":"levelo://app?vid=03957b8c-a357-4df6-b5fc-ece2d25dc51b","ios":"levelo://app?vid=03957b8c-a357-4df6-b5fc-ece2d25dc51b"},"vehicle_type_id":"4","last_reported":1752660735,"current_range_meters":16800,"station_id":"ce4bgvp2rcd13ifvqcu0","pricing_plan_id":"cebpf4jnsgd1na2vs0mg"},{"bike_id":"dcd9398a-a13c-4645-9d0a-74c976919d3b","system_id":"levelo_inurba_marseille","lat":43.33735,"lon":5.39178,"is_reserved":false,"is_disabled":false,"rental_uris":{"android":"levelo://app?vid=dcd9398a-a13c-4645-9d0a-74c976919d3b","ios":"levelo://app?vid=dcd9398a-a13c-4645-9d0a-74c976919d3b"},"vehicle_type_id":"4","last_reported":1752660735,"current_range_meters":16800,"station_id":"ce4bhr92rcd13ifvqhsg","pricing_plan_id":"cebpf4jnsgd1na2vs0mg"},{"bike_id":"6931103f-a0ec-46db-8c4f-9064e68f96ad","system_id":"levelo_inurba_marseille","lat":43.31351,"lon":5.36714,"is_reserved":false,"is_disabled":false,"rental_uris":{"android":"levelo://app?vid=6931103f-a0ec-46db-8c4f-9064e68f96ad","ios":"levelo://app?vid=6931103f-a0ec-46db-8c4f-9064e68f96ad"},"vehicle_type_id":"4","last_reported":1752660735,"current_range_meters":16800,"station_id":"ce4bgr92rcd13ifvqc6g","pricing_plan_id":"cebpf4jnsgd1na2vs0mg"},{"bike_id":"45c94baa-0833-4e8a-a743-3806c6c72ada","system_id":"levelo_inurba_marseille","lat":43.323676,"lon":5.388786,"is_reserved":false,"is_disabled":false,"rental_uris":{"android":"levelo://app?vid=45c94baa-0833-4e8a-a743-3806c6c72ada","ios":"levelo://app?vid=45c94baa-0833-4e8a-a743-3806c6c72ada"},"vehicle_type_id":"4","last_reported":1752660735,"current_range_meters":16800,"station_id":"ce4bhqp2rcd13ifvqhog","pricing_plan_id":"cebpf4jnsgd1na2vs0mg"},{"bike_id":"d9b837ba-6f0e-4fde-9e87-fa20ce582cee","system_id":"levelo_inurba_marseille","lat":43.273692,"lon":5.362402,"is_reserved":false,"is_disabled":false,"rental_uris":{"android":"levelo://app?vid=d9b837ba-6f0e-4fde-9e87-fa20ce582cee","ios":"levelo://app?vid=d9b837ba-6f0e-4fde-9e87-fa20ce582cee"},"vehicle_type_id":"4","last_reported":1752660735,"current_range_meters":17200,"station_id":"ce4bhbh2rcd13ifvqeo0","pricing_plan_id":"cebpf4jnsgd1na2vs0mg"},{"bike_id":"a8404626-6caf-4a1c-9da4-9adf6dff7887","system_id":"levelo_inurba_marseille","lat":43.30627,"lon":5.37235,"is_reserved":false,"is_disabled":false,"rental_uris":{"android":"levelo://app?vid=a8404626-6caf-4a1c-9da4-9adf6dff7887","ios":"levelo://app?vid=a8404626-6caf-4a1c-9da4-9adf6dff7887"},"vehicle_type_id":"4","last_reported":1752660735,"current_range_meters":17200,"station_id":"ce4bgqh2rcd13ifvqc4g","pricing_plan_id":"cebpf4jnsgd1na2vs0mg"},{"bike_id":"b18c91ed-1137-464d-b9f6-22606474f7bb","system_id":"levelo_inurba_marseille","lat":43.31644,"lon":5.36788,"is_reserved":false,"is_disabled":false,"rental_uris":{"android":"levelo://app?vid=b18c91ed-1137-464d-b9f6-22606474f7bb","ios":"levelo://app?vid=b18c91ed-1137-464d-b9f6-22606474f7bb"},"vehicle_type_id":"4","last_reported":1752660735,"current_range_meters":17200,"station_id":"","pricing_plan_id":"cebpf4jnsgd1na2vs0mg"},{"bike_id":"5d80c0e5-56fd-49b3-b630-9e5a0ab4bcd2","system_id":"levelo_inurba_marseille","lat":43.29307,"lon":5.37168,"is_reserved":false,"is_disabled":false,"rental_uris":{"android":"levelo://app?vid=5d80c0e5-56fd-49b3-b630-9e5a0ab4bcd2","ios":"levelo://app?vid=5d80c0e5-56fd-49b3-b630-9e5a0ab4bcd2"},"vehicle_type_id":"4","last_reported":1752660735,"current_range_meters":17200,"station_id":"ce4bgh92rcd13ifvqb40","pricing_plan_id":"cebpf4jnsgd1na2vs0mg"},{"bike_id":"742922c9-1b61-4753-a73c-0d5b4b131484","system_id":"levelo_inurba_marseille","lat":43.28271,"lon":5.35072,"is_reserved":false,"is_disabled":false,"rental_uris":{"android":"levelo://app?vid=742922c9-1b61-4753-a73c-0d5b4b131484","ios":"levelo://app?vid=742922c9-1b61-4753-a73c-0d5b4b131484"},"vehicle_type_id":"4","last_reported":1752660735,"current_range_meters":17200,"station_id":"ce4bhbp2rcd13ifvqerg","pricing_plan_id":"cebpf4jnsgd1na2vs0mg"},{"bike_id":"dea09627-80d9-45b6-a6da-f3e0a5993cf6","system_id":"levelo_inurba_marseille","lat":43.2841,"lon":5.37507,"is_reserved":false,"is_disabled":false,"rental_uris":{"android":"levelo://app?vid=dea09627-80d9-45b6-a6da-f3e0a5993cf6","ios":"levelo://app?vid=dea09627-80d9-45b6-a6da-f3e0a5993cf6"},"vehicle_type_id":"4","last_reported":1752660735,"current_range_meters":17200,"station_id":"ce4bh412rcd13ifvqds0","pricing_plan_id":"cebpf4jnsgd1na2vs0mg"},{"bike_id":"88160858-6826-4f6b-a04f-6bbd43d8ac6f","system_id":"levelo_inurba_marseille","lat":43.30144,"lon":5.38787,"is_reserved":false,"is_disabled":false,"rental_uris":{"android":"levelo://app?vid=88160858-6826-4f6b-a04f-6bbd43d8ac6f","ios":"levelo://app?vid=88160858-6826-4f6b-a04f-6bbd43d8ac6f"},"vehicle_type_id":"4","last_reported":1752660735,"current_range_meters":16800,"station_id":"ce4bghh2rcd13ifvqb60","pricing_plan_id":"cebpf4jnsgd1na2vs0mg"},{"bike_id":"d709a1a0-f5e6-4ae8-9b8b-c751cd441332","system_id":"levelo_inurba_marseille","lat":43.25491,"lon":5.3765,"is_reserved":false,"is_disabled":false,"rental_uris":{"android":"levelo://app?vid=d709a1a0-f5e6-4ae8-9b8b-c751cd441332","ios":"levelo://app?vid=d709a1a0-f5e6-4ae8-9b8b-c751cd441332"},"vehicle_type_id":"4","last_reported":1752660735,"current_range_meters":17200,"station_id":"ce4bhh12rcd13ifvqff0","pricing_plan_id":"cebpf4jnsgd1na2vs0mg"},{"bike_id":"0c71301d-6b1f-472f-adf1-52c09906df08","system_id":"levelo_inurba_marseille","lat":43.26213,"lon":5.37428,"is_reserved":false,"is_disabled":false,"rental_uris":{"android":"levelo://app?vid=0c71301d-6b1f-472f-adf1-52c09906df08","ios":"levelo://app?vid=0c71301d-6b1f-472f-adf1-52c09906df08"},"vehicle_type_id":"4","last_reported":1752660735,"current_range_meters":17200,"station_id":"ce4bhgp2rcd13ifvqfc0","pricing_plan_id":"cebpf4jnsgd1na2vs0mg"},{"bike_id":"d86e042e-56fd-487c-96a6-26a36739701a","system_id":"levelo_inurba_marseille","lat":43.29556,"lon":5.42312,"is_reserved":false,"is_disabled":false,"rental_uris":{"android":"levelo://app?vid=d86e042e-56fd-487c-96a6-26a36739701a","ios":"levelo://app?vid=d86e042e-56fd-487c-96a6-26a36739701a"},"vehicle_type_id":"4","last_reported":1752660735,"current_range_meters":17200,"station_id":"ce4bhph2rcd13ifvqhdg","pricing_plan_id":"cebpf4jnsgd1na2vs0mg"},{"bike_id":"42ab2b85-6ac3-41e6-9e23-cf74ae88fcf0","system_id":"levelo_inurba_marseille","lat":43.29724,"lon":5.3769,"is_reserved":false,"is_disabled":false,"rental_uris":{"android":"levelo://app?vid=42ab2b85-6ac3-41e6-9e23-cf74ae88fcf0","ios":"levelo://app?vid=42ab2b85-6ac3-41e6-9e23-cf74ae88fcf0"},"vehicle_type_id":"4","last_reported":1752660735,"current_range_meters":17200,"station_id":"ce4bgkh2rcd13ifvqbl0","pricing_plan_id":"cebpf4jnsgd1na2vs0mg"},{"bike_id":"cc73b8a1-1e82-4b17-a6da-1c0f95e2b746","system_id":"levelo_inurba_marseille","lat":43.30601,"lon":5.3724,"is_reserved":false,"is_disabled":false,"rental_uris":{"android":"levelo://app?vid=cc73b8a1-1e82-4b17-a6da-1c0f95e2b746","ios":"levelo://app?vid=cc73b8a1-1e82-4b17-a6da-1c0f95e2b746"},"vehicle_type_id":"4","last_reported":1752660735,"current_range_meters":17200,"station_id":"ce4bgqh2rcd13ifvqc4g","pricing_plan_id":"cebpf4jnsgd1na2vs0mg"},{"bike_id":"902b12bc-9d0d-42c9-b276-99a4306eca6d","system_id":"levelo_inurba_marseille","lat":43.29897,"lon":5.38896,"is_reserved":false,"is_disabled":false,"rental_uris":{"android":"levelo://app?vid=902b12bc-9d0d-42c9-b276-99a4306eca6d","ios":"levelo://app?vid=902b12bc-9d0d-42c9-b276-99a4306eca6d"},"vehicle_type_id":"4","last_reported":1752660735,"current_range_meters":16400,"station_id":"ce4bh392rcd13ifvqdl0","pricing_plan_id":"cebpf4jnsgd1na2vs0mg"},{"bike_id":"db87ac76-dd30-400d-a8b4-a14cc6694459","system_id":"levelo_inurba_marseille","lat":43.292719,"lon":5.368377,"is_reserved":false,"is_disabled":false,"rental_uris":{"android":"levelo://app?vid=db87ac76-dd30-400d-a8b4-a14cc6694459","ios":"levelo://app?vid=db87ac76-dd30-400d-a8b4-a14cc6694459"},"vehicle_type_id":"4","last_reported":1752660735,"current_range_meters":17600,"station_id":"","pricing_plan_id":"cebpf4jnsgd1na2vs0mg"},{"bike_id":"bad83075-a5cc-4780-8421-043d80fcc1bb","system_id":"levelo_inurba_marseille","lat":43.28503,"lon":5.35901,"is_reserved":false,"is_disabled":true,"rental_uris":{"android":"levelo://app?vid=bad83075-a5cc-4780-8421-043d80fcc1bb","ios":"levelo://app?vid=bad83075-a5cc-4780-8421-043d80fcc1bb"},"vehicle_type_id":"4","last_reported":1752660735,"current_range_meters":17600,"station_id":"ce4bhah2rcd13ifvqei0","pricing_plan_id":"cebpf4jnsgd1na2vs0mg"},{"bike_id":"285aaa26-07be-4c4a-9be9-3c0873597bc5","system_id":"levelo_inurba_marseille","lat":43.29583,"lon":5.36753,"is_reserved":false,"is_disabled":false,"rental_uris":{"android":"levelo://app?vid=285aaa26-07be-4c4a-9be9-3c0873597bc5","ios":"levelo://app?vid=285aaa26-07be-4c4a-9be9-3c0873597bc5"},"vehicle_type_id":"4","last_reported":1752660735,"current_range_meters":17600,"station_id":"ce4bgph2rcd13ifvqc2g","pricing_plan_id":"cebpf4jnsgd1na2vs0mg"},{"bike_id":"11e1fe48-fdff-4616-97ed-c556ff378edd","system_id":"levelo_inurba_marseille","lat":43.298492,"lon":5.362843,"is_reserved":false,"is_disabled":false,"rental_uris":{"android":"levelo://app?vid=11e1fe48-fdff-4616-97ed-c556ff378edd","ios":"levelo://app?vid=11e1fe48-fdff-4616-97ed-c556ff378edd"},"vehicle_type_id":"4","last_reported":1752660735,"current_range_meters":17600,"station_id":"ce4bgpp2rcd13ifvqc3g","pricing_plan_id":"cebpf4jnsgd1na2vs0mg"},{"bike_id":"b399da78-cf63-4de2-b505-0740a1d1e170","system_id":"levelo_inurba_marseille","lat":43.22507,"lon":5.34837,"is_reserved":false,"is_disabled":false,"rental_uris":{"android":"levelo://app?vid=b399da78-cf63-4de2-b505-0740a1d1e170","ios":"levelo://app?vid=b399da78-cf63-4de2-b505-0740a1d1e170"},"vehicle_type_id":"4","last_reported":1752660735,"current_range_meters":17600,"station_id":"st_cvj5dfep6f1abm77gieg","pricing_plan_id":"cebpf4jnsgd1na2vs0mg"},{"bike_id":"5e114e8c-9c3f-4d80-ba15-2cd7d9adb883","system_id":"levelo_inurba_marseille","lat":43.30297,"lon":5.39206,"is_reserved":false,"is_disabled":false,"rental_uris":{"android":"levelo://app?vid=5e114e8c-9c3f-4d80-ba15-2cd7d9adb883","ios":"levelo://app?vid=5e114e8c-9c3f-4d80-ba15-2cd7d9adb883"},"vehicle_type_id":"4","last_reported":1752660735,"current_range_meters":17600,"station_id":"ce4bgkh2rcd13ifvqbk0","pricing_plan_id":"cebpf4jnsgd1na2vs0mg"},{"bike_id":"39c6203f-25ee-487c-9399-b36ef495fc6b","system_id":"levelo_inurba_marseille","lat":43.24066,"lon":5.37706,"is_reserved":false,"is_disabled":false,"rental_uris":{"android":"levelo://app?vid=39c6203f-25ee-487c-9399-b36ef495fc6b","ios":"levelo://app?vid=39c6203f-25ee-487c-9399-b36ef495fc6b"},"vehicle_type_id":"4","last_reported":1752660735,"current_range_meters":17600,"station_id":"ce4bhnp2rcd13ifvqgvg","pricing_plan_id":"cebpf4jnsgd1na2vs0mg"},{"bike_id":"d697e4f3-cf7d-45e9-b67b-45ee6d3593f5","system_id":"levelo_inurba_marseille","lat":43.28632,"lon":5.35094,"is_reserved":false,"is_disabled":false,"rental_uris":{"android":"levelo://app?vid=d697e4f3-cf7d-45e9-b67b-45ee6d3593f5","ios":"levelo://app?vid=d697e4f3-cf7d-45e9-b67b-45ee6d3593f5"},"vehicle_type_id":"4","last_reported":1752660735,"current_range_meters":17600,"station_id":"ce4bhch2rcd13ifvqeug","pricing_plan_id":"cebpf4jnsgd1na2vs0mg"},{"bike_id":"0398468c-6c0f-49fd-b525-08c45b6a4cd9","system_id":"levelo_inurba_marseille","lat":43.22502,"lon":5.34777,"is_reserved":false,"is_disabled":false,"rental_uris":{"android":"levelo://app?vid=0398468c-6c0f-49fd-b525-08c45b6a4cd9","ios":"levelo://app?vid=0398468c-6c0f-49fd-b525-08c45b6a4cd9"},"vehicle_type_id":"4","last_reported":1752660735,"current_range_meters":18000,"station_id":"st_cvj5dfep6f1abm77gieg","pricing_plan_id":"cebpf4jnsgd1na2vs0mg"},{"bike_id":"0225df2e-bee4-445b-87d9-507b02fc0fcb","system_id":"levelo_inurba_marseille","lat":43.32369,"lon":5.36775,"is_reserved":false,"is_disabled":false,"rental_uris":{"android":"levelo://app?vid=0225df2e-bee4-445b-87d9-507b02fc0fcb","ios":"levelo://app?vid=0225df2e-bee4-445b-87d9-507b02fc0fcb"},"vehicle_type_id":"4","last_reported":1752660735,"current_range_meters":18000,"station_id":"ce4bhsh2rcd13ifvqi2g","pricing_plan_id":"cebpf4jnsgd1na2vs0mg"},{"bike_id":"3444bdc6-514a-4ba6-9650-f9073305e33d","system_id":"levelo_inurba_marseille","lat":43.29682,"lon":5.3698,"is_reserved":false,"is_disabled":false,"rental_uris":{"android":"levelo://app?vid=3444bdc6-514a-4ba6-9650-f9073305e33d","ios":"levelo://app?vid=3444bdc6-514a-4ba6-9650-f9073305e33d"},"vehicle_type_id":"4","last_reported":1752660735,"current_range_meters":18000,"station_id":"","pricing_plan_id":"cebpf4jnsgd1na2vs0mg"},{"bike_id":"34e62ee5-3131-428c-842a-9ad03de94ba5","system_id":"levelo_inurba_marseille","lat":43.22503,"lon":5.34782,"is_reserved":false,"is_disabled":false,"rental_uris":{"android":"levelo://app?vid=34e62ee5-3131-428c-842a-9ad03de94ba5","ios":"levelo://app?vid=34e62ee5-3131-428c-842a-9ad03de94ba5"},"vehicle_type_id":"4","last_reported":1752660735,"current_range_meters":18000,"station_id":"st_cvj5dfep6f1abm77gieg","pricing_plan_id":"cebpf4jnsgd1na2vs0mg"},{"bike_id":"f037781a-08bc-4746-8a4c-4bc939a127ba","system_id":"levelo_inurba_marseille","lat":43.26272,"lon":5.37382,"is_reserved":false,"is_disabled":false,"rental_uris":{"android":"levelo://app?vid=f037781a-08bc-4746-8a4c-4bc939a127ba","ios":"levelo://app?vid=f037781a-08bc-4746-8a4c-4bc939a127ba"},"vehicle_type_id":"4","last_reported":1752660735,"current_range_meters":18000,"station_id":"","pricing_plan_id":"cebpf4jnsgd1na2vs0mg"},{"bike_id":"9fab3324-0e38-452a-b9c0-b8c91be3e410","system_id":"levelo_inurba_marseille","lat":43.25929,"lon":5.40886,"is_reserved":false,"is_disabled":false,"rental_uris":{"android":"levelo://app?vid=9fab3324-0e38-452a-b9c0-b8c91be3e410","ios":"levelo://app?vid=9fab3324-0e38-452a-b9c0-b8c91be3e410"},"vehicle_type_id":"4","last_reported":1752660735,"current_range_meters":18000,"station_id":"ce4bhm92rcd13ifvqglg","pricing_plan_id":"cebpf4jnsgd1na2vs0mg"},{"bike_id":"aa6ae9db-dee7-4a9a-bf97-14fd9cddacf5","system_id":"levelo_inurba_marseille","lat":43.3051,"lon":5.36648,"is_reserved":false,"is_disabled":false,"rental_uris":{"android":"levelo://app?vid=aa6ae9db-dee7-4a9a-bf97-14fd9cddacf5","ios":"levelo://app?vid=aa6ae9db-dee7-4a9a-bf97-14fd9cddacf5"},"vehicle_type_id":"4","last_reported":1752660735,"current_range_meters":18000,"station_id":"","pricing_plan_id":"cebpf4jnsgd1na2vs0mg"},{"bike_id":"a6877556-2c3d-4eb0-a394-69114746e0bc","system_id":"levelo_inurba_marseille","lat":43.23178,"lon":5.39991,"is_reserved":false,"is_disabled":false,"rental_uris":{"android":"levelo://app?vid=a6877556-2c3d-4eb0-a394-69114746e0bc","ios":"levelo://app?vid=a6877556-2c3d-4eb0-a394-69114746e0bc"},"vehicle_type_id":"4","last_reported":1752660735,"current_range_meters":18000,"station_id":"ce4bhn12rcd13ifvqgqg","pricing_plan_id":"cebpf4jnsgd1na2vs0mg"},{"bike_id":"07f5ae19-0925-43ef-aab4-48ec58bc62b9","system_id":"levelo_inurba_marseille","lat":43.314561,"lon":5.374363,"is_reserved":false,"is_disabled":false,"rental_uris":{"android":"levelo://app?vid=07f5ae19-0925-43ef-aab4-48ec58bc62b9","ios":"levelo://app?vid=07f5ae19-0925-43ef-aab4-48ec58bc62b9"},"vehicle_type_id":"4","last_reported":1752660735,"current_range_meters":18000,"station_id":"","pricing_plan_id":"cebpf4jnsgd1na2vs0mg"},{"bike_id":"243ff24d-c224-4f6c-8766-a9a443123038","system_id":"levelo_inurba_marseille","lat":43.2396,"lon":5.36628,"is_reserved":false,"is_disabled":false,"rental_uris":{"android":"levelo://app?vid=243ff24d-c224-4f6c-8766-a9a443123038","ios":"levelo://app?vid=243ff24d-c224-4f6c-8766-a9a443123038"},"vehicle_type_id":"4","last_reported":1752660735,"current_range_meters":18000,"station_id":"ce4bhi12rcd13ifvqfp0","pricing_plan_id":"cebpf4jnsgd1na2vs0mg"},{"bike_id":"f5613936-10ea-46e9-89a1-55ca6d839f90","system_id":"levelo_inurba_marseille","lat":43.21187,"lon":5.35077,"is_reserved":false,"is_disabled":false,"rental_uris":{"android":"levelo://app?vid=f5613936-10ea-46e9-89a1-55ca6d839f90","ios":"levelo://app?vid=f5613936-10ea-46e9-89a1-55ca6d839f90"},"vehicle_type_id":"4","last_reported":1752660735,"current_range_meters":18800,"station_id":"st_cvj6sg6p6f1abm77japg","pricing_plan_id":"cebpf4jnsgd1na2vs0mg"},{"bike_id":"def589f8-1927-40c7-bbb8-81631032d093","system_id":"levelo_inurba_marseille","lat":43.22527,"lon":5.34792,"is_reserved":false,"is_disabled":false,"rental_uris":{"android":"levelo://app?vid=def589f8-1927-40c7-bbb8-81631032d093","ios":"levelo://app?vid=def589f8-1927-40c7-bbb8-81631032d093"},"vehicle_type_id":"4","last_reported":1752660735,"current_range_meters":18800,"station_id":"st_cvj5dfep6f1abm77gieg","pricing_plan_id":"cebpf4jnsgd1na2vs0mg"},{"bike_id":"32d7e0b3-bff9-41e5-9b67-4382df8464e3","system_id":"levelo_inurba_marseille","lat":43.26221,"lon":5.37441,"is_reserved":false,"is_disabled":false,"rental_uris":{"android":"levelo://app?vid=32d7e0b3-bff9-41e5-9b67-4382df8464e3","ios":"levelo://app?vid=32d7e0b3-bff9-41e5-9b67-4382df8464e3"},"vehicle_type_id":"4","last_reported":1752660735,"current_range_meters":18800,"station_id":"ce4bhgp2rcd13ifvqfc0","pricing_plan_id":"cebpf4jnsgd1na2vs0mg"},{"bike_id":"e9528d76-9a89-4d0c-a4b1-84d3c8014a03","system_id":"levelo_inurba_marseille","lat":43.23188,"lon":5.35553,"is_reserved":false,"is_disabled":false,"rental_uris":{"android":"levelo://app?vid=e9528d76-9a89-4d0c-a4b1-84d3c8014a03","ios":"levelo://app?vid=e9528d76-9a89-4d0c-a4b1-84d3c8014a03"},"vehicle_type_id":"4","last_reported":1752660735,"current_range_meters":19200,"station_id":"ce4bhu92rcd13ifvqi70","pricing_plan_id":"cebpf4jnsgd1na2vs0mg"},{"bike_id":"f6e67167-3686-4cae-82da-4610049996dc","system_id":"levelo_inurba_marseille","lat":43.26922,"lon":5.38507,"is_reserved":false,"is_disabled":false,"rental_uris":{"android":"levelo://app?vid=f6e67167-3686-4cae-82da-4610049996dc","ios":"levelo://app?vid=f6e67167-3686-4cae-82da-4610049996dc"},"vehicle_type_id":"4","last_reported":1752660735,"current_range_meters":19200,"station_id":"","pricing_plan_id":"cebpf4jnsgd1na2vs0mg"},{"bike_id":"b4602800-494c-4b96-b936-71b0505a1908","system_id":"levelo_inurba_marseille","lat":43.278007,"lon":5.407081,"is_reserved":false,"is_disabled":false,"rental_uris":{"android":"levelo://app?vid=b4602800-494c-4b96-b936-71b0505a1908","ios":"levelo://app?vid=b4602800-494c-4b96-b936-71b0505a1908"},"vehicle_type_id":"4","last_reported":1752660735,"current_range_meters":19200,"station_id":"ce4bhnh2rcd13ifvqgtg","pricing_plan_id":"cebpf4jnsgd1na2vs0mg"},{"bike_id":"b1390478-14b3-41d7-bbc6-d17638281f9f","system_id":"levelo_inurba_marseille","lat":43.28152,"lon":5.42634,"is_reserved":false,"is_disabled":false,"rental_uris":{"android":"levelo://app?vid=b1390478-14b3-41d7-bbc6-d17638281f9f","ios":"levelo://app?vid=b1390478-14b3-41d7-bbc6-d17638281f9f"},"vehicle_type_id":"4","last_reported":1752660735,"current_range_meters":19200,"station_id":"ce4bhnh2rcd13ifvqgug","pricing_plan_id":"cebpf4jnsgd1na2vs0mg"},{"bike_id":"51463e2c-09cf-4fa5-a440-4b95eeeb90ab","system_id":"levelo_inurba_marseille","lat":43.23754,"lon":5.36625,"is_reserved":false,"is_disabled":false,"rental_uris":{"android":"levelo://app?vid=51463e2c-09cf-4fa5-a440-4b95eeeb90ab","ios":"levelo://app?vid=51463e2c-09cf-4fa5-a440-4b95eeeb90ab"},"vehicle_type_id":"4","last_reported":1752660735,"current_range_meters":19200,"station_id":"","pricing_plan_id":"cebpf4jnsgd1na2vs0mg"},{"bike_id":"bc00960a-7b10-4cb4-9139-a50f61abde1d","system_id":"levelo_inurba_marseille","lat":43.28477,"lon":5.38458,"is_reserved":false,"is_disabled":false,"rental_uris":{"android":"levelo://app?vid=bc00960a-7b10-4cb4-9139-a50f61abde1d","ios":"levelo://app?vid=bc00960a-7b10-4cb4-9139-a50f61abde1d"},"vehicle_type_id":"4","last_reported":1752660735,"current_range_meters":19200,"station_id":"ce4bh512rcd13ifvqe3g","pricing_plan_id":"cebpf4jnsgd1na2vs0mg"},{"bike_id":"b8c880f9-1441-46e0-89ec-dc4a30a19f90","system_id":"levelo_inurba_marseille","lat":43.29304,"lon":5.3715,"is_reserved":false,"is_disabled":false,"rental_uris":{"android":"levelo://app?vid=b8c880f9-1441-46e0-89ec-dc4a30a19f90","ios":"levelo://app?vid=b8c880f9-1441-46e0-89ec-dc4a30a19f90"},"vehicle_type_id":"4","last_reported":1752660735,"current_range_meters":19200,"station_id":"ce4bgh92rcd13ifvqb40","pricing_plan_id":"cebpf4jnsgd1na2vs0mg"},{"bike_id":"81ebe6fa-c8ce-47cd-8fc5-869387d9a381","system_id":"levelo_inurba_marseille","lat":43.23196,"lon":5.35542,"is_reserved":false,"is_disabled":false,"rental_uris":{"android":"levelo://app?vid=81ebe6fa-c8ce-47cd-8fc5-869387d9a381","ios":"levelo://app?vid=81ebe6fa-c8ce-47cd-8fc5-869387d9a381"},"vehicle_type_id":"4","last_reported":1752660735,"current_range_meters":19200,"station_id":"ce4bhu92rcd13ifvqi70","pricing_plan_id":"cebpf4jnsgd1na2vs0mg"},{"bike_id":"1da7929e-d1d9-4147-a7cc-6a8b3faa7341","system_id":"levelo_inurba_marseille","lat":43.30374,"lon":5.42492,"is_reserved":false,"is_disabled":false,"rental_uris":{"android":"levelo://app?vid=1da7929e-d1d9-4147-a7cc-6a8b3faa7341","ios":"levelo://app?vid=1da7929e-d1d9-4147-a7cc-6a8b3faa7341"},"vehicle_type_id":"4","last_reported":1752660735,"current_range_meters":19200,"station_id":"ce4bhoh2rcd13ifvqh6g","pricing_plan_id":"cebpf4jnsgd1na2vs0mg"},{"bike_id":"03568c5d-aa64-4cbc-b7c7-dd33f8c4750d","system_id":"levelo_inurba_marseille","lat":43.30559,"lon":5.36708,"is_reserved":false,"is_disabled":true,"rental_uris":{"android":"levelo://app?vid=03568c5d-aa64-4cbc-b7c7-dd33f8c4750d","ios":"levelo://app?vid=03568c5d-aa64-4cbc-b7c7-dd33f8c4750d"},"vehicle_type_id":"4","last_reported":1752660735,"current_range_meters":19200,"station_id":"ce4bgrp2rcd13ifvqc9g","pricing_plan_id":"cebpf4jnsgd1na2vs0mg"},{"bike_id":"ddf7b565-7cc5-47de-aa46-8d6ad93066b3","system_id":"levelo_inurba_marseille","lat":43.27997,"lon":5.41664,"is_reserved":false,"is_disabled":false,"rental_uris":{"android":"levelo://app?vid=ddf7b565-7cc5-47de-aa46-8d6ad93066b3","ios":"levelo://app?vid=ddf7b565-7cc5-47de-aa46-8d6ad93066b3"},"vehicle_type_id":"4","last_reported":1752660735,"current_range_meters":19200,"station_id":"ce4bho12rcd13ifvqh1g","pricing_plan_id":"cebpf4jnsgd1na2vs0mg"},{"bike_id":"b4f0f905-7c7c-4d7b-91ba-391d052ca313","system_id":"levelo_inurba_marseille","lat":43.31499,"lon":5.3728,"is_reserved":false,"is_disabled":false,"rental_uris":{"android":"levelo://app?vid=b4f0f905-7c7c-4d7b-91ba-391d052ca313","ios":"levelo://app?vid=b4f0f905-7c7c-4d7b-91ba-391d052ca313"},"vehicle_type_id":"4","last_reported":1752660735,"current_range_meters":19200,"station_id":"ce4bgt12rcd13ifvqcd0","pricing_plan_id":"cebpf4jnsgd1na2vs0mg"},{"bike_id":"e2911cef-b311-42fb-826c-8bbe5185e6d0","system_id":"levelo_inurba_marseille","lat":43.30542,"lon":5.36561,"is_reserved":false,"is_disabled":false,"rental_uris":{"android":"levelo://app?vid=e2911cef-b311-42fb-826c-8bbe5185e6d0","ios":"levelo://app?vid=e2911cef-b311-42fb-826c-8bbe5185e6d0"},"vehicle_type_id":"4","last_reported":1752660735,"current_range_meters":19200,"station_id":"ce4bgs12rcd13ifvqcag","pricing_plan_id":"cebpf4jnsgd1na2vs0mg"},{"bike_id":"1a1de22c-864f-4087-990e-227151d55abc","system_id":"levelo_inurba_marseille","lat":43.2119,"lon":5.350707,"is_reserved":false,"is_disabled":false,"rental_uris":{"android":"levelo://app?vid=1a1de22c-864f-4087-990e-227151d55abc","ios":"levelo://app?vid=1a1de22c-864f-4087-990e-227151d55abc"},"vehicle_type_id":"4","last_reported":1752660735,"current_range_meters":19600,"station_id":"st_cvj6sg6p6f1abm77japg","pricing_plan_id":"cebpf4jnsgd1na2vs0mg"},{"bike_id":"8a279f60-3e24-428c-8165-c9a76bdb616c","system_id":"levelo_inurba_marseille","lat":43.27664,"lon":5.38894,"is_reserved":false,"is_disabled":false,"rental_uris":{"android":"levelo://app?vid=8a279f60-3e24-428c-8165-c9a76bdb616c","ios":"levelo://app?vid=8a279f60-3e24-428c-8165-c9a76bdb616c"},"vehicle_type_id":"4","last_reported":1752660735,"current_range_meters":19600,"station_id":"ce4bhi12rcd13ifvqfo0","pricing_plan_id":"cebpf4jnsgd1na2vs0mg"},{"bike_id":"710a4085-99c4-4498-95a1-5a7e36809a6e","system_id":"levelo_inurba_marseille","lat":43.2907,"lon":5.37162,"is_reserved":false,"is_disabled":false,"rental_uris":{"android":"levelo://app?vid=710a4085-99c4-4498-95a1-5a7e36809a6e","ios":"levelo://app?vid=710a4085-99c4-4498-95a1-5a7e36809a6e"},"vehicle_type_id":"4","last_reported":1752660735,"current_range_meters":19600,"station_id":"ce4bh5p2rcd13ifvqe4g","pricing_plan_id":"cebpf4jnsgd1na2vs0mg"},{"bike_id":"d2f58dc5-6061-4295-a3a3-3ed3b6e43b52","system_id":"levelo_inurba_marseille","lat":43.25578,"lon":5.3821,"is_reserved":false,"is_disabled":false,"rental_uris":{"android":"levelo://app?vid=d2f58dc5-6061-4295-a3a3-3ed3b6e43b52","ios":"levelo://app?vid=d2f58dc5-6061-4295-a3a3-3ed3b6e43b52"},"vehicle_type_id":"4","last_reported":1752660735,"current_range_meters":19600,"station_id":"ce4bhih2rcd13ifvqfs0","pricing_plan_id":"cebpf4jnsgd1na2vs0mg"},{"bike_id":"90493794-6f43-46af-b617-9b54832654db","system_id":"levelo_inurba_marseille","lat":43.31336,"lon":5.36704,"is_reserved":false,"is_disabled":false,"rental_uris":{"android":"levelo://app?vid=90493794-6f43-46af-b617-9b54832654db","ios":"levelo://app?vid=90493794-6f43-46af-b617-9b54832654db"},"vehicle_type_id":"4","last_reported":1752660735,"current_range_meters":19600,"station_id":"ce4bgr92rcd13ifvqc6g","pricing_plan_id":"cebpf4jnsgd1na2vs0mg"},{"bike_id":"b4bb7171-f333-436f-a4e5-0b5385e4b807","system_id":"levelo_inurba_marseille","lat":43.229309,"lon":5.353759,"is_reserved":false,"is_disabled":false,"rental_uris":{"android":"levelo://app?vid=b4bb7171-f333-436f-a4e5-0b5385e4b807","ios":"levelo://app?vid=b4bb7171-f333-436f-a4e5-0b5385e4b807"},"vehicle_type_id":"4","last_reported":1752660735,"current_range_meters":19600,"station_id":"cpo3532slgdg3j2ikp40","pricing_plan_id":"cebpf4jnsgd1na2vs0mg"},{"bike_id":"f167ad88-7018-4060-91ce-6381ca217d3d","system_id":"levelo_inurba_marseille","lat":43.28407,"lon":5.34988,"is_reserved":false,"is_disabled":false,"rental_uris":{"android":"levelo://app?vid=f167ad88-7018-4060-91ce-6381ca217d3d","ios":"levelo://app?vid=f167ad88-7018-4060-91ce-6381ca217d3d"},"vehicle_type_id":"4","last_reported":1752660735,"current_range_meters":19600,"station_id":"ce4bhbh2rcd13ifvqepg","pricing_plan_id":"cebpf4jnsgd1na2vs0mg"},{"bike_id":"601d63f5-45ba-444b-ae10-7d4ee6339f76","system_id":"levelo_inurba_marseille","lat":43.299,"lon":5.43667,"is_reserved":false,"is_disabled":false,"rental_uris":{"android":"levelo://app?vid=601d63f5-45ba-444b-ae10-7d4ee6339f76","ios":"levelo://app?vid=601d63f5-45ba-444b-ae10-7d4ee6339f76"},"vehicle_type_id":"4","last_reported":1752660735,"current_range_meters":20000,"station_id":"ce4bhpp2rcd13ifvqhfg","pricing_plan_id":"cebpf4jnsgd1na2vs0mg"},{"bike_id":"7889b704-b301-4414-b00b-fe99422cbed4","system_id":"levelo_inurba_marseille","lat":43.32333,"lon":5.40615,"is_reserved":false,"is_disabled":false,"rental_uris":{"android":"levelo://app?vid=7889b704-b301-4414-b00b-fe99422cbed4","ios":"levelo://app?vid=7889b704-b301-4414-b00b-fe99422cbed4"},"vehicle_type_id":"4","last_reported":1752660735,"current_range_meters":20000,"station_id":"ce4bhq92rcd13ifvqhjg","pricing_plan_id":"cebpf4jnsgd1na2vs0mg"},{"bike_id":"855ff8f9-641c-41af-8e00-5d71e1a04e0f","system_id":"levelo_inurba_marseille","lat":43.22504,"lon":5.34777,"is_reserved":false,"is_disabled":false,"rental_uris":{"android":"levelo://app?vid=855ff8f9-641c-41af-8e00-5d71e1a04e0f","ios":"levelo://app?vid=855ff8f9-641c-41af-8e00-5d71e1a04e0f"},"vehicle_type_id":"4","last_reported":1752660735,"current_range_meters":20000,"station_id":"st_cvj5dfep6f1abm77gieg","pricing_plan_id":"cebpf4jnsgd1na2vs0mg"},{"bike_id":"1d396b60-14e2-4e1e-9d50-fff9f9653c53","system_id":"levelo_inurba_marseille","lat":43.26562,"lon":5.39036,"is_reserved":false,"is_disabled":false,"rental_uris":{"android":"levelo://app?vid=1d396b60-14e2-4e1e-9d50-fff9f9653c53","ios":"levelo://app?vid=1d396b60-14e2-4e1e-9d50-fff9f9653c53"},"vehicle_type_id":"4","last_reported":1752660735,"current_range_meters":20000,"station_id":"ce4bhe12rcd13ifvqf30","pricing_plan_id":"cebpf4jnsgd1na2vs0mg"},{"bike_id":"08349f76-8c4c-4b4e-a25f-8b6bd0337f97","system_id":"levelo_inurba_marseille","lat":43.31327,"lon":5.397,"is_reserved":false,"is_disabled":false,"rental_uris":{"android":"levelo://app?vid=08349f76-8c4c-4b4e-a25f-8b6bd0337f97","ios":"levelo://app?vid=08349f76-8c4c-4b4e-a25f-8b6bd0337f97"},"vehicle_type_id":"4","last_reported":1752660735,"current_range_meters":20000,"station_id":"ce4bgvp2rcd13ifvqcu0","pricing_plan_id":"cebpf4jnsgd1na2vs0mg"},{"bike_id":"63362215-e6b0-499c-9a27-42bef6c7836f","system_id":"levelo_inurba_marseille","lat":43.21767,"lon":5.34601,"is_reserved":false,"is_disabled":false,"rental_uris":{"android":"levelo://app?vid=63362215-e6b0-499c-9a27-42bef6c7836f","ios":"levelo://app?vid=63362215-e6b0-499c-9a27-42bef6c7836f"},"vehicle_type_id":"4","last_reported":1752660735,"current_range_meters":20000,"station_id":"st_cvj6r9ubvosntc0bgbag","pricing_plan_id":"cebpf4jnsgd1na2vs0mg"},{"bike_id":"15bd2f51-b9ba-44bc-9474-27769ebb8c46","system_id":"levelo_inurba_marseille","lat":43.30737,"lon":5.42431,"is_reserved":false,"is_disabled":false,"rental_uris":{"android":"levelo://app?vid=15bd2f51-b9ba-44bc-9474-27769ebb8c46","ios":"levelo://app?vid=15bd2f51-b9ba-44bc-9474-27769ebb8c46"},"vehicle_type_id":"4","last_reported":1752660735,"current_range_meters":20000,"station_id":"st_cvj6ca6bvosntc0bfgr0","pricing_plan_id":"cebpf4jnsgd1na2vs0mg"},{"bike_id":"9083cbc2-d25f-4bab-bea7-2d8cd80485de","system_id":"levelo_inurba_marseille","lat":43.30145,"lon":5.39865,"is_reserved":false,"is_disabled":false,"rental_uris":{"android":"levelo://app?vid=9083cbc2-d25f-4bab-bea7-2d8cd80485de","ios":"levelo://app?vid=9083cbc2-d25f-4bab-bea7-2d8cd80485de"},"vehicle_type_id":"4","last_reported":1752660735,"current_range_meters":20000,"station_id":"ce4bh0h2rcd13ifvqd40","pricing_plan_id":"cebpf4jnsgd1na2vs0mg"},{"bike_id":"2ac93549-5c94-4228-8eea-782a21384d10","system_id":"levelo_inurba_marseille","lat":43.29634,"lon":5.37793,"is_reserved":false,"is_disabled":false,"rental_uris":{"android":"levelo://app?vid=2ac93549-5c94-4228-8eea-782a21384d10","ios":"levelo://app?vid=2ac93549-5c94-4228-8eea-782a21384d10"},"vehicle_type_id":"4","last_reported":1752660735,"current_range_meters":20000,"station_id":"","pricing_plan_id":"cebpf4jnsgd1na2vs0mg"},{"bike_id":"531dca68-8617-41b0-a6cd-abffc94e1d45","system_id":"levelo_inurba_marseille","lat":43.31211,"lon":5.37307,"is_reserved":false,"is_disabled":false,"rental_uris":{"android":"levelo://app?vid=531dca68-8617-41b0-a6cd-abffc94e1d45","ios":"levelo://app?vid=531dca68-8617-41b0-a6cd-abffc94e1d45"},"vehicle_type_id":"4","last_reported":1752660735,"current_range_meters":20000,"station_id":"","pricing_plan_id":"cebpf4jnsgd1na2vs0mg"},{"bike_id":"ee3176aa-c685-4438-811a-7fcf637202d6","system_id":"levelo_inurba_marseille","lat":43.29845,"lon":5.362837,"is_reserved":false,"is_disabled":false,"rental_uris":{"android":"levelo://app?vid=ee3176aa-c685-4438-811a-7fcf637202d6","ios":"levelo://app?vid=ee3176aa-c685-4438-811a-7fcf637202d6"},"vehicle_type_id":"4","last_reported":1752660735,"current_range_meters":20400,"station_id":"ce4bgpp2rcd13ifvqc3g","pricing_plan_id":"cebpf4jnsgd1na2vs0mg"},{"bike_id":"0294ce0b-0ed2-41ab-af48-f98086287af4","system_id":"levelo_inurba_marseille","lat":43.29557,"lon":5.42254,"is_reserved":false,"is_disabled":false,"rental_uris":{"android":"levelo://app?vid=0294ce0b-0ed2-41ab-af48-f98086287af4","ios":"levelo://app?vid=0294ce0b-0ed2-41ab-af48-f98086287af4"},"vehicle_type_id":"4","last_reported":1752660735,"current_range_meters":20400,"station_id":"ce4bhph2rcd13ifvqhdg","pricing_plan_id":"cebpf4jnsgd1na2vs0mg"},{"bike_id":"1af55c2a-cc3d-43f6-8403-d59fe5f73236","system_id":"levelo_inurba_marseille","lat":43.28274,"lon":5.35077,"is_reserved":false,"is_disabled":false,"rental_uris":{"android":"levelo://app?vid=1af55c2a-cc3d-43f6-8403-d59fe5f73236","ios":"levelo://app?vid=1af55c2a-cc3d-43f6-8403-d59fe5f73236"},"vehicle_type_id":"4","last_reported":1752660735,"current_range_meters":20400,"station_id":"ce4bhbp2rcd13ifvqerg","pricing_plan_id":"cebpf4jnsgd1na2vs0mg"},{"bike_id":"a40599b1-a639-4b84-b5b0-418a5c0bae1a","system_id":"levelo_inurba_marseille","lat":43.284102,"lon":5.374996,"is_reserved":false,"is_disabled":false,"rental_uris":{"android":"levelo://app?vid=a40599b1-a639-4b84-b5b0-418a5c0bae1a","ios":"levelo://app?vid=a40599b1-a639-4b84-b5b0-418a5c0bae1a"},"vehicle_type_id":"4","last_reported":1752660735,"current_range_meters":20400,"station_id":"ce4bh412rcd13ifvqds0","pricing_plan_id":"cebpf4jnsgd1na2vs0mg"},{"bike_id":"2e3b3659-748c-4a39-8ace-4f0c2522c412","system_id":"levelo_inurba_marseille","lat":43.30141,"lon":5.3742,"is_reserved":false,"is_disabled":false,"rental_uris":{"android":"levelo://app?vid=2e3b3659-748c-4a39-8ace-4f0c2522c412","ios":"levelo://app?vid=2e3b3659-748c-4a39-8ace-4f0c2522c412"},"vehicle_type_id":"4","last_reported":1752660735,"current_range_meters":20400,"station_id":"ce4bgs92rcd13ifvqcc0","pricing_plan_id":"cebpf4jnsgd1na2vs0mg"},{"bike_id":"1af876d9-6e0a-45cc-bed9-deae0b87ca9c","system_id":"levelo_inurba_marseille","lat":43.21193,"lon":5.350679,"is_reserved":false,"is_disabled":false,"rental_uris":{"android":"levelo://app?vid=1af876d9-6e0a-45cc-bed9-deae0b87ca9c","ios":"levelo://app?vid=1af876d9-6e0a-45cc-bed9-deae0b87ca9c"},"vehicle_type_id":"4","last_reported":1752660735,"current_range_meters":20400,"station_id":"st_cvj6sg6p6f1abm77japg","pricing_plan_id":"cebpf4jnsgd1na2vs0mg"},{"bike_id":"1d0e8fea-b1f6-4230-a2bb-fcc9f19a8b41","system_id":"levelo_inurba_marseille","lat":43.295548,"lon":5.375037,"is_reserved":false,"is_disabled":false,"rental_uris":{"android":"levelo://app?vid=1d0e8fea-b1f6-4230-a2bb-fcc9f19a8b41","ios":"levelo://app?vid=1d0e8fea-b1f6-4230-a2bb-fcc9f19a8b41"},"vehicle_type_id":"4","last_reported":1752660735,"current_range_meters":20400,"station_id":"ce4bgh92rcd13ifvqb50","pricing_plan_id":"cebpf4jnsgd1na2vs0mg"},{"bike_id":"7979f844-7066-4b2f-b3ae-8dc705c729b1","system_id":"levelo_inurba_marseille","lat":43.279968,"lon":5.400048,"is_reserved":false,"is_disabled":false,"rental_uris":{"android":"levelo://app?vid=7979f844-7066-4b2f-b3ae-8dc705c729b1","ios":"levelo://app?vid=7979f844-7066-4b2f-b3ae-8dc705c729b1"},"vehicle_type_id":"4","last_reported":1752660735,"current_range_meters":20400,"station_id":"","pricing_plan_id":"cebpf4jnsgd1na2vs0mg"},{"bike_id":"3c06c487-a3c9-4dfc-8f67-804a8e2080ac","system_id":"levelo_inurba_marseille","lat":43.30148,"lon":5.38088,"is_reserved":false,"is_disabled":false,"rental_uris":{"android":"levelo://app?vid=3c06c487-a3c9-4dfc-8f67-804a8e2080ac","ios":"levelo://app?vid=3c06c487-a3c9-4dfc-8f67-804a8e2080ac"},"vehicle_type_id":"4","last_reported":1752660735,"current_range_meters":20800,"station_id":"ce4bgjp2rcd13ifvqbh0","pricing_plan_id":"cebpf4jnsgd1na2vs0mg"},{"bike_id":"a47f8e8a-b678-492e-a4a9-8f221d1d45da","system_id":"levelo_inurba_marseille","lat":43.284144,"lon":5.375045,"is_reserved":false,"is_disabled":false,"rental_uris":{"android":"levelo://app?vid=a47f8e8a-b678-492e-a4a9-8f221d1d45da","ios":"levelo://app?vid=a47f8e8a-b678-492e-a4a9-8f221d1d45da"},"vehicle_type_id":"4","last_reported":1752660735,"current_range_meters":20800,"station_id":"ce4bh412rcd13ifvqds0","pricing_plan_id":"cebpf4jnsgd1na2vs0mg"},{"bike_id":"3c36aa22-3135-4aa1-beeb-b2d5d5347c2f","system_id":"levelo_inurba_marseille","lat":43.28036,"lon":5.36944,"is_reserved":false,"is_disabled":false,"rental_uris":{"android":"levelo://app?vid=3c36aa22-3135-4aa1-beeb-b2d5d5347c2f","ios":"levelo://app?vid=3c36aa22-3135-4aa1-beeb-b2d5d5347c2f"},"vehicle_type_id":"4","last_reported":1752660735,"current_range_meters":20800,"station_id":"ce4bha12rcd13ifvqef0","pricing_plan_id":"cebpf4jnsgd1na2vs0mg"},{"bike_id":"da891840-0cec-4ccc-961c-48903736c6fa","system_id":"levelo_inurba_marseille","lat":43.31139,"lon":5.37692,"is_reserved":false,"is_disabled":false,"rental_uris":{"android":"levelo://app?vid=da891840-0cec-4ccc-961c-48903736c6fa","ios":"levelo://app?vid=da891840-0cec-4ccc-961c-48903736c6fa"},"vehicle_type_id":"4","last_reported":1752660735,"current_range_meters":20800,"station_id":"","pricing_plan_id":"cebpf4jnsgd1na2vs0mg"},{"bike_id":"da24c495-bf0f-494f-9521-4e687db6d329","system_id":"levelo_inurba_marseille","lat":43.22505,"lon":5.34782,"is_reserved":false,"is_disabled":false,"rental_uris":{"android":"levelo://app?vid=da24c495-bf0f-494f-9521-4e687db6d329","ios":"levelo://app?vid=da24c495-bf0f-494f-9521-4e687db6d329"},"vehicle_type_id":"4","last_reported":1752660735,"current_range_meters":20800,"station_id":"st_cvj5dfep6f1abm77gieg","pricing_plan_id":"cebpf4jnsgd1na2vs0mg"},{"bike_id":"5dd6ba39-4a83-4791-a933-1004b1fb810d","system_id":"levelo_inurba_marseille","lat":43.295723,"lon":5.375196,"is_reserved":false,"is_disabled":false,"rental_uris":{"android":"levelo://app?vid=5dd6ba39-4a83-4791-a933-1004b1fb810d","ios":"levelo://app?vid=5dd6ba39-4a83-4791-a933-1004b1fb810d"},"vehicle_type_id":"4","last_reported":1752660735,"current_range_meters":20800,"station_id":"","pricing_plan_id":"cebpf4jnsgd1na2vs0mg"},{"bike_id":"de97c652-6fa1-45d0-917b-6dd1f43d63b5","system_id":"levelo_inurba_marseille","lat":43.29256,"lon":5.3762,"is_reserved":false,"is_disabled":false,"rental_uris":{"android":"levelo://app?vid=de97c652-6fa1-45d0-917b-6dd1f43d63b5","ios":"levelo://app?vid=de97c652-6fa1-45d0-917b-6dd1f43d63b5"},"vehicle_type_id":"4","last_reported":1752660735,"current_range_meters":20800,"station_id":"ce4bgi12rcd13ifvqb80","pricing_plan_id":"cebpf4jnsgd1na2vs0mg"},{"bike_id":"81f88721-00d0-431c-83bf-446e11578408","system_id":"levelo_inurba_marseille","lat":43.22498,"lon":5.34777,"is_reserved":false,"is_disabled":false,"rental_uris":{"android":"levelo://app?vid=81f88721-00d0-431c-83bf-446e11578408","ios":"levelo://app?vid=81f88721-00d0-431c-83bf-446e11578408"},"vehicle_type_id":"4","last_reported":1752660735,"current_range_meters":20800,"station_id":"st_cvj5dfep6f1abm77gieg","pricing_plan_id":"cebpf4jnsgd1na2vs0mg"},{"bike_id":"dd2dc8a3-a276-4710-a199-3e90d5e5f60b","system_id":"levelo_inurba_marseille","lat":43.24737,"lon":5.41181,"is_reserved":false,"is_disabled":false,"rental_uris":{"android":"levelo://app?vid=dd2dc8a3-a276-4710-a199-3e90d5e5f60b","ios":"levelo://app?vid=dd2dc8a3-a276-4710-a199-3e90d5e5f60b"},"vehicle_type_id":"4","last_reported":1752660735,"current_range_meters":21600,"station_id":"","pricing_plan_id":"cebpf4jnsgd1na2vs0mg"},{"bike_id":"1c807684-63cc-4a73-81c2-4e7a1b1b87f8","system_id":"levelo_inurba_marseille","lat":43.30543,"lon":5.36596,"is_reserved":false,"is_disabled":false,"rental_uris":{"android":"levelo://app?vid=1c807684-63cc-4a73-81c2-4e7a1b1b87f8","ios":"levelo://app?vid=1c807684-63cc-4a73-81c2-4e7a1b1b87f8"},"vehicle_type_id":"4","last_reported":1752660735,"current_range_meters":21600,"station_id":"ce4bgs12rcd13ifvqcag","pricing_plan_id":"cebpf4jnsgd1na2vs0mg"},{"bike_id":"38264f39-519e-431d-a8e7-327e430cfc9f","system_id":"levelo_inurba_marseille","lat":43.25503,"lon":5.37364,"is_reserved":false,"is_disabled":false,"rental_uris":{"android":"levelo://app?vid=38264f39-519e-431d-a8e7-327e430cfc9f","ios":"levelo://app?vid=38264f39-519e-431d-a8e7-327e430cfc9f"},"vehicle_type_id":"4","last_reported":1752660735,"current_range_meters":21600,"station_id":"","pricing_plan_id":"cebpf4jnsgd1na2vs0mg"},{"bike_id":"6080ed21-5b67-46a9-a9fa-fe5671071008","system_id":"levelo_inurba_marseille","lat":43.28449,"lon":5.38278,"is_reserved":false,"is_disabled":false,"rental_uris":{"android":"levelo://app?vid=6080ed21-5b67-46a9-a9fa-fe5671071008","ios":"levelo://app?vid=6080ed21-5b67-46a9-a9fa-fe5671071008"},"vehicle_type_id":"4","last_reported":1752660735,"current_range_meters":21600,"station_id":"","pricing_plan_id":"cebpf4jnsgd1na2vs0mg"},{"bike_id":"066ca89a-f552-41f7-a0f6-009fc5bb176b","system_id":"levelo_inurba_marseille","lat":43.29839,"lon":5.36271,"is_reserved":false,"is_disabled":false,"rental_uris":{"android":"levelo://app?vid=066ca89a-f552-41f7-a0f6-009fc5bb176b","ios":"levelo://app?vid=066ca89a-f552-41f7-a0f6-009fc5bb176b"},"vehicle_type_id":"4","last_reported":1752660735,"current_range_meters":22000,"station_id":"ce4bgpp2rcd13ifvqc3g","pricing_plan_id":"cebpf4jnsgd1na2vs0mg"},{"bike_id":"9a68afab-4c65-4365-990e-ecbeace4e45f","system_id":"levelo_inurba_marseille","lat":43.29036,"lon":5.38646,"is_reserved":false,"is_disabled":false,"rental_uris":{"android":"levelo://app?vid=9a68afab-4c65-4365-990e-ecbeace4e45f","ios":"levelo://app?vid=9a68afab-4c65-4365-990e-ecbeace4e45f"},"vehicle_type_id":"4","last_reported":1752660735,"current_range_meters":22000,"station_id":"ce4bh4p2rcd13ifvqe0g","pricing_plan_id":"cebpf4jnsgd1na2vs0mg"},{"bike_id":"f2e05247-957c-47a3-8054-f0149c9de63d","system_id":"levelo_inurba_marseille","lat":43.30527,"lon":5.36546,"is_reserved":false,"is_disabled":false,"rental_uris":{"android":"levelo://app?vid=f2e05247-957c-47a3-8054-f0149c9de63d","ios":"levelo://app?vid=f2e05247-957c-47a3-8054-f0149c9de63d"},"vehicle_type_id":"4","last_reported":1752660735,"current_range_meters":22000,"station_id":"ce4bgs12rcd13ifvqcag","pricing_plan_id":"cebpf4jnsgd1na2vs0mg"},{"bike_id":"8dc5c4ef-31df-4b7e-8a98-9c226d5ddbfe","system_id":"levelo_inurba_marseille","lat":43.26206,"lon":5.37441,"is_reserved":false,"is_disabled":false,"rental_uris":{"android":"levelo://app?vid=8dc5c4ef-31df-4b7e-8a98-9c226d5ddbfe","ios":"levelo://app?vid=8dc5c4ef-31df-4b7e-8a98-9c226d5ddbfe"},"vehicle_type_id":"4","last_reported":1752660735,"current_range_meters":22000,"station_id":"ce4bhgp2rcd13ifvqfc0","pricing_plan_id":"cebpf4jnsgd1na2vs0mg"},{"bike_id":"7f44c1e6-7a9d-404d-b556-fc68c4b30ed7","system_id":"levelo_inurba_marseille","lat":43.26568,"lon":5.39026,"is_reserved":false,"is_disabled":false,"rental_uris":{"android":"levelo://app?vid=7f44c1e6-7a9d-404d-b556-fc68c4b30ed7","ios":"levelo://app?vid=7f44c1e6-7a9d-404d-b556-fc68c4b30ed7"},"vehicle_type_id":"4","last_reported":1752660735,"current_range_meters":22000,"station_id":"ce4bhe12rcd13ifvqf30","pricing_plan_id":"cebpf4jnsgd1na2vs0mg"},{"bike_id":"744c72e9-be0f-4d3a-8561-7ed977981218","system_id":"levelo_inurba_marseille","lat":43.211926,"lon":5.350706,"is_reserved":false,"is_disabled":false,"rental_uris":{"android":"levelo://app?vid=744c72e9-be0f-4d3a-8561-7ed977981218","ios":"levelo://app?vid=744c72e9-be0f-4d3a-8561-7ed977981218"},"vehicle_type_id":"4","last_reported":1752660735,"current_range_meters":22000,"station_id":"st_cvj6sg6p6f1abm77japg","pricing_plan_id":"cebpf4jnsgd1na2vs0mg"},{"bike_id":"6951283f-3dda-40ee-86fd-a5735469f1ee","system_id":"levelo_inurba_marseille","lat":43.30423,"lon":5.39742,"is_reserved":false,"is_disabled":false,"rental_uris":{"android":"levelo://app?vid=6951283f-3dda-40ee-86fd-a5735469f1ee","ios":"levelo://app?vid=6951283f-3dda-40ee-86fd-a5735469f1ee"},"vehicle_type_id":"4","last_reported":1752660735,"current_range_meters":22400,"station_id":"ce4bh092rcd13ifvqd20","pricing_plan_id":"cebpf4jnsgd1na2vs0mg"},{"bike_id":"ae0e87b6-ffbd-4bfb-ab4b-4093585430c2","system_id":"levelo_inurba_marseille","lat":43.30951,"lon":5.3903,"is_reserved":false,"is_disabled":false,"rental_uris":{"android":"levelo://app?vid=ae0e87b6-ffbd-4bfb-ab4b-4093585430c2","ios":"levelo://app?vid=ae0e87b6-ffbd-4bfb-ab4b-4093585430c2"},"vehicle_type_id":"4","last_reported":1752660735,"current_range_meters":22400,"station_id":"ce4bgup2rcd13ifvqco0","pricing_plan_id":"cebpf4jnsgd1na2vs0mg"},{"bike_id":"38e14905-81a2-459d-a8e3-08b98bc074c6","system_id":"levelo_inurba_marseille","lat":43.30523,"lon":5.36542,"is_reserved":false,"is_disabled":false,"rental_uris":{"android":"levelo://app?vid=38e14905-81a2-459d-a8e3-08b98bc074c6","ios":"levelo://app?vid=38e14905-81a2-459d-a8e3-08b98bc074c6"},"vehicle_type_id":"4","last_reported":1752660735,"current_range_meters":22400,"station_id":"ce4bgs12rcd13ifvqcag","pricing_plan_id":"cebpf4jnsgd1na2vs0mg"},{"bike_id":"972c3666-7f22-4a83-9e3e-db283ce51a91","system_id":"levelo_inurba_marseille","lat":43.2439,"lon":5.37061,"is_reserved":false,"is_disabled":false,"rental_uris":{"android":"levelo://app?vid=972c3666-7f22-4a83-9e3e-db283ce51a91","ios":"levelo://app?vid=972c3666-7f22-4a83-9e3e-db283ce51a91"},"vehicle_type_id":"4","last_reported":1752660735,"current_range_meters":22800,"station_id":"ce4bhhh2rcd13ifvqfk0","pricing_plan_id":"cebpf4jnsgd1na2vs0mg"},{"bike_id":"ee77f27c-f1c1-46ed-bbc3-8ed0a48c0994","system_id":"levelo_inurba_marseille","lat":43.30409,"lon":5.36741,"is_reserved":false,"is_disabled":false,"rental_uris":{"android":"levelo://app?vid=ee77f27c-f1c1-46ed-bbc3-8ed0a48c0994","ios":"levelo://app?vid=ee77f27c-f1c1-46ed-bbc3-8ed0a48c0994"},"vehicle_type_id":"4","last_reported":1752660735,"current_range_meters":22800,"station_id":"","pricing_plan_id":"cebpf4jnsgd1na2vs0mg"},{"bike_id":"a1b31f5f-d75f-4788-ae51-60235e5a087f","system_id":"levelo_inurba_marseille","lat":43.30735,"lon":5.42466,"is_reserved":false,"is_disabled":false,"rental_uris":{"android":"levelo://app?vid=a1b31f5f-d75f-4788-ae51-60235e5a087f","ios":"levelo://app?vid=a1b31f5f-d75f-4788-ae51-60235e5a087f"},"vehicle_type_id":"4","last_reported":1752660735,"current_range_meters":22800,"station_id":"st_cvj6ca6bvosntc0bfgr0","pricing_plan_id":"cebpf4jnsgd1na2vs0mg"},{"bike_id":"f6244edd-7116-4275-b2b6-1c71073b6c49","system_id":"levelo_inurba_marseille","lat":43.29363,"lon":5.37851,"is_reserved":false,"is_disabled":false,"rental_uris":{"android":"levelo://app?vid=f6244edd-7116-4275-b2b6-1c71073b6c49","ios":"levelo://app?vid=f6244edd-7116-4275-b2b6-1c71073b6c49"},"vehicle_type_id":"4","last_reported":1752660735,"current_range_meters":22800,"station_id":"ce4bgjh2rcd13ifvqbf0","pricing_plan_id":"cebpf4jnsgd1na2vs0mg"},{"bike_id":"3ead8eed-75ba-4675-b975-79e2e8a24e19","system_id":"levelo_inurba_marseille","lat":43.2594,"lon":5.40943,"is_reserved":false,"is_disabled":false,"rental_uris":{"android":"levelo://app?vid=3ead8eed-75ba-4675-b975-79e2e8a24e19","ios":"levelo://app?vid=3ead8eed-75ba-4675-b975-79e2e8a24e19"},"vehicle_type_id":"4","last_reported":1752660735,"current_range_meters":22800,"station_id":"ce4bhm92rcd13ifvqglg","pricing_plan_id":"cebpf4jnsgd1na2vs0mg"},{"bike_id":"dbb47d8b-91ba-43ef-943b-ce7e9356f05c","system_id":"levelo_inurba_marseille","lat":43.28032,"lon":5.36953,"is_reserved":false,"is_disabled":false,"rental_uris":{"android":"levelo://app?vid=dbb47d8b-91ba-43ef-943b-ce7e9356f05c","ios":"levelo://app?vid=dbb47d8b-91ba-43ef-943b-ce7e9356f05c"},"vehicle_type_id":"4","last_reported":1752660735,"current_range_meters":22800,"station_id":"ce4bha12rcd13ifvqef0","pricing_plan_id":"cebpf4jnsgd1na2vs0mg"},{"bike_id":"468f8702-9f91-4cf0-a45e-61af83c538e0","system_id":"levelo_inurba_marseille","lat":43.24167,"lon":5.39777,"is_reserved":false,"is_disabled":false,"rental_uris":{"android":"levelo://app?vid=468f8702-9f91-4cf0-a45e-61af83c538e0","ios":"levelo://app?vid=468f8702-9f91-4cf0-a45e-61af83c538e0"},"vehicle_type_id":"4","last_reported":1752660735,"current_range_meters":23200,"station_id":"ce4bhn12rcd13ifvqgpg","pricing_plan_id":"cebpf4jnsgd1na2vs0mg"},