{"last_updated":1743185657,"ttl":60,"version":"2.2","data":{"bikes":[{"bike_id":"ed03a150-4a27-44d7-9b16-1d6f489ee6d1","system_id":"levelo_inurba_marseille","lat":43.29193,"lon":5.35795,"is_reserved":false,"is_disabled":false,"rental_uris":{"android":"levelo://app?vid=ed03a150-4a27-44d7-9b16-1d6f489ee6d1","ios":"levelo://app?vid=ed03a150-4a27-44d7-9b16-1d6f489ee6d1"},"vehicle_type_id":"4","last_reported":1743185657,"current_range_meters":2800,"station_id":"ce4bhb12rcd13ifvqel0","pricing_plan_id":"cebpf4jnsgd1na2vs0mg"},{"bike_id":"a8d3b117-b969-4715-ba6d-1ed39a5d939d","system_id":"levelo_inurba_marseille","lat":43.2893,"lon":5.36631,"is_reserved":false,"is_disabled":false,"rental_uris":{"android":"levelo://app?vid=a8d3b117-b969-4715-ba6d-1ed39a5d939d","ios":"levelo://app?vid=a8d3b117-b969-4715-ba6d-1ed39a5d939d"},"vehicle_type_id":"4","last_reported":1743185657,"current_range_meters":2800,"station_id":"ce4bhap2rcd13ifvqek0","pricing_plan_id":"cebpf4jnsgd1na2vs0mg"},{"bike_id":"34952d5e-dd9a-4d2d-82e9-1648f42c01ea","system_id":"levelo_inurba_marseille","lat":43.29531,"lon":5.38541,"is_reserved":false,"is_disabled":false,"rental_uris":{"android":"levelo://app?vid=34952d5e-dd9a-4d2d-82e9-1648f42c01ea","ios":"levelo://app?vid=34952d5e-dd9a-4d2d-82e9-1648f42c01ea"},"vehicle_type_id":"4","last_reported":1743185657,"current_range_meters":2800,"station_id":"ce4bgih2rcd13ifvqba0","pricing_plan_id":"cebpf4jnsgd1na2vs0mg"},{"bike_id":"515faa86-fa39-46ff-930a-2fe51eead6f6","system_id":"levelo_inurba_marseille","lat":43.26609,"lon":5.39381,"is_reserved":false,"is_disabled":false,"rental_uris":{"android":"levelo://app?vid=515faa86-fa39-46ff-930a-2fe51eead6f6","ios":"levelo://app?vid=515faa86-fa39-46ff-930a-2fe51eead6f6"},"vehicle_type_id":"4","last_reported":1743185657,"current_range_meters":2800,"station_id":"","pricing_plan_id":"cebpf4jnsgd1na2vs0mg"},{"bike_id":"ac0410d7-b72d-43c9-bd16-b4b473483fd5","system_id":"levelo_inurba_marseille","lat":43.29233,"lon":5.36072,"is_reserved":false,"is_disabled":false,"rental_uris":{"android":"levelo://app?vid=ac0410d7-b72d-43c9-bd16-b4b473483fd5","ios":"levelo://app?vid=ac0410d7-b72d-43c9-bd16-b4b473483fd5"},"vehicle_type_id":"4","last_reported":1743185657,"current_range_meters":2800,"station_id":"ce4bhbh2rcd13ifvqeqg","pricing_plan_id":"cebpf4jnsgd1na2vs0mg"},{"bike_id":"9f53286b-7617-466a-8be2-5c9c339e9f3e","system_id":"levelo_inurba_marseille","lat":43.29527,"lon":5.39398,"is_reserved":false,"is_disabled":false,"rental_uris":{"android":"levelo://app?vid=9f53286b-7617-466a-8be2-5c9c339e9f3e","ios":"levelo://app?vid=9f53286b-7617-466a-8be2-5c9c339e9f3e"},"vehicle_type_id":"4","last_reported":1743185657,"current_range_meters":2800,"station_id":"ce4bh292rcd13ifvqdf0","pricing_plan_id":"cebpf4jnsgd1na2vs0mg"},{"bike_id":"78f350e2-15df-4974-a5e5-d6660a6ed0c9","system_id":"levelo_inurba_marseille","lat":43.28273,"lon":5.35066,"is_reserved":false,"is_disabled":false,"rental_uris":{"android":"levelo://app?vid=78f350e2-15df-4974-a5e5-d6660a6ed0c9","ios":"levelo://app?vid=78f350e2-15df-4974-a5e5-d6660a6ed0c9"},"vehicle_type_id":"4","last_reported":1743185657,"current_range_meters":2800,"station_id":"ce4bhbp2rcd13ifvqerg","pricing_plan_id":"cebpf4jnsgd1na2vs0mg"},{"bike_id":"2563834f-3548-4be4-85bf-4eb0567a74f5","system_id":"levelo_inurba_marseille","lat":43.27611,"lon":5.36102,"is_reserved":false,"is_disabled":false,"rental_uris":{"android":"levelo://app?vid=2563834f-3548-4be4-85bf-4eb0567a74f5","ios":"levelo://app?vid=2563834f-3548-4be4-85bf-4eb0567a74f5"},"vehicle_type_id":"4","last_reported":1743185657,"current_range_meters":2800,"station_id":"ce4bgj92rcd13ifvqbe0","pricing_plan_id":"cebpf4jnsgd1na2vs0mg"},{"bike_id":"935f3020-1d44-4f0e-886d-3fee48ff1b53","system_id":"levelo_inurba_marseille","lat":43.24654,"lon":5.38898,"is_reserved":false,"is_disabled":false,"rental_uris":{"android":"levelo://app?vid=935f3020-1d44-4f0e-886d-3fee48ff1b53","ios":"levelo://app?vid=935f3020-1d44-4f0e-886d-3fee48ff1b53"},"vehicle_type_id":"4","last_reported":1743185657,"current_range_meters":2800,"station_id":"ce4bhg12rcd13ifvqf60","pricing_plan_id":"cebpf4jnsgd1na2vs0mg"},{"bike_id":"cc4de36b-3a36-410b-8e55-9cabe9433bcf","system_id":"levelo_inurba_marseille","lat":43.30194,"lon":5.36615,"is_reserved":false,"is_disabled":false,"rental_uris":{"android":"levelo://app?vid=cc4de36b-3a36-410b-8e55-9cabe9433bcf","ios":"levelo://app?vid=cc4de36b-3a36-410b-8e55-9cabe9433bcf"},"vehicle_type_id":"4","last_reported":1743185657,"current_range_meters":2800,"station_id":"ce4bgrh2rcd13ifvqc8g","pricing_plan_id":"cebpf4jnsgd1na2vs0mg"},{"bike_id":"1cf52eee-b557-43b4-a841-b687a2d1c17e","system_id":"levelo_inurba_marseille","lat":43.31358,"lon":5.385,"is_reserved":false,"is_disabled":false,"rental_uris":{"android":"levelo://app?vid=1cf52eee-b557-43b4-a841-b687a2d1c17e","ios":"levelo://app?vid=1cf52eee-b557-43b4-a841-b687a2d1c17e"},"vehicle_type_id":"4","last_reported":1743185657,"current_range_meters":2800,"station_id":"ce4bgt92rcd13ifvqcf0","pricing_plan_id":"cebpf4jnsgd1na2vs0mg"},{"bike_id":"df680603-7e7a-4306-baa9-dbb5d5ec46e8","system_id":"levelo_inurba_marseille","lat":43.28619,"lon":5.35096,"is_reserved":false,"is_disabled":false,"rental_uris":{"android":"levelo://app?vid=df680603-7e7a-4306-baa9-dbb5d5ec46e8","ios":"levelo://app?vid=df680603-7e7a-4306-baa9-dbb5d5ec46e8"},"vehicle_type_id":"4","last_reported":1743185657,"current_range_meters":3200,"station_id":"ce4bhch2rcd13ifvqeug","pricing_plan_id":"cebpf4jnsgd1na2vs0mg"},{"bike_id":"3b1176ef-b2bf-4bfe-81f1-61230d688f9b","system_id":"levelo_inurba_marseille","lat":43.30652,"lon":5.40084,"is_reserved":false,"is_disabled":false,"rental_uris":{"android":"levelo://app?vid=3b1176ef-b2bf-4bfe-81f1-61230d688f9b","ios":"levelo://app?vid=3b1176ef-b2bf-4bfe-81f1-61230d688f9b"},"vehicle_type_id":"4","last_reported":1743185657,"current_range_meters":3200,"station_id":"ce4bh112rcd13ifvqda0","pricing_plan_id":"cebpf4jnsgd1na2vs0mg"},{"bike_id":"75c532a3-2e93-41df-9a18-15d422780085","system_id":"levelo_inurba_marseille","lat":43.273178,"lon":5.392841,"is_reserved":false,"is_disabled":false,"rental_uris":{"android":"levelo://app?vid=75c532a3-2e93-41df-9a18-15d422780085","ios":"levelo://app?vid=75c532a3-2e93-41df-9a18-15d422780085"},"vehicle_type_id":"4","last_reported":1743185657,"current_range_meters":3200,"station_id":"ce4bhi12rcd13ifvqfq0","pricing_plan_id":"cebpf4jnsgd1na2vs0mg"},{"bike_id":"138a313c-4ce2-486d-9310-c114bf7f7065","system_id":"levelo_inurba_marseille","lat":43.2872,"lon":5.36094,"is_reserved":false,"is_disabled":false,"rental_uris":{"android":"levelo://app?vid=138a313c-4ce2-486d-9310-c114bf7f7065","ios":"levelo://app?vid=138a313c-4ce2-486d-9310-c114bf7f7065"},"vehicle_type_id":"4","last_reported":1743185657,"current_range_meters":3200,"station_id":"cki0cbj6b192h4jlfktg","pricing_plan_id":"cebpf4jnsgd1na2vs0mg"},{"bike_id":"23fa518d-7be8-44f7-b6f2-f161ce326fe8","system_id":"levelo_inurba_marseille","lat":43.31369,"lon":5.385,"is_reserved":false,"is_disabled":false,"rental_uris":{"android":"levelo://app?vid=23fa518d-7be8-44f7-b6f2-f161ce326fe8","ios":"levelo://app?vid=23fa518d-7be8-44f7-b6f2-f161ce326fe8"},"vehicle_type_id":"4","last_reported":1743185657,"current_range_meters":3200,"station_id":"ce4bgt92rcd13ifvqcf0","pricing_plan_id":"cebpf4jnsgd1na2vs0mg"},{"bike_id":"fe06e956-a1f5-4d2b-9e84-3f5d96f8b4f7","system_id":"levelo_inurba_marseille","lat":43.28939,"lon":5.36644,"is_reserved":false,"is_disabled":false,"rental_uris":{"android":"levelo://app?vid=fe06e956-a1f5-4d2b-9e84-3f5d96f8b4f7","ios":"levelo://app?vid=fe06e956-a1f5-4d2b-9e84-3f5d96f8b4f7"},"vehicle_type_id":"4","last_reported":1743185657,"current_range_meters":3200,"station_id":"ce4bhap2rcd13ifvqek0","pricing_plan_id":"cebpf4jnsgd1na2vs0mg"},{"bike_id":"82a168d9-5ae9-4e5c-8382-d188ca77af6e","system_id":"levelo_inurba_marseille","lat":43.29034,"lon":5.38645,"is_reserved":false,"is_disabled":false,"rental_uris":{"android":"levelo://app?vid=82a168d9-5ae9-4e5c-8382-d188ca77af6e","ios":"levelo://app?vid=82a168d9-5ae9-4e5c-8382-d188ca77af6e"},"vehicle_type_id":"4","last_reported":1743185657,"current_range_meters":3200,"station_id":"ce4bh4p2rcd13ifvqe0g","pricing_plan_id":"cebpf4jnsgd1na2vs0mg"},{"bike_id":"a6a6042c-677b-471a-9cd3-7ef24fc168ee","system_id":"levelo_inurba_marseille","lat":43.2953,"lon":5.38532,"is_reserved":false,"is_disabled":false,"rental_uris":{"android":"levelo://app?vid=a6a6042c-677b-471a-9cd3-7ef24fc168ee","ios":"levelo://app?vid=a6a6042c-677b-471a-9cd3-7ef24fc168ee"},"vehicle_type_id":"4","last_reported":1743185657,"current_range_meters":3600,"station_id":"ce4bgih2rcd13ifvqba0","pricing_plan_id":"cebpf4jnsgd1na2vs0mg"},{"bike_id":"1423b392-d772-4d8d-8ec6-823261f58ade","system_id":"levelo_inurba_marseille","lat":43.29536,"lon":5.38546,"is_reserved":false,"is_disabled":false,"rental_uris":{"android":"levelo://app?vid=1423b392-d772-4d8d-8ec6-823261f58ade","ios":"levelo://app?vid=1423b392-d772-4d8d-8ec6-823261f58ade"},"vehicle_type_id":"4","last_reported":1743185657,"current_range_meters":3600,"station_id":"ce4bgih2rcd13ifvqba0","pricing_plan_id":"cebpf4jnsgd1na2vs0mg"},{"bike_id":"aebc8f4c-f879-4dc8-9f4c-0b0c46b42a69","system_id":"levelo_inurba_marseille","lat":43.31705,"lon":5.40474,"is_reserved":false,"is_disabled":false,"rental_uris":{"android":"levelo://app?vid=aebc8f4c-f879-4dc8-9f4c-0b0c46b42a69","ios":"levelo://app?vid=aebc8f4c-f879-4dc8-9f4c-0b0c46b42a69"},"vehicle_type_id":"4","last_reported":1743185657,"current_range_meters":3600,"station_id":"ce4bh012rcd13ifvqd00","pricing_plan_id":"cebpf4jnsgd1na2vs0mg"},{"bike_id":"31e3428f-764b-4284-8fac-701b82ead1be","system_id":"levelo_inurba_marseille","lat":43.30796,"lon":5.3816,"is_reserved":false,"is_disabled":false,"rental_uris":{"android":"levelo://app?vid=31e3428f-764b-4284-8fac-701b82ead1be","ios":"levelo://app?vid=31e3428f-764b-4284-8fac-701b82ead1be"},"vehicle_type_id":"4","last_reported":1743185657,"current_range_meters":3200,"station_id":"ce4bgt12rcd13ifvqce0","pricing_plan_id":"cebpf4jnsgd1na2vs0mg"},{"bike_id":"506ce695-b167-43e8-b938-7c8c3ba9155d","system_id":"levelo_inurba_marseille","lat":43.295568,"lon":5.378426,"is_reserved":false,"is_disabled":false,"rental_uris":{"android":"levelo://app?vid=506ce695-b167-43e8-b938-7c8c3ba9155d","ios":"levelo://app?vid=506ce695-b167-43e8-b938-7c8c3ba9155d"},"vehicle_type_id":"4","last_reported":1743185657,"current_range_meters":3600,"station_id":"ce4bgkh2rcd13ifvqbl0","pricing_plan_id":"cebpf4jnsgd1na2vs0mg"},{"bike_id":"f0bf13c9-4a68-4cfa-8bb2-6c17060aebe1","system_id":"levelo_inurba_marseille","lat":43.24547,"lon":5.39524,"is_reserved":false,"is_disabled":false,"rental_uris":{"android":"levelo://app?vid=f0bf13c9-4a68-4cfa-8bb2-6c17060aebe1","ios":"levelo://app?vid=f0bf13c9-4a68-4cfa-8bb2-6c17060aebe1"},"vehicle_type_id":"4","last_reported":1743185657,"current_range_meters":3600,"station_id":"ce4bhlp2rcd13ifvqgjg","pricing_plan_id":"cebpf4jnsgd1na2vs0mg"},{"bike_id":"fa301892-584e-4a9c-8a96-6dcb606156c3","system_id":"levelo_inurba_marseille","lat":43.28995,"lon":5.35603,"is_reserved":false,"is_disabled":false,"rental_uris":{"android":"levelo://app?vid=fa301892-584e-4a9c-8a96-6dcb606156c3","ios":"levelo://app?vid=fa301892-584e-4a9c-8a96-6dcb606156c3"},"vehicle_type_id":"4","last_reported":1743185657,"current_range_meters":3600,"station_id":"ce4bhb92rcd13ifvqen0","pricing_plan_id":"cebpf4jnsgd1na2vs0mg"},{"bike_id":"f6646e8b-e53d-4722-b388-dcd1f3259566","system_id":"levelo_inurba_marseille","lat":43.30799,"lon":5.435277,"is_reserved":false,"is_disabled":false,"rental_uris":{"android":"levelo://app?vid=f6646e8b-e53d-4722-b388-dcd1f3259566","ios":"levelo://app?vid=f6646e8b-e53d-4722-b388-dcd1f3259566"},"vehicle_type_id":"4","last_reported":1743185657,"current_range_meters":3600,"station_id":"ce4bhph2rcd13ifvqheg","pricing_plan_id":"cebpf4jnsgd1na2vs0mg"},{"bike_id":"b7db976b-ea85-46f8-ab58-116a53355f9e","system_id":"levelo_inurba_marseille","lat":43.28458,"lon":5.35885,"is_reserved":false,"is_disabled":false,"rental_uris":{"android":"levelo://app?vid=b7db976b-ea85-46f8-ab58-116a53355f9e","ios":"levelo://app?vid=b7db976b-ea85-46f8-ab58-116a53355f9e"},"vehicle_type_id":"4","last_reported":1743185657,"current_range_meters":3600,"station_id":"ce4bhah2rcd13ifvqei0","pricing_plan_id":"cebpf4jnsgd1na2vs0mg"},{"bike_id":"7f5604f5-9508-41de-b35c-0531726d019c","system_id":"levelo_inurba_marseille","lat":43.28415,"lon":5.37521,"is_reserved":false,"is_disabled":false,"rental_uris":{"android":"levelo://app?vid=7f5604f5-9508-41de-b35c-0531726d019c","ios":"levelo://app?vid=7f5604f5-9508-41de-b35c-0531726d019c"},"vehicle_type_id":"4","last_reported":1743185657,"current_range_meters":800,"station_id":"ce4bh412rcd13ifvqds0","pricing_plan_id":"cebpf4jnsgd1na2vs0mg"},{"bike_id":"c34ce7e2-c1c7-418e-aa98-3252ad5d2389","system_id":"levelo_inurba_marseille","lat":43.292237,"lon":5.360618,"is_reserved":false,"is_disabled":false,"rental_uris":{"android":"levelo://app?vid=c34ce7e2-c1c7-418e-aa98-3252ad5d2389","ios":"levelo://app?vid=c34ce7e2-c1c7-418e-aa98-3252ad5d2389"},"vehicle_type_id":"4","last_reported":1743185657,"current_range_meters":3600,"station_id":"ce4bhbh2rcd13ifvqeqg","pricing_plan_id":"cebpf4jnsgd1na2vs0mg"},{"bike_id":"2d6007fe-3061-4022-8dc7-392cfb11cf17","system_id":"levelo_inurba_marseille","lat":43.28464,"lon":5.35877,"is_reserved":false,"is_disabled":false,"rental_uris":{"android":"levelo://app?vid=2d6007fe-3061-4022-8dc7-392cfb11cf17","ios":"levelo://app?vid=2d6007fe-3061-4022-8dc7-392cfb11cf17"},"vehicle_type_id":"4","last_reported":1743185657,"current_range_meters":3600,"station_id":"ce4bhah2rcd13ifvqei0","pricing_plan_id":"cebpf4jnsgd1na2vs0mg"},{"bike_id":"d2248bad-5d73-405a-bdc0-aed88f47204e","system_id":"levelo_inurba_marseille","lat":43.29516,"lon":5.39039,"is_reserved":false,"is_disabled":false,"rental_uris":{"android":"levelo://app?vid=d2248bad-5d73-405a-bdc0-aed88f47204e","ios":"levelo://app?vid=d2248bad-5d73-405a-bdc0-aed88f47204e"},"vehicle_type_id":"4","last_reported":1743185657,"current_range_meters":3600,"station_id":"ce4bh3p2rcd13ifvqdp0","pricing_plan_id":"cebpf4jnsgd1na2vs0mg"},{"bike_id":"54514fb1-fbe6-4196-8708-23ddc9890768","system_id":"levelo_inurba_marseille","lat":43.26571,"lon":5.39012,"is_reserved":false,"is_disabled":false,"rental_uris":{"android":"levelo://app?vid=54514fb1-fbe6-4196-8708-23ddc9890768","ios":"levelo://app?vid=54514fb1-fbe6-4196-8708-23ddc9890768"},"vehicle_type_id":"4","last_reported":1743185657,"current_range_meters":4000,"station_id":"ce4bhe12rcd13ifvqf30","pricing_plan_id":"cebpf4jnsgd1na2vs0mg"},{"bike_id":"d6e9e824-dbc0-43d9-a108-5b661bc96e33","system_id":"levelo_inurba_marseille","lat":43.29006,"lon":5.35628,"is_reserved":false,"is_disabled":false,"rental_uris":{"android":"levelo://app?vid=d6e9e824-dbc0-43d9-a108-5b661bc96e33","ios":"levelo://app?vid=d6e9e824-dbc0-43d9-a108-5b661bc96e33"},"vehicle_type_id":"4","last_reported":1743185657,"current_range_meters":4000,"station_id":"ce4bhb92rcd13ifvqen0","pricing_plan_id":"cebpf4jnsgd1na2vs0mg"},{"bike_id":"c217ff47-ba87-4837-b14c-7457aec064c0","system_id":"levelo_inurba_marseille","lat":43.28617,"lon":5.35111,"is_reserved":false,"is_disabled":false,"rental_uris":{"android":"levelo://app?vid=c217ff47-ba87-4837-b14c-7457aec064c0","ios":"levelo://app?vid=c217ff47-ba87-4837-b14c-7457aec064c0"},"vehicle_type_id":"4","last_reported":1743185657,"current_range_meters":4000,"station_id":"ce4bhch2rcd13ifvqeug","pricing_plan_id":"cebpf4jnsgd1na2vs0mg"},{"bike_id":"3b6642fb-9a62-434c-9a78-b0bd182fc628","system_id":"levelo_inurba_marseille","lat":43.27905,"lon":5.41235,"is_reserved":false,"is_disabled":false,"rental_uris":{"android":"levelo://app?vid=3b6642fb-9a62-434c-9a78-b0bd182fc628","ios":"levelo://app?vid=3b6642fb-9a62-434c-9a78-b0bd182fc628"},"vehicle_type_id":"4","last_reported":1743185657,"current_range_meters":4000,"station_id":"","pricing_plan_id":"cebpf4jnsgd1na2vs0mg"},{"bike_id":"c18155db-65c7-4d5a-8c5b-923eb75c675d","system_id":"levelo_inurba_marseille","lat":43.32103,"lon":5.36802,"is_reserved":false,"is_disabled":false,"rental_uris":{"android":"levelo://app?vid=c18155db-65c7-4d5a-8c5b-923eb75c675d","ios":"levelo://app?vid=c18155db-65c7-4d5a-8c5b-923eb75c675d"},"vehicle_type_id":"4","last_reported":1743185657,"current_range_meters":4000,"station_id":"ce4bhrh2rcd13ifvqhug","pricing_plan_id":"cebpf4jnsgd1na2vs0mg"},{"bike_id":"70846603-8ac1-4be5-b806-1b387754fe56","system_id":"levelo_inurba_marseille","lat":43.30467,"lon":5.37901,"is_reserved":false,"is_disabled":false,"rental_uris":{"android":"levelo://app?vid=70846603-8ac1-4be5-b806-1b387754fe56","ios":"levelo://app?vid=70846603-8ac1-4be5-b806-1b387754fe56"},"vehicle_type_id":"4","last_reported":1743185657,"current_range_meters":4000,"station_id":"ce4bgup2rcd13ifvqcn0","pricing_plan_id":"cebpf4jnsgd1na2vs0mg"},{"bike_id":"17d0f0fd-7393-435f-8cf7-a14f368eb591","system_id":"levelo_inurba_marseille","lat":43.29364,"lon":5.37864,"is_reserved":false,"is_disabled":true,"rental_uris":{"android":"levelo://app?vid=17d0f0fd-7393-435f-8cf7-a14f368eb591","ios":"levelo://app?vid=17d0f0fd-7393-435f-8cf7-a14f368eb591"},"vehicle_type_id":"4","last_reported":1743185657,"current_range_meters":4400,"station_id":"ce4bgjh2rcd13ifvqbf0","pricing_plan_id":"cebpf4jnsgd1na2vs0mg"},{"bike_id":"2a5a88c6-6739-46cf-96e0-7c638127f6b0","system_id":"levelo_inurba_marseille","lat":43.282258,"lon":5.350933,"is_reserved":false,"is_disabled":false,"rental_uris":{"android":"levelo://app?vid=2a5a88c6-6739-46cf-96e0-7c638127f6b0","ios":"levelo://app?vid=2a5a88c6-6739-46cf-96e0-7c638127f6b0"},"vehicle_type_id":"4","last_reported":1743185657,"current_range_meters":4400,"station_id":"ce4bgnh2rcd13ifvqc0g","pricing_plan_id":"cebpf4jnsgd1na2vs0mg"},{"bike_id":"31261d8e-b5fd-4a38-84b3-00072a81f958","system_id":"levelo_inurba_marseille","lat":43.29879,"lon":5.3976,"is_reserved":false,"is_disabled":false,"rental_uris":{"android":"levelo://app?vid=31261d8e-b5fd-4a38-84b3-00072a81f958","ios":"levelo://app?vid=31261d8e-b5fd-4a38-84b3-00072a81f958"},"vehicle_type_id":"4","last_reported":1743185657,"current_range_meters":4400,"station_id":"ce4bh0h2rcd13ifvqd50","pricing_plan_id":"cebpf4jnsgd1na2vs0mg"},{"bike_id":"698f4211-f27c-4218-b77f-94f9b925e6bc","system_id":"levelo_inurba_marseille","lat":43.29422,"lon":5.38622,"is_reserved":false,"is_disabled":false,"rental_uris":{"android":"levelo://app?vid=698f4211-f27c-4218-b77f-94f9b925e6bc","ios":"levelo://app?vid=698f4211-f27c-4218-b77f-94f9b925e6bc"},"vehicle_type_id":"4","last_reported":1743185657,"current_range_meters":3200,"station_id":"ce4bh2h2rcd13ifvqdh0","pricing_plan_id":"cebpf4jnsgd1na2vs0mg"},{"bike_id":"e5915009-d92f-4964-866d-74b2a7e05f97","system_id":"levelo_inurba_marseille","lat":43.317,"lon":5.40467,"is_reserved":false,"is_disabled":false,"rental_uris":{"android":"levelo://app?vid=e5915009-d92f-4964-866d-74b2a7e05f97","ios":"levelo://app?vid=e5915009-d92f-4964-866d-74b2a7e05f97"},"vehicle_type_id":"4","last_reported":1743185657,"current_range_meters":4400,"station_id":"ce4bh012rcd13ifvqd00","pricing_plan_id":"cebpf4jnsgd1na2vs0mg"},{"bike_id":"3ba33190-788c-44db-b334-d3a41568d8b2","system_id":"levelo_inurba_marseille","lat":43.29258,"lon":5.38441,"is_reserved":false,"is_disabled":false,"rental_uris":{"android":"levelo://app?vid=3ba33190-788c-44db-b334-d3a41568d8b2","ios":"levelo://app?vid=3ba33190-788c-44db-b334-d3a41568d8b2"},"vehicle_type_id":"4","last_reported":1743185657,"current_range_meters":4400,"station_id":"ce4bh692rcd13ifvqea0","pricing_plan_id":"cebpf4jnsgd1na2vs0mg"},{"bike_id":"755385bd-eaca-4c00-ac08-a1c4a0363f0d","system_id":"levelo_inurba_marseille","lat":43.2795,"lon":5.41054,"is_reserved":false,"is_disabled":false,"rental_uris":{"android":"levelo://app?vid=755385bd-eaca-4c00-ac08-a1c4a0363f0d","ios":"levelo://app?vid=755385bd-eaca-4c00-ac08-a1c4a0363f0d"},"vehicle_type_id":"4","last_reported":1743185657,"current_range_meters":4400,"station_id":"ce4bhnp2rcd13ifvqh0g","pricing_plan_id":"cebpf4jnsgd1na2vs0mg"},{"bike_id":"bb1b022e-e63e-4631-81fc-5970482bae30","system_id":"levelo_inurba_marseille","lat":43.29179,"lon":5.37138,"is_reserved":false,"is_disabled":false,"rental_uris":{"android":"levelo://app?vid=bb1b022e-e63e-4631-81fc-5970482bae30","ios":"levelo://app?vid=bb1b022e-e63e-4631-81fc-5970482bae30"},"vehicle_type_id":"4","last_reported":1743185657,"current_range_meters":4400,"station_id":"ce4bha92rcd13ifvqeh0","pricing_plan_id":"cebpf4jnsgd1na2vs0mg"},{"bike_id":"fb2cac55-3279-42d3-9c3e-0d8e72ffd85c","system_id":"levelo_inurba_marseille","lat":43.29573,"lon":5.39977,"is_reserved":false,"is_disabled":false,"rental_uris":{"android":"levelo://app?vid=fb2cac55-3279-42d3-9c3e-0d8e72ffd85c","ios":"levelo://app?vid=fb2cac55-3279-42d3-9c3e-0d8e72ffd85c"},"vehicle_type_id":"4","last_reported":1743185657,"current_range_meters":4400,"station_id":"ce4bh312rcd13ifvqdj0","pricing_plan_id":"cebpf4jnsgd1na2vs0mg"},{"bike_id":"b3f0e9e1-352e-4946-855d-3d1a5ba0fc08","system_id":"levelo_inurba_marseille","lat":43.30932,"lon":5.40136,"is_reserved":false,"is_disabled":false,"rental_uris":{"android":"levelo://app?vid=b3f0e9e1-352e-4946-855d-3d1a5ba0fc08","ios":"levelo://app?vid=b3f0e9e1-352e-4946-855d-3d1a5ba0fc08"},"vehicle_type_id":"4","last_reported":1743185657,"current_range_meters":4800,"station_id":"ce4bgvp2rcd13ifvqct0","pricing_plan_id":"cebpf4jnsgd1na2vs0mg"},{"bike_id":"8c447348-4639-476a-af36-fa47c12f4ae6","system_id":"levelo_inurba_marseille","lat":43.2873,"lon":5.3609,"is_reserved":false,"is_disabled":false,"rental_uris":{"android":"levelo://app?vid=8c447348-4639-476a-af36-fa47c12f4ae6","ios":"levelo://app?vid=8c447348-4639-476a-af36-fa47c12f4ae6"},"vehicle_type_id":"4","last_reported":1743185657,"current_range_meters":4800,"station_id":"cki0cbj6b192h4jlfktg","pricing_plan_id":"cebpf4jnsgd1na2vs0mg"},{"bike_id":"9b6b5664-07f9-450e-a946-ff576f414882","system_id":"levelo_inurba_marseille","lat":43.27974,"lon":5.38589,"is_reserved":false,"is_disabled":false,"rental_uris":{"android":"levelo://app?vid=9b6b5664-07f9-450e-a946-ff576f414882","ios":"levelo://app?vid=9b6b5664-07f9-450e-a946-ff576f414882"},"vehicle_type_id":"4","last_reported":1743185657,"current_range_meters":4800,"station_id":"","pricing_plan_id":"cebpf4jnsgd1na2vs0mg"},{"bike_id":"d0612d68-05ec-487b-96dc-cf8352d58a49","system_id":"levelo_inurba_marseille","lat":43.27941,"lon":5.41046,"is_reserved":false,"is_disabled":false,"rental_uris":{"android":"levelo://app?vid=d0612d68-05ec-487b-96dc-cf8352d58a49","ios":"levelo://app?vid=d0612d68-05ec-487b-96dc-cf8352d58a49"},"vehicle_type_id":"4","last_reported":1743185657,"current_range_meters":4800,"station_id":"ce4bhnp2rcd13ifvqh0g","pricing_plan_id":"cebpf4jnsgd1na2vs0mg"},{"bike_id":"d43b2a86-10ae-42b3-8b7e-8bb72fd0fb1c","system_id":"levelo_inurba_marseille","lat":43.288501,"lon":5.358377,"is_reserved":false,"is_disabled":false,"rental_uris":{"android":"levelo://app?vid=d43b2a86-10ae-42b3-8b7e-8bb72fd0fb1c","ios":"levelo://app?vid=d43b2a86-10ae-42b3-8b7e-8bb72fd0fb1c"},"vehicle_type_id":"4","last_reported":1743185657,"current_range_meters":4800,"station_id":"ce4bhb12rcd13ifvqem0","pricing_plan_id":"cebpf4jnsgd1na2vs0mg"},{"bike_id":"89c71c96-b5d7-4d7c-8789-e8f3f60ba850","system_id":"levelo_inurba_marseille","lat":43.26066,"lon":5.39397,"is_reserved":false,"is_disabled":false,"rental_uris":{"android":"levelo://app?vid=89c71c96-b5d7-4d7c-8789-e8f3f60ba850","ios":"levelo://app?vid=89c71c96-b5d7-4d7c-8789-e8f3f60ba850"},"vehicle_type_id":"4","last_reported":1743185657,"current_range_meters":5600,"station_id":"ce4bhh92rcd13ifvqfj0","pricing_plan_id":"cebpf4jnsgd1na2vs0mg"},{"bike_id":"9108efae-73e9-412e-8196-cfca317be609","system_id":"levelo_inurba_marseille","lat":43.29314,"lon":5.37177,"is_reserved":false,"is_disabled":true,"rental_uris":{"android":"levelo://app?vid=9108efae-73e9-412e-8196-cfca317be609","ios":"levelo://app?vid=9108efae-73e9-412e-8196-cfca317be609"},"vehicle_type_id":"4","last_reported":1743185657,"current_range_meters":5600,"station_id":"ce4bgh92rcd13ifvqb40","pricing_plan_id":"cebpf4jnsgd1na2vs0mg"},{"bike_id":"e609d048-ed4c-49a8-a7c3-c3b0fefc64d9","system_id":"levelo_inurba_marseille","lat":43.286105,"lon":5.370593,"is_reserved":false,"is_disabled":false,"rental_uris":{"android":"levelo://app?vid=e609d048-ed4c-49a8-a7c3-c3b0fefc64d9","ios":"levelo://app?vid=e609d048-ed4c-49a8-a7c3-c3b0fefc64d9"},"vehicle_type_id":"4","last_reported":1743185657,"current_range_meters":5600,"station_id":"ce4bht12rcd13ifvqi60","pricing_plan_id":"cebpf4jnsgd1na2vs0mg"},{"bike_id":"d8e72215-80e9-4b0b-bc35-4c5f71f6a1db","system_id":"levelo_inurba_marseille","lat":43.29265,"lon":5.38442,"is_reserved":false,"is_disabled":false,"rental_uris":{"android":"levelo://app?vid=d8e72215-80e9-4b0b-bc35-4c5f71f6a1db","ios":"levelo://app?vid=d8e72215-80e9-4b0b-bc35-4c5f71f6a1db"},"vehicle_type_id":"4","last_reported":1743185657,"current_range_meters":5600,"station_id":"ce4bh692rcd13ifvqea0","pricing_plan_id":"cebpf4jnsgd1na2vs0mg"},{"bike_id":"1ceb5bcf-fbae-4362-b43e-d69bc70b887f","system_id":"levelo_inurba_marseille","lat":43.29536,"lon":5.38545,"is_reserved":false,"is_disabled":false,"rental_uris":{"android":"levelo://app?vid=1ceb5bcf-fbae-4362-b43e-d69bc70b887f","ios":"levelo://app?vid=1ceb5bcf-fbae-4362-b43e-d69bc70b887f"},"vehicle_type_id":"4","last_reported":1743185657,"current_range_meters":5600,"station_id":"ce4bgih2rcd13ifvqba0","pricing_plan_id":"cebpf4jnsgd1na2vs0mg"},{"bike_id":"c9a908b5-adf8-40f4-b520-2b4a34af1f3a","system_id":"levelo_inurba_marseille","lat":43.27914,"lon":5.38016,"is_reserved":false,"is_disabled":false,"rental_uris":{"android":"levelo://app?vid=c9a908b5-adf8-40f4-b520-2b4a34af1f3a","ios":"levelo://app?vid=c9a908b5-adf8-40f4-b520-2b4a34af1f3a"},"vehicle_type_id":"4","last_reported":1743185657,"current_range_meters":5600,"station_id":"ce4bhf92rcd13ifvqf50","pricing_plan_id":"cebpf4jnsgd1na2vs0mg"},{"bike_id":"da3eb438-3d64-4408-a000-004cd5b861d5","system_id":"levelo_inurba_marseille","lat":43.27498,"lon":5.42441,"is_reserved":false,"is_disabled":false,"rental_uris":{"android":"levelo://app?vid=da3eb438-3d64-4408-a000-004cd5b861d5","ios":"levelo://app?vid=da3eb438-3d64-4408-a000-004cd5b861d5"},"vehicle_type_id":"4","last_reported":1743185657,"current_range_meters":5600,"station_id":"ce4bhn92rcd13ifvqgrg","pricing_plan_id":"cebpf4jnsgd1na2vs0mg"},{"bike_id":"d2d2b7af-4ccb-4347-bdd9-d3401f08acf8","system_id":"levelo_inurba_marseille","lat":43.2798,"lon":5.38753,"is_reserved":false,"is_disabled":false,"rental_uris":{"android":"levelo://app?vid=d2d2b7af-4ccb-4347-bdd9-d3401f08acf8","ios":"levelo://app?vid=d2d2b7af-4ccb-4347-bdd9-d3401f08acf8"},"vehicle_type_id":"4","last_reported":1743185657,"current_range_meters":5600,"station_id":"ce4bhg12rcd13ifvqf80","pricing_plan_id":"cebpf4jnsgd1na2vs0mg"},{"bike_id":"f348a209-301b-4cfd-8ccf-49e9142a0251","system_id":"levelo_inurba_marseille","lat":43.32108,"lon":5.3678,"is_reserved":false,"is_disabled":false,"rental_uris":{"android":"levelo://app?vid=f348a209-301b-4cfd-8ccf-49e9142a0251","ios":"levelo://app?vid=f348a209-301b-4cfd-8ccf-49e9142a0251"},"vehicle_type_id":"4","last_reported":1743185657,"current_range_meters":5600,"station_id":"ce4bhrh2rcd13ifvqhug","pricing_plan_id":"cebpf4jnsgd1na2vs0mg"},{"bike_id":"6edc9794-b713-4f1b-9889-77c579abc271","system_id":"levelo_inurba_marseille","lat":43.29752,"lon":5.37651,"is_reserved":false,"is_disabled":false,"rental_uris":{"android":"levelo://app?vid=6edc9794-b713-4f1b-9889-77c579abc271","ios":"levelo://app?vid=6edc9794-b713-4f1b-9889-77c579abc271"},"vehicle_type_id":"4","last_reported":1743185657,"current_range_meters":4800,"station_id":"ce4bgkh2rcd13ifvqbl0","pricing_plan_id":"cebpf4jnsgd1na2vs0mg"},{"bike_id":"8610c0a7-54e0-46b6-b97c-eb43fd27f9ca","system_id":"levelo_inurba_marseille","lat":43.29824,"lon":5.37686,"is_reserved":false,"is_disabled":false,"rental_uris":{"android":"levelo://app?vid=8610c0a7-54e0-46b6-b97c-eb43fd27f9ca","ios":"levelo://app?vid=8610c0a7-54e0-46b6-b97c-eb43fd27f9ca"},"vehicle_type_id":"4","last_reported":1743185657,"current_range_meters":5600,"station_id":"","pricing_plan_id":"cebpf4jnsgd1na2vs0mg"},{"bike_id":"699ee9a7-4cb7-4cb9-89a6-4651dd2e8629","system_id":"levelo_inurba_marseille","lat":43.288605,"lon":5.358489,"is_reserved":false,"is_disabled":false,"rental_uris":{"android":"levelo://app?vid=699ee9a7-4cb7-4cb9-89a6-4651dd2e8629","ios":"levelo://app?vid=699ee9a7-4cb7-4cb9-89a6-4651dd2e8629"},"vehicle_type_id":"4","last_reported":1743185657,"current_range_meters":5600,"station_id":"ce4bhb12rcd13ifvqem0","pricing_plan_id":"cebpf4jnsgd1na2vs0mg"},{"bike_id":"fc8e8371-f4e9-4721-bc19-563801e389dc","system_id":"levelo_inurba_marseille","lat":43.337444,"lon":5.374475,"is_reserved":false,"is_disabled":false,"rental_uris":{"android":"levelo://app?vid=fc8e8371-f4e9-4721-bc19-563801e389dc","ios":"levelo://app?vid=fc8e8371-f4e9-4721-bc19-563801e389dc"},"vehicle_type_id":"4","last_reported":1743185657,"current_range_meters":5600,"station_id":"","pricing_plan_id":"cebpf4jnsgd1na2vs0mg"},{"bike_id":"69d8688a-a733-4c28-b476-22f823f8d562","system_id":"levelo_inurba_marseille","lat":43.31284,"lon":5.40169,"is_reserved":false,"is_disabled":false,"rental_uris":{"android":"levelo://app?vid=69d8688a-a733-4c28-b476-22f823f8d562","ios":"levelo://app?vid=69d8688a-a733-4c28-b476-22f823f8d562"},"vehicle_type_id":"4","last_reported":1743185657,"current_range_meters":6000,"station_id":"ce4bh092rcd13ifvqd30","pricing_plan_id":"cebpf4jnsgd1na2vs0mg"},{"bike_id":"acfbf693-c06c-4e85-9897-ec91df1ab3d3","system_id":"levelo_inurba_marseille","lat":43.30657,"lon":5.40071,"is_reserved":false,"is_disabled":false,"rental_uris":{"android":"levelo://app?vid=acfbf693-c06c-4e85-9897-ec91df1ab3d3","ios":"levelo://app?vid=acfbf693-c06c-4e85-9897-ec91df1ab3d3"},"vehicle_type_id":"4","last_reported":1743185657,"current_range_meters":6000,"station_id":"ce4bh112rcd13ifvqda0","pricing_plan_id":"cebpf4jnsgd1na2vs0mg"},{"bike_id":"0f2f6ea1-7363-466e-9121-0246b2fdd337","system_id":"levelo_inurba_marseille","lat":43.31079,"lon":5.38356,"is_reserved":false,"is_disabled":false,"rental_uris":{"android":"levelo://app?vid=0f2f6ea1-7363-466e-9121-0246b2fdd337","ios":"levelo://app?vid=0f2f6ea1-7363-466e-9121-0246b2fdd337"},"vehicle_type_id":"4","last_reported":1743185657,"current_range_meters":6000,"station_id":"ce4bgv92rcd13ifvqcr0","pricing_plan_id":"cebpf4jnsgd1na2vs0mg"},{"bike_id":"28e72c09-b1bc-44f3-8aa5-814a7d807f58","system_id":"levelo_inurba_marseille","lat":43.30378,"lon":5.42482,"is_reserved":false,"is_disabled":false,"rental_uris":{"android":"levelo://app?vid=28e72c09-b1bc-44f3-8aa5-814a7d807f58","ios":"levelo://app?vid=28e72c09-b1bc-44f3-8aa5-814a7d807f58"},"vehicle_type_id":"4","last_reported":1743185657,"current_range_meters":6000,"station_id":"ce4bhoh2rcd13ifvqh6g","pricing_plan_id":"cebpf4jnsgd1na2vs0mg"},{"bike_id":"ddf96534-6867-495c-88b5-eff8c8163338","system_id":"levelo_inurba_marseille","lat":43.29008,"lon":5.35617,"is_reserved":false,"is_disabled":false,"rental_uris":{"android":"levelo://app?vid=ddf96534-6867-495c-88b5-eff8c8163338","ios":"levelo://app?vid=ddf96534-6867-495c-88b5-eff8c8163338"},"vehicle_type_id":"4","last_reported":1743185657,"current_range_meters":6000,"station_id":"ce4bhb92rcd13ifvqen0","pricing_plan_id":"cebpf4jnsgd1na2vs0mg"},{"bike_id":"83356d06-da84-4aa3-ae11-e20571143d10","system_id":"levelo_inurba_marseille","lat":43.28458,"lon":5.35887,"is_reserved":false,"is_disabled":false,"rental_uris":{"android":"levelo://app?vid=83356d06-da84-4aa3-ae11-e20571143d10","ios":"levelo://app?vid=83356d06-da84-4aa3-ae11-e20571143d10"},"vehicle_type_id":"4","last_reported":1743185657,"current_range_meters":6000,"station_id":"ce4bhah2rcd13ifvqei0","pricing_plan_id":"cebpf4jnsgd1na2vs0mg"},{"bike_id":"cf49318e-b0f4-4cea-92f2-6aff2f4e5c78","system_id":"levelo_inurba_marseille","lat":43.29189,"lon":5.35822,"is_reserved":false,"is_disabled":false,"rental_uris":{"android":"levelo://app?vid=cf49318e-b0f4-4cea-92f2-6aff2f4e5c78","ios":"levelo://app?vid=cf49318e-b0f4-4cea-92f2-6aff2f4e5c78"},"vehicle_type_id":"4","last_reported":1743185657,"current_range_meters":6000,"station_id":"ce4bhb12rcd13ifvqel0","pricing_plan_id":"cebpf4jnsgd1na2vs0mg"},{"bike_id":"0547e4f9-35e4-4311-b0a7-428e64a0cfaf","system_id":"levelo_inurba_marseille","lat":43.2573,"lon":5.41144,"is_reserved":false,"is_disabled":false,"rental_uris":{"android":"levelo://app?vid=0547e4f9-35e4-4311-b0a7-428e64a0cfaf","ios":"levelo://app?vid=0547e4f9-35e4-4311-b0a7-428e64a0cfaf"},"vehicle_type_id":"4","last_reported":1743185657,"current_range_meters":6000,"station_id":"ce4bhkp2rcd13ifvqgd0","pricing_plan_id":"cebpf4jnsgd1na2vs0mg"},{"bike_id":"abb80c72-54ed-4663-a18a-3657f1012ba8","system_id":"levelo_inurba_marseille","lat":43.28706,"lon":5.37388,"is_reserved":false,"is_disabled":false,"rental_uris":{"android":"levelo://app?vid=abb80c72-54ed-4663-a18a-3657f1012ba8","ios":"levelo://app?vid=abb80c72-54ed-4663-a18a-3657f1012ba8"},"vehicle_type_id":"4","last_reported":1743185657,"current_range_meters":6000,"station_id":"ce4bh3p2rcd13ifvqdq0","pricing_plan_id":"cebpf4jnsgd1na2vs0mg"},{"bike_id":"3e902ab3-ff20-4477-86ac-c45289de600e","system_id":"levelo_inurba_marseille","lat":43.32291,"lon":5.38269,"is_reserved":false,"is_disabled":false,"rental_uris":{"android":"levelo://app?vid=3e902ab3-ff20-4477-86ac-c45289de600e","ios":"levelo://app?vid=3e902ab3-ff20-4477-86ac-c45289de600e"},"vehicle_type_id":"4","last_reported":1743185657,"current_range_meters":6400,"station_id":"ce4bhr12rcd13ifvqhqg","pricing_plan_id":"cebpf4jnsgd1na2vs0mg"},{"bike_id":"df6ce8dc-4123-4a4d-87e0-ef07c773a6c7","system_id":"levelo_inurba_marseille","lat":43.29231,"lon":5.36063,"is_reserved":false,"is_disabled":false,"rental_uris":{"android":"levelo://app?vid=df6ce8dc-4123-4a4d-87e0-ef07c773a6c7","ios":"levelo://app?vid=df6ce8dc-4123-4a4d-87e0-ef07c773a6c7"},"vehicle_type_id":"4","last_reported":1743185657,"current_range_meters":6400,"station_id":"ce4bhbh2rcd13ifvqeqg","pricing_plan_id":"cebpf4jnsgd1na2vs0mg"},{"bike_id":"37d24496-3f58-43de-a6eb-cf02942442d1","system_id":"levelo_inurba_marseille","lat":43.30654,"lon":5.40086,"is_reserved":false,"is_disabled":false,"rental_uris":{"android":"levelo://app?vid=37d24496-3f58-43de-a6eb-cf02942442d1","ios":"levelo://app?vid=37d24496-3f58-43de-a6eb-cf02942442d1"},"vehicle_type_id":"4","last_reported":1743185657,"current_range_meters":6400,"station_id":"ce4bh112rcd13ifvqda0","pricing_plan_id":"cebpf4jnsgd1na2vs0mg"},{"bike_id":"f0572f02-d22d-49f0-8f0c-6b0e312e89eb","system_id":"levelo_inurba_marseille","lat":43.3137,"lon":5.38499,"is_reserved":false,"is_disabled":false,"rental_uris":{"android":"levelo://app?vid=f0572f02-d22d-49f0-8f0c-6b0e312e89eb","ios":"levelo://app?vid=f0572f02-d22d-49f0-8f0c-6b0e312e89eb"},"vehicle_type_id":"4","last_reported":1743185657,"current_range_meters":6000,"station_id":"ce4bgt92rcd13ifvqcf0","pricing_plan_id":"cebpf4jnsgd1na2vs0mg"},{"bike_id":"19221227-42ec-4f4b-8f04-42a0818e22f5","system_id":"levelo_inurba_marseille","lat":43.32121,"lon":5.36823,"is_reserved":false,"is_disabled":false,"rental_uris":{"android":"levelo://app?vid=19221227-42ec-4f4b-8f04-42a0818e22f5","ios":"levelo://app?vid=19221227-42ec-4f4b-8f04-42a0818e22f5"},"vehicle_type_id":"4","last_reported":1743185657,"current_range_meters":6400,"station_id":"ce4bhrh2rcd13ifvqhug","pricing_plan_id":"cebpf4jnsgd1na2vs0mg"},{"bike_id":"8306ff47-284b-460f-888b-6204683b7222","system_id":"levelo_inurba_marseille","lat":43.28734,"lon":5.36087,"is_reserved":false,"is_disabled":false,"rental_uris":{"android":"levelo://app?vid=8306ff47-284b-460f-888b-6204683b7222","ios":"levelo://app?vid=8306ff47-284b-460f-888b-6204683b7222"},"vehicle_type_id":"4","last_reported":1743185657,"current_range_meters":6400,"station_id":"cki0cbj6b192h4jlfktg","pricing_plan_id":"cebpf4jnsgd1na2vs0mg"},{"bike_id":"fb94d37c-a5f0-424c-9c95-a0f43cd760b8","system_id":"levelo_inurba_marseille","lat":43.30422,"lon":5.3975,"is_reserved":false,"is_disabled":true,"rental_uris":{"android":"levelo://app?vid=fb94d37c-a5f0-424c-9c95-a0f43cd760b8","ios":"levelo://app?vid=fb94d37c-a5f0-424c-9c95-a0f43cd760b8"},"vehicle_type_id":"4","last_reported":1743185657,"current_range_meters":6400,"station_id":"ce4bh092rcd13ifvqd20","pricing_plan_id":"cebpf4jnsgd1na2vs0mg"},{"bike_id":"33d50d43-ab93-4183-b1a3-a576109b2523","system_id":"levelo_inurba_marseille","lat":43.286127,"lon":5.351128,"is_reserved":false,"is_disabled":false,"rental_uris":{"android":"levelo://app?vid=33d50d43-ab93-4183-b1a3-a576109b2523","ios":"levelo://app?vid=33d50d43-ab93-4183-b1a3-a576109b2523"},"vehicle_type_id":"4","last_reported":1743185657,"current_range_meters":6800,"station_id":"ce4bhch2rcd13ifvqeug","pricing_plan_id":"cebpf4jnsgd1na2vs0mg"},{"bike_id":"1cb0a525-92c8-41f8-b63f-7b8f1bf72f71","system_id":"levelo_inurba_marseille","lat":43.29907,"lon":5.38154,"is_reserved":false,"is_disabled":false,"rental_uris":{"android":"levelo://app?vid=1cb0a525-92c8-41f8-b63f-7b8f1bf72f71","ios":"levelo://app?vid=1cb0a525-92c8-41f8-b63f-7b8f1bf72f71"},"vehicle_type_id":"4","last_reported":1743185657,"current_range_meters":6800,"station_id":"ce4bgj12rcd13ifvqbc0","pricing_plan_id":"cebpf4jnsgd1na2vs0mg"},{"bike_id":"e5b78867-96b6-4ddb-bd0c-72dfe1476b12","system_id":"levelo_inurba_marseille","lat":43.28941,"lon":5.36647,"is_reserved":false,"is_disabled":false,"rental_uris":{"android":"levelo://app?vid=e5b78867-96b6-4ddb-bd0c-72dfe1476b12","ios":"levelo://app?vid=e5b78867-96b6-4ddb-bd0c-72dfe1476b12"},"vehicle_type_id":"4","last_reported":1743185657,"current_range_meters":6800,"station_id":"ce4bhap2rcd13ifvqek0","pricing_plan_id":"cebpf4jnsgd1na2vs0mg"},{"bike_id":"bdf1bb54-efcd-4800-b1a4-fe2af9f3bfd3","system_id":"levelo_inurba_marseille","lat":43.24388,"lon":5.37055,"is_reserved":false,"is_disabled":false,"rental_uris":{"android":"levelo://app?vid=bdf1bb54-efcd-4800-b1a4-fe2af9f3bfd3","ios":"levelo://app?vid=bdf1bb54-efcd-4800-b1a4-fe2af9f3bfd3"},"vehicle_type_id":"4","last_reported":1743185657,"current_range_meters":6800,"station_id":"ce4bhhh2rcd13ifvqfk0","pricing_plan_id":"cebpf4jnsgd1na2vs0mg"},{"bike_id":"7fe9a38f-4d97-49ec-8db6-139f7c5ded5a","system_id":"levelo_inurba_marseille","lat":43.28944,"lon":5.36636,"is_reserved":false,"is_disabled":false,"rental_uris":{"android":"levelo://app?vid=7fe9a38f-4d97-49ec-8db6-139f7c5ded5a","ios":"levelo://app?vid=7fe9a38f-4d97-49ec-8db6-139f7c5ded5a"},"vehicle_type_id":"4","last_reported":1743185657,"current_range_meters":6800,"station_id":"ce4bhap2rcd13ifvqek0","pricing_plan_id":"cebpf4jnsgd1na2vs0mg"},{"bike_id":"b0805493-d664-473d-8520-81730ab79940","system_id":"levelo_inurba_marseille","lat":43.29851,"lon":5.36284,"is_reserved":false,"is_disabled":false,"rental_uris":{"android":"levelo://app?vid=b0805493-d664-473d-8520-81730ab79940","ios":"levelo://app?vid=b0805493-d664-473d-8520-81730ab79940"},"vehicle_type_id":"4","last_reported":1743185657,"current_range_meters":6400,"station_id":"ce4bgpp2rcd13ifvqc3g","pricing_plan_id":"cebpf4jnsgd1na2vs0mg"},{"bike_id":"f6e1e63e-bad9-4816-9269-e6bb068a1f9b","system_id":"levelo_inurba_marseille","lat":43.28607,"lon":5.37067,"is_reserved":false,"is_disabled":false,"rental_uris":{"android":"levelo://app?vid=f6e1e63e-bad9-4816-9269-e6bb068a1f9b","ios":"levelo://app?vid=f6e1e63e-bad9-4816-9269-e6bb068a1f9b"},"vehicle_type_id":"4","last_reported":1743185657,"current_range_meters":6800,"station_id":"ce4bht12rcd13ifvqi60","pricing_plan_id":"cebpf4jnsgd1na2vs0mg"},{"bike_id":"719f970f-63b6-4504-a68c-58fd1a9096f1","system_id":"levelo_inurba_marseille","lat":43.321089,"lon":5.367782,"is_reserved":false,"is_disabled":false,"rental_uris":{"android":"levelo://app?vid=719f970f-63b6-4504-a68c-58fd1a9096f1","ios":"levelo://app?vid=719f970f-63b6-4504-a68c-58fd1a9096f1"},"vehicle_type_id":"4","last_reported":1743185657,"current_range_meters":6800,"station_id":"ce4bh9p2rcd13ifvqec0","pricing_plan_id":"cebpf4jnsgd1na2vs0mg"},{"bike_id":"fd3421f3-9336-4d90-b616-c4936932ff9c","system_id":"levelo_inurba_marseille","lat":43.33013,"lon":5.39201,"is_reserved":false,"is_disabled":false,"rental_uris":{"android":"levelo://app?vid=fd3421f3-9336-4d90-b616-c4936932ff9c","ios":"levelo://app?vid=fd3421f3-9336-4d90-b616-c4936932ff9c"},"vehicle_type_id":"4","last_reported":1743185657,"current_range_meters":6800,"station_id":"","pricing_plan_id":"cebpf4jnsgd1na2vs0mg"},{"bike_id":"70d616e3-8eca-4707-9218-38d2fbdccab2","system_id":"levelo_inurba_marseille","lat":43.29535,"lon":5.37506,"is_reserved":false,"is_disabled":true,"rental_uris":{"android":"levelo://app?vid=70d616e3-8eca-4707-9218-38d2fbdccab2","ios":"levelo://app?vid=70d616e3-8eca-4707-9218-38d2fbdccab2"},"vehicle_type_id":"4","last_reported":1743185657,"current_range_meters":6800,"station_id":"ce4bgkp2rcd13ifvqbmg","pricing_plan_id":"cebpf4jnsgd1na2vs0mg"},{"bike_id":"0ac88cdf-dd3a-494f-aaa5-2b24d1ce393f","system_id":"levelo_inurba_marseille","lat":43.23204,"lon":5.35531,"is_reserved":false,"is_disabled":false,"rental_uris":{"android":"levelo://app?vid=0ac88cdf-dd3a-494f-aaa5-2b24d1ce393f","ios":"levelo://app?vid=0ac88cdf-dd3a-494f-aaa5-2b24d1ce393f"},"vehicle_type_id":"4","last_reported":1743185657,"current_range_meters":6800,"station_id":"ce4bhu92rcd13ifvqi70","pricing_plan_id":"cebpf4jnsgd1na2vs0mg"},{"bike_id":"64f0ea86-1180-4755-95e1-3cbc9c8d4cf5","system_id":"levelo_inurba_marseille","lat":43.33008,"lon":5.4387,"is_reserved":false,"is_disabled":true,"rental_uris":{"android":"levelo://app?vid=64f0ea86-1180-4755-95e1-3cbc9c8d4cf5","ios":"levelo://app?vid=64f0ea86-1180-4755-95e1-3cbc9c8d4cf5"},"vehicle_type_id":"4","last_reported":1743185657,"current_range_meters":6800,"station_id":"","pricing_plan_id":"cebpf4jnsgd1na2vs0mg"},{"bike_id":"a8a57a5e-84e5-4ee2-87fe-4e04842481d5","system_id":"levelo_inurba_marseille","lat":43.278155,"lon":5.407117,"is_reserved":false,"is_disabled":false,"rental_uris":{"android":"levelo://app?vid=a8a57a5e-84e5-4ee2-87fe-4e04842481d5","ios":"levelo://app?vid=a8a57a5e-84e5-4ee2-87fe-4e04842481d5"},"vehicle_type_id":"4","last_reported":1743185657,"current_range_meters":6400,"station_id":"ce4bhnh2rcd13ifvqgtg","pricing_plan_id":"cebpf4jnsgd1na2vs0mg"},{"bike_id":"6d6476c6-f9b1-496d-9514-27ef34a021fc","system_id":"levelo_inurba_marseille","lat":43.28664,"lon":5.36352,"is_reserved":false,"is_disabled":false,"rental_uris":{"android":"levelo://app?vid=6d6476c6-f9b1-496d-9514-27ef34a021fc","ios":"levelo://app?vid=6d6476c6-f9b1-496d-9514-27ef34a021fc"},"vehicle_type_id":"4","last_reported":1743185657,"current_range_meters":6800,"station_id":"ce4bhah2rcd13ifvqej0","pricing_plan_id":"cebpf4jnsgd1na2vs0mg"},{"bike_id":"6de5451a-f2c2-4bba-bb55-25e0d4f856bc","system_id":"levelo_inurba_marseille","lat":43.30876,"lon":5.39623,"is_reserved":false,"is_disabled":false,"rental_uris":{"android":"levelo://app?vid=6de5451a-f2c2-4bba-bb55-25e0d4f856bc","ios":"levelo://app?vid=6de5451a-f2c2-4bba-bb55-25e0d4f856bc"},"vehicle_type_id":"4","last_reported":1743185657,"current_range_meters":7200,"station_id":"ce4bh012rcd13ifvqcv0","pricing_plan_id":"cebpf4jnsgd1na2vs0mg"},{"bike_id":"ec940620-2a09-4eae-aace-1a0a72b62180","system_id":"levelo_inurba_marseille","lat":43.30335,"lon":5.40074,"is_reserved":false,"is_disabled":false,"rental_uris":{"android":"levelo://app?vid=ec940620-2a09-4eae-aace-1a0a72b62180","ios":"levelo://app?vid=ec940620-2a09-4eae-aace-1a0a72b62180"},"vehicle_type_id":"4","last_reported":1743185657,"current_range_meters":7200,"station_id":"","pricing_plan_id":"cebpf4jnsgd1na2vs0mg"},{"bike_id":"0f9862fa-3aea-4a9f-b2bf-c003735a4d06","system_id":"levelo_inurba_marseille","lat":43.290343,"lon":5.386585,"is_reserved":false,"is_disabled":false,"rental_uris":{"android":"levelo://app?vid=0f9862fa-3aea-4a9f-b2bf-c003735a4d06","ios":"levelo://app?vid=0f9862fa-3aea-4a9f-b2bf-c003735a4d06"},"vehicle_type_id":"4","last_reported":1743185657,"current_range_meters":7200,"station_id":"","pricing_plan_id":"cebpf4jnsgd1na2vs0mg"},{"bike_id":"bbaae9f3-e93c-4bf6-a722-1d5ad624a80f","system_id":"levelo_inurba_marseille","lat":43.27499,"lon":5.42447,"is_reserved":false,"is_disabled":false,"rental_uris":{"android":"levelo://app?vid=bbaae9f3-e93c-4bf6-a722-1d5ad624a80f","ios":"levelo://app?vid=bbaae9f3-e93c-4bf6-a722-1d5ad624a80f"},"vehicle_type_id":"4","last_reported":1743185657,"current_range_meters":7200,"station_id":"ce4bhn92rcd13ifvqgrg","pricing_plan_id":"cebpf4jnsgd1na2vs0mg"},{"bike_id":"72c31893-d734-4354-8ab9-619948fc950c","system_id":"levelo_inurba_marseille","lat":43.24931,"lon":5.38703,"is_reserved":false,"is_disabled":false,"rental_uris":{"android":"levelo://app?vid=72c31893-d734-4354-8ab9-619948fc950c","ios":"levelo://app?vid=72c31893-d734-4354-8ab9-619948fc950c"},"vehicle_type_id":"4","last_reported":1743185657,"current_range_meters":7200,"station_id":"","pricing_plan_id":"cebpf4jnsgd1na2vs0mg"},{"bike_id":"8bfdbba7-43da-49bb-a19e-7156200cfb31","system_id":"levelo_inurba_marseille","lat":43.26793,"lon":5.39415,"is_reserved":false,"is_disabled":false,"rental_uris":{"android":"levelo://app?vid=8bfdbba7-43da-49bb-a19e-7156200cfb31","ios":"levelo://app?vid=8bfdbba7-43da-49bb-a19e-7156200cfb31"},"vehicle_type_id":"4","last_reported":1743185657,"current_range_meters":7200,"station_id":"ce4bhh12rcd13ifvqfg0","pricing_plan_id":"cebpf4jnsgd1na2vs0mg"},{"bike_id":"f37ff469-e778-4b21-9aa7-69f532f0f73c","system_id":"levelo_inurba_marseille","lat":43.28454,"lon":5.35915,"is_reserved":false,"is_disabled":false,"rental_uris":{"android":"levelo://app?vid=f37ff469-e778-4b21-9aa7-69f532f0f73c","ios":"levelo://app?vid=f37ff469-e778-4b21-9aa7-69f532f0f73c"},"vehicle_type_id":"4","last_reported":1743185657,"current_range_meters":8000,"station_id":"ce4bhah2rcd13ifvqei0","pricing_plan_id":"cebpf4jnsgd1na2vs0mg"},{"bike_id":"6d8ff003-c618-4236-8510-db00ddecc93f","system_id":"levelo_inurba_marseille","lat":43.301578,"lon":5.374474,"is_reserved":false,"is_disabled":false,"rental_uris":{"android":"levelo://app?vid=6d8ff003-c618-4236-8510-db00ddecc93f","ios":"levelo://app?vid=6d8ff003-c618-4236-8510-db00ddecc93f"},"vehicle_type_id":"4","last_reported":1743185657,"current_range_meters":8000,"station_id":"ce4bgs92rcd13ifvqcc0","pricing_plan_id":"cebpf4jnsgd1na2vs0mg"},{"bike_id":"961245ca-8d90-4d71-b735-61afea929100","system_id":"levelo_inurba_marseille","lat":43.24165,"lon":5.36434,"is_reserved":false,"is_disabled":false,"rental_uris":{"android":"levelo://app?vid=961245ca-8d90-4d71-b735-61afea929100","ios":"levelo://app?vid=961245ca-8d90-4d71-b735-61afea929100"},"vehicle_type_id":"4","last_reported":1743185657,"current_range_meters":8000,"station_id":"cpo36qri1sfpv3e86is0","pricing_plan_id":"cebpf4jnsgd1na2vs0mg"},{"bike_id":"69d4a96e-aebb-48d7-9d81-4070f7503e98","system_id":"levelo_inurba_marseille","lat":43.30851,"lon":5.37349,"is_reserved":false,"is_disabled":false,"rental_uris":{"android":"levelo://app?vid=69d4a96e-aebb-48d7-9d81-4070f7503e98","ios":"levelo://app?vid=69d4a96e-aebb-48d7-9d81-4070f7503e98"},"vehicle_type_id":"4","last_reported":1743185657,"current_range_meters":8000,"station_id":"","pricing_plan_id":"cebpf4jnsgd1na2vs0mg"},{"bike_id":"bc35cde2-f20d-4d76-9ff1-54e006a8b560","system_id":"levelo_inurba_marseille","lat":43.29403,"lon":5.38635,"is_reserved":false,"is_disabled":false,"rental_uris":{"android":"levelo://app?vid=bc35cde2-f20d-4d76-9ff1-54e006a8b560","ios":"levelo://app?vid=bc35cde2-f20d-4d76-9ff1-54e006a8b560"},"vehicle_type_id":"4","last_reported":1743185657,"current_range_meters":8000,"station_id":"ce4bh2h2rcd13ifvqdh0","pricing_plan_id":"cebpf4jnsgd1na2vs0mg"},{"bike_id":"7cf1ab86-6627-40ea-9381-242fc247eae5","system_id":"levelo_inurba_marseille","lat":43.2862,"lon":5.35098,"is_reserved":false,"is_disabled":false,"rental_uris":{"android":"levelo://app?vid=7cf1ab86-6627-40ea-9381-242fc247eae5","ios":"levelo://app?vid=7cf1ab86-6627-40ea-9381-242fc247eae5"},"vehicle_type_id":"4","last_reported":1743185657,"current_range_meters":8000,"station_id":"ce4bhch2rcd13ifvqeug","pricing_plan_id":"cebpf4jnsgd1na2vs0mg"},{"bike_id":"b2fd8e70-5b37-4865-bf49-d30da2481695","system_id":"levelo_inurba_marseille","lat":43.231936,"lon":5.355531,"is_reserved":false,"is_disabled":false,"rental_uris":{"android":"levelo://app?vid=b2fd8e70-5b37-4865-bf49-d30da2481695","ios":"levelo://app?vid=b2fd8e70-5b37-4865-bf49-d30da2481695"},"vehicle_type_id":"4","last_reported":1743185657,"current_range_meters":8000,"station_id":"ce4bhu92rcd13ifvqi70","pricing_plan_id":"cebpf4jnsgd1na2vs0mg"},{"bike_id":"fbf23545-878e-46e0-b77f-1457e0849656","system_id":"levelo_inurba_marseille","lat":43.2862,"lon":5.35099,"is_reserved":false,"is_disabled":false,"rental_uris":{"android":"levelo://app?vid=fbf23545-878e-46e0-b77f-1457e0849656","ios":"levelo://app?vid=fbf23545-878e-46e0-b77f-1457e0849656"},"vehicle_type_id":"4","last_reported":1743185657,"current_range_meters":8000,"station_id":"ce4bhch2rcd13ifvqeug","pricing_plan_id":"cebpf4jnsgd1na2vs0mg"},{"bike_id":"e667779c-6ec2-4788-a247-48723e3ca1a4","system_id":"levelo_inurba_marseille","lat":43.26952,"lon":5.38629,"is_reserved":false,"is_disabled":false,"rental_uris":{"android":"levelo://app?vid=e667779c-6ec2-4788-a247-48723e3ca1a4","ios":"levelo://app?vid=e667779c-6ec2-4788-a247-48723e3ca1a4"},"vehicle_type_id":"4","last_reported":1743185657,"current_range_meters":8000,"station_id":"ce4bhh92rcd13ifvqfh0","pricing_plan_id":"cebpf4jnsgd1na2vs0mg"},{"bike_id":"37703b88-0681-4fe0-a352-8323ebd0e7ba","system_id":"levelo_inurba_marseille","lat":43.286375,"lon":5.370774,"is_reserved":false,"is_disabled":false,"rental_uris":{"android":"levelo://app?vid=37703b88-0681-4fe0-a352-8323ebd0e7ba","ios":"levelo://app?vid=37703b88-0681-4fe0-a352-8323ebd0e7ba"},"vehicle_type_id":"4","last_reported":1743185657,"current_range_meters":8000,"station_id":"ce4bht12rcd13ifvqi60","pricing_plan_id":"cebpf4jnsgd1na2vs0mg"},{"bike_id":"bced37a5-7f80-44ce-b052-052030db167f","system_id":"levelo_inurba_marseille","lat":43.2894,"lon":5.36636,"is_reserved":false,"is_disabled":false,"rental_uris":{"android":"levelo://app?vid=bced37a5-7f80-44ce-b052-052030db167f","ios":"levelo://app?vid=bced37a5-7f80-44ce-b052-052030db167f"},"vehicle_type_id":"4","last_reported":1743185657,"current_range_meters":8000,"station_id":"ce4bhap2rcd13ifvqek0","pricing_plan_id":"cebpf4jnsgd1na2vs0mg"},{"bike_id":"5de6db18-1d6c-41fa-a146-cd1bfa67cece","system_id":"levelo_inurba_marseille","lat":43.2999,"lon":5.37186,"is_reserved":false,"is_disabled":false,"rental_uris":{"android":"levelo://app?vid=5de6db18-1d6c-41fa-a146-cd1bfa67cece","ios":"levelo://app?vid=5de6db18-1d6c-41fa-a146-cd1bfa67cece"},"vehicle_type_id":"4","last_reported":1743185657,"current_range_meters":8000,"station_id":"ce4bgr92rcd13ifvqc7g","pricing_plan_id":"cebpf4jnsgd1na2vs0mg"},{"bike_id":"422a75c2-467f-4b23-9c54-3e84a1bf2eb6","system_id":"levelo_inurba_marseille","lat":43.33038,"lon":5.39055,"is_reserved":false,"is_disabled":false,"rental_uris":{"android":"levelo://app?vid=422a75c2-467f-4b23-9c54-3e84a1bf2eb6","ios":"levelo://app?vid=422a75c2-467f-4b23-9c54-3e84a1bf2eb6"},"vehicle_type_id":"4","last_reported":1743185657,"current_range_meters":8000,"station_id":"ce4bhr92rcd13ifvqhrg","pricing_plan_id":"cebpf4jnsgd1na2vs0mg"},{"bike_id":"8d03e719-94e6-47d9-8d17-410ab7926b87","system_id":"levelo_inurba_marseille","lat":43.2736,"lon":5.36241,"is_reserved":false,"is_disabled":false,"rental_uris":{"android":"levelo://app?vid=8d03e719-94e6-47d9-8d17-410ab7926b87","ios":"levelo://app?vid=8d03e719-94e6-47d9-8d17-410ab7926b87"},"vehicle_type_id":"4","last_reported":1743185657,"current_range_meters":8000,"station_id":"ce4bhbh2rcd13ifvqeo0","pricing_plan_id":"cebpf4jnsgd1na2vs0mg"},{"bike_id":"813634ed-e21d-4b9e-88e8-aa8b87581eb3","system_id":"levelo_inurba_marseille","lat":43.32115,"lon":5.36814,"is_reserved":false,"is_disabled":false,"rental_uris":{"android":"levelo://app?vid=813634ed-e21d-4b9e-88e8-aa8b87581eb3","ios":"levelo://app?vid=813634ed-e21d-4b9e-88e8-aa8b87581eb3"},"vehicle_type_id":"4","last_reported":1743185657,"current_range_meters":8400,"station_id":"ce4bhrh2rcd13ifvqhug","pricing_plan_id":"cebpf4jnsgd1na2vs0mg"},{"bike_id":"dd948f23-bc6d-4cbf-a5aa-9dc6549a6add","system_id":"levelo_inurba_marseille","lat":43.29872,"lon":5.39781,"is_reserved":false,"is_disabled":false,"rental_uris":{"android":"levelo://app?vid=dd948f23-bc6d-4cbf-a5aa-9dc6549a6add","ios":"levelo://app?vid=dd948f23-bc6d-4cbf-a5aa-9dc6549a6add"},"vehicle_type_id":"4","last_reported":1743185657,"current_range_meters":8400,"station_id":"ce4bh0h2rcd13ifvqd50","pricing_plan_id":"cebpf4jnsgd1na2vs0mg"},{"bike_id":"c54fdbf1-b302-4f7d-8ef6-0efcd0dc9a98","system_id":"levelo_inurba_marseille","lat":43.25005,"lon":5.38921,"is_reserved":false,"is_disabled":false,"rental_uris":{"android":"levelo://app?vid=c54fdbf1-b302-4f7d-8ef6-0efcd0dc9a98","ios":"levelo://app?vid=c54fdbf1-b302-4f7d-8ef6-0efcd0dc9a98"},"vehicle_type_id":"4","last_reported":1743185657,"current_range_meters":8400,"station_id":"ce4bhgp2rcd13ifvqfd0","pricing_plan_id":"cebpf4jnsgd1na2vs0mg"},{"bike_id":"9db1d6cf-1392-41cd-86f0-58be5a02f9b2","system_id":"levelo_inurba_marseille","lat":43.3031,"lon":5.39197,"is_reserved":false,"is_disabled":false,"rental_uris":{"android":"levelo://app?vid=9db1d6cf-1392-41cd-86f0-58be5a02f9b2","ios":"levelo://app?vid=9db1d6cf-1392-41cd-86f0-58be5a02f9b2"},"vehicle_type_id":"4","last_reported":1743185657,"current_range_meters":8400,"station_id":"ce4bgkh2rcd13ifvqbk0","pricing_plan_id":"cebpf4jnsgd1na2vs0mg"},{"bike_id":"fb9b5d83-e13d-407b-b838-22cd645caa9b","system_id":"levelo_inurba_marseille","lat":43.28623,"lon":5.35102,"is_reserved":false,"is_disabled":false,"rental_uris":{"android":"levelo://app?vid=fb9b5d83-e13d-407b-b838-22cd645caa9b","ios":"levelo://app?vid=fb9b5d83-e13d-407b-b838-22cd645caa9b"},"vehicle_type_id":"4","last_reported":1743185657,"current_range_meters":8400,"station_id":"ce4bhch2rcd13ifvqeug","pricing_plan_id":"cebpf4jnsgd1na2vs0mg"},{"bike_id":"53f4dd95-c2cb-45f2-a48f-6872e0d4e88a","system_id":"levelo_inurba_marseille","lat":43.23194,"lon":5.35551,"is_reserved":false,"is_disabled":false,"rental_uris":{"android":"levelo://app?vid=53f4dd95-c2cb-45f2-a48f-6872e0d4e88a","ios":"levelo://app?vid=53f4dd95-c2cb-45f2-a48f-6872e0d4e88a"},"vehicle_type_id":"4","last_reported":1743185657,"current_range_meters":8400,"station_id":"ce4bhu92rcd13ifvqi70","pricing_plan_id":"cebpf4jnsgd1na2vs0mg"},{"bike_id":"2e919ca5-ce98-4c47-a9d7-66e6ab7584e4","system_id":"levelo_inurba_marseille","lat":43.32115,"lon":5.36773,"is_reserved":false,"is_disabled":false,"rental_uris":{"android":"levelo://app?vid=2e919ca5-ce98-4c47-a9d7-66e6ab7584e4","ios":"levelo://app?vid=2e919ca5-ce98-4c47-a9d7-66e6ab7584e4"},"vehicle_type_id":"4","last_reported":1743185657,"current_range_meters":8400,"station_id":"ce4bhrh2rcd13ifvqhug","pricing_plan_id":"cebpf4jnsgd1na2vs0mg"},{"bike_id":"f6f9fa63-a538-4962-89a2-7e0fd8bec717","system_id":"levelo_inurba_marseille","lat":43.31998,"lon":5.38164,"is_reserved":false,"is_disabled":true,"rental_uris":{"android":"levelo://app?vid=f6f9fa63-a538-4962-89a2-7e0fd8bec717","ios":"levelo://app?vid=f6f9fa63-a538-4962-89a2-7e0fd8bec717"},"vehicle_type_id":"4","last_reported":1743185657,"current_range_meters":8400,"station_id":"ce4bhr12rcd13ifvqhpg","pricing_plan_id":"cebpf4jnsgd1na2vs0mg"},{"bike_id":"4cd06f5a-01c3-4eb8-9c2c-bc2dd7954ca7","system_id":"levelo_inurba_marseille","lat":43.29225,"lon":5.36067,"is_reserved":false,"is_disabled":false,"rental_uris":{"android":"levelo://app?vid=4cd06f5a-01c3-4eb8-9c2c-bc2dd7954ca7","ios":"levelo://app?vid=4cd06f5a-01c3-4eb8-9c2c-bc2dd7954ca7"},"vehicle_type_id":"4","last_reported":1743185657,"current_range_meters":8400,"station_id":"ce4bhbh2rcd13ifvqeqg","pricing_plan_id":"cebpf4jnsgd1na2vs0mg"},{"bike_id":"6a5faf51-2bec-4782-8a8f-e039ed407c9b","system_id":"levelo_inurba_marseille","lat":43.25069,"lon":5.39487,"is_reserved":false,"is_disabled":false,"rental_uris":{"android":"levelo://app?vid=6a5faf51-2bec-4782-8a8f-e039ed407c9b","ios":"levelo://app?vid=6a5faf51-2bec-4782-8a8f-e039ed407c9b"},"vehicle_type_id":"4","last_reported":1743185657,"current_range_meters":8400,"station_id":"ce4bhm12rcd13ifvqgkg","pricing_plan_id":"cebpf4jnsgd1na2vs0mg"},{"bike_id":"c9fe0ebf-b84d-41a9-8654-d9d414bf17e7","system_id":"levelo_inurba_marseille","lat":43.29843,"lon":5.36271,"is_reserved":false,"is_disabled":false,"rental_uris":{"android":"levelo://app?vid=c9fe0ebf-b84d-41a9-8654-d9d414bf17e7","ios":"levelo://app?vid=c9fe0ebf-b84d-41a9-8654-d9d414bf17e7"},"vehicle_type_id":"4","last_reported":1743185657,"current_range_meters":8400,"station_id":"ce4bgpp2rcd13ifvqc3g","pricing_plan_id":"cebpf4jnsgd1na2vs0mg"},{"bike_id":"1c96d27c-8e09-4930-b9cc-41e923967141","system_id":"levelo_inurba_marseille","lat":43.24393,"lon":5.37058,"is_reserved":false,"is_disabled":false,"rental_uris":{"android":"levelo://app?vid=1c96d27c-8e09-4930-b9cc-41e923967141","ios":"levelo://app?vid=1c96d27c-8e09-4930-b9cc-41e923967141"},"vehicle_type_id":"4","last_reported":1743185657,"current_range_meters":8000,"station_id":"ce4bhhh2rcd13ifvqfk0","pricing_plan_id":"cebpf4jnsgd1na2vs0mg"},{"bike_id":"403d7e50-4523-49d1-a7ce-385a53366a0d","system_id":"levelo_inurba_marseille","lat":43.28277,"lon":5.35073,"is_reserved":false,"is_disabled":true,"rental_uris":{"android":"levelo://app?vid=403d7e50-4523-49d1-a7ce-385a53366a0d","ios":"levelo://app?vid=403d7e50-4523-49d1-a7ce-385a53366a0d"},"vehicle_type_id":"4","last_reported":1743185657,"current_range_meters":8400,"station_id":"ce4bhbp2rcd13ifvqerg","pricing_plan_id":"cebpf4jnsgd1na2vs0mg"},{"bike_id":"ad2bfd56-278b-45af-b840-d0746afc4514","system_id":"levelo_inurba_marseille","lat":43.29255,"lon":5.38434,"is_reserved":false,"is_disabled":false,"rental_uris":{"android":"levelo://app?vid=ad2bfd56-278b-45af-b840-d0746afc4514","ios":"levelo://app?vid=ad2bfd56-278b-45af-b840-d0746afc4514"},"vehicle_type_id":"4","last_reported":1743185657,"current_range_meters":8400,"station_id":"ce4bh692rcd13ifvqea0","pricing_plan_id":"cebpf4jnsgd1na2vs0mg"},{"bike_id":"0009eca3-f243-43d3-a06a-66f6a4a5ccdd","system_id":"levelo_inurba_marseille","lat":43.23194,"lon":5.35554,"is_reserved":false,"is_disabled":false,"rental_uris":{"android":"levelo://app?vid=0009eca3-f243-43d3-a06a-66f6a4a5ccdd","ios":"levelo://app?vid=0009eca3-f243-43d3-a06a-66f6a4a5ccdd"},"vehicle_type_id":"4","last_reported":1743185657,"current_range_meters":8400,"station_id":"ce4bhu92rcd13ifvqi70","pricing_plan_id":"cebpf4jnsgd1na2vs0mg"},{"bike_id":"835ba5dd-64cc-46f6-ba98-82ac10b4bad8","system_id":"levelo_inurba_marseille","lat":43.282776,"lon":5.350445,"is_reserved":false,"is_disabled":false,"rental_uris":{"android":"levelo://app?vid=835ba5dd-64cc-46f6-ba98-82ac10b4bad8","ios":"levelo://app?vid=835ba5dd-64cc-46f6-ba98-82ac10b4bad8"},"vehicle_type_id":"4","last_reported":1743185657,"current_range_meters":8400,"station_id":"","pricing_plan_id":"cebpf4jnsgd1na2vs0mg"},{"bike_id":"e924540c-e19a-483a-a3d5-4355823fe369","system_id":"levelo_inurba_marseille","lat":43.30326,"lon":5.40428,"is_reserved":false,"is_disabled":false,"rental_uris":{"android":"levelo://app?vid=e924540c-e19a-483a-a3d5-4355823fe369","ios":"levelo://app?vid=e924540c-e19a-483a-a3d5-4355823fe369"},"vehicle_type_id":"4","last_reported":1743185657,"current_range_meters":8400,"station_id":"ce4bh012rcd13ifvqd10","pricing_plan_id":"cebpf4jnsgd1na2vs0mg"},{"bike_id":"27cbce99-11c1-4aa6-957c-c640af37ebc4","system_id":"levelo_inurba_marseille","lat":43.29179,"lon":5.358,"is_reserved":false,"is_disabled":false,"rental_uris":{"android":"levelo://app?vid=27cbce99-11c1-4aa6-957c-c640af37ebc4","ios":"levelo://app?vid=27cbce99-11c1-4aa6-957c-c640af37ebc4"},"vehicle_type_id":"4","last_reported":1743185657,"current_range_meters":8800,"station_id":"ce4bhb12rcd13ifvqel0","pricing_plan_id":"cebpf4jnsgd1na2vs0mg"},{"bike_id":"4a42ca1e-41e4-4233-a4bb-a180f04564d6","system_id":"levelo_inurba_marseille","lat":43.291757,"lon":5.371447,"is_reserved":false,"is_disabled":true,"rental_uris":{"android":"levelo://app?vid=4a42ca1e-41e4-4233-a4bb-a180f04564d6","ios":"levelo://app?vid=4a42ca1e-41e4-4233-a4bb-a180f04564d6"},"vehicle_type_id":"4","last_reported":1743185657,"current_range_meters":8800,"station_id":"ce4bha92rcd13ifvqeh0","pricing_plan_id":"cebpf4jnsgd1na2vs0mg"},{"bike_id":"861ae205-c318-4688-ac53-947993e1b65f","system_id":"levelo_inurba_marseille","lat":43.24161,"lon":5.36413,"is_reserved":false,"is_disabled":false,"rental_uris":{"android":"levelo://app?vid=861ae205-c318-4688-ac53-947993e1b65f","ios":"levelo://app?vid=861ae205-c318-4688-ac53-947993e1b65f"},"vehicle_type_id":"4","last_reported":1743185657,"current_range_meters":8800,"station_id":"cpo36qri1sfpv3e86is0","pricing_plan_id":"cebpf4jnsgd1na2vs0mg"},{"bike_id":"d76db39f-e68e-445f-925b-5c7db218909a","system_id":"levelo_inurba_marseille","lat":43.23189,"lon":5.39982,"is_reserved":false,"is_disabled":false,"rental_uris":{"android":"levelo://app?vid=d76db39f-e68e-445f-925b-5c7db218909a","ios":"levelo://app?vid=d76db39f-e68e-445f-925b-5c7db218909a"},"vehicle_type_id":"4","last_reported":1743185657,"current_range_meters":8800,"station_id":"ce4bhn12rcd13ifvqgqg","pricing_plan_id":"cebpf4jnsgd1na2vs0mg"},{"bike_id":"305331cb-357f-4edf-9298-1db4902c1df4","system_id":"levelo_inurba_marseille","lat":43.291978,"lon":5.393184,"is_reserved":false,"is_disabled":true,"rental_uris":{"android":"levelo://app?vid=305331cb-357f-4edf-9298-1db4902c1df4","ios":"levelo://app?vid=305331cb-357f-4edf-9298-1db4902c1df4"},"vehicle_type_id":"4","last_reported":1743185657,"current_range_meters":8800,"station_id":"ce4bh192rcd13ifvqdd0","pricing_plan_id":"cebpf4jnsgd1na2vs0mg"},{"bike_id":"2ae1ed5e-50d5-4b3d-91e3-54562a9c749c","system_id":"levelo_inurba_marseille","lat":43.313332,"lon":5.396908,"is_reserved":false,"is_disabled":false,"rental_uris":{"android":"levelo://app?vid=2ae1ed5e-50d5-4b3d-91e3-54562a9c749c","ios":"levelo://app?vid=2ae1ed5e-50d5-4b3d-91e3-54562a9c749c"},"vehicle_type_id":"4","last_reported":1743185657,"current_range_meters":8800,"station_id":"ce4bgvp2rcd13ifvqcu0","pricing_plan_id":"cebpf4jnsgd1na2vs0mg"},{"bike_id":"7dc939fb-c52f-4cd6-ab9f-1306471e5d5b","system_id":"levelo_inurba_marseille","lat":43.28421,"lon":5.34999,"is_reserved":false,"is_disabled":false,"rental_uris":{"android":"levelo://app?vid=7dc939fb-c52f-4cd6-ab9f-1306471e5d5b","ios":"levelo://app?vid=7dc939fb-c52f-4cd6-ab9f-1306471e5d5b"},"vehicle_type_id":"4","last_reported":1743185657,"current_range_meters":8800,"station_id":"ce4bhbh2rcd13ifvqepg","pricing_plan_id":"cebpf4jnsgd1na2vs0mg"},{"bike_id":"424417c8-67c1-4c27-bf29-2d271899c7c0","system_id":"levelo_inurba_marseille","lat":43.29274,"lon":5.38426,"is_reserved":false,"is_disabled":false,"rental_uris":{"android":"levelo://app?vid=424417c8-67c1-4c27-bf29-2d271899c7c0","ios":"levelo://app?vid=424417c8-67c1-4c27-bf29-2d271899c7c0"},"vehicle_type_id":"4","last_reported":1743185657,"current_range_meters":8800,"station_id":"ce4bh692rcd13ifvqea0","pricing_plan_id":"cebpf4jnsgd1na2vs0mg"},{"bike_id":"a79110c9-b4e1-4dee-a70d-0fe76380670d","system_id":"levelo_inurba_marseille","lat":43.28348,"lon":5.38104,"is_reserved":false,"is_disabled":false,"rental_uris":{"android":"levelo://app?vid=a79110c9-b4e1-4dee-a70d-0fe76380670d","ios":"levelo://app?vid=a79110c9-b4e1-4dee-a70d-0fe76380670d"},"vehicle_type_id":"4","last_reported":1743185657,"current_range_meters":9200,"station_id":"ce4bh412rcd13ifvqdr0","pricing_plan_id":"cebpf4jnsgd1na2vs0mg"},{"bike_id":"9ee402e7-1a17-4a4f-8096-bc833bafbd6b","system_id":"levelo_inurba_marseille","lat":43.28988,"lon":5.3661,"is_reserved":false,"is_disabled":false,"rental_uris":{"android":"levelo://app?vid=9ee402e7-1a17-4a4f-8096-bc833bafbd6b","ios":"levelo://app?vid=9ee402e7-1a17-4a4f-8096-bc833bafbd6b"},"vehicle_type_id":"4","last_reported":1743185657,"current_range_meters":9200,"station_id":"","pricing_plan_id":"cebpf4jnsgd1na2vs0mg"},{"bike_id":"a0132f60-9aba-453d-b433-8c45f99be736","system_id":"levelo_inurba_marseille","lat":43.30891,"lon":5.372053,"is_reserved":false,"is_disabled":false,"rental_uris":{"android":"levelo://app?vid=a0132f60-9aba-453d-b433-8c45f99be736","ios":"levelo://app?vid=a0132f60-9aba-453d-b433-8c45f99be736"},"vehicle_type_id":"4","last_reported":1743185657,"current_range_meters":9200,"station_id":"ce4bguh2rcd13ifvqckg","pricing_plan_id":"cebpf4jnsgd1na2vs0mg"},{"bike_id":"cd380cdd-753d-4062-9634-b246a5e93ebc","system_id":"levelo_inurba_marseille","lat":43.29219,"lon":5.36078,"is_reserved":false,"is_disabled":false,"rental_uris":{"android":"levelo://app?vid=cd380cdd-753d-4062-9634-b246a5e93ebc","ios":"levelo://app?vid=cd380cdd-753d-4062-9634-b246a5e93ebc"},"vehicle_type_id":"4","last_reported":1743185657,"current_range_meters":9200,"station_id":"ce4bhbh2rcd13ifvqeqg","pricing_plan_id":"cebpf4jnsgd1na2vs0mg"},{"bike_id":"971c92cb-66df-438d-9a85-e63af939e6ff","system_id":"levelo_inurba_marseille","lat":43.28611,"lon":5.35136,"is_reserved":false,"is_disabled":true,"rental_uris":{"android":"levelo://app?vid=971c92cb-66df-438d-9a85-e63af939e6ff","ios":"levelo://app?vid=971c92cb-66df-438d-9a85-e63af939e6ff"},"vehicle_type_id":"4","last_reported":1743185657,"current_range_meters":9200,"station_id":"ce4bhch2rcd13ifvqeug","pricing_plan_id":"cebpf4jnsgd1na2vs0mg"},{"bike_id":"ff369f7e-4f91-44f3-90a0-a815670940c0","system_id":"levelo_inurba_marseille","lat":43.29301,"lon":5.37445,"is_reserved":false,"is_disabled":false,"rental_uris":{"android":"levelo://app?vid=ff369f7e-4f91-44f3-90a0-a815670940c0","ios":"levelo://app?vid=ff369f7e-4f91-44f3-90a0-a815670940c0"},"vehicle_type_id":"4","last_reported":1743185657,"current_range_meters":8800,"station_id":"ce4bgi12rcd13ifvqb70","pricing_plan_id":"cebpf4jnsgd1na2vs0mg"},{"bike_id":"ac1e7e7a-eb2f-4716-897b-ef05533c4f15","system_id":"levelo_inurba_marseille","lat":43.304273,"lon":5.389016,"is_reserved":false,"is_disabled":false,"rental_uris":{"android":"levelo://app?vid=ac1e7e7a-eb2f-4716-897b-ef05533c4f15","ios":"levelo://app?vid=ac1e7e7a-eb2f-4716-897b-ef05533c4f15"},"vehicle_type_id":"4","last_reported":1743185657,"current_range_meters":9200,"station_id":"ce4bgg92rcd13ifvqb30","pricing_plan_id":"cebpf4jnsgd1na2vs0mg"},{"bike_id":"db9ee3d7-9fe9-4133-9e0b-a2e1b681b3cf","system_id":"levelo_inurba_marseille","lat":43.27814,"lon":5.40712,"is_reserved":false,"is_disabled":false,"rental_uris":{"android":"levelo://app?vid=db9ee3d7-9fe9-4133-9e0b-a2e1b681b3cf","ios":"levelo://app?vid=db9ee3d7-9fe9-4133-9e0b-a2e1b681b3cf"},"vehicle_type_id":"4","last_reported":1743185657,"current_range_meters":9200,"station_id":"ce4bhnh2rcd13ifvqgtg","pricing_plan_id":"cebpf4jnsgd1na2vs0mg"},{"bike_id":"f0e27e89-7189-48e7-8fa7-1c5343d181a6","system_id":"levelo_inurba_marseille","lat":43.29261,"lon":5.38434,"is_reserved":false,"is_disabled":false,"rental_uris":{"android":"levelo://app?vid=f0e27e89-7189-48e7-8fa7-1c5343d181a6","ios":"levelo://app?vid=f0e27e89-7189-48e7-8fa7-1c5343d181a6"},"vehicle_type_id":"4","last_reported":1743185657,"current_range_meters":9200,"station_id":"ce4bh692rcd13ifvqea0","pricing_plan_id":"cebpf4jnsgd1na2vs0mg"},{"bike_id":"c6b682a7-e903-4363-967f-d69957e8f7ed","system_id":"levelo_inurba_marseille","lat":43.28617,"lon":5.35106,"is_reserved":false,"is_disabled":false,"rental_uris":{"android":"levelo://app?vid=c6b682a7-e903-4363-967f-d69957e8f7ed","ios":"levelo://app?vid=c6b682a7-e903-4363-967f-d69957e8f7ed"},"vehicle_type_id":"4","last_reported":1743185657,"current_range_meters":9200,"station_id":"ce4bhch2rcd13ifvqeug","pricing_plan_id":"cebpf4jnsgd1na2vs0mg"},{"bike_id":"70cb17f5-cdf1-47fa-b901-00068bb5e719","system_id":"levelo_inurba_marseille","lat":43.29248,"lon":5.38435,"is_reserved":false,"is_disabled":false,"rental_uris":{"android":"levelo://app?vid=70cb17f5-cdf1-47fa-b901-00068bb5e719","ios":"levelo://app?vid=70cb17f5-cdf1-47fa-b901-00068bb5e719"},"vehicle_type_id":"4","last_reported":1743185657,"current_range_meters":9200,"station_id":"ce4bh692rcd13ifvqea0","pricing_plan_id":"cebpf4jnsgd1na2vs0mg"},{"bike_id":"1c14bf9c-ada4-4a36-8853-740a1a2c000a","system_id":"levelo_inurba_marseille","lat":43.23192,"lon":5.35545,"is_reserved":false,"is_disabled":false,"rental_uris":{"android":"levelo://app?vid=1c14bf9c-ada4-4a36-8853-740a1a2c000a","ios":"levelo://app?vid=1c14bf9c-ada4-4a36-8853-740a1a2c000a"},"vehicle_type_id":"4","last_reported":1743185657,"current_range_meters":9200,"station_id":"ce4bhu92rcd13ifvqi70","pricing_plan_id":"cebpf4jnsgd1na2vs0mg"},{"bike_id":"b818d3f6-4a36-410e-ae84-c1243986149a","system_id":"levelo_inurba_marseille","lat":43.24388,"lon":5.37056,"is_reserved":false,"is_disabled":false,"rental_uris":{"android":"levelo://app?vid=b818d3f6-4a36-410e-ae84-c1243986149a","ios":"levelo://app?vid=b818d3f6-4a36-410e-ae84-c1243986149a"},"vehicle_type_id":"4","last_reported":1743185657,"current_range_meters":9200,"station_id":"ce4bhhh2rcd13ifvqfk0","pricing_plan_id":"cebpf4jnsgd1na2vs0mg"},{"bike_id":"65e39f6a-226b-4cfc-b4fd-de989989906d","system_id":"levelo_inurba_marseille","lat":43.28455,"lon":5.35884,"is_reserved":false,"is_disabled":false,"rental_uris":{"android":"levelo://app?vid=65e39f6a-226b-4cfc-b4fd-de989989906d","ios":"levelo://app?vid=65e39f6a-226b-4cfc-b4fd-de989989906d"},"vehicle_type_id":"4","last_reported":1743185657,"current_range_meters":9200,"station_id":"ce4bhah2rcd13ifvqei0","pricing_plan_id":"cebpf4jnsgd1na2vs0mg"},{"bike_id":"b6462b41-adb4-4ec5-8a6e-99b4357c842a","system_id":"levelo_inurba_marseille","lat":43.296028,"lon":5.380946,"is_reserved":false,"is_disabled":false,"rental_uris":{"android":"levelo://app?vid=b6462b41-adb4-4ec5-8a6e-99b4357c842a","ios":"levelo://app?vid=b6462b41-adb4-4ec5-8a6e-99b4357c842a"},"vehicle_type_id":"4","last_reported":1743185657,"current_range_meters":9600,"station_id":"ce4bgt92rcd13ifvqcf0","pricing_plan_id":"cebpf4jnsgd1na2vs0mg"},{"bike_id":"b80c291a-8650-4568-afa3-c78fe4ee7e60","system_id":"levelo_inurba_marseille","lat":43.29003,"lon":5.35624,"is_reserved":false,"is_disabled":false,"rental_uris":{"android":"levelo://app?vid=b80c291a-8650-4568-afa3-c78fe4ee7e60","ios":"levelo://app?vid=b80c291a-8650-4568-afa3-c78fe4ee7e60"},"vehicle_type_id":"4","last_reported":1743185657,"current_range_meters":9600,"station_id":"ce4bhb92rcd13ifvqen0","pricing_plan_id":"cebpf4jnsgd1na2vs0mg"},{"bike_id":"c1523304-38a3-46ef-8e18-9a561146533b","system_id":"levelo_inurba_marseille","lat":43.2762,"lon":5.36116,"is_reserved":false,"is_disabled":false,"rental_uris":{"android":"levelo://app?vid=c1523304-38a3-46ef-8e18-9a561146533b","ios":"levelo://app?vid=c1523304-38a3-46ef-8e18-9a561146533b"},"vehicle_type_id":"4","last_reported":1743185657,"current_range_meters":9600,"station_id":"ce4bgj92rcd13ifvqbe0","pricing_plan_id":"cebpf4jnsgd1na2vs0mg"},{"bike_id":"68ded190-a1cc-4ffb-a44d-65d94f15eb01","system_id":"levelo_inurba_marseille","lat":43.28724,"lon":5.36099,"is_reserved":false,"is_disabled":false,"rental_uris":{"android":"levelo://app?vid=68ded190-a1cc-4ffb-a44d-65d94f15eb01","ios":"levelo://app?vid=68ded190-a1cc-4ffb-a44d-65d94f15eb01"},"vehicle_type_id":"4","last_reported":1743185657,"current_range_meters":9600,"station_id":"cki0cbj6b192h4jlfktg","pricing_plan_id":"cebpf4jnsgd1na2vs0mg"},{"bike_id":"7120f45a-dd67-4197-bf90-c4b3d554bf25","system_id":"levelo_inurba_marseille","lat":43.29266,"lon":5.38442,"is_reserved":false,"is_disabled":false,"rental_uris":{"android":"levelo://app?vid=7120f45a-dd67-4197-bf90-c4b3d554bf25","ios":"levelo://app?vid=7120f45a-dd67-4197-bf90-c4b3d554bf25"},"vehicle_type_id":"4","last_reported":1743185657,"current_range_meters":9600,"station_id":"ce4bh692rcd13ifvqea0","pricing_plan_id":"cebpf4jnsgd1na2vs0mg"},{"bike_id":"c5887b5d-7662-4633-9b7e-c1f693b96552","system_id":"levelo_inurba_marseille","lat":43.27379,"lon":5.3626,"is_reserved":false,"is_disabled":false,"rental_uris":{"android":"levelo://app?vid=c5887b5d-7662-4633-9b7e-c1f693b96552","ios":"levelo://app?vid=c5887b5d-7662-4633-9b7e-c1f693b96552"},"vehicle_type_id":"4","last_reported":1743185657,"current_range_meters":9600,"station_id":"ce4bhbh2rcd13ifvqeo0","pricing_plan_id":"cebpf4jnsgd1na2vs0mg"},{"bike_id":"a1d71df6-fa57-4528-930b-f57626518922","system_id":"levelo_inurba_marseille","lat":43.29993,"lon":5.37178,"is_reserved":false,"is_disabled":false,"rental_uris":{"android":"levelo://app?vid=a1d71df6-fa57-4528-930b-f57626518922","ios":"levelo://app?vid=a1d71df6-fa57-4528-930b-f57626518922"},"vehicle_type_id":"4","last_reported":1743185657,"current_range_meters":9600,"station_id":"ce4bgr92rcd13ifvqc7g","pricing_plan_id":"cebpf4jnsgd1na2vs0mg"},{"bike_id":"b1801fd4-10ae-42f1-abe3-1d0c7eb44ac5","system_id":"levelo_inurba_marseille","lat":43.28162,"lon":5.42628,"is_reserved":false,"is_disabled":false,"rental_uris":{"android":"levelo://app?vid=b1801fd4-10ae-42f1-abe3-1d0c7eb44ac5","ios":"levelo://app?vid=b1801fd4-10ae-42f1-abe3-1d0c7eb44ac5"},"vehicle_type_id":"4","last_reported":1743185657,"current_range_meters":10000,"station_id":"ce4bhnh2rcd13ifvqgug","pricing_plan_id":"cebpf4jnsgd1na2vs0mg"},{"bike_id":"92860f8b-7c5d-49ef-828c-41172cb2b993","system_id":"levelo_inurba_marseille","lat":43.33603,"lon":5.41038,"is_reserved":false,"is_disabled":false,"rental_uris":{"android":"levelo://app?vid=92860f8b-7c5d-49ef-828c-41172cb2b993","ios":"levelo://app?vid=92860f8b-7c5d-49ef-828c-41172cb2b993"},"vehicle_type_id":"4","last_reported":1743185657,"current_range_meters":9600,"station_id":"ce4bhqh2rcd13ifvqhmg","pricing_plan_id":"cebpf4jnsgd1na2vs0mg"},{"bike_id":"3fbcdfd8-5176-471d-aa84-e8e20bb4418e","system_id":"levelo_inurba_marseille","lat":43.32109,"lon":5.3683,"is_reserved":false,"is_disabled":false,"rental_uris":{"android":"levelo://app?vid=3fbcdfd8-5176-471d-aa84-e8e20bb4418e","ios":"levelo://app?vid=3fbcdfd8-5176-471d-aa84-e8e20bb4418e"},"vehicle_type_id":"4","last_reported":1743185657,"current_range_meters":10000,"station_id":"ce4bhrh2rcd13ifvqhug","pricing_plan_id":"cebpf4jnsgd1na2vs0mg"},{"bike_id":"661fa6de-24e3-4832-9e18-3d3a5339528f","system_id":"levelo_inurba_marseille","lat":43.28414,"lon":5.34997,"is_reserved":false,"is_disabled":false,"rental_uris":{"android":"levelo://app?vid=661fa6de-24e3-4832-9e18-3d3a5339528f","ios":"levelo://app?vid=661fa6de-24e3-4832-9e18-3d3a5339528f"},"vehicle_type_id":"4","last_reported":1743185657,"current_range_meters":10000,"station_id":"ce4bhbh2rcd13ifvqepg","pricing_plan_id":"cebpf4jnsgd1na2vs0mg"},{"bike_id":"0df5c583-0f65-4552-9372-ad818188ad32","system_id":"levelo_inurba_marseille","lat":43.31891,"lon":5.40725,"is_reserved":false,"is_disabled":false,"rental_uris":{"android":"levelo://app?vid=0df5c583-0f65-4552-9372-ad818188ad32","ios":"levelo://app?vid=0df5c583-0f65-4552-9372-ad818188ad32"},"vehicle_type_id":"4","last_reported":1743185657,"current_range_meters":10000,"station_id":"ce4bhq12rcd13ifvqhig","pricing_plan_id":"cebpf4jnsgd1na2vs0mg"},{"bike_id":"3d6f77a5-38af-4abc-b9f0-4b0dedd9675c","system_id":"levelo_inurba_marseille","lat":43.265,"lon":5.39541,"is_reserved":false,"is_disabled":false,"rental_uris":{"android":"levelo://app?vid=3d6f77a5-38af-4abc-b9f0-4b0dedd9675c","ios":"levelo://app?vid=3d6f77a5-38af-4abc-b9f0-4b0dedd9675c"},"vehicle_type_id":"4","last_reported":1743185657,"current_range_meters":10000,"station_id":"ce4bhi12rcd13ifvqfq0","pricing_plan_id":"cebpf4jnsgd1na2vs0mg"},{"bike_id":"48078fd9-c1c8-445a-880f-3e1015bdff7d","system_id":"levelo_inurba_marseille","lat":43.30261,"lon":5.40061,"is_reserved":false,"is_disabled":false,"rental_uris":{"android":"levelo://app?vid=48078fd9-c1c8-445a-880f-3e1015bdff7d","ios":"levelo://app?vid=48078fd9-c1c8-445a-880f-3e1015bdff7d"},"vehicle_type_id":"4","last_reported":1743185657,"current_range_meters":10000,"station_id":"ce4bgvh2rcd13ifvqcs0","pricing_plan_id":"cebpf4jnsgd1na2vs0mg"},{"bike_id":"54c11cde-c9c7-4df8-b949-a0fe3d944e74","system_id":"levelo_inurba_marseille","lat":43.29009,"lon":5.35607,"is_reserved":false,"is_disabled":false,"rental_uris":{"android":"levelo://app?vid=54c11cde-c9c7-4df8-b949-a0fe3d944e74","ios":"levelo://app?vid=54c11cde-c9c7-4df8-b949-a0fe3d944e74"},"vehicle_type_id":"4","last_reported":1743185657,"current_range_meters":10000,"station_id":"ce4bhb92rcd13ifvqen0","pricing_plan_id":"cebpf4jnsgd1na2vs0mg"},{"bike_id":"68e9fc26-8998-4bf7-8da8-af47209f9b7c","system_id":"levelo_inurba_marseille","lat":43.321073,"lon":5.36788,"is_reserved":false,"is_disabled":false,"rental_uris":{"android":"levelo://app?vid=68e9fc26-8998-4bf7-8da8-af47209f9b7c","ios":"levelo://app?vid=68e9fc26-8998-4bf7-8da8-af47209f9b7c"},"vehicle_type_id":"4","last_reported":1743185657,"current_range_meters":10000,"station_id":"ce4bhrh2rcd13ifvqhug","pricing_plan_id":"cebpf4jnsgd1na2vs0mg"},{"bike_id":"eba6cb31-8838-4237-b6dc-6f8ee35f140f","system_id":"levelo_inurba_marseille","lat":43.28408,"lon":5.35,"is_reserved":false,"is_disabled":false,"rental_uris":{"android":"levelo://app?vid=eba6cb31-8838-4237-b6dc-6f8ee35f140f","ios":"levelo://app?vid=eba6cb31-8838-4237-b6dc-6f8ee35f140f"},"vehicle_type_id":"4","last_reported":1743185657,"current_range_meters":10000,"station_id":"ce4bhbh2rcd13ifvqepg","pricing_plan_id":"cebpf4jnsgd1na2vs0mg"},{"bike_id":"65c86302-8ef0-46f4-ab6e-bac7149a2865","system_id":"levelo_inurba_marseille","lat":43.32062,"lon":5.36884,"is_reserved":false,"is_disabled":false,"rental_uris":{"android":"levelo://app?vid=65c86302-8ef0-46f4-ab6e-bac7149a2865","ios":"levelo://app?vid=65c86302-8ef0-46f4-ab6e-bac7149a2865"},"vehicle_type_id":"4","last_reported":1743185657,"current_range_meters":10000,"station_id":"ce4bhrh2rcd13ifvqhug","pricing_plan_id":"cebpf4jnsgd1na2vs0mg"},{"bike_id":"c48b8443-e8b9-434d-a158-56b56e84ffda","system_id":"levelo_inurba_marseille","lat":43.3107,"lon":5.38344,"is_reserved":false,"is_disabled":false,"rental_uris":{"android":"levelo://app?vid=c48b8443-e8b9-434d-a158-56b56e84ffda","ios":"levelo://app?vid=c48b8443-e8b9-434d-a158-56b56e84ffda"},"vehicle_type_id":"4","last_reported":1743185657,"current_range_meters":10000,"station_id":"ce4bgv92rcd13ifvqcr0","pricing_plan_id":"cebpf4jnsgd1na2vs0mg"},{"bike_id":"bc61c42e-59a8-4cc3-a29b-ec7e803012d5","system_id":"levelo_inurba_marseille","lat":43.28105,"lon":5.39655,"is_reserved":false,"is_disabled":false,"rental_uris":{"android":"levelo://app?vid=bc61c42e-59a8-4cc3-a29b-ec7e803012d5","ios":"levelo://app?vid=bc61c42e-59a8-4cc3-a29b-ec7e803012d5"},"vehicle_type_id":"4","last_reported":1743185657,"current_range_meters":10000,"station_id":"ce4bho12rcd13ifvqh2g","pricing_plan_id":"cebpf4jnsgd1na2vs0mg"},{"bike_id":"3baabe1e-785f-4275-b2ae-669cc3f900da","system_id":"levelo_inurba_marseille","lat":43.27819,"lon":5.40739,"is_reserved":false,"is_disabled":true,"rental_uris":{"android":"levelo://app?vid=3baabe1e-785f-4275-b2ae-669cc3f900da","ios":"levelo://app?vid=3baabe1e-785f-4275-b2ae-669cc3f900da"},"vehicle_type_id":"4","last_reported":1743185657,"current_range_meters":10800,"station_id":"ce4bhnh2rcd13ifvqgtg","pricing_plan_id":"cebpf4jnsgd1na2vs0mg"},{"bike_id":"d2be6ce3-8e79-4804-b0d3-008c875e7b9d","system_id":"levelo_inurba_marseille","lat":43.26208,"lon":5.37925,"is_reserved":false,"is_disabled":false,"rental_uris":{"android":"levelo://app?vid=d2be6ce3-8e79-4804-b0d3-008c875e7b9d","ios":"levelo://app?vid=d2be6ce3-8e79-4804-b0d3-008c875e7b9d"},"vehicle_type_id":"4","last_reported":1743185657,"current_range_meters":10800,"station_id":"ce4bhjp2rcd13ifvqg90","pricing_plan_id":"cebpf4jnsgd1na2vs0mg"},{"bike_id":"0c5bd834-d952-4542-8521-0ddea3b277c6","system_id":"levelo_inurba_marseille","lat":43.26576,"lon":5.39013,"is_reserved":false,"is_disabled":false,"rental_uris":{"android":"levelo://app?vid=0c5bd834-d952-4542-8521-0ddea3b277c6","ios":"levelo://app?vid=0c5bd834-d952-4542-8521-0ddea3b277c6"},"vehicle_type_id":"4","last_reported":1743185657,"current_range_meters":10800,"station_id":"ce4bhe12rcd13ifvqf30","pricing_plan_id":"cebpf4jnsgd1na2vs0mg"},{"bike_id":"9607e7d1-bbd9-4377-bdb2-57d14eb74907","system_id":"levelo_inurba_marseille","lat":43.28027,"lon":5.3695,"is_reserved":false,"is_disabled":false,"rental_uris":{"android":"levelo://app?vid=9607e7d1-bbd9-4377-bdb2-57d14eb74907","ios":"levelo://app?vid=9607e7d1-bbd9-4377-bdb2-57d14eb74907"},"vehicle_type_id":"4","last_reported":1743185657,"current_range_meters":10800,"station_id":"ce4bha12rcd13ifvqef0","pricing_plan_id":"cebpf4jnsgd1na2vs0mg"},{"bike_id":"fb348b09-6abb-47a4-a266-91f2eeaee291","system_id":"levelo_inurba_marseille","lat":43.321,"lon":5.36773,"is_reserved":false,"is_disabled":false,"rental_uris":{"android":"levelo://app?vid=fb348b09-6abb-47a4-a266-91f2eeaee291","ios":"levelo://app?vid=fb348b09-6abb-47a4-a266-91f2eeaee291"},"vehicle_type_id":"4","last_reported":1743185657,"current_range_meters":10800,"station_id":"ce4bhrh2rcd13ifvqhug","pricing_plan_id":"cebpf4jnsgd1na2vs0mg"},{"bike_id":"d0813de6-a65f-49b2-ae34-a5557c3c6db1","system_id":"levelo_inurba_marseille","lat":43.29541,"lon":5.38548,"is_reserved":false,"is_disabled":false,"rental_uris":{"android":"levelo://app?vid=d0813de6-a65f-49b2-ae34-a5557c3c6db1","ios":"levelo://app?vid=d0813de6-a65f-49b2-ae34-a5557c3c6db1"},"vehicle_type_id":"4","last_reported":1743185657,"current_range_meters":10800,"station_id":"ce4bgih2rcd13ifvqba0","pricing_plan_id":"cebpf4jnsgd1na2vs0mg"},{"bike_id":"17d2c56a-04b7-4565-828e-4e8647a3dd59","system_id":"levelo_inurba_marseille","lat":43.23199,"lon":5.35547,"is_reserved":false,"is_disabled":false,"rental_uris":{"android":"levelo://app?vid=17d2c56a-04b7-4565-828e-4e8647a3dd59","ios":"levelo://app?vid=17d2c56a-04b7-4565-828e-4e8647a3dd59"},"vehicle_type_id":"4","last_reported":1743185657,"current_range_meters":10800,"station_id":"ce4bhu92rcd13ifvqi70","pricing_plan_id":"cebpf4jnsgd1na2vs0mg"},{"bike_id":"6082a6d8-29f3-4441-bd82-d0f95ead75d7","system_id":"levelo_inurba_marseille","lat":43.231919,"lon":5.355575,"is_reserved":false,"is_disabled":false,"rental_uris":{"android":"levelo://app?vid=6082a6d8-29f3-4441-bd82-d0f95ead75d7","ios":"levelo://app?vid=6082a6d8-29f3-4441-bd82-d0f95ead75d7"},"vehicle_type_id":"4","last_reported":1743185657,"current_range_meters":10800,"station_id":"ce4bhu92rcd13ifvqi70","pricing_plan_id":"cebpf4jnsgd1na2vs0mg"},{"bike_id":"498cb903-0e7b-4b46-898d-148c04832279","system_id":"levelo_inurba_marseille","lat":43.23966,"lon":5.36637,"is_reserved":false,"is_disabled":false,"rental_uris":{"android":"levelo://app?vid=498cb903-0e7b-4b46-898d-148c04832279","ios":"levelo://app?vid=498cb903-0e7b-4b46-898d-148c04832279"},"vehicle_type_id":"4","last_reported":1743185657,"current_range_meters":10800,"station_id":"ce4bhi12rcd13ifvqfp0","pricing_plan_id":"cebpf4jnsgd1na2vs0mg"},{"bike_id":"62124987-8af9-492a-a050-09e8dc6c02b4","system_id":"levelo_inurba_marseille","lat":43.29173,"lon":5.37154,"is_reserved":false,"is_disabled":false,"rental_uris":{"android":"levelo://app?vid=62124987-8af9-492a-a050-09e8dc6c02b4","ios":"levelo://app?vid=62124987-8af9-492a-a050-09e8dc6c02b4"},"vehicle_type_id":"4","last_reported":1743185657,"current_range_meters":10800,"station_id":"ce4bha92rcd13ifvqeh0","pricing_plan_id":"cebpf4jnsgd1na2vs0mg"},{"bike_id":"38988fed-c23c-48f8-b7ef-40a9a217d662","system_id":"levelo_inurba_marseille","lat":43.26491,"lon":5.39565,"is_reserved":false,"is_disabled":false,"rental_uris":{"android":"levelo://app?vid=38988fed-c23c-48f8-b7ef-40a9a217d662","ios":"levelo://app?vid=38988fed-c23c-48f8-b7ef-40a9a217d662"},"vehicle_type_id":"4","last_reported":1743185657,"current_range_meters":10000,"station_id":"ce4bhi12rcd13ifvqfq0","pricing_plan_id":"cebpf4jnsgd1na2vs0mg"},{"bike_id":"2be45b17-d9cd-47dc-9ff2-bb9d51e2d5eb","system_id":"levelo_inurba_marseille","lat":43.3171,"lon":5.40461,"is_reserved":false,"is_disabled":false,"rental_uris":{"android":"levelo://app?vid=2be45b17-d9cd-47dc-9ff2-bb9d51e2d5eb","ios":"levelo://app?vid=2be45b17-d9cd-47dc-9ff2-bb9d51e2d5eb"},"vehicle_type_id":"4","last_reported":1743185657,"current_range_meters":10000,"station_id":"ce4bh012rcd13ifvqd00","pricing_plan_id":"cebpf4jnsgd1na2vs0mg"},{"bike_id":"d838cc9e-45d4-4c23-ac04-a33ec5cbe61e","system_id":"levelo_inurba_marseille","lat":43.29167,"lon":5.37158,"is_reserved":false,"is_disabled":false,"rental_uris":{"android":"levelo://app?vid=d838cc9e-45d4-4c23-ac04-a33ec5cbe61e","ios":"levelo://app?vid=d838cc9e-45d4-4c23-ac04-a33ec5cbe61e"},"vehicle_type_id":"4","last_reported":1743185657,"current_range_meters":10000,"station_id":"ce4bha92rcd13ifvqeh0","pricing_plan_id":"cebpf4jnsgd1na2vs0mg"},{"bike_id":"c63b3db6-9915-43dd-919b-27513db336e7","system_id":"levelo_inurba_marseille","lat":43.28618,"lon":5.35107,"is_reserved":false,"is_disabled":false,"rental_uris":{"android":"levelo://app?vid=c63b3db6-9915-43dd-919b-27513db336e7","ios":"levelo://app?vid=c63b3db6-9915-43dd-919b-27513db336e7"},"vehicle_type_id":"4","last_reported":1743185657,"current_range_meters":10800,"station_id":"ce4bhch2rcd13ifvqeug","pricing_plan_id":"cebpf4jnsgd1na2vs0mg"},{"bike_id":"5b856e1d-74ce-4cf1-841c-821d59f593aa","system_id":"levelo_inurba_marseille","lat":43.2954,"lon":5.38553,"is_reserved":false,"is_disabled":false,"rental_uris":{"android":"levelo://app?vid=5b856e1d-74ce-4cf1-841c-821d59f593aa","ios":"levelo://app?vid=5b856e1d-74ce-4cf1-841c-821d59f593aa"},"vehicle_type_id":"4","last_reported":1743185657,"current_range_meters":11200,"station_id":"ce4bgih2rcd13ifvqba0","pricing_plan_id":"cebpf4jnsgd1na2vs0mg"},{"bike_id":"7800ceb7-1fcb-4da9-980a-efbf9123bd2d","system_id":"levelo_inurba_marseille","lat":43.29086,"lon":5.38123,"is_reserved":false,"is_disabled":false,"rental_uris":{"android":"levelo://app?vid=7800ceb7-1fcb-4da9-980a-efbf9123bd2d","ios":"levelo://app?vid=7800ceb7-1fcb-4da9-980a-efbf9123bd2d"},"vehicle_type_id":"4","last_reported":1743185657,"current_range_meters":10800,"station_id":"ce4bh512rcd13ifvqe2g","pricing_plan_id":"cebpf4jnsgd1na2vs0mg"},{"bike_id":"8598a5a2-fcde-4f61-a168-b98a76193027","system_id":"levelo_inurba_marseille","lat":43.31272,"lon":5.4017,"is_reserved":false,"is_disabled":false,"rental_uris":{"android":"levelo://app?vid=8598a5a2-fcde-4f61-a168-b98a76193027","ios":"levelo://app?vid=8598a5a2-fcde-4f61-a168-b98a76193027"},"vehicle_type_id":"4","last_reported":1743185657,"current_range_meters":11200,"station_id":"ce4bh092rcd13ifvqd30","pricing_plan_id":"cebpf4jnsgd1na2vs0mg"},{"bike_id":"8ce57e29-9e4e-4c4b-9eac-25dbada77966","system_id":"levelo_inurba_marseille","lat":43.27618,"lon":5.36123,"is_reserved":false,"is_disabled":false,"rental_uris":{"android":"levelo://app?vid=8ce57e29-9e4e-4c4b-9eac-25dbada77966","ios":"levelo://app?vid=8ce57e29-9e4e-4c4b-9eac-25dbada77966"},"vehicle_type_id":"4","last_reported":1743185657,"current_range_meters":11200,"station_id":"ce4bgj92rcd13ifvqbe0","pricing_plan_id":"cebpf4jnsgd1na2vs0mg"},{"bike_id":"eef75a29-8f94-45b0-b9d9-6991a77efccc","system_id":"levelo_inurba_marseille","lat":43.29257,"lon":5.37615,"is_reserved":false,"is_disabled":false,"rental_uris":{"android":"levelo://app?vid=eef75a29-8f94-45b0-b9d9-6991a77efccc","ios":"levelo://app?vid=eef75a29-8f94-45b0-b9d9-6991a77efccc"},"vehicle_type_id":"4","last_reported":1743185657,"current_range_meters":11200,"station_id":"ce4bgi12rcd13ifvqb80","pricing_plan_id":"cebpf4jnsgd1na2vs0mg"},{"bike_id":"b5ace6c6-32e3-486d-9744-efb1ce0dfa9d","system_id":"levelo_inurba_marseille","lat":43.28615,"lon":5.37064,"is_reserved":false,"is_disabled":false,"rental_uris":{"android":"levelo://app?vid=b5ace6c6-32e3-486d-9744-efb1ce0dfa9d","ios":"levelo://app?vid=b5ace6c6-32e3-486d-9744-efb1ce0dfa9d"},"vehicle_type_id":"4","last_reported":1743185657,"current_range_meters":11200,"station_id":"ce4bht12rcd13ifvqi60","pricing_plan_id":"cebpf4jnsgd1na2vs0mg"},{"bike_id":"bc4aad2a-e29a-45b7-b9a9-740428b25c49","system_id":"levelo_inurba_marseille","lat":43.23209,"lon":5.35523,"is_reserved":false,"is_disabled":false,"rental_uris":{"android":"levelo://app?vid=bc4aad2a-e29a-45b7-b9a9-740428b25c49","ios":"levelo://app?vid=bc4aad2a-e29a-45b7-b9a9-740428b25c49"},"vehicle_type_id":"4","last_reported":1743185657,"current_range_meters":11200,"station_id":"ce4bhu92rcd13ifvqi70","pricing_plan_id":"cebpf4jnsgd1na2vs0mg"},{"bike_id":"c6c8fb31-86de-4758-859b-e74b70125ab7","system_id":"levelo_inurba_marseille","lat":43.32075,"lon":5.36864,"is_reserved":false,"is_disabled":false,"rental_uris":{"android":"levelo://app?vid=c6c8fb31-86de-4758-859b-e74b70125ab7","ios":"levelo://app?vid=c6c8fb31-86de-4758-859b-e74b70125ab7"},"vehicle_type_id":"4","last_reported":1743185657,"current_range_meters":11200,"station_id":"ce4bhrh2rcd13ifvqhug","pricing_plan_id":"cebpf4jnsgd1na2vs0mg"},{"bike_id":"9462a91b-8b4b-430a-ac7a-4612f1bebb31","system_id":"levelo_inurba_marseille","lat":43.29096,"lon":5.38182,"is_reserved":false,"is_disabled":true,"rental_uris":{"android":"levelo://app?vid=9462a91b-8b4b-430a-ac7a-4612f1bebb31","ios":"levelo://app?vid=9462a91b-8b4b-430a-ac7a-4612f1bebb31"},"vehicle_type_id":"4","last_reported":1743185657,"current_range_meters":11200,"station_id":"ce4bh512rcd13ifvqe2g","pricing_plan_id":"cebpf4jnsgd1na2vs0mg"},{"bike_id":"648f59ee-667c-40fd-ae76-54229211dcc4","system_id":"levelo_inurba_marseille","lat":43.26947,"lon":5.40256,"is_reserved":false,"is_disabled":false,"rental_uris":{"android":"levelo://app?vid=648f59ee-667c-40fd-ae76-54229211dcc4","ios":"levelo://app?vid=648f59ee-667c-40fd-ae76-54229211dcc4"},"vehicle_type_id":"4","last_reported":1743185657,"current_range_meters":11200,"station_id":"cjm6bp8fraef2m0cb0m0","pricing_plan_id":"cebpf4jnsgd1na2vs0mg"},{"bike_id":"f00e0bf1-e77c-4752-8f1b-63a2e565cf51","system_id":"levelo_inurba_marseille","lat":43.27956,"lon":5.38701,"is_reserved":false,"is_disabled":true,"rental_uris":{"android":"levelo://app?vid=f00e0bf1-e77c-4752-8f1b-63a2e565cf51","ios":"levelo://app?vid=f00e0bf1-e77c-4752-8f1b-63a2e565cf51"},"vehicle_type_id":"4","last_reported":1743185657,"current_range_meters":11200,"station_id":"ce4bhg12rcd13ifvqf80","pricing_plan_id":"cebpf4jnsgd1na2vs0mg"},{"bike_id":"a339b9d5-fa20-41fa-9add-a08661c62d00","system_id":"levelo_inurba_marseille","lat":43.29525,"lon":5.38541,"is_reserved":false,"is_disabled":false,"rental_uris":{"android":"levelo://app?vid=a339b9d5-fa20-41fa-9add-a08661c62d00","ios":"levelo://app?vid=a339b9d5-fa20-41fa-9add-a08661c62d00"},"vehicle_type_id":"4","last_reported":1743185657,"current_range_meters":11600,"station_id":"ce4bgih2rcd13ifvqba0","pricing_plan_id":"cebpf4jnsgd1na2vs0mg"},{"bike_id":"78879d72-d868-43c9-a743-a6ab48dd9b11","system_id":"levelo_inurba_marseille","lat":43.28725,"lon":5.36112,"is_reserved":false,"is_disabled":false,"rental_uris":{"android":"levelo://app?vid=78879d72-d868-43c9-a743-a6ab48dd9b11","ios":"levelo://app?vid=78879d72-d868-43c9-a743-a6ab48dd9b11"},"vehicle_type_id":"4","last_reported":1743185657,"current_range_meters":11600,"station_id":"cki0cbj6b192h4jlfktg","pricing_plan_id":"cebpf4jnsgd1na2vs0mg"},{"bike_id":"8683b896-daca-42ae-aac7-48f78b571f31","system_id":"levelo_inurba_marseille","lat":43.29797,"lon":5.3809,"is_reserved":false,"is_disabled":false,"rental_uris":{"android":"levelo://app?vid=8683b896-daca-42ae-aac7-48f78b571f31","ios":"levelo://app?vid=8683b896-daca-42ae-aac7-48f78b571f31"},"vehicle_type_id":"4","last_reported":1743185657,"current_range_meters":11600,"station_id":"ce4bgip2rcd13ifvqbb0","pricing_plan_id":"cebpf4jnsgd1na2vs0mg"},{"bike_id":"858c4ba9-ca74-4e6f-9d69-36ba47b34b4a","system_id":"levelo_inurba_marseille","lat":43.24072,"lon":5.37767,"is_reserved":false,"is_disabled":false,"rental_uris":{"android":"levelo://app?vid=858c4ba9-ca74-4e6f-9d69-36ba47b34b4a","ios":"levelo://app?vid=858c4ba9-ca74-4e6f-9d69-36ba47b34b4a"},"vehicle_type_id":"4","last_reported":1743185657,"current_range_meters":11200,"station_id":"ce4bhnp2rcd13ifvqgvg","pricing_plan_id":"cebpf4jnsgd1na2vs0mg"},{"bike_id":"d2e09374-abe8-461b-9700-808c73f07463","system_id":"levelo_inurba_marseille","lat":43.29252,"lon":5.38436,"is_reserved":false,"is_disabled":false,"rental_uris":{"android":"levelo://app?vid=d2e09374-abe8-461b-9700-808c73f07463","ios":"levelo://app?vid=d2e09374-abe8-461b-9700-808c73f07463"},"vehicle_type_id":"4","last_reported":1743185657,"current_range_meters":11600,"station_id":"ce4bh692rcd13ifvqea0","pricing_plan_id":"cebpf4jnsgd1na2vs0mg"},{"bike_id":"e004cee3-722d-4a9f-9a51-406d77cd38c3","system_id":"levelo_inurba_marseille","lat":43.29308,"lon":5.37163,"is_reserved":false,"is_disabled":false,"rental_uris":{"android":"levelo://app?vid=e004cee3-722d-4a9f-9a51-406d77cd38c3","ios":"levelo://app?vid=e004cee3-722d-4a9f-9a51-406d77cd38c3"},"vehicle_type_id":"4","last_reported":1743185657,"current_range_meters":11600,"station_id":"ce4bgh92rcd13ifvqb40","pricing_plan_id":"cebpf4jnsgd1na2vs0mg"},{"bike_id":"27c4ba6b-f9eb-4f55-857c-1c94105462f8","system_id":"levelo_inurba_marseille","lat":43.28408,"lon":5.35,"is_reserved":false,"is_disabled":false,"rental_uris":{"android":"levelo://app?vid=27c4ba6b-f9eb-4f55-857c-1c94105462f8","ios":"levelo://app?vid=27c4ba6b-f9eb-4f55-857c-1c94105462f8"},"vehicle_type_id":"4","last_reported":1743185657,"current_range_meters":11600,"station_id":"ce4bhbh2rcd13ifvqepg","pricing_plan_id":"cebpf4jnsgd1na2vs0mg"},{"bike_id":"bdd76439-d176-4c77-bcfa-79ab103425d9","system_id":"levelo_inurba_marseille","lat":43.29195,"lon":5.39327,"is_reserved":false,"is_disabled":false,"rental_uris":{"android":"levelo://app?vid=bdd76439-d176-4c77-bcfa-79ab103425d9","ios":"levelo://app?vid=bdd76439-d176-4c77-bcfa-79ab103425d9"},"vehicle_type_id":"4","last_reported":1743185657,"current_range_meters":11200,"station_id":"ce4bh192rcd13ifvqdd0","pricing_plan_id":"cebpf4jnsgd1na2vs0mg"},{"bike_id":"6e5f4618-59dd-425b-aa11-f67d0d9fb1a5","system_id":"levelo_inurba_marseille","lat":43.31991,"lon":5.38146,"is_reserved":false,"is_disabled":true,"rental_uris":{"android":"levelo://app?vid=6e5f4618-59dd-425b-aa11-f67d0d9fb1a5","ios":"levelo://app?vid=6e5f4618-59dd-425b-aa11-f67d0d9fb1a5"},"vehicle_type_id":"4","last_reported":1743185657,"current_range_meters":11600,"station_id":"ce4bhr12rcd13ifvqhpg","pricing_plan_id":"cebpf4jnsgd1na2vs0mg"},{"bike_id":"8bc2cbde-34c8-4c06-962a-d2135c8869d7","system_id":"levelo_inurba_marseille","lat":43.23949,"lon":5.36638,"is_reserved":false,"is_disabled":false,"rental_uris":{"android":"levelo://app?vid=8bc2cbde-34c8-4c06-962a-d2135c8869d7","ios":"levelo://app?vid=8bc2cbde-34c8-4c06-962a-d2135c8869d7"},"vehicle_type_id":"4","last_reported":1743185657,"current_range_meters":11600,"station_id":"ce4bhi12rcd13ifvqfp0","pricing_plan_id":"cebpf4jnsgd1na2vs0mg"},{"bike_id":"9fca3360-8e7b-45c5-b38d-719a2530d1b8","system_id":"levelo_inurba_marseille","lat":43.28415,"lon":5.34999,"is_reserved":false,"is_disabled":false,"rental_uris":{"android":"levelo://app?vid=9fca3360-8e7b-45c5-b38d-719a2530d1b8","ios":"levelo://app?vid=9fca3360-8e7b-45c5-b38d-719a2530d1b8"},"vehicle_type_id":"4","last_reported":1743185657,"current_range_meters":11600,"station_id":"ce4bhbh2rcd13ifvqepg","pricing_plan_id":"cebpf4jnsgd1na2vs0mg"},{"bike_id":"e4614adf-59ca-49c9-9f29-fb2629aacd37","system_id":"levelo_inurba_marseille","lat":43.28617,"lon":5.35099,"is_reserved":false,"is_disabled":false,"rental_uris":{"android":"levelo://app?vid=e4614adf-59ca-49c9-9f29-fb2629aacd37","ios":"levelo://app?vid=e4614adf-59ca-49c9-9f29-fb2629aacd37"},"vehicle_type_id":"4","last_reported":1743185657,"current_range_meters":11600,"station_id":"ce4bhch2rcd13ifvqeug","pricing_plan_id":"cebpf4jnsgd1na2vs0mg"},{"bike_id":"f16d5731-e336-4a16-9f2a-d09ed7f02b7d","system_id":"levelo_inurba_marseille","lat":43.315887,"lon":5.403831,"is_reserved":false,"is_disabled":false,"rental_uris":{"android":"levelo://app?vid=f16d5731-e336-4a16-9f2a-d09ed7f02b7d","ios":"levelo://app?vid=f16d5731-e336-4a16-9f2a-d09ed7f02b7d"},"vehicle_type_id":"4","last_reported":1743185657,"current_range_meters":12000,"station_id":"ce4bgph2rcd13ifvqc2g","pricing_plan_id":"cebpf4jnsgd1na2vs0mg"},{"bike_id":"5fefeb3c-0619-4c1f-bffa-01e51110c8bb","system_id":"levelo_inurba_marseille","lat":43.29532,"lon":5.39396,"is_reserved":false,"is_disabled":false,"rental_uris":{"android":"levelo://app?vid=5fefeb3c-0619-4c1f-bffa-01e51110c8bb","ios":"levelo://app?vid=5fefeb3c-0619-4c1f-bffa-01e51110c8bb"},"vehicle_type_id":"4","last_reported":1743185657,"current_range_meters":12000,"station_id":"ce4bh292rcd13ifvqdf0","pricing_plan_id":"cebpf4jnsgd1na2vs0mg"},{"bike_id":"4104b94f-bad0-4820-a52e-8870e80ffb0d","system_id":"levelo_inurba_marseille","lat":43.28611,"lon":5.37058,"is_reserved":false,"is_disabled":false,"rental_uris":{"android":"levelo://app?vid=4104b94f-bad0-4820-a52e-8870e80ffb0d","ios":"levelo://app?vid=4104b94f-bad0-4820-a52e-8870e80ffb0d"},"vehicle_type_id":"4","last_reported":1743185657,"current_range_meters":12000,"station_id":"ce4bht12rcd13ifvqi60","pricing_plan_id":"cebpf4jnsgd1na2vs0mg"},{"bike_id":"676aa410-285a-48fa-832f-41d35fee7288","system_id":"levelo_inurba_marseille","lat":43.28608,"lon":5.37063,"is_reserved":false,"is_disabled":false,"rental_uris":{"android":"levelo://app?vid=676aa410-285a-48fa-832f-41d35fee7288","ios":"levelo://app?vid=676aa410-285a-48fa-832f-41d35fee7288"},"vehicle_type_id":"4","last_reported":1743185657,"current_range_meters":12000,"station_id":"ce4bht12rcd13ifvqi60","pricing_plan_id":"cebpf4jnsgd1na2vs0mg"},{"bike_id":"5dcf0fb2-bc65-4523-8441-974936f31fa4","system_id":"levelo_inurba_marseille","lat":43.25583,"lon":5.38232,"is_reserved":false,"is_disabled":false,"rental_uris":{"android":"levelo://app?vid=5dcf0fb2-bc65-4523-8441-974936f31fa4","ios":"levelo://app?vid=5dcf0fb2-bc65-4523-8441-974936f31fa4"},"vehicle_type_id":"4","last_reported":1743185657,"current_range_meters":12000,"station_id":"ce4bhih2rcd13ifvqfs0","pricing_plan_id":"cebpf4jnsgd1na2vs0mg"},{"bike_id":"dc21f7c4-0573-49c1-8a41-5c379c6c7b2c","system_id":"levelo_inurba_marseille","lat":43.29202,"lon":5.35818,"is_reserved":false,"is_disabled":false,"rental_uris":{"android":"levelo://app?vid=dc21f7c4-0573-49c1-8a41-5c379c6c7b2c","ios":"levelo://app?vid=dc21f7c4-0573-49c1-8a41-5c379c6c7b2c"},"vehicle_type_id":"4","last_reported":1743185657,"current_range_meters":12000,"station_id":"ce4bhb12rcd13ifvqel0","pricing_plan_id":"cebpf4jnsgd1na2vs0mg"},{"bike_id":"d14cdd1e-f0b3-48a5-be5e-77128af69a2d","system_id":"levelo_inurba_marseille","lat":43.28619,"lon":5.35105,"is_reserved":false,"is_disabled":false,"rental_uris":{"android":"levelo://app?vid=d14cdd1e-f0b3-48a5-be5e-77128af69a2d","ios":"levelo://app?vid=d14cdd1e-f0b3-48a5-be5e-77128af69a2d"},"vehicle_type_id":"4","last_reported":1743185657,"current_range_meters":12000,"station_id":"ce4bhch2rcd13ifvqeug","pricing_plan_id":"cebpf4jnsgd1na2vs0mg"},{"bike_id":"8bc2fb7e-d5f9-4b36-9473-cb3623411dcb","system_id":"levelo_inurba_marseille","lat":43.30325,"lon":5.40434,"is_reserved":false,"is_disabled":false,"rental_uris":{"android":"levelo://app?vid=8bc2fb7e-d5f9-4b36-9473-cb3623411dcb","ios":"levelo://app?vid=8bc2fb7e-d5f9-4b36-9473-cb3623411dcb"},"vehicle_type_id":"4","last_reported":1743185657,"current_range_meters":12400,"station_id":"ce4bh012rcd13ifvqd10","pricing_plan_id":"cebpf4jnsgd1na2vs0mg"},{"bike_id":"8b7e2333-3279-47a1-af44-5227b2c78362","system_id":"levelo_inurba_marseille","lat":43.24167,"lon":5.36402,"is_reserved":false,"is_disabled":false,"rental_uris":{"android":"levelo://app?vid=8b7e2333-3279-47a1-af44-5227b2c78362","ios":"levelo://app?vid=8b7e2333-3279-47a1-af44-5227b2c78362"},"vehicle_type_id":"4","last_reported":1743185657,"current_range_meters":12400,"station_id":"cpo36qri1sfpv3e86is0","pricing_plan_id":"cebpf4jnsgd1na2vs0mg"},