{"last_updated":1678454311,"ttl":30,"version":"2.2","data":{"bikes":[{"bike_id":"80149e37-a1f8-4c68-bf3d-0a134eb0e051","system_id":"levelo_inurba_marseille","lat":43.312239,"lon":5.368562,"is_reserved":false,"is_disabled":false,"rental_uris":{"android":"levelo://app?vid=80149e37-a1f8-4c68-bf3d-0a134eb0e051","ios":"levelo://app?vid=80149e37-a1f8-4c68-bf3d-0a134eb0e051"},"vehicle_type_id":"4","last_reported":1678454311,"current_range_meters":6000,"station_id":"ce4bgl92rcd13ifvqbq0","pricing_plan_id":"free"},{"bike_id":"e0c78f05-f170-4ac8-9eb1-d73859022c33","system_id":"levelo_inurba_marseille","lat":43.31224,"lon":5.36856,"is_reserved":false,"is_disabled":false,"rental_uris":{"android":"levelo://app?vid=e0c78f05-f170-4ac8-9eb1-d73859022c33","ios":"levelo://app?vid=e0c78f05-f170-4ac8-9eb1-d73859022c33"},"vehicle_type_id":"4","last_reported":1678454311,"current_range_meters":9600,"station_id":"","pricing_plan_id":"free"},{"bike_id":"ff77f343-1b12-4e53-a1de-120eb98f4063","system_id":"levelo_inurba_marseille","lat":43.312239,"lon":5.368562,"is_reserved":false,"is_disabled":false,"rental_uris":{"android":"levelo://app?vid=ff77f343-1b12-4e53-a1de-120eb98f4063","ios":"levelo://app?vid=ff77f343-1b12-4e53-a1de-120eb98f4063"},"vehicle_type_id":"4","last_reported":1678454311,"current_range_meters":26800,"station_id":"ce4bgl92rcd13ifvqbq0","pricing_plan_id":"free"},{"bike_id":"96975477-99f1-4362-8b19-96becef6102b","system_id":"levelo_inurba_marseille","lat":43.312239,"lon":5.368562,"is_reserved":false,"is_disabled":false,"rental_uris":{"android":"levelo://app?vid=96975477-99f1-4362-8b19-96becef6102b","ios":"levelo://app?vid=96975477-99f1-4362-8b19-96becef6102b"},"vehicle_type_id":"4","last_reported":1678454311,"current_range_meters":23200,"station_id":"ce4bgl92rcd13ifvqbq0","pricing_plan_id":"free"},{"bike_id":"7fb34586-ef9f-4d22-aeaa-aa05d8aff5b1","system_id":"levelo_inurba_marseille","lat":43.312239,"lon":5.368562,"is_reserved":false,"is_disabled":false,"rental_uris":{"android":"levelo://app?vid=7fb34586-ef9f-4d22-aeaa-aa05d8aff5b1","ios":"levelo://app?vid=7fb34586-ef9f-4d22-aeaa-aa05d8aff5b1"},"vehicle_type_id":"4","last_reported":1678454311,"current_range_meters":800,"station_id":"ce4bgl92rcd13ifvqbq0","pricing_plan_id":"free"},{"bike_id":"fd209afd-235b-4595-b665-5570ded8df34","system_id":"levelo_inurba_marseille","lat":43.30906,"lon":5.36845,"is_reserved":false,"is_disabled":false,"rental_uris":{"android":"levelo://app?vid=fd209afd-235b-4595-b665-5570ded8df34","ios":"levelo://app?vid=fd209afd-235b-4595-b665-5570ded8df34"},"vehicle_type_id":"4","last_reported":1678454311,"current_range_meters":21200,"station_id":"ce4bgn92rcd13ifvqbvg","pricing_plan_id":"free"},{"bike_id":"976a6948-80b6-4da6-9ee4-3b1240a7fc63","system_id":"levelo_inurba_marseille","lat":43.30903,"lon":5.36855,"is_reserved":false,"is_disabled":false,"rental_uris":{"android":"levelo://app?vid=976a6948-80b6-4da6-9ee4-3b1240a7fc63","ios":"levelo://app?vid=976a6948-80b6-4da6-9ee4-3b1240a7fc63"},"vehicle_type_id":"4","last_reported":1678454311,"current_range_meters":12800,"station_id":"ce4bgn92rcd13ifvqbvg","pricing_plan_id":"free"},{"bike_id":"fc0f5e50-4220-4885-80cb-5a558b5a1dd8","system_id":"levelo_inurba_marseille","lat":43.317898,"lon":5.368168,"is_reserved":false,"is_disabled":false,"rental_uris":{"android":"levelo://app?vid=fc0f5e50-4220-4885-80cb-5a558b5a1dd8","ios":"levelo://app?vid=fc0f5e50-4220-4885-80cb-5a558b5a1dd8"},"vehicle_type_id":"4","last_reported":1678454311,"current_range_meters":19200,"station_id":"","pricing_plan_id":"free"},{"bike_id":"6df7e233-0c35-4131-b5d5-57498a803a34","system_id":"levelo_inurba_marseille","lat":43.308614,"lon":5.372098,"is_reserved":false,"is_disabled":false,"rental_uris":{"android":"levelo://app?vid=6df7e233-0c35-4131-b5d5-57498a803a34","ios":"levelo://app?vid=6df7e233-0c35-4131-b5d5-57498a803a34"},"vehicle_type_id":"4","last_reported":1678454311,"current_range_meters":11600,"station_id":"ce4bguh2rcd13ifvqckg","pricing_plan_id":"free"},{"bike_id":"d08dfef0-f893-44c1-aa3d-73406dffe635","system_id":"levelo_inurba_marseille","lat":43.31675,"lon":5.375505,"is_reserved":false,"is_disabled":false,"rental_uris":{"android":"levelo://app?vid=d08dfef0-f893-44c1-aa3d-73406dffe635","ios":"levelo://app?vid=d08dfef0-f893-44c1-aa3d-73406dffe635"},"vehicle_type_id":"4","last_reported":1678454311,"current_range_meters":24000,"station_id":"","pricing_plan_id":"free"},{"bike_id":"5da04c13-f1b2-4438-8e24-b22b26544739","system_id":"levelo_inurba_marseille","lat":43.305989,"lon":5.37225,"is_reserved":false,"is_disabled":false,"rental_uris":{"android":"levelo://app?vid=5da04c13-f1b2-4438-8e24-b22b26544739","ios":"levelo://app?vid=5da04c13-f1b2-4438-8e24-b22b26544739"},"vehicle_type_id":"4","last_reported":1678454311,"current_range_meters":8800,"station_id":"ce4bgqh2rcd13ifvqc4g","pricing_plan_id":"free"},{"bike_id":"947d894c-9f79-4120-a823-653694d3a877","system_id":"levelo_inurba_marseille","lat":43.317075,"lon":5.377367,"is_reserved":false,"is_disabled":false,"rental_uris":{"android":"levelo://app?vid=947d894c-9f79-4120-a823-653694d3a877","ios":"levelo://app?vid=947d894c-9f79-4120-a823-653694d3a877"},"vehicle_type_id":"4","last_reported":1678454311,"current_range_meters":10000,"station_id":"ce4bgth2rcd13ifvqch0","pricing_plan_id":"free"},{"bike_id":"b131d771-73bb-4a1c-8f42-de8c2ea180e4","system_id":"levelo_inurba_marseille","lat":43.31704,"lon":5.377547,"is_reserved":false,"is_disabled":false,"rental_uris":{"android":"levelo://app?vid=b131d771-73bb-4a1c-8f42-de8c2ea180e4","ios":"levelo://app?vid=b131d771-73bb-4a1c-8f42-de8c2ea180e4"},"vehicle_type_id":"4","last_reported":1678454311,"current_range_meters":8000,"station_id":"","pricing_plan_id":"free"},{"bike_id":"da32f8f1-a055-4218-b853-3e435684629b","system_id":"levelo_inurba_marseille","lat":43.31707,"lon":5.37775,"is_reserved":false,"is_disabled":false,"rental_uris":{"android":"levelo://app?vid=da32f8f1-a055-4218-b853-3e435684629b","ios":"levelo://app?vid=da32f8f1-a055-4218-b853-3e435684629b"},"vehicle_type_id":"4","last_reported":1678454311,"current_range_meters":10400,"station_id":"","pricing_plan_id":"free"},{"bike_id":"a42c6909-b076-4eae-893a-baa04ce3a0c8","system_id":"levelo_inurba_marseille","lat":43.30342,"lon":5.37255,"is_reserved":false,"is_disabled":false,"rental_uris":{"android":"levelo://app?vid=a42c6909-b076-4eae-893a-baa04ce3a0c8","ios":"levelo://app?vid=a42c6909-b076-4eae-893a-baa04ce3a0c8"},"vehicle_type_id":"4","last_reported":1678454311,"current_range_meters":5600,"station_id":"","pricing_plan_id":"free"},{"bike_id":"fb39342a-bd9e-40bf-b071-5e22a6ef18db","system_id":"levelo_inurba_marseille","lat":43.301939,"lon":5.366286,"is_reserved":false,"is_disabled":false,"rental_uris":{"android":"levelo://app?vid=fb39342a-bd9e-40bf-b071-5e22a6ef18db","ios":"levelo://app?vid=fb39342a-bd9e-40bf-b071-5e22a6ef18db"},"vehicle_type_id":"4","last_reported":1678454311,"current_range_meters":28000,"station_id":"ce4bgrh2rcd13ifvqc8g","pricing_plan_id":"free"},{"bike_id":"5fe1dce1-df08-4cdb-b035-eccd7e0eff6d","system_id":"levelo_inurba_marseille","lat":43.301939,"lon":5.366286,"is_reserved":false,"is_disabled":false,"rental_uris":{"android":"levelo://app?vid=5fe1dce1-df08-4cdb-b035-eccd7e0eff6d","ios":"levelo://app?vid=5fe1dce1-df08-4cdb-b035-eccd7e0eff6d"},"vehicle_type_id":"4","last_reported":1678454311,"current_range_meters":27600,"station_id":"ce4bgrh2rcd13ifvqc8g","pricing_plan_id":"free"},{"bike_id":"8800986e-8e2b-4814-8b74-5c0d64e5bf97","system_id":"levelo_inurba_marseille","lat":43.30185,"lon":5.36611,"is_reserved":false,"is_disabled":false,"rental_uris":{"android":"levelo://app?vid=8800986e-8e2b-4814-8b74-5c0d64e5bf97","ios":"levelo://app?vid=8800986e-8e2b-4814-8b74-5c0d64e5bf97"},"vehicle_type_id":"4","last_reported":1678454311,"current_range_meters":0,"station_id":"ce4bgrh2rcd13ifvqc8g","pricing_plan_id":"free"},{"bike_id":"9da8d84e-3f45-4d9c-9917-ed98c018ab2a","system_id":"levelo_inurba_marseille","lat":43.308012,"lon":5.381511,"is_reserved":false,"is_disabled":false,"rental_uris":{"android":"levelo://app?vid=9da8d84e-3f45-4d9c-9917-ed98c018ab2a","ios":"levelo://app?vid=9da8d84e-3f45-4d9c-9917-ed98c018ab2a"},"vehicle_type_id":"4","last_reported":1678454311,"current_range_meters":30400,"station_id":"ce4bgt12rcd13ifvqce0","pricing_plan_id":"free"},{"bike_id":"b8c68cbe-8236-437f-91f8-9ff34a575e40","system_id":"levelo_inurba_marseille","lat":43.308012,"lon":5.381511,"is_reserved":false,"is_disabled":false,"rental_uris":{"android":"levelo://app?vid=b8c68cbe-8236-437f-91f8-9ff34a575e40","ios":"levelo://app?vid=b8c68cbe-8236-437f-91f8-9ff34a575e40"},"vehicle_type_id":"4","last_reported":1678454311,"current_range_meters":31600,"station_id":"ce4bgt12rcd13ifvqce0","pricing_plan_id":"free"},{"bike_id":"478b2a0c-f39e-4f25-a419-baf9e97dda99","system_id":"levelo_inurba_marseille","lat":43.308012,"lon":5.381511,"is_reserved":false,"is_disabled":false,"rental_uris":{"android":"levelo://app?vid=478b2a0c-f39e-4f25-a419-baf9e97dda99","ios":"levelo://app?vid=478b2a0c-f39e-4f25-a419-baf9e97dda99"},"vehicle_type_id":"4","last_reported":1678454311,"current_range_meters":18000,"station_id":"ce4bgt12rcd13ifvqce0","pricing_plan_id":"free"},{"bike_id":"9b1ebf84-632e-4697-a5db-be6c2550c64f","system_id":"levelo_inurba_marseille","lat":43.30142,"lon":5.374142,"is_reserved":false,"is_disabled":false,"rental_uris":{"android":"levelo://app?vid=9b1ebf84-632e-4697-a5db-be6c2550c64f","ios":"levelo://app?vid=9b1ebf84-632e-4697-a5db-be6c2550c64f"},"vehicle_type_id":"4","last_reported":1678454311,"current_range_meters":13600,"station_id":"","pricing_plan_id":"free"},{"bike_id":"4d7a244b-cf3b-478d-88e7-13cfaa83d3ff","system_id":"levelo_inurba_marseille","lat":43.298433,"lon":5.362774,"is_reserved":false,"is_disabled":false,"rental_uris":{"android":"levelo://app?vid=4d7a244b-cf3b-478d-88e7-13cfaa83d3ff","ios":"levelo://app?vid=4d7a244b-cf3b-478d-88e7-13cfaa83d3ff"},"vehicle_type_id":"4","last_reported":1678454311,"current_range_meters":13600,"station_id":"ce4bgpp2rcd13ifvqc3g","pricing_plan_id":"free"},{"bike_id":"ecfa67bb-043f-4490-8c63-9ce9d08ea977","system_id":"levelo_inurba_marseille","lat":43.298433,"lon":5.362774,"is_reserved":false,"is_disabled":false,"rental_uris":{"android":"levelo://app?vid=ecfa67bb-043f-4490-8c63-9ce9d08ea977","ios":"levelo://app?vid=ecfa67bb-043f-4490-8c63-9ce9d08ea977"},"vehicle_type_id":"4","last_reported":1678454311,"current_range_meters":22000,"station_id":"ce4bgpp2rcd13ifvqc3g","pricing_plan_id":"free"},{"bike_id":"6fde167c-025e-452b-ba60-7708e2d726d8","system_id":"levelo_inurba_marseille","lat":43.298433,"lon":5.362774,"is_reserved":false,"is_disabled":false,"rental_uris":{"android":"levelo://app?vid=6fde167c-025e-452b-ba60-7708e2d726d8","ios":"levelo://app?vid=6fde167c-025e-452b-ba60-7708e2d726d8"},"vehicle_type_id":"4","last_reported":1678454311,"current_range_meters":16800,"station_id":"ce4bgpp2rcd13ifvqc3g","pricing_plan_id":"free"},{"bike_id":"7728a15b-dc8d-48f8-9b80-c356a814f315","system_id":"levelo_inurba_marseille","lat":43.32826,"lon":5.36688,"is_reserved":false,"is_disabled":false,"rental_uris":{"android":"levelo://app?vid=7728a15b-dc8d-48f8-9b80-c356a814f315","ios":"levelo://app?vid=7728a15b-dc8d-48f8-9b80-c356a814f315"},"vehicle_type_id":"4","last_reported":1678454311,"current_range_meters":20800,"station_id":"","pricing_plan_id":"free"},{"bike_id":"4f8a62bf-6718-4270-a145-adc664a966b4","system_id":"levelo_inurba_marseille","lat":43.32829,"lon":5.36692,"is_reserved":false,"is_disabled":false,"rental_uris":{"android":"levelo://app?vid=4f8a62bf-6718-4270-a145-adc664a966b4","ios":"levelo://app?vid=4f8a62bf-6718-4270-a145-adc664a966b4"},"vehicle_type_id":"4","last_reported":1678454311,"current_range_meters":7600,"station_id":"","pricing_plan_id":"free"},{"bike_id":"da8287f9-ab85-4b25-84bf-2f07d8c9f712","system_id":"levelo_inurba_marseille","lat":43.328308,"lon":5.366845,"is_reserved":false,"is_disabled":false,"rental_uris":{"android":"levelo://app?vid=da8287f9-ab85-4b25-84bf-2f07d8c9f712","ios":"levelo://app?vid=da8287f9-ab85-4b25-84bf-2f07d8c9f712"},"vehicle_type_id":"4","last_reported":1678454311,"current_range_meters":8000,"station_id":"ce4bhs92rcd13ifvqi0g","pricing_plan_id":"free"},{"bike_id":"19a570e5-8d9c-438e-af12-e6811fc710dc","system_id":"levelo_inurba_marseille","lat":43.296131,"lon":5.370791,"is_reserved":false,"is_disabled":false,"rental_uris":{"android":"levelo://app?vid=19a570e5-8d9c-438e-af12-e6811fc710dc","ios":"levelo://app?vid=19a570e5-8d9c-438e-af12-e6811fc710dc"},"vehicle_type_id":"4","last_reported":1678454311,"current_range_meters":2400,"station_id":"ce4bgnh2rcd13ifvqc0g","pricing_plan_id":"free"},{"bike_id":"436eabbb-bb5d-4bee-8cfa-78ca0c4c2f77","system_id":"levelo_inurba_marseille","lat":43.29573,"lon":5.367355,"is_reserved":false,"is_disabled":false,"rental_uris":{"android":"levelo://app?vid=436eabbb-bb5d-4bee-8cfa-78ca0c4c2f77","ios":"levelo://app?vid=436eabbb-bb5d-4bee-8cfa-78ca0c4c2f77"},"vehicle_type_id":"4","last_reported":1678454311,"current_range_meters":9600,"station_id":"ce4bgph2rcd13ifvqc2g","pricing_plan_id":"free"},{"bike_id":"0e9b1578-371e-4d5c-8fd7-6218639c2e45","system_id":"levelo_inurba_marseille","lat":43.296277,"lon":5.377108,"is_reserved":false,"is_disabled":false,"rental_uris":{"android":"levelo://app?vid=0e9b1578-371e-4d5c-8fd7-6218639c2e45","ios":"levelo://app?vid=0e9b1578-371e-4d5c-8fd7-6218639c2e45"},"vehicle_type_id":"4","last_reported":1678454311,"current_range_meters":20400,"station_id":"ce4bgi92rcd13ifvqb90","pricing_plan_id":"free"},{"bike_id":"9fa55345-f8b3-4a66-a98e-5f84748f1641","system_id":"levelo_inurba_marseille","lat":43.304096,"lon":5.425385,"is_reserved":false,"is_disabled":false,"rental_uris":{"android":"levelo://app?vid=9fa55345-f8b3-4a66-a98e-5f84748f1641","ios":"levelo://app?vid=9fa55345-f8b3-4a66-a98e-5f84748f1641"},"vehicle_type_id":"4","last_reported":1678454311,"current_range_meters":16400,"station_id":"ce4bhoh2rcd13ifvqh6g","pricing_plan_id":"free"},{"bike_id":"c1d31f75-86de-4fc4-82f4-171e878aa409","system_id":"levelo_inurba_marseille","lat":43.299028,"lon":5.381509,"is_reserved":false,"is_disabled":false,"rental_uris":{"android":"levelo://app?vid=c1d31f75-86de-4fc4-82f4-171e878aa409","ios":"levelo://app?vid=c1d31f75-86de-4fc4-82f4-171e878aa409"},"vehicle_type_id":"4","last_reported":1678454311,"current_range_meters":24400,"station_id":"ce4bgj12rcd13ifvqbc0","pricing_plan_id":"free"},{"bike_id":"6c515a8f-0c8e-4449-a6af-3f1cb5f5d80b","system_id":"levelo_inurba_marseille","lat":43.317557,"lon":5.390173,"is_reserved":false,"is_disabled":false,"rental_uris":{"android":"levelo://app?vid=6c515a8f-0c8e-4449-a6af-3f1cb5f5d80b","ios":"levelo://app?vid=6c515a8f-0c8e-4449-a6af-3f1cb5f5d80b"},"vehicle_type_id":"4","last_reported":1678454311,"current_range_meters":2400,"station_id":"ce4bhqp2rcd13ifvqhng","pricing_plan_id":"free"},{"bike_id":"b74f42e3-0e6a-4b33-b823-18be85436b3a","system_id":"levelo_inurba_marseille","lat":43.2969,"lon":5.37745,"is_reserved":false,"is_disabled":false,"rental_uris":{"android":"levelo://app?vid=b74f42e3-0e6a-4b33-b823-18be85436b3a","ios":"levelo://app?vid=b74f42e3-0e6a-4b33-b823-18be85436b3a"},"vehicle_type_id":"4","last_reported":1678454311,"current_range_meters":0,"station_id":"","pricing_plan_id":"free"},{"bike_id":"0f3eb7cf-03ae-4f47-be53-75d9e0e85386","system_id":"levelo_inurba_marseille","lat":43.298037,"lon":5.381066,"is_reserved":false,"is_disabled":false,"rental_uris":{"android":"levelo://app?vid=0f3eb7cf-03ae-4f47-be53-75d9e0e85386","ios":"levelo://app?vid=0f3eb7cf-03ae-4f47-be53-75d9e0e85386"},"vehicle_type_id":"4","last_reported":1678454311,"current_range_meters":14800,"station_id":"ce4bgip2rcd13ifvqbb0","pricing_plan_id":"free"},{"bike_id":"dc0789b3-7164-43b4-a1b1-6d658b6c1dac","system_id":"levelo_inurba_marseille","lat":43.298037,"lon":5.381066,"is_reserved":false,"is_disabled":false,"rental_uris":{"android":"levelo://app?vid=dc0789b3-7164-43b4-a1b1-6d658b6c1dac","ios":"levelo://app?vid=dc0789b3-7164-43b4-a1b1-6d658b6c1dac"},"vehicle_type_id":"4","last_reported":1678454311,"current_range_meters":1600,"station_id":"ce4bgip2rcd13ifvqbb0","pricing_plan_id":"free"},{"bike_id":"4db8c427-8e77-4af8-b678-05ef49210c96","system_id":"levelo_inurba_marseille","lat":43.298095,"lon":5.381045,"is_reserved":false,"is_disabled":false,"rental_uris":{"android":"levelo://app?vid=4db8c427-8e77-4af8-b678-05ef49210c96","ios":"levelo://app?vid=4db8c427-8e77-4af8-b678-05ef49210c96"},"vehicle_type_id":"4","last_reported":1678454311,"current_range_meters":10400,"station_id":"ce4bgip2rcd13ifvqbb0","pricing_plan_id":"free"},{"bike_id":"6dfe41c8-f918-4e9a-a56b-38628dee6e4f","system_id":"levelo_inurba_marseille","lat":43.298037,"lon":5.381066,"is_reserved":false,"is_disabled":false,"rental_uris":{"android":"levelo://app?vid=6dfe41c8-f918-4e9a-a56b-38628dee6e4f","ios":"levelo://app?vid=6dfe41c8-f918-4e9a-a56b-38628dee6e4f"},"vehicle_type_id":"4","last_reported":1678454311,"current_range_meters":14400,"station_id":"ce4bgip2rcd13ifvqbb0","pricing_plan_id":"free"},{"bike_id":"b6b3dd2b-092c-49cb-86e0-5f2dc6ae3430","system_id":"levelo_inurba_marseille","lat":43.298037,"lon":5.381066,"is_reserved":false,"is_disabled":false,"rental_uris":{"android":"levelo://app?vid=b6b3dd2b-092c-49cb-86e0-5f2dc6ae3430","ios":"levelo://app?vid=b6b3dd2b-092c-49cb-86e0-5f2dc6ae3430"},"vehicle_type_id":"4","last_reported":1678454311,"current_range_meters":30000,"station_id":"ce4bgip2rcd13ifvqbb0","pricing_plan_id":"free"},{"bike_id":"8ded66d1-f167-4f0c-aba0-3083bd7fd8fe","system_id":"levelo_inurba_marseille","lat":43.295748,"lon":5.37522,"is_reserved":false,"is_disabled":false,"rental_uris":{"android":"levelo://app?vid=8ded66d1-f167-4f0c-aba0-3083bd7fd8fe","ios":"levelo://app?vid=8ded66d1-f167-4f0c-aba0-3083bd7fd8fe"},"vehicle_type_id":"4","last_reported":1678454311,"current_range_meters":400,"station_id":"ce4bgh92rcd13ifvqb50","pricing_plan_id":"free"},{"bike_id":"5b6bf0af-0854-4e7a-9cb5-ef803cd3e3e3","system_id":"levelo_inurba_marseille","lat":43.298037,"lon":5.381066,"is_reserved":false,"is_disabled":false,"rental_uris":{"android":"levelo://app?vid=5b6bf0af-0854-4e7a-9cb5-ef803cd3e3e3","ios":"levelo://app?vid=5b6bf0af-0854-4e7a-9cb5-ef803cd3e3e3"},"vehicle_type_id":"4","last_reported":1678454311,"current_range_meters":20800,"station_id":"ce4bgip2rcd13ifvqbb0","pricing_plan_id":"free"},{"bike_id":"8d4e3f5f-fbae-40ae-9c94-7a34241d24a2","system_id":"levelo_inurba_marseille","lat":43.298037,"lon":5.381066,"is_reserved":false,"is_disabled":false,"rental_uris":{"android":"levelo://app?vid=8d4e3f5f-fbae-40ae-9c94-7a34241d24a2","ios":"levelo://app?vid=8d4e3f5f-fbae-40ae-9c94-7a34241d24a2"},"vehicle_type_id":"4","last_reported":1678454311,"current_range_meters":800,"station_id":"ce4bgip2rcd13ifvqbb0","pricing_plan_id":"free"},{"bike_id":"01431ba5-e173-4e66-80b6-14b3dcefc661","system_id":"levelo_inurba_marseille","lat":43.295748,"lon":5.37522,"is_reserved":false,"is_disabled":false,"rental_uris":{"android":"levelo://app?vid=01431ba5-e173-4e66-80b6-14b3dcefc661","ios":"levelo://app?vid=01431ba5-e173-4e66-80b6-14b3dcefc661"},"vehicle_type_id":"4","last_reported":1678454311,"current_range_meters":20000,"station_id":"ce4bgh92rcd13ifvqb50","pricing_plan_id":"free"},{"bike_id":"c01cd661-8596-43fe-8506-0d9532921770","system_id":"levelo_inurba_marseille","lat":43.296263,"lon":5.377094,"is_reserved":false,"is_disabled":false,"rental_uris":{"android":"levelo://app?vid=c01cd661-8596-43fe-8506-0d9532921770","ios":"levelo://app?vid=c01cd661-8596-43fe-8506-0d9532921770"},"vehicle_type_id":"4","last_reported":1678454311,"current_range_meters":1600,"station_id":"ce4bgi92rcd13ifvqb90","pricing_plan_id":"free"},{"bike_id":"4ceac78b-9bfb-4ba7-ad1f-3eed965a68cd","system_id":"levelo_inurba_marseille","lat":43.2962,"lon":5.377255,"is_reserved":false,"is_disabled":false,"rental_uris":{"android":"levelo://app?vid=4ceac78b-9bfb-4ba7-ad1f-3eed965a68cd","ios":"levelo://app?vid=4ceac78b-9bfb-4ba7-ad1f-3eed965a68cd"},"vehicle_type_id":"4","last_reported":1678454311,"current_range_meters":0,"station_id":"ce4bgi92rcd13ifvqb90","pricing_plan_id":"free"},{"bike_id":"e8c86790-3e2e-46be-94b7-fd87aefbd5dd","system_id":"levelo_inurba_marseille","lat":43.296263,"lon":5.377094,"is_reserved":false,"is_disabled":false,"rental_uris":{"android":"levelo://app?vid=e8c86790-3e2e-46be-94b7-fd87aefbd5dd","ios":"levelo://app?vid=e8c86790-3e2e-46be-94b7-fd87aefbd5dd"},"vehicle_type_id":"4","last_reported":1678454311,"current_range_meters":23600,"station_id":"ce4bgi92rcd13ifvqb90","pricing_plan_id":"free"},{"bike_id":"abb7071e-186e-4bf9-990f-306713381910","system_id":"levelo_inurba_marseille","lat":43.296263,"lon":5.377094,"is_reserved":false,"is_disabled":false,"rental_uris":{"android":"levelo://app?vid=abb7071e-186e-4bf9-990f-306713381910","ios":"levelo://app?vid=abb7071e-186e-4bf9-990f-306713381910"},"vehicle_type_id":"4","last_reported":1678454311,"current_range_meters":14800,"station_id":"ce4bgi92rcd13ifvqb90","pricing_plan_id":"free"},{"bike_id":"c8100117-e20e-4f1d-bd8b-29e257c187a4","system_id":"levelo_inurba_marseille","lat":43.299832,"lon":5.384762,"is_reserved":false,"is_disabled":false,"rental_uris":{"android":"levelo://app?vid=c8100117-e20e-4f1d-bd8b-29e257c187a4","ios":"levelo://app?vid=c8100117-e20e-4f1d-bd8b-29e257c187a4"},"vehicle_type_id":"4","last_reported":1678454311,"current_range_meters":0,"station_id":"","pricing_plan_id":"free"},{"bike_id":"da5f0ccf-1cc7-40a0-951d-59dd4b700803","system_id":"levelo_inurba_marseille","lat":43.29986,"lon":5.38487,"is_reserved":false,"is_disabled":false,"rental_uris":{"android":"levelo://app?vid=da5f0ccf-1cc7-40a0-951d-59dd4b700803","ios":"levelo://app?vid=da5f0ccf-1cc7-40a0-951d-59dd4b700803"},"vehicle_type_id":"4","last_reported":1678454311,"current_range_meters":2400,"station_id":"","pricing_plan_id":"free"},{"bike_id":"713a3749-9f6d-4022-b9c5-f447f4b7e7e1","system_id":"levelo_inurba_marseille","lat":43.2998,"lon":5.38487,"is_reserved":false,"is_disabled":false,"rental_uris":{"android":"levelo://app?vid=713a3749-9f6d-4022-b9c5-f447f4b7e7e1","ios":"levelo://app?vid=713a3749-9f6d-4022-b9c5-f447f4b7e7e1"},"vehicle_type_id":"4","last_reported":1678454311,"current_range_meters":24000,"station_id":"","pricing_plan_id":"free"},{"bike_id":"067fd2b2-34d4-4f6a-9d61-65ff34edaa51","system_id":"levelo_inurba_marseille","lat":43.295279,"lon":5.375048,"is_reserved":false,"is_disabled":false,"rental_uris":{"android":"levelo://app?vid=067fd2b2-34d4-4f6a-9d61-65ff34edaa51","ios":"levelo://app?vid=067fd2b2-34d4-4f6a-9d61-65ff34edaa51"},"vehicle_type_id":"4","last_reported":1678454311,"current_range_meters":26400,"station_id":"ce4bgkp2rcd13ifvqbmg","pricing_plan_id":"free"},{"bike_id":"7bd6a61c-eaa5-4ab2-9dbd-2749574744df","system_id":"levelo_inurba_marseille","lat":43.295279,"lon":5.375048,"is_reserved":false,"is_disabled":false,"rental_uris":{"android":"levelo://app?vid=7bd6a61c-eaa5-4ab2-9dbd-2749574744df","ios":"levelo://app?vid=7bd6a61c-eaa5-4ab2-9dbd-2749574744df"},"vehicle_type_id":"4","last_reported":1678454311,"current_range_meters":0,"station_id":"ce4bgkp2rcd13ifvqbmg","pricing_plan_id":"free"},{"bike_id":"51f3f57e-9c3e-418e-8d11-8106849a432a","system_id":"levelo_inurba_marseille","lat":43.2943,"lon":5.37408,"is_reserved":false,"is_disabled":false,"rental_uris":{"android":"levelo://app?vid=51f3f57e-9c3e-418e-8d11-8106849a432a","ios":"levelo://app?vid=51f3f57e-9c3e-418e-8d11-8106849a432a"},"vehicle_type_id":"4","last_reported":1678454311,"current_range_meters":0,"station_id":"ce4bha92rcd13ifvqeg0","pricing_plan_id":"free"},{"bike_id":"562a7c6d-6066-4eab-a48c-5b54de8dabd3","system_id":"levelo_inurba_marseille","lat":43.32367,"lon":5.388836,"is_reserved":false,"is_disabled":false,"rental_uris":{"android":"levelo://app?vid=562a7c6d-6066-4eab-a48c-5b54de8dabd3","ios":"levelo://app?vid=562a7c6d-6066-4eab-a48c-5b54de8dabd3"},"vehicle_type_id":"4","last_reported":1678454311,"current_range_meters":31600,"station_id":"ce4bhqp2rcd13ifvqhog","pricing_plan_id":"free"},{"bike_id":"ff697d0f-725d-4db4-8820-e7a45d9075e3","system_id":"levelo_inurba_marseille","lat":43.32367,"lon":5.388836,"is_reserved":false,"is_disabled":false,"rental_uris":{"android":"levelo://app?vid=ff697d0f-725d-4db4-8820-e7a45d9075e3","ios":"levelo://app?vid=ff697d0f-725d-4db4-8820-e7a45d9075e3"},"vehicle_type_id":"4","last_reported":1678454311,"current_range_meters":31600,"station_id":"ce4bhqp2rcd13ifvqhog","pricing_plan_id":"free"},{"bike_id":"b1c6504c-cda4-4ee9-8f98-1fce9f8a71bf","system_id":"levelo_inurba_marseille","lat":43.32367,"lon":5.388836,"is_reserved":false,"is_disabled":false,"rental_uris":{"android":"levelo://app?vid=b1c6504c-cda4-4ee9-8f98-1fce9f8a71bf","ios":"levelo://app?vid=b1c6504c-cda4-4ee9-8f98-1fce9f8a71bf"},"vehicle_type_id":"4","last_reported":1678454311,"current_range_meters":30400,"station_id":"ce4bhqp2rcd13ifvqhog","pricing_plan_id":"free"},{"bike_id":"a279d5e3-e021-470e-ac93-8f51e9caa577","system_id":"levelo_inurba_marseille","lat":43.32369,"lon":5.3889,"is_reserved":false,"is_disabled":false,"rental_uris":{"android":"levelo://app?vid=a279d5e3-e021-470e-ac93-8f51e9caa577","ios":"levelo://app?vid=a279d5e3-e021-470e-ac93-8f51e9caa577"},"vehicle_type_id":"4","last_reported":1678454311,"current_range_meters":31600,"station_id":"","pricing_plan_id":"free"},{"bike_id":"d1c0f3f4-5d27-41c1-a87b-e366c2b0800f","system_id":"levelo_inurba_marseille","lat":43.312818,"lon":5.39423,"is_reserved":false,"is_disabled":false,"rental_uris":{"android":"levelo://app?vid=d1c0f3f4-5d27-41c1-a87b-e366c2b0800f","ios":"levelo://app?vid=d1c0f3f4-5d27-41c1-a87b-e366c2b0800f"},"vehicle_type_id":"4","last_reported":1678454311,"current_range_meters":4000,"station_id":"","pricing_plan_id":"free"},{"bike_id":"9ba4a030-5acc-4bc1-a49d-f7356e66cd03","system_id":"levelo_inurba_marseille","lat":43.307297,"lon":5.393654,"is_reserved":false,"is_disabled":false,"rental_uris":{"android":"levelo://app?vid=9ba4a030-5acc-4bc1-a49d-f7356e66cd03","ios":"levelo://app?vid=9ba4a030-5acc-4bc1-a49d-f7356e66cd03"},"vehicle_type_id":"4","last_reported":1678454311,"current_range_meters":0,"station_id":"","pricing_plan_id":"free"},{"bike_id":"22f09e77-e23e-4634-a44f-a89cc95496db","system_id":"levelo_inurba_marseille","lat":43.293009,"lon":5.374584,"is_reserved":false,"is_disabled":false,"rental_uris":{"android":"levelo://app?vid=22f09e77-e23e-4634-a44f-a89cc95496db","ios":"levelo://app?vid=22f09e77-e23e-4634-a44f-a89cc95496db"},"vehicle_type_id":"4","last_reported":1678454311,"current_range_meters":5200,"station_id":"ce4bgi12rcd13ifvqb70","pricing_plan_id":"free"},{"bike_id":"78d19a25-6592-4a77-9c6c-a4a8209d1aa2","system_id":"levelo_inurba_marseille","lat":43.305733,"lon":5.3934,"is_reserved":false,"is_disabled":false,"rental_uris":{"android":"levelo://app?vid=78d19a25-6592-4a77-9c6c-a4a8209d1aa2","ios":"levelo://app?vid=78d19a25-6592-4a77-9c6c-a4a8209d1aa2"},"vehicle_type_id":"4","last_reported":1678454311,"current_range_meters":14400,"station_id":"","pricing_plan_id":"free"},{"bike_id":"5e383c00-c0b1-4f71-95c4-1759c592107d","system_id":"levelo_inurba_marseille","lat":43.305994,"lon":5.393687,"is_reserved":false,"is_disabled":false,"rental_uris":{"android":"levelo://app?vid=5e383c00-c0b1-4f71-95c4-1759c592107d","ios":"levelo://app?vid=5e383c00-c0b1-4f71-95c4-1759c592107d"},"vehicle_type_id":"4","last_reported":1678454311,"current_range_meters":19200,"station_id":"ce4bh0p2rcd13ifvqd80","pricing_plan_id":"free"},{"bike_id":"c2c7741d-e695-4843-8791-4ffb7a971577","system_id":"levelo_inurba_marseille","lat":43.2936,"lon":5.37835,"is_reserved":false,"is_disabled":false,"rental_uris":{"android":"levelo://app?vid=c2c7741d-e695-4843-8791-4ffb7a971577","ios":"levelo://app?vid=c2c7741d-e695-4843-8791-4ffb7a971577"},"vehicle_type_id":"4","last_reported":1678454311,"current_range_meters":0,"station_id":"ce4bgjh2rcd13ifvqbf0","pricing_plan_id":"free"},{"bike_id":"030ea6bd-a5bd-42fa-856f-9d4291b54647","system_id":"levelo_inurba_marseille","lat":43.2936,"lon":5.37835,"is_reserved":false,"is_disabled":false,"rental_uris":{"android":"levelo://app?vid=030ea6bd-a5bd-42fa-856f-9d4291b54647","ios":"levelo://app?vid=030ea6bd-a5bd-42fa-856f-9d4291b54647"},"vehicle_type_id":"4","last_reported":1678454311,"current_range_meters":15200,"station_id":"ce4bgjh2rcd13ifvqbf0","pricing_plan_id":"free"},{"bike_id":"02a1d820-1ebb-4bbd-ba10-d6534b4ba2b9","system_id":"levelo_inurba_marseille","lat":43.292311,"lon":5.360731,"is_reserved":false,"is_disabled":false,"rental_uris":{"android":"levelo://app?vid=02a1d820-1ebb-4bbd-ba10-d6534b4ba2b9","ios":"levelo://app?vid=02a1d820-1ebb-4bbd-ba10-d6534b4ba2b9"},"vehicle_type_id":"4","last_reported":1678454311,"current_range_meters":0,"station_id":"ce4bhbh2rcd13ifvqeqg","pricing_plan_id":"free"},{"bike_id":"32dcaa74-32d0-469c-8326-248b083140aa","system_id":"levelo_inurba_marseille","lat":43.298764,"lon":5.388973,"is_reserved":false,"is_disabled":false,"rental_uris":{"android":"levelo://app?vid=32dcaa74-32d0-469c-8326-248b083140aa","ios":"levelo://app?vid=32dcaa74-32d0-469c-8326-248b083140aa"},"vehicle_type_id":"4","last_reported":1678454311,"current_range_meters":11200,"station_id":"ce4bh392rcd13ifvqdl0","pricing_plan_id":"free"},{"bike_id":"109917e0-cada-4e71-a7c0-6c0eced8c279","system_id":"levelo_inurba_marseille","lat":43.298764,"lon":5.388973,"is_reserved":false,"is_disabled":false,"rental_uris":{"android":"levelo://app?vid=109917e0-cada-4e71-a7c0-6c0eced8c279","ios":"levelo://app?vid=109917e0-cada-4e71-a7c0-6c0eced8c279"},"vehicle_type_id":"4","last_reported":1678454311,"current_range_meters":2800,"station_id":"ce4bh392rcd13ifvqdl0","pricing_plan_id":"free"},{"bike_id":"0f87f8e5-6b12-4a28-866b-c1c43ab75ed8","system_id":"levelo_inurba_marseille","lat":43.298764,"lon":5.388973,"is_reserved":false,"is_disabled":false,"rental_uris":{"android":"levelo://app?vid=0f87f8e5-6b12-4a28-866b-c1c43ab75ed8","ios":"levelo://app?vid=0f87f8e5-6b12-4a28-866b-c1c43ab75ed8"},"vehicle_type_id":"4","last_reported":1678454311,"current_range_meters":7200,"station_id":"ce4bh392rcd13ifvqdl0","pricing_plan_id":"free"},{"bike_id":"fdaccb27-dbed-48b3-9162-b0752c9eb1e7","system_id":"levelo_inurba_marseille","lat":43.291675,"lon":5.371583,"is_reserved":false,"is_disabled":false,"rental_uris":{"android":"levelo://app?vid=fdaccb27-dbed-48b3-9162-b0752c9eb1e7","ios":"levelo://app?vid=fdaccb27-dbed-48b3-9162-b0752c9eb1e7"},"vehicle_type_id":"4","last_reported":1678454311,"current_range_meters":5600,"station_id":"ce4bha92rcd13ifvqeh0","pricing_plan_id":"free"},{"bike_id":"87da6541-6015-4f9e-a24a-bccebdc0dc01","system_id":"levelo_inurba_marseille","lat":43.298764,"lon":5.388973,"is_reserved":false,"is_disabled":false,"rental_uris":{"android":"levelo://app?vid=87da6541-6015-4f9e-a24a-bccebdc0dc01","ios":"levelo://app?vid=87da6541-6015-4f9e-a24a-bccebdc0dc01"},"vehicle_type_id":"4","last_reported":1678454311,"current_range_meters":15600,"station_id":"ce4bh392rcd13ifvqdl0","pricing_plan_id":"free"},{"bike_id":"f9805a57-851c-4b82-b853-bbd4a9df74f7","system_id":"levelo_inurba_marseille","lat":43.291714,"lon":5.371559,"is_reserved":false,"is_disabled":false,"rental_uris":{"android":"levelo://app?vid=f9805a57-851c-4b82-b853-bbd4a9df74f7","ios":"levelo://app?vid=f9805a57-851c-4b82-b853-bbd4a9df74f7"},"vehicle_type_id":"4","last_reported":1678454311,"current_range_meters":0,"station_id":"","pricing_plan_id":"free"},{"bike_id":"1612bece-cb06-4794-88fb-b1dbd6f2f3b5","system_id":"levelo_inurba_marseille","lat":43.291671,"lon":5.371575,"is_reserved":false,"is_disabled":false,"rental_uris":{"android":"levelo://app?vid=1612bece-cb06-4794-88fb-b1dbd6f2f3b5","ios":"levelo://app?vid=1612bece-cb06-4794-88fb-b1dbd6f2f3b5"},"vehicle_type_id":"4","last_reported":1678454311,"current_range_meters":18000,"station_id":"ce4bha92rcd13ifvqeh0","pricing_plan_id":"free"},{"bike_id":"7385f344-20ef-469d-be68-8e53ddfd73fa","system_id":"levelo_inurba_marseille","lat":43.291703,"lon":5.3716,"is_reserved":false,"is_disabled":false,"rental_uris":{"android":"levelo://app?vid=7385f344-20ef-469d-be68-8e53ddfd73fa","ios":"levelo://app?vid=7385f344-20ef-469d-be68-8e53ddfd73fa"},"vehicle_type_id":"4","last_reported":1678454311,"current_range_meters":24000,"station_id":"ce4bha92rcd13ifvqeh0","pricing_plan_id":"free"},{"bike_id":"b0fb9604-e21c-48f0-8959-129fe6e274b3","system_id":"levelo_inurba_marseille","lat":43.291671,"lon":5.371575,"is_reserved":false,"is_disabled":false,"rental_uris":{"android":"levelo://app?vid=b0fb9604-e21c-48f0-8959-129fe6e274b3","ios":"levelo://app?vid=b0fb9604-e21c-48f0-8959-129fe6e274b3"},"vehicle_type_id":"4","last_reported":1678454311,"current_range_meters":3600,"station_id":"ce4bha92rcd13ifvqeh0","pricing_plan_id":"free"},{"bike_id":"a67b5cc3-8211-4829-b083-eb0ed6ac820d","system_id":"levelo_inurba_marseille","lat":43.29876,"lon":5.3892,"is_reserved":false,"is_disabled":false,"rental_uris":{"android":"levelo://app?vid=a67b5cc3-8211-4829-b083-eb0ed6ac820d","ios":"levelo://app?vid=a67b5cc3-8211-4829-b083-eb0ed6ac820d"},"vehicle_type_id":"4","last_reported":1678454311,"current_range_meters":22000,"station_id":"ce4bh392rcd13ifvqdl0","pricing_plan_id":"free"},{"bike_id":"2c87feb4-f646-48de-a00b-a9bbf42f3648","system_id":"levelo_inurba_marseille","lat":43.29529,"lon":5.385581,"is_reserved":false,"is_disabled":false,"rental_uris":{"android":"levelo://app?vid=2c87feb4-f646-48de-a00b-a9bbf42f3648","ios":"levelo://app?vid=2c87feb4-f646-48de-a00b-a9bbf42f3648"},"vehicle_type_id":"4","last_reported":1678454311,"current_range_meters":13600,"station_id":"ce4bgih2rcd13ifvqba0","pricing_plan_id":"free"},{"bike_id":"32ffef61-f6ab-4c5a-ae0a-102ed64adf27","system_id":"levelo_inurba_marseille","lat":43.29529,"lon":5.385581,"is_reserved":false,"is_disabled":false,"rental_uris":{"android":"levelo://app?vid=32ffef61-f6ab-4c5a-ae0a-102ed64adf27","ios":"levelo://app?vid=32ffef61-f6ab-4c5a-ae0a-102ed64adf27"},"vehicle_type_id":"4","last_reported":1678454311,"current_range_meters":12800,"station_id":"ce4bgih2rcd13ifvqba0","pricing_plan_id":"free"},{"bike_id":"83378b8f-4c3b-4dd8-9fad-ddb25606d73b","system_id":"levelo_inurba_marseille","lat":43.290798,"lon":5.371561,"is_reserved":false,"is_disabled":false,"rental_uris":{"android":"levelo://app?vid=83378b8f-4c3b-4dd8-9fad-ddb25606d73b","ios":"levelo://app?vid=83378b8f-4c3b-4dd8-9fad-ddb25606d73b"},"vehicle_type_id":"4","last_reported":1678454311,"current_range_meters":20400,"station_id":"ce4bh5p2rcd13ifvqe4g","pricing_plan_id":"free"},{"bike_id":"3e098756-9916-4bdb-a5b0-b4c884382049","system_id":"levelo_inurba_marseille","lat":43.29081,"lon":5.37178,"is_reserved":false,"is_disabled":false,"rental_uris":{"android":"levelo://app?vid=3e098756-9916-4bdb-a5b0-b4c884382049","ios":"levelo://app?vid=3e098756-9916-4bdb-a5b0-b4c884382049"},"vehicle_type_id":"4","last_reported":1678454311,"current_range_meters":7200,"station_id":"ce4bh5p2rcd13ifvqe4g","pricing_plan_id":"free"},{"bike_id":"384e997a-1cab-46a6-b28e-c6779025a444","system_id":"levelo_inurba_marseille","lat":43.290708,"lon":5.371564,"is_reserved":false,"is_disabled":false,"rental_uris":{"android":"levelo://app?vid=384e997a-1cab-46a6-b28e-c6779025a444","ios":"levelo://app?vid=384e997a-1cab-46a6-b28e-c6779025a444"},"vehicle_type_id":"4","last_reported":1678454311,"current_range_meters":0,"station_id":"","pricing_plan_id":"free"},{"bike_id":"aaf199a4-f178-43a1-923f-58e7812a4bfe","system_id":"levelo_inurba_marseille","lat":43.29072,"lon":5.37174,"is_reserved":false,"is_disabled":false,"rental_uris":{"android":"levelo://app?vid=aaf199a4-f178-43a1-923f-58e7812a4bfe","ios":"levelo://app?vid=aaf199a4-f178-43a1-923f-58e7812a4bfe"},"vehicle_type_id":"4","last_reported":1678454311,"current_range_meters":17200,"station_id":"ce4bh5p2rcd13ifvqe4g","pricing_plan_id":"free"},{"bike_id":"1d1565b7-8ad6-4ade-ab75-613c7d9661f4","system_id":"levelo_inurba_marseille","lat":43.290664,"lon":5.371678,"is_reserved":false,"is_disabled":false,"rental_uris":{"android":"levelo://app?vid=1d1565b7-8ad6-4ade-ab75-613c7d9661f4","ios":"levelo://app?vid=1d1565b7-8ad6-4ade-ab75-613c7d9661f4"},"vehicle_type_id":"4","last_reported":1678454311,"current_range_meters":0,"station_id":"ce4bh5p2rcd13ifvqe4g","pricing_plan_id":"free"},{"bike_id":"60eac446-fab0-45ae-a365-564bf73d57f0","system_id":"levelo_inurba_marseille","lat":43.29066,"lon":5.3717,"is_reserved":false,"is_disabled":false,"rental_uris":{"android":"levelo://app?vid=60eac446-fab0-45ae-a365-564bf73d57f0","ios":"levelo://app?vid=60eac446-fab0-45ae-a365-564bf73d57f0"},"vehicle_type_id":"4","last_reported":1678454311,"current_range_meters":21600,"station_id":"ce4bh5p2rcd13ifvqe4g","pricing_plan_id":"free"},{"bike_id":"aa11ce5c-6d63-407d-b442-9bfa8dc6c849","system_id":"levelo_inurba_marseille","lat":43.29059,"lon":5.371656,"is_reserved":false,"is_disabled":false,"rental_uris":{"android":"levelo://app?vid=aa11ce5c-6d63-407d-b442-9bfa8dc6c849","ios":"levelo://app?vid=aa11ce5c-6d63-407d-b442-9bfa8dc6c849"},"vehicle_type_id":"4","last_reported":1678454311,"current_range_meters":0,"station_id":"","pricing_plan_id":"free"},{"bike_id":"39d65e6c-3df5-4d08-a7b9-74c7c183599d","system_id":"levelo_inurba_marseille","lat":43.302008,"lon":5.394694,"is_reserved":false,"is_disabled":false,"rental_uris":{"android":"levelo://app?vid=39d65e6c-3df5-4d08-a7b9-74c7c183599d","ios":"levelo://app?vid=39d65e6c-3df5-4d08-a7b9-74c7c183599d"},"vehicle_type_id":"4","last_reported":1678454311,"current_range_meters":23600,"station_id":"ce4bh0p2rcd13ifvqd70","pricing_plan_id":"free"},{"bike_id":"ffd68542-2071-4b2f-b995-61745cbf8669","system_id":"levelo_inurba_marseille","lat":43.302008,"lon":5.394694,"is_reserved":false,"is_disabled":false,"rental_uris":{"android":"levelo://app?vid=ffd68542-2071-4b2f-b995-61745cbf8669","ios":"levelo://app?vid=ffd68542-2071-4b2f-b995-61745cbf8669"},"vehicle_type_id":"4","last_reported":1678454311,"current_range_meters":16400,"station_id":"ce4bh0p2rcd13ifvqd70","pricing_plan_id":"free"},{"bike_id":"a608cf9b-027a-48aa-9351-587cf42c62f7","system_id":"levelo_inurba_marseille","lat":43.302008,"lon":5.394694,"is_reserved":false,"is_disabled":false,"rental_uris":{"android":"levelo://app?vid=a608cf9b-027a-48aa-9351-587cf42c62f7","ios":"levelo://app?vid=a608cf9b-027a-48aa-9351-587cf42c62f7"},"vehicle_type_id":"4","last_reported":1678454311,"current_range_meters":17600,"station_id":"ce4bh0p2rcd13ifvqd70","pricing_plan_id":"free"},{"bike_id":"10fc5da4-bf35-48d8-aa2c-725ae235925b","system_id":"levelo_inurba_marseille","lat":43.290624,"lon":5.359245,"is_reserved":false,"is_disabled":false,"rental_uris":{"android":"levelo://app?vid=10fc5da4-bf35-48d8-aa2c-725ae235925b","ios":"levelo://app?vid=10fc5da4-bf35-48d8-aa2c-725ae235925b"},"vehicle_type_id":"4","last_reported":1678454311,"current_range_meters":7200,"station_id":"ce4bha92rcd13ifvqeg0","pricing_plan_id":"free"},{"bike_id":"f2a46c02-6c5b-40f9-b79e-558ccf569610","system_id":"levelo_inurba_marseille","lat":43.290327,"lon":5.375711,"is_reserved":false,"is_disabled":false,"rental_uris":{"android":"levelo://app?vid=f2a46c02-6c5b-40f9-b79e-558ccf569610","ios":"levelo://app?vid=f2a46c02-6c5b-40f9-b79e-558ccf569610"},"vehicle_type_id":"4","last_reported":1678454311,"current_range_meters":28800,"station_id":"ce4bh692rcd13ifvqe90","pricing_plan_id":"free"},{"bike_id":"093195a9-be38-4556-81df-804847fab573","system_id":"levelo_inurba_marseille","lat":43.290327,"lon":5.375711,"is_reserved":false,"is_disabled":false,"rental_uris":{"android":"levelo://app?vid=093195a9-be38-4556-81df-804847fab573","ios":"levelo://app?vid=093195a9-be38-4556-81df-804847fab573"},"vehicle_type_id":"4","last_reported":1678454311,"current_range_meters":18400,"station_id":"ce4bh692rcd13ifvqe90","pricing_plan_id":"free"},{"bike_id":"f459e914-85a5-492a-9a39-53acaf2eac7e","system_id":"levelo_inurba_marseille","lat":43.28939,"lon":5.366321,"is_reserved":false,"is_disabled":false,"rental_uris":{"android":"levelo://app?vid=f459e914-85a5-492a-9a39-53acaf2eac7e","ios":"levelo://app?vid=f459e914-85a5-492a-9a39-53acaf2eac7e"},"vehicle_type_id":"4","last_reported":1678454311,"current_range_meters":0,"station_id":"","pricing_plan_id":"free"},{"bike_id":"e7345263-201e-4a9c-8dce-7e49c04e48e5","system_id":"levelo_inurba_marseille","lat":43.28935,"lon":5.36641,"is_reserved":false,"is_disabled":false,"rental_uris":{"android":"levelo://app?vid=e7345263-201e-4a9c-8dce-7e49c04e48e5","ios":"levelo://app?vid=e7345263-201e-4a9c-8dce-7e49c04e48e5"},"vehicle_type_id":"4","last_reported":1678454311,"current_range_meters":2000,"station_id":"","pricing_plan_id":"free"},{"bike_id":"eaead00f-b329-46e6-9fb0-6d4d5fab71cc","system_id":"levelo_inurba_marseille","lat":43.289468,"lon":5.363719,"is_reserved":false,"is_disabled":false,"rental_uris":{"android":"levelo://app?vid=eaead00f-b329-46e6-9fb0-6d4d5fab71cc","ios":"levelo://app?vid=eaead00f-b329-46e6-9fb0-6d4d5fab71cc"},"vehicle_type_id":"4","last_reported":1678454311,"current_range_meters":0,"station_id":"ce4bhc92rcd13ifvqetg","pricing_plan_id":"free"},{"bike_id":"14087f8e-cc70-4813-a9c0-bc11fbe167c3","system_id":"levelo_inurba_marseille","lat":43.292644,"lon":5.384257,"is_reserved":false,"is_disabled":false,"rental_uris":{"android":"levelo://app?vid=14087f8e-cc70-4813-a9c0-bc11fbe167c3","ios":"levelo://app?vid=14087f8e-cc70-4813-a9c0-bc11fbe167c3"},"vehicle_type_id":"4","last_reported":1678454311,"current_range_meters":0,"station_id":"ce4bh692rcd13ifvqea0","pricing_plan_id":"free"},{"bike_id":"0c37b1e9-d742-4ab9-92ba-a08253a1ab6a","system_id":"levelo_inurba_marseille","lat":43.330442,"lon":5.389148,"is_reserved":false,"is_disabled":false,"rental_uris":{"android":"levelo://app?vid=0c37b1e9-d742-4ab9-92ba-a08253a1ab6a","ios":"levelo://app?vid=0c37b1e9-d742-4ab9-92ba-a08253a1ab6a"},"vehicle_type_id":"4","last_reported":1678454311,"current_range_meters":29600,"station_id":"ce4bhr92rcd13ifvqhrg","pricing_plan_id":"free"},{"bike_id":"fa492006-6d9b-4909-93ac-bc669d607be2","system_id":"levelo_inurba_marseille","lat":43.33049,"lon":5.38915,"is_reserved":false,"is_disabled":false,"rental_uris":{"android":"levelo://app?vid=fa492006-6d9b-4909-93ac-bc669d607be2","ios":"levelo://app?vid=fa492006-6d9b-4909-93ac-bc669d607be2"},"vehicle_type_id":"4","last_reported":1678454311,"current_range_meters":20000,"station_id":"","pricing_plan_id":"free"},{"bike_id":"9aab8e50-42b5-4d87-b9c8-fcbc4718a4ca","system_id":"levelo_inurba_marseille","lat":43.29006,"lon":5.35607,"is_reserved":false,"is_disabled":false,"rental_uris":{"android":"levelo://app?vid=9aab8e50-42b5-4d87-b9c8-fcbc4718a4ca","ios":"levelo://app?vid=9aab8e50-42b5-4d87-b9c8-fcbc4718a4ca"},"vehicle_type_id":"4","last_reported":1678454311,"current_range_meters":0,"station_id":"ce4bhb92rcd13ifvqen0","pricing_plan_id":"free"},{"bike_id":"cfb23013-0004-47f5-a33d-ca6cd07de1ca","system_id":"levelo_inurba_marseille","lat":43.330442,"lon":5.389148,"is_reserved":false,"is_disabled":false,"rental_uris":{"android":"levelo://app?vid=cfb23013-0004-47f5-a33d-ca6cd07de1ca","ios":"levelo://app?vid=cfb23013-0004-47f5-a33d-ca6cd07de1ca"},"vehicle_type_id":"4","last_reported":1678454311,"current_range_meters":16400,"station_id":"ce4bhr92rcd13ifvqhrg","pricing_plan_id":"free"},{"bike_id":"bb2ef807-b755-4d46-9c88-6d5a7d7c518e","system_id":"levelo_inurba_marseille","lat":43.330442,"lon":5.389148,"is_reserved":false,"is_disabled":false,"rental_uris":{"android":"levelo://app?vid=bb2ef807-b755-4d46-9c88-6d5a7d7c518e","ios":"levelo://app?vid=bb2ef807-b755-4d46-9c88-6d5a7d7c518e"},"vehicle_type_id":"4","last_reported":1678454311,"current_range_meters":12000,"station_id":"ce4bhr92rcd13ifvqhrg","pricing_plan_id":"free"},{"bike_id":"29a7c10e-0f2e-40fb-940d-1250d0abec19","system_id":"levelo_inurba_marseille","lat":43.3305,"lon":5.38917,"is_reserved":false,"is_disabled":false,"rental_uris":{"android":"levelo://app?vid=29a7c10e-0f2e-40fb-940d-1250d0abec19","ios":"levelo://app?vid=29a7c10e-0f2e-40fb-940d-1250d0abec19"},"vehicle_type_id":"4","last_reported":1678454311,"current_range_meters":30000,"station_id":"","pricing_plan_id":"free"},{"bike_id":"b82c24aa-d1d4-427e-a789-2a68e94f26f9","system_id":"levelo_inurba_marseille","lat":43.290994,"lon":5.38147,"is_reserved":false,"is_disabled":false,"rental_uris":{"android":"levelo://app?vid=b82c24aa-d1d4-427e-a789-2a68e94f26f9","ios":"levelo://app?vid=b82c24aa-d1d4-427e-a789-2a68e94f26f9"},"vehicle_type_id":"4","last_reported":1678454311,"current_range_meters":0,"station_id":"","pricing_plan_id":"free"},{"bike_id":"5caa9c63-40c3-464b-89f5-ed04c6c1f2de","system_id":"levelo_inurba_marseille","lat":43.290995,"lon":5.381361,"is_reserved":false,"is_disabled":false,"rental_uris":{"android":"levelo://app?vid=5caa9c63-40c3-464b-89f5-ed04c6c1f2de","ios":"levelo://app?vid=5caa9c63-40c3-464b-89f5-ed04c6c1f2de"},"vehicle_type_id":"4","last_reported":1678454311,"current_range_meters":15200,"station_id":"ce4bh512rcd13ifvqe2g","pricing_plan_id":"free"},{"bike_id":"366d3fbc-13c1-4498-8e6e-f06559064e36","system_id":"levelo_inurba_marseille","lat":43.28979,"lon":5.37832,"is_reserved":false,"is_disabled":false,"rental_uris":{"android":"levelo://app?vid=366d3fbc-13c1-4498-8e6e-f06559064e36","ios":"levelo://app?vid=366d3fbc-13c1-4498-8e6e-f06559064e36"},"vehicle_type_id":"4","last_reported":1678454311,"current_range_meters":400,"station_id":"ce4bh9p2rcd13ifvqed0","pricing_plan_id":"free"},{"bike_id":"f8fde327-0a83-4faa-b77d-f00369f736d6","system_id":"levelo_inurba_marseille","lat":43.2953,"lon":5.39041,"is_reserved":false,"is_disabled":false,"rental_uris":{"android":"levelo://app?vid=f8fde327-0a83-4faa-b77d-f00369f736d6","ios":"levelo://app?vid=f8fde327-0a83-4faa-b77d-f00369f736d6"},"vehicle_type_id":"4","last_reported":1678454311,"current_range_meters":19200,"station_id":"ce4bh3p2rcd13ifvqdp0","pricing_plan_id":"free"},{"bike_id":"96e851d5-0fea-410d-8a2b-941899208623","system_id":"levelo_inurba_marseille","lat":43.289758,"lon":5.378356,"is_reserved":false,"is_disabled":false,"rental_uris":{"android":"levelo://app?vid=96e851d5-0fea-410d-8a2b-941899208623","ios":"levelo://app?vid=96e851d5-0fea-410d-8a2b-941899208623"},"vehicle_type_id":"4","last_reported":1678454311,"current_range_meters":0,"station_id":"","pricing_plan_id":"free"},{"bike_id":"bc0e272f-1533-4403-93e7-fcd8593f4139","system_id":"levelo_inurba_marseille","lat":43.295169,"lon":5.390426,"is_reserved":false,"is_disabled":false,"rental_uris":{"android":"levelo://app?vid=bc0e272f-1533-4403-93e7-fcd8593f4139","ios":"levelo://app?vid=bc0e272f-1533-4403-93e7-fcd8593f4139"},"vehicle_type_id":"4","last_reported":1678454311,"current_range_meters":400,"station_id":"ce4bh3p2rcd13ifvqdp0","pricing_plan_id":"free"},{"bike_id":"7bd4df0e-ba7b-4d72-86f1-12dd7c2e537b","system_id":"levelo_inurba_marseille","lat":43.28865,"lon":5.35849,"is_reserved":false,"is_disabled":false,"rental_uris":{"android":"levelo://app?vid=7bd4df0e-ba7b-4d72-86f1-12dd7c2e537b","ios":"levelo://app?vid=7bd4df0e-ba7b-4d72-86f1-12dd7c2e537b"},"vehicle_type_id":"4","last_reported":1678454311,"current_range_meters":6400,"station_id":"","pricing_plan_id":"free"},{"bike_id":"1a2673d3-c48c-4cc7-8ee9-ee808da7246a","system_id":"levelo_inurba_marseille","lat":43.30642,"lon":5.401031,"is_reserved":false,"is_disabled":false,"rental_uris":{"android":"levelo://app?vid=1a2673d3-c48c-4cc7-8ee9-ee808da7246a","ios":"levelo://app?vid=1a2673d3-c48c-4cc7-8ee9-ee808da7246a"},"vehicle_type_id":"4","last_reported":1678454311,"current_range_meters":9600,"station_id":"ce4bh112rcd13ifvqda0","pricing_plan_id":"free"},{"bike_id":"7eb9452c-b38f-48d6-a936-3c8ecb142348","system_id":"levelo_inurba_marseille","lat":43.337636,"lon":5.37438,"is_reserved":false,"is_disabled":false,"rental_uris":{"android":"levelo://app?vid=7eb9452c-b38f-48d6-a936-3c8ecb142348","ios":"levelo://app?vid=7eb9452c-b38f-48d6-a936-3c8ecb142348"},"vehicle_type_id":"4","last_reported":1678454311,"current_range_meters":29200,"station_id":"","pricing_plan_id":"free"},{"bike_id":"947e7e0b-2923-448d-986e-155007bc71f1","system_id":"levelo_inurba_marseille","lat":43.30646,"lon":5.40096,"is_reserved":false,"is_disabled":false,"rental_uris":{"android":"levelo://app?vid=947e7e0b-2923-448d-986e-155007bc71f1","ios":"levelo://app?vid=947e7e0b-2923-448d-986e-155007bc71f1"},"vehicle_type_id":"4","last_reported":1678454311,"current_range_meters":17200,"station_id":"ce4bh112rcd13ifvqda0","pricing_plan_id":"free"},{"bike_id":"6fc27ff1-66e9-4599-9dc1-d2eadc712f44","system_id":"levelo_inurba_marseille","lat":43.30642,"lon":5.401031,"is_reserved":false,"is_disabled":false,"rental_uris":{"android":"levelo://app?vid=6fc27ff1-66e9-4599-9dc1-d2eadc712f44","ios":"levelo://app?vid=6fc27ff1-66e9-4599-9dc1-d2eadc712f44"},"vehicle_type_id":"4","last_reported":1678454311,"current_range_meters":8800,"station_id":"ce4bh112rcd13ifvqda0","pricing_plan_id":"free"},{"bike_id":"e6e12638-a202-4fd5-b333-a7a88c5eadb0","system_id":"levelo_inurba_marseille","lat":43.306492,"lon":5.401032,"is_reserved":false,"is_disabled":false,"rental_uris":{"android":"levelo://app?vid=e6e12638-a202-4fd5-b333-a7a88c5eadb0","ios":"levelo://app?vid=e6e12638-a202-4fd5-b333-a7a88c5eadb0"},"vehicle_type_id":"4","last_reported":1678454311,"current_range_meters":3600,"station_id":"ce4bh112rcd13ifvqda0","pricing_plan_id":"free"},{"bike_id":"3518968f-afed-4382-9840-32fe83c35b61","system_id":"levelo_inurba_marseille","lat":43.286623,"lon":5.363587,"is_reserved":false,"is_disabled":false,"rental_uris":{"android":"levelo://app?vid=3518968f-afed-4382-9840-32fe83c35b61","ios":"levelo://app?vid=3518968f-afed-4382-9840-32fe83c35b61"},"vehicle_type_id":"4","last_reported":1678454311,"current_range_meters":0,"station_id":"ce4bhah2rcd13ifvqej0","pricing_plan_id":"free"},{"bike_id":"9c69eb16-1e6c-464d-8b14-481e10ce15eb","system_id":"levelo_inurba_marseille","lat":43.286593,"lon":5.363346,"is_reserved":false,"is_disabled":false,"rental_uris":{"android":"levelo://app?vid=9c69eb16-1e6c-464d-8b14-481e10ce15eb","ios":"levelo://app?vid=9c69eb16-1e6c-464d-8b14-481e10ce15eb"},"vehicle_type_id":"4","last_reported":1678454311,"current_range_meters":0,"station_id":"ce4bhah2rcd13ifvqej0","pricing_plan_id":"free"},{"bike_id":"f737f6ee-c596-444a-819e-0138ec7a5ba8","system_id":"levelo_inurba_marseille","lat":43.298681,"lon":5.397225,"is_reserved":false,"is_disabled":false,"rental_uris":{"android":"levelo://app?vid=f737f6ee-c596-444a-819e-0138ec7a5ba8","ios":"levelo://app?vid=f737f6ee-c596-444a-819e-0138ec7a5ba8"},"vehicle_type_id":"4","last_reported":1678454311,"current_range_meters":14000,"station_id":"ce4bh0h2rcd13ifvqd50","pricing_plan_id":"free"},{"bike_id":"567b199a-2cea-4044-a172-07d1cde42aff","system_id":"levelo_inurba_marseille","lat":43.295186,"lon":5.394018,"is_reserved":false,"is_disabled":false,"rental_uris":{"android":"levelo://app?vid=567b199a-2cea-4044-a172-07d1cde42aff","ios":"levelo://app?vid=567b199a-2cea-4044-a172-07d1cde42aff"},"vehicle_type_id":"4","last_reported":1678454311,"current_range_meters":0,"station_id":"ce4bh292rcd13ifvqdf0","pricing_plan_id":"free"},{"bike_id":"b0584b32-d5d4-4e00-a370-2b02f9250ec9","system_id":"levelo_inurba_marseille","lat":43.295132,"lon":5.394028,"is_reserved":false,"is_disabled":false,"rental_uris":{"android":"levelo://app?vid=b0584b32-d5d4-4e00-a370-2b02f9250ec9","ios":"levelo://app?vid=b0584b32-d5d4-4e00-a370-2b02f9250ec9"},"vehicle_type_id":"4","last_reported":1678454311,"current_range_meters":0,"station_id":"ce4bh292rcd13ifvqdf0","pricing_plan_id":"free"},{"bike_id":"4bd930fd-9224-4c0f-a28d-acb54d5fe00a","system_id":"levelo_inurba_marseille","lat":43.295154,"lon":5.394085,"is_reserved":false,"is_disabled":false,"rental_uris":{"android":"levelo://app?vid=4bd930fd-9224-4c0f-a28d-acb54d5fe00a","ios":"levelo://app?vid=4bd930fd-9224-4c0f-a28d-acb54d5fe00a"},"vehicle_type_id":"4","last_reported":1678454311,"current_range_meters":0,"station_id":"","pricing_plan_id":"free"},{"bike_id":"de184642-3728-4a45-b4c5-be5f9246feec","system_id":"levelo_inurba_marseille","lat":43.302759,"lon":5.400793,"is_reserved":false,"is_disabled":false,"rental_uris":{"android":"levelo://app?vid=de184642-3728-4a45-b4c5-be5f9246feec","ios":"levelo://app?vid=de184642-3728-4a45-b4c5-be5f9246feec"},"vehicle_type_id":"4","last_reported":1678454311,"current_range_meters":5600,"station_id":"ce4bgvh2rcd13ifvqcs0","pricing_plan_id":"free"},{"bike_id":"298d0798-2aa3-40bf-bdbd-b194a02b0f25","system_id":"levelo_inurba_marseille","lat":43.302759,"lon":5.400793,"is_reserved":false,"is_disabled":false,"rental_uris":{"android":"levelo://app?vid=298d0798-2aa3-40bf-bdbd-b194a02b0f25","ios":"levelo://app?vid=298d0798-2aa3-40bf-bdbd-b194a02b0f25"},"vehicle_type_id":"4","last_reported":1678454311,"current_range_meters":14000,"station_id":"ce4bgvh2rcd13ifvqcs0","pricing_plan_id":"free"},{"bike_id":"58429afa-e7fb-4614-8f47-478ee266a64c","system_id":"levelo_inurba_marseille","lat":43.286039,"lon":5.370679,"is_reserved":false,"is_disabled":false,"rental_uris":{"android":"levelo://app?vid=58429afa-e7fb-4614-8f47-478ee266a64c","ios":"levelo://app?vid=58429afa-e7fb-4614-8f47-478ee266a64c"},"vehicle_type_id":"4","last_reported":1678454311,"current_range_meters":3600,"station_id":"ce4bht12rcd13ifvqi60","pricing_plan_id":"free"},{"bike_id":"9a9b4aaa-d3cb-4466-8ada-c05f4e8d617e","system_id":"levelo_inurba_marseille","lat":43.286039,"lon":5.370679,"is_reserved":false,"is_disabled":false,"rental_uris":{"android":"levelo://app?vid=9a9b4aaa-d3cb-4466-8ada-c05f4e8d617e","ios":"levelo://app?vid=9a9b4aaa-d3cb-4466-8ada-c05f4e8d617e"},"vehicle_type_id":"4","last_reported":1678454311,"current_range_meters":9200,"station_id":"ce4bht12rcd13ifvqi60","pricing_plan_id":"free"},{"bike_id":"880e7acd-1454-42a4-b6b7-a82ad379d52e","system_id":"levelo_inurba_marseille","lat":43.287185,"lon":5.379373,"is_reserved":false,"is_disabled":false,"rental_uris":{"android":"levelo://app?vid=880e7acd-1454-42a4-b6b7-a82ad379d52e","ios":"levelo://app?vid=880e7acd-1454-42a4-b6b7-a82ad379d52e"},"vehicle_type_id":"4","last_reported":1678454311,"current_range_meters":24800,"station_id":"ce4bh9p2rcd13ifvqec0","pricing_plan_id":"free"},{"bike_id":"60f896a5-ff5e-4983-912f-54bbfc186e01","system_id":"levelo_inurba_marseille","lat":43.287185,"lon":5.379373,"is_reserved":false,"is_disabled":false,"rental_uris":{"android":"levelo://app?vid=60f896a5-ff5e-4983-912f-54bbfc186e01","ios":"levelo://app?vid=60f896a5-ff5e-4983-912f-54bbfc186e01"},"vehicle_type_id":"4","last_reported":1678454311,"current_range_meters":26000,"station_id":"ce4bh9p2rcd13ifvqec0","pricing_plan_id":"free"},{"bike_id":"1ef5254a-cdfb-48d8-8c41-d808498cd4d1","system_id":"levelo_inurba_marseille","lat":43.28707,"lon":5.3795,"is_reserved":false,"is_disabled":false,"rental_uris":{"android":"levelo://app?vid=1ef5254a-cdfb-48d8-8c41-d808498cd4d1","ios":"levelo://app?vid=1ef5254a-cdfb-48d8-8c41-d808498cd4d1"},"vehicle_type_id":"4","last_reported":1678454311,"current_range_meters":0,"station_id":"ce4bh9p2rcd13ifvqec0","pricing_plan_id":"free"},{"bike_id":"2b23bc62-e3a6-4ffd-821a-33b2b337bffc","system_id":"levelo_inurba_marseille","lat":43.284534,"lon":5.358662,"is_reserved":false,"is_disabled":false,"rental_uris":{"android":"levelo://app?vid=2b23bc62-e3a6-4ffd-821a-33b2b337bffc","ios":"levelo://app?vid=2b23bc62-e3a6-4ffd-821a-33b2b337bffc"},"vehicle_type_id":"4","last_reported":1678454311,"current_range_meters":12000,"station_id":"ce4bhah2rcd13ifvqei0","pricing_plan_id":"free"},{"bike_id":"289a43c2-80a4-4ca8-8ecc-186cf7040c37","system_id":"levelo_inurba_marseille","lat":43.286595,"lon":5.386795,"is_reserved":false,"is_disabled":false,"rental_uris":{"android":"levelo://app?vid=289a43c2-80a4-4ca8-8ecc-186cf7040c37","ios":"levelo://app?vid=289a43c2-80a4-4ca8-8ecc-186cf7040c37"},"vehicle_type_id":"4","last_reported":1678454311,"current_range_meters":10000,"station_id":"ce4bh492rcd13ifvqdug","pricing_plan_id":"free"},{"bike_id":"3e22b5ad-c742-4060-a99b-ba3f455a7ddf","system_id":"levelo_inurba_marseille","lat":43.336863,"lon":5.39207,"is_reserved":false,"is_disabled":false,"rental_uris":{"android":"levelo://app?vid=3e22b5ad-c742-4060-a99b-ba3f455a7ddf","ios":"levelo://app?vid=3e22b5ad-c742-4060-a99b-ba3f455a7ddf"},"vehicle_type_id":"4","last_reported":1678454311,"current_range_meters":25600,"station_id":"","pricing_plan_id":"free"},{"bike_id":"f1ceefd0-d897-445b-954c-7b41efaceb11","system_id":"levelo_inurba_marseille","lat":43.337205,"lon":5.391809,"is_reserved":false,"is_disabled":false,"rental_uris":{"android":"levelo://app?vid=f1ceefd0-d897-445b-954c-7b41efaceb11","ios":"levelo://app?vid=f1ceefd0-d897-445b-954c-7b41efaceb11"},"vehicle_type_id":"4","last_reported":1678454311,"current_range_meters":27200,"station_id":"ce4bhr92rcd13ifvqhsg","pricing_plan_id":"free"},{"bike_id":"049dad72-6330-444a-8c59-496aca383226","system_id":"levelo_inurba_marseille","lat":43.337186,"lon":5.39186,"is_reserved":false,"is_disabled":false,"rental_uris":{"android":"levelo://app?vid=049dad72-6330-444a-8c59-496aca383226","ios":"levelo://app?vid=049dad72-6330-444a-8c59-496aca383226"},"vehicle_type_id":"4","last_reported":1678454311,"current_range_meters":18000,"station_id":"","pricing_plan_id":"free"},{"bike_id":"c4dbf44f-b2f6-4712-bc48-ad2c8fae7753","system_id":"levelo_inurba_marseille","lat":43.337223,"lon":5.391791,"is_reserved":false,"is_disabled":false,"rental_uris":{"android":"levelo://app?vid=c4dbf44f-b2f6-4712-bc48-ad2c8fae7753","ios":"levelo://app?vid=c4dbf44f-b2f6-4712-bc48-ad2c8fae7753"},"vehicle_type_id":"4","last_reported":1678454311,"current_range_meters":25600,"station_id":"ce4bhr92rcd13ifvqhsg","pricing_plan_id":"free"},{"bike_id":"1a0985e7-8012-4188-a1ab-5d2a657e6e8f","system_id":"levelo_inurba_marseille","lat":43.33724,"lon":5.39182,"is_reserved":false,"is_disabled":false,"rental_uris":{"android":"levelo://app?vid=1a0985e7-8012-4188-a1ab-5d2a657e6e8f","ios":"levelo://app?vid=1a0985e7-8012-4188-a1ab-5d2a657e6e8f"},"vehicle_type_id":"4","last_reported":1678454311,"current_range_meters":28800,"station_id":"ce4bhr92rcd13ifvqhsg","pricing_plan_id":"free"},{"bike_id":"05a43216-1b0b-49e2-a21b-0e50dc5d819a","system_id":"levelo_inurba_marseille","lat":43.337168,"lon":5.391825,"is_reserved":false,"is_disabled":false,"rental_uris":{"android":"levelo://app?vid=05a43216-1b0b-49e2-a21b-0e50dc5d819a","ios":"levelo://app?vid=05a43216-1b0b-49e2-a21b-0e50dc5d819a"},"vehicle_type_id":"4","last_reported":1678454311,"current_range_meters":31200,"station_id":"ce4bhr92rcd13ifvqhsg","pricing_plan_id":"free"},{"bike_id":"53f2010f-8187-48f2-b113-e574fc1f8dcd","system_id":"levelo_inurba_marseille","lat":43.33717,"lon":5.391857,"is_reserved":false,"is_disabled":false,"rental_uris":{"android":"levelo://app?vid=53f2010f-8187-48f2-b113-e574fc1f8dcd","ios":"levelo://app?vid=53f2010f-8187-48f2-b113-e574fc1f8dcd"},"vehicle_type_id":"4","last_reported":1678454311,"current_range_meters":19200,"station_id":"ce4bhr92rcd13ifvqhsg","pricing_plan_id":"free"},{"bike_id":"02310c17-1e9c-4103-972f-08b261c7dd54","system_id":"levelo_inurba_marseille","lat":43.337239,"lon":5.391854,"is_reserved":false,"is_disabled":false,"rental_uris":{"android":"levelo://app?vid=02310c17-1e9c-4103-972f-08b261c7dd54","ios":"levelo://app?vid=02310c17-1e9c-4103-972f-08b261c7dd54"},"vehicle_type_id":"4","last_reported":1678454311,"current_range_meters":27600,"station_id":"ce4bhr92rcd13ifvqhsg","pricing_plan_id":"free"},{"bike_id":"61698476-fabf-45bd-b501-722c7f9e07bb","system_id":"levelo_inurba_marseille","lat":43.337263,"lon":5.391818,"is_reserved":false,"is_disabled":false,"rental_uris":{"android":"levelo://app?vid=61698476-fabf-45bd-b501-722c7f9e07bb","ios":"levelo://app?vid=61698476-fabf-45bd-b501-722c7f9e07bb"},"vehicle_type_id":"4","last_reported":1678454311,"current_range_meters":17600,"station_id":"ce4bhr92rcd13ifvqhsg","pricing_plan_id":"free"},{"bike_id":"69ad1a19-ebb0-42e6-84e9-c60f7244d521","system_id":"levelo_inurba_marseille","lat":43.337266,"lon":5.391819,"is_reserved":false,"is_disabled":false,"rental_uris":{"android":"levelo://app?vid=69ad1a19-ebb0-42e6-84e9-c60f7244d521","ios":"levelo://app?vid=69ad1a19-ebb0-42e6-84e9-c60f7244d521"},"vehicle_type_id":"4","last_reported":1678454311,"current_range_meters":28400,"station_id":"ce4bhr92rcd13ifvqhsg","pricing_plan_id":"free"},{"bike_id":"23312be4-acf0-4cee-aafb-848c87faa475","system_id":"levelo_inurba_marseille","lat":43.33725,"lon":5.39192,"is_reserved":false,"is_disabled":false,"rental_uris":{"android":"levelo://app?vid=23312be4-acf0-4cee-aafb-848c87faa475","ios":"levelo://app?vid=23312be4-acf0-4cee-aafb-848c87faa475"},"vehicle_type_id":"4","last_reported":1678454311,"current_range_meters":30800,"station_id":"ce4bhr92rcd13ifvqhsg","pricing_plan_id":"free"},{"bike_id":"b810c766-9418-4916-9b4e-bcf7ea9487c9","system_id":"levelo_inurba_marseille","lat":43.33738,"lon":5.39188,"is_reserved":false,"is_disabled":false,"rental_uris":{"android":"levelo://app?vid=b810c766-9418-4916-9b4e-bcf7ea9487c9","ios":"levelo://app?vid=b810c766-9418-4916-9b4e-bcf7ea9487c9"},"vehicle_type_id":"4","last_reported":1678454311,"current_range_meters":30800,"station_id":"ce4bhr92rcd13ifvqhsg","pricing_plan_id":"free"},{"bike_id":"c9312bcd-9576-42b4-a1d8-5f896569802e","system_id":"levelo_inurba_marseille","lat":43.28478,"lon":5.38414,"is_reserved":false,"is_disabled":false,"rental_uris":{"android":"levelo://app?vid=c9312bcd-9576-42b4-a1d8-5f896569802e","ios":"levelo://app?vid=c9312bcd-9576-42b4-a1d8-5f896569802e"},"vehicle_type_id":"4","last_reported":1678454311,"current_range_meters":12000,"station_id":"ce4bh512rcd13ifvqe3g","pricing_plan_id":"free"},{"bike_id":"19bb1409-9203-4040-8062-d61b96a490cc","system_id":"levelo_inurba_marseille","lat":43.284787,"lon":5.384116,"is_reserved":false,"is_disabled":false,"rental_uris":{"android":"levelo://app?vid=19bb1409-9203-4040-8062-d61b96a490cc","ios":"levelo://app?vid=19bb1409-9203-4040-8062-d61b96a490cc"},"vehicle_type_id":"4","last_reported":1678454311,"current_range_meters":6000,"station_id":"ce4bh512rcd13ifvqe3g","pricing_plan_id":"free"},{"bike_id":"550628c1-1762-4666-b846-69b1dae605a2","system_id":"levelo_inurba_marseille","lat":43.28469,"lon":5.3841,"is_reserved":false,"is_disabled":false,"rental_uris":{"android":"levelo://app?vid=550628c1-1762-4666-b846-69b1dae605a2","ios":"levelo://app?vid=550628c1-1762-4666-b846-69b1dae605a2"},"vehicle_type_id":"4","last_reported":1678454311,"current_range_meters":4000,"station_id":"ce4bh512rcd13ifvqe3g","pricing_plan_id":"free"},{"bike_id":"546eaa31-d5e4-45eb-9322-757a63e10d7f","system_id":"levelo_inurba_marseille","lat":43.28416,"lon":5.34986,"is_reserved":false,"is_disabled":false,"rental_uris":{"android":"levelo://app?vid=546eaa31-d5e4-45eb-9322-757a63e10d7f","ios":"levelo://app?vid=546eaa31-d5e4-45eb-9322-757a63e10d7f"},"vehicle_type_id":"4","last_reported":1678454311,"current_range_meters":5600,"station_id":"ce4bhbh2rcd13ifvqepg","pricing_plan_id":"free"},{"bike_id":"68482268-6521-4d10-a4de-05f6fae47c81","system_id":"levelo_inurba_marseille","lat":43.289327,"lon":5.396009,"is_reserved":false,"is_disabled":false,"rental_uris":{"android":"levelo://app?vid=68482268-6521-4d10-a4de-05f6fae47c81","ios":"levelo://app?vid=68482268-6521-4d10-a4de-05f6fae47c81"},"vehicle_type_id":"4","last_reported":1678454311,"current_range_meters":2400,"station_id":"ce4bh3h2rcd13ifvqdn0","pricing_plan_id":"free"},{"bike_id":"a0e3456d-7436-4dc0-94d0-18d3172e3260","system_id":"levelo_inurba_marseille","lat":43.328888,"lon":5.404691,"is_reserved":false,"is_disabled":false,"rental_uris":{"android":"levelo://app?vid=a0e3456d-7436-4dc0-94d0-18d3172e3260","ios":"levelo://app?vid=a0e3456d-7436-4dc0-94d0-18d3172e3260"},"vehicle_type_id":"4","last_reported":1678454311,"current_range_meters":0,"station_id":"","pricing_plan_id":"free"},{"bike_id":"f84c64f1-11cf-43e4-a5b9-29b976fe8e5e","system_id":"levelo_inurba_marseille","lat":43.292724,"lon":5.401131,"is_reserved":false,"is_disabled":false,"rental_uris":{"android":"levelo://app?vid=f84c64f1-11cf-43e4-a5b9-29b976fe8e5e","ios":"levelo://app?vid=f84c64f1-11cf-43e4-a5b9-29b976fe8e5e"},"vehicle_type_id":"4","last_reported":1678454311,"current_range_meters":0,"station_id":"ce4bh312rcd13ifvqdk0","pricing_plan_id":"free"},{"bike_id":"212c2412-b039-4fdc-a746-04c89ba8abc8","system_id":"levelo_inurba_marseille","lat":43.282744,"lon":5.350533,"is_reserved":false,"is_disabled":false,"rental_uris":{"android":"levelo://app?vid=212c2412-b039-4fdc-a746-04c89ba8abc8","ios":"levelo://app?vid=212c2412-b039-4fdc-a746-04c89ba8abc8"},"vehicle_type_id":"4","last_reported":1678454311,"current_range_meters":0,"station_id":"ce4bhbp2rcd13ifvqerg","pricing_plan_id":"free"},{"bike_id":"05ca6d6f-9199-4c8d-a21c-a9d747bd52c7","system_id":"levelo_inurba_marseille","lat":43.282744,"lon":5.350533,"is_reserved":false,"is_disabled":false,"rental_uris":{"android":"levelo://app?vid=05ca6d6f-9199-4c8d-a21c-a9d747bd52c7","ios":"levelo://app?vid=05ca6d6f-9199-4c8d-a21c-a9d747bd52c7"},"vehicle_type_id":"4","last_reported":1678454311,"current_range_meters":17200,"station_id":"ce4bhbp2rcd13ifvqerg","pricing_plan_id":"free"},{"bike_id":"5a530cea-0a82-41dd-a7c5-2a4baeefeed3","system_id":"levelo_inurba_marseille","lat":43.28272,"lon":5.35056,"is_reserved":false,"is_disabled":false,"rental_uris":{"android":"levelo://app?vid=5a530cea-0a82-41dd-a7c5-2a4baeefeed3","ios":"levelo://app?vid=5a530cea-0a82-41dd-a7c5-2a4baeefeed3"},"vehicle_type_id":"4","last_reported":1678454311,"current_range_meters":4000,"station_id":"","pricing_plan_id":"free"},{"bike_id":"f0f8c414-99d0-4173-a101-ae0781446b9c","system_id":"levelo_inurba_marseille","lat":43.282744,"lon":5.350533,"is_reserved":false,"is_disabled":false,"rental_uris":{"android":"levelo://app?vid=f0f8c414-99d0-4173-a101-ae0781446b9c","ios":"levelo://app?vid=f0f8c414-99d0-4173-a101-ae0781446b9c"},"vehicle_type_id":"4","last_reported":1678454311,"current_range_meters":16000,"station_id":"ce4bhbp2rcd13ifvqerg","pricing_plan_id":"free"},{"bike_id":"2e6e8e50-c427-4b0c-b57e-267c42aa2655","system_id":"levelo_inurba_marseille","lat":43.282744,"lon":5.350533,"is_reserved":false,"is_disabled":false,"rental_uris":{"android":"levelo://app?vid=2e6e8e50-c427-4b0c-b57e-267c42aa2655","ios":"levelo://app?vid=2e6e8e50-c427-4b0c-b57e-267c42aa2655"},"vehicle_type_id":"4","last_reported":1678454311,"current_range_meters":1200,"station_id":"ce4bhbp2rcd13ifvqerg","pricing_plan_id":"free"},{"bike_id":"14400994-433f-4466-a6da-9257c76abeae","system_id":"levelo_inurba_marseille","lat":43.283502,"lon":5.386471,"is_reserved":false,"is_disabled":false,"rental_uris":{"android":"levelo://app?vid=14400994-433f-4466-a6da-9257c76abeae","ios":"levelo://app?vid=14400994-433f-4466-a6da-9257c76abeae"},"vehicle_type_id":"4","last_reported":1678454311,"current_range_meters":1600,"station_id":"ce4bh492rcd13ifvqdvg","pricing_plan_id":"free"},{"bike_id":"cbbd12bf-a5c7-4d79-aba4-bc2968db283e","system_id":"levelo_inurba_marseille","lat":43.282744,"lon":5.350533,"is_reserved":false,"is_disabled":false,"rental_uris":{"android":"levelo://app?vid=cbbd12bf-a5c7-4d79-aba4-bc2968db283e","ios":"levelo://app?vid=cbbd12bf-a5c7-4d79-aba4-bc2968db283e"},"vehicle_type_id":"4","last_reported":1678454311,"current_range_meters":1200,"station_id":"ce4bhbp2rcd13ifvqerg","pricing_plan_id":"free"},{"bike_id":"31ffce3e-9e2e-4ab8-9b14-880d025e7e7e","system_id":"levelo_inurba_marseille","lat":43.281044,"lon":5.378308,"is_reserved":false,"is_disabled":false,"rental_uris":{"android":"levelo://app?vid=31ffce3e-9e2e-4ab8-9b14-880d025e7e7e","ios":"levelo://app?vid=31ffce3e-9e2e-4ab8-9b14-880d025e7e7e"},"vehicle_type_id":"4","last_reported":1678454311,"current_range_meters":9200,"station_id":"ce4bha12rcd13ifvqee0","pricing_plan_id":"free"},{"bike_id":"d09c798b-005a-43e7-aab2-0da3b7e8154e","system_id":"levelo_inurba_marseille","lat":43.29629,"lon":5.40596,"is_reserved":false,"is_disabled":false,"rental_uris":{"android":"levelo://app?vid=d09c798b-005a-43e7-aab2-0da3b7e8154e","ios":"levelo://app?vid=d09c798b-005a-43e7-aab2-0da3b7e8154e"},"vehicle_type_id":"4","last_reported":1678454311,"current_range_meters":0,"station_id":"ce4bh0h2rcd13ifvqd60","pricing_plan_id":"free"},{"bike_id":"6c3abf75-fb88-492a-83d4-45a82eaf8f06","system_id":"levelo_inurba_marseille","lat":43.28449,"lon":5.39189,"is_reserved":false,"is_disabled":false,"rental_uris":{"android":"levelo://app?vid=6c3abf75-fb88-492a-83d4-45a82eaf8f06","ios":"levelo://app?vid=6c3abf75-fb88-492a-83d4-45a82eaf8f06"},"vehicle_type_id":"4","last_reported":1678454311,"current_range_meters":18800,"station_id":"ce4bhoh2rcd13ifvqh5g","pricing_plan_id":"free"},{"bike_id":"a87d6e66-8f30-4dee-ab79-33dcb84f4c08","system_id":"levelo_inurba_marseille","lat":43.287161,"lon":5.399908,"is_reserved":false,"is_disabled":false,"rental_uris":{"android":"levelo://app?vid=a87d6e66-8f30-4dee-ab79-33dcb84f4c08","ios":"levelo://app?vid=a87d6e66-8f30-4dee-ab79-33dcb84f4c08"},"vehicle_type_id":"4","last_reported":1678454311,"current_range_meters":0,"station_id":"","pricing_plan_id":"free"},{"bike_id":"22c9d03e-d4c6-478a-bca7-a123a2b195fc","system_id":"levelo_inurba_marseille","lat":43.32536,"lon":5.41431,"is_reserved":false,"is_disabled":false,"rental_uris":{"android":"levelo://app?vid=22c9d03e-d4c6-478a-bca7-a123a2b195fc","ios":"levelo://app?vid=22c9d03e-d4c6-478a-bca7-a123a2b195fc"},"vehicle_type_id":"4","last_reported":1678454311,"current_range_meters":19200,"station_id":"","pricing_plan_id":"free"},{"bike_id":"8612aeea-1dcd-46cd-91d5-0a25605703bb","system_id":"levelo_inurba_marseille","lat":43.325415,"lon":5.41434,"is_reserved":false,"is_disabled":false,"rental_uris":{"android":"levelo://app?vid=8612aeea-1dcd-46cd-91d5-0a25605703bb","ios":"levelo://app?vid=8612aeea-1dcd-46cd-91d5-0a25605703bb"},"vehicle_type_id":"4","last_reported":1678454311,"current_range_meters":16800,"station_id":"ce4bhq12rcd13ifvqhhg","pricing_plan_id":"free"},{"bike_id":"bc82def9-c9da-4956-beb5-d37039b55ba6","system_id":"levelo_inurba_marseille","lat":43.27618,"lon":5.361009,"is_reserved":false,"is_disabled":false,"rental_uris":{"android":"levelo://app?vid=bc82def9-c9da-4956-beb5-d37039b55ba6","ios":"levelo://app?vid=bc82def9-c9da-4956-beb5-d37039b55ba6"},"vehicle_type_id":"4","last_reported":1678454311,"current_range_meters":0,"station_id":"ce4bgj92rcd13ifvqbe0","pricing_plan_id":"free"},{"bike_id":"a1a2a8be-066b-44cb-be73-f4828a33cf6d","system_id":"levelo_inurba_marseille","lat":43.325393,"lon":5.4144,"is_reserved":false,"is_disabled":false,"rental_uris":{"android":"levelo://app?vid=a1a2a8be-066b-44cb-be73-f4828a33cf6d","ios":"levelo://app?vid=a1a2a8be-066b-44cb-be73-f4828a33cf6d"},"vehicle_type_id":"4","last_reported":1678454311,"current_range_meters":24800,"station_id":"ce4bhq12rcd13ifvqhhg","pricing_plan_id":"free"},{"bike_id":"6d3d6b1f-f7ac-4005-9b44-739474b36b68","system_id":"levelo_inurba_marseille","lat":43.325377,"lon":5.414423,"is_reserved":false,"is_disabled":false,"rental_uris":{"android":"levelo://app?vid=6d3d6b1f-f7ac-4005-9b44-739474b36b68","ios":"levelo://app?vid=6d3d6b1f-f7ac-4005-9b44-739474b36b68"},"vehicle_type_id":"4","last_reported":1678454311,"current_range_meters":6000,"station_id":"","pricing_plan_id":"free"},{"bike_id":"53bbd98e-c567-4dd3-9ad5-c6dab31a14f6","system_id":"levelo_inurba_marseille","lat":43.27378,"lon":5.36247,"is_reserved":false,"is_disabled":false,"rental_uris":{"android":"levelo://app?vid=53bbd98e-c567-4dd3-9ad5-c6dab31a14f6","ios":"levelo://app?vid=53bbd98e-c567-4dd3-9ad5-c6dab31a14f6"},"vehicle_type_id":"4","last_reported":1678454311,"current_range_meters":0,"station_id":"ce4bhbh2rcd13ifvqeo0","pricing_plan_id":"free"},{"bike_id":"dccd8971-c832-4e77-ba59-7e00a1a75e38","system_id":"levelo_inurba_marseille","lat":43.336053,"lon":5.41021,"is_reserved":false,"is_disabled":false,"rental_uris":{"android":"levelo://app?vid=dccd8971-c832-4e77-ba59-7e00a1a75e38","ios":"levelo://app?vid=dccd8971-c832-4e77-ba59-7e00a1a75e38"},"vehicle_type_id":"4","last_reported":1678454311,"current_range_meters":17600,"station_id":"ce4bhqh2rcd13ifvqhmg","pricing_plan_id":"free"},{"bike_id":"c764d2d7-21c1-48c5-95b7-7ce50388e4d7","system_id":"levelo_inurba_marseille","lat":43.33612,"lon":5.410321,"is_reserved":false,"is_disabled":false,"rental_uris":{"android":"levelo://app?vid=c764d2d7-21c1-48c5-95b7-7ce50388e4d7","ios":"levelo://app?vid=c764d2d7-21c1-48c5-95b7-7ce50388e4d7"},"vehicle_type_id":"4","last_reported":1678454311,"current_range_meters":5200,"station_id":"ce4bhqh2rcd13ifvqhmg","pricing_plan_id":"free"},{"bike_id":"37250e46-a21d-40eb-a6ee-af57394fa5b3","system_id":"levelo_inurba_marseille","lat":43.336037,"lon":5.410277,"is_reserved":false,"is_disabled":false,"rental_uris":{"android":"levelo://app?vid=37250e46-a21d-40eb-a6ee-af57394fa5b3","ios":"levelo://app?vid=37250e46-a21d-40eb-a6ee-af57394fa5b3"},"vehicle_type_id":"4","last_reported":1678454311,"current_range_meters":7600,"station_id":"","pricing_plan_id":"free"},{"bike_id":"84a95e49-8c41-4c3e-98d7-762659b1e903","system_id":"levelo_inurba_marseille","lat":43.33612,"lon":5.410321,"is_reserved":false,"is_disabled":false,"rental_uris":{"android":"levelo://app?vid=84a95e49-8c41-4c3e-98d7-762659b1e903","ios":"levelo://app?vid=84a95e49-8c41-4c3e-98d7-762659b1e903"},"vehicle_type_id":"4","last_reported":1678454311,"current_range_meters":0,"station_id":"ce4bhqh2rcd13ifvqhmg","pricing_plan_id":"free"},{"bike_id":"e6a70fbb-8f4f-4af2-9adf-4cad22a7f432","system_id":"levelo_inurba_marseille","lat":43.33612,"lon":5.410321,"is_reserved":false,"is_disabled":false,"rental_uris":{"android":"levelo://app?vid=e6a70fbb-8f4f-4af2-9adf-4cad22a7f432","ios":"levelo://app?vid=e6a70fbb-8f4f-4af2-9adf-4cad22a7f432"},"vehicle_type_id":"4","last_reported":1678454311,"current_range_meters":20400,"station_id":"ce4bhqh2rcd13ifvqhmg","pricing_plan_id":"free"},{"bike_id":"98ec7c4f-b39b-4432-bbf6-29df8fe59b6b","system_id":"levelo_inurba_marseille","lat":43.33612,"lon":5.410321,"is_reserved":false,"is_disabled":false,"rental_uris":{"android":"levelo://app?vid=98ec7c4f-b39b-4432-bbf6-29df8fe59b6b","ios":"levelo://app?vid=98ec7c4f-b39b-4432-bbf6-29df8fe59b6b"},"vehicle_type_id":"4","last_reported":1678454311,"current_range_meters":28400,"station_id":"ce4bhqh2rcd13ifvqhmg","pricing_plan_id":"free"},{"bike_id":"c67f1eb6-a6bd-496e-9ea3-e728d4f98bff","system_id":"levelo_inurba_marseille","lat":43.33604,"lon":5.41033,"is_reserved":false,"is_disabled":false,"rental_uris":{"android":"levelo://app?vid=c67f1eb6-a6bd-496e-9ea3-e728d4f98bff","ios":"levelo://app?vid=c67f1eb6-a6bd-496e-9ea3-e728d4f98bff"},"vehicle_type_id":"4","last_reported":1678454311,"current_range_meters":22400,"station_id":"ce4bhqh2rcd13ifvqhmg","pricing_plan_id":"free"},{"bike_id":"498938cf-699c-4bf5-920f-3e01cd9f6fc3","system_id":"levelo_inurba_marseille","lat":43.336134,"lon":5.410341,"is_reserved":false,"is_disabled":false,"rental_uris":{"android":"levelo://app?vid=498938cf-699c-4bf5-920f-3e01cd9f6fc3","ios":"levelo://app?vid=498938cf-699c-4bf5-920f-3e01cd9f6fc3"},"vehicle_type_id":"4","last_reported":1678454311,"current_range_meters":28800,"station_id":"ce4bhqh2rcd13ifvqhmg","pricing_plan_id":"free"},{"bike_id":"7917f1e3-ccc8-423a-8da2-35d39a13fb2a","system_id":"levelo_inurba_marseille","lat":43.336146,"lon":5.410238,"is_reserved":false,"is_disabled":false,"rental_uris":{"android":"levelo://app?vid=7917f1e3-ccc8-423a-8da2-35d39a13fb2a","ios":"levelo://app?vid=7917f1e3-ccc8-423a-8da2-35d39a13fb2a"},"vehicle_type_id":"4","last_reported":1678454311,"current_range_meters":24800,"station_id":"ce4bhqh2rcd13ifvqhmg","pricing_plan_id":"free"},{"bike_id":"7bdf9529-e0d2-4b1b-a52c-91c2127dcec0","system_id":"levelo_inurba_marseille","lat":43.33612,"lon":5.410321,"is_reserved":false,"is_disabled":false,"rental_uris":{"android":"levelo://app?vid=7bdf9529-e0d2-4b1b-a52c-91c2127dcec0","ios":"levelo://app?vid=7bdf9529-e0d2-4b1b-a52c-91c2127dcec0"},"vehicle_type_id":"4","last_reported":1678454311,"current_range_meters":18800,"station_id":"ce4bhqh2rcd13ifvqhmg","pricing_plan_id":"free"},{"bike_id":"19d7aa01-fd76-4889-a706-bcb66cd9c498","system_id":"levelo_inurba_marseille","lat":43.336134,"lon":5.410341,"is_reserved":false,"is_disabled":false,"rental_uris":{"android":"levelo://app?vid=19d7aa01-fd76-4889-a706-bcb66cd9c498","ios":"levelo://app?vid=19d7aa01-fd76-4889-a706-bcb66cd9c498"},"vehicle_type_id":"4","last_reported":1678454311,"current_range_meters":24000,"station_id":"ce4bhqh2rcd13ifvqhmg","pricing_plan_id":"free"},{"bike_id":"411e5a40-1493-491d-9729-b90fa4ab39c4","system_id":"levelo_inurba_marseille","lat":43.276769,"lon":5.388787,"is_reserved":false,"is_disabled":false,"rental_uris":{"android":"levelo://app?vid=411e5a40-1493-491d-9729-b90fa4ab39c4","ios":"levelo://app?vid=411e5a40-1493-491d-9729-b90fa4ab39c4"},"vehicle_type_id":"4","last_reported":1678454311,"current_range_meters":20000,"station_id":"ce4bhi12rcd13ifvqfo0","pricing_plan_id":"free"},{"bike_id":"832cf5e2-d58f-4444-b797-c55940356a6f","system_id":"levelo_inurba_marseille","lat":43.309589,"lon":5.390258,"is_reserved":false,"is_disabled":false,"rental_uris":{"android":"levelo://app?vid=832cf5e2-d58f-4444-b797-c55940356a6f","ios":"levelo://app?vid=832cf5e2-d58f-4444-b797-c55940356a6f"},"vehicle_type_id":"4","last_reported":1678454311,"current_range_meters":26800,"station_id":"ce4bgup2rcd13ifvqco0","pricing_plan_id":"free"},{"bike_id":"a1585d8e-ab5d-4b21-8e08-5d91573efcb7","system_id":"levelo_inurba_marseille","lat":43.273235,"lon":5.39098,"is_reserved":false,"is_disabled":false,"rental_uris":{"android":"levelo://app?vid=a1585d8e-ab5d-4b21-8e08-5d91573efcb7","ios":"levelo://app?vid=a1585d8e-ab5d-4b21-8e08-5d91573efcb7"},"vehicle_type_id":"4","last_reported":1678454311,"current_range_meters":0,"station_id":"","pricing_plan_id":"free"},{"bike_id":"4613f3a2-12f4-48f0-b1a8-975c77d8d1fe","system_id":"levelo_inurba_marseille","lat":43.30417,"lon":5.42538,"is_reserved":false,"is_disabled":false,"rental_uris":{"android":"levelo://app?vid=4613f3a2-12f4-48f0-b1a8-975c77d8d1fe","ios":"levelo://app?vid=4613f3a2-12f4-48f0-b1a8-975c77d8d1fe"},"vehicle_type_id":"4","last_reported":1678454311,"current_range_meters":18400,"station_id":"ce4bhoh2rcd13ifvqh6g","pricing_plan_id":"free"},{"bike_id":"2d552a9f-7f2c-4e2a-a606-d1ea072f0eec","system_id":"levelo_inurba_marseille","lat":43.304096,"lon":5.425385,"is_reserved":false,"is_disabled":false,"rental_uris":{"android":"levelo://app?vid=2d552a9f-7f2c-4e2a-a606-d1ea072f0eec","ios":"levelo://app?vid=2d552a9f-7f2c-4e2a-a606-d1ea072f0eec"},"vehicle_type_id":"4","last_reported":1678454311,"current_range_meters":4400,"station_id":"ce4bhoh2rcd13ifvqh6g","pricing_plan_id":"free"},{"bike_id":"1ff5777c-05b9-4c4f-913e-457232cca5b6","system_id":"levelo_inurba_marseille","lat":43.304096,"lon":5.425385,"is_reserved":false,"is_disabled":false,"rental_uris":{"android":"levelo://app?vid=1ff5777c-05b9-4c4f-913e-457232cca5b6","ios":"levelo://app?vid=1ff5777c-05b9-4c4f-913e-457232cca5b6"},"vehicle_type_id":"4","last_reported":1678454311,"current_range_meters":3600,"station_id":"ce4bhoh2rcd13ifvqh6g","pricing_plan_id":"free"},{"bike_id":"b4ec35b3-5ab2-404b-86cf-9295f90dabdb","system_id":"levelo_inurba_marseille","lat":43.304096,"lon":5.425385,"is_reserved":false,"is_disabled":false,"rental_uris":{"android":"levelo://app?vid=b4ec35b3-5ab2-404b-86cf-9295f90dabdb","ios":"levelo://app?vid=b4ec35b3-5ab2-404b-86cf-9295f90dabdb"},"vehicle_type_id":"4","last_reported":1678454311,"current_range_meters":20800,"station_id":"ce4bhoh2rcd13ifvqh6g","pricing_plan_id":"free"},{"bike_id":"020eba2f-d1a4-4d45-824e-0f34fcc7b33f","system_id":"levelo_inurba_marseille","lat":43.304212,"lon":5.425682,"is_reserved":false,"is_disabled":false,"rental_uris":{"android":"levelo://app?vid=020eba2f-d1a4-4d45-824e-0f34fcc7b33f","ios":"levelo://app?vid=020eba2f-d1a4-4d45-824e-0f34fcc7b33f"},"vehicle_type_id":"4","last_reported":1678454311,"current_range_meters":400,"station_id":"","pricing_plan_id":"free"},{"bike_id":"ecf6c6c8-fd9d-4e7b-a2c7-9b2af158e79c","system_id":"levelo_inurba_marseille","lat":43.27207,"lon":5.39187,"is_reserved":false,"is_disabled":false,"rental_uris":{"android":"levelo://app?vid=ecf6c6c8-fd9d-4e7b-a2c7-9b2af158e79c","ios":"levelo://app?vid=ecf6c6c8-fd9d-4e7b-a2c7-9b2af158e79c"},"vehicle_type_id":"4","last_reported":1678454311,"current_range_meters":22400,"station_id":"ce4bhhp2rcd13ifvqfm0","pricing_plan_id":"free"},{"bike_id":"afd19bb7-f36a-43b9-9599-89790f8d3f9d","system_id":"levelo_inurba_marseille","lat":43.269467,"lon":5.386439,"is_reserved":false,"is_disabled":false,"rental_uris":{"android":"levelo://app?vid=afd19bb7-f36a-43b9-9599-89790f8d3f9d","ios":"levelo://app?vid=afd19bb7-f36a-43b9-9599-89790f8d3f9d"},"vehicle_type_id":"4","last_reported":1678454311,"current_range_meters":8800,"station_id":"ce4bhh92rcd13ifvqfh0","pricing_plan_id":"free"},{"bike_id":"6cc767e6-a004-4f00-abb2-9e9d7a135f5f","system_id":"levelo_inurba_marseille","lat":43.269467,"lon":5.386439,"is_reserved":false,"is_disabled":false,"rental_uris":{"android":"levelo://app?vid=6cc767e6-a004-4f00-abb2-9e9d7a135f5f","ios":"levelo://app?vid=6cc767e6-a004-4f00-abb2-9e9d7a135f5f"},"vehicle_type_id":"4","last_reported":1678454311,"current_range_meters":14000,"station_id":"ce4bhh92rcd13ifvqfh0","pricing_plan_id":"free"},{"bike_id":"54726b9c-db3a-4277-8778-0225efb9efb3","system_id":"levelo_inurba_marseille","lat":43.2694,"lon":5.38921,"is_reserved":false,"is_disabled":false,"rental_uris":{"android":"levelo://app?vid=54726b9c-db3a-4277-8778-0225efb9efb3","ios":"levelo://app?vid=54726b9c-db3a-4277-8778-0225efb9efb3"},"vehicle_type_id":"4","last_reported":1678454311,"current_range_meters":14400,"station_id":"","pricing_plan_id":"free"},{"bike_id":"434aed84-5db0-4383-a2ff-203b6b4aa6e5","system_id":"levelo_inurba_marseille","lat":43.269319,"lon":5.389397,"is_reserved":false,"is_disabled":false,"rental_uris":{"android":"levelo://app?vid=434aed84-5db0-4383-a2ff-203b6b4aa6e5","ios":"levelo://app?vid=434aed84-5db0-4383-a2ff-203b6b4aa6e5"},"vehicle_type_id":"4","last_reported":1678454311,"current_range_meters":27600,"station_id":"ce4bhhh2rcd13ifvqfl0","pricing_plan_id":"free"},{"bike_id":"59556957-641c-4c94-93a8-8995a2902f7b","system_id":"levelo_inurba_marseille","lat":43.269319,"lon":5.389397,"is_reserved":false,"is_disabled":false,"rental_uris":{"android":"levelo://app?vid=59556957-641c-4c94-93a8-8995a2902f7b","ios":"levelo://app?vid=59556957-641c-4c94-93a8-8995a2902f7b"},"vehicle_type_id":"4","last_reported":1678454311,"current_range_meters":13200,"station_id":"ce4bhhh2rcd13ifvqfl0","pricing_plan_id":"free"},{"bike_id":"ced91735-9031-4c3c-8b0e-174ddd419fcd","system_id":"levelo_inurba_marseille","lat":43.26681,"lon":5.382694,"is_reserved":false,"is_disabled":false,"rental_uris":{"android":"levelo://app?vid=ced91735-9031-4c3c-8b0e-174ddd419fcd","ios":"levelo://app?vid=ced91735-9031-4c3c-8b0e-174ddd419fcd"},"vehicle_type_id":"4","last_reported":1678454311,"current_range_meters":28800,"station_id":"ce4bhg92rcd13ifvqf90","pricing_plan_id":"free"},{"bike_id":"bd235af1-7ad7-4368-a54c-abf0b7f6f361","system_id":"levelo_inurba_marseille","lat":43.26681,"lon":5.382694,"is_reserved":false,"is_disabled":false,"rental_uris":{"android":"levelo://app?vid=bd235af1-7ad7-4368-a54c-abf0b7f6f361","ios":"levelo://app?vid=bd235af1-7ad7-4368-a54c-abf0b7f6f361"},"vehicle_type_id":"4","last_reported":1678454311,"current_range_meters":1600,"station_id":"ce4bhg92rcd13ifvqf90","pricing_plan_id":"free"},{"bike_id":"d95d1d53-4bda-46dd-8bf6-a670a583cdcf","system_id":"levelo_inurba_marseille","lat":43.26557,"lon":5.37289,"is_reserved":false,"is_disabled":false,"rental_uris":{"android":"levelo://app?vid=d95d1d53-4bda-46dd-8bf6-a670a583cdcf","ios":"levelo://app?vid=d95d1d53-4bda-46dd-8bf6-a670a583cdcf"},"vehicle_type_id":"4","last_reported":1678454311,"current_range_meters":18800,"station_id":"ce4bhg12rcd13ifvqf70","pricing_plan_id":"free"},{"bike_id":"781f7b18-1382-49d8-b84f-cb52df014278","system_id":"levelo_inurba_marseille","lat":43.265714,"lon":5.372891,"is_reserved":false,"is_disabled":false,"rental_uris":{"android":"levelo://app?vid=781f7b18-1382-49d8-b84f-cb52df014278","ios":"levelo://app?vid=781f7b18-1382-49d8-b84f-cb52df014278"},"vehicle_type_id":"4","last_reported":1678454311,"current_range_meters":22800,"station_id":"ce4bhg12rcd13ifvqf70","pricing_plan_id":"free"},{"bike_id":"5e6097ba-c946-4ac5-b17c-a0c3efa4f18a","system_id":"levelo_inurba_marseille","lat":43.267966,"lon":5.393976,"is_reserved":false,"is_disabled":false,"rental_uris":{"android":"levelo://app?vid=5e6097ba-c946-4ac5-b17c-a0c3efa4f18a","ios":"levelo://app?vid=5e6097ba-c946-4ac5-b17c-a0c3efa4f18a"},"vehicle_type_id":"4","last_reported":1678454311,"current_range_meters":16400,"station_id":"ce4bhh12rcd13ifvqfg0","pricing_plan_id":"free"},{"bike_id":"79e58ccf-eb3c-4b8a-8213-bf1d6a72513a","system_id":"levelo_inurba_marseille","lat":43.267966,"lon":5.393976,"is_reserved":false,"is_disabled":false,"rental_uris":{"android":"levelo://app?vid=79e58ccf-eb3c-4b8a-8213-bf1d6a72513a","ios":"levelo://app?vid=79e58ccf-eb3c-4b8a-8213-bf1d6a72513a"},"vehicle_type_id":"4","last_reported":1678454311,"current_range_meters":3600,"station_id":"ce4bhh12rcd13ifvqfg0","pricing_plan_id":"free"},{"bike_id":"6afc45a9-1280-4a0d-9cbc-8b5a07003e25","system_id":"levelo_inurba_marseille","lat":43.267966,"lon":5.393976,"is_reserved":false,"is_disabled":false,"rental_uris":{"android":"levelo://app?vid=6afc45a9-1280-4a0d-9cbc-8b5a07003e25","ios":"levelo://app?vid=6afc45a9-1280-4a0d-9cbc-8b5a07003e25"},"vehicle_type_id":"4","last_reported":1678454311,"current_range_meters":10800,"station_id":"ce4bhh12rcd13ifvqfg0","pricing_plan_id":"free"},{"bike_id":"6703f769-fd6b-4d4e-968f-609cd01232e6","system_id":"levelo_inurba_marseille","lat":43.267966,"lon":5.393976,"is_reserved":false,"is_disabled":false,"rental_uris":{"android":"levelo://app?vid=6703f769-fd6b-4d4e-968f-609cd01232e6","ios":"levelo://app?vid=6703f769-fd6b-4d4e-968f-609cd01232e6"},"vehicle_type_id":"4","last_reported":1678454311,"current_range_meters":2400,"station_id":"ce4bhh12rcd13ifvqfg0","pricing_plan_id":"free"},{"bike_id":"9d582964-bcf8-48f0-be0f-7aa2fbcdaf93","system_id":"levelo_inurba_marseille","lat":43.26569,"lon":5.39,"is_reserved":false,"is_disabled":false,"rental_uris":{"android":"levelo://app?vid=9d582964-bcf8-48f0-be0f-7aa2fbcdaf93","ios":"levelo://app?vid=9d582964-bcf8-48f0-be0f-7aa2fbcdaf93"},"vehicle_type_id":"4","last_reported":1678454311,"current_range_meters":15200,"station_id":"ce4bhe12rcd13ifvqf30","pricing_plan_id":"free"},{"bike_id":"65dfa37e-a779-41cf-9297-e7d9049fa31c","system_id":"levelo_inurba_marseille","lat":43.261782,"lon":5.374515,"is_reserved":false,"is_disabled":false,"rental_uris":{"android":"levelo://app?vid=65dfa37e-a779-41cf-9297-e7d9049fa31c","ios":"levelo://app?vid=65dfa37e-a779-41cf-9297-e7d9049fa31c"},"vehicle_type_id":"4","last_reported":1678454311,"current_range_meters":15600,"station_id":"ce4bhgp2rcd13ifvqfc0","pricing_plan_id":"free"},{"bike_id":"e3e6107e-7ae5-4679-b46c-29bd95c4ca22","system_id":"levelo_inurba_marseille","lat":43.317104,"lon":5.436818,"is_reserved":false,"is_disabled":false,"rental_uris":{"android":"levelo://app?vid=e3e6107e-7ae5-4679-b46c-29bd95c4ca22","ios":"levelo://app?vid=e3e6107e-7ae5-4679-b46c-29bd95c4ca22"},"vehicle_type_id":"4","last_reported":1678454311,"current_range_meters":11600,"station_id":"ce4bhp92rcd13ifvqhcg","pricing_plan_id":"free"},{"bike_id":"15726fd8-c359-40aa-83e8-2d1cfeadac99","system_id":"levelo_inurba_marseille","lat":43.26202,"lon":5.379299,"is_reserved":false,"is_disabled":false,"rental_uris":{"android":"levelo://app?vid=15726fd8-c359-40aa-83e8-2d1cfeadac99","ios":"levelo://app?vid=15726fd8-c359-40aa-83e8-2d1cfeadac99"},"vehicle_type_id":"4","last_reported":1678454311,"current_range_meters":0,"station_id":"ce4bhjp2rcd13ifvqg90","pricing_plan_id":"free"},{"bike_id":"49abdcf1-99cf-43a6-b655-3229bb99562c","system_id":"levelo_inurba_marseille","lat":43.26202,"lon":5.379299,"is_reserved":false,"is_disabled":false,"rental_uris":{"android":"levelo://app?vid=49abdcf1-99cf-43a6-b655-3229bb99562c","ios":"levelo://app?vid=49abdcf1-99cf-43a6-b655-3229bb99562c"},"vehicle_type_id":"4","last_reported":1678454311,"current_range_meters":19200,"station_id":"ce4bhjp2rcd13ifvqg90","pricing_plan_id":"free"},{"bike_id":"6d55a067-b855-43ee-a8ce-c2f843dea9fd","system_id":"levelo_inurba_marseille","lat":43.293517,"lon":5.438691,"is_reserved":false,"is_disabled":false,"rental_uris":{"android":"levelo://app?vid=6d55a067-b855-43ee-a8ce-c2f843dea9fd","ios":"levelo://app?vid=6d55a067-b855-43ee-a8ce-c2f843dea9fd"},"vehicle_type_id":"4","last_reported":1678454311,"current_range_meters":0,"station_id":"","pricing_plan_id":"free"},{"bike_id":"b48c449c-861c-4bd0-bf46-57fdb2184929","system_id":"levelo_inurba_marseille","lat":43.27191,"lon":5.41888,"is_reserved":false,"is_disabled":false,"rental_uris":{"android":"levelo://app?vid=b48c449c-861c-4bd0-bf46-57fdb2184929","ios":"levelo://app?vid=b48c449c-861c-4bd0-bf46-57fdb2184929"},"vehicle_type_id":"4","last_reported":1678454311,"current_range_meters":10400,"station_id":"","pricing_plan_id":"free"},{"bike_id":"46bf755e-f1be-4956-87b6-f39577a94488","system_id":"levelo_inurba_marseille","lat":43.2607,"lon":5.393983,"is_reserved":false,"is_disabled":false,"rental_uris":{"android":"levelo://app?vid=46bf755e-f1be-4956-87b6-f39577a94488","ios":"levelo://app?vid=46bf755e-f1be-4956-87b6-f39577a94488"},"vehicle_type_id":"4","last_reported":1678454311,"current_range_meters":11200,"station_id":"ce4bhh92rcd13ifvqfj0","pricing_plan_id":"free"},{"bike_id":"f7990848-4938-49c0-ab1d-f2126321b124","system_id":"levelo_inurba_marseille","lat":43.2607,"lon":5.393983,"is_reserved":false,"is_disabled":false,"rental_uris":{"android":"levelo://app?vid=f7990848-4938-49c0-ab1d-f2126321b124","ios":"levelo://app?vid=f7990848-4938-49c0-ab1d-f2126321b124"},"vehicle_type_id":"4","last_reported":1678454311,"current_range_meters":18800,"station_id":"ce4bhh92rcd13ifvqfj0","pricing_plan_id":"free"},{"bike_id":"32f63d42-2c67-4b60-a8b1-932e3e85154a","system_id":"levelo_inurba_marseille","lat":43.2607,"lon":5.393983,"is_reserved":false,"is_disabled":false,"rental_uris":{"android":"levelo://app?vid=32f63d42-2c67-4b60-a8b1-932e3e85154a","ios":"levelo://app?vid=32f63d42-2c67-4b60-a8b1-932e3e85154a"},"vehicle_type_id":"4","last_reported":1678454311,"current_range_meters":14000,"station_id":"ce4bhh92rcd13ifvqfj0","pricing_plan_id":"free"},{"bike_id":"7fed987d-a4c4-4038-b45d-3367d76d9314","system_id":"levelo_inurba_marseille","lat":43.2606,"lon":5.39399,"is_reserved":false,"is_disabled":false,"rental_uris":{"android":"levelo://app?vid=7fed987d-a4c4-4038-b45d-3367d76d9314","ios":"levelo://app?vid=7fed987d-a4c4-4038-b45d-3367d76d9314"},"vehicle_type_id":"4","last_reported":1678454311,"current_range_meters":0,"station_id":"ce4bhh92rcd13ifvqfj0","pricing_plan_id":"free"},{"bike_id":"846afcc3-1868-4590-8200-0c33c37a40f6","system_id":"levelo_inurba_marseille","lat":43.260912,"lon":5.397584,"is_reserved":false,"is_disabled":false,"rental_uris":{"android":"levelo://app?vid=846afcc3-1868-4590-8200-0c33c37a40f6","ios":"levelo://app?vid=846afcc3-1868-4590-8200-0c33c37a40f6"},"vehicle_type_id":"4","last_reported":1678454311,"current_range_meters":0,"station_id":"ce4bhi12rcd13ifvqfq0","pricing_plan_id":"free"},{"bike_id":"1ace3f83-e914-4dfe-b6e8-6520c7b39346","system_id":"levelo_inurba_marseille","lat":43.26085,"lon":5.39762,"is_reserved":false,"is_disabled":false,"rental_uris":{"android":"levelo://app?vid=1ace3f83-e914-4dfe-b6e8-6520c7b39346","ios":"levelo://app?vid=1ace3f83-e914-4dfe-b6e8-6520c7b39346"},"vehicle_type_id":"4","last_reported":1678454311,"current_range_meters":4400,"station_id":"ce4bhi12rcd13ifvqfq0","pricing_plan_id":"free"},{"bike_id":"c26efc95-8e46-4ab2-a56a-d67cbbd94140","system_id":"levelo_inurba_marseille","lat":43.274127,"lon":5.424577,"is_reserved":false,"is_disabled":false,"rental_uris":{"android":"levelo://app?vid=c26efc95-8e46-4ab2-a56a-d67cbbd94140","ios":"levelo://app?vid=c26efc95-8e46-4ab2-a56a-d67cbbd94140"},"vehicle_type_id":"4","last_reported":1678454311,"current_range_meters":10800,"station_id":"","pricing_plan_id":"free"},{"bike_id":"d8463602-1ef0-44f9-83d5-744bfc7f8a3d","system_id":"levelo_inurba_marseille","lat":43.255756,"lon":5.382303,"is_reserved":false,"is_disabled":false,"rental_uris":{"android":"levelo://app?vid=d8463602-1ef0-44f9-83d5-744bfc7f8a3d","ios":"levelo://app?vid=d8463602-1ef0-44f9-83d5-744bfc7f8a3d"},"vehicle_type_id":"4","last_reported":1678454311,"current_range_meters":20000,"station_id":"ce4bhih2rcd13ifvqfs0","pricing_plan_id":"free"},{"bike_id":"ab0da219-975d-4c44-9a91-ca768da23870","system_id":"levelo_inurba_marseille","lat":43.255756,"lon":5.382303,"is_reserved":false,"is_disabled":false,"rental_uris":{"android":"levelo://app?vid=ab0da219-975d-4c44-9a91-ca768da23870","ios":"levelo://app?vid=ab0da219-975d-4c44-9a91-ca768da23870"},"vehicle_type_id":"4","last_reported":1678454311,"current_range_meters":8000,"station_id":"ce4bhih2rcd13ifvqfs0","pricing_plan_id":"free"},{"bike_id":"3ca3836a-d082-4d61-a473-012d9a023d6a","system_id":"levelo_inurba_marseille","lat":43.255756,"lon":5.382303,"is_reserved":false,"is_disabled":false,"rental_uris":{"android":"levelo://app?vid=3ca3836a-d082-4d61-a473-012d9a023d6a","ios":"levelo://app?vid=3ca3836a-d082-4d61-a473-012d9a023d6a"},"vehicle_type_id":"4","last_reported":1678454311,"current_range_meters":26800,"station_id":"ce4bhih2rcd13ifvqfs0","pricing_plan_id":"free"},{"bike_id":"7026abb9-f439-4739-afaf-61f3282d35a4","system_id":"levelo_inurba_marseille","lat":43.255756,"lon":5.382303,"is_reserved":false,"is_disabled":false,"rental_uris":{"android":"levelo://app?vid=7026abb9-f439-4739-afaf-61f3282d35a4","ios":"levelo://app?vid=7026abb9-f439-4739-afaf-61f3282d35a4"},"vehicle_type_id":"4","last_reported":1678454311,"current_range_meters":28000,"station_id":"ce4bhih2rcd13ifvqfs0","pricing_plan_id":"free"},{"bike_id":"8272d622-ec73-4e11-a212-373524585b3a","system_id":"levelo_inurba_marseille","lat":43.25583,"lon":5.382426,"is_reserved":false,"is_disabled":false,"rental_uris":{"android":"levelo://app?vid=8272d622-ec73-4e11-a212-373524585b3a","ios":"levelo://app?vid=8272d622-ec73-4e11-a212-373524585b3a"},"vehicle_type_id":"4","last_reported":1678454311,"current_range_meters":20400,"station_id":"ce4bhih2rcd13ifvqfs0","pricing_plan_id":"free"},{"bike_id":"07f42587-f7d1-4600-9d25-68f2fdbd2f33","system_id":"levelo_inurba_marseille","lat":43.255756,"lon":5.382303,"is_reserved":false,"is_disabled":false,"rental_uris":{"android":"levelo://app?vid=07f42587-f7d1-4600-9d25-68f2fdbd2f33","ios":"levelo://app?vid=07f42587-f7d1-4600-9d25-68f2fdbd2f33"},"vehicle_type_id":"4","last_reported":1678454311,"current_range_meters":18800,"station_id":"ce4bhih2rcd13ifvqfs0","pricing_plan_id":"free"},{"bike_id":"97c24e28-e8c1-4960-935b-3a8a013eb7df","system_id":"levelo_inurba_marseille","lat":43.255798,"lon":5.382402,"is_reserved":false,"is_disabled":false,"rental_uris":{"android":"levelo://app?vid=97c24e28-e8c1-4960-935b-3a8a013eb7df","ios":"levelo://app?vid=97c24e28-e8c1-4960-935b-3a8a013eb7df"},"vehicle_type_id":"4","last_reported":1678454311,"current_range_meters":18400,"station_id":"ce4bhih2rcd13ifvqfs0","pricing_plan_id":"free"},{"bike_id":"bf5eb285-d890-4a50-8ed6-e6b1ceaf6010","system_id":"levelo_inurba_marseille","lat":43.255756,"lon":5.382303,"is_reserved":false,"is_disabled":false,"rental_uris":{"android":"levelo://app?vid=bf5eb285-d890-4a50-8ed6-e6b1ceaf6010","ios":"levelo://app?vid=bf5eb285-d890-4a50-8ed6-e6b1ceaf6010"},"vehicle_type_id":"4","last_reported":1678454311,"current_range_meters":10400,"station_id":"ce4bhih2rcd13ifvqfs0","pricing_plan_id":"free"},{"bike_id":"dfcf4239-fd46-4b1c-a81f-1944333077ea","system_id":"levelo_inurba_marseille","lat":43.254947,"lon":5.376454,"is_reserved":false,"is_disabled":false,"rental_uris":{"android":"levelo://app?vid=dfcf4239-fd46-4b1c-a81f-1944333077ea","ios":"levelo://app?vid=dfcf4239-fd46-4b1c-a81f-1944333077ea"},"vehicle_type_id":"4","last_reported":1678454311,"current_range_meters":10000,"station_id":"ce4bhh12rcd13ifvqff0","pricing_plan_id":"free"},{"bike_id":"1a73699f-648a-45c8-9103-dd05eac99d22","system_id":"levelo_inurba_marseille","lat":43.254947,"lon":5.376454,"is_reserved":false,"is_disabled":false,"rental_uris":{"android":"levelo://app?vid=1a73699f-648a-45c8-9103-dd05eac99d22","ios":"levelo://app?vid=1a73699f-648a-45c8-9103-dd05eac99d22"},"vehicle_type_id":"4","last_reported":1678454311,"current_range_meters":10000,"station_id":"ce4bhh12rcd13ifvqff0","pricing_plan_id":"free"},{"bike_id":"c02dfacb-ad33-4071-8634-bf24e5bb0b2a","system_id":"levelo_inurba_marseille","lat":43.254947,"lon":5.376454,"is_reserved":false,"is_disabled":false,"rental_uris":{"android":"levelo://app?vid=c02dfacb-ad33-4071-8634-bf24e5bb0b2a","ios":"levelo://app?vid=c02dfacb-ad33-4071-8634-bf24e5bb0b2a"},"vehicle_type_id":"4","last_reported":1678454311,"current_range_meters":22400,"station_id":"ce4bhh12rcd13ifvqff0","pricing_plan_id":"free"},{"bike_id":"277ff503-4e01-4641-b420-a4cf28c60dc9","system_id":"levelo_inurba_marseille","lat":43.254947,"lon":5.376454,"is_reserved":false,"is_disabled":false,"rental_uris":{"android":"levelo://app?vid=277ff503-4e01-4641-b420-a4cf28c60dc9","ios":"levelo://app?vid=277ff503-4e01-4641-b420-a4cf28c60dc9"},"vehicle_type_id":"4","last_reported":1678454311,"current_range_meters":17600,"station_id":"ce4bhh12rcd13ifvqff0","pricing_plan_id":"free"},{"bike_id":"a7a21c02-a98e-45cc-859c-b69b4b702d1d","system_id":"levelo_inurba_marseille","lat":43.254947,"lon":5.376454,"is_reserved":false,"is_disabled":false,"rental_uris":{"android":"levelo://app?vid=a7a21c02-a98e-45cc-859c-b69b4b702d1d","ios":"levelo://app?vid=a7a21c02-a98e-45cc-859c-b69b4b702d1d"},"vehicle_type_id":"4","last_reported":1678454311,"current_range_meters":9200,"station_id":"ce4bhh12rcd13ifvqff0","pricing_plan_id":"free"},{"bike_id":"175fa1bb-91ad-463b-b8aa-f2722a65e8a0","system_id":"levelo_inurba_marseille","lat":43.254947,"lon":5.376454,"is_reserved":false,"is_disabled":false,"rental_uris":{"android":"levelo://app?vid=175fa1bb-91ad-463b-b8aa-f2722a65e8a0","ios":"levelo://app?vid=175fa1bb-91ad-463b-b8aa-f2722a65e8a0"},"vehicle_type_id":"4","last_reported":1678454311,"current_range_meters":20000,"station_id":"ce4bhh12rcd13ifvqff0","pricing_plan_id":"free"},{"bike_id":"e750118a-d5e5-42d5-8be5-34238dca9e38","system_id":"levelo_inurba_marseille","lat":43.254947,"lon":5.376454,"is_reserved":false,"is_disabled":false,"rental_uris":{"android":"levelo://app?vid=e750118a-d5e5-42d5-8be5-34238dca9e38","ios":"levelo://app?vid=e750118a-d5e5-42d5-8be5-34238dca9e38"},"vehicle_type_id":"4","last_reported":1678454311,"current_range_meters":16400,"station_id":"ce4bhh12rcd13ifvqff0","pricing_plan_id":"free"},{"bike_id":"3213382c-a4fe-4588-979f-6bccc3a5e012","system_id":"levelo_inurba_marseille","lat":43.254947,"lon":5.376454,"is_reserved":false,"is_disabled":false,"rental_uris":{"android":"levelo://app?vid=3213382c-a4fe-4588-979f-6bccc3a5e012","ios":"levelo://app?vid=3213382c-a4fe-4588-979f-6bccc3a5e012"},"vehicle_type_id":"4","last_reported":1678454311,"current_range_meters":25600,"station_id":"ce4bhh12rcd13ifvqff0","pricing_plan_id":"free"},{"bike_id":"f8bbef40-b4a8-4385-a323-13be1b1ac71b","system_id":"levelo_inurba_marseille","lat":43.254947,"lon":5.376454,"is_reserved":false,"is_disabled":false,"rental_uris":{"android":"levelo://app?vid=f8bbef40-b4a8-4385-a323-13be1b1ac71b","ios":"levelo://app?vid=f8bbef40-b4a8-4385-a323-13be1b1ac71b"},"vehicle_type_id":"4","last_reported":1678454311,"current_range_meters":12000,"station_id":"ce4bhh12rcd13ifvqff0","pricing_plan_id":"free"},