{"last_updated":1701241620,"ttl":30,"version":"2.2","data":{"bikes":[{"bike_id":"d0447107-e328-4a68-805d-ab0f61f15016","system_id":"levelo_inurba_marseille","lat":43.313391,"lon":5.36706,"is_reserved":false,"is_disabled":false,"rental_uris":{"android":"levelo://app?vid=d0447107-e328-4a68-805d-ab0f61f15016","ios":"levelo://app?vid=d0447107-e328-4a68-805d-ab0f61f15016"},"vehicle_type_id":"4","last_reported":1701241620,"current_range_meters":26000,"station_id":"ce4bgr92rcd13ifvqc6g","pricing_plan_id":"free"},{"bike_id":"4d98ed6c-f93f-4945-98a7-44e973f64072","system_id":"levelo_inurba_marseille","lat":43.312239,"lon":5.368562,"is_reserved":false,"is_disabled":false,"rental_uris":{"android":"levelo://app?vid=4d98ed6c-f93f-4945-98a7-44e973f64072","ios":"levelo://app?vid=4d98ed6c-f93f-4945-98a7-44e973f64072"},"vehicle_type_id":"4","last_reported":1701241620,"current_range_meters":15200,"station_id":"ce4bgl92rcd13ifvqbq0","pricing_plan_id":"free"},{"bike_id":"c582c196-6d07-4b30-b2c2-0d8b690c923c","system_id":"levelo_inurba_marseille","lat":43.309039,"lon":5.371797,"is_reserved":false,"is_disabled":false,"rental_uris":{"android":"levelo://app?vid=c582c196-6d07-4b30-b2c2-0d8b690c923c","ios":"levelo://app?vid=c582c196-6d07-4b30-b2c2-0d8b690c923c"},"vehicle_type_id":"4","last_reported":1701241620,"current_range_meters":30000,"station_id":"ce4bguh2rcd13ifvqckg","pricing_plan_id":"free"},{"bike_id":"878504fe-d5a2-4bb7-9b4c-3d221495a0ff","system_id":"levelo_inurba_marseille","lat":43.305712,"lon":5.365641,"is_reserved":false,"is_disabled":false,"rental_uris":{"android":"levelo://app?vid=878504fe-d5a2-4bb7-9b4c-3d221495a0ff","ios":"levelo://app?vid=878504fe-d5a2-4bb7-9b4c-3d221495a0ff"},"vehicle_type_id":"4","last_reported":1701241620,"current_range_meters":28000,"station_id":"ce4bgs12rcd13ifvqcag","pricing_plan_id":"free"},{"bike_id":"e6cb03c2-5f9e-4178-8416-6f41ed632ae8","system_id":"levelo_inurba_marseille","lat":43.305368,"lon":5.367343,"is_reserved":false,"is_disabled":false,"rental_uris":{"android":"levelo://app?vid=e6cb03c2-5f9e-4178-8416-6f41ed632ae8","ios":"levelo://app?vid=e6cb03c2-5f9e-4178-8416-6f41ed632ae8"},"vehicle_type_id":"4","last_reported":1701241620,"current_range_meters":0,"station_id":"ce4bgrp2rcd13ifvqc9g","pricing_plan_id":"free"},{"bike_id":"65af0e14-afcb-43b7-a1a3-06dce25629b3","system_id":"levelo_inurba_marseille","lat":43.305368,"lon":5.367343,"is_reserved":false,"is_disabled":false,"rental_uris":{"android":"levelo://app?vid=65af0e14-afcb-43b7-a1a3-06dce25629b3","ios":"levelo://app?vid=65af0e14-afcb-43b7-a1a3-06dce25629b3"},"vehicle_type_id":"4","last_reported":1701241620,"current_range_meters":25600,"station_id":"ce4bgrp2rcd13ifvqc9g","pricing_plan_id":"free"},{"bike_id":"6c822ccb-44bd-4095-b4ae-2f99b32f29ee","system_id":"levelo_inurba_marseille","lat":43.30536,"lon":5.3671,"is_reserved":false,"is_disabled":false,"rental_uris":{"android":"levelo://app?vid=6c822ccb-44bd-4095-b4ae-2f99b32f29ee","ios":"levelo://app?vid=6c822ccb-44bd-4095-b4ae-2f99b32f29ee"},"vehicle_type_id":"4","last_reported":1701241620,"current_range_meters":22000,"station_id":"ce4bgrp2rcd13ifvqc9g","pricing_plan_id":"free"},{"bike_id":"7a023746-fe2e-4a11-8d82-eb7fa445afc4","system_id":"levelo_inurba_marseille","lat":43.305368,"lon":5.367343,"is_reserved":false,"is_disabled":false,"rental_uris":{"android":"levelo://app?vid=7a023746-fe2e-4a11-8d82-eb7fa445afc4","ios":"levelo://app?vid=7a023746-fe2e-4a11-8d82-eb7fa445afc4"},"vehicle_type_id":"4","last_reported":1701241620,"current_range_meters":22400,"station_id":"ce4bgrp2rcd13ifvqc9g","pricing_plan_id":"free"},{"bike_id":"e4a5dd99-c04e-4a50-bd4b-dd6d9964171a","system_id":"levelo_inurba_marseille","lat":43.305706,"lon":5.365654,"is_reserved":false,"is_disabled":false,"rental_uris":{"android":"levelo://app?vid=e4a5dd99-c04e-4a50-bd4b-dd6d9964171a","ios":"levelo://app?vid=e4a5dd99-c04e-4a50-bd4b-dd6d9964171a"},"vehicle_type_id":"4","last_reported":1701241620,"current_range_meters":27600,"station_id":"ce4bgs12rcd13ifvqcag","pricing_plan_id":"free"},{"bike_id":"e6e0bb1f-9e0e-4926-9832-bfcce6f07fc3","system_id":"levelo_inurba_marseille","lat":43.305706,"lon":5.365654,"is_reserved":false,"is_disabled":false,"rental_uris":{"android":"levelo://app?vid=e6e0bb1f-9e0e-4926-9832-bfcce6f07fc3","ios":"levelo://app?vid=e6e0bb1f-9e0e-4926-9832-bfcce6f07fc3"},"vehicle_type_id":"4","last_reported":1701241620,"current_range_meters":26800,"station_id":"ce4bgs12rcd13ifvqcag","pricing_plan_id":"free"},{"bike_id":"ff78abee-a4c7-42a6-bed7-f117d3fb7cde","system_id":"levelo_inurba_marseille","lat":43.305706,"lon":5.365654,"is_reserved":false,"is_disabled":false,"rental_uris":{"android":"levelo://app?vid=ff78abee-a4c7-42a6-bed7-f117d3fb7cde","ios":"levelo://app?vid=ff78abee-a4c7-42a6-bed7-f117d3fb7cde"},"vehicle_type_id":"4","last_reported":1701241620,"current_range_meters":31200,"station_id":"ce4bgs12rcd13ifvqcag","pricing_plan_id":"free"},{"bike_id":"b41f2565-88cc-4fc1-9fde-584a3f1affe1","system_id":"levelo_inurba_marseille","lat":43.305368,"lon":5.367343,"is_reserved":false,"is_disabled":false,"rental_uris":{"android":"levelo://app?vid=b41f2565-88cc-4fc1-9fde-584a3f1affe1","ios":"levelo://app?vid=b41f2565-88cc-4fc1-9fde-584a3f1affe1"},"vehicle_type_id":"4","last_reported":1701241620,"current_range_meters":22400,"station_id":"ce4bgrp2rcd13ifvqc9g","pricing_plan_id":"free"},{"bike_id":"50fa95a5-0838-4f69-aa14-89836d3ce4f0","system_id":"levelo_inurba_marseille","lat":43.305989,"lon":5.37225,"is_reserved":false,"is_disabled":false,"rental_uris":{"android":"levelo://app?vid=50fa95a5-0838-4f69-aa14-89836d3ce4f0","ios":"levelo://app?vid=50fa95a5-0838-4f69-aa14-89836d3ce4f0"},"vehicle_type_id":"4","last_reported":1701241620,"current_range_meters":22000,"station_id":"ce4bgqh2rcd13ifvqc4g","pricing_plan_id":"free"},{"bike_id":"45b3ff23-a937-45d9-9f96-088c308c0189","system_id":"levelo_inurba_marseille","lat":43.308185,"lon":5.376553,"is_reserved":false,"is_disabled":false,"rental_uris":{"android":"levelo://app?vid=45b3ff23-a937-45d9-9f96-088c308c0189","ios":"levelo://app?vid=45b3ff23-a937-45d9-9f96-088c308c0189"},"vehicle_type_id":"4","last_reported":1701241620,"current_range_meters":10000,"station_id":"ce4bgv92rcd13ifvqcq0","pricing_plan_id":"free"},{"bike_id":"f427a2c3-6e4a-446b-ae2f-9be8aa7f4122","system_id":"levelo_inurba_marseille","lat":43.31719,"lon":5.376813,"is_reserved":false,"is_disabled":false,"rental_uris":{"android":"levelo://app?vid=f427a2c3-6e4a-446b-ae2f-9be8aa7f4122","ios":"levelo://app?vid=f427a2c3-6e4a-446b-ae2f-9be8aa7f4122"},"vehicle_type_id":"4","last_reported":1701241620,"current_range_meters":10400,"station_id":"ce4bgth2rcd13ifvqch0","pricing_plan_id":"free"},{"bike_id":"e913f328-1e31-4c22-bd87-f809ea246de4","system_id":"levelo_inurba_marseille","lat":43.317168,"lon":5.376883,"is_reserved":false,"is_disabled":false,"rental_uris":{"android":"levelo://app?vid=e913f328-1e31-4c22-bd87-f809ea246de4","ios":"levelo://app?vid=e913f328-1e31-4c22-bd87-f809ea246de4"},"vehicle_type_id":"4","last_reported":1701241620,"current_range_meters":12800,"station_id":"ce4bgth2rcd13ifvqch0","pricing_plan_id":"free"},{"bike_id":"9bcd1868-3965-4148-ae0f-50744c03b8ff","system_id":"levelo_inurba_marseille","lat":43.317075,"lon":5.377367,"is_reserved":false,"is_disabled":false,"rental_uris":{"android":"levelo://app?vid=9bcd1868-3965-4148-ae0f-50744c03b8ff","ios":"levelo://app?vid=9bcd1868-3965-4148-ae0f-50744c03b8ff"},"vehicle_type_id":"4","last_reported":1701241620,"current_range_meters":26800,"station_id":"ce4bgth2rcd13ifvqch0","pricing_plan_id":"free"},{"bike_id":"5ce6ef82-5440-42dd-81ff-0e7915a08c5e","system_id":"levelo_inurba_marseille","lat":43.30304,"lon":5.368987,"is_reserved":false,"is_disabled":false,"rental_uris":{"android":"levelo://app?vid=5ce6ef82-5440-42dd-81ff-0e7915a08c5e","ios":"levelo://app?vid=5ce6ef82-5440-42dd-81ff-0e7915a08c5e"},"vehicle_type_id":"4","last_reported":1701241620,"current_range_meters":23600,"station_id":"ce4bgqh2rcd13ifvqc5g","pricing_plan_id":"free"},{"bike_id":"020df5bc-86bf-47a1-9081-d1512b98bd63","system_id":"levelo_inurba_marseille","lat":43.30304,"lon":5.368987,"is_reserved":false,"is_disabled":false,"rental_uris":{"android":"levelo://app?vid=020df5bc-86bf-47a1-9081-d1512b98bd63","ios":"levelo://app?vid=020df5bc-86bf-47a1-9081-d1512b98bd63"},"vehicle_type_id":"4","last_reported":1701241620,"current_range_meters":24400,"station_id":"ce4bgqh2rcd13ifvqc5g","pricing_plan_id":"free"},{"bike_id":"3e09080e-9db5-4c48-951f-c5f672a60264","system_id":"levelo_inurba_marseille","lat":43.32161,"lon":5.37478,"is_reserved":false,"is_disabled":false,"rental_uris":{"android":"levelo://app?vid=3e09080e-9db5-4c48-951f-c5f672a60264","ios":"levelo://app?vid=3e09080e-9db5-4c48-951f-c5f672a60264"},"vehicle_type_id":"4","last_reported":1701241620,"current_range_meters":9600,"station_id":"","pricing_plan_id":"free"},{"bike_id":"3d35ca43-23fe-4daa-81bb-d94d227dd124","system_id":"levelo_inurba_marseille","lat":43.301939,"lon":5.366286,"is_reserved":false,"is_disabled":false,"rental_uris":{"android":"levelo://app?vid=3d35ca43-23fe-4daa-81bb-d94d227dd124","ios":"levelo://app?vid=3d35ca43-23fe-4daa-81bb-d94d227dd124"},"vehicle_type_id":"4","last_reported":1701241620,"current_range_meters":31200,"station_id":"ce4bgrh2rcd13ifvqc8g","pricing_plan_id":"free"},{"bike_id":"7ff9a082-4a95-4f21-9d0f-6f49085af790","system_id":"levelo_inurba_marseille","lat":43.304727,"lon":5.379029,"is_reserved":false,"is_disabled":false,"rental_uris":{"android":"levelo://app?vid=7ff9a082-4a95-4f21-9d0f-6f49085af790","ios":"levelo://app?vid=7ff9a082-4a95-4f21-9d0f-6f49085af790"},"vehicle_type_id":"4","last_reported":1701241620,"current_range_meters":22400,"station_id":"ce4bgup2rcd13ifvqcn0","pricing_plan_id":"free"},{"bike_id":"3f706e49-69d6-44ab-9d8f-ab8108ec2239","system_id":"levelo_inurba_marseille","lat":43.304606,"lon":5.379026,"is_reserved":false,"is_disabled":false,"rental_uris":{"android":"levelo://app?vid=3f706e49-69d6-44ab-9d8f-ab8108ec2239","ios":"levelo://app?vid=3f706e49-69d6-44ab-9d8f-ab8108ec2239"},"vehicle_type_id":"4","last_reported":1701241620,"current_range_meters":31600,"station_id":"ce4bgup2rcd13ifvqcn0","pricing_plan_id":"free"},{"bike_id":"32d232ff-881a-48ff-841a-39a538d2be07","system_id":"levelo_inurba_marseille","lat":43.304606,"lon":5.379026,"is_reserved":false,"is_disabled":false,"rental_uris":{"android":"levelo://app?vid=32d232ff-881a-48ff-841a-39a538d2be07","ios":"levelo://app?vid=32d232ff-881a-48ff-841a-39a538d2be07"},"vehicle_type_id":"4","last_reported":1701241620,"current_range_meters":25600,"station_id":"ce4bgup2rcd13ifvqcn0","pricing_plan_id":"free"},{"bike_id":"26ac818e-a747-4f49-8e05-3985a37c7854","system_id":"levelo_inurba_marseille","lat":43.304606,"lon":5.379026,"is_reserved":false,"is_disabled":false,"rental_uris":{"android":"levelo://app?vid=26ac818e-a747-4f49-8e05-3985a37c7854","ios":"levelo://app?vid=26ac818e-a747-4f49-8e05-3985a37c7854"},"vehicle_type_id":"4","last_reported":1701241620,"current_range_meters":12800,"station_id":"ce4bgup2rcd13ifvqcn0","pricing_plan_id":"free"},{"bike_id":"45169c77-0980-40ca-8cee-d4ed64fc752c","system_id":"levelo_inurba_marseille","lat":43.304606,"lon":5.379026,"is_reserved":false,"is_disabled":false,"rental_uris":{"android":"levelo://app?vid=45169c77-0980-40ca-8cee-d4ed64fc752c","ios":"levelo://app?vid=45169c77-0980-40ca-8cee-d4ed64fc752c"},"vehicle_type_id":"4","last_reported":1701241620,"current_range_meters":31600,"station_id":"ce4bgup2rcd13ifvqcn0","pricing_plan_id":"free"},{"bike_id":"5af2be37-2fad-4db9-a2b0-e9637595e442","system_id":"levelo_inurba_marseille","lat":43.304692,"lon":5.37904,"is_reserved":false,"is_disabled":false,"rental_uris":{"android":"levelo://app?vid=5af2be37-2fad-4db9-a2b0-e9637595e442","ios":"levelo://app?vid=5af2be37-2fad-4db9-a2b0-e9637595e442"},"vehicle_type_id":"4","last_reported":1701241620,"current_range_meters":29200,"station_id":"ce4bgup2rcd13ifvqcn0","pricing_plan_id":"free"},{"bike_id":"1a82f4e0-e573-4791-bf08-efeab84a0b62","system_id":"levelo_inurba_marseille","lat":43.304606,"lon":5.379026,"is_reserved":false,"is_disabled":false,"rental_uris":{"android":"levelo://app?vid=1a82f4e0-e573-4791-bf08-efeab84a0b62","ios":"levelo://app?vid=1a82f4e0-e573-4791-bf08-efeab84a0b62"},"vehicle_type_id":"4","last_reported":1701241620,"current_range_meters":31600,"station_id":"ce4bgup2rcd13ifvqcn0","pricing_plan_id":"free"},{"bike_id":"f24f2fd6-5d9c-40a1-841c-00e781607f90","system_id":"levelo_inurba_marseille","lat":43.30468,"lon":5.37904,"is_reserved":false,"is_disabled":false,"rental_uris":{"android":"levelo://app?vid=f24f2fd6-5d9c-40a1-841c-00e781607f90","ios":"levelo://app?vid=f24f2fd6-5d9c-40a1-841c-00e781607f90"},"vehicle_type_id":"4","last_reported":1701241620,"current_range_meters":28800,"station_id":"ce4bgup2rcd13ifvqcn0","pricing_plan_id":"free"},{"bike_id":"419ea7e3-74ec-4f1a-bf3e-0b0b07c14b5f","system_id":"levelo_inurba_marseille","lat":43.304606,"lon":5.379026,"is_reserved":false,"is_disabled":false,"rental_uris":{"android":"levelo://app?vid=419ea7e3-74ec-4f1a-bf3e-0b0b07c14b5f","ios":"levelo://app?vid=419ea7e3-74ec-4f1a-bf3e-0b0b07c14b5f"},"vehicle_type_id":"4","last_reported":1701241620,"current_range_meters":29600,"station_id":"ce4bgup2rcd13ifvqcn0","pricing_plan_id":"free"},{"bike_id":"d8cefe2c-f886-4ec7-9b59-574e1dc5a91d","system_id":"levelo_inurba_marseille","lat":43.304606,"lon":5.379026,"is_reserved":false,"is_disabled":false,"rental_uris":{"android":"levelo://app?vid=d8cefe2c-f886-4ec7-9b59-574e1dc5a91d","ios":"levelo://app?vid=d8cefe2c-f886-4ec7-9b59-574e1dc5a91d"},"vehicle_type_id":"4","last_reported":1701241620,"current_range_meters":30400,"station_id":"ce4bgup2rcd13ifvqcn0","pricing_plan_id":"free"},{"bike_id":"62560e26-d023-44e5-a898-f0d75ad6842f","system_id":"levelo_inurba_marseille","lat":43.304606,"lon":5.379026,"is_reserved":false,"is_disabled":false,"rental_uris":{"android":"levelo://app?vid=62560e26-d023-44e5-a898-f0d75ad6842f","ios":"levelo://app?vid=62560e26-d023-44e5-a898-f0d75ad6842f"},"vehicle_type_id":"4","last_reported":1701241620,"current_range_meters":22400,"station_id":"ce4bgup2rcd13ifvqcn0","pricing_plan_id":"free"},{"bike_id":"08d71390-da83-432f-b9dc-6281d479c903","system_id":"levelo_inurba_marseille","lat":43.304606,"lon":5.379026,"is_reserved":false,"is_disabled":false,"rental_uris":{"android":"levelo://app?vid=08d71390-da83-432f-b9dc-6281d479c903","ios":"levelo://app?vid=08d71390-da83-432f-b9dc-6281d479c903"},"vehicle_type_id":"4","last_reported":1701241620,"current_range_meters":19600,"station_id":"ce4bgup2rcd13ifvqcn0","pricing_plan_id":"free"},{"bike_id":"9eb437ae-8e75-4e14-a436-76054326aa6c","system_id":"levelo_inurba_marseille","lat":43.304606,"lon":5.379026,"is_reserved":false,"is_disabled":false,"rental_uris":{"android":"levelo://app?vid=9eb437ae-8e75-4e14-a436-76054326aa6c","ios":"levelo://app?vid=9eb437ae-8e75-4e14-a436-76054326aa6c"},"vehicle_type_id":"4","last_reported":1701241620,"current_range_meters":15600,"station_id":"ce4bgup2rcd13ifvqcn0","pricing_plan_id":"free"},{"bike_id":"80083a9d-fe20-43a0-997b-3140ee18bd90","system_id":"levelo_inurba_marseille","lat":43.30464,"lon":5.37907,"is_reserved":false,"is_disabled":false,"rental_uris":{"android":"levelo://app?vid=80083a9d-fe20-43a0-997b-3140ee18bd90","ios":"levelo://app?vid=80083a9d-fe20-43a0-997b-3140ee18bd90"},"vehicle_type_id":"4","last_reported":1701241620,"current_range_meters":26000,"station_id":"ce4bgup2rcd13ifvqcn0","pricing_plan_id":"free"},{"bike_id":"b7567862-d038-44cc-9371-eb650482a2d6","system_id":"levelo_inurba_marseille","lat":43.304606,"lon":5.379026,"is_reserved":false,"is_disabled":false,"rental_uris":{"android":"levelo://app?vid=b7567862-d038-44cc-9371-eb650482a2d6","ios":"levelo://app?vid=b7567862-d038-44cc-9371-eb650482a2d6"},"vehicle_type_id":"4","last_reported":1701241620,"current_range_meters":22000,"station_id":"ce4bgup2rcd13ifvqcn0","pricing_plan_id":"free"},{"bike_id":"9c19daa3-e225-4bbb-abc0-e212d9811e1e","system_id":"levelo_inurba_marseille","lat":43.304606,"lon":5.379026,"is_reserved":false,"is_disabled":false,"rental_uris":{"android":"levelo://app?vid=9c19daa3-e225-4bbb-abc0-e212d9811e1e","ios":"levelo://app?vid=9c19daa3-e225-4bbb-abc0-e212d9811e1e"},"vehicle_type_id":"4","last_reported":1701241620,"current_range_meters":17600,"station_id":"ce4bgup2rcd13ifvqcn0","pricing_plan_id":"free"},{"bike_id":"ae227bb0-b5c8-4824-b36e-fb024294b896","system_id":"levelo_inurba_marseille","lat":43.304606,"lon":5.379026,"is_reserved":false,"is_disabled":false,"rental_uris":{"android":"levelo://app?vid=ae227bb0-b5c8-4824-b36e-fb024294b896","ios":"levelo://app?vid=ae227bb0-b5c8-4824-b36e-fb024294b896"},"vehicle_type_id":"4","last_reported":1701241620,"current_range_meters":18400,"station_id":"ce4bgup2rcd13ifvqcn0","pricing_plan_id":"free"},{"bike_id":"6ed5db8e-7816-4dc7-8b62-f4d36185ed4c","system_id":"levelo_inurba_marseille","lat":43.304606,"lon":5.379026,"is_reserved":false,"is_disabled":false,"rental_uris":{"android":"levelo://app?vid=6ed5db8e-7816-4dc7-8b62-f4d36185ed4c","ios":"levelo://app?vid=6ed5db8e-7816-4dc7-8b62-f4d36185ed4c"},"vehicle_type_id":"4","last_reported":1701241620,"current_range_meters":4000,"station_id":"ce4bgup2rcd13ifvqcn0","pricing_plan_id":"free"},{"bike_id":"b9124ad2-1c0c-4907-9bfe-01007060484a","system_id":"levelo_inurba_marseille","lat":43.304606,"lon":5.379026,"is_reserved":false,"is_disabled":false,"rental_uris":{"android":"levelo://app?vid=b9124ad2-1c0c-4907-9bfe-01007060484a","ios":"levelo://app?vid=b9124ad2-1c0c-4907-9bfe-01007060484a"},"vehicle_type_id":"4","last_reported":1701241620,"current_range_meters":10800,"station_id":"ce4bgup2rcd13ifvqcn0","pricing_plan_id":"free"},{"bike_id":"d6ef58fc-a8a9-4949-a1bf-03f84f2e7c29","system_id":"levelo_inurba_marseille","lat":43.304606,"lon":5.379026,"is_reserved":false,"is_disabled":false,"rental_uris":{"android":"levelo://app?vid=d6ef58fc-a8a9-4949-a1bf-03f84f2e7c29","ios":"levelo://app?vid=d6ef58fc-a8a9-4949-a1bf-03f84f2e7c29"},"vehicle_type_id":"4","last_reported":1701241620,"current_range_meters":26400,"station_id":"ce4bgup2rcd13ifvqcn0","pricing_plan_id":"free"},{"bike_id":"24dbd633-fed4-4fcb-a27f-bef205402ea2","system_id":"levelo_inurba_marseille","lat":43.30464,"lon":5.37914,"is_reserved":false,"is_disabled":false,"rental_uris":{"android":"levelo://app?vid=24dbd633-fed4-4fcb-a27f-bef205402ea2","ios":"levelo://app?vid=24dbd633-fed4-4fcb-a27f-bef205402ea2"},"vehicle_type_id":"4","last_reported":1701241620,"current_range_meters":25200,"station_id":"ce4bgup2rcd13ifvqcn0","pricing_plan_id":"free"},{"bike_id":"9113be89-d8a0-4a31-9144-6885388ec7d9","system_id":"levelo_inurba_marseille","lat":43.304606,"lon":5.379026,"is_reserved":false,"is_disabled":false,"rental_uris":{"android":"levelo://app?vid=9113be89-d8a0-4a31-9144-6885388ec7d9","ios":"levelo://app?vid=9113be89-d8a0-4a31-9144-6885388ec7d9"},"vehicle_type_id":"4","last_reported":1701241620,"current_range_meters":28800,"station_id":"ce4bgup2rcd13ifvqcn0","pricing_plan_id":"free"},{"bike_id":"c74eb29f-e5e9-433a-9f81-a436f13d1543","system_id":"levelo_inurba_marseille","lat":43.304383,"lon":5.378847,"is_reserved":false,"is_disabled":false,"rental_uris":{"android":"levelo://app?vid=c74eb29f-e5e9-433a-9f81-a436f13d1543","ios":"levelo://app?vid=c74eb29f-e5e9-433a-9f81-a436f13d1543"},"vehicle_type_id":"4","last_reported":1701241620,"current_range_meters":27200,"station_id":"ce4bgup2rcd13ifvqcn0","pricing_plan_id":"free"},{"bike_id":"04ff32b6-a566-4f10-a315-309e01b36b34","system_id":"levelo_inurba_marseille","lat":43.304606,"lon":5.379026,"is_reserved":false,"is_disabled":false,"rental_uris":{"android":"levelo://app?vid=04ff32b6-a566-4f10-a315-309e01b36b34","ios":"levelo://app?vid=04ff32b6-a566-4f10-a315-309e01b36b34"},"vehicle_type_id":"4","last_reported":1701241620,"current_range_meters":6400,"station_id":"ce4bgup2rcd13ifvqcn0","pricing_plan_id":"free"},{"bike_id":"5715a9c8-9d8f-4eaf-82a9-ce48688f7ea1","system_id":"levelo_inurba_marseille","lat":43.324772,"lon":5.365651,"is_reserved":false,"is_disabled":false,"rental_uris":{"android":"levelo://app?vid=5715a9c8-9d8f-4eaf-82a9-ce48688f7ea1","ios":"levelo://app?vid=5715a9c8-9d8f-4eaf-82a9-ce48688f7ea1"},"vehicle_type_id":"4","last_reported":1701241620,"current_range_meters":21600,"station_id":"ce4bhs12rcd13ifvqhvg","pricing_plan_id":"free"},{"bike_id":"da5840a3-e67a-454b-a449-3fcdfe780ae3","system_id":"levelo_inurba_marseille","lat":43.304606,"lon":5.379026,"is_reserved":false,"is_disabled":false,"rental_uris":{"android":"levelo://app?vid=da5840a3-e67a-454b-a449-3fcdfe780ae3","ios":"levelo://app?vid=da5840a3-e67a-454b-a449-3fcdfe780ae3"},"vehicle_type_id":"4","last_reported":1701241620,"current_range_meters":16000,"station_id":"ce4bgup2rcd13ifvqcn0","pricing_plan_id":"free"},{"bike_id":"68ff73e5-de2a-4250-8b88-852047f90d2d","system_id":"levelo_inurba_marseille","lat":43.302784,"lon":5.377158,"is_reserved":false,"is_disabled":false,"rental_uris":{"android":"levelo://app?vid=68ff73e5-de2a-4250-8b88-852047f90d2d","ios":"levelo://app?vid=68ff73e5-de2a-4250-8b88-852047f90d2d"},"vehicle_type_id":"4","last_reported":1701241620,"current_range_meters":9200,"station_id":"ce4bguh2rcd13ifvqcj0","pricing_plan_id":"free"},{"bike_id":"2592df46-6d52-4040-b44a-872969926906","system_id":"levelo_inurba_marseille","lat":43.301429,"lon":5.37413,"is_reserved":false,"is_disabled":false,"rental_uris":{"android":"levelo://app?vid=2592df46-6d52-4040-b44a-872969926906","ios":"levelo://app?vid=2592df46-6d52-4040-b44a-872969926906"},"vehicle_type_id":"4","last_reported":1701241620,"current_range_meters":31600,"station_id":"ce4bgs92rcd13ifvqcc0","pricing_plan_id":"free"},{"bike_id":"be271d3c-941a-4452-a83b-00dcd1b43b62","system_id":"levelo_inurba_marseille","lat":43.30143,"lon":5.37413,"is_reserved":false,"is_disabled":false,"rental_uris":{"android":"levelo://app?vid=be271d3c-941a-4452-a83b-00dcd1b43b62","ios":"levelo://app?vid=be271d3c-941a-4452-a83b-00dcd1b43b62"},"vehicle_type_id":"4","last_reported":1701241620,"current_range_meters":16400,"station_id":"ce4bgs92rcd13ifvqcc0","pricing_plan_id":"free"},{"bike_id":"d68ff592-86e3-4859-947a-8e3e5c81913c","system_id":"levelo_inurba_marseille","lat":43.319997,"lon":5.381594,"is_reserved":false,"is_disabled":false,"rental_uris":{"android":"levelo://app?vid=d68ff592-86e3-4859-947a-8e3e5c81913c","ios":"levelo://app?vid=d68ff592-86e3-4859-947a-8e3e5c81913c"},"vehicle_type_id":"4","last_reported":1701241620,"current_range_meters":27600,"station_id":"ce4bhr12rcd13ifvqhpg","pricing_plan_id":"free"},{"bike_id":"68e78465-6fcc-4838-a3be-5bd8816759e8","system_id":"levelo_inurba_marseille","lat":43.313571,"lon":5.384829,"is_reserved":false,"is_disabled":false,"rental_uris":{"android":"levelo://app?vid=68e78465-6fcc-4838-a3be-5bd8816759e8","ios":"levelo://app?vid=68e78465-6fcc-4838-a3be-5bd8816759e8"},"vehicle_type_id":"4","last_reported":1701241620,"current_range_meters":23200,"station_id":"ce4bgt92rcd13ifvqcf0","pricing_plan_id":"free"},{"bike_id":"aebb5f1f-3a1e-4323-a4f0-ae83e0b78d14","system_id":"levelo_inurba_marseille","lat":43.298433,"lon":5.362774,"is_reserved":false,"is_disabled":false,"rental_uris":{"android":"levelo://app?vid=aebb5f1f-3a1e-4323-a4f0-ae83e0b78d14","ios":"levelo://app?vid=aebb5f1f-3a1e-4323-a4f0-ae83e0b78d14"},"vehicle_type_id":"4","last_reported":1701241620,"current_range_meters":27600,"station_id":"ce4bgpp2rcd13ifvqc3g","pricing_plan_id":"free"},{"bike_id":"d5075fe5-91a9-463a-ba52-2e802b4264cf","system_id":"levelo_inurba_marseille","lat":43.32826,"lon":5.36683,"is_reserved":false,"is_disabled":false,"rental_uris":{"android":"levelo://app?vid=d5075fe5-91a9-463a-ba52-2e802b4264cf","ios":"levelo://app?vid=d5075fe5-91a9-463a-ba52-2e802b4264cf"},"vehicle_type_id":"4","last_reported":1701241620,"current_range_meters":2800,"station_id":"ce4bhs92rcd13ifvqi0g","pricing_plan_id":"free"},{"bike_id":"e4434fea-ed8c-4204-98eb-f830ce877bef","system_id":"levelo_inurba_marseille","lat":43.297163,"lon":5.365866,"is_reserved":false,"is_disabled":false,"rental_uris":{"android":"levelo://app?vid=e4434fea-ed8c-4204-98eb-f830ce877bef","ios":"levelo://app?vid=e4434fea-ed8c-4204-98eb-f830ce877bef"},"vehicle_type_id":"4","last_reported":1701241620,"current_range_meters":5600,"station_id":"ce4bgn12rcd13ifvqbt0","pricing_plan_id":"free"},{"bike_id":"8ec9a68d-5182-4121-8832-c9a4ce929c28","system_id":"levelo_inurba_marseille","lat":43.29573,"lon":5.367355,"is_reserved":false,"is_disabled":false,"rental_uris":{"android":"levelo://app?vid=8ec9a68d-5182-4121-8832-c9a4ce929c28","ios":"levelo://app?vid=8ec9a68d-5182-4121-8832-c9a4ce929c28"},"vehicle_type_id":"4","last_reported":1701241620,"current_range_meters":9600,"station_id":"ce4bgph2rcd13ifvqc2g","pricing_plan_id":"free"},{"bike_id":"c6aa0cee-f124-4a41-928a-a42df52d8955","system_id":"levelo_inurba_marseille","lat":43.29573,"lon":5.367355,"is_reserved":false,"is_disabled":false,"rental_uris":{"android":"levelo://app?vid=c6aa0cee-f124-4a41-928a-a42df52d8955","ios":"levelo://app?vid=c6aa0cee-f124-4a41-928a-a42df52d8955"},"vehicle_type_id":"4","last_reported":1701241620,"current_range_meters":27600,"station_id":"ce4bgph2rcd13ifvqc2g","pricing_plan_id":"free"},{"bike_id":"6ac651b4-131e-4cb0-91b9-8760508a3e81","system_id":"levelo_inurba_marseille","lat":43.29573,"lon":5.367355,"is_reserved":false,"is_disabled":false,"rental_uris":{"android":"levelo://app?vid=6ac651b4-131e-4cb0-91b9-8760508a3e81","ios":"levelo://app?vid=6ac651b4-131e-4cb0-91b9-8760508a3e81"},"vehicle_type_id":"4","last_reported":1701241620,"current_range_meters":24000,"station_id":"ce4bgph2rcd13ifvqc2g","pricing_plan_id":"free"},{"bike_id":"2635567f-e94f-4dd6-aca3-6d95fffd8ed8","system_id":"levelo_inurba_marseille","lat":43.29573,"lon":5.367355,"is_reserved":false,"is_disabled":false,"rental_uris":{"android":"levelo://app?vid=2635567f-e94f-4dd6-aca3-6d95fffd8ed8","ios":"levelo://app?vid=2635567f-e94f-4dd6-aca3-6d95fffd8ed8"},"vehicle_type_id":"4","last_reported":1701241620,"current_range_meters":6400,"station_id":"ce4bgph2rcd13ifvqc2g","pricing_plan_id":"free"},{"bike_id":"de02ba53-b4d0-420a-8b10-671b91c642d5","system_id":"levelo_inurba_marseille","lat":43.29573,"lon":5.367355,"is_reserved":false,"is_disabled":false,"rental_uris":{"android":"levelo://app?vid=de02ba53-b4d0-420a-8b10-671b91c642d5","ios":"levelo://app?vid=de02ba53-b4d0-420a-8b10-671b91c642d5"},"vehicle_type_id":"4","last_reported":1701241620,"current_range_meters":22000,"station_id":"ce4bgph2rcd13ifvqc2g","pricing_plan_id":"free"},{"bike_id":"8c33df2f-5494-45c2-8621-a9a875ea1fa7","system_id":"levelo_inurba_marseille","lat":43.29573,"lon":5.367355,"is_reserved":false,"is_disabled":false,"rental_uris":{"android":"levelo://app?vid=8c33df2f-5494-45c2-8621-a9a875ea1fa7","ios":"levelo://app?vid=8c33df2f-5494-45c2-8621-a9a875ea1fa7"},"vehicle_type_id":"4","last_reported":1701241620,"current_range_meters":23600,"station_id":"ce4bgph2rcd13ifvqc2g","pricing_plan_id":"free"},{"bike_id":"c29c7e2f-a0c3-4099-9198-71876da5779b","system_id":"levelo_inurba_marseille","lat":43.29573,"lon":5.367355,"is_reserved":false,"is_disabled":false,"rental_uris":{"android":"levelo://app?vid=c29c7e2f-a0c3-4099-9198-71876da5779b","ios":"levelo://app?vid=c29c7e2f-a0c3-4099-9198-71876da5779b"},"vehicle_type_id":"4","last_reported":1701241620,"current_range_meters":28000,"station_id":"ce4bgph2rcd13ifvqc2g","pricing_plan_id":"free"},{"bike_id":"49116e33-86c9-4fae-ad47-295e9359c90c","system_id":"levelo_inurba_marseille","lat":43.295706,"lon":5.367212,"is_reserved":false,"is_disabled":false,"rental_uris":{"android":"levelo://app?vid=49116e33-86c9-4fae-ad47-295e9359c90c","ios":"levelo://app?vid=49116e33-86c9-4fae-ad47-295e9359c90c"},"vehicle_type_id":"4","last_reported":1701241620,"current_range_meters":25600,"station_id":"","pricing_plan_id":"free"},{"bike_id":"77621d6b-8990-4544-be4b-ead551752d29","system_id":"levelo_inurba_marseille","lat":43.315012,"lon":5.390253,"is_reserved":false,"is_disabled":false,"rental_uris":{"android":"levelo://app?vid=77621d6b-8990-4544-be4b-ead551752d29","ios":"levelo://app?vid=77621d6b-8990-4544-be4b-ead551752d29"},"vehicle_type_id":"4","last_reported":1701241620,"current_range_meters":23600,"station_id":"","pricing_plan_id":"free"},{"bike_id":"946425de-70d9-45a0-adef-66ea274a517c","system_id":"levelo_inurba_marseille","lat":43.296935,"lon":5.376544,"is_reserved":false,"is_disabled":false,"rental_uris":{"android":"levelo://app?vid=946425de-70d9-45a0-adef-66ea274a517c","ios":"levelo://app?vid=946425de-70d9-45a0-adef-66ea274a517c"},"vehicle_type_id":"4","last_reported":1701241620,"current_range_meters":22800,"station_id":"ce4bgkh2rcd13ifvqbl0","pricing_plan_id":"free"},{"bike_id":"0f084686-7c0e-4856-9a3a-6a5a213db784","system_id":"levelo_inurba_marseille","lat":43.296935,"lon":5.376544,"is_reserved":false,"is_disabled":false,"rental_uris":{"android":"levelo://app?vid=0f084686-7c0e-4856-9a3a-6a5a213db784","ios":"levelo://app?vid=0f084686-7c0e-4856-9a3a-6a5a213db784"},"vehicle_type_id":"4","last_reported":1701241620,"current_range_meters":26000,"station_id":"ce4bgkh2rcd13ifvqbl0","pricing_plan_id":"free"},{"bike_id":"713dff16-d87d-42ff-aa62-c092065665c9","system_id":"levelo_inurba_marseille","lat":43.296921,"lon":5.376579,"is_reserved":false,"is_disabled":false,"rental_uris":{"android":"levelo://app?vid=713dff16-d87d-42ff-aa62-c092065665c9","ios":"levelo://app?vid=713dff16-d87d-42ff-aa62-c092065665c9"},"vehicle_type_id":"4","last_reported":1701241620,"current_range_meters":24800,"station_id":"ce4bgkh2rcd13ifvqbl0","pricing_plan_id":"free"},{"bike_id":"10724247-354a-47be-8250-1d69ddf5eaa6","system_id":"levelo_inurba_marseille","lat":43.298037,"lon":5.381066,"is_reserved":false,"is_disabled":false,"rental_uris":{"android":"levelo://app?vid=10724247-354a-47be-8250-1d69ddf5eaa6","ios":"levelo://app?vid=10724247-354a-47be-8250-1d69ddf5eaa6"},"vehicle_type_id":"4","last_reported":1701241620,"current_range_meters":18400,"station_id":"ce4bgip2rcd13ifvqbb0","pricing_plan_id":"free"},{"bike_id":"61c5a0ef-4077-46c9-81ee-03a65fe5a2dd","system_id":"levelo_inurba_marseille","lat":43.298037,"lon":5.381066,"is_reserved":false,"is_disabled":false,"rental_uris":{"android":"levelo://app?vid=61c5a0ef-4077-46c9-81ee-03a65fe5a2dd","ios":"levelo://app?vid=61c5a0ef-4077-46c9-81ee-03a65fe5a2dd"},"vehicle_type_id":"4","last_reported":1701241620,"current_range_meters":26000,"station_id":"ce4bgip2rcd13ifvqbb0","pricing_plan_id":"free"},{"bike_id":"e90530ab-f7ef-4224-8f9a-ad16fc28f10c","system_id":"levelo_inurba_marseille","lat":43.304278,"lon":5.388868,"is_reserved":false,"is_disabled":false,"rental_uris":{"android":"levelo://app?vid=e90530ab-f7ef-4224-8f9a-ad16fc28f10c","ios":"levelo://app?vid=e90530ab-f7ef-4224-8f9a-ad16fc28f10c"},"vehicle_type_id":"4","last_reported":1701241620,"current_range_meters":23600,"station_id":"ce4bgk12rcd13ifvqbi0","pricing_plan_id":"free"},{"bike_id":"9a88855c-1852-4673-86ad-2740ee9bb4a7","system_id":"levelo_inurba_marseille","lat":43.304274,"lon":5.388873,"is_reserved":false,"is_disabled":false,"rental_uris":{"android":"levelo://app?vid=9a88855c-1852-4673-86ad-2740ee9bb4a7","ios":"levelo://app?vid=9a88855c-1852-4673-86ad-2740ee9bb4a7"},"vehicle_type_id":"4","last_reported":1701241620,"current_range_meters":17200,"station_id":"ce4bgk12rcd13ifvqbi0","pricing_plan_id":"free"},{"bike_id":"18c7a4ad-37cb-4dfe-87d5-1316441dfda1","system_id":"levelo_inurba_marseille","lat":43.304278,"lon":5.388868,"is_reserved":false,"is_disabled":false,"rental_uris":{"android":"levelo://app?vid=18c7a4ad-37cb-4dfe-87d5-1316441dfda1","ios":"levelo://app?vid=18c7a4ad-37cb-4dfe-87d5-1316441dfda1"},"vehicle_type_id":"4","last_reported":1701241620,"current_range_meters":17200,"station_id":"ce4bgk12rcd13ifvqbi0","pricing_plan_id":"free"},{"bike_id":"f22cae37-0c9b-40a0-9b59-99e5d4c2eaed","system_id":"levelo_inurba_marseille","lat":43.29601,"lon":5.381084,"is_reserved":false,"is_disabled":false,"rental_uris":{"android":"levelo://app?vid=f22cae37-0c9b-40a0-9b59-99e5d4c2eaed","ios":"levelo://app?vid=f22cae37-0c9b-40a0-9b59-99e5d4c2eaed"},"vehicle_type_id":"4","last_reported":1701241620,"current_range_meters":26400,"station_id":"ce4bgl12rcd13ifvqbo0","pricing_plan_id":"free"},{"bike_id":"026c40b1-390b-4313-b64d-61e80e3be0e6","system_id":"levelo_inurba_marseille","lat":43.29277,"lon":5.36849,"is_reserved":false,"is_disabled":false,"rental_uris":{"android":"levelo://app?vid=026c40b1-390b-4313-b64d-61e80e3be0e6","ios":"levelo://app?vid=026c40b1-390b-4313-b64d-61e80e3be0e6"},"vehicle_type_id":"4","last_reported":1701241620,"current_range_meters":26000,"station_id":"ce4bhbp2rcd13ifvqesg","pricing_plan_id":"free"},{"bike_id":"c8247a9c-a4cc-411f-a398-840648f69741","system_id":"levelo_inurba_marseille","lat":43.30591,"lon":5.39352,"is_reserved":false,"is_disabled":false,"rental_uris":{"android":"levelo://app?vid=c8247a9c-a4cc-411f-a398-840648f69741","ios":"levelo://app?vid=c8247a9c-a4cc-411f-a398-840648f69741"},"vehicle_type_id":"4","last_reported":1701241620,"current_range_meters":24400,"station_id":"ce4bh0p2rcd13ifvqd80","pricing_plan_id":"free"},{"bike_id":"a8c819de-d2b6-4458-bc7b-a914cbc6a6db","system_id":"levelo_inurba_marseille","lat":43.2936,"lon":5.37835,"is_reserved":false,"is_disabled":false,"rental_uris":{"android":"levelo://app?vid=a8c819de-d2b6-4458-bc7b-a914cbc6a6db","ios":"levelo://app?vid=a8c819de-d2b6-4458-bc7b-a914cbc6a6db"},"vehicle_type_id":"4","last_reported":1701241620,"current_range_meters":18400,"station_id":"ce4bgjh2rcd13ifvqbf0","pricing_plan_id":"free"},{"bike_id":"6a35bb99-9541-4790-9273-d88b7e805fe9","system_id":"levelo_inurba_marseille","lat":43.291671,"lon":5.371575,"is_reserved":false,"is_disabled":false,"rental_uris":{"android":"levelo://app?vid=6a35bb99-9541-4790-9273-d88b7e805fe9","ios":"levelo://app?vid=6a35bb99-9541-4790-9273-d88b7e805fe9"},"vehicle_type_id":"4","last_reported":1701241620,"current_range_meters":18400,"station_id":"ce4bha92rcd13ifvqeh0","pricing_plan_id":"free"},{"bike_id":"102ade2d-f960-458d-8abc-98ca7997b622","system_id":"levelo_inurba_marseille","lat":43.29181,"lon":5.357995,"is_reserved":false,"is_disabled":false,"rental_uris":{"android":"levelo://app?vid=102ade2d-f960-458d-8abc-98ca7997b622","ios":"levelo://app?vid=102ade2d-f960-458d-8abc-98ca7997b622"},"vehicle_type_id":"4","last_reported":1701241620,"current_range_meters":22400,"station_id":"ce4bhb12rcd13ifvqel0","pricing_plan_id":"free"},{"bike_id":"9c8a7a2d-b7ea-45ed-8eaf-57683040af28","system_id":"levelo_inurba_marseille","lat":43.29529,"lon":5.385581,"is_reserved":false,"is_disabled":false,"rental_uris":{"android":"levelo://app?vid=9c8a7a2d-b7ea-45ed-8eaf-57683040af28","ios":"levelo://app?vid=9c8a7a2d-b7ea-45ed-8eaf-57683040af28"},"vehicle_type_id":"4","last_reported":1701241620,"current_range_meters":23600,"station_id":"ce4bgih2rcd13ifvqba0","pricing_plan_id":"free"},{"bike_id":"2631feac-027a-430e-83b8-349399e963c3","system_id":"levelo_inurba_marseille","lat":43.302008,"lon":5.394694,"is_reserved":false,"is_disabled":false,"rental_uris":{"android":"levelo://app?vid=2631feac-027a-430e-83b8-349399e963c3","ios":"levelo://app?vid=2631feac-027a-430e-83b8-349399e963c3"},"vehicle_type_id":"4","last_reported":1701241620,"current_range_meters":30800,"station_id":"ce4bh0p2rcd13ifvqd70","pricing_plan_id":"free"},{"bike_id":"22ab4310-fcf0-48f5-8964-1d6c296f429b","system_id":"levelo_inurba_marseille","lat":43.290631,"lon":5.359244,"is_reserved":false,"is_disabled":false,"rental_uris":{"android":"levelo://app?vid=22ab4310-fcf0-48f5-8964-1d6c296f429b","ios":"levelo://app?vid=22ab4310-fcf0-48f5-8964-1d6c296f429b"},"vehicle_type_id":"4","last_reported":1701241620,"current_range_meters":27200,"station_id":"ce4bha92rcd13ifvqeg0","pricing_plan_id":"free"},{"bike_id":"139ead67-5343-45d5-8d60-c6cea51dc681","system_id":"levelo_inurba_marseille","lat":43.290327,"lon":5.375711,"is_reserved":false,"is_disabled":false,"rental_uris":{"android":"levelo://app?vid=139ead67-5343-45d5-8d60-c6cea51dc681","ios":"levelo://app?vid=139ead67-5343-45d5-8d60-c6cea51dc681"},"vehicle_type_id":"4","last_reported":1701241620,"current_range_meters":18000,"station_id":"ce4bh692rcd13ifvqe90","pricing_plan_id":"free"},{"bike_id":"fe34994d-06c1-4151-8640-d0eae889efb0","system_id":"levelo_inurba_marseille","lat":43.290327,"lon":5.375711,"is_reserved":false,"is_disabled":false,"rental_uris":{"android":"levelo://app?vid=fe34994d-06c1-4151-8640-d0eae889efb0","ios":"levelo://app?vid=fe34994d-06c1-4151-8640-d0eae889efb0"},"vehicle_type_id":"4","last_reported":1701241620,"current_range_meters":20800,"station_id":"ce4bh692rcd13ifvqe90","pricing_plan_id":"free"},{"bike_id":"13ebe3ec-8116-48f0-94cb-c35e9c78e731","system_id":"levelo_inurba_marseille","lat":43.289184,"lon":5.366408,"is_reserved":false,"is_disabled":false,"rental_uris":{"android":"levelo://app?vid=13ebe3ec-8116-48f0-94cb-c35e9c78e731","ios":"levelo://app?vid=13ebe3ec-8116-48f0-94cb-c35e9c78e731"},"vehicle_type_id":"4","last_reported":1701241620,"current_range_meters":1600,"station_id":"ce4bhap2rcd13ifvqek0","pricing_plan_id":"free"},{"bike_id":"c80ff3fc-20e2-4a8e-803b-88a06705d9d1","system_id":"levelo_inurba_marseille","lat":43.289326,"lon":5.363936,"is_reserved":false,"is_disabled":false,"rental_uris":{"android":"levelo://app?vid=c80ff3fc-20e2-4a8e-803b-88a06705d9d1","ios":"levelo://app?vid=c80ff3fc-20e2-4a8e-803b-88a06705d9d1"},"vehicle_type_id":"4","last_reported":1701241620,"current_range_meters":31200,"station_id":"ce4bhc92rcd13ifvqetg","pricing_plan_id":"free"},{"bike_id":"398e3a20-eae1-4026-bd15-5892544ad019","system_id":"levelo_inurba_marseille","lat":43.292644,"lon":5.384257,"is_reserved":false,"is_disabled":false,"rental_uris":{"android":"levelo://app?vid=398e3a20-eae1-4026-bd15-5892544ad019","ios":"levelo://app?vid=398e3a20-eae1-4026-bd15-5892544ad019"},"vehicle_type_id":"4","last_reported":1701241620,"current_range_meters":29200,"station_id":"ce4bh692rcd13ifvqea0","pricing_plan_id":"free"},{"bike_id":"408c60ee-7080-4467-b367-353eda2b2d1f","system_id":"levelo_inurba_marseille","lat":43.290104,"lon":5.356111,"is_reserved":false,"is_disabled":false,"rental_uris":{"android":"levelo://app?vid=408c60ee-7080-4467-b367-353eda2b2d1f","ios":"levelo://app?vid=408c60ee-7080-4467-b367-353eda2b2d1f"},"vehicle_type_id":"4","last_reported":1701241620,"current_range_meters":18800,"station_id":"ce4bhb92rcd13ifvqen0","pricing_plan_id":"free"},{"bike_id":"09e33770-cca2-475c-aa72-6082aed9d172","system_id":"levelo_inurba_marseille","lat":43.289743,"lon":5.378304,"is_reserved":false,"is_disabled":false,"rental_uris":{"android":"levelo://app?vid=09e33770-cca2-475c-aa72-6082aed9d172","ios":"levelo://app?vid=09e33770-cca2-475c-aa72-6082aed9d172"},"vehicle_type_id":"4","last_reported":1701241620,"current_range_meters":15600,"station_id":"ce4bh9p2rcd13ifvqed0","pricing_plan_id":"free"},{"bike_id":"e6eae51a-ae54-47b4-89bf-f7d10192261d","system_id":"levelo_inurba_marseille","lat":43.28856,"lon":5.358371,"is_reserved":false,"is_disabled":false,"rental_uris":{"android":"levelo://app?vid=e6eae51a-ae54-47b4-89bf-f7d10192261d","ios":"levelo://app?vid=e6eae51a-ae54-47b4-89bf-f7d10192261d"},"vehicle_type_id":"4","last_reported":1701241620,"current_range_meters":29200,"station_id":"ce4bhb12rcd13ifvqem0","pricing_plan_id":"free"},{"bike_id":"c07f0312-a415-4cc2-81a0-38436b7503c9","system_id":"levelo_inurba_marseille","lat":43.286593,"lon":5.363346,"is_reserved":false,"is_disabled":false,"rental_uris":{"android":"levelo://app?vid=c07f0312-a415-4cc2-81a0-38436b7503c9","ios":"levelo://app?vid=c07f0312-a415-4cc2-81a0-38436b7503c9"},"vehicle_type_id":"4","last_reported":1701241620,"current_range_meters":31200,"station_id":"ce4bhah2rcd13ifvqej0","pricing_plan_id":"free"},{"bike_id":"50bada01-5851-437c-9dbf-0054c2a582d8","system_id":"levelo_inurba_marseille","lat":43.286637,"lon":5.363527,"is_reserved":false,"is_disabled":false,"rental_uris":{"android":"levelo://app?vid=50bada01-5851-437c-9dbf-0054c2a582d8","ios":"levelo://app?vid=50bada01-5851-437c-9dbf-0054c2a582d8"},"vehicle_type_id":"4","last_reported":1701241620,"current_range_meters":29200,"station_id":"ce4bhah2rcd13ifvqej0","pricing_plan_id":"free"},{"bike_id":"30c45fe2-b2ba-4e48-8d49-eed8867edfc8","system_id":"levelo_inurba_marseille","lat":43.29036,"lon":5.38625,"is_reserved":false,"is_disabled":false,"rental_uris":{"android":"levelo://app?vid=30c45fe2-b2ba-4e48-8d49-eed8867edfc8","ios":"levelo://app?vid=30c45fe2-b2ba-4e48-8d49-eed8867edfc8"},"vehicle_type_id":"4","last_reported":1701241620,"current_range_meters":16000,"station_id":"ce4bh4p2rcd13ifvqe0g","pricing_plan_id":"free"},{"bike_id":"077d67a1-aa39-4263-8019-fa09806a4383","system_id":"levelo_inurba_marseille","lat":43.295196,"lon":5.39397,"is_reserved":false,"is_disabled":false,"rental_uris":{"android":"levelo://app?vid=077d67a1-aa39-4263-8019-fa09806a4383","ios":"levelo://app?vid=077d67a1-aa39-4263-8019-fa09806a4383"},"vehicle_type_id":"4","last_reported":1701241620,"current_range_meters":25200,"station_id":"ce4bh292rcd13ifvqdf0","pricing_plan_id":"free"},{"bike_id":"3cfc9a07-5023-4b30-a230-50f8a643de3f","system_id":"levelo_inurba_marseille","lat":43.29033,"lon":5.38639,"is_reserved":false,"is_disabled":false,"rental_uris":{"android":"levelo://app?vid=3cfc9a07-5023-4b30-a230-50f8a643de3f","ios":"levelo://app?vid=3cfc9a07-5023-4b30-a230-50f8a643de3f"},"vehicle_type_id":"4","last_reported":1701241620,"current_range_meters":25600,"station_id":"ce4bh4p2rcd13ifvqe0g","pricing_plan_id":"free"},{"bike_id":"7917fa53-6963-43f9-8b2b-53285c302afc","system_id":"levelo_inurba_marseille","lat":43.29032,"lon":5.38639,"is_reserved":false,"is_disabled":false,"rental_uris":{"android":"levelo://app?vid=7917fa53-6963-43f9-8b2b-53285c302afc","ios":"levelo://app?vid=7917fa53-6963-43f9-8b2b-53285c302afc"},"vehicle_type_id":"4","last_reported":1701241620,"current_range_meters":24800,"station_id":"ce4bh4p2rcd13ifvqe0g","pricing_plan_id":"free"},{"bike_id":"cc49429d-50fa-45e4-8b8a-d9e7c64ca855","system_id":"levelo_inurba_marseille","lat":43.29031,"lon":5.38637,"is_reserved":false,"is_disabled":false,"rental_uris":{"android":"levelo://app?vid=cc49429d-50fa-45e4-8b8a-d9e7c64ca855","ios":"levelo://app?vid=cc49429d-50fa-45e4-8b8a-d9e7c64ca855"},"vehicle_type_id":"4","last_reported":1701241620,"current_range_meters":24000,"station_id":"ce4bh4p2rcd13ifvqe0g","pricing_plan_id":"free"},{"bike_id":"9656537a-041c-4618-8c3b-f9d3038784ac","system_id":"levelo_inurba_marseille","lat":43.302759,"lon":5.400793,"is_reserved":false,"is_disabled":false,"rental_uris":{"android":"levelo://app?vid=9656537a-041c-4618-8c3b-f9d3038784ac","ios":"levelo://app?vid=9656537a-041c-4618-8c3b-f9d3038784ac"},"vehicle_type_id":"4","last_reported":1701241620,"current_range_meters":25200,"station_id":"ce4bgvh2rcd13ifvqcs0","pricing_plan_id":"free"},{"bike_id":"9c170648-b835-4ed8-b22f-974e731efb3e","system_id":"levelo_inurba_marseille","lat":43.286039,"lon":5.370681,"is_reserved":false,"is_disabled":false,"rental_uris":{"android":"levelo://app?vid=9c170648-b835-4ed8-b22f-974e731efb3e","ios":"levelo://app?vid=9c170648-b835-4ed8-b22f-974e731efb3e"},"vehicle_type_id":"4","last_reported":1701241620,"current_range_meters":4000,"station_id":"ce4bht12rcd13ifvqi60","pricing_plan_id":"free"},{"bike_id":"c239f0a3-34fa-44d9-a9dd-172246a53bdc","system_id":"levelo_inurba_marseille","lat":43.302759,"lon":5.400793,"is_reserved":false,"is_disabled":false,"rental_uris":{"android":"levelo://app?vid=c239f0a3-34fa-44d9-a9dd-172246a53bdc","ios":"levelo://app?vid=c239f0a3-34fa-44d9-a9dd-172246a53bdc"},"vehicle_type_id":"4","last_reported":1701241620,"current_range_meters":20000,"station_id":"ce4bgvh2rcd13ifvqcs0","pricing_plan_id":"free"},{"bike_id":"dfc05481-23de-4a65-897e-1a605de39f72","system_id":"levelo_inurba_marseille","lat":43.316517,"lon":5.404375,"is_reserved":false,"is_disabled":false,"rental_uris":{"android":"levelo://app?vid=dfc05481-23de-4a65-897e-1a605de39f72","ios":"levelo://app?vid=dfc05481-23de-4a65-897e-1a605de39f72"},"vehicle_type_id":"4","last_reported":1701241620,"current_range_meters":25600,"station_id":"ce4bh012rcd13ifvqd00","pricing_plan_id":"free"},{"bike_id":"13ef9b81-dddf-4300-b06a-fa2d7b791a32","system_id":"levelo_inurba_marseille","lat":43.292014,"lon":5.393263,"is_reserved":false,"is_disabled":false,"rental_uris":{"android":"levelo://app?vid=13ef9b81-dddf-4300-b06a-fa2d7b791a32","ios":"levelo://app?vid=13ef9b81-dddf-4300-b06a-fa2d7b791a32"},"vehicle_type_id":"4","last_reported":1701241620,"current_range_meters":1600,"station_id":"ce4bh192rcd13ifvqdd0","pricing_plan_id":"free"},{"bike_id":"93d9451c-c3a1-4b35-90c3-bfd0a18174e0","system_id":"levelo_inurba_marseille","lat":43.284538,"lon":5.358657,"is_reserved":false,"is_disabled":false,"rental_uris":{"android":"levelo://app?vid=93d9451c-c3a1-4b35-90c3-bfd0a18174e0","ios":"levelo://app?vid=93d9451c-c3a1-4b35-90c3-bfd0a18174e0"},"vehicle_type_id":"4","last_reported":1701241620,"current_range_meters":30800,"station_id":"ce4bhah2rcd13ifvqei0","pricing_plan_id":"free"},{"bike_id":"f7fc56f7-cc38-4c28-bd44-02aab841140f","system_id":"levelo_inurba_marseille","lat":43.286164,"lon":5.351076,"is_reserved":false,"is_disabled":false,"rental_uris":{"android":"levelo://app?vid=f7fc56f7-cc38-4c28-bd44-02aab841140f","ios":"levelo://app?vid=f7fc56f7-cc38-4c28-bd44-02aab841140f"},"vehicle_type_id":"4","last_reported":1701241620,"current_range_meters":22000,"station_id":"ce4bhch2rcd13ifvqeug","pricing_plan_id":"free"},{"bike_id":"3f40e40e-75ed-4454-949d-fbbacd6c313f","system_id":"levelo_inurba_marseille","lat":43.283998,"lon":5.375062,"is_reserved":false,"is_disabled":false,"rental_uris":{"android":"levelo://app?vid=3f40e40e-75ed-4454-949d-fbbacd6c313f","ios":"levelo://app?vid=3f40e40e-75ed-4454-949d-fbbacd6c313f"},"vehicle_type_id":"4","last_reported":1701241620,"current_range_meters":11200,"station_id":"ce4bh412rcd13ifvqds0","pricing_plan_id":"free"},{"bike_id":"3b795f4d-82e4-44ac-93ef-000f051093fa","system_id":"levelo_inurba_marseille","lat":43.283998,"lon":5.375062,"is_reserved":false,"is_disabled":false,"rental_uris":{"android":"levelo://app?vid=3b795f4d-82e4-44ac-93ef-000f051093fa","ios":"levelo://app?vid=3b795f4d-82e4-44ac-93ef-000f051093fa"},"vehicle_type_id":"4","last_reported":1701241620,"current_range_meters":28800,"station_id":"ce4bh412rcd13ifvqds0","pricing_plan_id":"free"},{"bike_id":"d4d75069-67e2-4cc3-badd-8e669865f20d","system_id":"levelo_inurba_marseille","lat":43.295713,"lon":5.399639,"is_reserved":false,"is_disabled":false,"rental_uris":{"android":"levelo://app?vid=d4d75069-67e2-4cc3-badd-8e669865f20d","ios":"levelo://app?vid=d4d75069-67e2-4cc3-badd-8e669865f20d"},"vehicle_type_id":"4","last_reported":1701241620,"current_range_meters":28000,"station_id":"ce4bh312rcd13ifvqdj0","pricing_plan_id":"free"},{"bike_id":"7004b651-298f-4534-9dc2-d6c58a53bdb9","system_id":"levelo_inurba_marseille","lat":43.295694,"lon":5.399807,"is_reserved":false,"is_disabled":false,"rental_uris":{"android":"levelo://app?vid=7004b651-298f-4534-9dc2-d6c58a53bdb9","ios":"levelo://app?vid=7004b651-298f-4534-9dc2-d6c58a53bdb9"},"vehicle_type_id":"4","last_reported":1701241620,"current_range_meters":27600,"station_id":"ce4bh312rcd13ifvqdj0","pricing_plan_id":"free"},{"bike_id":"8f919d1c-4563-4250-9c8d-46b61add1583","system_id":"levelo_inurba_marseille","lat":43.295687,"lon":5.399803,"is_reserved":false,"is_disabled":false,"rental_uris":{"android":"levelo://app?vid=8f919d1c-4563-4250-9c8d-46b61add1583","ios":"levelo://app?vid=8f919d1c-4563-4250-9c8d-46b61add1583"},"vehicle_type_id":"4","last_reported":1701241620,"current_range_meters":27600,"station_id":"ce4bh312rcd13ifvqdj0","pricing_plan_id":"free"},{"bike_id":"d374d94d-0b12-427d-9578-63a8e466f683","system_id":"levelo_inurba_marseille","lat":43.284787,"lon":5.384116,"is_reserved":false,"is_disabled":false,"rental_uris":{"android":"levelo://app?vid=d374d94d-0b12-427d-9578-63a8e466f683","ios":"levelo://app?vid=d374d94d-0b12-427d-9578-63a8e466f683"},"vehicle_type_id":"4","last_reported":1701241620,"current_range_meters":14400,"station_id":"ce4bh512rcd13ifvqe3g","pricing_plan_id":"free"},{"bike_id":"08f18a58-04e6-4cf4-aca5-b83202313fc9","system_id":"levelo_inurba_marseille","lat":43.288547,"lon":5.39303,"is_reserved":false,"is_disabled":false,"rental_uris":{"android":"levelo://app?vid=08f18a58-04e6-4cf4-aca5-b83202313fc9","ios":"levelo://app?vid=08f18a58-04e6-4cf4-aca5-b83202313fc9"},"vehicle_type_id":"4","last_reported":1701241620,"current_range_meters":0,"station_id":"ce4bh2p2rcd13ifvqdi0","pricing_plan_id":"free"},{"bike_id":"89e0ec23-af88-48bc-aa66-0a6d894db2a2","system_id":"levelo_inurba_marseille","lat":43.289363,"lon":5.396322,"is_reserved":false,"is_disabled":false,"rental_uris":{"android":"levelo://app?vid=89e0ec23-af88-48bc-aa66-0a6d894db2a2","ios":"levelo://app?vid=89e0ec23-af88-48bc-aa66-0a6d894db2a2"},"vehicle_type_id":"4","last_reported":1701241620,"current_range_meters":13600,"station_id":"ce4bh3h2rcd13ifvqdn0","pricing_plan_id":"free"},{"bike_id":"0dd6043f-68cc-4dd0-a5a1-bd5614a8b9d0","system_id":"levelo_inurba_marseille","lat":43.289363,"lon":5.396322,"is_reserved":false,"is_disabled":false,"rental_uris":{"android":"levelo://app?vid=0dd6043f-68cc-4dd0-a5a1-bd5614a8b9d0","ios":"levelo://app?vid=0dd6043f-68cc-4dd0-a5a1-bd5614a8b9d0"},"vehicle_type_id":"4","last_reported":1701241620,"current_range_meters":30400,"station_id":"ce4bh3h2rcd13ifvqdn0","pricing_plan_id":"free"},{"bike_id":"3a9d94cf-d9ff-40c9-9943-4d8b3ad0e994","system_id":"levelo_inurba_marseille","lat":43.289363,"lon":5.396322,"is_reserved":false,"is_disabled":false,"rental_uris":{"android":"levelo://app?vid=3a9d94cf-d9ff-40c9-9943-4d8b3ad0e994","ios":"levelo://app?vid=3a9d94cf-d9ff-40c9-9943-4d8b3ad0e994"},"vehicle_type_id":"4","last_reported":1701241620,"current_range_meters":28400,"station_id":"ce4bh3h2rcd13ifvqdn0","pricing_plan_id":"free"},{"bike_id":"f8e93a5f-b85d-4c01-8630-1453bb55b231","system_id":"levelo_inurba_marseille","lat":43.2827,"lon":5.35072,"is_reserved":false,"is_disabled":false,"rental_uris":{"android":"levelo://app?vid=f8e93a5f-b85d-4c01-8630-1453bb55b231","ios":"levelo://app?vid=f8e93a5f-b85d-4c01-8630-1453bb55b231"},"vehicle_type_id":"4","last_reported":1701241620,"current_range_meters":31200,"station_id":"ce4bhbp2rcd13ifvqerg","pricing_plan_id":"free"},{"bike_id":"7cab3f8d-f8d9-4c6f-9940-3a2d51219c66","system_id":"levelo_inurba_marseille","lat":43.282754,"lon":5.350519,"is_reserved":false,"is_disabled":false,"rental_uris":{"android":"levelo://app?vid=7cab3f8d-f8d9-4c6f-9940-3a2d51219c66","ios":"levelo://app?vid=7cab3f8d-f8d9-4c6f-9940-3a2d51219c66"},"vehicle_type_id":"4","last_reported":1701241620,"current_range_meters":28400,"station_id":"ce4bhbp2rcd13ifvqerg","pricing_plan_id":"free"},{"bike_id":"e4aeb4f8-feae-40be-9dd8-4f8912d79314","system_id":"levelo_inurba_marseille","lat":43.282744,"lon":5.350533,"is_reserved":false,"is_disabled":false,"rental_uris":{"android":"levelo://app?vid=e4aeb4f8-feae-40be-9dd8-4f8912d79314","ios":"levelo://app?vid=e4aeb4f8-feae-40be-9dd8-4f8912d79314"},"vehicle_type_id":"4","last_reported":1701241620,"current_range_meters":27600,"station_id":"ce4bhbp2rcd13ifvqerg","pricing_plan_id":"free"},{"bike_id":"d5956e3d-d3de-48b3-9bec-2beb921f893f","system_id":"levelo_inurba_marseille","lat":43.282627,"lon":5.350824,"is_reserved":false,"is_disabled":false,"rental_uris":{"android":"levelo://app?vid=d5956e3d-d3de-48b3-9bec-2beb921f893f","ios":"levelo://app?vid=d5956e3d-d3de-48b3-9bec-2beb921f893f"},"vehicle_type_id":"4","last_reported":1701241620,"current_range_meters":19200,"station_id":"ce4bhbp2rcd13ifvqerg","pricing_plan_id":"free"},{"bike_id":"f947ac04-b32d-4416-b67f-d60000149146","system_id":"levelo_inurba_marseille","lat":43.282651,"lon":5.350724,"is_reserved":false,"is_disabled":false,"rental_uris":{"android":"levelo://app?vid=f947ac04-b32d-4416-b67f-d60000149146","ios":"levelo://app?vid=f947ac04-b32d-4416-b67f-d60000149146"},"vehicle_type_id":"4","last_reported":1701241620,"current_range_meters":30400,"station_id":"ce4bhbp2rcd13ifvqerg","pricing_plan_id":"free"},{"bike_id":"b4dabb5f-589c-4003-a4b5-f76e254cd53f","system_id":"levelo_inurba_marseille","lat":43.290412,"lon":5.399633,"is_reserved":false,"is_disabled":false,"rental_uris":{"android":"levelo://app?vid=b4dabb5f-589c-4003-a4b5-f76e254cd53f","ios":"levelo://app?vid=b4dabb5f-589c-4003-a4b5-f76e254cd53f"},"vehicle_type_id":"4","last_reported":1701241620,"current_range_meters":22400,"station_id":"ce4bh392rcd13ifvqdm0","pricing_plan_id":"free"},{"bike_id":"9b488ac3-ef99-4601-b01c-81499f798224","system_id":"levelo_inurba_marseille","lat":43.284468,"lon":5.391886,"is_reserved":false,"is_disabled":false,"rental_uris":{"android":"levelo://app?vid=9b488ac3-ef99-4601-b01c-81499f798224","ios":"levelo://app?vid=9b488ac3-ef99-4601-b01c-81499f798224"},"vehicle_type_id":"4","last_reported":1701241620,"current_range_meters":3600,"station_id":"ce4bhoh2rcd13ifvqh5g","pricing_plan_id":"free"},{"bike_id":"91d5a3ba-2b12-40f6-84a3-9eb5a1f67721","system_id":"levelo_inurba_marseille","lat":43.28573,"lon":5.394992,"is_reserved":false,"is_disabled":false,"rental_uris":{"android":"levelo://app?vid=91d5a3ba-2b12-40f6-84a3-9eb5a1f67721","ios":"levelo://app?vid=91d5a3ba-2b12-40f6-84a3-9eb5a1f67721"},"vehicle_type_id":"4","last_reported":1701241620,"current_range_meters":31200,"station_id":"ce4bh292rcd13ifvqdg0","pricing_plan_id":"free"},{"bike_id":"d9fc4c34-5827-4f2e-b9e1-d36f824750fa","system_id":"levelo_inurba_marseille","lat":43.287154,"lon":5.399979,"is_reserved":false,"is_disabled":false,"rental_uris":{"android":"levelo://app?vid=d9fc4c34-5827-4f2e-b9e1-d36f824750fa","ios":"levelo://app?vid=d9fc4c34-5827-4f2e-b9e1-d36f824750fa"},"vehicle_type_id":"4","last_reported":1701241620,"current_range_meters":25600,"station_id":"ce4bho92rcd13ifvqh3g","pricing_plan_id":"free"},{"bike_id":"049ed538-7c27-4312-8a31-44988f3c0341","system_id":"levelo_inurba_marseille","lat":43.287154,"lon":5.399979,"is_reserved":false,"is_disabled":false,"rental_uris":{"android":"levelo://app?vid=049ed538-7c27-4312-8a31-44988f3c0341","ios":"levelo://app?vid=049ed538-7c27-4312-8a31-44988f3c0341"},"vehicle_type_id":"4","last_reported":1701241620,"current_range_meters":25600,"station_id":"ce4bho92rcd13ifvqh3g","pricing_plan_id":"free"},{"bike_id":"1373dee5-64ea-41c9-818e-9b99e322fed3","system_id":"levelo_inurba_marseille","lat":43.279742,"lon":5.38744,"is_reserved":false,"is_disabled":false,"rental_uris":{"android":"levelo://app?vid=1373dee5-64ea-41c9-818e-9b99e322fed3","ios":"levelo://app?vid=1373dee5-64ea-41c9-818e-9b99e322fed3"},"vehicle_type_id":"4","last_reported":1701241620,"current_range_meters":27600,"station_id":"ce4bhg12rcd13ifvqf80","pricing_plan_id":"free"},{"bike_id":"553703cc-a198-4b7c-b4f7-88e7d2d9a97c","system_id":"levelo_inurba_marseille","lat":43.299579,"lon":5.413255,"is_reserved":false,"is_disabled":false,"rental_uris":{"android":"levelo://app?vid=553703cc-a198-4b7c-b4f7-88e7d2d9a97c","ios":"levelo://app?vid=553703cc-a198-4b7c-b4f7-88e7d2d9a97c"},"vehicle_type_id":"4","last_reported":1701241620,"current_range_meters":23600,"station_id":"ce4bhp12rcd13ifvqh9g","pricing_plan_id":"free"},{"bike_id":"4fe985bd-74e4-4621-b979-a503dcf57f97","system_id":"levelo_inurba_marseille","lat":43.279742,"lon":5.38744,"is_reserved":false,"is_disabled":false,"rental_uris":{"android":"levelo://app?vid=4fe985bd-74e4-4621-b979-a503dcf57f97","ios":"levelo://app?vid=4fe985bd-74e4-4621-b979-a503dcf57f97"},"vehicle_type_id":"4","last_reported":1701241620,"current_range_meters":22000,"station_id":"ce4bhg12rcd13ifvqf80","pricing_plan_id":"free"},{"bike_id":"0847ecd8-2b41-47a9-9f7a-3b798b565d9e","system_id":"levelo_inurba_marseille","lat":43.279742,"lon":5.38744,"is_reserved":false,"is_disabled":false,"rental_uris":{"android":"levelo://app?vid=0847ecd8-2b41-47a9-9f7a-3b798b565d9e","ios":"levelo://app?vid=0847ecd8-2b41-47a9-9f7a-3b798b565d9e"},"vehicle_type_id":"4","last_reported":1701241620,"current_range_meters":0,"station_id":"ce4bhg12rcd13ifvqf80","pricing_plan_id":"free"},{"bike_id":"f440b6d6-d6ad-44d6-9170-a56b5a365c08","system_id":"levelo_inurba_marseille","lat":43.325243,"lon":5.414326,"is_reserved":false,"is_disabled":false,"rental_uris":{"android":"levelo://app?vid=f440b6d6-d6ad-44d6-9170-a56b5a365c08","ios":"levelo://app?vid=f440b6d6-d6ad-44d6-9170-a56b5a365c08"},"vehicle_type_id":"4","last_reported":1701241620,"current_range_meters":28000,"station_id":"ce4bhq12rcd13ifvqhhg","pricing_plan_id":"free"},{"bike_id":"78b9a0c9-532c-4f22-a904-93f9c06d6408","system_id":"levelo_inurba_marseille","lat":43.325243,"lon":5.414326,"is_reserved":false,"is_disabled":false,"rental_uris":{"android":"levelo://app?vid=78b9a0c9-532c-4f22-a904-93f9c06d6408","ios":"levelo://app?vid=78b9a0c9-532c-4f22-a904-93f9c06d6408"},"vehicle_type_id":"4","last_reported":1701241620,"current_range_meters":1200,"station_id":"ce4bhq12rcd13ifvqhhg","pricing_plan_id":"free"},{"bike_id":"f6e90825-65ec-4964-9417-189b4a200682","system_id":"levelo_inurba_marseille","lat":43.325233,"lon":5.414318,"is_reserved":false,"is_disabled":false,"rental_uris":{"android":"levelo://app?vid=f6e90825-65ec-4964-9417-189b4a200682","ios":"levelo://app?vid=f6e90825-65ec-4964-9417-189b4a200682"},"vehicle_type_id":"4","last_reported":1701241620,"current_range_meters":21600,"station_id":"ce4bhq12rcd13ifvqhhg","pricing_plan_id":"free"},{"bike_id":"3f88d6aa-2d97-4de9-be75-71ae91297956","system_id":"levelo_inurba_marseille","lat":43.280784,"lon":5.396622,"is_reserved":false,"is_disabled":false,"rental_uris":{"android":"levelo://app?vid=3f88d6aa-2d97-4de9-be75-71ae91297956","ios":"levelo://app?vid=3f88d6aa-2d97-4de9-be75-71ae91297956"},"vehicle_type_id":"4","last_reported":1701241620,"current_range_meters":11600,"station_id":"ce4bho12rcd13ifvqh2g","pricing_plan_id":"free"},{"bike_id":"0905c720-e95a-4aae-ac4f-dfe1721885e2","system_id":"levelo_inurba_marseille","lat":43.278401,"lon":5.392152,"is_reserved":false,"is_disabled":false,"rental_uris":{"android":"levelo://app?vid=0905c720-e95a-4aae-ac4f-dfe1721885e2","ios":"levelo://app?vid=0905c720-e95a-4aae-ac4f-dfe1721885e2"},"vehicle_type_id":"4","last_reported":1701241620,"current_range_meters":19600,"station_id":"ce4bhjp2rcd13ifvqga0","pricing_plan_id":"free"},{"bike_id":"8603bfec-66f0-4231-a6a6-358139cdc311","system_id":"levelo_inurba_marseille","lat":43.336134,"lon":5.410341,"is_reserved":false,"is_disabled":false,"rental_uris":{"android":"levelo://app?vid=8603bfec-66f0-4231-a6a6-358139cdc311","ios":"levelo://app?vid=8603bfec-66f0-4231-a6a6-358139cdc311"},"vehicle_type_id":"4","last_reported":1701241620,"current_range_meters":20000,"station_id":"ce4bhqh2rcd13ifvqhmg","pricing_plan_id":"free"},{"bike_id":"7532d6b6-049d-45a6-864e-4f7e9895beee","system_id":"levelo_inurba_marseille","lat":43.336148,"lon":5.410349,"is_reserved":false,"is_disabled":false,"rental_uris":{"android":"levelo://app?vid=7532d6b6-049d-45a6-864e-4f7e9895beee","ios":"levelo://app?vid=7532d6b6-049d-45a6-864e-4f7e9895beee"},"vehicle_type_id":"4","last_reported":1701241620,"current_range_meters":25200,"station_id":"ce4bhqh2rcd13ifvqhmg","pricing_plan_id":"free"},{"bike_id":"df50b5d9-5f53-497f-ae5c-508414f7e8a5","system_id":"levelo_inurba_marseille","lat":43.336134,"lon":5.410341,"is_reserved":false,"is_disabled":false,"rental_uris":{"android":"levelo://app?vid=df50b5d9-5f53-497f-ae5c-508414f7e8a5","ios":"levelo://app?vid=df50b5d9-5f53-497f-ae5c-508414f7e8a5"},"vehicle_type_id":"4","last_reported":1701241620,"current_range_meters":24800,"station_id":"ce4bhqh2rcd13ifvqhmg","pricing_plan_id":"free"},{"bike_id":"42cbd211-cbcb-479e-a7b9-21d55a10e5cb","system_id":"levelo_inurba_marseille","lat":43.317121,"lon":5.423936,"is_reserved":false,"is_disabled":false,"rental_uris":{"android":"levelo://app?vid=42cbd211-cbcb-479e-a7b9-21d55a10e5cb","ios":"levelo://app?vid=42cbd211-cbcb-479e-a7b9-21d55a10e5cb"},"vehicle_type_id":"4","last_reported":1701241620,"current_range_meters":30000,"station_id":"ce4bhp92rcd13ifvqhbg","pricing_plan_id":"free"},{"bike_id":"51f8e526-ce47-4cb8-8945-30e418a5691a","system_id":"levelo_inurba_marseille","lat":43.340804,"lon":5.410219,"is_reserved":false,"is_disabled":false,"rental_uris":{"android":"levelo://app?vid=51f8e526-ce47-4cb8-8945-30e418a5691a","ios":"levelo://app?vid=51f8e526-ce47-4cb8-8945-30e418a5691a"},"vehicle_type_id":"4","last_reported":1701241620,"current_range_meters":12000,"station_id":"ce4bhqh2rcd13ifvqhlg","pricing_plan_id":"free"},{"bike_id":"208279bc-1d9d-4e42-be06-d13174c03725","system_id":"levelo_inurba_marseille","lat":43.274103,"lon":5.394016,"is_reserved":false,"is_disabled":false,"rental_uris":{"android":"levelo://app?vid=208279bc-1d9d-4e42-be06-d13174c03725","ios":"levelo://app?vid=208279bc-1d9d-4e42-be06-d13174c03725"},"vehicle_type_id":"4","last_reported":1701241620,"current_range_meters":28000,"station_id":"ce4bhdp2rcd13ifvqf20","pricing_plan_id":"free"},{"bike_id":"bbbc8bab-d5e8-4f0e-9f1f-91f8f3ed99d9","system_id":"levelo_inurba_marseille","lat":43.30415,"lon":5.42537,"is_reserved":false,"is_disabled":false,"rental_uris":{"android":"levelo://app?vid=bbbc8bab-d5e8-4f0e-9f1f-91f8f3ed99d9","ios":"levelo://app?vid=bbbc8bab-d5e8-4f0e-9f1f-91f8f3ed99d9"},"vehicle_type_id":"4","last_reported":1701241620,"current_range_meters":29200,"station_id":"ce4bhoh2rcd13ifvqh6g","pricing_plan_id":"free"},{"bike_id":"535af48f-e98d-47b7-9c1c-791700fcb0b9","system_id":"levelo_inurba_marseille","lat":43.304096,"lon":5.425385,"is_reserved":false,"is_disabled":false,"rental_uris":{"android":"levelo://app?vid=535af48f-e98d-47b7-9c1c-791700fcb0b9","ios":"levelo://app?vid=535af48f-e98d-47b7-9c1c-791700fcb0b9"},"vehicle_type_id":"4","last_reported":1701241620,"current_range_meters":28800,"station_id":"ce4bhoh2rcd13ifvqh6g","pricing_plan_id":"free"},{"bike_id":"7d7043b5-0af9-4f8a-9945-a3a778c73f6d","system_id":"levelo_inurba_marseille","lat":43.304096,"lon":5.425385,"is_reserved":false,"is_disabled":false,"rental_uris":{"android":"levelo://app?vid=7d7043b5-0af9-4f8a-9945-a3a778c73f6d","ios":"levelo://app?vid=7d7043b5-0af9-4f8a-9945-a3a778c73f6d"},"vehicle_type_id":"4","last_reported":1701241620,"current_range_meters":21200,"station_id":"ce4bhoh2rcd13ifvqh6g","pricing_plan_id":"free"},{"bike_id":"ae0f6155-31e5-44f4-89ef-d2360e8a26c9","system_id":"levelo_inurba_marseille","lat":43.295511,"lon":5.422926,"is_reserved":false,"is_disabled":false,"rental_uris":{"android":"levelo://app?vid=ae0f6155-31e5-44f4-89ef-d2360e8a26c9","ios":"levelo://app?vid=ae0f6155-31e5-44f4-89ef-d2360e8a26c9"},"vehicle_type_id":"4","last_reported":1701241620,"current_range_meters":28000,"station_id":"ce4bhph2rcd13ifvqhdg","pricing_plan_id":"free"},{"bike_id":"8602d9c8-fd6b-4aa8-a389-2b99d8394dfc","system_id":"levelo_inurba_marseille","lat":43.295511,"lon":5.422926,"is_reserved":false,"is_disabled":false,"rental_uris":{"android":"levelo://app?vid=8602d9c8-fd6b-4aa8-a389-2b99d8394dfc","ios":"levelo://app?vid=8602d9c8-fd6b-4aa8-a389-2b99d8394dfc"},"vehicle_type_id":"4","last_reported":1701241620,"current_range_meters":28400,"station_id":"ce4bhph2rcd13ifvqhdg","pricing_plan_id":"free"},{"bike_id":"ba334ea1-b9a0-4c51-a6c5-0b53984e59f9","system_id":"levelo_inurba_marseille","lat":43.295523,"lon":5.422926,"is_reserved":false,"is_disabled":false,"rental_uris":{"android":"levelo://app?vid=ba334ea1-b9a0-4c51-a6c5-0b53984e59f9","ios":"levelo://app?vid=ba334ea1-b9a0-4c51-a6c5-0b53984e59f9"},"vehicle_type_id":"4","last_reported":1701241620,"current_range_meters":27600,"station_id":"ce4bhph2rcd13ifvqhdg","pricing_plan_id":"free"},{"bike_id":"78affd47-f78a-4c2b-8b82-c1afafb1cd13","system_id":"levelo_inurba_marseille","lat":43.295523,"lon":5.422926,"is_reserved":false,"is_disabled":false,"rental_uris":{"android":"levelo://app?vid=78affd47-f78a-4c2b-8b82-c1afafb1cd13","ios":"levelo://app?vid=78affd47-f78a-4c2b-8b82-c1afafb1cd13"},"vehicle_type_id":"4","last_reported":1701241620,"current_range_meters":27200,"station_id":"ce4bhph2rcd13ifvqhdg","pricing_plan_id":"free"},{"bike_id":"70246346-f549-440b-9a4f-2e5c2888f612","system_id":"levelo_inurba_marseille","lat":43.295511,"lon":5.422926,"is_reserved":false,"is_disabled":false,"rental_uris":{"android":"levelo://app?vid=70246346-f549-440b-9a4f-2e5c2888f612","ios":"levelo://app?vid=70246346-f549-440b-9a4f-2e5c2888f612"},"vehicle_type_id":"4","last_reported":1701241620,"current_range_meters":30400,"station_id":"ce4bhph2rcd13ifvqhdg","pricing_plan_id":"free"},{"bike_id":"9df6fed1-e37b-456e-ac3a-c6a640abdea8","system_id":"levelo_inurba_marseille","lat":43.295511,"lon":5.422926,"is_reserved":false,"is_disabled":false,"rental_uris":{"android":"levelo://app?vid=9df6fed1-e37b-456e-ac3a-c6a640abdea8","ios":"levelo://app?vid=9df6fed1-e37b-456e-ac3a-c6a640abdea8"},"vehicle_type_id":"4","last_reported":1701241620,"current_range_meters":19200,"station_id":"ce4bhph2rcd13ifvqhdg","pricing_plan_id":"free"},{"bike_id":"62cfa572-51d4-4a04-9e45-ea785883caeb","system_id":"levelo_inurba_marseille","lat":43.272191,"lon":5.392562,"is_reserved":false,"is_disabled":false,"rental_uris":{"android":"levelo://app?vid=62cfa572-51d4-4a04-9e45-ea785883caeb","ios":"levelo://app?vid=62cfa572-51d4-4a04-9e45-ea785883caeb"},"vehicle_type_id":"4","last_reported":1701241620,"current_range_meters":14800,"station_id":"","pricing_plan_id":"free"},{"bike_id":"3225fb83-0680-4e47-b873-e4f092068a31","system_id":"levelo_inurba_marseille","lat":43.27812,"lon":5.40704,"is_reserved":false,"is_disabled":false,"rental_uris":{"android":"levelo://app?vid=3225fb83-0680-4e47-b873-e4f092068a31","ios":"levelo://app?vid=3225fb83-0680-4e47-b873-e4f092068a31"},"vehicle_type_id":"4","last_reported":1701241620,"current_range_meters":30400,"station_id":"ce4bhnh2rcd13ifvqgtg","pricing_plan_id":"free"},{"bike_id":"0ebb6231-0628-4788-ab74-0d0d10dff150","system_id":"levelo_inurba_marseille","lat":43.278128,"lon":5.407195,"is_reserved":false,"is_disabled":false,"rental_uris":{"android":"levelo://app?vid=0ebb6231-0628-4788-ab74-0d0d10dff150","ios":"levelo://app?vid=0ebb6231-0628-4788-ab74-0d0d10dff150"},"vehicle_type_id":"4","last_reported":1701241620,"current_range_meters":19600,"station_id":"ce4bhnh2rcd13ifvqgtg","pricing_plan_id":"free"},{"bike_id":"05c82d97-d5ca-45d0-818d-1508e3f72c96","system_id":"levelo_inurba_marseille","lat":43.269467,"lon":5.386439,"is_reserved":false,"is_disabled":false,"rental_uris":{"android":"levelo://app?vid=05c82d97-d5ca-45d0-818d-1508e3f72c96","ios":"levelo://app?vid=05c82d97-d5ca-45d0-818d-1508e3f72c96"},"vehicle_type_id":"4","last_reported":1701241620,"current_range_meters":12000,"station_id":"ce4bhh92rcd13ifvqfh0","pricing_plan_id":"free"},{"bike_id":"39347131-f3f0-4227-aa2a-a16ec48c45a8","system_id":"levelo_inurba_marseille","lat":43.27812,"lon":5.40716,"is_reserved":false,"is_disabled":false,"rental_uris":{"android":"levelo://app?vid=39347131-f3f0-4227-aa2a-a16ec48c45a8","ios":"levelo://app?vid=39347131-f3f0-4227-aa2a-a16ec48c45a8"},"vehicle_type_id":"4","last_reported":1701241620,"current_range_meters":21200,"station_id":"ce4bhnh2rcd13ifvqgtg","pricing_plan_id":"free"},{"bike_id":"3e74c5b6-6bd6-42da-972f-0e3802681c33","system_id":"levelo_inurba_marseille","lat":43.269467,"lon":5.386439,"is_reserved":false,"is_disabled":false,"rental_uris":{"android":"levelo://app?vid=3e74c5b6-6bd6-42da-972f-0e3802681c33","ios":"levelo://app?vid=3e74c5b6-6bd6-42da-972f-0e3802681c33"},"vehicle_type_id":"4","last_reported":1701241620,"current_range_meters":25200,"station_id":"ce4bhh92rcd13ifvqfh0","pricing_plan_id":"free"},{"bike_id":"88ef2aa4-8bca-4f61-9d32-239e2319d0f8","system_id":"levelo_inurba_marseille","lat":43.269467,"lon":5.386439,"is_reserved":false,"is_disabled":false,"rental_uris":{"android":"levelo://app?vid=88ef2aa4-8bca-4f61-9d32-239e2319d0f8","ios":"levelo://app?vid=88ef2aa4-8bca-4f61-9d32-239e2319d0f8"},"vehicle_type_id":"4","last_reported":1701241620,"current_range_meters":18000,"station_id":"ce4bhh92rcd13ifvqfh0","pricing_plan_id":"free"},{"bike_id":"00a56b65-57d6-4156-a608-1dcadb845c8c","system_id":"levelo_inurba_marseille","lat":43.269467,"lon":5.386439,"is_reserved":false,"is_disabled":false,"rental_uris":{"android":"levelo://app?vid=00a56b65-57d6-4156-a608-1dcadb845c8c","ios":"levelo://app?vid=00a56b65-57d6-4156-a608-1dcadb845c8c"},"vehicle_type_id":"4","last_reported":1701241620,"current_range_meters":23200,"station_id":"ce4bhh92rcd13ifvqfh0","pricing_plan_id":"free"},{"bike_id":"72d0b31e-024c-4ff2-b1c3-6e2a6a925ec8","system_id":"levelo_inurba_marseille","lat":43.269467,"lon":5.386439,"is_reserved":false,"is_disabled":false,"rental_uris":{"android":"levelo://app?vid=72d0b31e-024c-4ff2-b1c3-6e2a6a925ec8","ios":"levelo://app?vid=72d0b31e-024c-4ff2-b1c3-6e2a6a925ec8"},"vehicle_type_id":"4","last_reported":1701241620,"current_range_meters":26400,"station_id":"ce4bhh92rcd13ifvqfh0","pricing_plan_id":"free"},{"bike_id":"e1c3aff4-7331-48f4-b049-5a8a3d74dfa7","system_id":"levelo_inurba_marseille","lat":43.269467,"lon":5.386439,"is_reserved":false,"is_disabled":false,"rental_uris":{"android":"levelo://app?vid=e1c3aff4-7331-48f4-b049-5a8a3d74dfa7","ios":"levelo://app?vid=e1c3aff4-7331-48f4-b049-5a8a3d74dfa7"},"vehicle_type_id":"4","last_reported":1701241620,"current_range_meters":5600,"station_id":"ce4bhh92rcd13ifvqfh0","pricing_plan_id":"free"},{"bike_id":"cc049db4-4788-4929-b7ac-6622c33f8646","system_id":"levelo_inurba_marseille","lat":43.269467,"lon":5.386439,"is_reserved":false,"is_disabled":false,"rental_uris":{"android":"levelo://app?vid=cc049db4-4788-4929-b7ac-6622c33f8646","ios":"levelo://app?vid=cc049db4-4788-4929-b7ac-6622c33f8646"},"vehicle_type_id":"4","last_reported":1701241620,"current_range_meters":16400,"station_id":"ce4bhh92rcd13ifvqfh0","pricing_plan_id":"free"},{"bike_id":"6685e2dc-c292-4610-9ad1-0bde3daa5ff6","system_id":"levelo_inurba_marseille","lat":43.269467,"lon":5.386439,"is_reserved":false,"is_disabled":false,"rental_uris":{"android":"levelo://app?vid=6685e2dc-c292-4610-9ad1-0bde3daa5ff6","ios":"levelo://app?vid=6685e2dc-c292-4610-9ad1-0bde3daa5ff6"},"vehicle_type_id":"4","last_reported":1701241620,"current_range_meters":26800,"station_id":"ce4bhh92rcd13ifvqfh0","pricing_plan_id":"free"},{"bike_id":"1cdfbfad-bc30-4e7c-849f-f6c6e5d44281","system_id":"levelo_inurba_marseille","lat":43.269467,"lon":5.386439,"is_reserved":false,"is_disabled":false,"rental_uris":{"android":"levelo://app?vid=1cdfbfad-bc30-4e7c-849f-f6c6e5d44281","ios":"levelo://app?vid=1cdfbfad-bc30-4e7c-849f-f6c6e5d44281"},"vehicle_type_id":"4","last_reported":1701241620,"current_range_meters":24400,"station_id":"ce4bhh92rcd13ifvqfh0","pricing_plan_id":"free"},{"bike_id":"240f349e-a001-4d69-8c95-2efe70eb8564","system_id":"levelo_inurba_marseille","lat":43.26947,"lon":5.38628,"is_reserved":false,"is_disabled":false,"rental_uris":{"android":"levelo://app?vid=240f349e-a001-4d69-8c95-2efe70eb8564","ios":"levelo://app?vid=240f349e-a001-4d69-8c95-2efe70eb8564"},"vehicle_type_id":"4","last_reported":1701241620,"current_range_meters":24000,"station_id":"ce4bhh92rcd13ifvqfh0","pricing_plan_id":"free"},{"bike_id":"47ba39c9-2758-4e63-ae33-352884d32639","system_id":"levelo_inurba_marseille","lat":43.269467,"lon":5.386439,"is_reserved":false,"is_disabled":false,"rental_uris":{"android":"levelo://app?vid=47ba39c9-2758-4e63-ae33-352884d32639","ios":"levelo://app?vid=47ba39c9-2758-4e63-ae33-352884d32639"},"vehicle_type_id":"4","last_reported":1701241620,"current_range_meters":27200,"station_id":"ce4bhh92rcd13ifvqfh0","pricing_plan_id":"free"},{"bike_id":"b0996eb7-dd0c-4669-939a-11308d5c0fc7","system_id":"levelo_inurba_marseille","lat":43.269467,"lon":5.386439,"is_reserved":false,"is_disabled":false,"rental_uris":{"android":"levelo://app?vid=b0996eb7-dd0c-4669-939a-11308d5c0fc7","ios":"levelo://app?vid=b0996eb7-dd0c-4669-939a-11308d5c0fc7"},"vehicle_type_id":"4","last_reported":1701241620,"current_range_meters":24400,"station_id":"ce4bhh92rcd13ifvqfh0","pricing_plan_id":"free"},{"bike_id":"84b4d274-2f86-477f-9445-f5d10b6b5798","system_id":"levelo_inurba_marseille","lat":43.269467,"lon":5.386439,"is_reserved":false,"is_disabled":false,"rental_uris":{"android":"levelo://app?vid=84b4d274-2f86-477f-9445-f5d10b6b5798","ios":"levelo://app?vid=84b4d274-2f86-477f-9445-f5d10b6b5798"},"vehicle_type_id":"4","last_reported":1701241620,"current_range_meters":10000,"station_id":"ce4bhh92rcd13ifvqfh0","pricing_plan_id":"free"},{"bike_id":"d2d66721-bac6-4bee-bd34-be2f37c2c622","system_id":"levelo_inurba_marseille","lat":43.269467,"lon":5.386439,"is_reserved":false,"is_disabled":false,"rental_uris":{"android":"levelo://app?vid=d2d66721-bac6-4bee-bd34-be2f37c2c622","ios":"levelo://app?vid=d2d66721-bac6-4bee-bd34-be2f37c2c622"},"vehicle_type_id":"4","last_reported":1701241620,"current_range_meters":25200,"station_id":"ce4bhh92rcd13ifvqfh0","pricing_plan_id":"free"},{"bike_id":"e76073a7-9f92-4a0e-80b1-abf6a7b87121","system_id":"levelo_inurba_marseille","lat":43.279465,"lon":5.410561,"is_reserved":false,"is_disabled":false,"rental_uris":{"android":"levelo://app?vid=e76073a7-9f92-4a0e-80b1-abf6a7b87121","ios":"levelo://app?vid=e76073a7-9f92-4a0e-80b1-abf6a7b87121"},"vehicle_type_id":"4","last_reported":1701241620,"current_range_meters":20800,"station_id":"ce4bhnp2rcd13ifvqh0g","pricing_plan_id":"free"},{"bike_id":"b03619f6-ca8a-4037-965b-bd3be152d92a","system_id":"levelo_inurba_marseille","lat":43.27946,"lon":5.41047,"is_reserved":false,"is_disabled":false,"rental_uris":{"android":"levelo://app?vid=b03619f6-ca8a-4037-965b-bd3be152d92a","ios":"levelo://app?vid=b03619f6-ca8a-4037-965b-bd3be152d92a"},"vehicle_type_id":"4","last_reported":1701241620,"current_range_meters":1600,"station_id":"ce4bhnp2rcd13ifvqh0g","pricing_plan_id":"free"},{"bike_id":"fd6076a2-900b-45c7-a82d-f0f0875b7fad","system_id":"levelo_inurba_marseille","lat":43.279465,"lon":5.410561,"is_reserved":false,"is_disabled":false,"rental_uris":{"android":"levelo://app?vid=fd6076a2-900b-45c7-a82d-f0f0875b7fad","ios":"levelo://app?vid=fd6076a2-900b-45c7-a82d-f0f0875b7fad"},"vehicle_type_id":"4","last_reported":1701241620,"current_range_meters":22000,"station_id":"ce4bhnp2rcd13ifvqh0g","pricing_plan_id":"free"},{"bike_id":"7dcc86c5-dc5d-4981-b682-d4c2e705b4d9","system_id":"levelo_inurba_marseille","lat":43.269319,"lon":5.389397,"is_reserved":false,"is_disabled":false,"rental_uris":{"android":"levelo://app?vid=7dcc86c5-dc5d-4981-b682-d4c2e705b4d9","ios":"levelo://app?vid=7dcc86c5-dc5d-4981-b682-d4c2e705b4d9"},"vehicle_type_id":"4","last_reported":1701241620,"current_range_meters":23200,"station_id":"ce4bhhh2rcd13ifvqfl0","pricing_plan_id":"free"},{"bike_id":"d342d8af-189b-4c4a-a3df-20b257c41e29","system_id":"levelo_inurba_marseille","lat":43.26681,"lon":5.382694,"is_reserved":false,"is_disabled":false,"rental_uris":{"android":"levelo://app?vid=d342d8af-189b-4c4a-a3df-20b257c41e29","ios":"levelo://app?vid=d342d8af-189b-4c4a-a3df-20b257c41e29"},"vehicle_type_id":"4","last_reported":1701241620,"current_range_meters":28800,"station_id":"ce4bhg92rcd13ifvqf90","pricing_plan_id":"free"},{"bike_id":"abe0c636-2e32-4488-bd67-2f80076b347c","system_id":"levelo_inurba_marseille","lat":43.279873,"lon":5.416585,"is_reserved":false,"is_disabled":false,"rental_uris":{"android":"levelo://app?vid=abe0c636-2e32-4488-bd67-2f80076b347c","ios":"levelo://app?vid=abe0c636-2e32-4488-bd67-2f80076b347c"},"vehicle_type_id":"4","last_reported":1701241620,"current_range_meters":25200,"station_id":"ce4bho12rcd13ifvqh1g","pricing_plan_id":"free"},{"bike_id":"8049c51c-069c-4ea1-8b0b-97c2ca8cb022","system_id":"levelo_inurba_marseille","lat":43.27989,"lon":5.41668,"is_reserved":false,"is_disabled":false,"rental_uris":{"android":"levelo://app?vid=8049c51c-069c-4ea1-8b0b-97c2ca8cb022","ios":"levelo://app?vid=8049c51c-069c-4ea1-8b0b-97c2ca8cb022"},"vehicle_type_id":"4","last_reported":1701241620,"current_range_meters":25600,"station_id":"ce4bho12rcd13ifvqh1g","pricing_plan_id":"free"},{"bike_id":"9c60bcb7-c299-4da8-9c53-232e85632574","system_id":"levelo_inurba_marseille","lat":43.27987,"lon":5.41666,"is_reserved":false,"is_disabled":false,"rental_uris":{"android":"levelo://app?vid=9c60bcb7-c299-4da8-9c53-232e85632574","ios":"levelo://app?vid=9c60bcb7-c299-4da8-9c53-232e85632574"},"vehicle_type_id":"4","last_reported":1701241620,"current_range_meters":22000,"station_id":"ce4bho12rcd13ifvqh1g","pricing_plan_id":"free"},{"bike_id":"62f54cd7-1480-4fa4-992b-9318f5100909","system_id":"levelo_inurba_marseille","lat":43.265714,"lon":5.372891,"is_reserved":false,"is_disabled":false,"rental_uris":{"android":"levelo://app?vid=62f54cd7-1480-4fa4-992b-9318f5100909","ios":"levelo://app?vid=62f54cd7-1480-4fa4-992b-9318f5100909"},"vehicle_type_id":"4","last_reported":1701241620,"current_range_meters":23600,"station_id":"ce4bhg12rcd13ifvqf70","pricing_plan_id":"free"},{"bike_id":"e744fdca-0355-4cc4-8bc1-c3cea4abf237","system_id":"levelo_inurba_marseille","lat":43.267966,"lon":5.393976,"is_reserved":false,"is_disabled":false,"rental_uris":{"android":"levelo://app?vid=e744fdca-0355-4cc4-8bc1-c3cea4abf237","ios":"levelo://app?vid=e744fdca-0355-4cc4-8bc1-c3cea4abf237"},"vehicle_type_id":"4","last_reported":1701241620,"current_range_meters":26000,"station_id":"ce4bhh12rcd13ifvqfg0","pricing_plan_id":"free"},{"bike_id":"56f5af67-4b97-41c2-85bc-531613ba0ae1","system_id":"levelo_inurba_marseille","lat":43.267966,"lon":5.393976,"is_reserved":false,"is_disabled":false,"rental_uris":{"android":"levelo://app?vid=56f5af67-4b97-41c2-85bc-531613ba0ae1","ios":"levelo://app?vid=56f5af67-4b97-41c2-85bc-531613ba0ae1"},"vehicle_type_id":"4","last_reported":1701241620,"current_range_meters":18400,"station_id":"ce4bhh12rcd13ifvqfg0","pricing_plan_id":"free"},{"bike_id":"c8fc8577-7549-4815-a02a-809c84e7a635","system_id":"levelo_inurba_marseille","lat":43.26567,"lon":5.39007,"is_reserved":false,"is_disabled":false,"rental_uris":{"android":"levelo://app?vid=c8fc8577-7549-4815-a02a-809c84e7a635","ios":"levelo://app?vid=c8fc8577-7549-4815-a02a-809c84e7a635"},"vehicle_type_id":"4","last_reported":1701241620,"current_range_meters":26000,"station_id":"ce4bhe12rcd13ifvqf30","pricing_plan_id":"free"},{"bike_id":"5ea39d1c-a393-40e3-9ccb-8b2ad9a6940f","system_id":"levelo_inurba_marseille","lat":43.265569,"lon":5.390047,"is_reserved":false,"is_disabled":false,"rental_uris":{"android":"levelo://app?vid=5ea39d1c-a393-40e3-9ccb-8b2ad9a6940f","ios":"levelo://app?vid=5ea39d1c-a393-40e3-9ccb-8b2ad9a6940f"},"vehicle_type_id":"4","last_reported":1701241620,"current_range_meters":28000,"station_id":"ce4bhe12rcd13ifvqf30","pricing_plan_id":"free"},{"bike_id":"8e02780f-5c53-4e9b-a71e-2093ce5acc4f","system_id":"levelo_inurba_marseille","lat":43.26943,"lon":5.40248,"is_reserved":false,"is_disabled":false,"rental_uris":{"android":"levelo://app?vid=8e02780f-5c53-4e9b-a71e-2093ce5acc4f","ios":"levelo://app?vid=8e02780f-5c53-4e9b-a71e-2093ce5acc4f"},"vehicle_type_id":"4","last_reported":1701241620,"current_range_meters":24000,"station_id":"cjm6bp8fraef2m0cb0m0","pricing_plan_id":"free"},{"bike_id":"d1711a6a-dce8-4800-9c2a-741d836b1e8f","system_id":"levelo_inurba_marseille","lat":43.27176,"lon":5.4098,"is_reserved":false,"is_disabled":false,"rental_uris":{"android":"levelo://app?vid=d1711a6a-dce8-4800-9c2a-741d836b1e8f","ios":"levelo://app?vid=d1711a6a-dce8-4800-9c2a-741d836b1e8f"},"vehicle_type_id":"4","last_reported":1701241620,"current_range_meters":10400,"station_id":"ce4bhl12rcd13ifvqgf0","pricing_plan_id":"free"},{"bike_id":"0a411095-3a8a-4221-843c-f3d98b94b3cb","system_id":"levelo_inurba_marseille","lat":43.27177,"lon":5.40988,"is_reserved":false,"is_disabled":false,"rental_uris":{"android":"levelo://app?vid=0a411095-3a8a-4221-843c-f3d98b94b3cb","ios":"levelo://app?vid=0a411095-3a8a-4221-843c-f3d98b94b3cb"},"vehicle_type_id":"4","last_reported":1701241620,"current_range_meters":28400,"station_id":"ce4bhl12rcd13ifvqgf0","pricing_plan_id":"free"},{"bike_id":"69bbd975-8852-45b8-b1ac-3047bb1be877","system_id":"levelo_inurba_marseille","lat":43.271756,"lon":5.409882,"is_reserved":false,"is_disabled":false,"rental_uris":{"android":"levelo://app?vid=69bbd975-8852-45b8-b1ac-3047bb1be877","ios":"levelo://app?vid=69bbd975-8852-45b8-b1ac-3047bb1be877"},"vehicle_type_id":"4","last_reported":1701241620,"current_range_meters":26800,"station_id":"ce4bhl12rcd13ifvqgf0","pricing_plan_id":"free"},{"bike_id":"75ef75c1-d239-44ee-b568-8f31b3960974","system_id":"levelo_inurba_marseille","lat":43.27173,"lon":5.40984,"is_reserved":false,"is_disabled":false,"rental_uris":{"android":"levelo://app?vid=75ef75c1-d239-44ee-b568-8f31b3960974","ios":"levelo://app?vid=75ef75c1-d239-44ee-b568-8f31b3960974"},"vehicle_type_id":"4","last_reported":1701241620,"current_range_meters":29600,"station_id":"ce4bhl12rcd13ifvqgf0","pricing_plan_id":"free"},{"bike_id":"5edf4ffd-945c-46ca-853f-f4dc48bf88b7","system_id":"levelo_inurba_marseille","lat":43.26202,"lon":5.379299,"is_reserved":false,"is_disabled":false,"rental_uris":{"android":"levelo://app?vid=5edf4ffd-945c-46ca-853f-f4dc48bf88b7","ios":"levelo://app?vid=5edf4ffd-945c-46ca-853f-f4dc48bf88b7"},"vehicle_type_id":"4","last_reported":1701241620,"current_range_meters":31200,"station_id":"ce4bhjp2rcd13ifvqg90","pricing_plan_id":"free"},{"bike_id":"baa110bc-e6be-491b-9db8-5e934046b735","system_id":"levelo_inurba_marseille","lat":43.260224,"lon":5.375503,"is_reserved":false,"is_disabled":false,"rental_uris":{"android":"levelo://app?vid=baa110bc-e6be-491b-9db8-5e934046b735","ios":"levelo://app?vid=baa110bc-e6be-491b-9db8-5e934046b735"},"vehicle_type_id":"4","last_reported":1701241620,"current_range_meters":13200,"station_id":"ce4bhgh2rcd13ifvqfa0","pricing_plan_id":"free"},{"bike_id":"eea25ac0-73c4-4bfc-8f3a-1451025761d0","system_id":"levelo_inurba_marseille","lat":43.27498,"lon":5.42446,"is_reserved":false,"is_disabled":false,"rental_uris":{"android":"levelo://app?vid=eea25ac0-73c4-4bfc-8f3a-1451025761d0","ios":"levelo://app?vid=eea25ac0-73c4-4bfc-8f3a-1451025761d0"},"vehicle_type_id":"4","last_reported":1701241620,"current_range_meters":23200,"station_id":"ce4bhn92rcd13ifvqgrg","pricing_plan_id":"free"},{"bike_id":"4f80ea18-fe34-4b4e-a60e-df37e28e9347","system_id":"levelo_inurba_marseille","lat":43.27496,"lon":5.4245,"is_reserved":false,"is_disabled":false,"rental_uris":{"android":"levelo://app?vid=4f80ea18-fe34-4b4e-a60e-df37e28e9347","ios":"levelo://app?vid=4f80ea18-fe34-4b4e-a60e-df37e28e9347"},"vehicle_type_id":"4","last_reported":1701241620,"current_range_meters":22800,"station_id":"ce4bhn92rcd13ifvqgrg","pricing_plan_id":"free"},{"bike_id":"b9a27a89-5024-4e3f-a244-1362e43e0aa3","system_id":"levelo_inurba_marseille","lat":43.274947,"lon":5.424493,"is_reserved":false,"is_disabled":false,"rental_uris":{"android":"levelo://app?vid=b9a27a89-5024-4e3f-a244-1362e43e0aa3","ios":"levelo://app?vid=b9a27a89-5024-4e3f-a244-1362e43e0aa3"},"vehicle_type_id":"4","last_reported":1701241620,"current_range_meters":24400,"station_id":"ce4bhn92rcd13ifvqgrg","pricing_plan_id":"free"},{"bike_id":"549227f0-5dc2-452d-a2ba-08c941b893fd","system_id":"levelo_inurba_marseille","lat":43.27496,"lon":5.42451,"is_reserved":false,"is_disabled":false,"rental_uris":{"android":"levelo://app?vid=549227f0-5dc2-452d-a2ba-08c941b893fd","ios":"levelo://app?vid=549227f0-5dc2-452d-a2ba-08c941b893fd"},"vehicle_type_id":"4","last_reported":1701241620,"current_range_meters":25600,"station_id":"ce4bhn92rcd13ifvqgrg","pricing_plan_id":"free"},{"bike_id":"893c032a-bd7b-485c-8226-9282ad559886","system_id":"levelo_inurba_marseille","lat":43.27495,"lon":5.4245,"is_reserved":false,"is_disabled":false,"rental_uris":{"android":"levelo://app?vid=893c032a-bd7b-485c-8226-9282ad559886","ios":"levelo://app?vid=893c032a-bd7b-485c-8226-9282ad559886"},"vehicle_type_id":"4","last_reported":1701241620,"current_range_meters":23600,"station_id":"ce4bhn92rcd13ifvqgrg","pricing_plan_id":"free"},{"bike_id":"6639dad4-2245-4129-9e6e-f95bf1a9819c","system_id":"levelo_inurba_marseille","lat":43.27495,"lon":5.4245,"is_reserved":false,"is_disabled":false,"rental_uris":{"android":"levelo://app?vid=6639dad4-2245-4129-9e6e-f95bf1a9819c","ios":"levelo://app?vid=6639dad4-2245-4129-9e6e-f95bf1a9819c"},"vehicle_type_id":"4","last_reported":1701241620,"current_range_meters":24000,"station_id":"ce4bhn92rcd13ifvqgrg","pricing_plan_id":"free"},{"bike_id":"b6a281eb-39d9-4f38-b407-b8e01e2ea1f3","system_id":"levelo_inurba_marseille","lat":43.27495,"lon":5.42451,"is_reserved":false,"is_disabled":false,"rental_uris":{"android":"levelo://app?vid=b6a281eb-39d9-4f38-b407-b8e01e2ea1f3","ios":"levelo://app?vid=b6a281eb-39d9-4f38-b407-b8e01e2ea1f3"},"vehicle_type_id":"4","last_reported":1701241620,"current_range_meters":28800,"station_id":"ce4bhn92rcd13ifvqgrg","pricing_plan_id":"free"},{"bike_id":"ac037a87-a88c-4413-9160-3b9732aacca4","system_id":"levelo_inurba_marseille","lat":43.27495,"lon":5.42452,"is_reserved":false,"is_disabled":false,"rental_uris":{"android":"levelo://app?vid=ac037a87-a88c-4413-9160-3b9732aacca4","ios":"levelo://app?vid=ac037a87-a88c-4413-9160-3b9732aacca4"},"vehicle_type_id":"4","last_reported":1701241620,"current_range_meters":3600,"station_id":"ce4bhn92rcd13ifvqgrg","pricing_plan_id":"free"},{"bike_id":"f3ce6f9b-3302-430d-b90c-d5ca8fa56d2d","system_id":"levelo_inurba_marseille","lat":43.27498,"lon":5.424577,"is_reserved":false,"is_disabled":false,"rental_uris":{"android":"levelo://app?vid=f3ce6f9b-3302-430d-b90c-d5ca8fa56d2d","ios":"levelo://app?vid=f3ce6f9b-3302-430d-b90c-d5ca8fa56d2d"},"vehicle_type_id":"4","last_reported":1701241620,"current_range_meters":22800,"station_id":"","pricing_plan_id":"free"},{"bike_id":"52eeb36a-d2ef-44de-9d29-bbe58daa0133","system_id":"levelo_inurba_marseille","lat":43.27491,"lon":5.42452,"is_reserved":false,"is_disabled":false,"rental_uris":{"android":"levelo://app?vid=52eeb36a-d2ef-44de-9d29-bbe58daa0133","ios":"levelo://app?vid=52eeb36a-d2ef-44de-9d29-bbe58daa0133"},"vehicle_type_id":"4","last_reported":1701241620,"current_range_meters":24400,"station_id":"ce4bhn92rcd13ifvqgrg","pricing_plan_id":"free"},{"bike_id":"932e7ed0-cd1b-453c-9a18-aeb0fe26478a","system_id":"levelo_inurba_marseille","lat":43.274915,"lon":5.424541,"is_reserved":false,"is_disabled":false,"rental_uris":{"android":"levelo://app?vid=932e7ed0-cd1b-453c-9a18-aeb0fe26478a","ios":"levelo://app?vid=932e7ed0-cd1b-453c-9a18-aeb0fe26478a"},"vehicle_type_id":"4","last_reported":1701241620,"current_range_meters":30000,"station_id":"ce4bhn92rcd13ifvqgrg","pricing_plan_id":"free"},{"bike_id":"038db662-500d-451a-92f9-65475d0e9377","system_id":"levelo_inurba_marseille","lat":43.27491,"lon":5.42456,"is_reserved":false,"is_disabled":false,"rental_uris":{"android":"levelo://app?vid=038db662-500d-451a-92f9-65475d0e9377","ios":"levelo://app?vid=038db662-500d-451a-92f9-65475d0e9377"},"vehicle_type_id":"4","last_reported":1701241620,"current_range_meters":24800,"station_id":"ce4bhn92rcd13ifvqgrg","pricing_plan_id":"free"},{"bike_id":"03158746-6a36-467c-85f4-0d9a5c9de7bb","system_id":"levelo_inurba_marseille","lat":43.26082,"lon":5.397703,"is_reserved":false,"is_disabled":false,"rental_uris":{"android":"levelo://app?vid=03158746-6a36-467c-85f4-0d9a5c9de7bb","ios":"levelo://app?vid=03158746-6a36-467c-85f4-0d9a5c9de7bb"},"vehicle_type_id":"4","last_reported":1701241620,"current_range_meters":0,"station_id":"ce4bhi12rcd13ifvqfq0","pricing_plan_id":"free"},{"bike_id":"67cb4943-390e-4082-b29c-bb662c455184","system_id":"levelo_inurba_marseille","lat":43.25585,"lon":5.38227,"is_reserved":false,"is_disabled":false,"rental_uris":{"android":"levelo://app?vid=67cb4943-390e-4082-b29c-bb662c455184","ios":"levelo://app?vid=67cb4943-390e-4082-b29c-bb662c455184"},"vehicle_type_id":"4","last_reported":1701241620,"current_range_meters":18000,"station_id":"ce4bhih2rcd13ifvqfs0","pricing_plan_id":"free"},{"bike_id":"cf76d201-5a84-49ca-bb47-98a1e72b1777","system_id":"levelo_inurba_marseille","lat":43.25828,"lon":5.39434,"is_reserved":false,"is_disabled":false,"rental_uris":{"android":"levelo://app?vid=cf76d201-5a84-49ca-bb47-98a1e72b1777","ios":"levelo://app?vid=cf76d201-5a84-49ca-bb47-98a1e72b1777"},"vehicle_type_id":"4","last_reported":1701241620,"current_range_meters":0,"station_id":"ce4bhip2rcd13ifvqft0","pricing_plan_id":"free"},{"bike_id":"2a359975-e46f-4b44-a624-025c90902ae7","system_id":"levelo_inurba_marseille","lat":43.255826,"lon":5.38238,"is_reserved":false,"is_disabled":false,"rental_uris":{"android":"levelo://app?vid=2a359975-e46f-4b44-a624-025c90902ae7","ios":"levelo://app?vid=2a359975-e46f-4b44-a624-025c90902ae7"},"vehicle_type_id":"4","last_reported":1701241620,"current_range_meters":30400,"station_id":"ce4bhih2rcd13ifvqfs0","pricing_plan_id":"free"},{"bike_id":"8e5a4439-a73f-4440-b9a6-358f09eb0a6b","system_id":"levelo_inurba_marseille","lat":43.25823,"lon":5.39436,"is_reserved":false,"is_disabled":false,"rental_uris":{"android":"levelo://app?vid=8e5a4439-a73f-4440-b9a6-358f09eb0a6b","ios":"levelo://app?vid=8e5a4439-a73f-4440-b9a6-358f09eb0a6b"},"vehicle_type_id":"4","last_reported":1701241620,"current_range_meters":18000,"station_id":"ce4bhip2rcd13ifvqft0","pricing_plan_id":"free"},{"bike_id":"c1cb7979-1692-4517-8c61-be3787114d6f","system_id":"levelo_inurba_marseille","lat":43.258224,"lon":5.394369,"is_reserved":false,"is_disabled":false,"rental_uris":{"android":"levelo://app?vid=c1cb7979-1692-4517-8c61-be3787114d6f","ios":"levelo://app?vid=c1cb7979-1692-4517-8c61-be3787114d6f"},"vehicle_type_id":"4","last_reported":1701241620,"current_range_meters":31600,"station_id":"ce4bhip2rcd13ifvqft0","pricing_plan_id":"free"},{"bike_id":"b09cf6fe-9609-4834-a4fb-3cf72efe3863","system_id":"levelo_inurba_marseille","lat":43.255761,"lon":5.382369,"is_reserved":false,"is_disabled":false,"rental_uris":{"android":"levelo://app?vid=b09cf6fe-9609-4834-a4fb-3cf72efe3863","ios":"levelo://app?vid=b09cf6fe-9609-4834-a4fb-3cf72efe3863"},"vehicle_type_id":"4","last_reported":1701241620,"current_range_meters":8400,"station_id":"ce4bhih2rcd13ifvqfs0","pricing_plan_id":"free"},{"bike_id":"f5ef2c4d-d0da-42bc-8079-d97b96b6f3c7","system_id":"levelo_inurba_marseille","lat":43.27072,"lon":5.42278,"is_reserved":false,"is_disabled":false,"rental_uris":{"android":"levelo://app?vid=f5ef2c4d-d0da-42bc-8079-d97b96b6f3c7","ios":"levelo://app?vid=f5ef2c4d-d0da-42bc-8079-d97b96b6f3c7"},"vehicle_type_id":"4","last_reported":1701241620,"current_range_meters":21200,"station_id":"ce4bhk92rcd13ifvqgb0","pricing_plan_id":"free"},{"bike_id":"701dfc6c-2f0b-43a3-88d0-350b92ece9cc","system_id":"levelo_inurba_marseille","lat":43.259013,"lon":5.409301,"is_reserved":false,"is_disabled":false,"rental_uris":{"android":"levelo://app?vid=701dfc6c-2f0b-43a3-88d0-350b92ece9cc","ios":"levelo://app?vid=701dfc6c-2f0b-43a3-88d0-350b92ece9cc"},"vehicle_type_id":"4","last_reported":1701241620,"current_range_meters":25600,"station_id":"ce4bhm92rcd13ifvqglg","pricing_plan_id":"free"},{"bike_id":"859c3c77-1851-4e3a-9dec-42cb3bd89784","system_id":"levelo_inurba_marseille","lat":43.25932,"lon":5.40913,"is_reserved":false,"is_disabled":false,"rental_uris":{"android":"levelo://app?vid=859c3c77-1851-4e3a-9dec-42cb3bd89784","ios":"levelo://app?vid=859c3c77-1851-4e3a-9dec-42cb3bd89784"},"vehicle_type_id":"4","last_reported":1701241620,"current_range_meters":27600,"station_id":"ce4bhm92rcd13ifvqglg","pricing_plan_id":"free"},{"bike_id":"ec3ae71a-7855-4733-9a16-722c539f39c2","system_id":"levelo_inurba_marseille","lat":43.257079,"lon":5.411051,"is_reserved":false,"is_disabled":false,"rental_uris":{"android":"levelo://app?vid=ec3ae71a-7855-4733-9a16-722c539f39c2","ios":"levelo://app?vid=ec3ae71a-7855-4733-9a16-722c539f39c2"},"vehicle_type_id":"4","last_reported":1701241620,"current_range_meters":24800,"station_id":"ce4bhkp2rcd13ifvqgd0","pricing_plan_id":"free"},{"bike_id":"4c0c3118-7eaa-4ebd-8d87-d449bea3e021","system_id":"levelo_inurba_marseille","lat":43.250897,"lon":5.395161,"is_reserved":false,"is_disabled":false,"rental_uris":{"android":"levelo://app?vid=4c0c3118-7eaa-4ebd-8d87-d449bea3e021","ios":"levelo://app?vid=4c0c3118-7eaa-4ebd-8d87-d449bea3e021"},"vehicle_type_id":"4","last_reported":1701241620,"current_range_meters":13600,"station_id":"ce4bhm12rcd13ifvqgkg","pricing_plan_id":"free"},{"bike_id":"06b10ec5-386e-42da-a12b-050546a26d1a","system_id":"levelo_inurba_marseille","lat":43.24693,"lon":5.382096,"is_reserved":false,"is_disabled":false,"rental_uris":{"android":"levelo://app?vid=06b10ec5-386e-42da-a12b-050546a26d1a","ios":"levelo://app?vid=06b10ec5-386e-42da-a12b-050546a26d1a"},"vehicle_type_id":"4","last_reported":1701241620,"current_range_meters":28800,"station_id":"ce4bhih2rcd13ifvqfr0","pricing_plan_id":"free"},{"bike_id":"b11587af-b197-443d-bff1-1fbf82692dd2","system_id":"levelo_inurba_marseille","lat":43.246461,"lon":5.389014,"is_reserved":false,"is_disabled":false,"rental_uris":{"android":"levelo://app?vid=b11587af-b197-443d-bff1-1fbf82692dd2","ios":"levelo://app?vid=b11587af-b197-443d-bff1-1fbf82692dd2"},"vehicle_type_id":"4","last_reported":1701241620,"current_range_meters":10000,"station_id":"ce4bhg12rcd13ifvqf60","pricing_plan_id":"free"},{"bike_id":"56fa133a-d164-4258-b3d1-5edbf7825eed","system_id":"levelo_inurba_marseille","lat":43.243884,"lon":5.370737,"is_reserved":false,"is_disabled":false,"rental_uris":{"android":"levelo://app?vid=56fa133a-d164-4258-b3d1-5edbf7825eed","ios":"levelo://app?vid=56fa133a-d164-4258-b3d1-5edbf7825eed"},"vehicle_type_id":"4","last_reported":1701241620,"current_range_meters":30400,"station_id":"ce4bhhh2rcd13ifvqfk0","pricing_plan_id":"free"},{"bike_id":"ccfeee36-7664-4dcc-b2a0-30db0840534e","system_id":"levelo_inurba_marseille","lat":43.245581,"lon":5.395069,"is_reserved":false,"is_disabled":false,"rental_uris":{"android":"levelo://app?vid=ccfeee36-7664-4dcc-b2a0-30db0840534e","ios":"levelo://app?vid=ccfeee36-7664-4dcc-b2a0-30db0840534e"},"vehicle_type_id":"4","last_reported":1701241620,"current_range_meters":13600,"station_id":"ce4bhlp2rcd13ifvqgjg","pricing_plan_id":"free"},{"bike_id":"009ec343-78c3-470a-8531-a062e0287b38","system_id":"levelo_inurba_marseille","lat":43.245581,"lon":5.395069,"is_reserved":false,"is_disabled":false,"rental_uris":{"android":"levelo://app?vid=009ec343-78c3-470a-8531-a062e0287b38","ios":"levelo://app?vid=009ec343-78c3-470a-8531-a062e0287b38"},"vehicle_type_id":"4","last_reported":1701241620,"current_range_meters":21600,"station_id":"ce4bhlp2rcd13ifvqgjg","pricing_plan_id":"free"},{"bike_id":"e3c8403f-d593-418e-a3b9-6f725e140738","system_id":"levelo_inurba_marseille","lat":43.245581,"lon":5.395069,"is_reserved":false,"is_disabled":false,"rental_uris":{"android":"levelo://app?vid=e3c8403f-d593-418e-a3b9-6f725e140738","ios":"levelo://app?vid=e3c8403f-d593-418e-a3b9-6f725e140738"},"vehicle_type_id":"4","last_reported":1701241620,"current_range_meters":18000,"station_id":"ce4bhlp2rcd13ifvqgjg","pricing_plan_id":"free"},{"bike_id":"256f1205-9a4e-4742-862d-ef72484a253f","system_id":"levelo_inurba_marseille","lat":43.240785,"lon":5.377478,"is_reserved":false,"is_disabled":false,"rental_uris":{"android":"levelo://app?vid=256f1205-9a4e-4742-862d-ef72484a253f","ios":"levelo://app?vid=256f1205-9a4e-4742-862d-ef72484a253f"},"vehicle_type_id":"4","last_reported":1701241620,"current_range_meters":21600,"station_id":"","pricing_plan_id":"free"},{"bike_id":"02c9a029-aeda-41c5-8856-68c55b3a7116","system_id":"levelo_inurba_marseille","lat":43.240623,"lon":5.377642,"is_reserved":false,"is_disabled":false,"rental_uris":{"android":"levelo://app?vid=02c9a029-aeda-41c5-8856-68c55b3a7116","ios":"levelo://app?vid=02c9a029-aeda-41c5-8856-68c55b3a7116"},"vehicle_type_id":"4","last_reported":1701241620,"current_range_meters":24000,"station_id":"ce4bhnp2rcd13ifvqgvg","pricing_plan_id":"free"},{"bike_id":"b0c48c06-dcce-448a-adf8-2b791e3c9e90","system_id":"levelo_inurba_marseille","lat":43.24077,"lon":5.37761,"is_reserved":false,"is_disabled":false,"rental_uris":{"android":"levelo://app?vid=b0c48c06-dcce-448a-adf8-2b791e3c9e90","ios":"levelo://app?vid=b0c48c06-dcce-448a-adf8-2b791e3c9e90"},"vehicle_type_id":"4","last_reported":1701241620,"current_range_meters":25200,"station_id":"ce4bhnp2rcd13ifvqgvg","pricing_plan_id":"free"},{"bike_id":"43185f29-7bbd-4d9b-9bda-f88ae75de8ab","system_id":"levelo_inurba_marseille","lat":43.24074,"lon":5.37761,"is_reserved":false,"is_disabled":false,"rental_uris":{"android":"levelo://app?vid=43185f29-7bbd-4d9b-9bda-f88ae75de8ab","ios":"levelo://app?vid=43185f29-7bbd-4d9b-9bda-f88ae75de8ab"},"vehicle_type_id":"4","last_reported":1701241620,"current_range_meters":30000,"station_id":"ce4bhnp2rcd13ifvqgvg","pricing_plan_id":"free"},{"bike_id":"8b11eb2f-c2f4-4747-8682-fa14bff85247","system_id":"levelo_inurba_marseille","lat":43.24073,"lon":5.37756,"is_reserved":false,"is_disabled":false,"rental_uris":{"android":"levelo://app?vid=8b11eb2f-c2f4-4747-8682-fa14bff85247","ios":"levelo://app?vid=8b11eb2f-c2f4-4747-8682-fa14bff85247"},"vehicle_type_id":"4","last_reported":1701241620,"current_range_meters":17600,"station_id":"ce4bhnp2rcd13ifvqgvg","pricing_plan_id":"free"},{"bike_id":"4ac27634-3ae2-45f3-8a8c-4d4e57a4ae34","system_id":"levelo_inurba_marseille","lat":43.24073,"lon":5.37762,"is_reserved":false,"is_disabled":false,"rental_uris":{"android":"levelo://app?vid=4ac27634-3ae2-45f3-8a8c-4d4e57a4ae34","ios":"levelo://app?vid=4ac27634-3ae2-45f3-8a8c-4d4e57a4ae34"},"vehicle_type_id":"4","last_reported":1701241620,"current_range_meters":17600,"station_id":"ce4bhnp2rcd13ifvqgvg","pricing_plan_id":"free"},{"bike_id":"60440bab-3176-4cfa-a45b-3b54b1d480ad","system_id":"levelo_inurba_marseille","lat":43.240623,"lon":5.377642,"is_reserved":false,"is_disabled":false,"rental_uris":{"android":"levelo://app?vid=60440bab-3176-4cfa-a45b-3b54b1d480ad","ios":"levelo://app?vid=60440bab-3176-4cfa-a45b-3b54b1d480ad"},"vehicle_type_id":"4","last_reported":1701241620,"current_range_meters":28400,"station_id":"ce4bhnp2rcd13ifvqgvg","pricing_plan_id":"free"},{"bike_id":"cc8b0f9b-47ca-4929-adf4-72f0911e4326","system_id":"levelo_inurba_marseille","lat":43.240713,"lon":5.377543,"is_reserved":false,"is_disabled":false,"rental_uris":{"android":"levelo://app?vid=cc8b0f9b-47ca-4929-adf4-72f0911e4326","ios":"levelo://app?vid=cc8b0f9b-47ca-4929-adf4-72f0911e4326"},"vehicle_type_id":"4","last_reported":1701241620,"current_range_meters":24400,"station_id":"ce4bhnp2rcd13ifvqgvg","pricing_plan_id":"free"},{"bike_id":"7bf0ca16-7529-47ea-a668-4ee5d0393a5e","system_id":"levelo_inurba_marseille","lat":43.240623,"lon":5.377642,"is_reserved":false,"is_disabled":false,"rental_uris":{"android":"levelo://app?vid=7bf0ca16-7529-47ea-a668-4ee5d0393a5e","ios":"levelo://app?vid=7bf0ca16-7529-47ea-a668-4ee5d0393a5e"},"vehicle_type_id":"4","last_reported":1701241620,"current_range_meters":25600,"station_id":"ce4bhnp2rcd13ifvqgvg","pricing_plan_id":"free"},{"bike_id":"9354a28e-1390-47ce-b499-4ae6a9619ace","system_id":"levelo_inurba_marseille","lat":43.240623,"lon":5.377642,"is_reserved":false,"is_disabled":false,"rental_uris":{"android":"levelo://app?vid=9354a28e-1390-47ce-b499-4ae6a9619ace","ios":"levelo://app?vid=9354a28e-1390-47ce-b499-4ae6a9619ace"},"vehicle_type_id":"4","last_reported":1701241620,"current_range_meters":29600,"station_id":"ce4bhnp2rcd13ifvqgvg","pricing_plan_id":"free"},{"bike_id":"710ebacc-d5b3-451f-9bbe-cf886ae15f1c","system_id":"levelo_inurba_marseille","lat":43.240623,"lon":5.377642,"is_reserved":false,"is_disabled":false,"rental_uris":{"android":"levelo://app?vid=710ebacc-d5b3-451f-9bbe-cf886ae15f1c","ios":"levelo://app?vid=710ebacc-d5b3-451f-9bbe-cf886ae15f1c"},"vehicle_type_id":"4","last_reported":1701241620,"current_range_meters":12800,"station_id":"ce4bhnp2rcd13ifvqgvg","pricing_plan_id":"free"},