{"last_updated":1746472030,"ttl":60,"version":"2.2","data":{"bikes":[{"bike_id":"ee931f74-c945-4d42-9401-20cdfa16d42e","system_id":"levelo_inurba_marseille","lat":43.31024,"lon":5.37127,"is_reserved":false,"is_disabled":false,"rental_uris":{"android":"levelo://app?vid=ee931f74-c945-4d42-9401-20cdfa16d42e","ios":"levelo://app?vid=ee931f74-c945-4d42-9401-20cdfa16d42e"},"vehicle_type_id":"4","last_reported":1746472030,"current_range_meters":2800,"station_id":"","pricing_plan_id":"cebpf4jnsgd1na2vs0mg"},{"bike_id":"f86d56d1-e4b1-413b-a61a-b429022cfa8f","system_id":"levelo_inurba_marseille","lat":43.322813,"lon":5.382712,"is_reserved":false,"is_disabled":false,"rental_uris":{"android":"levelo://app?vid=f86d56d1-e4b1-413b-a61a-b429022cfa8f","ios":"levelo://app?vid=f86d56d1-e4b1-413b-a61a-b429022cfa8f"},"vehicle_type_id":"4","last_reported":1746472030,"current_range_meters":2800,"station_id":"ce4bhr12rcd13ifvqhqg","pricing_plan_id":"cebpf4jnsgd1na2vs0mg"},{"bike_id":"bab735a2-ec49-4aac-88df-6ea5a7f45389","system_id":"levelo_inurba_marseille","lat":43.31114,"lon":5.37757,"is_reserved":false,"is_disabled":false,"rental_uris":{"android":"levelo://app?vid=bab735a2-ec49-4aac-88df-6ea5a7f45389","ios":"levelo://app?vid=bab735a2-ec49-4aac-88df-6ea5a7f45389"},"vehicle_type_id":"4","last_reported":1746472030,"current_range_meters":2800,"station_id":"ce4bgt92rcd13ifvqcg0","pricing_plan_id":"cebpf4jnsgd1na2vs0mg"},{"bike_id":"321c5e43-2cc0-49b9-9384-c4010d92a5c2","system_id":"levelo_inurba_marseille","lat":43.27204,"lon":5.39184,"is_reserved":false,"is_disabled":false,"rental_uris":{"android":"levelo://app?vid=321c5e43-2cc0-49b9-9384-c4010d92a5c2","ios":"levelo://app?vid=321c5e43-2cc0-49b9-9384-c4010d92a5c2"},"vehicle_type_id":"4","last_reported":1746472030,"current_range_meters":3200,"station_id":"ce4bhhp2rcd13ifvqfm0","pricing_plan_id":"cebpf4jnsgd1na2vs0mg"},{"bike_id":"52fbbc53-7800-4792-ad64-6aa93fc8f76d","system_id":"levelo_inurba_marseille","lat":43.27655,"lon":5.38888,"is_reserved":false,"is_disabled":false,"rental_uris":{"android":"levelo://app?vid=52fbbc53-7800-4792-ad64-6aa93fc8f76d","ios":"levelo://app?vid=52fbbc53-7800-4792-ad64-6aa93fc8f76d"},"vehicle_type_id":"4","last_reported":1746472030,"current_range_meters":3200,"station_id":"ce4bhi12rcd13ifvqfo0","pricing_plan_id":"cebpf4jnsgd1na2vs0mg"},{"bike_id":"e080a43d-a8b3-4a70-9ed0-c058c452f99f","system_id":"levelo_inurba_marseille","lat":43.30414,"lon":5.41284,"is_reserved":false,"is_disabled":false,"rental_uris":{"android":"levelo://app?vid=e080a43d-a8b3-4a70-9ed0-c058c452f99f","ios":"levelo://app?vid=e080a43d-a8b3-4a70-9ed0-c058c452f99f"},"vehicle_type_id":"4","last_reported":1746472030,"current_range_meters":3600,"station_id":"ce4bhop2rcd13ifvqh8g","pricing_plan_id":"cebpf4jnsgd1na2vs0mg"},{"bike_id":"258ece6d-1272-48e2-a677-82e4b1e46a28","system_id":"levelo_inurba_marseille","lat":43.29916,"lon":5.37469,"is_reserved":false,"is_disabled":false,"rental_uris":{"android":"levelo://app?vid=258ece6d-1272-48e2-a677-82e4b1e46a28","ios":"levelo://app?vid=258ece6d-1272-48e2-a677-82e4b1e46a28"},"vehicle_type_id":"4","last_reported":1746472030,"current_range_meters":3600,"station_id":"ce4bgjh2rcd13ifvqbg0","pricing_plan_id":"cebpf4jnsgd1na2vs0mg"},{"bike_id":"6f8f9ee0-7ecc-4b11-b341-c394002723a1","system_id":"levelo_inurba_marseille","lat":43.29235,"lon":5.36054,"is_reserved":false,"is_disabled":false,"rental_uris":{"android":"levelo://app?vid=6f8f9ee0-7ecc-4b11-b341-c394002723a1","ios":"levelo://app?vid=6f8f9ee0-7ecc-4b11-b341-c394002723a1"},"vehicle_type_id":"4","last_reported":1746472030,"current_range_meters":3600,"station_id":"ce4bhbh2rcd13ifvqeqg","pricing_plan_id":"cebpf4jnsgd1na2vs0mg"},{"bike_id":"133b8e33-2941-4c92-8a26-8bb7d11b81a0","system_id":"levelo_inurba_marseille","lat":43.28376,"lon":5.38678,"is_reserved":false,"is_disabled":false,"rental_uris":{"android":"levelo://app?vid=133b8e33-2941-4c92-8a26-8bb7d11b81a0","ios":"levelo://app?vid=133b8e33-2941-4c92-8a26-8bb7d11b81a0"},"vehicle_type_id":"4","last_reported":1746472030,"current_range_meters":3600,"station_id":"ce4bh492rcd13ifvqdvg","pricing_plan_id":"cebpf4jnsgd1na2vs0mg"},{"bike_id":"227e2965-353d-4779-91cd-81ddbdecbc91","system_id":"levelo_inurba_marseille","lat":43.28038,"lon":5.36939,"is_reserved":false,"is_disabled":false,"rental_uris":{"android":"levelo://app?vid=227e2965-353d-4779-91cd-81ddbdecbc91","ios":"levelo://app?vid=227e2965-353d-4779-91cd-81ddbdecbc91"},"vehicle_type_id":"4","last_reported":1746472030,"current_range_meters":4000,"station_id":"ce4bha12rcd13ifvqef0","pricing_plan_id":"cebpf4jnsgd1na2vs0mg"},{"bike_id":"3f7b8d32-11c8-4195-a831-a6e7accde310","system_id":"levelo_inurba_marseille","lat":43.34139,"lon":5.40905,"is_reserved":false,"is_disabled":false,"rental_uris":{"android":"levelo://app?vid=3f7b8d32-11c8-4195-a831-a6e7accde310","ios":"levelo://app?vid=3f7b8d32-11c8-4195-a831-a6e7accde310"},"vehicle_type_id":"4","last_reported":1746472030,"current_range_meters":3600,"station_id":"ce4bhqh2rcd13ifvqhlg","pricing_plan_id":"cebpf4jnsgd1na2vs0mg"},{"bike_id":"99883da1-61e4-417d-9c8f-a43820c91d96","system_id":"levelo_inurba_marseille","lat":43.30926,"lon":5.36841,"is_reserved":false,"is_disabled":false,"rental_uris":{"android":"levelo://app?vid=99883da1-61e4-417d-9c8f-a43820c91d96","ios":"levelo://app?vid=99883da1-61e4-417d-9c8f-a43820c91d96"},"vehicle_type_id":"4","last_reported":1746472030,"current_range_meters":4000,"station_id":"ce4bgn92rcd13ifvqbvg","pricing_plan_id":"cebpf4jnsgd1na2vs0mg"},{"bike_id":"e1b9100d-60a2-4701-9459-d4add500b6e1","system_id":"levelo_inurba_marseille","lat":43.29309,"lon":5.37167,"is_reserved":false,"is_disabled":false,"rental_uris":{"android":"levelo://app?vid=e1b9100d-60a2-4701-9459-d4add500b6e1","ios":"levelo://app?vid=e1b9100d-60a2-4701-9459-d4add500b6e1"},"vehicle_type_id":"4","last_reported":1746472030,"current_range_meters":3600,"station_id":"ce4bgh92rcd13ifvqb40","pricing_plan_id":"cebpf4jnsgd1na2vs0mg"},{"bike_id":"9064d971-3a4c-4284-ab13-670f9e6ead80","system_id":"levelo_inurba_marseille","lat":43.2397,"lon":5.36618,"is_reserved":false,"is_disabled":false,"rental_uris":{"android":"levelo://app?vid=9064d971-3a4c-4284-ab13-670f9e6ead80","ios":"levelo://app?vid=9064d971-3a4c-4284-ab13-670f9e6ead80"},"vehicle_type_id":"4","last_reported":1746472030,"current_range_meters":4400,"station_id":"ce4bhi12rcd13ifvqfp0","pricing_plan_id":"cebpf4jnsgd1na2vs0mg"},{"bike_id":"71d02d7d-dc0c-44c8-b586-524df48893d1","system_id":"levelo_inurba_marseille","lat":43.274559,"lon":5.394242,"is_reserved":false,"is_disabled":false,"rental_uris":{"android":"levelo://app?vid=71d02d7d-dc0c-44c8-b586-524df48893d1","ios":"levelo://app?vid=71d02d7d-dc0c-44c8-b586-524df48893d1"},"vehicle_type_id":"4","last_reported":1746472030,"current_range_meters":4000,"station_id":"ce4bhdp2rcd13ifvqf20","pricing_plan_id":"cebpf4jnsgd1na2vs0mg"},{"bike_id":"1e3195f6-106c-4dd3-8852-0494cfce0d2f","system_id":"levelo_inurba_marseille","lat":43.28609,"lon":5.37062,"is_reserved":false,"is_disabled":false,"rental_uris":{"android":"levelo://app?vid=1e3195f6-106c-4dd3-8852-0494cfce0d2f","ios":"levelo://app?vid=1e3195f6-106c-4dd3-8852-0494cfce0d2f"},"vehicle_type_id":"4","last_reported":1746472030,"current_range_meters":4400,"station_id":"ce4bht12rcd13ifvqi60","pricing_plan_id":"cebpf4jnsgd1na2vs0mg"},{"bike_id":"bc33fce0-9d72-4c94-ade4-a4adf5741948","system_id":"levelo_inurba_marseille","lat":43.298,"lon":5.38086,"is_reserved":false,"is_disabled":false,"rental_uris":{"android":"levelo://app?vid=bc33fce0-9d72-4c94-ade4-a4adf5741948","ios":"levelo://app?vid=bc33fce0-9d72-4c94-ade4-a4adf5741948"},"vehicle_type_id":"4","last_reported":1746472030,"current_range_meters":4400,"station_id":"ce4bgip2rcd13ifvqbb0","pricing_plan_id":"cebpf4jnsgd1na2vs0mg"},{"bike_id":"75e8ec7b-b97d-4041-ba4c-e6403b45949f","system_id":"levelo_inurba_marseille","lat":43.23975,"lon":5.36626,"is_reserved":false,"is_disabled":false,"rental_uris":{"android":"levelo://app?vid=75e8ec7b-b97d-4041-ba4c-e6403b45949f","ios":"levelo://app?vid=75e8ec7b-b97d-4041-ba4c-e6403b45949f"},"vehicle_type_id":"4","last_reported":1746472030,"current_range_meters":4400,"station_id":"ce4bhi12rcd13ifvqfp0","pricing_plan_id":"cebpf4jnsgd1na2vs0mg"},{"bike_id":"b2ccdc84-94c3-42d1-a780-adcca95f1f06","system_id":"levelo_inurba_marseille","lat":43.29971,"lon":5.38498,"is_reserved":false,"is_disabled":true,"rental_uris":{"android":"levelo://app?vid=b2ccdc84-94c3-42d1-a780-adcca95f1f06","ios":"levelo://app?vid=b2ccdc84-94c3-42d1-a780-adcca95f1f06"},"vehicle_type_id":"4","last_reported":1746472030,"current_range_meters":4400,"station_id":"ce4bgj92rcd13ifvqbd0","pricing_plan_id":"cebpf4jnsgd1na2vs0mg"},{"bike_id":"3cdb31d1-0871-49ad-9f40-984e5117d907","system_id":"levelo_inurba_marseille","lat":43.31885,"lon":5.40718,"is_reserved":false,"is_disabled":false,"rental_uris":{"android":"levelo://app?vid=3cdb31d1-0871-49ad-9f40-984e5117d907","ios":"levelo://app?vid=3cdb31d1-0871-49ad-9f40-984e5117d907"},"vehicle_type_id":"4","last_reported":1746472030,"current_range_meters":4800,"station_id":"ce4bhq12rcd13ifvqhig","pricing_plan_id":"cebpf4jnsgd1na2vs0mg"},{"bike_id":"b5f925dc-e712-4427-b50f-50d149dfbeb2","system_id":"levelo_inurba_marseille","lat":43.29555,"lon":5.42293,"is_reserved":false,"is_disabled":false,"rental_uris":{"android":"levelo://app?vid=b5f925dc-e712-4427-b50f-50d149dfbeb2","ios":"levelo://app?vid=b5f925dc-e712-4427-b50f-50d149dfbeb2"},"vehicle_type_id":"4","last_reported":1746472030,"current_range_meters":4800,"station_id":"ce4bhph2rcd13ifvqhdg","pricing_plan_id":"cebpf4jnsgd1na2vs0mg"},{"bike_id":"ba3cf347-4c34-43ce-a258-e1c180db58cf","system_id":"levelo_inurba_marseille","lat":43.2811,"lon":5.37835,"is_reserved":false,"is_disabled":false,"rental_uris":{"android":"levelo://app?vid=ba3cf347-4c34-43ce-a258-e1c180db58cf","ios":"levelo://app?vid=ba3cf347-4c34-43ce-a258-e1c180db58cf"},"vehicle_type_id":"4","last_reported":1746472030,"current_range_meters":4800,"station_id":"ce4bha12rcd13ifvqee0","pricing_plan_id":"cebpf4jnsgd1na2vs0mg"},{"bike_id":"7c596fa2-27b5-4910-a330-101e00592c5c","system_id":"levelo_inurba_marseille","lat":43.31568,"lon":5.38843,"is_reserved":false,"is_disabled":false,"rental_uris":{"android":"levelo://app?vid=7c596fa2-27b5-4910-a330-101e00592c5c","ios":"levelo://app?vid=7c596fa2-27b5-4910-a330-101e00592c5c"},"vehicle_type_id":"4","last_reported":1746472030,"current_range_meters":5600,"station_id":"","pricing_plan_id":"cebpf4jnsgd1na2vs0mg"},{"bike_id":"0c6712bb-c246-4d03-b305-0f5d0e9a0657","system_id":"levelo_inurba_marseille","lat":43.24667,"lon":5.38154,"is_reserved":false,"is_disabled":false,"rental_uris":{"android":"levelo://app?vid=0c6712bb-c246-4d03-b305-0f5d0e9a0657","ios":"levelo://app?vid=0c6712bb-c246-4d03-b305-0f5d0e9a0657"},"vehicle_type_id":"4","last_reported":1746472030,"current_range_meters":5600,"station_id":"ce4bhih2rcd13ifvqfr0","pricing_plan_id":"cebpf4jnsgd1na2vs0mg"},{"bike_id":"6ef972f5-920f-406f-826b-41a48d8b805d","system_id":"levelo_inurba_marseille","lat":43.29868,"lon":5.38922,"is_reserved":false,"is_disabled":false,"rental_uris":{"android":"levelo://app?vid=6ef972f5-920f-406f-826b-41a48d8b805d","ios":"levelo://app?vid=6ef972f5-920f-406f-826b-41a48d8b805d"},"vehicle_type_id":"4","last_reported":1746472030,"current_range_meters":5600,"station_id":"ce4bh392rcd13ifvqdl0","pricing_plan_id":"cebpf4jnsgd1na2vs0mg"},{"bike_id":"0df6ff4a-d789-4276-8939-264863baa64d","system_id":"levelo_inurba_marseille","lat":43.3176,"lon":5.39014,"is_reserved":false,"is_disabled":false,"rental_uris":{"android":"levelo://app?vid=0df6ff4a-d789-4276-8939-264863baa64d","ios":"levelo://app?vid=0df6ff4a-d789-4276-8939-264863baa64d"},"vehicle_type_id":"4","last_reported":1746472030,"current_range_meters":6000,"station_id":"ce4bhqp2rcd13ifvqhng","pricing_plan_id":"cebpf4jnsgd1na2vs0mg"},{"bike_id":"19cc5d4a-3669-481b-add7-2079b93dcf06","system_id":"levelo_inurba_marseille","lat":43.279428,"lon":5.410452,"is_reserved":false,"is_disabled":false,"rental_uris":{"android":"levelo://app?vid=19cc5d4a-3669-481b-add7-2079b93dcf06","ios":"levelo://app?vid=19cc5d4a-3669-481b-add7-2079b93dcf06"},"vehicle_type_id":"4","last_reported":1746472030,"current_range_meters":6000,"station_id":"ce4bhnp2rcd13ifvqh0g","pricing_plan_id":"cebpf4jnsgd1na2vs0mg"},{"bike_id":"98a6d5db-101d-40a9-aedc-1bf80575f220","system_id":"levelo_inurba_marseille","lat":43.32259,"lon":5.36784,"is_reserved":false,"is_disabled":false,"rental_uris":{"android":"levelo://app?vid=98a6d5db-101d-40a9-aedc-1bf80575f220","ios":"levelo://app?vid=98a6d5db-101d-40a9-aedc-1bf80575f220"},"vehicle_type_id":"4","last_reported":1746472030,"current_range_meters":6000,"station_id":"","pricing_plan_id":"cebpf4jnsgd1na2vs0mg"},{"bike_id":"34ead148-64ef-4368-8175-ee025610dd6b","system_id":"levelo_inurba_marseille","lat":43.29884,"lon":5.38919,"is_reserved":false,"is_disabled":false,"rental_uris":{"android":"levelo://app?vid=34ead148-64ef-4368-8175-ee025610dd6b","ios":"levelo://app?vid=34ead148-64ef-4368-8175-ee025610dd6b"},"vehicle_type_id":"4","last_reported":1746472030,"current_range_meters":6000,"station_id":"ce4bh392rcd13ifvqdl0","pricing_plan_id":"cebpf4jnsgd1na2vs0mg"},{"bike_id":"00bbf57b-43d0-4127-83e0-6ec157476023","system_id":"levelo_inurba_marseille","lat":43.27309,"lon":5.39076,"is_reserved":false,"is_disabled":false,"rental_uris":{"android":"levelo://app?vid=00bbf57b-43d0-4127-83e0-6ec157476023","ios":"levelo://app?vid=00bbf57b-43d0-4127-83e0-6ec157476023"},"vehicle_type_id":"4","last_reported":1746472030,"current_range_meters":5600,"station_id":"ce4bhgp2rcd13ifvqfe0","pricing_plan_id":"cebpf4jnsgd1na2vs0mg"},{"bike_id":"5211639e-079a-427f-9e79-a8a504e387f8","system_id":"levelo_inurba_marseille","lat":43.31165,"lon":5.38718,"is_reserved":false,"is_disabled":true,"rental_uris":{"android":"levelo://app?vid=5211639e-079a-427f-9e79-a8a504e387f8","ios":"levelo://app?vid=5211639e-079a-427f-9e79-a8a504e387f8"},"vehicle_type_id":"4","last_reported":1746472030,"current_range_meters":5600,"station_id":"ce4bgv12rcd13ifvqcp0","pricing_plan_id":"cebpf4jnsgd1na2vs0mg"},{"bike_id":"15a6b90c-4c80-4873-913b-34b430ffecae","system_id":"levelo_inurba_marseille","lat":43.28026,"lon":5.36946,"is_reserved":false,"is_disabled":false,"rental_uris":{"android":"levelo://app?vid=15a6b90c-4c80-4873-913b-34b430ffecae","ios":"levelo://app?vid=15a6b90c-4c80-4873-913b-34b430ffecae"},"vehicle_type_id":"4","last_reported":1746472030,"current_range_meters":6400,"station_id":"ce4bha12rcd13ifvqef0","pricing_plan_id":"cebpf4jnsgd1na2vs0mg"},{"bike_id":"e8d3c57f-002a-4ddc-8c08-58b239aae800","system_id":"levelo_inurba_marseille","lat":43.26219,"lon":5.40461,"is_reserved":false,"is_disabled":false,"rental_uris":{"android":"levelo://app?vid=e8d3c57f-002a-4ddc-8c08-58b239aae800","ios":"levelo://app?vid=e8d3c57f-002a-4ddc-8c08-58b239aae800"},"vehicle_type_id":"4","last_reported":1746472030,"current_range_meters":6400,"station_id":"ce4bhmh2rcd13ifvqgmg","pricing_plan_id":"cebpf4jnsgd1na2vs0mg"},{"bike_id":"2f51ff5b-9e12-4b6c-9106-9df85a9d5650","system_id":"levelo_inurba_marseille","lat":43.30151,"lon":5.37346,"is_reserved":false,"is_disabled":true,"rental_uris":{"android":"levelo://app?vid=2f51ff5b-9e12-4b6c-9106-9df85a9d5650","ios":"levelo://app?vid=2f51ff5b-9e12-4b6c-9106-9df85a9d5650"},"vehicle_type_id":"4","last_reported":1746472030,"current_range_meters":6400,"station_id":"ce4bgs92rcd13ifvqcc0","pricing_plan_id":"cebpf4jnsgd1na2vs0mg"},{"bike_id":"26dd9f4d-ce9e-4365-b279-fc9c56040cc4","system_id":"levelo_inurba_marseille","lat":43.32364,"lon":5.36765,"is_reserved":false,"is_disabled":false,"rental_uris":{"android":"levelo://app?vid=26dd9f4d-ce9e-4365-b279-fc9c56040cc4","ios":"levelo://app?vid=26dd9f4d-ce9e-4365-b279-fc9c56040cc4"},"vehicle_type_id":"4","last_reported":1746472030,"current_range_meters":6400,"station_id":"ce4bhsh2rcd13ifvqi2g","pricing_plan_id":"cebpf4jnsgd1na2vs0mg"},{"bike_id":"0aaab185-1839-4a36-80a2-f4c1c5199386","system_id":"levelo_inurba_marseille","lat":43.25822,"lon":5.39435,"is_reserved":false,"is_disabled":false,"rental_uris":{"android":"levelo://app?vid=0aaab185-1839-4a36-80a2-f4c1c5199386","ios":"levelo://app?vid=0aaab185-1839-4a36-80a2-f4c1c5199386"},"vehicle_type_id":"4","last_reported":1746472030,"current_range_meters":6400,"station_id":"ce4bhip2rcd13ifvqft0","pricing_plan_id":"cebpf4jnsgd1na2vs0mg"},{"bike_id":"e39f59e6-03b3-4aed-960e-86eff082a28f","system_id":"levelo_inurba_marseille","lat":43.31487,"lon":5.37305,"is_reserved":false,"is_disabled":false,"rental_uris":{"android":"levelo://app?vid=e39f59e6-03b3-4aed-960e-86eff082a28f","ios":"levelo://app?vid=e39f59e6-03b3-4aed-960e-86eff082a28f"},"vehicle_type_id":"4","last_reported":1746472030,"current_range_meters":6000,"station_id":"ce4bgt12rcd13ifvqcd0","pricing_plan_id":"cebpf4jnsgd1na2vs0mg"},{"bike_id":"9560e695-2cb4-4bfb-b95c-1c8364f718f8","system_id":"levelo_inurba_marseille","lat":43.25821,"lon":5.39433,"is_reserved":false,"is_disabled":false,"rental_uris":{"android":"levelo://app?vid=9560e695-2cb4-4bfb-b95c-1c8364f718f8","ios":"levelo://app?vid=9560e695-2cb4-4bfb-b95c-1c8364f718f8"},"vehicle_type_id":"4","last_reported":1746472030,"current_range_meters":6400,"station_id":"ce4bhip2rcd13ifvqft0","pricing_plan_id":"cebpf4jnsgd1na2vs0mg"},{"bike_id":"45ad1945-c63d-431f-b6b0-de47069ab68a","system_id":"levelo_inurba_marseille","lat":43.28466,"lon":5.35876,"is_reserved":false,"is_disabled":false,"rental_uris":{"android":"levelo://app?vid=45ad1945-c63d-431f-b6b0-de47069ab68a","ios":"levelo://app?vid=45ad1945-c63d-431f-b6b0-de47069ab68a"},"vehicle_type_id":"4","last_reported":1746472030,"current_range_meters":6800,"station_id":"ce4bhah2rcd13ifvqei0","pricing_plan_id":"cebpf4jnsgd1na2vs0mg"},{"bike_id":"66b646b3-6352-44bb-9bfb-21570512e3e5","system_id":"levelo_inurba_marseille","lat":43.2811,"lon":5.40378,"is_reserved":false,"is_disabled":false,"rental_uris":{"android":"levelo://app?vid=66b646b3-6352-44bb-9bfb-21570512e3e5","ios":"levelo://app?vid=66b646b3-6352-44bb-9bfb-21570512e3e5"},"vehicle_type_id":"4","last_reported":1746472030,"current_range_meters":6800,"station_id":"","pricing_plan_id":"cebpf4jnsgd1na2vs0mg"},{"bike_id":"0c7a3c18-a22f-42fd-89d1-abcee39a4c02","system_id":"levelo_inurba_marseille","lat":43.27978,"lon":5.38746,"is_reserved":false,"is_disabled":false,"rental_uris":{"android":"levelo://app?vid=0c7a3c18-a22f-42fd-89d1-abcee39a4c02","ios":"levelo://app?vid=0c7a3c18-a22f-42fd-89d1-abcee39a4c02"},"vehicle_type_id":"4","last_reported":1746472030,"current_range_meters":3200,"station_id":"ce4bhg12rcd13ifvqf80","pricing_plan_id":"cebpf4jnsgd1na2vs0mg"},{"bike_id":"cb783a9c-c0ce-4024-9ab5-c20ebe36ef52","system_id":"levelo_inurba_marseille","lat":43.29568,"lon":5.37527,"is_reserved":false,"is_disabled":false,"rental_uris":{"android":"levelo://app?vid=cb783a9c-c0ce-4024-9ab5-c20ebe36ef52","ios":"levelo://app?vid=cb783a9c-c0ce-4024-9ab5-c20ebe36ef52"},"vehicle_type_id":"4","last_reported":1746472030,"current_range_meters":6800,"station_id":"ce4bgh92rcd13ifvqb50","pricing_plan_id":"cebpf4jnsgd1na2vs0mg"},{"bike_id":"52ea25dd-6a04-4ff0-9cde-37ffb4d6b85f","system_id":"levelo_inurba_marseille","lat":43.30196,"lon":5.40047,"is_reserved":false,"is_disabled":false,"rental_uris":{"android":"levelo://app?vid=52ea25dd-6a04-4ff0-9cde-37ffb4d6b85f","ios":"levelo://app?vid=52ea25dd-6a04-4ff0-9cde-37ffb4d6b85f"},"vehicle_type_id":"4","last_reported":1746472030,"current_range_meters":6800,"station_id":"","pricing_plan_id":"cebpf4jnsgd1na2vs0mg"},{"bike_id":"7e868914-9760-4825-9eae-3a348893ca72","system_id":"levelo_inurba_marseille","lat":43.31273,"lon":5.40173,"is_reserved":false,"is_disabled":false,"rental_uris":{"android":"levelo://app?vid=7e868914-9760-4825-9eae-3a348893ca72","ios":"levelo://app?vid=7e868914-9760-4825-9eae-3a348893ca72"},"vehicle_type_id":"4","last_reported":1746472030,"current_range_meters":6800,"station_id":"ce4bh092rcd13ifvqd30","pricing_plan_id":"cebpf4jnsgd1na2vs0mg"},{"bike_id":"bdae0cb4-0523-48ef-b056-7556eab7e605","system_id":"levelo_inurba_marseille","lat":43.28568,"lon":5.395,"is_reserved":false,"is_disabled":false,"rental_uris":{"android":"levelo://app?vid=bdae0cb4-0523-48ef-b056-7556eab7e605","ios":"levelo://app?vid=bdae0cb4-0523-48ef-b056-7556eab7e605"},"vehicle_type_id":"4","last_reported":1746472030,"current_range_meters":7200,"station_id":"ce4bh292rcd13ifvqdg0","pricing_plan_id":"cebpf4jnsgd1na2vs0mg"},{"bike_id":"dabbe6e9-1e27-4af0-8303-5970a7196813","system_id":"levelo_inurba_marseille","lat":43.28863,"lon":5.35838,"is_reserved":false,"is_disabled":false,"rental_uris":{"android":"levelo://app?vid=dabbe6e9-1e27-4af0-8303-5970a7196813","ios":"levelo://app?vid=dabbe6e9-1e27-4af0-8303-5970a7196813"},"vehicle_type_id":"4","last_reported":1746472030,"current_range_meters":7200,"station_id":"ce4bhb12rcd13ifvqem0","pricing_plan_id":"cebpf4jnsgd1na2vs0mg"},{"bike_id":"7bac376f-17c2-4484-a95b-9218bce59ef6","system_id":"levelo_inurba_marseille","lat":43.24661,"lon":5.38163,"is_reserved":false,"is_disabled":false,"rental_uris":{"android":"levelo://app?vid=7bac376f-17c2-4484-a95b-9218bce59ef6","ios":"levelo://app?vid=7bac376f-17c2-4484-a95b-9218bce59ef6"},"vehicle_type_id":"4","last_reported":1746472030,"current_range_meters":7200,"station_id":"","pricing_plan_id":"cebpf4jnsgd1na2vs0mg"},{"bike_id":"72ce879e-d715-493f-958a-46f9c7d119d9","system_id":"levelo_inurba_marseille","lat":43.331085,"lon":5.382315,"is_reserved":false,"is_disabled":false,"rental_uris":{"android":"levelo://app?vid=72ce879e-d715-493f-958a-46f9c7d119d9","ios":"levelo://app?vid=72ce879e-d715-493f-958a-46f9c7d119d9"},"vehicle_type_id":"4","last_reported":1746472030,"current_range_meters":7200,"station_id":"","pricing_plan_id":"cebpf4jnsgd1na2vs0mg"},{"bike_id":"c7569f25-9bc2-4a7b-94d5-25bad92fcfaa","system_id":"levelo_inurba_marseille","lat":43.27901,"lon":5.38268,"is_reserved":false,"is_disabled":false,"rental_uris":{"android":"levelo://app?vid=c7569f25-9bc2-4a7b-94d5-25bad92fcfaa","ios":"levelo://app?vid=c7569f25-9bc2-4a7b-94d5-25bad92fcfaa"},"vehicle_type_id":"4","last_reported":1746472030,"current_range_meters":7200,"station_id":"","pricing_plan_id":"cebpf4jnsgd1na2vs0mg"},{"bike_id":"3f03faa1-aab4-4cbb-9b60-c64d1d19096f","system_id":"levelo_inurba_marseille","lat":43.27891,"lon":5.38017,"is_reserved":false,"is_disabled":false,"rental_uris":{"android":"levelo://app?vid=3f03faa1-aab4-4cbb-9b60-c64d1d19096f","ios":"levelo://app?vid=3f03faa1-aab4-4cbb-9b60-c64d1d19096f"},"vehicle_type_id":"4","last_reported":1746472030,"current_range_meters":7200,"station_id":"ce4bhf92rcd13ifvqf50","pricing_plan_id":"cebpf4jnsgd1na2vs0mg"},{"bike_id":"2c488c66-db1f-4eb1-b8a8-65da619378ac","system_id":"levelo_inurba_marseille","lat":43.29916,"lon":5.38131,"is_reserved":false,"is_disabled":true,"rental_uris":{"android":"levelo://app?vid=2c488c66-db1f-4eb1-b8a8-65da619378ac","ios":"levelo://app?vid=2c488c66-db1f-4eb1-b8a8-65da619378ac"},"vehicle_type_id":"4","last_reported":1746472030,"current_range_meters":7200,"station_id":"ce4bgj12rcd13ifvqbc0","pricing_plan_id":"cebpf4jnsgd1na2vs0mg"},{"bike_id":"787eb14d-7f4c-493c-ae5e-7127aa812153","system_id":"levelo_inurba_marseille","lat":43.29196,"lon":5.36891,"is_reserved":false,"is_disabled":false,"rental_uris":{"android":"levelo://app?vid=787eb14d-7f4c-493c-ae5e-7127aa812153","ios":"levelo://app?vid=787eb14d-7f4c-493c-ae5e-7127aa812153"},"vehicle_type_id":"4","last_reported":1746472030,"current_range_meters":7200,"station_id":"","pricing_plan_id":"cebpf4jnsgd1na2vs0mg"},{"bike_id":"f4058794-639c-4973-ab5d-8009a25ee731","system_id":"levelo_inurba_marseille","lat":43.23966,"lon":5.36617,"is_reserved":false,"is_disabled":false,"rental_uris":{"android":"levelo://app?vid=f4058794-639c-4973-ab5d-8009a25ee731","ios":"levelo://app?vid=f4058794-639c-4973-ab5d-8009a25ee731"},"vehicle_type_id":"4","last_reported":1746472030,"current_range_meters":8000,"station_id":"ce4bhi12rcd13ifvqfp0","pricing_plan_id":"cebpf4jnsgd1na2vs0mg"},{"bike_id":"56971e3f-b18c-4f82-9293-fa984b035fb0","system_id":"levelo_inurba_marseille","lat":43.289952,"lon":5.381419,"is_reserved":false,"is_disabled":false,"rental_uris":{"android":"levelo://app?vid=56971e3f-b18c-4f82-9293-fa984b035fb0","ios":"levelo://app?vid=56971e3f-b18c-4f82-9293-fa984b035fb0"},"vehicle_type_id":"4","last_reported":1746472030,"current_range_meters":8000,"station_id":"ce4bh4p2rcd13ifvqe1g","pricing_plan_id":"cebpf4jnsgd1na2vs0mg"},{"bike_id":"07befab8-338e-4609-a472-6e839c9eef6e","system_id":"levelo_inurba_marseille","lat":43.30419,"lon":5.38871,"is_reserved":false,"is_disabled":false,"rental_uris":{"android":"levelo://app?vid=07befab8-338e-4609-a472-6e839c9eef6e","ios":"levelo://app?vid=07befab8-338e-4609-a472-6e839c9eef6e"},"vehicle_type_id":"4","last_reported":1746472030,"current_range_meters":8400,"station_id":"ce4bgk12rcd13ifvqbi0","pricing_plan_id":"cebpf4jnsgd1na2vs0mg"},{"bike_id":"20310917-a4aa-4fae-8ac4-127e9033263b","system_id":"levelo_inurba_marseille","lat":43.25937,"lon":5.40899,"is_reserved":false,"is_disabled":false,"rental_uris":{"android":"levelo://app?vid=20310917-a4aa-4fae-8ac4-127e9033263b","ios":"levelo://app?vid=20310917-a4aa-4fae-8ac4-127e9033263b"},"vehicle_type_id":"4","last_reported":1746472030,"current_range_meters":8000,"station_id":"ce4bhm92rcd13ifvqglg","pricing_plan_id":"cebpf4jnsgd1na2vs0mg"},{"bike_id":"71e8079a-0ad3-433c-8750-7f561b0ab694","system_id":"levelo_inurba_marseille","lat":43.29517,"lon":5.39416,"is_reserved":false,"is_disabled":false,"rental_uris":{"android":"levelo://app?vid=71e8079a-0ad3-433c-8750-7f561b0ab694","ios":"levelo://app?vid=71e8079a-0ad3-433c-8750-7f561b0ab694"},"vehicle_type_id":"4","last_reported":1746472030,"current_range_meters":8000,"station_id":"ce4bh292rcd13ifvqdf0","pricing_plan_id":"cebpf4jnsgd1na2vs0mg"},{"bike_id":"10d563a4-424a-4a44-88bc-065a04b5247a","system_id":"levelo_inurba_marseille","lat":43.21751,"lon":5.34604,"is_reserved":false,"is_disabled":true,"rental_uris":{"android":"levelo://app?vid=10d563a4-424a-4a44-88bc-065a04b5247a","ios":"levelo://app?vid=10d563a4-424a-4a44-88bc-065a04b5247a"},"vehicle_type_id":"4","last_reported":1746472030,"current_range_meters":8000,"station_id":"","pricing_plan_id":"cebpf4jnsgd1na2vs0mg"},{"bike_id":"0dccfd84-9f3b-46f0-af70-4636a4552ffe","system_id":"levelo_inurba_marseille","lat":43.29418,"lon":5.38625,"is_reserved":false,"is_disabled":false,"rental_uris":{"android":"levelo://app?vid=0dccfd84-9f3b-46f0-af70-4636a4552ffe","ios":"levelo://app?vid=0dccfd84-9f3b-46f0-af70-4636a4552ffe"},"vehicle_type_id":"4","last_reported":1746472030,"current_range_meters":8400,"station_id":"ce4bh2h2rcd13ifvqdh0","pricing_plan_id":"cebpf4jnsgd1na2vs0mg"},{"bike_id":"e0b13dfb-22f9-4a0c-a49b-aa8530e3642e","system_id":"levelo_inurba_marseille","lat":43.281713,"lon":5.42645,"is_reserved":false,"is_disabled":false,"rental_uris":{"android":"levelo://app?vid=e0b13dfb-22f9-4a0c-a49b-aa8530e3642e","ios":"levelo://app?vid=e0b13dfb-22f9-4a0c-a49b-aa8530e3642e"},"vehicle_type_id":"4","last_reported":1746472030,"current_range_meters":8400,"station_id":"ce4bhnh2rcd13ifvqgug","pricing_plan_id":"cebpf4jnsgd1na2vs0mg"},{"bike_id":"85984233-25bf-4a45-be10-59341371a51c","system_id":"levelo_inurba_marseille","lat":43.30573,"lon":5.41053,"is_reserved":false,"is_disabled":false,"rental_uris":{"android":"levelo://app?vid=85984233-25bf-4a45-be10-59341371a51c","ios":"levelo://app?vid=85984233-25bf-4a45-be10-59341371a51c"},"vehicle_type_id":"4","last_reported":1746472030,"current_range_meters":8400,"station_id":"","pricing_plan_id":"cebpf4jnsgd1na2vs0mg"},{"bike_id":"48db006a-0139-4e59-a072-46f7bb685082","system_id":"levelo_inurba_marseille","lat":43.28431,"lon":5.39199,"is_reserved":false,"is_disabled":false,"rental_uris":{"android":"levelo://app?vid=48db006a-0139-4e59-a072-46f7bb685082","ios":"levelo://app?vid=48db006a-0139-4e59-a072-46f7bb685082"},"vehicle_type_id":"4","last_reported":1746472030,"current_range_meters":8400,"station_id":"ce4bhoh2rcd13ifvqh5g","pricing_plan_id":"cebpf4jnsgd1na2vs0mg"},{"bike_id":"d08e881c-4ac2-413a-af9c-5ff0285ab7f6","system_id":"levelo_inurba_marseille","lat":43.27951,"lon":5.41015,"is_reserved":false,"is_disabled":false,"rental_uris":{"android":"levelo://app?vid=d08e881c-4ac2-413a-af9c-5ff0285ab7f6","ios":"levelo://app?vid=d08e881c-4ac2-413a-af9c-5ff0285ab7f6"},"vehicle_type_id":"4","last_reported":1746472030,"current_range_meters":8400,"station_id":"ce4bhnp2rcd13ifvqh0g","pricing_plan_id":"cebpf4jnsgd1na2vs0mg"},{"bike_id":"0ef2db6d-b905-4967-af12-894c991d5ae2","system_id":"levelo_inurba_marseille","lat":43.31334,"lon":5.39665,"is_reserved":false,"is_disabled":false,"rental_uris":{"android":"levelo://app?vid=0ef2db6d-b905-4967-af12-894c991d5ae2","ios":"levelo://app?vid=0ef2db6d-b905-4967-af12-894c991d5ae2"},"vehicle_type_id":"4","last_reported":1746472030,"current_range_meters":8400,"station_id":"ce4bgvp2rcd13ifvqcu0","pricing_plan_id":"cebpf4jnsgd1na2vs0mg"},{"bike_id":"18dd529e-2b97-47be-b9e7-9a4e261ee4c7","system_id":"levelo_inurba_marseille","lat":43.29199,"lon":5.39325,"is_reserved":false,"is_disabled":false,"rental_uris":{"android":"levelo://app?vid=18dd529e-2b97-47be-b9e7-9a4e261ee4c7","ios":"levelo://app?vid=18dd529e-2b97-47be-b9e7-9a4e261ee4c7"},"vehicle_type_id":"4","last_reported":1746472030,"current_range_meters":8400,"station_id":"ce4bh192rcd13ifvqdd0","pricing_plan_id":"cebpf4jnsgd1na2vs0mg"},{"bike_id":"7ade92bd-408e-4427-962d-c2839a4a4592","system_id":"levelo_inurba_marseille","lat":43.28936,"lon":5.36633,"is_reserved":false,"is_disabled":false,"rental_uris":{"android":"levelo://app?vid=7ade92bd-408e-4427-962d-c2839a4a4592","ios":"levelo://app?vid=7ade92bd-408e-4427-962d-c2839a4a4592"},"vehicle_type_id":"4","last_reported":1746472030,"current_range_meters":8400,"station_id":"ce4bhap2rcd13ifvqek0","pricing_plan_id":"cebpf4jnsgd1na2vs0mg"},{"bike_id":"e649537b-f530-4ebf-9f7a-b1061bb03d7f","system_id":"levelo_inurba_marseille","lat":43.29849,"lon":5.36283,"is_reserved":false,"is_disabled":false,"rental_uris":{"android":"levelo://app?vid=e649537b-f530-4ebf-9f7a-b1061bb03d7f","ios":"levelo://app?vid=e649537b-f530-4ebf-9f7a-b1061bb03d7f"},"vehicle_type_id":"4","last_reported":1746472030,"current_range_meters":8400,"station_id":"ce4bgpp2rcd13ifvqc3g","pricing_plan_id":"cebpf4jnsgd1na2vs0mg"},{"bike_id":"2e9f0ca9-e0dc-426a-8a9e-ad743ff255f6","system_id":"levelo_inurba_marseille","lat":43.27417,"lon":5.39412,"is_reserved":false,"is_disabled":false,"rental_uris":{"android":"levelo://app?vid=2e9f0ca9-e0dc-426a-8a9e-ad743ff255f6","ios":"levelo://app?vid=2e9f0ca9-e0dc-426a-8a9e-ad743ff255f6"},"vehicle_type_id":"4","last_reported":1746472030,"current_range_meters":8800,"station_id":"ce4bhdp2rcd13ifvqf20","pricing_plan_id":"cebpf4jnsgd1na2vs0mg"},{"bike_id":"5c7249a3-596f-4101-8dbd-1087a1f3b438","system_id":"levelo_inurba_marseille","lat":43.231907,"lon":5.355607,"is_reserved":false,"is_disabled":false,"rental_uris":{"android":"levelo://app?vid=5c7249a3-596f-4101-8dbd-1087a1f3b438","ios":"levelo://app?vid=5c7249a3-596f-4101-8dbd-1087a1f3b438"},"vehicle_type_id":"4","last_reported":1746472030,"current_range_meters":8800,"station_id":"ce4bhu92rcd13ifvqi70","pricing_plan_id":"cebpf4jnsgd1na2vs0mg"},{"bike_id":"c09ea777-4820-4446-a39e-27f178253565","system_id":"levelo_inurba_marseille","lat":43.30417,"lon":5.39739,"is_reserved":false,"is_disabled":false,"rental_uris":{"android":"levelo://app?vid=c09ea777-4820-4446-a39e-27f178253565","ios":"levelo://app?vid=c09ea777-4820-4446-a39e-27f178253565"},"vehicle_type_id":"4","last_reported":1746472030,"current_range_meters":8400,"station_id":"ce4bh092rcd13ifvqd20","pricing_plan_id":"cebpf4jnsgd1na2vs0mg"},{"bike_id":"f0372572-37a2-479a-9e2a-2f7d8c6f4a9e","system_id":"levelo_inurba_marseille","lat":43.29274,"lon":5.36842,"is_reserved":false,"is_disabled":false,"rental_uris":{"android":"levelo://app?vid=f0372572-37a2-479a-9e2a-2f7d8c6f4a9e","ios":"levelo://app?vid=f0372572-37a2-479a-9e2a-2f7d8c6f4a9e"},"vehicle_type_id":"4","last_reported":1746472030,"current_range_meters":8800,"station_id":"ce4bhbp2rcd13ifvqesg","pricing_plan_id":"cebpf4jnsgd1na2vs0mg"},{"bike_id":"9e862383-f487-455c-8ea2-be1788902ba1","system_id":"levelo_inurba_marseille","lat":43.29416,"lon":5.38631,"is_reserved":false,"is_disabled":false,"rental_uris":{"android":"levelo://app?vid=9e862383-f487-455c-8ea2-be1788902ba1","ios":"levelo://app?vid=9e862383-f487-455c-8ea2-be1788902ba1"},"vehicle_type_id":"4","last_reported":1746472030,"current_range_meters":8800,"station_id":"ce4bh2h2rcd13ifvqdh0","pricing_plan_id":"cebpf4jnsgd1na2vs0mg"},{"bike_id":"148fe0e1-4ced-4b59-a5f4-0b6b58bf9fb1","system_id":"levelo_inurba_marseille","lat":43.28469,"lon":5.38433,"is_reserved":false,"is_disabled":false,"rental_uris":{"android":"levelo://app?vid=148fe0e1-4ced-4b59-a5f4-0b6b58bf9fb1","ios":"levelo://app?vid=148fe0e1-4ced-4b59-a5f4-0b6b58bf9fb1"},"vehicle_type_id":"4","last_reported":1746472030,"current_range_meters":8800,"station_id":"ce4bh512rcd13ifvqe3g","pricing_plan_id":"cebpf4jnsgd1na2vs0mg"},{"bike_id":"1cfa4349-2605-4904-b6ff-a5cd9e08fa01","system_id":"levelo_inurba_marseille","lat":43.29112,"lon":5.38142,"is_reserved":false,"is_disabled":true,"rental_uris":{"android":"levelo://app?vid=1cfa4349-2605-4904-b6ff-a5cd9e08fa01","ios":"levelo://app?vid=1cfa4349-2605-4904-b6ff-a5cd9e08fa01"},"vehicle_type_id":"4","last_reported":1746472030,"current_range_meters":8800,"station_id":"ce4bh512rcd13ifvqe2g","pricing_plan_id":"cebpf4jnsgd1na2vs0mg"},{"bike_id":"d9ebccfe-dd7b-4132-a6f6-002262765ed4","system_id":"levelo_inurba_marseille","lat":43.27989,"lon":5.40008,"is_reserved":false,"is_disabled":false,"rental_uris":{"android":"levelo://app?vid=d9ebccfe-dd7b-4132-a6f6-002262765ed4","ios":"levelo://app?vid=d9ebccfe-dd7b-4132-a6f6-002262765ed4"},"vehicle_type_id":"4","last_reported":1746472030,"current_range_meters":8800,"station_id":"ce4bho92rcd13ifvqh4g","pricing_plan_id":"cebpf4jnsgd1na2vs0mg"},{"bike_id":"b548ba0c-b9fb-4076-ae94-241cd68b285f","system_id":"levelo_inurba_marseille","lat":43.29568,"lon":5.37535,"is_reserved":false,"is_disabled":false,"rental_uris":{"android":"levelo://app?vid=b548ba0c-b9fb-4076-ae94-241cd68b285f","ios":"levelo://app?vid=b548ba0c-b9fb-4076-ae94-241cd68b285f"},"vehicle_type_id":"4","last_reported":1746472030,"current_range_meters":8800,"station_id":"ce4bgh92rcd13ifvqb50","pricing_plan_id":"cebpf4jnsgd1na2vs0mg"},{"bike_id":"8e310206-910f-410c-ade7-b0f0f03a4047","system_id":"levelo_inurba_marseille","lat":43.28447,"lon":5.35888,"is_reserved":false,"is_disabled":false,"rental_uris":{"android":"levelo://app?vid=8e310206-910f-410c-ade7-b0f0f03a4047","ios":"levelo://app?vid=8e310206-910f-410c-ade7-b0f0f03a4047"},"vehicle_type_id":"4","last_reported":1746472030,"current_range_meters":8800,"station_id":"ce4bhah2rcd13ifvqei0","pricing_plan_id":"cebpf4jnsgd1na2vs0mg"},{"bike_id":"2306010e-85bf-4d9b-a6bc-107f35580834","system_id":"levelo_inurba_marseille","lat":43.2583,"lon":5.39423,"is_reserved":false,"is_disabled":false,"rental_uris":{"android":"levelo://app?vid=2306010e-85bf-4d9b-a6bc-107f35580834","ios":"levelo://app?vid=2306010e-85bf-4d9b-a6bc-107f35580834"},"vehicle_type_id":"4","last_reported":1746472030,"current_range_meters":8800,"station_id":"ce4bhip2rcd13ifvqft0","pricing_plan_id":"cebpf4jnsgd1na2vs0mg"},{"bike_id":"27927e1e-5c20-45bd-baec-36eae91cc014","system_id":"levelo_inurba_marseille","lat":43.289359,"lon":5.363891,"is_reserved":false,"is_disabled":false,"rental_uris":{"android":"levelo://app?vid=27927e1e-5c20-45bd-baec-36eae91cc014","ios":"levelo://app?vid=27927e1e-5c20-45bd-baec-36eae91cc014"},"vehicle_type_id":"4","last_reported":1746472030,"current_range_meters":8800,"station_id":"ce4bhc92rcd13ifvqetg","pricing_plan_id":"cebpf4jnsgd1na2vs0mg"},{"bike_id":"3fe14760-50d4-43a8-b058-218490851f16","system_id":"levelo_inurba_marseille","lat":43.28887,"lon":5.3586,"is_reserved":false,"is_disabled":false,"rental_uris":{"android":"levelo://app?vid=3fe14760-50d4-43a8-b058-218490851f16","ios":"levelo://app?vid=3fe14760-50d4-43a8-b058-218490851f16"},"vehicle_type_id":"4","last_reported":1746472030,"current_range_meters":8800,"station_id":"ce4bhb12rcd13ifvqem0","pricing_plan_id":"cebpf4jnsgd1na2vs0mg"},{"bike_id":"404f6b56-6c33-4aa5-81c5-b1c9984a7488","system_id":"levelo_inurba_marseille","lat":43.30412,"lon":5.41268,"is_reserved":false,"is_disabled":false,"rental_uris":{"android":"levelo://app?vid=404f6b56-6c33-4aa5-81c5-b1c9984a7488","ios":"levelo://app?vid=404f6b56-6c33-4aa5-81c5-b1c9984a7488"},"vehicle_type_id":"4","last_reported":1746472030,"current_range_meters":9200,"station_id":"ce4bhop2rcd13ifvqh8g","pricing_plan_id":"cebpf4jnsgd1na2vs0mg"},{"bike_id":"97c6fc84-974f-4d67-8f98-efc26945f433","system_id":"levelo_inurba_marseille","lat":43.31357,"lon":5.38492,"is_reserved":false,"is_disabled":false,"rental_uris":{"android":"levelo://app?vid=97c6fc84-974f-4d67-8f98-efc26945f433","ios":"levelo://app?vid=97c6fc84-974f-4d67-8f98-efc26945f433"},"vehicle_type_id":"4","last_reported":1746472030,"current_range_meters":9200,"station_id":"ce4bgt92rcd13ifvqcf0","pricing_plan_id":"cebpf4jnsgd1na2vs0mg"},{"bike_id":"482344f1-460c-48ea-83dd-01b9a385e5cf","system_id":"levelo_inurba_marseille","lat":43.30711,"lon":5.36802,"is_reserved":false,"is_disabled":false,"rental_uris":{"android":"levelo://app?vid=482344f1-460c-48ea-83dd-01b9a385e5cf","ios":"levelo://app?vid=482344f1-460c-48ea-83dd-01b9a385e5cf"},"vehicle_type_id":"4","last_reported":1746472030,"current_range_meters":9200,"station_id":"","pricing_plan_id":"cebpf4jnsgd1na2vs0mg"},{"bike_id":"2c68baa8-0922-43ce-af81-fbea120b710a","system_id":"levelo_inurba_marseille","lat":43.27369,"lon":5.36261,"is_reserved":false,"is_disabled":false,"rental_uris":{"android":"levelo://app?vid=2c68baa8-0922-43ce-af81-fbea120b710a","ios":"levelo://app?vid=2c68baa8-0922-43ce-af81-fbea120b710a"},"vehicle_type_id":"4","last_reported":1746472030,"current_range_meters":9200,"station_id":"ce4bhbh2rcd13ifvqeo0","pricing_plan_id":"cebpf4jnsgd1na2vs0mg"},{"bike_id":"4191b636-d2e0-4742-a5c7-c68898f50195","system_id":"levelo_inurba_marseille","lat":43.28112,"lon":5.37835,"is_reserved":false,"is_disabled":false,"rental_uris":{"android":"levelo://app?vid=4191b636-d2e0-4742-a5c7-c68898f50195","ios":"levelo://app?vid=4191b636-d2e0-4742-a5c7-c68898f50195"},"vehicle_type_id":"4","last_reported":1746472030,"current_range_meters":9200,"station_id":"ce4bha12rcd13ifvqee0","pricing_plan_id":"cebpf4jnsgd1na2vs0mg"},{"bike_id":"58b10c05-4f26-42a8-867b-b313cf96d889","system_id":"levelo_inurba_marseille","lat":43.31356,"lon":5.38491,"is_reserved":false,"is_disabled":false,"rental_uris":{"android":"levelo://app?vid=58b10c05-4f26-42a8-867b-b313cf96d889","ios":"levelo://app?vid=58b10c05-4f26-42a8-867b-b313cf96d889"},"vehicle_type_id":"4","last_reported":1746472030,"current_range_meters":9200,"station_id":"ce4bgt92rcd13ifvqcf0","pricing_plan_id":"cebpf4jnsgd1na2vs0mg"},{"bike_id":"b73c5f22-57c3-42fb-a428-749049909d64","system_id":"levelo_inurba_marseille","lat":43.2795,"lon":5.41031,"is_reserved":false,"is_disabled":false,"rental_uris":{"android":"levelo://app?vid=b73c5f22-57c3-42fb-a428-749049909d64","ios":"levelo://app?vid=b73c5f22-57c3-42fb-a428-749049909d64"},"vehicle_type_id":"4","last_reported":1746472030,"current_range_meters":9200,"station_id":"ce4bhnp2rcd13ifvqh0g","pricing_plan_id":"cebpf4jnsgd1na2vs0mg"},{"bike_id":"ff458274-9804-4655-b356-c6ef913d2a65","system_id":"levelo_inurba_marseille","lat":43.29571,"lon":5.37494,"is_reserved":false,"is_disabled":false,"rental_uris":{"android":"levelo://app?vid=ff458274-9804-4655-b356-c6ef913d2a65","ios":"levelo://app?vid=ff458274-9804-4655-b356-c6ef913d2a65"},"vehicle_type_id":"4","last_reported":1746472030,"current_range_meters":9200,"station_id":"ce4bgh92rcd13ifvqb50","pricing_plan_id":"cebpf4jnsgd1na2vs0mg"},{"bike_id":"04b4674b-4434-40e5-9e75-4a7229750edd","system_id":"levelo_inurba_marseille","lat":43.27943,"lon":5.41049,"is_reserved":false,"is_disabled":false,"rental_uris":{"android":"levelo://app?vid=04b4674b-4434-40e5-9e75-4a7229750edd","ios":"levelo://app?vid=04b4674b-4434-40e5-9e75-4a7229750edd"},"vehicle_type_id":"4","last_reported":1746472030,"current_range_meters":9600,"station_id":"ce4bhnp2rcd13ifvqh0g","pricing_plan_id":"cebpf4jnsgd1na2vs0mg"},{"bike_id":"6ad6a254-1cf7-4bef-b10d-eb631a70aaa5","system_id":"levelo_inurba_marseille","lat":43.26686,"lon":5.38271,"is_reserved":false,"is_disabled":false,"rental_uris":{"android":"levelo://app?vid=6ad6a254-1cf7-4bef-b10d-eb631a70aaa5","ios":"levelo://app?vid=6ad6a254-1cf7-4bef-b10d-eb631a70aaa5"},"vehicle_type_id":"4","last_reported":1746472030,"current_range_meters":9600,"station_id":"ce4bhg92rcd13ifvqf90","pricing_plan_id":"cebpf4jnsgd1na2vs0mg"},{"bike_id":"a105130d-2c0b-47d7-ad9e-26b35e0360b8","system_id":"levelo_inurba_marseille","lat":43.23959,"lon":5.36634,"is_reserved":false,"is_disabled":false,"rental_uris":{"android":"levelo://app?vid=a105130d-2c0b-47d7-ad9e-26b35e0360b8","ios":"levelo://app?vid=a105130d-2c0b-47d7-ad9e-26b35e0360b8"},"vehicle_type_id":"4","last_reported":1746472030,"current_range_meters":9600,"station_id":"ce4bhi12rcd13ifvqfp0","pricing_plan_id":"cebpf4jnsgd1na2vs0mg"},{"bike_id":"bda5329c-0ca8-4429-8276-953c6ccd9961","system_id":"levelo_inurba_marseille","lat":43.279953,"lon":5.416593,"is_reserved":false,"is_disabled":false,"rental_uris":{"android":"levelo://app?vid=bda5329c-0ca8-4429-8276-953c6ccd9961","ios":"levelo://app?vid=bda5329c-0ca8-4429-8276-953c6ccd9961"},"vehicle_type_id":"4","last_reported":1746472030,"current_range_meters":9600,"station_id":"ce4bho12rcd13ifvqh1g","pricing_plan_id":"cebpf4jnsgd1na2vs0mg"},{"bike_id":"554df274-768b-4d34-bd1d-6e9b4a125a7a","system_id":"levelo_inurba_marseille","lat":43.31483,"lon":5.37299,"is_reserved":false,"is_disabled":false,"rental_uris":{"android":"levelo://app?vid=554df274-768b-4d34-bd1d-6e9b4a125a7a","ios":"levelo://app?vid=554df274-768b-4d34-bd1d-6e9b4a125a7a"},"vehicle_type_id":"4","last_reported":1746472030,"current_range_meters":9600,"station_id":"ce4bgt12rcd13ifvqcd0","pricing_plan_id":"cebpf4jnsgd1na2vs0mg"},{"bike_id":"15bfb0f8-2e69-44ab-8cd7-48344a1a9910","system_id":"levelo_inurba_marseille","lat":43.28866,"lon":5.3584,"is_reserved":false,"is_disabled":false,"rental_uris":{"android":"levelo://app?vid=15bfb0f8-2e69-44ab-8cd7-48344a1a9910","ios":"levelo://app?vid=15bfb0f8-2e69-44ab-8cd7-48344a1a9910"},"vehicle_type_id":"4","last_reported":1746472030,"current_range_meters":9600,"station_id":"ce4bhb12rcd13ifvqem0","pricing_plan_id":"cebpf4jnsgd1na2vs0mg"},{"bike_id":"90728acd-507e-4586-8514-7150be18c1a3","system_id":"levelo_inurba_marseille","lat":43.31989,"lon":5.38176,"is_reserved":false,"is_disabled":true,"rental_uris":{"android":"levelo://app?vid=90728acd-507e-4586-8514-7150be18c1a3","ios":"levelo://app?vid=90728acd-507e-4586-8514-7150be18c1a3"},"vehicle_type_id":"4","last_reported":1746472030,"current_range_meters":10000,"station_id":"ce4bhr12rcd13ifvqhpg","pricing_plan_id":"cebpf4jnsgd1na2vs0mg"},{"bike_id":"02235f25-174f-4e5d-bce9-a59804091448","system_id":"levelo_inurba_marseille","lat":43.31356,"lon":5.38507,"is_reserved":false,"is_disabled":true,"rental_uris":{"android":"levelo://app?vid=02235f25-174f-4e5d-bce9-a59804091448","ios":"levelo://app?vid=02235f25-174f-4e5d-bce9-a59804091448"},"vehicle_type_id":"4","last_reported":1746472030,"current_range_meters":10000,"station_id":"ce4bgt92rcd13ifvqcf0","pricing_plan_id":"cebpf4jnsgd1na2vs0mg"},{"bike_id":"969656b2-cdf4-446c-a1a4-f7325c5aeaa7","system_id":"levelo_inurba_marseille","lat":43.28008,"lon":5.39998,"is_reserved":false,"is_disabled":false,"rental_uris":{"android":"levelo://app?vid=969656b2-cdf4-446c-a1a4-f7325c5aeaa7","ios":"levelo://app?vid=969656b2-cdf4-446c-a1a4-f7325c5aeaa7"},"vehicle_type_id":"4","last_reported":1746472030,"current_range_meters":10000,"station_id":"ce4bho92rcd13ifvqh4g","pricing_plan_id":"cebpf4jnsgd1na2vs0mg"},{"bike_id":"1a82a0e9-f369-4d01-ae50-ae98884bab48","system_id":"levelo_inurba_marseille","lat":43.33122,"lon":5.38783,"is_reserved":false,"is_disabled":false,"rental_uris":{"android":"levelo://app?vid=1a82a0e9-f369-4d01-ae50-ae98884bab48","ios":"levelo://app?vid=1a82a0e9-f369-4d01-ae50-ae98884bab48"},"vehicle_type_id":"4","last_reported":1746472030,"current_range_meters":10000,"station_id":"","pricing_plan_id":"cebpf4jnsgd1na2vs0mg"},{"bike_id":"f82049e3-5c32-4d4c-9676-8e8bc50b105c","system_id":"levelo_inurba_marseille","lat":43.31164,"lon":5.38716,"is_reserved":false,"is_disabled":false,"rental_uris":{"android":"levelo://app?vid=f82049e3-5c32-4d4c-9676-8e8bc50b105c","ios":"levelo://app?vid=f82049e3-5c32-4d4c-9676-8e8bc50b105c"},"vehicle_type_id":"4","last_reported":1746472030,"current_range_meters":10000,"station_id":"ce4bgv12rcd13ifvqcp0","pricing_plan_id":"cebpf4jnsgd1na2vs0mg"},{"bike_id":"aa2f9f2f-1305-4c29-8d75-bc6c81929e29","system_id":"levelo_inurba_marseille","lat":43.2979,"lon":5.40397,"is_reserved":false,"is_disabled":false,"rental_uris":{"android":"levelo://app?vid=aa2f9f2f-1305-4c29-8d75-bc6c81929e29","ios":"levelo://app?vid=aa2f9f2f-1305-4c29-8d75-bc6c81929e29"},"vehicle_type_id":"4","last_reported":1746472030,"current_range_meters":10000,"station_id":"ce4bh112rcd13ifvqd90","pricing_plan_id":"cebpf4jnsgd1na2vs0mg"},{"bike_id":"d1aa6e5d-6beb-440c-afb6-1d488c12e5a1","system_id":"levelo_inurba_marseille","lat":43.32082,"lon":5.36761,"is_reserved":false,"is_disabled":false,"rental_uris":{"android":"levelo://app?vid=d1aa6e5d-6beb-440c-afb6-1d488c12e5a1","ios":"levelo://app?vid=d1aa6e5d-6beb-440c-afb6-1d488c12e5a1"},"vehicle_type_id":"4","last_reported":1746472030,"current_range_meters":10000,"station_id":"ce4bhrh2rcd13ifvqhug","pricing_plan_id":"cebpf4jnsgd1na2vs0mg"},{"bike_id":"9fc13afb-e947-475e-b143-9f3ee51b87b5","system_id":"levelo_inurba_marseille","lat":43.30315,"lon":5.3919,"is_reserved":false,"is_disabled":true,"rental_uris":{"android":"levelo://app?vid=9fc13afb-e947-475e-b143-9f3ee51b87b5","ios":"levelo://app?vid=9fc13afb-e947-475e-b143-9f3ee51b87b5"},"vehicle_type_id":"4","last_reported":1746472030,"current_range_meters":10800,"station_id":"ce4bgkh2rcd13ifvqbk0","pricing_plan_id":"cebpf4jnsgd1na2vs0mg"},{"bike_id":"9570b0db-0092-4c86-8f2a-24e2979bc002","system_id":"levelo_inurba_marseille","lat":43.29422,"lon":5.38623,"is_reserved":false,"is_disabled":false,"rental_uris":{"android":"levelo://app?vid=9570b0db-0092-4c86-8f2a-24e2979bc002","ios":"levelo://app?vid=9570b0db-0092-4c86-8f2a-24e2979bc002"},"vehicle_type_id":"4","last_reported":1746472030,"current_range_meters":10800,"station_id":"ce4bh2h2rcd13ifvqdh0","pricing_plan_id":"cebpf4jnsgd1na2vs0mg"},{"bike_id":"29bd3bd2-3fab-48ad-a3e3-29bb6dca5240","system_id":"levelo_inurba_marseille","lat":43.31168,"lon":5.38704,"is_reserved":false,"is_disabled":false,"rental_uris":{"android":"levelo://app?vid=29bd3bd2-3fab-48ad-a3e3-29bb6dca5240","ios":"levelo://app?vid=29bd3bd2-3fab-48ad-a3e3-29bb6dca5240"},"vehicle_type_id":"4","last_reported":1746472030,"current_range_meters":10800,"station_id":"ce4bgv12rcd13ifvqcp0","pricing_plan_id":"cebpf4jnsgd1na2vs0mg"},{"bike_id":"93a3535b-db5a-4ce6-891d-3fa847f6e817","system_id":"levelo_inurba_marseille","lat":43.33607,"lon":5.41033,"is_reserved":false,"is_disabled":false,"rental_uris":{"android":"levelo://app?vid=93a3535b-db5a-4ce6-891d-3fa847f6e817","ios":"levelo://app?vid=93a3535b-db5a-4ce6-891d-3fa847f6e817"},"vehicle_type_id":"4","last_reported":1746472030,"current_range_meters":10800,"station_id":"ce4bhqh2rcd13ifvqhmg","pricing_plan_id":"cebpf4jnsgd1na2vs0mg"},{"bike_id":"08ff2bcf-7233-4803-aa19-4c645279e28a","system_id":"levelo_inurba_marseille","lat":43.29262,"lon":5.40901,"is_reserved":false,"is_disabled":false,"rental_uris":{"android":"levelo://app?vid=08ff2bcf-7233-4803-aa19-4c645279e28a","ios":"levelo://app?vid=08ff2bcf-7233-4803-aa19-4c645279e28a"},"vehicle_type_id":"4","last_reported":1746472030,"current_range_meters":10800,"station_id":"ce4bh192rcd13ifvqdc0","pricing_plan_id":"cebpf4jnsgd1na2vs0mg"},{"bike_id":"4567db42-a456-48b6-bc7d-8dd13247fcc0","system_id":"levelo_inurba_marseille","lat":43.27953,"lon":5.41033,"is_reserved":false,"is_disabled":false,"rental_uris":{"android":"levelo://app?vid=4567db42-a456-48b6-bc7d-8dd13247fcc0","ios":"levelo://app?vid=4567db42-a456-48b6-bc7d-8dd13247fcc0"},"vehicle_type_id":"4","last_reported":1746472030,"current_range_meters":11200,"station_id":"ce4bhnp2rcd13ifvqh0g","pricing_plan_id":"cebpf4jnsgd1na2vs0mg"},{"bike_id":"f4bc3a6c-4337-400f-9ead-a2ccdf206bdc","system_id":"levelo_inurba_marseille","lat":43.27999,"lon":5.41662,"is_reserved":false,"is_disabled":false,"rental_uris":{"android":"levelo://app?vid=f4bc3a6c-4337-400f-9ead-a2ccdf206bdc","ios":"levelo://app?vid=f4bc3a6c-4337-400f-9ead-a2ccdf206bdc"},"vehicle_type_id":"4","last_reported":1746472030,"current_range_meters":11600,"station_id":"ce4bho12rcd13ifvqh1g","pricing_plan_id":"cebpf4jnsgd1na2vs0mg"},{"bike_id":"1a56d2e1-6609-455c-8523-959d44394069","system_id":"levelo_inurba_marseille","lat":43.30299,"lon":5.39221,"is_reserved":false,"is_disabled":true,"rental_uris":{"android":"levelo://app?vid=1a56d2e1-6609-455c-8523-959d44394069","ios":"levelo://app?vid=1a56d2e1-6609-455c-8523-959d44394069"},"vehicle_type_id":"4","last_reported":1746472030,"current_range_meters":11600,"station_id":"ce4bgkh2rcd13ifvqbk0","pricing_plan_id":"cebpf4jnsgd1na2vs0mg"},{"bike_id":"f9cec597-af13-4a8a-be1d-b7cf54819d4d","system_id":"levelo_inurba_marseille","lat":43.28963,"lon":5.40697,"is_reserved":false,"is_disabled":false,"rental_uris":{"android":"levelo://app?vid=f9cec597-af13-4a8a-be1d-b7cf54819d4d","ios":"levelo://app?vid=f9cec597-af13-4a8a-be1d-b7cf54819d4d"},"vehicle_type_id":"4","last_reported":1746472030,"current_range_meters":11600,"station_id":"","pricing_plan_id":"cebpf4jnsgd1na2vs0mg"},{"bike_id":"46515b8e-2c91-48c1-8869-455cffd3d0b7","system_id":"levelo_inurba_marseille","lat":43.27948,"lon":5.41037,"is_reserved":false,"is_disabled":false,"rental_uris":{"android":"levelo://app?vid=46515b8e-2c91-48c1-8869-455cffd3d0b7","ios":"levelo://app?vid=46515b8e-2c91-48c1-8869-455cffd3d0b7"},"vehicle_type_id":"4","last_reported":1746472030,"current_range_meters":11600,"station_id":"ce4bhnp2rcd13ifvqh0g","pricing_plan_id":"cebpf4jnsgd1na2vs0mg"},{"bike_id":"27c7c35a-f4aa-4d49-b4c9-54562977f174","system_id":"levelo_inurba_marseille","lat":43.32361,"lon":5.38883,"is_reserved":false,"is_disabled":false,"rental_uris":{"android":"levelo://app?vid=27c7c35a-f4aa-4d49-b4c9-54562977f174","ios":"levelo://app?vid=27c7c35a-f4aa-4d49-b4c9-54562977f174"},"vehicle_type_id":"4","last_reported":1746472030,"current_range_meters":11600,"station_id":"ce4bhqp2rcd13ifvqhog","pricing_plan_id":"cebpf4jnsgd1na2vs0mg"},{"bike_id":"bf601b0c-e4a5-43d2-909e-4c0dbf73375a","system_id":"levelo_inurba_marseille","lat":43.30245,"lon":5.40059,"is_reserved":false,"is_disabled":false,"rental_uris":{"android":"levelo://app?vid=bf601b0c-e4a5-43d2-909e-4c0dbf73375a","ios":"levelo://app?vid=bf601b0c-e4a5-43d2-909e-4c0dbf73375a"},"vehicle_type_id":"4","last_reported":1746472030,"current_range_meters":11600,"station_id":"ce4bgvh2rcd13ifvqcs0","pricing_plan_id":"cebpf4jnsgd1na2vs0mg"},{"bike_id":"41aaa1ed-a708-4a9a-b5aa-450e891d24b0","system_id":"levelo_inurba_marseille","lat":43.26553,"lon":5.39037,"is_reserved":false,"is_disabled":true,"rental_uris":{"android":"levelo://app?vid=41aaa1ed-a708-4a9a-b5aa-450e891d24b0","ios":"levelo://app?vid=41aaa1ed-a708-4a9a-b5aa-450e891d24b0"},"vehicle_type_id":"4","last_reported":1746472030,"current_range_meters":11600,"station_id":"ce4bhe12rcd13ifvqf30","pricing_plan_id":"cebpf4jnsgd1na2vs0mg"},{"bike_id":"45c16268-dcf5-4e4a-b4f6-0b7cb10c71b1","system_id":"levelo_inurba_marseille","lat":43.30581,"lon":5.39348,"is_reserved":false,"is_disabled":false,"rental_uris":{"android":"levelo://app?vid=45c16268-dcf5-4e4a-b4f6-0b7cb10c71b1","ios":"levelo://app?vid=45c16268-dcf5-4e4a-b4f6-0b7cb10c71b1"},"vehicle_type_id":"4","last_reported":1746472030,"current_range_meters":11600,"station_id":"ce4bh0p2rcd13ifvqd80","pricing_plan_id":"cebpf4jnsgd1na2vs0mg"},{"bike_id":"f5281b1f-77e6-4fe5-b9f4-3c2fc0aeb356","system_id":"levelo_inurba_marseille","lat":43.28074,"lon":5.39659,"is_reserved":false,"is_disabled":false,"rental_uris":{"android":"levelo://app?vid=f5281b1f-77e6-4fe5-b9f4-3c2fc0aeb356","ios":"levelo://app?vid=f5281b1f-77e6-4fe5-b9f4-3c2fc0aeb356"},"vehicle_type_id":"4","last_reported":1746472030,"current_range_meters":12000,"station_id":"ce4bho12rcd13ifvqh2g","pricing_plan_id":"cebpf4jnsgd1na2vs0mg"},{"bike_id":"5b8d1337-a035-4531-8ae9-843647d6f95e","system_id":"levelo_inurba_marseille","lat":43.23185,"lon":5.39966,"is_reserved":false,"is_disabled":false,"rental_uris":{"android":"levelo://app?vid=5b8d1337-a035-4531-8ae9-843647d6f95e","ios":"levelo://app?vid=5b8d1337-a035-4531-8ae9-843647d6f95e"},"vehicle_type_id":"4","last_reported":1746472030,"current_range_meters":12000,"station_id":"ce4bhn12rcd13ifvqgqg","pricing_plan_id":"cebpf4jnsgd1na2vs0mg"},{"bike_id":"48d1a623-5e08-404d-89cc-f076c785ec8a","system_id":"levelo_inurba_marseille","lat":43.28464,"lon":5.35883,"is_reserved":false,"is_disabled":false,"rental_uris":{"android":"levelo://app?vid=48d1a623-5e08-404d-89cc-f076c785ec8a","ios":"levelo://app?vid=48d1a623-5e08-404d-89cc-f076c785ec8a"},"vehicle_type_id":"4","last_reported":1746472030,"current_range_meters":12000,"station_id":"ce4bhah2rcd13ifvqei0","pricing_plan_id":"cebpf4jnsgd1na2vs0mg"},{"bike_id":"2b3854fc-1cd9-49aa-9ab4-f82f6ad6afcd","system_id":"levelo_inurba_marseille","lat":43.29263,"lon":5.36846,"is_reserved":false,"is_disabled":false,"rental_uris":{"android":"levelo://app?vid=2b3854fc-1cd9-49aa-9ab4-f82f6ad6afcd","ios":"levelo://app?vid=2b3854fc-1cd9-49aa-9ab4-f82f6ad6afcd"},"vehicle_type_id":"4","last_reported":1746472030,"current_range_meters":12000,"station_id":"ce4bhbp2rcd13ifvqesg","pricing_plan_id":"cebpf4jnsgd1na2vs0mg"},{"bike_id":"bd0f5d5e-963b-4fe6-aa82-9fc047b0ac51","system_id":"levelo_inurba_marseille","lat":43.299042,"lon":5.388155,"is_reserved":false,"is_disabled":false,"rental_uris":{"android":"levelo://app?vid=bd0f5d5e-963b-4fe6-aa82-9fc047b0ac51","ios":"levelo://app?vid=bd0f5d5e-963b-4fe6-aa82-9fc047b0ac51"},"vehicle_type_id":"4","last_reported":1746472030,"current_range_meters":12000,"station_id":"","pricing_plan_id":"cebpf4jnsgd1na2vs0mg"},{"bike_id":"9d8f73eb-df09-4699-86a7-d631e2319093","system_id":"levelo_inurba_marseille","lat":43.26272,"lon":5.37446,"is_reserved":false,"is_disabled":false,"rental_uris":{"android":"levelo://app?vid=9d8f73eb-df09-4699-86a7-d631e2319093","ios":"levelo://app?vid=9d8f73eb-df09-4699-86a7-d631e2319093"},"vehicle_type_id":"4","last_reported":1746472030,"current_range_meters":12000,"station_id":"","pricing_plan_id":"cebpf4jnsgd1na2vs0mg"},{"bike_id":"4e1ece9d-c98f-44cb-8a35-2e078d90e9ab","system_id":"levelo_inurba_marseille","lat":43.28096,"lon":5.37833,"is_reserved":false,"is_disabled":false,"rental_uris":{"android":"levelo://app?vid=4e1ece9d-c98f-44cb-8a35-2e078d90e9ab","ios":"levelo://app?vid=4e1ece9d-c98f-44cb-8a35-2e078d90e9ab"},"vehicle_type_id":"4","last_reported":1746472030,"current_range_meters":11600,"station_id":"ce4bha12rcd13ifvqee0","pricing_plan_id":"cebpf4jnsgd1na2vs0mg"},{"bike_id":"d101d38f-a03d-4699-abc8-8954b5bf7219","system_id":"levelo_inurba_marseille","lat":43.29093,"lon":5.38125,"is_reserved":false,"is_disabled":false,"rental_uris":{"android":"levelo://app?vid=d101d38f-a03d-4699-abc8-8954b5bf7219","ios":"levelo://app?vid=d101d38f-a03d-4699-abc8-8954b5bf7219"},"vehicle_type_id":"4","last_reported":1746472030,"current_range_meters":14000,"station_id":"ce4bh512rcd13ifvqe2g","pricing_plan_id":"cebpf4jnsgd1na2vs0mg"},{"bike_id":"62bfa9fa-531f-4d2b-9e57-eb50b2d48c8c","system_id":"levelo_inurba_marseille","lat":43.24301,"lon":5.3801,"is_reserved":false,"is_disabled":false,"rental_uris":{"android":"levelo://app?vid=62bfa9fa-531f-4d2b-9e57-eb50b2d48c8c","ios":"levelo://app?vid=62bfa9fa-531f-4d2b-9e57-eb50b2d48c8c"},"vehicle_type_id":"4","last_reported":1746472030,"current_range_meters":12000,"station_id":"","pricing_plan_id":"cebpf4jnsgd1na2vs0mg"},{"bike_id":"ca4ec38c-37b9-40bd-acc0-e0652405343a","system_id":"levelo_inurba_marseille","lat":43.315623,"lon":5.3802,"is_reserved":false,"is_disabled":false,"rental_uris":{"android":"levelo://app?vid=ca4ec38c-37b9-40bd-acc0-e0652405343a","ios":"levelo://app?vid=ca4ec38c-37b9-40bd-acc0-e0652405343a"},"vehicle_type_id":"4","last_reported":1746472030,"current_range_meters":11600,"station_id":"ce4bgth2rcd13ifvqch0","pricing_plan_id":"cebpf4jnsgd1na2vs0mg"},{"bike_id":"54fb7896-a743-4741-a156-a6646c2c714f","system_id":"levelo_inurba_marseille","lat":43.30243,"lon":5.40082,"is_reserved":false,"is_disabled":false,"rental_uris":{"android":"levelo://app?vid=54fb7896-a743-4741-a156-a6646c2c714f","ios":"levelo://app?vid=54fb7896-a743-4741-a156-a6646c2c714f"},"vehicle_type_id":"4","last_reported":1746472030,"current_range_meters":12400,"station_id":"ce4bgvh2rcd13ifvqcs0","pricing_plan_id":"cebpf4jnsgd1na2vs0mg"},{"bike_id":"0cb139c7-ebfc-4316-b1f8-0830598824b5","system_id":"levelo_inurba_marseille","lat":43.29782,"lon":5.39361,"is_reserved":false,"is_disabled":true,"rental_uris":{"android":"levelo://app?vid=0cb139c7-ebfc-4316-b1f8-0830598824b5","ios":"levelo://app?vid=0cb139c7-ebfc-4316-b1f8-0830598824b5"},"vehicle_type_id":"4","last_reported":1746472030,"current_range_meters":12400,"station_id":"chh1huq6cuj3fo74tm60","pricing_plan_id":"cebpf4jnsgd1na2vs0mg"},{"bike_id":"bcbaa019-21bc-432f-8f68-7971990aa14a","system_id":"levelo_inurba_marseille","lat":43.25116,"lon":5.40327,"is_reserved":false,"is_disabled":false,"rental_uris":{"android":"levelo://app?vid=bcbaa019-21bc-432f-8f68-7971990aa14a","ios":"levelo://app?vid=bcbaa019-21bc-432f-8f68-7971990aa14a"},"vehicle_type_id":"4","last_reported":1746472030,"current_range_meters":12400,"station_id":"ce4bhlh2rcd13ifvqgig","pricing_plan_id":"cebpf4jnsgd1na2vs0mg"},{"bike_id":"49c43e7d-9c4d-4d14-9930-0efc7afe330b","system_id":"levelo_inurba_marseille","lat":43.23149,"lon":5.43718,"is_reserved":false,"is_disabled":false,"rental_uris":{"android":"levelo://app?vid=49c43e7d-9c4d-4d14-9930-0efc7afe330b","ios":"levelo://app?vid=49c43e7d-9c4d-4d14-9930-0efc7afe330b"},"vehicle_type_id":"4","last_reported":1746472030,"current_range_meters":12400,"station_id":"ce4bhmp2rcd13ifvqgog","pricing_plan_id":"cebpf4jnsgd1na2vs0mg"},{"bike_id":"fbda12d9-6999-44a5-a236-2a288c2ac07c","system_id":"levelo_inurba_marseille","lat":43.24075,"lon":5.3775,"is_reserved":false,"is_disabled":false,"rental_uris":{"android":"levelo://app?vid=fbda12d9-6999-44a5-a236-2a288c2ac07c","ios":"levelo://app?vid=fbda12d9-6999-44a5-a236-2a288c2ac07c"},"vehicle_type_id":"4","last_reported":1746472030,"current_range_meters":12800,"station_id":"ce4bhnp2rcd13ifvqgvg","pricing_plan_id":"cebpf4jnsgd1na2vs0mg"},{"bike_id":"b60c17f5-436e-489e-8f3c-790e6084ac64","system_id":"levelo_inurba_marseille","lat":43.211893,"lon":5.350769,"is_reserved":false,"is_disabled":false,"rental_uris":{"android":"levelo://app?vid=b60c17f5-436e-489e-8f3c-790e6084ac64","ios":"levelo://app?vid=b60c17f5-436e-489e-8f3c-790e6084ac64"},"vehicle_type_id":"4","last_reported":1746472030,"current_range_meters":12800,"station_id":"st_cvj6sg6p6f1abm77japg","pricing_plan_id":"cebpf4jnsgd1na2vs0mg"},{"bike_id":"0c377d9d-9a3a-47a7-9944-6039314b5e15","system_id":"levelo_inurba_marseille","lat":43.245954,"lon":5.405022,"is_reserved":false,"is_disabled":false,"rental_uris":{"android":"levelo://app?vid=0c377d9d-9a3a-47a7-9944-6039314b5e15","ios":"levelo://app?vid=0c377d9d-9a3a-47a7-9944-6039314b5e15"},"vehicle_type_id":"4","last_reported":1746472030,"current_range_meters":12800,"station_id":"","pricing_plan_id":"cebpf4jnsgd1na2vs0mg"},{"bike_id":"3638ab49-c2ef-40f7-8039-83a16b621afd","system_id":"levelo_inurba_marseille","lat":43.28001,"lon":5.39999,"is_reserved":false,"is_disabled":false,"rental_uris":{"android":"levelo://app?vid=3638ab49-c2ef-40f7-8039-83a16b621afd","ios":"levelo://app?vid=3638ab49-c2ef-40f7-8039-83a16b621afd"},"vehicle_type_id":"4","last_reported":1746472030,"current_range_meters":12800,"station_id":"ce4bho92rcd13ifvqh4g","pricing_plan_id":"cebpf4jnsgd1na2vs0mg"},{"bike_id":"5423b67b-7d78-436a-846a-99a9f32bc3c9","system_id":"levelo_inurba_marseille","lat":43.25094,"lon":5.39522,"is_reserved":false,"is_disabled":false,"rental_uris":{"android":"levelo://app?vid=5423b67b-7d78-436a-846a-99a9f32bc3c9","ios":"levelo://app?vid=5423b67b-7d78-436a-846a-99a9f32bc3c9"},"vehicle_type_id":"4","last_reported":1746472030,"current_range_meters":13600,"station_id":"ce4bhm12rcd13ifvqgkg","pricing_plan_id":"cebpf4jnsgd1na2vs0mg"},{"bike_id":"05a84f69-0592-442a-b098-6253d0b70e9e","system_id":"levelo_inurba_marseille","lat":43.29992,"lon":5.37236,"is_reserved":false,"is_disabled":false,"rental_uris":{"android":"levelo://app?vid=05a84f69-0592-442a-b098-6253d0b70e9e","ios":"levelo://app?vid=05a84f69-0592-442a-b098-6253d0b70e9e"},"vehicle_type_id":"4","last_reported":1746472030,"current_range_meters":13600,"station_id":"ce4bgr92rcd13ifvqc7g","pricing_plan_id":"cebpf4jnsgd1na2vs0mg"},{"bike_id":"422384e3-5b65-425e-af9a-69c8dfb04ce3","system_id":"levelo_inurba_marseille","lat":43.23956,"lon":5.36641,"is_reserved":false,"is_disabled":false,"rental_uris":{"android":"levelo://app?vid=422384e3-5b65-425e-af9a-69c8dfb04ce3","ios":"levelo://app?vid=422384e3-5b65-425e-af9a-69c8dfb04ce3"},"vehicle_type_id":"4","last_reported":1746472030,"current_range_meters":13600,"station_id":"ce4bhi12rcd13ifvqfp0","pricing_plan_id":"cebpf4jnsgd1na2vs0mg"},{"bike_id":"a46b5721-597c-404e-8ddb-3ba6469f967d","system_id":"levelo_inurba_marseille","lat":43.231874,"lon":5.355635,"is_reserved":false,"is_disabled":false,"rental_uris":{"android":"levelo://app?vid=a46b5721-597c-404e-8ddb-3ba6469f967d","ios":"levelo://app?vid=a46b5721-597c-404e-8ddb-3ba6469f967d"},"vehicle_type_id":"4","last_reported":1746472030,"current_range_meters":14000,"station_id":"ce4bhu92rcd13ifvqi70","pricing_plan_id":"cebpf4jnsgd1na2vs0mg"},{"bike_id":"c1f1dcdb-6a6f-48b8-8e9c-e9445d805c8c","system_id":"levelo_inurba_marseille","lat":43.25942,"lon":5.40909,"is_reserved":false,"is_disabled":false,"rental_uris":{"android":"levelo://app?vid=c1f1dcdb-6a6f-48b8-8e9c-e9445d805c8c","ios":"levelo://app?vid=c1f1dcdb-6a6f-48b8-8e9c-e9445d805c8c"},"vehicle_type_id":"4","last_reported":1746472030,"current_range_meters":14000,"station_id":"ce4bhm92rcd13ifvqglg","pricing_plan_id":"cebpf4jnsgd1na2vs0mg"},{"bike_id":"979e0397-c76c-49f5-97c5-dca9f05b2d67","system_id":"levelo_inurba_marseille","lat":43.31742,"lon":5.38983,"is_reserved":false,"is_disabled":false,"rental_uris":{"android":"levelo://app?vid=979e0397-c76c-49f5-97c5-dca9f05b2d67","ios":"levelo://app?vid=979e0397-c76c-49f5-97c5-dca9f05b2d67"},"vehicle_type_id":"4","last_reported":1746472030,"current_range_meters":14000,"station_id":"ce4bhqp2rcd13ifvqhng","pricing_plan_id":"cebpf4jnsgd1na2vs0mg"},{"bike_id":"3c9cce34-770a-4c8c-b652-4b0abb1d2b0e","system_id":"levelo_inurba_marseille","lat":43.304871,"lon":5.3989,"is_reserved":false,"is_disabled":false,"rental_uris":{"android":"levelo://app?vid=3c9cce34-770a-4c8c-b652-4b0abb1d2b0e","ios":"levelo://app?vid=3c9cce34-770a-4c8c-b652-4b0abb1d2b0e"},"vehicle_type_id":"4","last_reported":1746472030,"current_range_meters":19600,"station_id":"","pricing_plan_id":"cebpf4jnsgd1na2vs0mg"},{"bike_id":"f50255d7-e268-486c-9b1a-cbfbc53879a8","system_id":"levelo_inurba_marseille","lat":43.28566,"lon":5.39507,"is_reserved":false,"is_disabled":false,"rental_uris":{"android":"levelo://app?vid=f50255d7-e268-486c-9b1a-cbfbc53879a8","ios":"levelo://app?vid=f50255d7-e268-486c-9b1a-cbfbc53879a8"},"vehicle_type_id":"4","last_reported":1746472030,"current_range_meters":13600,"station_id":"ce4bh292rcd13ifvqdg0","pricing_plan_id":"cebpf4jnsgd1na2vs0mg"},{"bike_id":"db607aba-0db6-423b-a818-c23224727203","system_id":"levelo_inurba_marseille","lat":43.231533,"lon":5.437,"is_reserved":false,"is_disabled":false,"rental_uris":{"android":"levelo://app?vid=db607aba-0db6-423b-a818-c23224727203","ios":"levelo://app?vid=db607aba-0db6-423b-a818-c23224727203"},"vehicle_type_id":"4","last_reported":1746472030,"current_range_meters":14000,"station_id":"ce4bhmp2rcd13ifvqgog","pricing_plan_id":"cebpf4jnsgd1na2vs0mg"},{"bike_id":"311ec4e0-482e-4b83-a693-e6b86a1abb04","system_id":"levelo_inurba_marseille","lat":43.331053,"lon":5.41357,"is_reserved":false,"is_disabled":false,"rental_uris":{"android":"levelo://app?vid=311ec4e0-482e-4b83-a693-e6b86a1abb04","ios":"levelo://app?vid=311ec4e0-482e-4b83-a693-e6b86a1abb04"},"vehicle_type_id":"4","last_reported":1746472030,"current_range_meters":14000,"station_id":"","pricing_plan_id":"cebpf4jnsgd1na2vs0mg"},{"bike_id":"24eeb213-7862-4331-ac98-78c221426aae","system_id":"levelo_inurba_marseille","lat":43.23971,"lon":5.36631,"is_reserved":false,"is_disabled":false,"rental_uris":{"android":"levelo://app?vid=24eeb213-7862-4331-ac98-78c221426aae","ios":"levelo://app?vid=24eeb213-7862-4331-ac98-78c221426aae"},"vehicle_type_id":"4","last_reported":1746472030,"current_range_meters":14400,"station_id":"ce4bhi12rcd13ifvqfp0","pricing_plan_id":"cebpf4jnsgd1na2vs0mg"},{"bike_id":"3fc3ef65-dcca-4d18-928a-3e868ba9cb10","system_id":"levelo_inurba_marseille","lat":43.29521,"lon":5.39401,"is_reserved":false,"is_disabled":false,"rental_uris":{"android":"levelo://app?vid=3fc3ef65-dcca-4d18-928a-3e868ba9cb10","ios":"levelo://app?vid=3fc3ef65-dcca-4d18-928a-3e868ba9cb10"},"vehicle_type_id":"4","last_reported":1746472030,"current_range_meters":14400,"station_id":"ce4bh292rcd13ifvqdf0","pricing_plan_id":"cebpf4jnsgd1na2vs0mg"},{"bike_id":"ff98988f-b7b5-4b59-aafa-108198aebfdf","system_id":"levelo_inurba_marseille","lat":43.31171,"lon":5.38708,"is_reserved":false,"is_disabled":false,"rental_uris":{"android":"levelo://app?vid=ff98988f-b7b5-4b59-aafa-108198aebfdf","ios":"levelo://app?vid=ff98988f-b7b5-4b59-aafa-108198aebfdf"},"vehicle_type_id":"4","last_reported":1746472030,"current_range_meters":14400,"station_id":"ce4bgv12rcd13ifvqcp0","pricing_plan_id":"cebpf4jnsgd1na2vs0mg"},{"bike_id":"18c2fe9a-e894-47f4-a618-da168a74c510","system_id":"levelo_inurba_marseille","lat":43.28001,"lon":5.40012,"is_reserved":false,"is_disabled":false,"rental_uris":{"android":"levelo://app?vid=18c2fe9a-e894-47f4-a618-da168a74c510","ios":"levelo://app?vid=18c2fe9a-e894-47f4-a618-da168a74c510"},"vehicle_type_id":"4","last_reported":1746472030,"current_range_meters":14400,"station_id":"ce4bho92rcd13ifvqh4g","pricing_plan_id":"cebpf4jnsgd1na2vs0mg"},{"bike_id":"996b6168-a05d-48a0-af5f-f3a95295abf0","system_id":"levelo_inurba_marseille","lat":43.24071,"lon":5.37752,"is_reserved":false,"is_disabled":false,"rental_uris":{"android":"levelo://app?vid=996b6168-a05d-48a0-af5f-f3a95295abf0","ios":"levelo://app?vid=996b6168-a05d-48a0-af5f-f3a95295abf0"},"vehicle_type_id":"4","last_reported":1746472030,"current_range_meters":14400,"station_id":"ce4bhnp2rcd13ifvqgvg","pricing_plan_id":"cebpf4jnsgd1na2vs0mg"},{"bike_id":"7e7dc147-9fb8-4df0-905e-a56344049728","system_id":"levelo_inurba_marseille","lat":43.29033,"lon":5.38633,"is_reserved":false,"is_disabled":true,"rental_uris":{"android":"levelo://app?vid=7e7dc147-9fb8-4df0-905e-a56344049728","ios":"levelo://app?vid=7e7dc147-9fb8-4df0-905e-a56344049728"},"vehicle_type_id":"4","last_reported":1746472030,"current_range_meters":14400,"station_id":"ce4bh4p2rcd13ifvqe0g","pricing_plan_id":"cebpf4jnsgd1na2vs0mg"},{"bike_id":"44d1a496-4f16-46a6-b178-f49cec17003e","system_id":"levelo_inurba_marseille","lat":43.27171,"lon":5.40988,"is_reserved":false,"is_disabled":false,"rental_uris":{"android":"levelo://app?vid=44d1a496-4f16-46a6-b178-f49cec17003e","ios":"levelo://app?vid=44d1a496-4f16-46a6-b178-f49cec17003e"},"vehicle_type_id":"4","last_reported":1746472030,"current_range_meters":14800,"station_id":"ce4bhl12rcd13ifvqgf0","pricing_plan_id":"cebpf4jnsgd1na2vs0mg"},{"bike_id":"13fcfc94-37a5-49a8-a177-77725e8512b6","system_id":"levelo_inurba_marseille","lat":43.3046,"lon":5.379,"is_reserved":false,"is_disabled":true,"rental_uris":{"android":"levelo://app?vid=13fcfc94-37a5-49a8-a177-77725e8512b6","ios":"levelo://app?vid=13fcfc94-37a5-49a8-a177-77725e8512b6"},"vehicle_type_id":"4","last_reported":1746472030,"current_range_meters":14800,"station_id":"ce4bgup2rcd13ifvqcn0","pricing_plan_id":"cebpf4jnsgd1na2vs0mg"},{"bike_id":"d80a186c-6cde-48d1-a6c4-cc1ccc278891","system_id":"levelo_inurba_marseille","lat":43.31712,"lon":5.43702,"is_reserved":false,"is_disabled":false,"rental_uris":{"android":"levelo://app?vid=d80a186c-6cde-48d1-a6c4-cc1ccc278891","ios":"levelo://app?vid=d80a186c-6cde-48d1-a6c4-cc1ccc278891"},"vehicle_type_id":"4","last_reported":1746472030,"current_range_meters":14800,"station_id":"ce4bhp92rcd13ifvqhcg","pricing_plan_id":"cebpf4jnsgd1na2vs0mg"},{"bike_id":"834365b5-8566-4fd3-bb7a-d23390fec297","system_id":"levelo_inurba_marseille","lat":43.29767,"lon":5.37107,"is_reserved":false,"is_disabled":false,"rental_uris":{"android":"levelo://app?vid=834365b5-8566-4fd3-bb7a-d23390fec297","ios":"levelo://app?vid=834365b5-8566-4fd3-bb7a-d23390fec297"},"vehicle_type_id":"4","last_reported":1746472030,"current_range_meters":14800,"station_id":"ce4bgop2rcd13ifvqc1g","pricing_plan_id":"cebpf4jnsgd1na2vs0mg"},{"bike_id":"a4b829ca-76d9-4448-b7ca-608e03cd6cb1","system_id":"levelo_inurba_marseille","lat":43.32477,"lon":5.36574,"is_reserved":false,"is_disabled":false,"rental_uris":{"android":"levelo://app?vid=a4b829ca-76d9-4448-b7ca-608e03cd6cb1","ios":"levelo://app?vid=a4b829ca-76d9-4448-b7ca-608e03cd6cb1"},"vehicle_type_id":"4","last_reported":1746472030,"current_range_meters":14800,"station_id":"ce4bhs12rcd13ifvqhvg","pricing_plan_id":"cebpf4jnsgd1na2vs0mg"},{"bike_id":"4bdbfa2a-ffc0-4860-819c-6326869a5a0f","system_id":"levelo_inurba_marseille","lat":43.28722,"lon":5.36089,"is_reserved":false,"is_disabled":false,"rental_uris":{"android":"levelo://app?vid=4bdbfa2a-ffc0-4860-819c-6326869a5a0f","ios":"levelo://app?vid=4bdbfa2a-ffc0-4860-819c-6326869a5a0f"},"vehicle_type_id":"4","last_reported":1746472030,"current_range_meters":14800,"station_id":"cki0cbj6b192h4jlfktg","pricing_plan_id":"cebpf4jnsgd1na2vs0mg"},{"bike_id":"c9592205-9409-4f74-aed1-7c4141a58caa","system_id":"levelo_inurba_marseille","lat":43.27144,"lon":5.36358,"is_reserved":false,"is_disabled":false,"rental_uris":{"android":"levelo://app?vid=c9592205-9409-4f74-aed1-7c4141a58caa","ios":"levelo://app?vid=c9592205-9409-4f74-aed1-7c4141a58caa"},"vehicle_type_id":"4","last_reported":1746472030,"current_range_meters":15200,"station_id":"","pricing_plan_id":"cebpf4jnsgd1na2vs0mg"},{"bike_id":"a9b78ccc-48f0-4502-b89e-0369c4bf7b0b","system_id":"levelo_inurba_marseille","lat":43.23194,"lon":5.39978,"is_reserved":false,"is_disabled":false,"rental_uris":{"android":"levelo://app?vid=a9b78ccc-48f0-4502-b89e-0369c4bf7b0b","ios":"levelo://app?vid=a9b78ccc-48f0-4502-b89e-0369c4bf7b0b"},"vehicle_type_id":"4","last_reported":1746472030,"current_range_meters":15200,"station_id":"ce4bhn12rcd13ifvqgqg","pricing_plan_id":"cebpf4jnsgd1na2vs0mg"},{"bike_id":"34863915-e4dc-4473-8f44-9ee84f47871b","system_id":"levelo_inurba_marseille","lat":43.288603,"lon":5.393747,"is_reserved":false,"is_disabled":false,"rental_uris":{"android":"levelo://app?vid=34863915-e4dc-4473-8f44-9ee84f47871b","ios":"levelo://app?vid=34863915-e4dc-4473-8f44-9ee84f47871b"},"vehicle_type_id":"4","last_reported":1746472030,"current_range_meters":15200,"station_id":"ce4bh412rcd13ifvqdr0","pricing_plan_id":"cebpf4jnsgd1na2vs0mg"},{"bike_id":"95335b02-c7a7-4b12-82f4-e9a99a78359c","system_id":"levelo_inurba_marseille","lat":43.29568,"lon":5.37534,"is_reserved":false,"is_disabled":false,"rental_uris":{"android":"levelo://app?vid=95335b02-c7a7-4b12-82f4-e9a99a78359c","ios":"levelo://app?vid=95335b02-c7a7-4b12-82f4-e9a99a78359c"},"vehicle_type_id":"4","last_reported":1746472030,"current_range_meters":15200,"station_id":"ce4bgh92rcd13ifvqb50","pricing_plan_id":"cebpf4jnsgd1na2vs0mg"},{"bike_id":"9efbe516-2088-4e9b-93f7-04cfce669567","system_id":"levelo_inurba_marseille","lat":43.29936,"lon":5.38365,"is_reserved":false,"is_disabled":false,"rental_uris":{"android":"levelo://app?vid=9efbe516-2088-4e9b-93f7-04cfce669567","ios":"levelo://app?vid=9efbe516-2088-4e9b-93f7-04cfce669567"},"vehicle_type_id":"4","last_reported":1746472030,"current_range_meters":16000,"station_id":"","pricing_plan_id":"cebpf4jnsgd1na2vs0mg"},{"bike_id":"bedea05d-d78e-49aa-a496-3f51d4ea594b","system_id":"levelo_inurba_marseille","lat":43.28454,"lon":5.35884,"is_reserved":false,"is_disabled":false,"rental_uris":{"android":"levelo://app?vid=bedea05d-d78e-49aa-a496-3f51d4ea594b","ios":"levelo://app?vid=bedea05d-d78e-49aa-a496-3f51d4ea594b"},"vehicle_type_id":"4","last_reported":1746472030,"current_range_meters":16000,"station_id":"ce4bhah2rcd13ifvqei0","pricing_plan_id":"cebpf4jnsgd1na2vs0mg"},{"bike_id":"c9ae724c-847d-4a5f-8cce-81999c15e75c","system_id":"levelo_inurba_marseille","lat":43.29782,"lon":5.37097,"is_reserved":false,"is_disabled":false,"rental_uris":{"android":"levelo://app?vid=c9ae724c-847d-4a5f-8cce-81999c15e75c","ios":"levelo://app?vid=c9ae724c-847d-4a5f-8cce-81999c15e75c"},"vehicle_type_id":"4","last_reported":1746472030,"current_range_meters":16000,"station_id":"ce4bgop2rcd13ifvqc1g","pricing_plan_id":"cebpf4jnsgd1na2vs0mg"},{"bike_id":"68d7991c-508e-4d20-9af7-e41d1eb35c6d","system_id":"levelo_inurba_marseille","lat":43.30257,"lon":5.40087,"is_reserved":false,"is_disabled":false,"rental_uris":{"android":"levelo://app?vid=68d7991c-508e-4d20-9af7-e41d1eb35c6d","ios":"levelo://app?vid=68d7991c-508e-4d20-9af7-e41d1eb35c6d"},"vehicle_type_id":"4","last_reported":1746472030,"current_range_meters":16000,"station_id":"ce4bgvh2rcd13ifvqcs0","pricing_plan_id":"cebpf4jnsgd1na2vs0mg"},{"bike_id":"8dac27be-a00b-4425-aba9-9ad4ebb57a63","system_id":"levelo_inurba_marseille","lat":43.28685,"lon":5.3868,"is_reserved":false,"is_disabled":true,"rental_uris":{"android":"levelo://app?vid=8dac27be-a00b-4425-aba9-9ad4ebb57a63","ios":"levelo://app?vid=8dac27be-a00b-4425-aba9-9ad4ebb57a63"},"vehicle_type_id":"4","last_reported":1746472030,"current_range_meters":16000,"station_id":"ce4bh492rcd13ifvqdug","pricing_plan_id":"cebpf4jnsgd1na2vs0mg"},{"bike_id":"858bed88-3c9c-4c60-b913-cfc9a1021309","system_id":"levelo_inurba_marseille","lat":43.31757,"lon":5.39016,"is_reserved":false,"is_disabled":true,"rental_uris":{"android":"levelo://app?vid=858bed88-3c9c-4c60-b913-cfc9a1021309","ios":"levelo://app?vid=858bed88-3c9c-4c60-b913-cfc9a1021309"},"vehicle_type_id":"4","last_reported":1746472030,"current_range_meters":16000,"station_id":"ce4bhqp2rcd13ifvqhng","pricing_plan_id":"cebpf4jnsgd1na2vs0mg"},{"bike_id":"7ca09d8d-51db-4057-abe2-e9c1bdbcdfac","system_id":"levelo_inurba_marseille","lat":43.22928,"lon":5.35375,"is_reserved":false,"is_disabled":true,"rental_uris":{"android":"levelo://app?vid=7ca09d8d-51db-4057-abe2-e9c1bdbcdfac","ios":"levelo://app?vid=7ca09d8d-51db-4057-abe2-e9c1bdbcdfac"},"vehicle_type_id":"4","last_reported":1746472030,"current_range_meters":16000,"station_id":"cpo3532slgdg3j2ikp40","pricing_plan_id":"cebpf4jnsgd1na2vs0mg"},{"bike_id":"4c3a6875-3ea1-4c39-8f8e-a447a6f60fe0","system_id":"levelo_inurba_marseille","lat":43.32042,"lon":5.41546,"is_reserved":false,"is_disabled":false,"rental_uris":{"android":"levelo://app?vid=4c3a6875-3ea1-4c39-8f8e-a447a6f60fe0","ios":"levelo://app?vid=4c3a6875-3ea1-4c39-8f8e-a447a6f60fe0"},"vehicle_type_id":"4","last_reported":1746472030,"current_range_meters":15200,"station_id":"ce4bhq92rcd13ifvqhkg","pricing_plan_id":"cebpf4jnsgd1na2vs0mg"},{"bike_id":"3ef3f82b-f44c-4d3c-a690-2602cf85f9de","system_id":"levelo_inurba_marseille","lat":43.28458,"lon":5.35877,"is_reserved":false,"is_disabled":false,"rental_uris":{"android":"levelo://app?vid=3ef3f82b-f44c-4d3c-a690-2602cf85f9de","ios":"levelo://app?vid=3ef3f82b-f44c-4d3c-a690-2602cf85f9de"},"vehicle_type_id":"4","last_reported":1746472030,"current_range_meters":16000,"station_id":"ce4bhah2rcd13ifvqei0","pricing_plan_id":"cebpf4jnsgd1na2vs0mg"},{"bike_id":"e3bb4c0a-ea28-4d8b-a92a-340ecfdd5f1d","system_id":"levelo_inurba_marseille","lat":43.310612,"lon":5.375516,"is_reserved":false,"is_disabled":false,"rental_uris":{"android":"levelo://app?vid=e3bb4c0a-ea28-4d8b-a92a-340ecfdd5f1d","ios":"levelo://app?vid=e3bb4c0a-ea28-4d8b-a92a-340ecfdd5f1d"},"vehicle_type_id":"4","last_reported":1746472030,"current_range_meters":16400,"station_id":"","pricing_plan_id":"cebpf4jnsgd1na2vs0mg"},{"bike_id":"5a7d2749-ecbc-4351-94f2-8339d95d4c06","system_id":"levelo_inurba_marseille","lat":43.3154,"lon":5.38035,"is_reserved":false,"is_disabled":false,"rental_uris":{"android":"levelo://app?vid=5a7d2749-ecbc-4351-94f2-8339d95d4c06","ios":"levelo://app?vid=5a7d2749-ecbc-4351-94f2-8339d95d4c06"},"vehicle_type_id":"4","last_reported":1746472030,"current_range_meters":16400,"station_id":"ce4bhsp2rcd13ifvqi50","pricing_plan_id":"cebpf4jnsgd1na2vs0mg"},{"bike_id":"d5630c10-837a-43eb-9e38-7907fdc3b4ae","system_id":"levelo_inurba_marseille","lat":43.312833,"lon":5.37026,"is_reserved":false,"is_disabled":false,"rental_uris":{"android":"levelo://app?vid=d5630c10-837a-43eb-9e38-7907fdc3b4ae","ios":"levelo://app?vid=d5630c10-837a-43eb-9e38-7907fdc3b4ae"},"vehicle_type_id":"4","last_reported":1746472030,"current_range_meters":16400,"station_id":"","pricing_plan_id":"cebpf4jnsgd1na2vs0mg"},{"bike_id":"64052c71-5c21-4794-9241-efc68fac1ccc","system_id":"levelo_inurba_marseille","lat":43.32495,"lon":5.36574,"is_reserved":false,"is_disabled":false,"rental_uris":{"android":"levelo://app?vid=64052c71-5c21-4794-9241-efc68fac1ccc","ios":"levelo://app?vid=64052c71-5c21-4794-9241-efc68fac1ccc"},"vehicle_type_id":"4","last_reported":1746472030,"current_range_meters":16000,"station_id":"ce4bhs12rcd13ifvqhvg","pricing_plan_id":"cebpf4jnsgd1na2vs0mg"},{"bike_id":"1e95a8fa-adb0-4976-961e-3e8bdd36e5b5","system_id":"levelo_inurba_marseille","lat":43.28932,"lon":5.36642,"is_reserved":false,"is_disabled":false,"rental_uris":{"android":"levelo://app?vid=1e95a8fa-adb0-4976-961e-3e8bdd36e5b5","ios":"levelo://app?vid=1e95a8fa-adb0-4976-961e-3e8bdd36e5b5"},"vehicle_type_id":"4","last_reported":1746472030,"current_range_meters":16400,"station_id":"ce4bhap2rcd13ifvqek0","pricing_plan_id":"cebpf4jnsgd1na2vs0mg"},{"bike_id":"3f84d55c-f7b3-443f-a8ba-1f83ba8291a2","system_id":"levelo_inurba_marseille","lat":43.21194,"lon":5.35074,"is_reserved":false,"is_disabled":false,"rental_uris":{"android":"levelo://app?vid=3f84d55c-f7b3-443f-a8ba-1f83ba8291a2","ios":"levelo://app?vid=3f84d55c-f7b3-443f-a8ba-1f83ba8291a2"},"vehicle_type_id":"4","last_reported":1746472030,"current_range_meters":16400,"station_id":"st_cvj6sg6p6f1abm77japg","pricing_plan_id":"cebpf4jnsgd1na2vs0mg"},{"bike_id":"44c2bfb7-3fdc-4727-8072-840b49e408d0","system_id":"levelo_inurba_marseille","lat":43.27842,"lon":5.40692,"is_reserved":false,"is_disabled":false,"rental_uris":{"android":"levelo://app?vid=44c2bfb7-3fdc-4727-8072-840b49e408d0","ios":"levelo://app?vid=44c2bfb7-3fdc-4727-8072-840b49e408d0"},"vehicle_type_id":"4","last_reported":1746472030,"current_range_meters":16400,"station_id":"ce4bhnh2rcd13ifvqgtg","pricing_plan_id":"cebpf4jnsgd1na2vs0mg"},{"bike_id":"51deaff6-11c6-47e1-bf83-b8a707ddab2a","system_id":"levelo_inurba_marseille","lat":43.284213,"lon":5.349854,"is_reserved":false,"is_disabled":false,"rental_uris":{"android":"levelo://app?vid=51deaff6-11c6-47e1-bf83-b8a707ddab2a","ios":"levelo://app?vid=51deaff6-11c6-47e1-bf83-b8a707ddab2a"},"vehicle_type_id":"4","last_reported":1746472030,"current_range_meters":16400,"station_id":"ce4bhbh2rcd13ifvqepg","pricing_plan_id":"cebpf4jnsgd1na2vs0mg"},{"bike_id":"79df2d56-8431-46eb-b7c1-70def8f2661b","system_id":"levelo_inurba_marseille","lat":43.29912,"lon":5.37489,"is_reserved":false,"is_disabled":false,"rental_uris":{"android":"levelo://app?vid=79df2d56-8431-46eb-b7c1-70def8f2661b","ios":"levelo://app?vid=79df2d56-8431-46eb-b7c1-70def8f2661b"},"vehicle_type_id":"4","last_reported":1746472030,"current_range_meters":16800,"station_id":"","pricing_plan_id":"cebpf4jnsgd1na2vs0mg"},{"bike_id":"1ca65341-6a39-4af0-b84d-782a4841e080","system_id":"levelo_inurba_marseille","lat":43.28465,"lon":5.38419,"is_reserved":false,"is_disabled":false,"rental_uris":{"android":"levelo://app?vid=1ca65341-6a39-4af0-b84d-782a4841e080","ios":"levelo://app?vid=1ca65341-6a39-4af0-b84d-782a4841e080"},"vehicle_type_id":"4","last_reported":1746472030,"current_range_meters":16800,"station_id":"ce4bh512rcd13ifvqe3g","pricing_plan_id":"cebpf4jnsgd1na2vs0mg"},{"bike_id":"99097e50-dd2e-47c3-a879-f48655baf4d9","system_id":"levelo_inurba_marseille","lat":43.245935,"lon":5.4083,"is_reserved":false,"is_disabled":false,"rental_uris":{"android":"levelo://app?vid=99097e50-dd2e-47c3-a879-f48655baf4d9","ios":"levelo://app?vid=99097e50-dd2e-47c3-a879-f48655baf4d9"},"vehicle_type_id":"4","last_reported":1746472030,"current_range_meters":16800,"station_id":"","pricing_plan_id":"cebpf4jnsgd1na2vs0mg"},{"bike_id":"bc2e0f96-715c-41c9-a226-a1d10a50fd4e","system_id":"levelo_inurba_marseille","lat":43.32352,"lon":5.36749,"is_reserved":false,"is_disabled":false,"rental_uris":{"android":"levelo://app?vid=bc2e0f96-715c-41c9-a226-a1d10a50fd4e","ios":"levelo://app?vid=bc2e0f96-715c-41c9-a226-a1d10a50fd4e"},"vehicle_type_id":"4","last_reported":1746472030,"current_range_meters":16800,"station_id":"ce4bhsh2rcd13ifvqi2g","pricing_plan_id":"cebpf4jnsgd1na2vs0mg"},{"bike_id":"bfb768d4-db43-4db8-8659-afeb33dd4edd","system_id":"levelo_inurba_marseille","lat":43.307365,"lon":5.424421,"is_reserved":false,"is_disabled":false,"rental_uris":{"android":"levelo://app?vid=bfb768d4-db43-4db8-8659-afeb33dd4edd","ios":"levelo://app?vid=bfb768d4-db43-4db8-8659-afeb33dd4edd"},"vehicle_type_id":"4","last_reported":1746472030,"current_range_meters":16800,"station_id":"st_cvj6ca6bvosntc0bfgr0","pricing_plan_id":"cebpf4jnsgd1na2vs0mg"},{"bike_id":"cfec2ac4-ff38-4f86-b1c7-73eefd6dabdb","system_id":"levelo_inurba_marseille","lat":43.28948,"lon":5.36387,"is_reserved":false,"is_disabled":false,"rental_uris":{"android":"levelo://app?vid=cfec2ac4-ff38-4f86-b1c7-73eefd6dabdb","ios":"levelo://app?vid=cfec2ac4-ff38-4f86-b1c7-73eefd6dabdb"},"vehicle_type_id":"4","last_reported":1746472030,"current_range_meters":16800,"station_id":"ce4bhc92rcd13ifvqetg","pricing_plan_id":"cebpf4jnsgd1na2vs0mg"},{"bike_id":"42aa9ea8-a4f7-495c-93e7-b66ee48e97d6","system_id":"levelo_inurba_marseille","lat":43.24807,"lon":5.37459,"is_reserved":false,"is_disabled":false,"rental_uris":{"android":"levelo://app?vid=42aa9ea8-a4f7-495c-93e7-b66ee48e97d6","ios":"levelo://app?vid=42aa9ea8-a4f7-495c-93e7-b66ee48e97d6"},"vehicle_type_id":"4","last_reported":1746472030,"current_range_meters":16800,"station_id":"ce4bhgh2rcd13ifvqfb0","pricing_plan_id":"cebpf4jnsgd1na2vs0mg"},{"bike_id":"e137adc0-a2f8-4dd9-8018-ae34547185e2","system_id":"levelo_inurba_marseille","lat":43.28452,"lon":5.35882,"is_reserved":false,"is_disabled":false,"rental_uris":{"android":"levelo://app?vid=e137adc0-a2f8-4dd9-8018-ae34547185e2","ios":"levelo://app?vid=e137adc0-a2f8-4dd9-8018-ae34547185e2"},"vehicle_type_id":"4","last_reported":1746472030,"current_range_meters":16800,"station_id":"ce4bhah2rcd13ifvqei0","pricing_plan_id":"cebpf4jnsgd1na2vs0mg"},{"bike_id":"5ba08c24-db53-4699-8b62-93299621b3b5","system_id":"levelo_inurba_marseille","lat":43.28616,"lon":5.35108,"is_reserved":false,"is_disabled":false,"rental_uris":{"android":"levelo://app?vid=5ba08c24-db53-4699-8b62-93299621b3b5","ios":"levelo://app?vid=5ba08c24-db53-4699-8b62-93299621b3b5"},"vehicle_type_id":"4","last_reported":1746472030,"current_range_meters":17200,"station_id":"ce4bhch2rcd13ifvqeug","pricing_plan_id":"cebpf4jnsgd1na2vs0mg"},{"bike_id":"24616366-4787-4f02-a31b-2241651566f8","system_id":"levelo_inurba_marseille","lat":43.28726,"lon":5.36094,"is_reserved":false,"is_disabled":false,"rental_uris":{"android":"levelo://app?vid=24616366-4787-4f02-a31b-2241651566f8","ios":"levelo://app?vid=24616366-4787-4f02-a31b-2241651566f8"},"vehicle_type_id":"4","last_reported":1746472030,"current_range_meters":17200,"station_id":"cki0cbj6b192h4jlfktg","pricing_plan_id":"cebpf4jnsgd1na2vs0mg"},{"bike_id":"62abd1a7-7a0b-4601-b7d9-44b92d8d2d1e","system_id":"levelo_inurba_marseille","lat":43.28105,"lon":5.37839,"is_reserved":false,"is_disabled":false,"rental_uris":{"android":"levelo://app?vid=62abd1a7-7a0b-4601-b7d9-44b92d8d2d1e","ios":"levelo://app?vid=62abd1a7-7a0b-4601-b7d9-44b92d8d2d1e"},"vehicle_type_id":"4","last_reported":1746472030,"current_range_meters":17200,"station_id":"ce4bha12rcd13ifvqee0","pricing_plan_id":"cebpf4jnsgd1na2vs0mg"},{"bike_id":"13a33661-336b-40d3-8177-5933c619331c","system_id":"levelo_inurba_marseille","lat":43.28697,"lon":5.37408,"is_reserved":false,"is_disabled":false,"rental_uris":{"android":"levelo://app?vid=13a33661-336b-40d3-8177-5933c619331c","ios":"levelo://app?vid=13a33661-336b-40d3-8177-5933c619331c"},"vehicle_type_id":"4","last_reported":1746472030,"current_range_meters":17200,"station_id":"ce4bh3p2rcd13ifvqdq0","pricing_plan_id":"cebpf4jnsgd1na2vs0mg"},{"bike_id":"d9766e1c-c799-4d16-aa57-1d47be3d5579","system_id":"levelo_inurba_marseille","lat":43.32684,"lon":5.40424,"is_reserved":false,"is_disabled":false,"rental_uris":{"android":"levelo://app?vid=d9766e1c-c799-4d16-aa57-1d47be3d5579","ios":"levelo://app?vid=d9766e1c-c799-4d16-aa57-1d47be3d5579"},"vehicle_type_id":"4","last_reported":1746472030,"current_range_meters":17200,"station_id":"","pricing_plan_id":"cebpf4jnsgd1na2vs0mg"},{"bike_id":"5987d684-ebbc-4e3b-9225-d827a0b9ff39","system_id":"levelo_inurba_marseille","lat":43.23971,"lon":5.36622,"is_reserved":false,"is_disabled":false,"rental_uris":{"android":"levelo://app?vid=5987d684-ebbc-4e3b-9225-d827a0b9ff39","ios":"levelo://app?vid=5987d684-ebbc-4e3b-9225-d827a0b9ff39"},"vehicle_type_id":"4","last_reported":1746472030,"current_range_meters":17200,"station_id":"ce4bhi12rcd13ifvqfp0","pricing_plan_id":"cebpf4jnsgd1na2vs0mg"},{"bike_id":"68db1e13-3b7e-40af-83a2-a4203eac9c02","system_id":"levelo_inurba_marseille","lat":43.28098,"lon":5.37843,"is_reserved":false,"is_disabled":false,"rental_uris":{"android":"levelo://app?vid=68db1e13-3b7e-40af-83a2-a4203eac9c02","ios":"levelo://app?vid=68db1e13-3b7e-40af-83a2-a4203eac9c02"},"vehicle_type_id":"4","last_reported":1746472030,"current_range_meters":17200,"station_id":"ce4bha12rcd13ifvqee0","pricing_plan_id":"cebpf4jnsgd1na2vs0mg"},{"bike_id":"6fd409dd-934c-49e9-adab-e6e56e37cbae","system_id":"levelo_inurba_marseille","lat":43.27614,"lon":5.36117,"is_reserved":false,"is_disabled":false,"rental_uris":{"android":"levelo://app?vid=6fd409dd-934c-49e9-adab-e6e56e37cbae","ios":"levelo://app?vid=6fd409dd-934c-49e9-adab-e6e56e37cbae"},"vehicle_type_id":"4","last_reported":1746472030,"current_range_meters":16800,"station_id":"ce4bgj92rcd13ifvqbe0","pricing_plan_id":"cebpf4jnsgd1na2vs0mg"},{"bike_id":"447940de-7128-454b-8611-6337db700b3c","system_id":"levelo_inurba_marseille","lat":43.28154,"lon":5.42646,"is_reserved":false,"is_disabled":false,"rental_uris":{"android":"levelo://app?vid=447940de-7128-454b-8611-6337db700b3c","ios":"levelo://app?vid=447940de-7128-454b-8611-6337db700b3c"},"vehicle_type_id":"4","last_reported":1746472030,"current_range_meters":17200,"station_id":"ce4bhnh2rcd13ifvqgug","pricing_plan_id":"cebpf4jnsgd1na2vs0mg"},{"bike_id":"9e8165ce-7187-47bf-96c5-86a087f543d1","system_id":"levelo_inurba_marseille","lat":43.304217,"lon":5.412825,"is_reserved":false,"is_disabled":false,"rental_uris":{"android":"levelo://app?vid=9e8165ce-7187-47bf-96c5-86a087f543d1","ios":"levelo://app?vid=9e8165ce-7187-47bf-96c5-86a087f543d1"},"vehicle_type_id":"4","last_reported":1746472030,"current_range_meters":17200,"station_id":"ce4bhop2rcd13ifvqh8g","pricing_plan_id":"cebpf4jnsgd1na2vs0mg"},{"bike_id":"465be611-f162-4d27-955e-1034ddb99398","system_id":"levelo_inurba_marseille","lat":43.28717,"lon":5.37946,"is_reserved":false,"is_disabled":false,"rental_uris":{"android":"levelo://app?vid=465be611-f162-4d27-955e-1034ddb99398","ios":"levelo://app?vid=465be611-f162-4d27-955e-1034ddb99398"},"vehicle_type_id":"4","last_reported":1746472030,"current_range_meters":17200,"station_id":"ce4bh9p2rcd13ifvqec0","pricing_plan_id":"cebpf4jnsgd1na2vs0mg"},{"bike_id":"95cb813b-9266-44b9-a68b-7aa79bf3eb36","system_id":"levelo_inurba_marseille","lat":43.32652,"lon":5.40978,"is_reserved":false,"is_disabled":true,"rental_uris":{"android":"levelo://app?vid=95cb813b-9266-44b9-a68b-7aa79bf3eb36","ios":"levelo://app?vid=95cb813b-9266-44b9-a68b-7aa79bf3eb36"},"vehicle_type_id":"4","last_reported":1746472030,"current_range_meters":17200,"station_id":"ce4bhpp2rcd13ifvqhgg","pricing_plan_id":"cebpf4jnsgd1na2vs0mg"},{"bike_id":"21775e69-04f5-440c-b39e-fc24776c213a","system_id":"levelo_inurba_marseille","lat":43.28938,"lon":5.36639,"is_reserved":false,"is_disabled":false,"rental_uris":{"android":"levelo://app?vid=21775e69-04f5-440c-b39e-fc24776c213a","ios":"levelo://app?vid=21775e69-04f5-440c-b39e-fc24776c213a"},"vehicle_type_id":"4","last_reported":1746472030,"current_range_meters":17600,"station_id":"ce4bhap2rcd13ifvqek0","pricing_plan_id":"cebpf4jnsgd1na2vs0mg"},{"bike_id":"ffc28b54-1db1-4cbd-a400-3b6ac654ec8d","system_id":"levelo_inurba_marseille","lat":43.29092,"lon":5.38131,"is_reserved":false,"is_disabled":false,"rental_uris":{"android":"levelo://app?vid=ffc28b54-1db1-4cbd-a400-3b6ac654ec8d","ios":"levelo://app?vid=ffc28b54-1db1-4cbd-a400-3b6ac654ec8d"},"vehicle_type_id":"4","last_reported":1746472030,"current_range_meters":17600,"station_id":"ce4bh512rcd13ifvqe2g","pricing_plan_id":"cebpf4jnsgd1na2vs0mg"},{"bike_id":"7ecae5e9-4026-4f2f-9977-8e90adf029dd","system_id":"levelo_inurba_marseille","lat":43.28437,"lon":5.39202,"is_reserved":false,"is_disabled":false,"rental_uris":{"android":"levelo://app?vid=7ecae5e9-4026-4f2f-9977-8e90adf029dd","ios":"levelo://app?vid=7ecae5e9-4026-4f2f-9977-8e90adf029dd"},"vehicle_type_id":"4","last_reported":1746472030,"current_range_meters":17600,"station_id":"ce4bhoh2rcd13ifvqh5g","pricing_plan_id":"cebpf4jnsgd1na2vs0mg"},{"bike_id":"6a038e05-52bb-4f8e-bf88-dfeeda536871","system_id":"levelo_inurba_marseille","lat":43.29603,"lon":5.38107,"is_reserved":false,"is_disabled":false,"rental_uris":{"android":"levelo://app?vid=6a038e05-52bb-4f8e-bf88-dfeeda536871","ios":"levelo://app?vid=6a038e05-52bb-4f8e-bf88-dfeeda536871"},"vehicle_type_id":"4","last_reported":1746472030,"current_range_meters":17600,"station_id":"ce4bgl12rcd13ifvqbo0","pricing_plan_id":"cebpf4jnsgd1na2vs0mg"},{"bike_id":"a07db7df-d212-4a63-ba71-2fc2a43e04a0","system_id":"levelo_inurba_marseille","lat":43.31722,"lon":5.43716,"is_reserved":false,"is_disabled":false,"rental_uris":{"android":"levelo://app?vid=a07db7df-d212-4a63-ba71-2fc2a43e04a0","ios":"levelo://app?vid=a07db7df-d212-4a63-ba71-2fc2a43e04a0"},"vehicle_type_id":"4","last_reported":1746472030,"current_range_meters":17600,"station_id":"ce4bhp92rcd13ifvqhcg","pricing_plan_id":"cebpf4jnsgd1na2vs0mg"},{"bike_id":"e96aed38-4a0d-4978-b6c9-65d6ecdea43d","system_id":"levelo_inurba_marseille","lat":43.29365,"lon":5.37865,"is_reserved":false,"is_disabled":true,"rental_uris":{"android":"levelo://app?vid=e96aed38-4a0d-4978-b6c9-65d6ecdea43d","ios":"levelo://app?vid=e96aed38-4a0d-4978-b6c9-65d6ecdea43d"},"vehicle_type_id":"4","last_reported":1746472030,"current_range_meters":17600,"station_id":"ce4bgjh2rcd13ifvqbf0","pricing_plan_id":"cebpf4jnsgd1na2vs0mg"},{"bike_id":"3fe64674-c146-4136-8521-692c55739e60","system_id":"levelo_inurba_marseille","lat":43.28953,"lon":5.36636,"is_reserved":false,"is_disabled":false,"rental_uris":{"android":"levelo://app?vid=3fe64674-c146-4136-8521-692c55739e60","ios":"levelo://app?vid=3fe64674-c146-4136-8521-692c55739e60"},"vehicle_type_id":"4","last_reported":1746472030,"current_range_meters":18000,"station_id":"ce4bhap2rcd13ifvqek0","pricing_plan_id":"cebpf4jnsgd1na2vs0mg"},{"bike_id":"ab90e9b6-0de2-4ade-b5fd-575dd5de365d","system_id":"levelo_inurba_marseille","lat":43.28148,"lon":5.42636,"is_reserved":false,"is_disabled":false,"rental_uris":{"android":"levelo://app?vid=ab90e9b6-0de2-4ade-b5fd-575dd5de365d","ios":"levelo://app?vid=ab90e9b6-0de2-4ade-b5fd-575dd5de365d"},"vehicle_type_id":"4","last_reported":1746472030,"current_range_meters":18000,"station_id":"ce4bhnh2rcd13ifvqgug","pricing_plan_id":"cebpf4jnsgd1na2vs0mg"},{"bike_id":"963d8069-7bb5-4aa5-87fd-370890d238a8","system_id":"levelo_inurba_marseille","lat":43.31379,"lon":5.38496,"is_reserved":false,"is_disabled":false,"rental_uris":{"android":"levelo://app?vid=963d8069-7bb5-4aa5-87fd-370890d238a8","ios":"levelo://app?vid=963d8069-7bb5-4aa5-87fd-370890d238a8"},"vehicle_type_id":"4","last_reported":1746472030,"current_range_meters":18000,"station_id":"ce4bgt92rcd13ifvqcf0","pricing_plan_id":"cebpf4jnsgd1na2vs0mg"},{"bike_id":"9175d517-3c9f-4a9d-9359-bc5552cd94b8","system_id":"levelo_inurba_marseille","lat":43.28619,"lon":5.35101,"is_reserved":false,"is_disabled":false,"rental_uris":{"android":"levelo://app?vid=9175d517-3c9f-4a9d-9359-bc5552cd94b8","ios":"levelo://app?vid=9175d517-3c9f-4a9d-9359-bc5552cd94b8"},"vehicle_type_id":"4","last_reported":1746472030,"current_range_meters":18000,"station_id":"ce4bhch2rcd13ifvqeug","pricing_plan_id":"cebpf4jnsgd1na2vs0mg"},{"bike_id":"c0da2ce7-fdff-4d59-9bba-a10f93fd4b6b","system_id":"levelo_inurba_marseille","lat":43.29026,"lon":5.386496,"is_reserved":false,"is_disabled":false,"rental_uris":{"android":"levelo://app?vid=c0da2ce7-fdff-4d59-9bba-a10f93fd4b6b","ios":"levelo://app?vid=c0da2ce7-fdff-4d59-9bba-a10f93fd4b6b"},"vehicle_type_id":"4","last_reported":1746472030,"current_range_meters":18000,"station_id":"ce4bh4p2rcd13ifvqe0g","pricing_plan_id":"cebpf4jnsgd1na2vs0mg"},{"bike_id":"5bc4ec4e-1872-4ae1-9e0b-c9b290a363d7","system_id":"levelo_inurba_marseille","lat":43.30321,"lon":5.4044,"is_reserved":false,"is_disabled":false,"rental_uris":{"android":"levelo://app?vid=5bc4ec4e-1872-4ae1-9e0b-c9b290a363d7","ios":"levelo://app?vid=5bc4ec4e-1872-4ae1-9e0b-c9b290a363d7"},"vehicle_type_id":"4","last_reported":1746472030,"current_range_meters":18000,"station_id":"ce4bh012rcd13ifvqd10","pricing_plan_id":"cebpf4jnsgd1na2vs0mg"},{"bike_id":"0b8d7167-f22b-4b4a-a34c-171be1727b0f","system_id":"levelo_inurba_marseille","lat":43.27615,"lon":5.36115,"is_reserved":false,"is_disabled":false,"rental_uris":{"android":"levelo://app?vid=0b8d7167-f22b-4b4a-a34c-171be1727b0f","ios":"levelo://app?vid=0b8d7167-f22b-4b4a-a34c-171be1727b0f"},"vehicle_type_id":"4","last_reported":1746472030,"current_range_meters":19200,"station_id":"ce4bgj92rcd13ifvqbe0","pricing_plan_id":"cebpf4jnsgd1na2vs0mg"},{"bike_id":"03bb5049-51e5-461e-8353-3cc13edfbfb8","system_id":"levelo_inurba_marseille","lat":43.23961,"lon":5.36622,"is_reserved":false,"is_disabled":false,"rental_uris":{"android":"levelo://app?vid=03bb5049-51e5-461e-8353-3cc13edfbfb8","ios":"levelo://app?vid=03bb5049-51e5-461e-8353-3cc13edfbfb8"},"vehicle_type_id":"4","last_reported":1746472030,"current_range_meters":18800,"station_id":"ce4bhi12rcd13ifvqfp0","pricing_plan_id":"cebpf4jnsgd1na2vs0mg"},{"bike_id":"3f5e72fc-2b16-416f-8bbb-7d2687a057d7","system_id":"levelo_inurba_marseille","lat":43.27808,"lon":5.40713,"is_reserved":false,"is_disabled":false,"rental_uris":{"android":"levelo://app?vid=3f5e72fc-2b16-416f-8bbb-7d2687a057d7","ios":"levelo://app?vid=3f5e72fc-2b16-416f-8bbb-7d2687a057d7"},"vehicle_type_id":"4","last_reported":1746472030,"current_range_meters":18800,"station_id":"ce4bhnh2rcd13ifvqgtg","pricing_plan_id":"cebpf4jnsgd1na2vs0mg"},{"bike_id":"45d8f20b-d479-405d-a1a6-63a2cb4cc7d3","system_id":"levelo_inurba_marseille","lat":43.2806,"lon":5.39644,"is_reserved":false,"is_disabled":false,"rental_uris":{"android":"levelo://app?vid=45d8f20b-d479-405d-a1a6-63a2cb4cc7d3","ios":"levelo://app?vid=45d8f20b-d479-405d-a1a6-63a2cb4cc7d3"},"vehicle_type_id":"4","last_reported":1746472030,"current_range_meters":18800,"station_id":"ce4bho12rcd13ifvqh2g","pricing_plan_id":"cebpf4jnsgd1na2vs0mg"},{"bike_id":"f6a6f2b5-282b-4071-b814-010a1708f04a","system_id":"levelo_inurba_marseille","lat":43.27361,"lon":5.3626,"is_reserved":false,"is_disabled":false,"rental_uris":{"android":"levelo://app?vid=f6a6f2b5-282b-4071-b814-010a1708f04a","ios":"levelo://app?vid=f6a6f2b5-282b-4071-b814-010a1708f04a"},"vehicle_type_id":"4","last_reported":1746472030,"current_range_meters":18800,"station_id":"ce4bhbh2rcd13ifvqeo0","pricing_plan_id":"cebpf4jnsgd1na2vs0mg"},{"bike_id":"63a15020-6909-43f9-8614-e2fa8f24fa11","system_id":"levelo_inurba_marseille","lat":43.31362,"lon":5.38497,"is_reserved":false,"is_disabled":false,"rental_uris":{"android":"levelo://app?vid=63a15020-6909-43f9-8614-e2fa8f24fa11","ios":"levelo://app?vid=63a15020-6909-43f9-8614-e2fa8f24fa11"},"vehicle_type_id":"4","last_reported":1746472030,"current_range_meters":18800,"station_id":"ce4bgt92rcd13ifvqcf0","pricing_plan_id":"cebpf4jnsgd1na2vs0mg"},{"bike_id":"89d3f377-5a64-405e-ad75-45e8469ae3f6","system_id":"levelo_inurba_marseille","lat":43.26924,"lon":5.40299,"is_reserved":false,"is_disabled":true,"rental_uris":{"android":"levelo://app?vid=89d3f377-5a64-405e-ad75-45e8469ae3f6","ios":"levelo://app?vid=89d3f377-5a64-405e-ad75-45e8469ae3f6"},"vehicle_type_id":"4","last_reported":1746472030,"current_range_meters":18800,"station_id":"cjm6bp8fraef2m0cb0m0","pricing_plan_id":"cebpf4jnsgd1na2vs0mg"},{"bike_id":"a327ed7c-cb3d-44b1-bb3d-7951cd226f01","system_id":"levelo_inurba_marseille","lat":43.293396,"lon":5.371296,"is_reserved":false,"is_disabled":false,"rental_uris":{"android":"levelo://app?vid=a327ed7c-cb3d-44b1-bb3d-7951cd226f01","ios":"levelo://app?vid=a327ed7c-cb3d-44b1-bb3d-7951cd226f01"},"vehicle_type_id":"4","last_reported":1746472030,"current_range_meters":18800,"station_id":"","pricing_plan_id":"cebpf4jnsgd1na2vs0mg"},{"bike_id":"6ce81efa-e8f3-477a-b7a1-a1c58c727c56","system_id":"levelo_inurba_marseille","lat":43.211915,"lon":5.350758,"is_reserved":false,"is_disabled":false,"rental_uris":{"android":"levelo://app?vid=6ce81efa-e8f3-477a-b7a1-a1c58c727c56","ios":"levelo://app?vid=6ce81efa-e8f3-477a-b7a1-a1c58c727c56"},"vehicle_type_id":"4","last_reported":1746472030,"current_range_meters":18800,"station_id":"","pricing_plan_id":"cebpf4jnsgd1na2vs0mg"},{"bike_id":"13d72c90-097d-44e3-a161-c92142027aeb","system_id":"levelo_inurba_marseille","lat":43.32122,"lon":5.36742,"is_reserved":false,"is_disabled":false,"rental_uris":{"android":"levelo://app?vid=13d72c90-097d-44e3-a161-c92142027aeb","ios":"levelo://app?vid=13d72c90-097d-44e3-a161-c92142027aeb"},"vehicle_type_id":"4","last_reported":1746472030,"current_range_meters":18800,"station_id":"ce4bhrh2rcd13ifvqhug","pricing_plan_id":"cebpf4jnsgd1na2vs0mg"},{"bike_id":"a5076b17-3ea1-4612-8f8b-228b16da713e","system_id":"levelo_inurba_marseille","lat":43.29034,"lon":5.36967,"is_reserved":false,"is_disabled":false,"rental_uris":{"android":"levelo://app?vid=a5076b17-3ea1-4612-8f8b-228b16da713e","ios":"levelo://app?vid=a5076b17-3ea1-4612-8f8b-228b16da713e"},"vehicle_type_id":"4","last_reported":1746472030,"current_range_meters":19200,"station_id":"ce4bh5p2rcd13ifvqe4g","pricing_plan_id":"cebpf4jnsgd1na2vs0mg"},{"bike_id":"e0a0fb85-9539-4fb6-b21f-392540fb8a26","system_id":"levelo_inurba_marseille","lat":43.32373,"lon":5.36778,"is_reserved":false,"is_disabled":false,"rental_uris":{"android":"levelo://app?vid=e0a0fb85-9539-4fb6-b21f-392540fb8a26","ios":"levelo://app?vid=e0a0fb85-9539-4fb6-b21f-392540fb8a26"},"vehicle_type_id":"4","last_reported":1746472030,"current_range_meters":19200,"station_id":"ce4bhsh2rcd13ifvqi2g","pricing_plan_id":"cebpf4jnsgd1na2vs0mg"},