{"last_updated":1714414147,"ttl":30,"version":"2.2","data":{"bikes":[{"bike_id":"6723d065-47bb-43cc-8c63-be8cf2bb8e45","system_id":"levelo_inurba_marseille","lat":43.312239,"lon":5.368562,"is_reserved":false,"is_disabled":false,"rental_uris":{"android":"levelo://app?vid=6723d065-47bb-43cc-8c63-be8cf2bb8e45","ios":"levelo://app?vid=6723d065-47bb-43cc-8c63-be8cf2bb8e45"},"vehicle_type_id":"4","last_reported":1714414147,"current_range_meters":18000,"station_id":"ce4bgl92rcd13ifvqbq0","pricing_plan_id":"cebpf4jnsgd1na2vs0mg"},{"bike_id":"c5cfd8ae-4877-4d0f-ae8a-8973db46427b","system_id":"levelo_inurba_marseille","lat":43.317557,"lon":5.390173,"is_reserved":false,"is_disabled":false,"rental_uris":{"android":"levelo://app?vid=c5cfd8ae-4877-4d0f-ae8a-8973db46427b","ios":"levelo://app?vid=c5cfd8ae-4877-4d0f-ae8a-8973db46427b"},"vehicle_type_id":"4","last_reported":1714414147,"current_range_meters":22800,"station_id":"ce4bhqp2rcd13ifvqhng","pricing_plan_id":"cebpf4jnsgd1na2vs0mg"},{"bike_id":"88761f30-b5cc-4250-a85e-2311515e06a8","system_id":"levelo_inurba_marseille","lat":43.314811,"lon":5.373103,"is_reserved":false,"is_disabled":false,"rental_uris":{"android":"levelo://app?vid=88761f30-b5cc-4250-a85e-2311515e06a8","ios":"levelo://app?vid=88761f30-b5cc-4250-a85e-2311515e06a8"},"vehicle_type_id":"4","last_reported":1714414147,"current_range_meters":15200,"station_id":"ce4bgt12rcd13ifvqcd0","pricing_plan_id":"cebpf4jnsgd1na2vs0mg"},{"bike_id":"75286648-de16-495f-9886-a80ece7937d5","system_id":"levelo_inurba_marseille","lat":43.314899,"lon":5.373128,"is_reserved":false,"is_disabled":false,"rental_uris":{"android":"levelo://app?vid=75286648-de16-495f-9886-a80ece7937d5","ios":"levelo://app?vid=75286648-de16-495f-9886-a80ece7937d5"},"vehicle_type_id":"4","last_reported":1714414147,"current_range_meters":0,"station_id":"ce4bgt12rcd13ifvqcd0","pricing_plan_id":"cebpf4jnsgd1na2vs0mg"},{"bike_id":"b39b6c24-9853-4347-aed1-39377fb31636","system_id":"levelo_inurba_marseille","lat":43.314811,"lon":5.373104,"is_reserved":false,"is_disabled":false,"rental_uris":{"android":"levelo://app?vid=b39b6c24-9853-4347-aed1-39377fb31636","ios":"levelo://app?vid=b39b6c24-9853-4347-aed1-39377fb31636"},"vehicle_type_id":"4","last_reported":1714414147,"current_range_meters":8400,"station_id":"ce4bgt12rcd13ifvqcd0","pricing_plan_id":"cebpf4jnsgd1na2vs0mg"},{"bike_id":"c3c33725-3da8-4c6c-bd84-48ed98c64721","system_id":"levelo_inurba_marseille","lat":43.314811,"lon":5.373103,"is_reserved":false,"is_disabled":false,"rental_uris":{"android":"levelo://app?vid=c3c33725-3da8-4c6c-bd84-48ed98c64721","ios":"levelo://app?vid=c3c33725-3da8-4c6c-bd84-48ed98c64721"},"vehicle_type_id":"4","last_reported":1714414147,"current_range_meters":24000,"station_id":"ce4bgt12rcd13ifvqcd0","pricing_plan_id":"cebpf4jnsgd1na2vs0mg"},{"bike_id":"eec1e7e9-42d2-4a82-8dd8-326e6de04355","system_id":"levelo_inurba_marseille","lat":43.309039,"lon":5.371797,"is_reserved":false,"is_disabled":false,"rental_uris":{"android":"levelo://app?vid=eec1e7e9-42d2-4a82-8dd8-326e6de04355","ios":"levelo://app?vid=eec1e7e9-42d2-4a82-8dd8-326e6de04355"},"vehicle_type_id":"4","last_reported":1714414147,"current_range_meters":29600,"station_id":"ce4bguh2rcd13ifvqckg","pricing_plan_id":"cebpf4jnsgd1na2vs0mg"},{"bike_id":"63ff7068-04f0-4b1c-89ad-260bbd2d045f","system_id":"levelo_inurba_marseille","lat":43.30549,"lon":5.36709,"is_reserved":false,"is_disabled":false,"rental_uris":{"android":"levelo://app?vid=63ff7068-04f0-4b1c-89ad-260bbd2d045f","ios":"levelo://app?vid=63ff7068-04f0-4b1c-89ad-260bbd2d045f"},"vehicle_type_id":"4","last_reported":1714414147,"current_range_meters":0,"station_id":"ce4bgrp2rcd13ifvqc9g","pricing_plan_id":"cebpf4jnsgd1na2vs0mg"},{"bike_id":"39116a26-c3d7-450b-badd-947e09c4ba84","system_id":"levelo_inurba_marseille","lat":43.305706,"lon":5.365654,"is_reserved":false,"is_disabled":false,"rental_uris":{"android":"levelo://app?vid=39116a26-c3d7-450b-badd-947e09c4ba84","ios":"levelo://app?vid=39116a26-c3d7-450b-badd-947e09c4ba84"},"vehicle_type_id":"4","last_reported":1714414147,"current_range_meters":31200,"station_id":"ce4bgs12rcd13ifvqcag","pricing_plan_id":"cebpf4jnsgd1na2vs0mg"},{"bike_id":"dfe93b47-5f10-4220-a7db-572b3271e260","system_id":"levelo_inurba_marseille","lat":43.305368,"lon":5.367343,"is_reserved":false,"is_disabled":false,"rental_uris":{"android":"levelo://app?vid=dfe93b47-5f10-4220-a7db-572b3271e260","ios":"levelo://app?vid=dfe93b47-5f10-4220-a7db-572b3271e260"},"vehicle_type_id":"4","last_reported":1714414147,"current_range_meters":27200,"station_id":"ce4bgrp2rcd13ifvqc9g","pricing_plan_id":"cebpf4jnsgd1na2vs0mg"},{"bike_id":"0674dfbf-defa-469a-b7fe-7b63a7dad1cd","system_id":"levelo_inurba_marseille","lat":43.305989,"lon":5.37225,"is_reserved":false,"is_disabled":false,"rental_uris":{"android":"levelo://app?vid=0674dfbf-defa-469a-b7fe-7b63a7dad1cd","ios":"levelo://app?vid=0674dfbf-defa-469a-b7fe-7b63a7dad1cd"},"vehicle_type_id":"4","last_reported":1714414147,"current_range_meters":19200,"station_id":"ce4bgqh2rcd13ifvqc4g","pricing_plan_id":"cebpf4jnsgd1na2vs0mg"},{"bike_id":"8b7a286f-e4df-499e-8154-726a93d8a4f0","system_id":"levelo_inurba_marseille","lat":43.305989,"lon":5.37225,"is_reserved":false,"is_disabled":false,"rental_uris":{"android":"levelo://app?vid=8b7a286f-e4df-499e-8154-726a93d8a4f0","ios":"levelo://app?vid=8b7a286f-e4df-499e-8154-726a93d8a4f0"},"vehicle_type_id":"4","last_reported":1714414147,"current_range_meters":24000,"station_id":"ce4bgqh2rcd13ifvqc4g","pricing_plan_id":"cebpf4jnsgd1na2vs0mg"},{"bike_id":"d1402e43-18b8-424c-929b-dcedd7bde9a6","system_id":"levelo_inurba_marseille","lat":43.31121,"lon":5.37773,"is_reserved":false,"is_disabled":false,"rental_uris":{"android":"levelo://app?vid=d1402e43-18b8-424c-929b-dcedd7bde9a6","ios":"levelo://app?vid=d1402e43-18b8-424c-929b-dcedd7bde9a6"},"vehicle_type_id":"4","last_reported":1714414147,"current_range_meters":29200,"station_id":"ce4bgt92rcd13ifvqcg0","pricing_plan_id":"cebpf4jnsgd1na2vs0mg"},{"bike_id":"98c1cde6-4c6f-481c-98c3-73d1d3548124","system_id":"levelo_inurba_marseille","lat":43.311131,"lon":5.377651,"is_reserved":false,"is_disabled":false,"rental_uris":{"android":"levelo://app?vid=98c1cde6-4c6f-481c-98c3-73d1d3548124","ios":"levelo://app?vid=98c1cde6-4c6f-481c-98c3-73d1d3548124"},"vehicle_type_id":"4","last_reported":1714414147,"current_range_meters":14000,"station_id":"ce4bgt92rcd13ifvqcg0","pricing_plan_id":"cebpf4jnsgd1na2vs0mg"},{"bike_id":"881d34bd-6ec2-406d-8de8-5b40b2600409","system_id":"levelo_inurba_marseille","lat":43.317075,"lon":5.377367,"is_reserved":false,"is_disabled":false,"rental_uris":{"android":"levelo://app?vid=881d34bd-6ec2-406d-8de8-5b40b2600409","ios":"levelo://app?vid=881d34bd-6ec2-406d-8de8-5b40b2600409"},"vehicle_type_id":"4","last_reported":1714414147,"current_range_meters":31200,"station_id":"ce4bgth2rcd13ifvqch0","pricing_plan_id":"cebpf4jnsgd1na2vs0mg"},{"bike_id":"6f083176-3d93-4c7e-b17f-c204c6f58692","system_id":"levelo_inurba_marseille","lat":43.317075,"lon":5.377367,"is_reserved":false,"is_disabled":false,"rental_uris":{"android":"levelo://app?vid=6f083176-3d93-4c7e-b17f-c204c6f58692","ios":"levelo://app?vid=6f083176-3d93-4c7e-b17f-c204c6f58692"},"vehicle_type_id":"4","last_reported":1714414147,"current_range_meters":21200,"station_id":"ce4bgth2rcd13ifvqch0","pricing_plan_id":"cebpf4jnsgd1na2vs0mg"},{"bike_id":"04442232-818b-4a94-b3e7-6600e1d254f4","system_id":"levelo_inurba_marseille","lat":43.30481,"lon":5.37321,"is_reserved":false,"is_disabled":false,"rental_uris":{"android":"levelo://app?vid=04442232-818b-4a94-b3e7-6600e1d254f4","ios":"levelo://app?vid=04442232-818b-4a94-b3e7-6600e1d254f4"},"vehicle_type_id":"4","last_reported":1714414147,"current_range_meters":14000,"station_id":"","pricing_plan_id":"cebpf4jnsgd1na2vs0mg"},{"bike_id":"eddb8e1a-0191-4a56-9bfc-45631c4e8e46","system_id":"levelo_inurba_marseille","lat":43.303046,"lon":5.368981,"is_reserved":false,"is_disabled":false,"rental_uris":{"android":"levelo://app?vid=eddb8e1a-0191-4a56-9bfc-45631c4e8e46","ios":"levelo://app?vid=eddb8e1a-0191-4a56-9bfc-45631c4e8e46"},"vehicle_type_id":"4","last_reported":1714414147,"current_range_meters":0,"station_id":"ce4bgqh2rcd13ifvqc5g","pricing_plan_id":"cebpf4jnsgd1na2vs0mg"},{"bike_id":"1592dd02-6216-4ef9-b4a9-3b50b2dc292c","system_id":"levelo_inurba_marseille","lat":43.315289,"lon":5.380349,"is_reserved":false,"is_disabled":false,"rental_uris":{"android":"levelo://app?vid=1592dd02-6216-4ef9-b4a9-3b50b2dc292c","ios":"levelo://app?vid=1592dd02-6216-4ef9-b4a9-3b50b2dc292c"},"vehicle_type_id":"4","last_reported":1714414147,"current_range_meters":0,"station_id":"ce4bhsp2rcd13ifvqi50","pricing_plan_id":"cebpf4jnsgd1na2vs0mg"},{"bike_id":"06e0efcf-97b3-4525-82f0-45e62b3060e0","system_id":"levelo_inurba_marseille","lat":43.303046,"lon":5.368981,"is_reserved":false,"is_disabled":false,"rental_uris":{"android":"levelo://app?vid=06e0efcf-97b3-4525-82f0-45e62b3060e0","ios":"levelo://app?vid=06e0efcf-97b3-4525-82f0-45e62b3060e0"},"vehicle_type_id":"4","last_reported":1714414147,"current_range_meters":0,"station_id":"ce4bgqh2rcd13ifvqc5g","pricing_plan_id":"cebpf4jnsgd1na2vs0mg"},{"bike_id":"5da4151a-e964-4021-99eb-596327c7d62c","system_id":"levelo_inurba_marseille","lat":43.31529,"lon":5.38037,"is_reserved":false,"is_disabled":false,"rental_uris":{"android":"levelo://app?vid=5da4151a-e964-4021-99eb-596327c7d62c","ios":"levelo://app?vid=5da4151a-e964-4021-99eb-596327c7d62c"},"vehicle_type_id":"4","last_reported":1714414147,"current_range_meters":15600,"station_id":"ce4bhsp2rcd13ifvqi50","pricing_plan_id":"cebpf4jnsgd1na2vs0mg"},{"bike_id":"7f7980c4-115f-4840-9311-8726cbfac525","system_id":"levelo_inurba_marseille","lat":43.31535,"lon":5.38041,"is_reserved":false,"is_disabled":false,"rental_uris":{"android":"levelo://app?vid=7f7980c4-115f-4840-9311-8726cbfac525","ios":"levelo://app?vid=7f7980c4-115f-4840-9311-8726cbfac525"},"vehicle_type_id":"4","last_reported":1714414147,"current_range_meters":31200,"station_id":"ce4bhsp2rcd13ifvqi50","pricing_plan_id":"cebpf4jnsgd1na2vs0mg"},{"bike_id":"6217c7be-3f74-4df0-9f8d-54071ca21eb5","system_id":"levelo_inurba_marseille","lat":43.31535,"lon":5.38046,"is_reserved":false,"is_disabled":false,"rental_uris":{"android":"levelo://app?vid=6217c7be-3f74-4df0-9f8d-54071ca21eb5","ios":"levelo://app?vid=6217c7be-3f74-4df0-9f8d-54071ca21eb5"},"vehicle_type_id":"4","last_reported":1714414147,"current_range_meters":0,"station_id":"ce4bhsp2rcd13ifvqi50","pricing_plan_id":"cebpf4jnsgd1na2vs0mg"},{"bike_id":"b1f041cd-931a-4730-a70a-6ec4046efd88","system_id":"levelo_inurba_marseille","lat":43.301939,"lon":5.366286,"is_reserved":false,"is_disabled":false,"rental_uris":{"android":"levelo://app?vid=b1f041cd-931a-4730-a70a-6ec4046efd88","ios":"levelo://app?vid=b1f041cd-931a-4730-a70a-6ec4046efd88"},"vehicle_type_id":"4","last_reported":1714414147,"current_range_meters":5200,"station_id":"ce4bgrh2rcd13ifvqc8g","pricing_plan_id":"cebpf4jnsgd1na2vs0mg"},{"bike_id":"7c6f0ecc-62e5-407a-83de-828bf49bc6b8","system_id":"levelo_inurba_marseille","lat":43.308012,"lon":5.381511,"is_reserved":false,"is_disabled":false,"rental_uris":{"android":"levelo://app?vid=7c6f0ecc-62e5-407a-83de-828bf49bc6b8","ios":"levelo://app?vid=7c6f0ecc-62e5-407a-83de-828bf49bc6b8"},"vehicle_type_id":"4","last_reported":1714414147,"current_range_meters":7600,"station_id":"ce4bgt12rcd13ifvqce0","pricing_plan_id":"cebpf4jnsgd1na2vs0mg"},{"bike_id":"8f2faf89-dfcb-408c-853f-1221d69c9a33","system_id":"levelo_inurba_marseille","lat":43.308012,"lon":5.381511,"is_reserved":false,"is_disabled":false,"rental_uris":{"android":"levelo://app?vid=8f2faf89-dfcb-408c-853f-1221d69c9a33","ios":"levelo://app?vid=8f2faf89-dfcb-408c-853f-1221d69c9a33"},"vehicle_type_id":"4","last_reported":1714414147,"current_range_meters":9200,"station_id":"ce4bgt12rcd13ifvqce0","pricing_plan_id":"cebpf4jnsgd1na2vs0mg"},{"bike_id":"35eeb290-e7b6-4199-82ef-61f56f9adb2a","system_id":"levelo_inurba_marseille","lat":43.308012,"lon":5.381511,"is_reserved":false,"is_disabled":false,"rental_uris":{"android":"levelo://app?vid=35eeb290-e7b6-4199-82ef-61f56f9adb2a","ios":"levelo://app?vid=35eeb290-e7b6-4199-82ef-61f56f9adb2a"},"vehicle_type_id":"4","last_reported":1714414147,"current_range_meters":0,"station_id":"ce4bgt12rcd13ifvqce0","pricing_plan_id":"cebpf4jnsgd1na2vs0mg"},{"bike_id":"6c695266-add0-4a99-8126-84f6ccebdbd0","system_id":"levelo_inurba_marseille","lat":43.30478,"lon":5.37894,"is_reserved":false,"is_disabled":false,"rental_uris":{"android":"levelo://app?vid=6c695266-add0-4a99-8126-84f6ccebdbd0","ios":"levelo://app?vid=6c695266-add0-4a99-8126-84f6ccebdbd0"},"vehicle_type_id":"4","last_reported":1714414147,"current_range_meters":20400,"station_id":"ce4bgup2rcd13ifvqcn0","pricing_plan_id":"cebpf4jnsgd1na2vs0mg"},{"bike_id":"132bacdc-8e73-4afa-9890-359e4c1c3ca1","system_id":"levelo_inurba_marseille","lat":43.324771,"lon":5.36557,"is_reserved":false,"is_disabled":false,"rental_uris":{"android":"levelo://app?vid=132bacdc-8e73-4afa-9890-359e4c1c3ca1","ios":"levelo://app?vid=132bacdc-8e73-4afa-9890-359e4c1c3ca1"},"vehicle_type_id":"4","last_reported":1714414147,"current_range_meters":10400,"station_id":"ce4bhs12rcd13ifvqhvg","pricing_plan_id":"cebpf4jnsgd1na2vs0mg"},{"bike_id":"da7cf71b-c76d-435c-8bcc-78ee9cc66204","system_id":"levelo_inurba_marseille","lat":43.324771,"lon":5.36557,"is_reserved":false,"is_disabled":false,"rental_uris":{"android":"levelo://app?vid=da7cf71b-c76d-435c-8bcc-78ee9cc66204","ios":"levelo://app?vid=da7cf71b-c76d-435c-8bcc-78ee9cc66204"},"vehicle_type_id":"4","last_reported":1714414147,"current_range_meters":14400,"station_id":"ce4bhs12rcd13ifvqhvg","pricing_plan_id":"cebpf4jnsgd1na2vs0mg"},{"bike_id":"2f74409a-74ce-40db-b3a5-f6503f4a675a","system_id":"levelo_inurba_marseille","lat":43.3248,"lon":5.36567,"is_reserved":false,"is_disabled":false,"rental_uris":{"android":"levelo://app?vid=2f74409a-74ce-40db-b3a5-f6503f4a675a","ios":"levelo://app?vid=2f74409a-74ce-40db-b3a5-f6503f4a675a"},"vehicle_type_id":"4","last_reported":1714414147,"current_range_meters":22400,"station_id":"ce4bhs12rcd13ifvqhvg","pricing_plan_id":"cebpf4jnsgd1na2vs0mg"},{"bike_id":"2bd54964-39ec-4baf-8d62-ee67fc4efecf","system_id":"levelo_inurba_marseille","lat":43.324771,"lon":5.36557,"is_reserved":false,"is_disabled":false,"rental_uris":{"android":"levelo://app?vid=2bd54964-39ec-4baf-8d62-ee67fc4efecf","ios":"levelo://app?vid=2bd54964-39ec-4baf-8d62-ee67fc4efecf"},"vehicle_type_id":"4","last_reported":1714414147,"current_range_meters":19600,"station_id":"ce4bhs12rcd13ifvqhvg","pricing_plan_id":"cebpf4jnsgd1na2vs0mg"},{"bike_id":"fed24aee-80a4-4b73-a424-9a65cb9ef4bf","system_id":"levelo_inurba_marseille","lat":43.324771,"lon":5.36557,"is_reserved":false,"is_disabled":false,"rental_uris":{"android":"levelo://app?vid=fed24aee-80a4-4b73-a424-9a65cb9ef4bf","ios":"levelo://app?vid=fed24aee-80a4-4b73-a424-9a65cb9ef4bf"},"vehicle_type_id":"4","last_reported":1714414147,"current_range_meters":23600,"station_id":"ce4bhs12rcd13ifvqhvg","pricing_plan_id":"cebpf4jnsgd1na2vs0mg"},{"bike_id":"7d2182b4-dbc2-4a24-a45c-47ca0cb96df7","system_id":"levelo_inurba_marseille","lat":43.324771,"lon":5.36557,"is_reserved":false,"is_disabled":false,"rental_uris":{"android":"levelo://app?vid=7d2182b4-dbc2-4a24-a45c-47ca0cb96df7","ios":"levelo://app?vid=7d2182b4-dbc2-4a24-a45c-47ca0cb96df7"},"vehicle_type_id":"4","last_reported":1714414147,"current_range_meters":9200,"station_id":"ce4bhs12rcd13ifvqhvg","pricing_plan_id":"cebpf4jnsgd1na2vs0mg"},{"bike_id":"ea9f8f61-be81-43ec-8055-fdf55dd5c39f","system_id":"levelo_inurba_marseille","lat":43.324771,"lon":5.36557,"is_reserved":false,"is_disabled":false,"rental_uris":{"android":"levelo://app?vid=ea9f8f61-be81-43ec-8055-fdf55dd5c39f","ios":"levelo://app?vid=ea9f8f61-be81-43ec-8055-fdf55dd5c39f"},"vehicle_type_id":"4","last_reported":1714414147,"current_range_meters":28400,"station_id":"ce4bhs12rcd13ifvqhvg","pricing_plan_id":"cebpf4jnsgd1na2vs0mg"},{"bike_id":"43b64350-638b-4fde-955e-6a2365e245df","system_id":"levelo_inurba_marseille","lat":43.324771,"lon":5.36557,"is_reserved":false,"is_disabled":false,"rental_uris":{"android":"levelo://app?vid=43b64350-638b-4fde-955e-6a2365e245df","ios":"levelo://app?vid=43b64350-638b-4fde-955e-6a2365e245df"},"vehicle_type_id":"4","last_reported":1714414147,"current_range_meters":13600,"station_id":"ce4bhs12rcd13ifvqhvg","pricing_plan_id":"cebpf4jnsgd1na2vs0mg"},{"bike_id":"0a99ee72-e43a-44c1-9027-262098246010","system_id":"levelo_inurba_marseille","lat":43.324771,"lon":5.36557,"is_reserved":false,"is_disabled":false,"rental_uris":{"android":"levelo://app?vid=0a99ee72-e43a-44c1-9027-262098246010","ios":"levelo://app?vid=0a99ee72-e43a-44c1-9027-262098246010"},"vehicle_type_id":"4","last_reported":1714414147,"current_range_meters":18400,"station_id":"ce4bhs12rcd13ifvqhvg","pricing_plan_id":"cebpf4jnsgd1na2vs0mg"},{"bike_id":"8b58a7c2-18e3-45ad-acbd-655ea693af73","system_id":"levelo_inurba_marseille","lat":43.324771,"lon":5.36557,"is_reserved":false,"is_disabled":false,"rental_uris":{"android":"levelo://app?vid=8b58a7c2-18e3-45ad-acbd-655ea693af73","ios":"levelo://app?vid=8b58a7c2-18e3-45ad-acbd-655ea693af73"},"vehicle_type_id":"4","last_reported":1714414147,"current_range_meters":23200,"station_id":"ce4bhs12rcd13ifvqhvg","pricing_plan_id":"cebpf4jnsgd1na2vs0mg"},{"bike_id":"5a1e7eae-de16-40e4-8f25-124bfbb8516e","system_id":"levelo_inurba_marseille","lat":43.324771,"lon":5.36557,"is_reserved":false,"is_disabled":false,"rental_uris":{"android":"levelo://app?vid=5a1e7eae-de16-40e4-8f25-124bfbb8516e","ios":"levelo://app?vid=5a1e7eae-de16-40e4-8f25-124bfbb8516e"},"vehicle_type_id":"4","last_reported":1714414147,"current_range_meters":15600,"station_id":"ce4bhs12rcd13ifvqhvg","pricing_plan_id":"cebpf4jnsgd1na2vs0mg"},{"bike_id":"e2f0d488-485b-42ce-a5eb-a605ce20dfe8","system_id":"levelo_inurba_marseille","lat":43.324771,"lon":5.36557,"is_reserved":false,"is_disabled":false,"rental_uris":{"android":"levelo://app?vid=e2f0d488-485b-42ce-a5eb-a605ce20dfe8","ios":"levelo://app?vid=e2f0d488-485b-42ce-a5eb-a605ce20dfe8"},"vehicle_type_id":"4","last_reported":1714414147,"current_range_meters":14000,"station_id":"ce4bhs12rcd13ifvqhvg","pricing_plan_id":"cebpf4jnsgd1na2vs0mg"},{"bike_id":"48dd3ec6-b180-43ee-a7ce-834648a3ca81","system_id":"levelo_inurba_marseille","lat":43.324771,"lon":5.36557,"is_reserved":false,"is_disabled":false,"rental_uris":{"android":"levelo://app?vid=48dd3ec6-b180-43ee-a7ce-834648a3ca81","ios":"levelo://app?vid=48dd3ec6-b180-43ee-a7ce-834648a3ca81"},"vehicle_type_id":"4","last_reported":1714414147,"current_range_meters":4000,"station_id":"ce4bhs12rcd13ifvqhvg","pricing_plan_id":"cebpf4jnsgd1na2vs0mg"},{"bike_id":"cf0f8186-3423-4c8b-bbb6-5d421d0e57bf","system_id":"levelo_inurba_marseille","lat":43.324771,"lon":5.36557,"is_reserved":false,"is_disabled":false,"rental_uris":{"android":"levelo://app?vid=cf0f8186-3423-4c8b-bbb6-5d421d0e57bf","ios":"levelo://app?vid=cf0f8186-3423-4c8b-bbb6-5d421d0e57bf"},"vehicle_type_id":"4","last_reported":1714414147,"current_range_meters":10000,"station_id":"ce4bhs12rcd13ifvqhvg","pricing_plan_id":"cebpf4jnsgd1na2vs0mg"},{"bike_id":"bf86c245-53a6-4c88-a168-0d313437f078","system_id":"levelo_inurba_marseille","lat":43.324771,"lon":5.36557,"is_reserved":false,"is_disabled":false,"rental_uris":{"android":"levelo://app?vid=bf86c245-53a6-4c88-a168-0d313437f078","ios":"levelo://app?vid=bf86c245-53a6-4c88-a168-0d313437f078"},"vehicle_type_id":"4","last_reported":1714414147,"current_range_meters":8800,"station_id":"ce4bhs12rcd13ifvqhvg","pricing_plan_id":"cebpf4jnsgd1na2vs0mg"},{"bike_id":"0c158e1b-4722-4f12-8396-1c9d9f4a29d5","system_id":"levelo_inurba_marseille","lat":43.324771,"lon":5.36557,"is_reserved":false,"is_disabled":false,"rental_uris":{"android":"levelo://app?vid=0c158e1b-4722-4f12-8396-1c9d9f4a29d5","ios":"levelo://app?vid=0c158e1b-4722-4f12-8396-1c9d9f4a29d5"},"vehicle_type_id":"4","last_reported":1714414147,"current_range_meters":13200,"station_id":"ce4bhs12rcd13ifvqhvg","pricing_plan_id":"cebpf4jnsgd1na2vs0mg"},{"bike_id":"70fb4549-3b6d-4d72-b915-ed8e6cd24dd8","system_id":"levelo_inurba_marseille","lat":43.324771,"lon":5.36557,"is_reserved":false,"is_disabled":false,"rental_uris":{"android":"levelo://app?vid=70fb4549-3b6d-4d72-b915-ed8e6cd24dd8","ios":"levelo://app?vid=70fb4549-3b6d-4d72-b915-ed8e6cd24dd8"},"vehicle_type_id":"4","last_reported":1714414147,"current_range_meters":17600,"station_id":"ce4bhs12rcd13ifvqhvg","pricing_plan_id":"cebpf4jnsgd1na2vs0mg"},{"bike_id":"543576bd-b295-4580-81b0-e36e0805c360","system_id":"levelo_inurba_marseille","lat":43.32486,"lon":5.365789,"is_reserved":false,"is_disabled":false,"rental_uris":{"android":"levelo://app?vid=543576bd-b295-4580-81b0-e36e0805c360","ios":"levelo://app?vid=543576bd-b295-4580-81b0-e36e0805c360"},"vehicle_type_id":"4","last_reported":1714414147,"current_range_meters":11600,"station_id":"ce4bhs12rcd13ifvqhvg","pricing_plan_id":"cebpf4jnsgd1na2vs0mg"},{"bike_id":"b144120d-38dd-4e64-847f-ed76d7dcc561","system_id":"levelo_inurba_marseille","lat":43.324771,"lon":5.36557,"is_reserved":false,"is_disabled":false,"rental_uris":{"android":"levelo://app?vid=b144120d-38dd-4e64-847f-ed76d7dcc561","ios":"levelo://app?vid=b144120d-38dd-4e64-847f-ed76d7dcc561"},"vehicle_type_id":"4","last_reported":1714414147,"current_range_meters":8400,"station_id":"ce4bhs12rcd13ifvqhvg","pricing_plan_id":"cebpf4jnsgd1na2vs0mg"},{"bike_id":"1b4acdb9-b533-4fbe-be14-3d235a47355f","system_id":"levelo_inurba_marseille","lat":43.324771,"lon":5.36557,"is_reserved":false,"is_disabled":false,"rental_uris":{"android":"levelo://app?vid=1b4acdb9-b533-4fbe-be14-3d235a47355f","ios":"levelo://app?vid=1b4acdb9-b533-4fbe-be14-3d235a47355f"},"vehicle_type_id":"4","last_reported":1714414147,"current_range_meters":27600,"station_id":"ce4bhs12rcd13ifvqhvg","pricing_plan_id":"cebpf4jnsgd1na2vs0mg"},{"bike_id":"fd1360a1-fed0-4851-b9bf-5735671c98cc","system_id":"levelo_inurba_marseille","lat":43.324771,"lon":5.36557,"is_reserved":false,"is_disabled":false,"rental_uris":{"android":"levelo://app?vid=fd1360a1-fed0-4851-b9bf-5735671c98cc","ios":"levelo://app?vid=fd1360a1-fed0-4851-b9bf-5735671c98cc"},"vehicle_type_id":"4","last_reported":1714414147,"current_range_meters":12800,"station_id":"ce4bhs12rcd13ifvqhvg","pricing_plan_id":"cebpf4jnsgd1na2vs0mg"},{"bike_id":"990e7b59-0333-4854-a267-1d421a56d48a","system_id":"levelo_inurba_marseille","lat":43.324771,"lon":5.36557,"is_reserved":false,"is_disabled":false,"rental_uris":{"android":"levelo://app?vid=990e7b59-0333-4854-a267-1d421a56d48a","ios":"levelo://app?vid=990e7b59-0333-4854-a267-1d421a56d48a"},"vehicle_type_id":"4","last_reported":1714414147,"current_range_meters":14400,"station_id":"ce4bhs12rcd13ifvqhvg","pricing_plan_id":"cebpf4jnsgd1na2vs0mg"},{"bike_id":"ba31d74c-b510-4ad0-a81a-88da1b254b39","system_id":"levelo_inurba_marseille","lat":43.301429,"lon":5.37413,"is_reserved":false,"is_disabled":false,"rental_uris":{"android":"levelo://app?vid=ba31d74c-b510-4ad0-a81a-88da1b254b39","ios":"levelo://app?vid=ba31d74c-b510-4ad0-a81a-88da1b254b39"},"vehicle_type_id":"4","last_reported":1714414147,"current_range_meters":0,"station_id":"ce4bgs92rcd13ifvqcc0","pricing_plan_id":"cebpf4jnsgd1na2vs0mg"},{"bike_id":"f8fcc0e9-2696-482e-80c1-41d8b3d37ea9","system_id":"levelo_inurba_marseille","lat":43.312239,"lon":5.368562,"is_reserved":false,"is_disabled":false,"rental_uris":{"android":"levelo://app?vid=f8fcc0e9-2696-482e-80c1-41d8b3d37ea9","ios":"levelo://app?vid=f8fcc0e9-2696-482e-80c1-41d8b3d37ea9"},"vehicle_type_id":"4","last_reported":1714414147,"current_range_meters":2800,"station_id":"ce4bgl92rcd13ifvqbq0","pricing_plan_id":"cebpf4jnsgd1na2vs0mg"},{"bike_id":"57564487-dc35-4e27-8f50-deca87251429","system_id":"levelo_inurba_marseille","lat":43.319935,"lon":5.381699,"is_reserved":false,"is_disabled":false,"rental_uris":{"android":"levelo://app?vid=57564487-dc35-4e27-8f50-deca87251429","ios":"levelo://app?vid=57564487-dc35-4e27-8f50-deca87251429"},"vehicle_type_id":"4","last_reported":1714414147,"current_range_meters":14400,"station_id":"ce4bhr12rcd13ifvqhpg","pricing_plan_id":"cebpf4jnsgd1na2vs0mg"},{"bike_id":"d4a93352-25cf-45d9-be28-f962b9e65449","system_id":"levelo_inurba_marseille","lat":43.319935,"lon":5.381699,"is_reserved":false,"is_disabled":false,"rental_uris":{"android":"levelo://app?vid=d4a93352-25cf-45d9-be28-f962b9e65449","ios":"levelo://app?vid=d4a93352-25cf-45d9-be28-f962b9e65449"},"vehicle_type_id":"4","last_reported":1714414147,"current_range_meters":17600,"station_id":"ce4bhr12rcd13ifvqhpg","pricing_plan_id":"cebpf4jnsgd1na2vs0mg"},{"bike_id":"3a0dd3af-d859-4d73-9903-f7eeb8ebaee4","system_id":"levelo_inurba_marseille","lat":43.319935,"lon":5.381699,"is_reserved":false,"is_disabled":false,"rental_uris":{"android":"levelo://app?vid=3a0dd3af-d859-4d73-9903-f7eeb8ebaee4","ios":"levelo://app?vid=3a0dd3af-d859-4d73-9903-f7eeb8ebaee4"},"vehicle_type_id":"4","last_reported":1714414147,"current_range_meters":30800,"station_id":"ce4bhr12rcd13ifvqhpg","pricing_plan_id":"cebpf4jnsgd1na2vs0mg"},{"bike_id":"962a4b7f-7040-4679-ad3c-62d0395f99e0","system_id":"levelo_inurba_marseille","lat":43.313571,"lon":5.384829,"is_reserved":false,"is_disabled":false,"rental_uris":{"android":"levelo://app?vid=962a4b7f-7040-4679-ad3c-62d0395f99e0","ios":"levelo://app?vid=962a4b7f-7040-4679-ad3c-62d0395f99e0"},"vehicle_type_id":"4","last_reported":1714414147,"current_range_meters":12000,"station_id":"ce4bgt92rcd13ifvqcf0","pricing_plan_id":"cebpf4jnsgd1na2vs0mg"},{"bike_id":"87fe9160-f758-44ed-a952-8f88728ecfca","system_id":"levelo_inurba_marseille","lat":43.293009,"lon":5.374584,"is_reserved":false,"is_disabled":false,"rental_uris":{"android":"levelo://app?vid=87fe9160-f758-44ed-a952-8f88728ecfca","ios":"levelo://app?vid=87fe9160-f758-44ed-a952-8f88728ecfca"},"vehicle_type_id":"4","last_reported":1714414147,"current_range_meters":30400,"station_id":"ce4bgi12rcd13ifvqb70","pricing_plan_id":"cebpf4jnsgd1na2vs0mg"},{"bike_id":"82a9d743-4d85-4b5c-9f9e-d6506f3058f7","system_id":"levelo_inurba_marseille","lat":43.299823,"lon":5.37182,"is_reserved":false,"is_disabled":false,"rental_uris":{"android":"levelo://app?vid=82a9d743-4d85-4b5c-9f9e-d6506f3058f7","ios":"levelo://app?vid=82a9d743-4d85-4b5c-9f9e-d6506f3058f7"},"vehicle_type_id":"4","last_reported":1714414147,"current_range_meters":0,"station_id":"ce4bgr92rcd13ifvqc7g","pricing_plan_id":"cebpf4jnsgd1na2vs0mg"},{"bike_id":"2e1fb5bd-fe27-446f-b498-3365f88f4da4","system_id":"levelo_inurba_marseille","lat":43.298433,"lon":5.362774,"is_reserved":false,"is_disabled":false,"rental_uris":{"android":"levelo://app?vid=2e1fb5bd-fe27-446f-b498-3365f88f4da4","ios":"levelo://app?vid=2e1fb5bd-fe27-446f-b498-3365f88f4da4"},"vehicle_type_id":"4","last_reported":1714414147,"current_range_meters":3600,"station_id":"ce4bgpp2rcd13ifvqc3g","pricing_plan_id":"cebpf4jnsgd1na2vs0mg"},{"bike_id":"22dab1fb-4455-417c-977b-1d222cb73f22","system_id":"levelo_inurba_marseille","lat":43.298433,"lon":5.362774,"is_reserved":false,"is_disabled":false,"rental_uris":{"android":"levelo://app?vid=22dab1fb-4455-417c-977b-1d222cb73f22","ios":"levelo://app?vid=22dab1fb-4455-417c-977b-1d222cb73f22"},"vehicle_type_id":"4","last_reported":1714414147,"current_range_meters":18400,"station_id":"ce4bgpp2rcd13ifvqc3g","pricing_plan_id":"cebpf4jnsgd1na2vs0mg"},{"bike_id":"4c748747-9b72-4ba8-8bf2-10ef2aa572a8","system_id":"levelo_inurba_marseille","lat":43.298433,"lon":5.362774,"is_reserved":false,"is_disabled":false,"rental_uris":{"android":"levelo://app?vid=4c748747-9b72-4ba8-8bf2-10ef2aa572a8","ios":"levelo://app?vid=4c748747-9b72-4ba8-8bf2-10ef2aa572a8"},"vehicle_type_id":"4","last_reported":1714414147,"current_range_meters":14400,"station_id":"ce4bgpp2rcd13ifvqc3g","pricing_plan_id":"cebpf4jnsgd1na2vs0mg"},{"bike_id":"5b62401e-e4ae-411f-a005-1efa2f5eb92b","system_id":"levelo_inurba_marseille","lat":43.298433,"lon":5.362774,"is_reserved":false,"is_disabled":false,"rental_uris":{"android":"levelo://app?vid=5b62401e-e4ae-411f-a005-1efa2f5eb92b","ios":"levelo://app?vid=5b62401e-e4ae-411f-a005-1efa2f5eb92b"},"vehicle_type_id":"4","last_reported":1714414147,"current_range_meters":29200,"station_id":"ce4bgpp2rcd13ifvqc3g","pricing_plan_id":"cebpf4jnsgd1na2vs0mg"},{"bike_id":"5a7e3b1b-6b1d-48c4-bf47-225ac47a8484","system_id":"levelo_inurba_marseille","lat":43.298433,"lon":5.362774,"is_reserved":false,"is_disabled":false,"rental_uris":{"android":"levelo://app?vid=5a7e3b1b-6b1d-48c4-bf47-225ac47a8484","ios":"levelo://app?vid=5a7e3b1b-6b1d-48c4-bf47-225ac47a8484"},"vehicle_type_id":"4","last_reported":1714414147,"current_range_meters":26400,"station_id":"ce4bgpp2rcd13ifvqc3g","pricing_plan_id":"cebpf4jnsgd1na2vs0mg"},{"bike_id":"d38e480f-9afd-4957-b1e0-afe52e676b51","system_id":"levelo_inurba_marseille","lat":43.300176,"lon":5.377116,"is_reserved":false,"is_disabled":false,"rental_uris":{"android":"levelo://app?vid=d38e480f-9afd-4957-b1e0-afe52e676b51","ios":"levelo://app?vid=d38e480f-9afd-4957-b1e0-afe52e676b51"},"vehicle_type_id":"4","last_reported":1714414147,"current_range_meters":7600,"station_id":"","pricing_plan_id":"cebpf4jnsgd1na2vs0mg"},{"bike_id":"c0cf678c-cf57-42e2-bb8a-1ef2c5282fd7","system_id":"levelo_inurba_marseille","lat":43.298433,"lon":5.362774,"is_reserved":false,"is_disabled":false,"rental_uris":{"android":"levelo://app?vid=c0cf678c-cf57-42e2-bb8a-1ef2c5282fd7","ios":"levelo://app?vid=c0cf678c-cf57-42e2-bb8a-1ef2c5282fd7"},"vehicle_type_id":"4","last_reported":1714414147,"current_range_meters":30000,"station_id":"ce4bgpp2rcd13ifvqc3g","pricing_plan_id":"cebpf4jnsgd1na2vs0mg"},{"bike_id":"c47fc30c-bbe2-47c1-a475-dc2e467103f8","system_id":"levelo_inurba_marseille","lat":43.298433,"lon":5.362774,"is_reserved":false,"is_disabled":false,"rental_uris":{"android":"levelo://app?vid=c47fc30c-bbe2-47c1-a475-dc2e467103f8","ios":"levelo://app?vid=c47fc30c-bbe2-47c1-a475-dc2e467103f8"},"vehicle_type_id":"4","last_reported":1714414147,"current_range_meters":25600,"station_id":"ce4bgpp2rcd13ifvqc3g","pricing_plan_id":"cebpf4jnsgd1na2vs0mg"},{"bike_id":"aad9cfb8-144c-45de-9e6c-24c589bc869a","system_id":"levelo_inurba_marseille","lat":43.298433,"lon":5.362774,"is_reserved":false,"is_disabled":false,"rental_uris":{"android":"levelo://app?vid=aad9cfb8-144c-45de-9e6c-24c589bc869a","ios":"levelo://app?vid=aad9cfb8-144c-45de-9e6c-24c589bc869a"},"vehicle_type_id":"4","last_reported":1714414147,"current_range_meters":6400,"station_id":"ce4bgpp2rcd13ifvqc3g","pricing_plan_id":"cebpf4jnsgd1na2vs0mg"},{"bike_id":"62e3672a-5145-4461-b9f7-3cc81b1d10f3","system_id":"levelo_inurba_marseille","lat":43.31181,"lon":5.38705,"is_reserved":false,"is_disabled":false,"rental_uris":{"android":"levelo://app?vid=62e3672a-5145-4461-b9f7-3cc81b1d10f3","ios":"levelo://app?vid=62e3672a-5145-4461-b9f7-3cc81b1d10f3"},"vehicle_type_id":"4","last_reported":1714414147,"current_range_meters":0,"station_id":"ce4bgv12rcd13ifvqcp0","pricing_plan_id":"cebpf4jnsgd1na2vs0mg"},{"bike_id":"7a770c05-0fd6-4f2d-aee6-f9a028dada4a","system_id":"levelo_inurba_marseille","lat":43.311722,"lon":5.387247,"is_reserved":false,"is_disabled":false,"rental_uris":{"android":"levelo://app?vid=7a770c05-0fd6-4f2d-aee6-f9a028dada4a","ios":"levelo://app?vid=7a770c05-0fd6-4f2d-aee6-f9a028dada4a"},"vehicle_type_id":"4","last_reported":1714414147,"current_range_meters":28800,"station_id":"ce4bgv12rcd13ifvqcp0","pricing_plan_id":"cebpf4jnsgd1na2vs0mg"},{"bike_id":"0be3b687-fd8b-421d-b4d6-d44b4ba12a91","system_id":"levelo_inurba_marseille","lat":43.299243,"lon":5.374807,"is_reserved":false,"is_disabled":false,"rental_uris":{"android":"levelo://app?vid=0be3b687-fd8b-421d-b4d6-d44b4ba12a91","ios":"levelo://app?vid=0be3b687-fd8b-421d-b4d6-d44b4ba12a91"},"vehicle_type_id":"4","last_reported":1714414147,"current_range_meters":6000,"station_id":"ce4bgjh2rcd13ifvqbg0","pricing_plan_id":"cebpf4jnsgd1na2vs0mg"},{"bike_id":"422bfb8f-132b-42b8-b613-385eaf1bba8b","system_id":"levelo_inurba_marseille","lat":43.298433,"lon":5.362774,"is_reserved":false,"is_disabled":false,"rental_uris":{"android":"levelo://app?vid=422bfb8f-132b-42b8-b613-385eaf1bba8b","ios":"levelo://app?vid=422bfb8f-132b-42b8-b613-385eaf1bba8b"},"vehicle_type_id":"4","last_reported":1714414147,"current_range_meters":7600,"station_id":"ce4bgpp2rcd13ifvqc3g","pricing_plan_id":"cebpf4jnsgd1na2vs0mg"},{"bike_id":"44f8d6d0-42d3-4aad-abc2-25851f723e07","system_id":"levelo_inurba_marseille","lat":43.311722,"lon":5.387247,"is_reserved":false,"is_disabled":false,"rental_uris":{"android":"levelo://app?vid=44f8d6d0-42d3-4aad-abc2-25851f723e07","ios":"levelo://app?vid=44f8d6d0-42d3-4aad-abc2-25851f723e07"},"vehicle_type_id":"4","last_reported":1714414147,"current_range_meters":14800,"station_id":"ce4bgv12rcd13ifvqcp0","pricing_plan_id":"cebpf4jnsgd1na2vs0mg"},{"bike_id":"857a7113-e781-4819-9bd0-b27805f2bd58","system_id":"levelo_inurba_marseille","lat":43.311722,"lon":5.387247,"is_reserved":false,"is_disabled":false,"rental_uris":{"android":"levelo://app?vid=857a7113-e781-4819-9bd0-b27805f2bd58","ios":"levelo://app?vid=857a7113-e781-4819-9bd0-b27805f2bd58"},"vehicle_type_id":"4","last_reported":1714414147,"current_range_meters":31200,"station_id":"ce4bgv12rcd13ifvqcp0","pricing_plan_id":"cebpf4jnsgd1na2vs0mg"},{"bike_id":"2eeac0cc-eca0-4b71-894e-8b6bdc7cbd22","system_id":"levelo_inurba_marseille","lat":43.311722,"lon":5.387247,"is_reserved":false,"is_disabled":false,"rental_uris":{"android":"levelo://app?vid=2eeac0cc-eca0-4b71-894e-8b6bdc7cbd22","ios":"levelo://app?vid=2eeac0cc-eca0-4b71-894e-8b6bdc7cbd22"},"vehicle_type_id":"4","last_reported":1714414147,"current_range_meters":22800,"station_id":"ce4bgv12rcd13ifvqcp0","pricing_plan_id":"cebpf4jnsgd1na2vs0mg"},{"bike_id":"768c86cd-5c1b-4a0c-9583-decb126bf4cd","system_id":"levelo_inurba_marseille","lat":43.30085,"lon":5.390856,"is_reserved":false,"is_disabled":false,"rental_uris":{"android":"levelo://app?vid=768c86cd-5c1b-4a0c-9583-decb126bf4cd","ios":"levelo://app?vid=768c86cd-5c1b-4a0c-9583-decb126bf4cd"},"vehicle_type_id":"4","last_reported":1714414147,"current_range_meters":4400,"station_id":"ce4bh192rcd13ifvqdb0","pricing_plan_id":"cebpf4jnsgd1na2vs0mg"},{"bike_id":"1c8c8ef4-7ad7-40b5-ad96-0f5d102b6629","system_id":"levelo_inurba_marseille","lat":43.311722,"lon":5.387247,"is_reserved":false,"is_disabled":false,"rental_uris":{"android":"levelo://app?vid=1c8c8ef4-7ad7-40b5-ad96-0f5d102b6629","ios":"levelo://app?vid=1c8c8ef4-7ad7-40b5-ad96-0f5d102b6629"},"vehicle_type_id":"4","last_reported":1714414147,"current_range_meters":4000,"station_id":"ce4bgv12rcd13ifvqcp0","pricing_plan_id":"cebpf4jnsgd1na2vs0mg"},{"bike_id":"662656f5-faf1-42cc-8843-6746806cf88b","system_id":"levelo_inurba_marseille","lat":43.297794,"lon":5.370888,"is_reserved":false,"is_disabled":false,"rental_uris":{"android":"levelo://app?vid=662656f5-faf1-42cc-8843-6746806cf88b","ios":"levelo://app?vid=662656f5-faf1-42cc-8843-6746806cf88b"},"vehicle_type_id":"4","last_reported":1714414147,"current_range_meters":30800,"station_id":"ce4bgop2rcd13ifvqc1g","pricing_plan_id":"cebpf4jnsgd1na2vs0mg"},{"bike_id":"20a74c7a-b479-474c-a985-443ff7e353c9","system_id":"levelo_inurba_marseille","lat":43.322872,"lon":5.382756,"is_reserved":false,"is_disabled":false,"rental_uris":{"android":"levelo://app?vid=20a74c7a-b479-474c-a985-443ff7e353c9","ios":"levelo://app?vid=20a74c7a-b479-474c-a985-443ff7e353c9"},"vehicle_type_id":"4","last_reported":1714414147,"current_range_meters":0,"station_id":"ce4bhr12rcd13ifvqhqg","pricing_plan_id":"cebpf4jnsgd1na2vs0mg"},{"bike_id":"7d0dc6e4-237d-4e2c-9f6d-5a67d8478718","system_id":"levelo_inurba_marseille","lat":43.322872,"lon":5.382756,"is_reserved":false,"is_disabled":false,"rental_uris":{"android":"levelo://app?vid=7d0dc6e4-237d-4e2c-9f6d-5a67d8478718","ios":"levelo://app?vid=7d0dc6e4-237d-4e2c-9f6d-5a67d8478718"},"vehicle_type_id":"4","last_reported":1714414147,"current_range_meters":23200,"station_id":"ce4bhr12rcd13ifvqhqg","pricing_plan_id":"cebpf4jnsgd1na2vs0mg"},{"bike_id":"e7620d48-0589-458f-9112-8f2d8a96c05b","system_id":"levelo_inurba_marseille","lat":43.322872,"lon":5.382756,"is_reserved":false,"is_disabled":false,"rental_uris":{"android":"levelo://app?vid=e7620d48-0589-458f-9112-8f2d8a96c05b","ios":"levelo://app?vid=e7620d48-0589-458f-9112-8f2d8a96c05b"},"vehicle_type_id":"4","last_reported":1714414147,"current_range_meters":7200,"station_id":"ce4bhr12rcd13ifvqhqg","pricing_plan_id":"cebpf4jnsgd1na2vs0mg"},{"bike_id":"90f46afa-97a4-48f2-84a2-899bcf460e9a","system_id":"levelo_inurba_marseille","lat":43.322872,"lon":5.382756,"is_reserved":false,"is_disabled":false,"rental_uris":{"android":"levelo://app?vid=90f46afa-97a4-48f2-84a2-899bcf460e9a","ios":"levelo://app?vid=90f46afa-97a4-48f2-84a2-899bcf460e9a"},"vehicle_type_id":"4","last_reported":1714414147,"current_range_meters":25200,"station_id":"ce4bhr12rcd13ifvqhqg","pricing_plan_id":"cebpf4jnsgd1na2vs0mg"},{"bike_id":"b46b8a58-bd5d-4598-90cd-10c626b528ca","system_id":"levelo_inurba_marseille","lat":43.322872,"lon":5.382756,"is_reserved":false,"is_disabled":false,"rental_uris":{"android":"levelo://app?vid=b46b8a58-bd5d-4598-90cd-10c626b528ca","ios":"levelo://app?vid=b46b8a58-bd5d-4598-90cd-10c626b528ca"},"vehicle_type_id":"4","last_reported":1714414147,"current_range_meters":31200,"station_id":"ce4bhr12rcd13ifvqhqg","pricing_plan_id":"cebpf4jnsgd1na2vs0mg"},{"bike_id":"f02e7649-dc40-48fa-8c4d-12d98c304645","system_id":"levelo_inurba_marseille","lat":43.322936,"lon":5.382688,"is_reserved":false,"is_disabled":false,"rental_uris":{"android":"levelo://app?vid=f02e7649-dc40-48fa-8c4d-12d98c304645","ios":"levelo://app?vid=f02e7649-dc40-48fa-8c4d-12d98c304645"},"vehicle_type_id":"4","last_reported":1714414147,"current_range_meters":28000,"station_id":"ce4bhr12rcd13ifvqhqg","pricing_plan_id":"cebpf4jnsgd1na2vs0mg"},{"bike_id":"1eb014b0-d233-4917-a9dc-6a24e8b31219","system_id":"levelo_inurba_marseille","lat":43.322872,"lon":5.382756,"is_reserved":false,"is_disabled":false,"rental_uris":{"android":"levelo://app?vid=1eb014b0-d233-4917-a9dc-6a24e8b31219","ios":"levelo://app?vid=1eb014b0-d233-4917-a9dc-6a24e8b31219"},"vehicle_type_id":"4","last_reported":1714414147,"current_range_meters":24400,"station_id":"ce4bhr12rcd13ifvqhqg","pricing_plan_id":"cebpf4jnsgd1na2vs0mg"},{"bike_id":"bfef1e7c-a6d7-43f2-bed0-f8d32e64eef7","system_id":"levelo_inurba_marseille","lat":43.267959,"lon":5.402685,"is_reserved":false,"is_disabled":false,"rental_uris":{"android":"levelo://app?vid=bfef1e7c-a6d7-43f2-bed0-f8d32e64eef7","ios":"levelo://app?vid=bfef1e7c-a6d7-43f2-bed0-f8d32e64eef7"},"vehicle_type_id":"4","last_reported":1714414147,"current_range_meters":4800,"station_id":"ce501612rcd8frsf0b60","pricing_plan_id":"cebpf4jnsgd1na2vs0mg"},{"bike_id":"2a1a44d8-ce53-43ea-88f4-395d552bc36f","system_id":"levelo_inurba_marseille","lat":43.297163,"lon":5.365866,"is_reserved":false,"is_disabled":false,"rental_uris":{"android":"levelo://app?vid=2a1a44d8-ce53-43ea-88f4-395d552bc36f","ios":"levelo://app?vid=2a1a44d8-ce53-43ea-88f4-395d552bc36f"},"vehicle_type_id":"4","last_reported":1714414147,"current_range_meters":22400,"station_id":"ce4bgn12rcd13ifvqbt0","pricing_plan_id":"cebpf4jnsgd1na2vs0mg"},{"bike_id":"128f49aa-1a44-40a0-9882-909242a5940a","system_id":"levelo_inurba_marseille","lat":43.2968,"lon":5.37291,"is_reserved":false,"is_disabled":false,"rental_uris":{"android":"levelo://app?vid=128f49aa-1a44-40a0-9882-909242a5940a","ios":"levelo://app?vid=128f49aa-1a44-40a0-9882-909242a5940a"},"vehicle_type_id":"4","last_reported":1714414147,"current_range_meters":400,"station_id":"ce4bgk12rcd13ifvqbj0","pricing_plan_id":"cebpf4jnsgd1na2vs0mg"},{"bike_id":"07650c36-d18b-46b6-8a68-31fd6dbba5a2","system_id":"levelo_inurba_marseille","lat":43.2968,"lon":5.37291,"is_reserved":false,"is_disabled":false,"rental_uris":{"android":"levelo://app?vid=07650c36-d18b-46b6-8a68-31fd6dbba5a2","ios":"levelo://app?vid=07650c36-d18b-46b6-8a68-31fd6dbba5a2"},"vehicle_type_id":"4","last_reported":1714414147,"current_range_meters":17600,"station_id":"ce4bgk12rcd13ifvqbj0","pricing_plan_id":"cebpf4jnsgd1na2vs0mg"},{"bike_id":"4f048319-f04f-4e14-b2a3-4668f422d322","system_id":"levelo_inurba_marseille","lat":43.29628,"lon":5.37142,"is_reserved":false,"is_disabled":false,"rental_uris":{"android":"levelo://app?vid=4f048319-f04f-4e14-b2a3-4668f422d322","ios":"levelo://app?vid=4f048319-f04f-4e14-b2a3-4668f422d322"},"vehicle_type_id":"4","last_reported":1714414147,"current_range_meters":31200,"station_id":"ce4bgnh2rcd13ifvqc0g","pricing_plan_id":"cebpf4jnsgd1na2vs0mg"},{"bike_id":"88bb8579-226c-4044-91b6-959a1e7472e3","system_id":"levelo_inurba_marseille","lat":43.29573,"lon":5.367355,"is_reserved":false,"is_disabled":false,"rental_uris":{"android":"levelo://app?vid=88bb8579-226c-4044-91b6-959a1e7472e3","ios":"levelo://app?vid=88bb8579-226c-4044-91b6-959a1e7472e3"},"vehicle_type_id":"4","last_reported":1714414147,"current_range_meters":21200,"station_id":"ce4bgph2rcd13ifvqc2g","pricing_plan_id":"cebpf4jnsgd1na2vs0mg"},{"bike_id":"4cb5319d-aae5-4b2f-801f-eb3f32d9cf7f","system_id":"levelo_inurba_marseille","lat":43.29573,"lon":5.367355,"is_reserved":false,"is_disabled":false,"rental_uris":{"android":"levelo://app?vid=4cb5319d-aae5-4b2f-801f-eb3f32d9cf7f","ios":"levelo://app?vid=4cb5319d-aae5-4b2f-801f-eb3f32d9cf7f"},"vehicle_type_id":"4","last_reported":1714414147,"current_range_meters":27600,"station_id":"ce4bgph2rcd13ifvqc2g","pricing_plan_id":"cebpf4jnsgd1na2vs0mg"},{"bike_id":"0fe0cae5-e15e-482e-b65e-14ed0a88e787","system_id":"levelo_inurba_marseille","lat":43.29573,"lon":5.367355,"is_reserved":false,"is_disabled":false,"rental_uris":{"android":"levelo://app?vid=0fe0cae5-e15e-482e-b65e-14ed0a88e787","ios":"levelo://app?vid=0fe0cae5-e15e-482e-b65e-14ed0a88e787"},"vehicle_type_id":"4","last_reported":1714414147,"current_range_meters":20800,"station_id":"ce4bgph2rcd13ifvqc2g","pricing_plan_id":"cebpf4jnsgd1na2vs0mg"},{"bike_id":"ce01fce0-13b1-406d-8b19-37f864540770","system_id":"levelo_inurba_marseille","lat":43.29573,"lon":5.367355,"is_reserved":false,"is_disabled":false,"rental_uris":{"android":"levelo://app?vid=ce01fce0-13b1-406d-8b19-37f864540770","ios":"levelo://app?vid=ce01fce0-13b1-406d-8b19-37f864540770"},"vehicle_type_id":"4","last_reported":1714414147,"current_range_meters":0,"station_id":"ce4bgph2rcd13ifvqc2g","pricing_plan_id":"cebpf4jnsgd1na2vs0mg"},{"bike_id":"a2b4ddee-e4d9-4360-8973-73b9fca89ccd","system_id":"levelo_inurba_marseille","lat":43.29912,"lon":5.3814,"is_reserved":false,"is_disabled":false,"rental_uris":{"android":"levelo://app?vid=a2b4ddee-e4d9-4360-8973-73b9fca89ccd","ios":"levelo://app?vid=a2b4ddee-e4d9-4360-8973-73b9fca89ccd"},"vehicle_type_id":"4","last_reported":1714414147,"current_range_meters":0,"station_id":"ce4bgj12rcd13ifvqbc0","pricing_plan_id":"cebpf4jnsgd1na2vs0mg"},{"bike_id":"a348bb8e-bec6-404c-a83d-c12049f9ebae","system_id":"levelo_inurba_marseille","lat":43.297172,"lon":5.377039,"is_reserved":false,"is_disabled":false,"rental_uris":{"android":"levelo://app?vid=a348bb8e-bec6-404c-a83d-c12049f9ebae","ios":"levelo://app?vid=a348bb8e-bec6-404c-a83d-c12049f9ebae"},"vehicle_type_id":"4","last_reported":1714414147,"current_range_meters":0,"station_id":"ce4bgkh2rcd13ifvqbl0","pricing_plan_id":"cebpf4jnsgd1na2vs0mg"},{"bike_id":"cbdaf256-240f-4d7e-b859-80b3c52d188d","system_id":"levelo_inurba_marseille","lat":43.299028,"lon":5.381509,"is_reserved":false,"is_disabled":false,"rental_uris":{"android":"levelo://app?vid=cbdaf256-240f-4d7e-b859-80b3c52d188d","ios":"levelo://app?vid=cbdaf256-240f-4d7e-b859-80b3c52d188d"},"vehicle_type_id":"4","last_reported":1714414147,"current_range_meters":1600,"station_id":"ce4bgj12rcd13ifvqbc0","pricing_plan_id":"cebpf4jnsgd1na2vs0mg"},{"bike_id":"9735296e-8005-43c5-98c3-10735828ce4c","system_id":"levelo_inurba_marseille","lat":43.299028,"lon":5.381509,"is_reserved":false,"is_disabled":false,"rental_uris":{"android":"levelo://app?vid=9735296e-8005-43c5-98c3-10735828ce4c","ios":"levelo://app?vid=9735296e-8005-43c5-98c3-10735828ce4c"},"vehicle_type_id":"4","last_reported":1714414147,"current_range_meters":18000,"station_id":"ce4bgj12rcd13ifvqbc0","pricing_plan_id":"cebpf4jnsgd1na2vs0mg"},{"bike_id":"2c945302-c1d5-4f69-8fa8-a8870f123b5a","system_id":"levelo_inurba_marseille","lat":43.317557,"lon":5.390173,"is_reserved":false,"is_disabled":false,"rental_uris":{"android":"levelo://app?vid=2c945302-c1d5-4f69-8fa8-a8870f123b5a","ios":"levelo://app?vid=2c945302-c1d5-4f69-8fa8-a8870f123b5a"},"vehicle_type_id":"4","last_reported":1714414147,"current_range_meters":5600,"station_id":"ce4bhqp2rcd13ifvqhng","pricing_plan_id":"cebpf4jnsgd1na2vs0mg"},{"bike_id":"cf472e77-4f9e-4957-85a6-8ce13666956f","system_id":"levelo_inurba_marseille","lat":43.30952,"lon":5.39049,"is_reserved":false,"is_disabled":false,"rental_uris":{"android":"levelo://app?vid=cf472e77-4f9e-4957-85a6-8ce13666956f","ios":"levelo://app?vid=cf472e77-4f9e-4957-85a6-8ce13666956f"},"vehicle_type_id":"4","last_reported":1714414147,"current_range_meters":0,"station_id":"ce4bgup2rcd13ifvqco0","pricing_plan_id":"cebpf4jnsgd1na2vs0mg"},{"bike_id":"d63bbd91-6e5f-4d34-93e8-eb3619db06a8","system_id":"levelo_inurba_marseille","lat":43.317557,"lon":5.390173,"is_reserved":false,"is_disabled":false,"rental_uris":{"android":"levelo://app?vid=d63bbd91-6e5f-4d34-93e8-eb3619db06a8","ios":"levelo://app?vid=d63bbd91-6e5f-4d34-93e8-eb3619db06a8"},"vehicle_type_id":"4","last_reported":1714414147,"current_range_meters":19600,"station_id":"ce4bhqp2rcd13ifvqhng","pricing_plan_id":"cebpf4jnsgd1na2vs0mg"},{"bike_id":"34fa1cb8-d6c4-4996-b288-134de4a53dd8","system_id":"levelo_inurba_marseille","lat":43.317557,"lon":5.390173,"is_reserved":false,"is_disabled":false,"rental_uris":{"android":"levelo://app?vid=34fa1cb8-d6c4-4996-b288-134de4a53dd8","ios":"levelo://app?vid=34fa1cb8-d6c4-4996-b288-134de4a53dd8"},"vehicle_type_id":"4","last_reported":1714414147,"current_range_meters":7200,"station_id":"ce4bhqp2rcd13ifvqhng","pricing_plan_id":"cebpf4jnsgd1na2vs0mg"},{"bike_id":"0381cdcb-ebbd-48d0-a9b0-cf07d8bd5cee","system_id":"levelo_inurba_marseille","lat":43.317557,"lon":5.390173,"is_reserved":false,"is_disabled":false,"rental_uris":{"android":"levelo://app?vid=0381cdcb-ebbd-48d0-a9b0-cf07d8bd5cee","ios":"levelo://app?vid=0381cdcb-ebbd-48d0-a9b0-cf07d8bd5cee"},"vehicle_type_id":"4","last_reported":1714414147,"current_range_meters":18000,"station_id":"ce4bhqp2rcd13ifvqhng","pricing_plan_id":"cebpf4jnsgd1na2vs0mg"},{"bike_id":"3312060f-961b-4e89-ba23-464e92092e30","system_id":"levelo_inurba_marseille","lat":43.317557,"lon":5.390173,"is_reserved":false,"is_disabled":false,"rental_uris":{"android":"levelo://app?vid=3312060f-961b-4e89-ba23-464e92092e30","ios":"levelo://app?vid=3312060f-961b-4e89-ba23-464e92092e30"},"vehicle_type_id":"4","last_reported":1714414147,"current_range_meters":3600,"station_id":"ce4bhqp2rcd13ifvqhng","pricing_plan_id":"cebpf4jnsgd1na2vs0mg"},{"bike_id":"c53d716a-cdec-41a4-a6f3-72219a5ee3a5","system_id":"levelo_inurba_marseille","lat":43.317557,"lon":5.390173,"is_reserved":false,"is_disabled":false,"rental_uris":{"android":"levelo://app?vid=c53d716a-cdec-41a4-a6f3-72219a5ee3a5","ios":"levelo://app?vid=c53d716a-cdec-41a4-a6f3-72219a5ee3a5"},"vehicle_type_id":"4","last_reported":1714414147,"current_range_meters":12800,"station_id":"ce4bhqp2rcd13ifvqhng","pricing_plan_id":"cebpf4jnsgd1na2vs0mg"},{"bike_id":"8862cb81-7bdf-40db-af2b-9e8876463bc5","system_id":"levelo_inurba_marseille","lat":43.317557,"lon":5.390173,"is_reserved":false,"is_disabled":false,"rental_uris":{"android":"levelo://app?vid=8862cb81-7bdf-40db-af2b-9e8876463bc5","ios":"levelo://app?vid=8862cb81-7bdf-40db-af2b-9e8876463bc5"},"vehicle_type_id":"4","last_reported":1714414147,"current_range_meters":10400,"station_id":"ce4bhqp2rcd13ifvqhng","pricing_plan_id":"cebpf4jnsgd1na2vs0mg"},{"bike_id":"bba5d03f-d1e9-45a0-ae72-0780f0cc48fe","system_id":"levelo_inurba_marseille","lat":43.298037,"lon":5.381066,"is_reserved":false,"is_disabled":false,"rental_uris":{"android":"levelo://app?vid=bba5d03f-d1e9-45a0-ae72-0780f0cc48fe","ios":"levelo://app?vid=bba5d03f-d1e9-45a0-ae72-0780f0cc48fe"},"vehicle_type_id":"4","last_reported":1714414147,"current_range_meters":25600,"station_id":"ce4bgip2rcd13ifvqbb0","pricing_plan_id":"cebpf4jnsgd1na2vs0mg"},{"bike_id":"629a0359-38b2-4959-93e8-44ca5f587c91","system_id":"levelo_inurba_marseille","lat":43.299717,"lon":5.384845,"is_reserved":false,"is_disabled":false,"rental_uris":{"android":"levelo://app?vid=629a0359-38b2-4959-93e8-44ca5f587c91","ios":"levelo://app?vid=629a0359-38b2-4959-93e8-44ca5f587c91"},"vehicle_type_id":"4","last_reported":1714414147,"current_range_meters":4000,"station_id":"ce4bgj92rcd13ifvqbd0","pricing_plan_id":"cebpf4jnsgd1na2vs0mg"},{"bike_id":"b9ce516a-bb11-4207-839c-b8732eadbad6","system_id":"levelo_inurba_marseille","lat":43.295857,"lon":5.3751,"is_reserved":false,"is_disabled":false,"rental_uris":{"android":"levelo://app?vid=b9ce516a-bb11-4207-839c-b8732eadbad6","ios":"levelo://app?vid=b9ce516a-bb11-4207-839c-b8732eadbad6"},"vehicle_type_id":"4","last_reported":1714414147,"current_range_meters":0,"station_id":"ce4bgh92rcd13ifvqb50","pricing_plan_id":"cebpf4jnsgd1na2vs0mg"},{"bike_id":"e3f1af09-4cd8-431e-b889-0170f04aafee","system_id":"levelo_inurba_marseille","lat":43.298037,"lon":5.381066,"is_reserved":false,"is_disabled":false,"rental_uris":{"android":"levelo://app?vid=e3f1af09-4cd8-431e-b889-0170f04aafee","ios":"levelo://app?vid=e3f1af09-4cd8-431e-b889-0170f04aafee"},"vehicle_type_id":"4","last_reported":1714414147,"current_range_meters":30000,"station_id":"ce4bgip2rcd13ifvqbb0","pricing_plan_id":"cebpf4jnsgd1na2vs0mg"},{"bike_id":"5ace24b0-be6c-4fe1-9467-8b3712bd2af9","system_id":"levelo_inurba_marseille","lat":43.29576,"lon":5.37503,"is_reserved":false,"is_disabled":false,"rental_uris":{"android":"levelo://app?vid=5ace24b0-be6c-4fe1-9467-8b3712bd2af9","ios":"levelo://app?vid=5ace24b0-be6c-4fe1-9467-8b3712bd2af9"},"vehicle_type_id":"4","last_reported":1714414147,"current_range_meters":0,"station_id":"ce4bgh92rcd13ifvqb50","pricing_plan_id":"cebpf4jnsgd1na2vs0mg"},{"bike_id":"cf91edd0-acc0-46fb-ad7b-967a260b1436","system_id":"levelo_inurba_marseille","lat":43.296319,"lon":5.377134,"is_reserved":false,"is_disabled":false,"rental_uris":{"android":"levelo://app?vid=cf91edd0-acc0-46fb-ad7b-967a260b1436","ios":"levelo://app?vid=cf91edd0-acc0-46fb-ad7b-967a260b1436"},"vehicle_type_id":"4","last_reported":1714414147,"current_range_meters":0,"station_id":"ce4bgi92rcd13ifvqb90","pricing_plan_id":"cebpf4jnsgd1na2vs0mg"},{"bike_id":"bda28971-bb4e-4fc6-8d77-1ceb139777e7","system_id":"levelo_inurba_marseille","lat":43.298037,"lon":5.381066,"is_reserved":false,"is_disabled":false,"rental_uris":{"android":"levelo://app?vid=bda28971-bb4e-4fc6-8d77-1ceb139777e7","ios":"levelo://app?vid=bda28971-bb4e-4fc6-8d77-1ceb139777e7"},"vehicle_type_id":"4","last_reported":1714414147,"current_range_meters":12000,"station_id":"ce4bgip2rcd13ifvqbb0","pricing_plan_id":"cebpf4jnsgd1na2vs0mg"},{"bike_id":"b51b6d68-f372-43a0-b9d9-d9790b1ea964","system_id":"levelo_inurba_marseille","lat":43.284219,"lon":5.3497,"is_reserved":false,"is_disabled":false,"rental_uris":{"android":"levelo://app?vid=b51b6d68-f372-43a0-b9d9-d9790b1ea964","ios":"levelo://app?vid=b51b6d68-f372-43a0-b9d9-d9790b1ea964"},"vehicle_type_id":"4","last_reported":1714414147,"current_range_meters":18400,"station_id":"ce4bhbh2rcd13ifvqepg","pricing_plan_id":"cebpf4jnsgd1na2vs0mg"},{"bike_id":"9990b79b-ec55-43b1-85c3-53ea45ca9197","system_id":"levelo_inurba_marseille","lat":43.297816,"lon":5.380989,"is_reserved":false,"is_disabled":false,"rental_uris":{"android":"levelo://app?vid=9990b79b-ec55-43b1-85c3-53ea45ca9197","ios":"levelo://app?vid=9990b79b-ec55-43b1-85c3-53ea45ca9197"},"vehicle_type_id":"4","last_reported":1714414147,"current_range_meters":0,"station_id":"ce4bgip2rcd13ifvqbb0","pricing_plan_id":"cebpf4jnsgd1na2vs0mg"},{"bike_id":"914f2e78-0b1d-4859-a630-e5d6054ed819","system_id":"levelo_inurba_marseille","lat":43.291994,"lon":5.392907,"is_reserved":false,"is_disabled":false,"rental_uris":{"android":"levelo://app?vid=914f2e78-0b1d-4859-a630-e5d6054ed819","ios":"levelo://app?vid=914f2e78-0b1d-4859-a630-e5d6054ed819"},"vehicle_type_id":"4","last_reported":1714414147,"current_range_meters":19600,"station_id":"ce4bh192rcd13ifvqdd0","pricing_plan_id":"cebpf4jnsgd1na2vs0mg"},{"bike_id":"c856c0f9-78b1-44fb-b4f3-f3e8787264dc","system_id":"levelo_inurba_marseille","lat":43.290104,"lon":5.356111,"is_reserved":false,"is_disabled":false,"rental_uris":{"android":"levelo://app?vid=c856c0f9-78b1-44fb-b4f3-f3e8787264dc","ios":"levelo://app?vid=c856c0f9-78b1-44fb-b4f3-f3e8787264dc"},"vehicle_type_id":"4","last_reported":1714414147,"current_range_meters":2400,"station_id":"ce4bhb92rcd13ifvqen0","pricing_plan_id":"cebpf4jnsgd1na2vs0mg"},{"bike_id":"72c57e35-3ecc-4cd4-9d7a-e3112b127d25","system_id":"levelo_inurba_marseille","lat":43.296277,"lon":5.377108,"is_reserved":false,"is_disabled":false,"rental_uris":{"android":"levelo://app?vid=72c57e35-3ecc-4cd4-9d7a-e3112b127d25","ios":"levelo://app?vid=72c57e35-3ecc-4cd4-9d7a-e3112b127d25"},"vehicle_type_id":"4","last_reported":1714414147,"current_range_meters":25600,"station_id":"ce4bgi92rcd13ifvqb90","pricing_plan_id":"cebpf4jnsgd1na2vs0mg"},{"bike_id":"87c5ab83-3828-4e8c-98d3-5c0156cacd38","system_id":"levelo_inurba_marseille","lat":43.295297,"lon":5.375083,"is_reserved":false,"is_disabled":false,"rental_uris":{"android":"levelo://app?vid=87c5ab83-3828-4e8c-98d3-5c0156cacd38","ios":"levelo://app?vid=87c5ab83-3828-4e8c-98d3-5c0156cacd38"},"vehicle_type_id":"4","last_reported":1714414147,"current_range_meters":9600,"station_id":"ce4bgkp2rcd13ifvqbmg","pricing_plan_id":"cebpf4jnsgd1na2vs0mg"},{"bike_id":"4755b358-cadc-4aba-b1f1-3116b16d9011","system_id":"levelo_inurba_marseille","lat":43.299707,"lon":5.384859,"is_reserved":false,"is_disabled":false,"rental_uris":{"android":"levelo://app?vid=4755b358-cadc-4aba-b1f1-3116b16d9011","ios":"levelo://app?vid=4755b358-cadc-4aba-b1f1-3116b16d9011"},"vehicle_type_id":"4","last_reported":1714414147,"current_range_meters":2400,"station_id":"ce4bgj92rcd13ifvqbd0","pricing_plan_id":"cebpf4jnsgd1na2vs0mg"},{"bike_id":"093f63bb-ea7e-4862-91e2-c8bc016870e3","system_id":"levelo_inurba_marseille","lat":43.29524,"lon":5.3751,"is_reserved":false,"is_disabled":false,"rental_uris":{"android":"levelo://app?vid=093f63bb-ea7e-4862-91e2-c8bc016870e3","ios":"levelo://app?vid=093f63bb-ea7e-4862-91e2-c8bc016870e3"},"vehicle_type_id":"4","last_reported":1714414147,"current_range_meters":3200,"station_id":"ce4bgkp2rcd13ifvqbmg","pricing_plan_id":"cebpf4jnsgd1na2vs0mg"},{"bike_id":"10f4f60f-cbea-4606-bcac-7d53d67c5a6a","system_id":"levelo_inurba_marseille","lat":43.29523,"lon":5.37516,"is_reserved":false,"is_disabled":false,"rental_uris":{"android":"levelo://app?vid=10f4f60f-cbea-4606-bcac-7d53d67c5a6a","ios":"levelo://app?vid=10f4f60f-cbea-4606-bcac-7d53d67c5a6a"},"vehicle_type_id":"4","last_reported":1714414147,"current_range_meters":3200,"station_id":"ce4bgkp2rcd13ifvqbmg","pricing_plan_id":"cebpf4jnsgd1na2vs0mg"},{"bike_id":"0e64a4a8-0673-4da0-8084-668da48e1bdb","system_id":"levelo_inurba_marseille","lat":43.29519,"lon":5.375058,"is_reserved":false,"is_disabled":false,"rental_uris":{"android":"levelo://app?vid=0e64a4a8-0673-4da0-8084-668da48e1bdb","ios":"levelo://app?vid=0e64a4a8-0673-4da0-8084-668da48e1bdb"},"vehicle_type_id":"4","last_reported":1714414147,"current_range_meters":2400,"station_id":"ce4bgkp2rcd13ifvqbmg","pricing_plan_id":"cebpf4jnsgd1na2vs0mg"},{"bike_id":"4e261f87-feba-4b1c-8c75-c54b0a8786e8","system_id":"levelo_inurba_marseille","lat":43.299724,"lon":5.384848,"is_reserved":false,"is_disabled":false,"rental_uris":{"android":"levelo://app?vid=4e261f87-feba-4b1c-8c75-c54b0a8786e8","ios":"levelo://app?vid=4e261f87-feba-4b1c-8c75-c54b0a8786e8"},"vehicle_type_id":"4","last_reported":1714414147,"current_range_meters":0,"station_id":"ce4bgj92rcd13ifvqbd0","pricing_plan_id":"cebpf4jnsgd1na2vs0mg"},{"bike_id":"4630ea19-b48c-40db-ba9f-f9bf7537b742","system_id":"levelo_inurba_marseille","lat":43.29517,"lon":5.37502,"is_reserved":false,"is_disabled":false,"rental_uris":{"android":"levelo://app?vid=4630ea19-b48c-40db-ba9f-f9bf7537b742","ios":"levelo://app?vid=4630ea19-b48c-40db-ba9f-f9bf7537b742"},"vehicle_type_id":"4","last_reported":1714414147,"current_range_meters":0,"station_id":"ce4bgkp2rcd13ifvqbmg","pricing_plan_id":"cebpf4jnsgd1na2vs0mg"},{"bike_id":"81964bf9-5b1a-47ca-867b-780479cab885","system_id":"levelo_inurba_marseille","lat":43.295173,"lon":5.375049,"is_reserved":false,"is_disabled":false,"rental_uris":{"android":"levelo://app?vid=81964bf9-5b1a-47ca-867b-780479cab885","ios":"levelo://app?vid=81964bf9-5b1a-47ca-867b-780479cab885"},"vehicle_type_id":"4","last_reported":1714414147,"current_range_meters":25200,"station_id":"ce4bgkp2rcd13ifvqbmg","pricing_plan_id":"cebpf4jnsgd1na2vs0mg"},{"bike_id":"8527bea5-c4f9-4ced-9f93-8ad55629e57f","system_id":"levelo_inurba_marseille","lat":43.299724,"lon":5.384848,"is_reserved":false,"is_disabled":false,"rental_uris":{"android":"levelo://app?vid=8527bea5-c4f9-4ced-9f93-8ad55629e57f","ios":"levelo://app?vid=8527bea5-c4f9-4ced-9f93-8ad55629e57f"},"vehicle_type_id":"4","last_reported":1714414147,"current_range_meters":0,"station_id":"ce4bgj92rcd13ifvqbd0","pricing_plan_id":"cebpf4jnsgd1na2vs0mg"},{"bike_id":"73b37800-277b-4d68-afd4-4b2ddd3b798e","system_id":"levelo_inurba_marseille","lat":43.296153,"lon":5.379656,"is_reserved":false,"is_disabled":false,"rental_uris":{"android":"levelo://app?vid=73b37800-277b-4d68-afd4-4b2ddd3b798e","ios":"levelo://app?vid=73b37800-277b-4d68-afd4-4b2ddd3b798e"},"vehicle_type_id":"4","last_reported":1714414147,"current_range_meters":7200,"station_id":"","pricing_plan_id":"cebpf4jnsgd1na2vs0mg"},{"bike_id":"063e3121-e52b-4a7e-86f1-0f26b9f69773","system_id":"levelo_inurba_marseille","lat":43.32364,"lon":5.38884,"is_reserved":false,"is_disabled":false,"rental_uris":{"android":"levelo://app?vid=063e3121-e52b-4a7e-86f1-0f26b9f69773","ios":"levelo://app?vid=063e3121-e52b-4a7e-86f1-0f26b9f69773"},"vehicle_type_id":"4","last_reported":1714414147,"current_range_meters":0,"station_id":"ce4bhqp2rcd13ifvqhog","pricing_plan_id":"cebpf4jnsgd1na2vs0mg"},{"bike_id":"cdb9b4c0-b1f7-4c28-8c72-c3fba037cf28","system_id":"levelo_inurba_marseille","lat":43.32368,"lon":5.38882,"is_reserved":false,"is_disabled":false,"rental_uris":{"android":"levelo://app?vid=cdb9b4c0-b1f7-4c28-8c72-c3fba037cf28","ios":"levelo://app?vid=cdb9b4c0-b1f7-4c28-8c72-c3fba037cf28"},"vehicle_type_id":"4","last_reported":1714414147,"current_range_meters":2400,"station_id":"ce4bhqp2rcd13ifvqhog","pricing_plan_id":"cebpf4jnsgd1na2vs0mg"},{"bike_id":"2376a28c-eef7-4f12-8989-8275ca75093c","system_id":"levelo_inurba_marseille","lat":43.32367,"lon":5.38885,"is_reserved":false,"is_disabled":false,"rental_uris":{"android":"levelo://app?vid=2376a28c-eef7-4f12-8989-8275ca75093c","ios":"levelo://app?vid=2376a28c-eef7-4f12-8989-8275ca75093c"},"vehicle_type_id":"4","last_reported":1714414147,"current_range_meters":13200,"station_id":"ce4bhqp2rcd13ifvqhog","pricing_plan_id":"cebpf4jnsgd1na2vs0mg"},{"bike_id":"087d8383-b66d-48b4-b066-be0321234331","system_id":"levelo_inurba_marseille","lat":43.32367,"lon":5.388836,"is_reserved":false,"is_disabled":false,"rental_uris":{"android":"levelo://app?vid=087d8383-b66d-48b4-b066-be0321234331","ios":"levelo://app?vid=087d8383-b66d-48b4-b066-be0321234331"},"vehicle_type_id":"4","last_reported":1714414147,"current_range_meters":0,"station_id":"ce4bhqp2rcd13ifvqhog","pricing_plan_id":"cebpf4jnsgd1na2vs0mg"},{"bike_id":"008c92fb-018f-4991-a27e-ae1099328140","system_id":"levelo_inurba_marseille","lat":43.296581,"lon":5.381524,"is_reserved":false,"is_disabled":false,"rental_uris":{"android":"levelo://app?vid=008c92fb-018f-4991-a27e-ae1099328140","ios":"levelo://app?vid=008c92fb-018f-4991-a27e-ae1099328140"},"vehicle_type_id":"4","last_reported":1714414147,"current_range_meters":7200,"station_id":"ce4bgip2rcd13ifvqbb0","pricing_plan_id":"cebpf4jnsgd1na2vs0mg"},{"bike_id":"32d9b063-7292-4386-9a8e-7d0d8cd0efeb","system_id":"levelo_inurba_marseille","lat":43.32367,"lon":5.38886,"is_reserved":false,"is_disabled":false,"rental_uris":{"android":"levelo://app?vid=32d9b063-7292-4386-9a8e-7d0d8cd0efeb","ios":"levelo://app?vid=32d9b063-7292-4386-9a8e-7d0d8cd0efeb"},"vehicle_type_id":"4","last_reported":1714414147,"current_range_meters":0,"station_id":"ce4bhqp2rcd13ifvqhog","pricing_plan_id":"cebpf4jnsgd1na2vs0mg"},{"bike_id":"64f12ff7-9334-47a3-af3a-48efca30762e","system_id":"levelo_inurba_marseille","lat":43.32367,"lon":5.388836,"is_reserved":false,"is_disabled":false,"rental_uris":{"android":"levelo://app?vid=64f12ff7-9334-47a3-af3a-48efca30762e","ios":"levelo://app?vid=64f12ff7-9334-47a3-af3a-48efca30762e"},"vehicle_type_id":"4","last_reported":1714414147,"current_range_meters":27600,"station_id":"ce4bhqp2rcd13ifvqhog","pricing_plan_id":"cebpf4jnsgd1na2vs0mg"},{"bike_id":"d2e3530a-4454-4809-9fb4-7fa2a4fd47b8","system_id":"levelo_inurba_marseille","lat":43.29602,"lon":5.381084,"is_reserved":false,"is_disabled":false,"rental_uris":{"android":"levelo://app?vid=d2e3530a-4454-4809-9fb4-7fa2a4fd47b8","ios":"levelo://app?vid=d2e3530a-4454-4809-9fb4-7fa2a4fd47b8"},"vehicle_type_id":"4","last_reported":1714414147,"current_range_meters":0,"station_id":"ce4bgl12rcd13ifvqbo0","pricing_plan_id":"cebpf4jnsgd1na2vs0mg"},{"bike_id":"6b254039-abe7-4235-9363-2e5922ac72e9","system_id":"levelo_inurba_marseille","lat":43.29602,"lon":5.381084,"is_reserved":false,"is_disabled":false,"rental_uris":{"android":"levelo://app?vid=6b254039-abe7-4235-9363-2e5922ac72e9","ios":"levelo://app?vid=6b254039-abe7-4235-9363-2e5922ac72e9"},"vehicle_type_id":"4","last_reported":1714414147,"current_range_meters":8400,"station_id":"ce4bgl12rcd13ifvqbo0","pricing_plan_id":"cebpf4jnsgd1na2vs0mg"},{"bike_id":"4a4096c5-6507-42da-89d7-137282d906dd","system_id":"levelo_inurba_marseille","lat":43.296,"lon":5.381038,"is_reserved":false,"is_disabled":false,"rental_uris":{"android":"levelo://app?vid=4a4096c5-6507-42da-89d7-137282d906dd","ios":"levelo://app?vid=4a4096c5-6507-42da-89d7-137282d906dd"},"vehicle_type_id":"4","last_reported":1714414147,"current_range_meters":6800,"station_id":"ce4bgl12rcd13ifvqbo0","pricing_plan_id":"cebpf4jnsgd1na2vs0mg"},{"bike_id":"2523aecc-92e2-495a-8a8d-58451d8e38dc","system_id":"levelo_inurba_marseille","lat":43.295996,"lon":5.381054,"is_reserved":false,"is_disabled":false,"rental_uris":{"android":"levelo://app?vid=2523aecc-92e2-495a-8a8d-58451d8e38dc","ios":"levelo://app?vid=2523aecc-92e2-495a-8a8d-58451d8e38dc"},"vehicle_type_id":"4","last_reported":1714414147,"current_range_meters":6000,"station_id":"ce4bgl12rcd13ifvqbo0","pricing_plan_id":"cebpf4jnsgd1na2vs0mg"},{"bike_id":"710132a8-febd-4451-a897-cdcd6a51e53d","system_id":"levelo_inurba_marseille","lat":43.29602,"lon":5.381084,"is_reserved":false,"is_disabled":false,"rental_uris":{"android":"levelo://app?vid=710132a8-febd-4451-a897-cdcd6a51e53d","ios":"levelo://app?vid=710132a8-febd-4451-a897-cdcd6a51e53d"},"vehicle_type_id":"4","last_reported":1714414147,"current_range_meters":29600,"station_id":"ce4bgl12rcd13ifvqbo0","pricing_plan_id":"cebpf4jnsgd1na2vs0mg"},{"bike_id":"db36872a-de1f-425d-8920-cdc03a22eb48","system_id":"levelo_inurba_marseille","lat":43.29602,"lon":5.381084,"is_reserved":false,"is_disabled":false,"rental_uris":{"android":"levelo://app?vid=db36872a-de1f-425d-8920-cdc03a22eb48","ios":"levelo://app?vid=db36872a-de1f-425d-8920-cdc03a22eb48"},"vehicle_type_id":"4","last_reported":1714414147,"current_range_meters":12400,"station_id":"ce4bgl12rcd13ifvqbo0","pricing_plan_id":"cebpf4jnsgd1na2vs0mg"},{"bike_id":"2bed64d7-3eda-4ea4-bc5f-a8a40a73dd58","system_id":"levelo_inurba_marseille","lat":43.29602,"lon":5.381084,"is_reserved":false,"is_disabled":false,"rental_uris":{"android":"levelo://app?vid=2bed64d7-3eda-4ea4-bc5f-a8a40a73dd58","ios":"levelo://app?vid=2bed64d7-3eda-4ea4-bc5f-a8a40a73dd58"},"vehicle_type_id":"4","last_reported":1714414147,"current_range_meters":30000,"station_id":"ce4bgl12rcd13ifvqbo0","pricing_plan_id":"cebpf4jnsgd1na2vs0mg"},{"bike_id":"4d5c894a-06dc-487a-9536-fd0c40040820","system_id":"levelo_inurba_marseille","lat":43.293259,"lon":5.371586,"is_reserved":false,"is_disabled":false,"rental_uris":{"android":"levelo://app?vid=4d5c894a-06dc-487a-9536-fd0c40040820","ios":"levelo://app?vid=4d5c894a-06dc-487a-9536-fd0c40040820"},"vehicle_type_id":"4","last_reported":1714414147,"current_range_meters":12000,"station_id":"ce4bgh92rcd13ifvqb40","pricing_plan_id":"cebpf4jnsgd1na2vs0mg"},{"bike_id":"36cb936c-5dcd-4794-a0c9-90c733a1790a","system_id":"levelo_inurba_marseille","lat":43.292749,"lon":5.368402,"is_reserved":false,"is_disabled":false,"rental_uris":{"android":"levelo://app?vid=36cb936c-5dcd-4794-a0c9-90c733a1790a","ios":"levelo://app?vid=36cb936c-5dcd-4794-a0c9-90c733a1790a"},"vehicle_type_id":"4","last_reported":1714414147,"current_range_meters":5200,"station_id":"ce4bhbp2rcd13ifvqesg","pricing_plan_id":"cebpf4jnsgd1na2vs0mg"},{"bike_id":"3190e011-9d54-48c3-8df4-24c375041388","system_id":"levelo_inurba_marseille","lat":43.292749,"lon":5.368402,"is_reserved":false,"is_disabled":false,"rental_uris":{"android":"levelo://app?vid=3190e011-9d54-48c3-8df4-24c375041388","ios":"levelo://app?vid=3190e011-9d54-48c3-8df4-24c375041388"},"vehicle_type_id":"4","last_reported":1714414147,"current_range_meters":25600,"station_id":"ce4bhbp2rcd13ifvqesg","pricing_plan_id":"cebpf4jnsgd1na2vs0mg"},{"bike_id":"491e2d8e-7b73-469b-8bf1-ff4cf7ac0f71","system_id":"levelo_inurba_marseille","lat":43.293009,"lon":5.374584,"is_reserved":false,"is_disabled":false,"rental_uris":{"android":"levelo://app?vid=491e2d8e-7b73-469b-8bf1-ff4cf7ac0f71","ios":"levelo://app?vid=491e2d8e-7b73-469b-8bf1-ff4cf7ac0f71"},"vehicle_type_id":"4","last_reported":1714414147,"current_range_meters":23600,"station_id":"ce4bgi12rcd13ifvqb70","pricing_plan_id":"cebpf4jnsgd1na2vs0mg"},{"bike_id":"8e640755-20e3-4520-a90d-aa2ea6efc0e7","system_id":"levelo_inurba_marseille","lat":43.293009,"lon":5.374584,"is_reserved":false,"is_disabled":false,"rental_uris":{"android":"levelo://app?vid=8e640755-20e3-4520-a90d-aa2ea6efc0e7","ios":"levelo://app?vid=8e640755-20e3-4520-a90d-aa2ea6efc0e7"},"vehicle_type_id":"4","last_reported":1714414147,"current_range_meters":7200,"station_id":"ce4bgi12rcd13ifvqb70","pricing_plan_id":"cebpf4jnsgd1na2vs0mg"},{"bike_id":"2498937c-854f-40c8-b35a-612aa24edcb2","system_id":"levelo_inurba_marseille","lat":43.272124,"lon":5.391768,"is_reserved":false,"is_disabled":false,"rental_uris":{"android":"levelo://app?vid=2498937c-854f-40c8-b35a-612aa24edcb2","ios":"levelo://app?vid=2498937c-854f-40c8-b35a-612aa24edcb2"},"vehicle_type_id":"4","last_reported":1714414147,"current_range_meters":5200,"station_id":"ce4bhhp2rcd13ifvqfm0","pricing_plan_id":"cebpf4jnsgd1na2vs0mg"},{"bike_id":"59ab821d-56d2-4d09-b5f0-9704c5809b8c","system_id":"levelo_inurba_marseille","lat":43.305994,"lon":5.393687,"is_reserved":false,"is_disabled":false,"rental_uris":{"android":"levelo://app?vid=59ab821d-56d2-4d09-b5f0-9704c5809b8c","ios":"levelo://app?vid=59ab821d-56d2-4d09-b5f0-9704c5809b8c"},"vehicle_type_id":"4","last_reported":1714414147,"current_range_meters":22800,"station_id":"ce4bh0p2rcd13ifvqd80","pricing_plan_id":"cebpf4jnsgd1na2vs0mg"},{"bike_id":"f606b106-0dd8-4f51-ba50-be12661887df","system_id":"levelo_inurba_marseille","lat":43.303002,"lon":5.392142,"is_reserved":false,"is_disabled":false,"rental_uris":{"android":"levelo://app?vid=f606b106-0dd8-4f51-ba50-be12661887df","ios":"levelo://app?vid=f606b106-0dd8-4f51-ba50-be12661887df"},"vehicle_type_id":"4","last_reported":1714414147,"current_range_meters":13600,"station_id":"ce4bgkh2rcd13ifvqbk0","pricing_plan_id":"cebpf4jnsgd1na2vs0mg"},{"bike_id":"3f19e852-801f-4209-8630-939015a2a8ac","system_id":"levelo_inurba_marseille","lat":43.302992,"lon":5.392136,"is_reserved":false,"is_disabled":false,"rental_uris":{"android":"levelo://app?vid=3f19e852-801f-4209-8630-939015a2a8ac","ios":"levelo://app?vid=3f19e852-801f-4209-8630-939015a2a8ac"},"vehicle_type_id":"4","last_reported":1714414147,"current_range_meters":22000,"station_id":"ce4bgkh2rcd13ifvqbk0","pricing_plan_id":"cebpf4jnsgd1na2vs0mg"},{"bike_id":"ae58078f-cf7d-41d3-a847-f5e998644713","system_id":"levelo_inurba_marseille","lat":43.303002,"lon":5.392142,"is_reserved":false,"is_disabled":false,"rental_uris":{"android":"levelo://app?vid=ae58078f-cf7d-41d3-a847-f5e998644713","ios":"levelo://app?vid=ae58078f-cf7d-41d3-a847-f5e998644713"},"vehicle_type_id":"4","last_reported":1714414147,"current_range_meters":24400,"station_id":"ce4bgkh2rcd13ifvqbk0","pricing_plan_id":"cebpf4jnsgd1na2vs0mg"},{"bike_id":"3a809ebd-c805-417e-8dd3-371ceb11059f","system_id":"levelo_inurba_marseille","lat":43.2936,"lon":5.37835,"is_reserved":false,"is_disabled":false,"rental_uris":{"android":"levelo://app?vid=3a809ebd-c805-417e-8dd3-371ceb11059f","ios":"levelo://app?vid=3a809ebd-c805-417e-8dd3-371ceb11059f"},"vehicle_type_id":"4","last_reported":1714414147,"current_range_meters":18400,"station_id":"ce4bgjh2rcd13ifvqbf0","pricing_plan_id":"cebpf4jnsgd1na2vs0mg"},{"bike_id":"5c81fe4c-6331-4179-8eb0-d5ca5c0120cb","system_id":"levelo_inurba_marseille","lat":43.2936,"lon":5.37835,"is_reserved":false,"is_disabled":false,"rental_uris":{"android":"levelo://app?vid=5c81fe4c-6331-4179-8eb0-d5ca5c0120cb","ios":"levelo://app?vid=5c81fe4c-6331-4179-8eb0-d5ca5c0120cb"},"vehicle_type_id":"4","last_reported":1714414147,"current_range_meters":26800,"station_id":"ce4bgjh2rcd13ifvqbf0","pricing_plan_id":"cebpf4jnsgd1na2vs0mg"},{"bike_id":"39ee5f5c-1116-4d76-8373-095a1cd9ed15","system_id":"levelo_inurba_marseille","lat":43.2936,"lon":5.37835,"is_reserved":false,"is_disabled":false,"rental_uris":{"android":"levelo://app?vid=39ee5f5c-1116-4d76-8373-095a1cd9ed15","ios":"levelo://app?vid=39ee5f5c-1116-4d76-8373-095a1cd9ed15"},"vehicle_type_id":"4","last_reported":1714414147,"current_range_meters":28000,"station_id":"ce4bgjh2rcd13ifvqbf0","pricing_plan_id":"cebpf4jnsgd1na2vs0mg"},{"bike_id":"d19b95aa-b45c-49ce-8c0e-f3ce7515e227","system_id":"levelo_inurba_marseille","lat":43.300852,"lon":5.390859,"is_reserved":false,"is_disabled":false,"rental_uris":{"android":"levelo://app?vid=d19b95aa-b45c-49ce-8c0e-f3ce7515e227","ios":"levelo://app?vid=d19b95aa-b45c-49ce-8c0e-f3ce7515e227"},"vehicle_type_id":"4","last_reported":1714414147,"current_range_meters":16000,"station_id":"ce4bh192rcd13ifvqdb0","pricing_plan_id":"cebpf4jnsgd1na2vs0mg"},{"bike_id":"2d261072-517c-4ea2-8182-8409cdf89c2a","system_id":"levelo_inurba_marseille","lat":43.292644,"lon":5.384257,"is_reserved":false,"is_disabled":false,"rental_uris":{"android":"levelo://app?vid=2d261072-517c-4ea2-8182-8409cdf89c2a","ios":"levelo://app?vid=2d261072-517c-4ea2-8182-8409cdf89c2a"},"vehicle_type_id":"4","last_reported":1714414147,"current_range_meters":11200,"station_id":"ce4bh692rcd13ifvqea0","pricing_plan_id":"cebpf4jnsgd1na2vs0mg"},{"bike_id":"73b8aa95-641b-469a-8c83-ff23fc729c47","system_id":"levelo_inurba_marseille","lat":43.300852,"lon":5.390859,"is_reserved":false,"is_disabled":false,"rental_uris":{"android":"levelo://app?vid=73b8aa95-641b-469a-8c83-ff23fc729c47","ios":"levelo://app?vid=73b8aa95-641b-469a-8c83-ff23fc729c47"},"vehicle_type_id":"4","last_reported":1714414147,"current_range_meters":25200,"station_id":"ce4bh192rcd13ifvqdb0","pricing_plan_id":"cebpf4jnsgd1na2vs0mg"},{"bike_id":"433b0005-867c-4ddf-98c6-8a718b6f6dc2","system_id":"levelo_inurba_marseille","lat":43.300852,"lon":5.390859,"is_reserved":false,"is_disabled":false,"rental_uris":{"android":"levelo://app?vid=433b0005-867c-4ddf-98c6-8a718b6f6dc2","ios":"levelo://app?vid=433b0005-867c-4ddf-98c6-8a718b6f6dc2"},"vehicle_type_id":"4","last_reported":1714414147,"current_range_meters":4400,"station_id":"ce4bh192rcd13ifvqdb0","pricing_plan_id":"cebpf4jnsgd1na2vs0mg"},{"bike_id":"f99536a3-4dce-492f-8fc1-c2e89cbd4d94","system_id":"levelo_inurba_marseille","lat":43.30085,"lon":5.390856,"is_reserved":false,"is_disabled":false,"rental_uris":{"android":"levelo://app?vid=f99536a3-4dce-492f-8fc1-c2e89cbd4d94","ios":"levelo://app?vid=f99536a3-4dce-492f-8fc1-c2e89cbd4d94"},"vehicle_type_id":"4","last_reported":1714414147,"current_range_meters":21200,"station_id":"ce4bh192rcd13ifvqdb0","pricing_plan_id":"cebpf4jnsgd1na2vs0mg"},{"bike_id":"5d93b2b0-2159-4ebf-9b50-8daccff37ce2","system_id":"levelo_inurba_marseille","lat":43.29275,"lon":5.37619,"is_reserved":false,"is_disabled":false,"rental_uris":{"android":"levelo://app?vid=5d93b2b0-2159-4ebf-9b50-8daccff37ce2","ios":"levelo://app?vid=5d93b2b0-2159-4ebf-9b50-8daccff37ce2"},"vehicle_type_id":"4","last_reported":1714414147,"current_range_meters":20000,"station_id":"","pricing_plan_id":"cebpf4jnsgd1na2vs0mg"},{"bike_id":"5c57c915-9bd0-4409-a16a-59215b9fc796","system_id":"levelo_inurba_marseille","lat":43.298764,"lon":5.388973,"is_reserved":false,"is_disabled":false,"rental_uris":{"android":"levelo://app?vid=5c57c915-9bd0-4409-a16a-59215b9fc796","ios":"levelo://app?vid=5c57c915-9bd0-4409-a16a-59215b9fc796"},"vehicle_type_id":"4","last_reported":1714414147,"current_range_meters":11200,"station_id":"ce4bh392rcd13ifvqdl0","pricing_plan_id":"cebpf4jnsgd1na2vs0mg"},{"bike_id":"a64bc179-b8b3-43eb-81ed-76435995c95e","system_id":"levelo_inurba_marseille","lat":43.298764,"lon":5.388973,"is_reserved":false,"is_disabled":false,"rental_uris":{"android":"levelo://app?vid=a64bc179-b8b3-43eb-81ed-76435995c95e","ios":"levelo://app?vid=a64bc179-b8b3-43eb-81ed-76435995c95e"},"vehicle_type_id":"4","last_reported":1714414147,"current_range_meters":25200,"station_id":"ce4bh392rcd13ifvqdl0","pricing_plan_id":"cebpf4jnsgd1na2vs0mg"},{"bike_id":"f066ac3f-da69-4e71-a014-d2d0f5d7edb3","system_id":"levelo_inurba_marseille","lat":43.298764,"lon":5.388973,"is_reserved":false,"is_disabled":false,"rental_uris":{"android":"levelo://app?vid=f066ac3f-da69-4e71-a014-d2d0f5d7edb3","ios":"levelo://app?vid=f066ac3f-da69-4e71-a014-d2d0f5d7edb3"},"vehicle_type_id":"4","last_reported":1714414147,"current_range_meters":3600,"station_id":"ce4bh392rcd13ifvqdl0","pricing_plan_id":"cebpf4jnsgd1na2vs0mg"},{"bike_id":"146b31d9-e9dd-439e-9669-70da5a11ef6b","system_id":"levelo_inurba_marseille","lat":43.291675,"lon":5.371583,"is_reserved":false,"is_disabled":false,"rental_uris":{"android":"levelo://app?vid=146b31d9-e9dd-439e-9669-70da5a11ef6b","ios":"levelo://app?vid=146b31d9-e9dd-439e-9669-70da5a11ef6b"},"vehicle_type_id":"4","last_reported":1714414147,"current_range_meters":27200,"station_id":"ce4bha92rcd13ifvqeh0","pricing_plan_id":"cebpf4jnsgd1na2vs0mg"},{"bike_id":"2e83fba3-f2a9-43d8-bbd9-56def08b1699","system_id":"levelo_inurba_marseille","lat":43.298764,"lon":5.388973,"is_reserved":false,"is_disabled":false,"rental_uris":{"android":"levelo://app?vid=2e83fba3-f2a9-43d8-bbd9-56def08b1699","ios":"levelo://app?vid=2e83fba3-f2a9-43d8-bbd9-56def08b1699"},"vehicle_type_id":"4","last_reported":1714414147,"current_range_meters":13200,"station_id":"ce4bh392rcd13ifvqdl0","pricing_plan_id":"cebpf4jnsgd1na2vs0mg"},{"bike_id":"b9b49696-5071-4961-8d06-cc4f5a3a2338","system_id":"levelo_inurba_marseille","lat":43.298764,"lon":5.388973,"is_reserved":false,"is_disabled":false,"rental_uris":{"android":"levelo://app?vid=b9b49696-5071-4961-8d06-cc4f5a3a2338","ios":"levelo://app?vid=b9b49696-5071-4961-8d06-cc4f5a3a2338"},"vehicle_type_id":"4","last_reported":1714414147,"current_range_meters":27200,"station_id":"ce4bh392rcd13ifvqdl0","pricing_plan_id":"cebpf4jnsgd1na2vs0mg"},{"bike_id":"0fa59905-b1d0-4f53-9a5a-64c46f5c53e3","system_id":"levelo_inurba_marseille","lat":43.298764,"lon":5.388973,"is_reserved":false,"is_disabled":false,"rental_uris":{"android":"levelo://app?vid=0fa59905-b1d0-4f53-9a5a-64c46f5c53e3","ios":"levelo://app?vid=0fa59905-b1d0-4f53-9a5a-64c46f5c53e3"},"vehicle_type_id":"4","last_reported":1714414147,"current_range_meters":22000,"station_id":"ce4bh392rcd13ifvqdl0","pricing_plan_id":"cebpf4jnsgd1na2vs0mg"},{"bike_id":"942f4c2e-6bc8-4522-b312-b846782e3ec5","system_id":"levelo_inurba_marseille","lat":43.298764,"lon":5.388973,"is_reserved":false,"is_disabled":false,"rental_uris":{"android":"levelo://app?vid=942f4c2e-6bc8-4522-b312-b846782e3ec5","ios":"levelo://app?vid=942f4c2e-6bc8-4522-b312-b846782e3ec5"},"vehicle_type_id":"4","last_reported":1714414147,"current_range_meters":12400,"station_id":"ce4bh392rcd13ifvqdl0","pricing_plan_id":"cebpf4jnsgd1na2vs0mg"},{"bike_id":"1dd05304-80e3-4cf1-819b-f6147a6ae56f","system_id":"levelo_inurba_marseille","lat":43.298764,"lon":5.388973,"is_reserved":false,"is_disabled":false,"rental_uris":{"android":"levelo://app?vid=1dd05304-80e3-4cf1-819b-f6147a6ae56f","ios":"levelo://app?vid=1dd05304-80e3-4cf1-819b-f6147a6ae56f"},"vehicle_type_id":"4","last_reported":1714414147,"current_range_meters":14400,"station_id":"ce4bh392rcd13ifvqdl0","pricing_plan_id":"cebpf4jnsgd1na2vs0mg"},{"bike_id":"e8dfbcf2-f81a-42b3-a7e2-9b39b42c5552","system_id":"levelo_inurba_marseille","lat":43.298764,"lon":5.388973,"is_reserved":false,"is_disabled":false,"rental_uris":{"android":"levelo://app?vid=e8dfbcf2-f81a-42b3-a7e2-9b39b42c5552","ios":"levelo://app?vid=e8dfbcf2-f81a-42b3-a7e2-9b39b42c5552"},"vehicle_type_id":"4","last_reported":1714414147,"current_range_meters":800,"station_id":"ce4bh392rcd13ifvqdl0","pricing_plan_id":"cebpf4jnsgd1na2vs0mg"},{"bike_id":"668a459b-167b-4dd6-a6a7-877c62a56a1f","system_id":"levelo_inurba_marseille","lat":43.298764,"lon":5.388973,"is_reserved":false,"is_disabled":false,"rental_uris":{"android":"levelo://app?vid=668a459b-167b-4dd6-a6a7-877c62a56a1f","ios":"levelo://app?vid=668a459b-167b-4dd6-a6a7-877c62a56a1f"},"vehicle_type_id":"4","last_reported":1714414147,"current_range_meters":8400,"station_id":"ce4bh392rcd13ifvqdl0","pricing_plan_id":"cebpf4jnsgd1na2vs0mg"},{"bike_id":"070f2f67-5655-4eb5-a911-2d78e8168304","system_id":"levelo_inurba_marseille","lat":43.298764,"lon":5.388973,"is_reserved":false,"is_disabled":false,"rental_uris":{"android":"levelo://app?vid=070f2f67-5655-4eb5-a911-2d78e8168304","ios":"levelo://app?vid=070f2f67-5655-4eb5-a911-2d78e8168304"},"vehicle_type_id":"4","last_reported":1714414147,"current_range_meters":8000,"station_id":"ce4bh392rcd13ifvqdl0","pricing_plan_id":"cebpf4jnsgd1na2vs0mg"},{"bike_id":"ab0d2e41-fdad-4489-beb8-58ccc13d9420","system_id":"levelo_inurba_marseille","lat":43.317557,"lon":5.390173,"is_reserved":false,"is_disabled":false,"rental_uris":{"android":"levelo://app?vid=ab0d2e41-fdad-4489-beb8-58ccc13d9420","ios":"levelo://app?vid=ab0d2e41-fdad-4489-beb8-58ccc13d9420"},"vehicle_type_id":"4","last_reported":1714414147,"current_range_meters":4400,"station_id":"ce4bhqp2rcd13ifvqhng","pricing_plan_id":"cebpf4jnsgd1na2vs0mg"},{"bike_id":"a1eba3ec-b3b8-4f71-aac8-55c8538d739a","system_id":"levelo_inurba_marseille","lat":43.291994,"lon":5.357886,"is_reserved":false,"is_disabled":false,"rental_uris":{"android":"levelo://app?vid=a1eba3ec-b3b8-4f71-aac8-55c8538d739a","ios":"levelo://app?vid=a1eba3ec-b3b8-4f71-aac8-55c8538d739a"},"vehicle_type_id":"4","last_reported":1714414147,"current_range_meters":1600,"station_id":"ce4bhb12rcd13ifvqel0","pricing_plan_id":"cebpf4jnsgd1na2vs0mg"},{"bike_id":"0e061c60-ac6f-4889-abfe-e2b62fccf232","system_id":"levelo_inurba_marseille","lat":43.291994,"lon":5.357886,"is_reserved":false,"is_disabled":false,"rental_uris":{"android":"levelo://app?vid=0e061c60-ac6f-4889-abfe-e2b62fccf232","ios":"levelo://app?vid=0e061c60-ac6f-4889-abfe-e2b62fccf232"},"vehicle_type_id":"4","last_reported":1714414147,"current_range_meters":28000,"station_id":"ce4bhb12rcd13ifvqel0","pricing_plan_id":"cebpf4jnsgd1na2vs0mg"},{"bike_id":"ec575c12-06c2-445d-a2f9-6a99ece276c0","system_id":"levelo_inurba_marseille","lat":43.313291,"lon":5.396838,"is_reserved":false,"is_disabled":false,"rental_uris":{"android":"levelo://app?vid=ec575c12-06c2-445d-a2f9-6a99ece276c0","ios":"levelo://app?vid=ec575c12-06c2-445d-a2f9-6a99ece276c0"},"vehicle_type_id":"4","last_reported":1714414147,"current_range_meters":12000,"station_id":"ce4bgvp2rcd13ifvqcu0","pricing_plan_id":"cebpf4jnsgd1na2vs0mg"},{"bike_id":"7630cc94-f5ba-492e-8fa9-6a45eeb2ca97","system_id":"levelo_inurba_marseille","lat":43.313291,"lon":5.396838,"is_reserved":false,"is_disabled":false,"rental_uris":{"android":"levelo://app?vid=7630cc94-f5ba-492e-8fa9-6a45eeb2ca97","ios":"levelo://app?vid=7630cc94-f5ba-492e-8fa9-6a45eeb2ca97"},"vehicle_type_id":"4","last_reported":1714414147,"current_range_meters":26400,"station_id":"ce4bgvp2rcd13ifvqcu0","pricing_plan_id":"cebpf4jnsgd1na2vs0mg"},{"bike_id":"9b23d1ef-b7cd-41b5-b276-97c1012fc388","system_id":"levelo_inurba_marseille","lat":43.290631,"lon":5.359244,"is_reserved":false,"is_disabled":false,"rental_uris":{"android":"levelo://app?vid=9b23d1ef-b7cd-41b5-b276-97c1012fc388","ios":"levelo://app?vid=9b23d1ef-b7cd-41b5-b276-97c1012fc388"},"vehicle_type_id":"4","last_reported":1714414147,"current_range_meters":1200,"station_id":"ce4bha92rcd13ifvqeg0","pricing_plan_id":"cebpf4jnsgd1na2vs0mg"},{"bike_id":"3a59db18-0374-4b72-986d-7845733ea33c","system_id":"levelo_inurba_marseille","lat":43.309038,"lon":5.396546,"is_reserved":false,"is_disabled":false,"rental_uris":{"android":"levelo://app?vid=3a59db18-0374-4b72-986d-7845733ea33c","ios":"levelo://app?vid=3a59db18-0374-4b72-986d-7845733ea33c"},"vehicle_type_id":"4","last_reported":1714414147,"current_range_meters":0,"station_id":"ce4bh012rcd13ifvqcv0","pricing_plan_id":"cebpf4jnsgd1na2vs0mg"},{"bike_id":"e8b744ba-f73d-45a0-bc09-b035b387f0d0","system_id":"levelo_inurba_marseille","lat":43.29529,"lon":5.385581,"is_reserved":false,"is_disabled":false,"rental_uris":{"android":"levelo://app?vid=e8b744ba-f73d-45a0-bc09-b035b387f0d0","ios":"levelo://app?vid=e8b744ba-f73d-45a0-bc09-b035b387f0d0"},"vehicle_type_id":"4","last_reported":1714414147,"current_range_meters":8400,"station_id":"ce4bgih2rcd13ifvqba0","pricing_plan_id":"cebpf4jnsgd1na2vs0mg"},{"bike_id":"117a61fb-10ef-4370-b8a0-1aa1c9b11c57","system_id":"levelo_inurba_marseille","lat":43.309038,"lon":5.396546,"is_reserved":false,"is_disabled":false,"rental_uris":{"android":"levelo://app?vid=117a61fb-10ef-4370-b8a0-1aa1c9b11c57","ios":"levelo://app?vid=117a61fb-10ef-4370-b8a0-1aa1c9b11c57"},"vehicle_type_id":"4","last_reported":1714414147,"current_range_meters":23200,"station_id":"ce4bh012rcd13ifvqcv0","pricing_plan_id":"cebpf4jnsgd1na2vs0mg"},{"bike_id":"93f29893-132d-44e1-96b0-565c25b115d0","system_id":"levelo_inurba_marseille","lat":43.2954,"lon":5.38545,"is_reserved":false,"is_disabled":false,"rental_uris":{"android":"levelo://app?vid=93f29893-132d-44e1-96b0-565c25b115d0","ios":"levelo://app?vid=93f29893-132d-44e1-96b0-565c25b115d0"},"vehicle_type_id":"4","last_reported":1714414147,"current_range_meters":0,"station_id":"ce4bgih2rcd13ifvqba0","pricing_plan_id":"cebpf4jnsgd1na2vs0mg"},{"bike_id":"3bbe1f25-c7dd-44e5-85f3-4d256d10853c","system_id":"levelo_inurba_marseille","lat":43.295331,"lon":5.385342,"is_reserved":false,"is_disabled":false,"rental_uris":{"android":"levelo://app?vid=3bbe1f25-c7dd-44e5-85f3-4d256d10853c","ios":"levelo://app?vid=3bbe1f25-c7dd-44e5-85f3-4d256d10853c"},"vehicle_type_id":"4","last_reported":1714414147,"current_range_meters":3200,"station_id":"ce4bgih2rcd13ifvqba0","pricing_plan_id":"cebpf4jnsgd1na2vs0mg"},{"bike_id":"70a8a282-f2c7-4dfc-90fe-0f8a9825b127","system_id":"levelo_inurba_marseille","lat":43.283998,"lon":5.375062,"is_reserved":false,"is_disabled":false,"rental_uris":{"android":"levelo://app?vid=70a8a282-f2c7-4dfc-90fe-0f8a9825b127","ios":"levelo://app?vid=70a8a282-f2c7-4dfc-90fe-0f8a9825b127"},"vehicle_type_id":"4","last_reported":1714414147,"current_range_meters":25600,"station_id":"ce4bh412rcd13ifvqds0","pricing_plan_id":"cebpf4jnsgd1na2vs0mg"},{"bike_id":"5551551b-a26b-4d06-b906-f5dfa7c7aa6c","system_id":"levelo_inurba_marseille","lat":43.29534,"lon":5.38542,"is_reserved":false,"is_disabled":false,"rental_uris":{"android":"levelo://app?vid=5551551b-a26b-4d06-b906-f5dfa7c7aa6c","ios":"levelo://app?vid=5551551b-a26b-4d06-b906-f5dfa7c7aa6c"},"vehicle_type_id":"4","last_reported":1714414147,"current_range_meters":20400,"station_id":"ce4bgih2rcd13ifvqba0","pricing_plan_id":"cebpf4jnsgd1na2vs0mg"},{"bike_id":"2ba430de-a3d3-4163-b2e3-6f80e8976de5","system_id":"levelo_inurba_marseille","lat":43.2953,"lon":5.38535,"is_reserved":false,"is_disabled":false,"rental_uris":{"android":"levelo://app?vid=2ba430de-a3d3-4163-b2e3-6f80e8976de5","ios":"levelo://app?vid=2ba430de-a3d3-4163-b2e3-6f80e8976de5"},"vehicle_type_id":"4","last_reported":1714414147,"current_range_meters":0,"station_id":"ce4bgih2rcd13ifvqba0","pricing_plan_id":"cebpf4jnsgd1na2vs0mg"},{"bike_id":"87f8db0c-7730-4d55-a541-a4bbe79113c6","system_id":"levelo_inurba_marseille","lat":43.295354,"lon":5.385453,"is_reserved":false,"is_disabled":false,"rental_uris":{"android":"levelo://app?vid=87f8db0c-7730-4d55-a541-a4bbe79113c6","ios":"levelo://app?vid=87f8db0c-7730-4d55-a541-a4bbe79113c6"},"vehicle_type_id":"4","last_reported":1714414147,"current_range_meters":6800,"station_id":"ce4bgih2rcd13ifvqba0","pricing_plan_id":"cebpf4jnsgd1na2vs0mg"},{"bike_id":"0f5e171d-7f13-4c8b-a368-bf589697b8a0","system_id":"levelo_inurba_marseille","lat":43.29533,"lon":5.38544,"is_reserved":false,"is_disabled":false,"rental_uris":{"android":"levelo://app?vid=0f5e171d-7f13-4c8b-a368-bf589697b8a0","ios":"levelo://app?vid=0f5e171d-7f13-4c8b-a368-bf589697b8a0"},"vehicle_type_id":"4","last_reported":1714414147,"current_range_meters":2400,"station_id":"ce4bgih2rcd13ifvqba0","pricing_plan_id":"cebpf4jnsgd1na2vs0mg"},{"bike_id":"30b235e8-6443-4e5d-86f0-6b08aff3f0a3","system_id":"levelo_inurba_marseille","lat":43.29529,"lon":5.385581,"is_reserved":false,"is_disabled":false,"rental_uris":{"android":"levelo://app?vid=30b235e8-6443-4e5d-86f0-6b08aff3f0a3","ios":"levelo://app?vid=30b235e8-6443-4e5d-86f0-6b08aff3f0a3"},"vehicle_type_id":"4","last_reported":1714414147,"current_range_meters":24000,"station_id":"ce4bgih2rcd13ifvqba0","pricing_plan_id":"cebpf4jnsgd1na2vs0mg"},{"bike_id":"60d564c5-587c-4ea9-81c7-d17398dbb2f4","system_id":"levelo_inurba_marseille","lat":43.29528,"lon":5.38539,"is_reserved":false,"is_disabled":false,"rental_uris":{"android":"levelo://app?vid=60d564c5-587c-4ea9-81c7-d17398dbb2f4","ios":"levelo://app?vid=60d564c5-587c-4ea9-81c7-d17398dbb2f4"},"vehicle_type_id":"4","last_reported":1714414147,"current_range_meters":20400,"station_id":"ce4bgih2rcd13ifvqba0","pricing_plan_id":"cebpf4jnsgd1na2vs0mg"},{"bike_id":"0ba399a7-acb9-46a5-b828-7d61dad25319","system_id":"levelo_inurba_marseille","lat":43.29529,"lon":5.385581,"is_reserved":false,"is_disabled":false,"rental_uris":{"android":"levelo://app?vid=0ba399a7-acb9-46a5-b828-7d61dad25319","ios":"levelo://app?vid=0ba399a7-acb9-46a5-b828-7d61dad25319"},"vehicle_type_id":"4","last_reported":1714414147,"current_range_meters":6400,"station_id":"ce4bgih2rcd13ifvqba0","pricing_plan_id":"cebpf4jnsgd1na2vs0mg"},{"bike_id":"ebf1cb2b-71aa-4c3c-9daf-9ae15c6ac9cb","system_id":"levelo_inurba_marseille","lat":43.29529,"lon":5.385581,"is_reserved":false,"is_disabled":false,"rental_uris":{"android":"levelo://app?vid=ebf1cb2b-71aa-4c3c-9daf-9ae15c6ac9cb","ios":"levelo://app?vid=ebf1cb2b-71aa-4c3c-9daf-9ae15c6ac9cb"},"vehicle_type_id":"4","last_reported":1714414147,"current_range_meters":8400,"station_id":"ce4bgih2rcd13ifvqba0","pricing_plan_id":"cebpf4jnsgd1na2vs0mg"},{"bike_id":"2536a65b-9bcb-4e9f-95ca-a1b97e53d6cc","system_id":"levelo_inurba_marseille","lat":43.290779,"lon":5.371482,"is_reserved":false,"is_disabled":false,"rental_uris":{"android":"levelo://app?vid=2536a65b-9bcb-4e9f-95ca-a1b97e53d6cc","ios":"levelo://app?vid=2536a65b-9bcb-4e9f-95ca-a1b97e53d6cc"},"vehicle_type_id":"4","last_reported":1714414147,"current_range_meters":20800,"station_id":"ce4bh5p2rcd13ifvqe4g","pricing_plan_id":"cebpf4jnsgd1na2vs0mg"},{"bike_id":"0584d719-5f93-407b-9ee7-a318f6829293","system_id":"levelo_inurba_marseille","lat":43.302008,"lon":5.394694,"is_reserved":false,"is_disabled":false,"rental_uris":{"android":"levelo://app?vid=0584d719-5f93-407b-9ee7-a318f6829293","ios":"levelo://app?vid=0584d719-5f93-407b-9ee7-a318f6829293"},"vehicle_type_id":"4","last_reported":1714414147,"current_range_meters":1200,"station_id":"ce4bh0p2rcd13ifvqd70","pricing_plan_id":"cebpf4jnsgd1na2vs0mg"},{"bike_id":"7e9c2a1f-9a9b-4db5-9b1a-997c03ad15b3","system_id":"levelo_inurba_marseille","lat":43.302008,"lon":5.394694,"is_reserved":false,"is_disabled":false,"rental_uris":{"android":"levelo://app?vid=7e9c2a1f-9a9b-4db5-9b1a-997c03ad15b3","ios":"levelo://app?vid=7e9c2a1f-9a9b-4db5-9b1a-997c03ad15b3"},"vehicle_type_id":"4","last_reported":1714414147,"current_range_meters":22400,"station_id":"ce4bh0p2rcd13ifvqd70","pricing_plan_id":"cebpf4jnsgd1na2vs0mg"},{"bike_id":"49c3da1e-04e1-424f-86d8-9de5f186bd31","system_id":"levelo_inurba_marseille","lat":43.302008,"lon":5.394694,"is_reserved":false,"is_disabled":false,"rental_uris":{"android":"levelo://app?vid=49c3da1e-04e1-424f-86d8-9de5f186bd31","ios":"levelo://app?vid=49c3da1e-04e1-424f-86d8-9de5f186bd31"},"vehicle_type_id":"4","last_reported":1714414147,"current_range_meters":5200,"station_id":"ce4bh0p2rcd13ifvqd70","pricing_plan_id":"cebpf4jnsgd1na2vs0mg"},{"bike_id":"ba97dedf-3502-4e50-9e27-90202e4f7bab","system_id":"levelo_inurba_marseille","lat":43.302008,"lon":5.394694,"is_reserved":false,"is_disabled":false,"rental_uris":{"android":"levelo://app?vid=ba97dedf-3502-4e50-9e27-90202e4f7bab","ios":"levelo://app?vid=ba97dedf-3502-4e50-9e27-90202e4f7bab"},"vehicle_type_id":"4","last_reported":1714414147,"current_range_meters":18400,"station_id":"ce4bh0p2rcd13ifvqd70","pricing_plan_id":"cebpf4jnsgd1na2vs0mg"},{"bike_id":"023ec1d4-debe-4900-9f29-77db77267ef7","system_id":"levelo_inurba_marseille","lat":43.302008,"lon":5.394694,"is_reserved":false,"is_disabled":false,"rental_uris":{"android":"levelo://app?vid=023ec1d4-debe-4900-9f29-77db77267ef7","ios":"levelo://app?vid=023ec1d4-debe-4900-9f29-77db77267ef7"},"vehicle_type_id":"4","last_reported":1714414147,"current_range_meters":29600,"station_id":"ce4bh0p2rcd13ifvqd70","pricing_plan_id":"cebpf4jnsgd1na2vs0mg"},{"bike_id":"be03396d-5ca5-445a-8a7c-479671147935","system_id":"levelo_inurba_marseille","lat":43.302008,"lon":5.394694,"is_reserved":false,"is_disabled":false,"rental_uris":{"android":"levelo://app?vid=be03396d-5ca5-445a-8a7c-479671147935","ios":"levelo://app?vid=be03396d-5ca5-445a-8a7c-479671147935"},"vehicle_type_id":"4","last_reported":1714414147,"current_range_meters":6800,"station_id":"ce4bh0p2rcd13ifvqd70","pricing_plan_id":"cebpf4jnsgd1na2vs0mg"},{"bike_id":"04701eba-8942-4ada-ac25-6f2d4a10dde4","system_id":"levelo_inurba_marseille","lat":43.302008,"lon":5.394694,"is_reserved":false,"is_disabled":false,"rental_uris":{"android":"levelo://app?vid=04701eba-8942-4ada-ac25-6f2d4a10dde4","ios":"levelo://app?vid=04701eba-8942-4ada-ac25-6f2d4a10dde4"},"vehicle_type_id":"4","last_reported":1714414147,"current_range_meters":2000,"station_id":"ce4bh0p2rcd13ifvqd70","pricing_plan_id":"cebpf4jnsgd1na2vs0mg"},{"bike_id":"a8313e0d-bee4-4a50-bc0e-06d6fcdb493a","system_id":"levelo_inurba_marseille","lat":43.30209,"lon":5.3946,"is_reserved":false,"is_disabled":false,"rental_uris":{"android":"levelo://app?vid=a8313e0d-bee4-4a50-bc0e-06d6fcdb493a","ios":"levelo://app?vid=a8313e0d-bee4-4a50-bc0e-06d6fcdb493a"},"vehicle_type_id":"4","last_reported":1714414147,"current_range_meters":0,"station_id":"ce4bh0p2rcd13ifvqd70","pricing_plan_id":"cebpf4jnsgd1na2vs0mg"},{"bike_id":"ad318097-3db5-455a-b4a4-e281398c1f92","system_id":"levelo_inurba_marseille","lat":43.3021,"lon":5.39461,"is_reserved":false,"is_disabled":false,"rental_uris":{"android":"levelo://app?vid=ad318097-3db5-455a-b4a4-e281398c1f92","ios":"levelo://app?vid=ad318097-3db5-455a-b4a4-e281398c1f92"},"vehicle_type_id":"4","last_reported":1714414147,"current_range_meters":0,"station_id":"ce4bh0p2rcd13ifvqd70","pricing_plan_id":"cebpf4jnsgd1na2vs0mg"},{"bike_id":"ce4cccbc-db35-458f-a75a-21a8528be306","system_id":"levelo_inurba_marseille","lat":43.302008,"lon":5.394694,"is_reserved":false,"is_disabled":false,"rental_uris":{"android":"levelo://app?vid=ce4cccbc-db35-458f-a75a-21a8528be306","ios":"levelo://app?vid=ce4cccbc-db35-458f-a75a-21a8528be306"},"vehicle_type_id":"4","last_reported":1714414147,"current_range_meters":24800,"station_id":"ce4bh0p2rcd13ifvqd70","pricing_plan_id":"cebpf4jnsgd1na2vs0mg"},{"bike_id":"d6e4667a-aafb-4e09-8ce9-70d0536cbfaa","system_id":"levelo_inurba_marseille","lat":43.302008,"lon":5.394694,"is_reserved":false,"is_disabled":false,"rental_uris":{"android":"levelo://app?vid=d6e4667a-aafb-4e09-8ce9-70d0536cbfaa","ios":"levelo://app?vid=d6e4667a-aafb-4e09-8ce9-70d0536cbfaa"},"vehicle_type_id":"4","last_reported":1714414147,"current_range_meters":16400,"station_id":"ce4bh0p2rcd13ifvqd70","pricing_plan_id":"cebpf4jnsgd1na2vs0mg"},{"bike_id":"d0cf1867-8973-468b-b99a-7c7832849afd","system_id":"levelo_inurba_marseille","lat":43.302008,"lon":5.394694,"is_reserved":false,"is_disabled":false,"rental_uris":{"android":"levelo://app?vid=d0cf1867-8973-468b-b99a-7c7832849afd","ios":"levelo://app?vid=d0cf1867-8973-468b-b99a-7c7832849afd"},"vehicle_type_id":"4","last_reported":1714414147,"current_range_meters":400,"station_id":"ce4bh0p2rcd13ifvqd70","pricing_plan_id":"cebpf4jnsgd1na2vs0mg"},{"bike_id":"165aeec1-222e-464f-9167-e3cfe6934166","system_id":"levelo_inurba_marseille","lat":43.290624,"lon":5.359245,"is_reserved":false,"is_disabled":false,"rental_uris":{"android":"levelo://app?vid=165aeec1-222e-464f-9167-e3cfe6934166","ios":"levelo://app?vid=165aeec1-222e-464f-9167-e3cfe6934166"},"vehicle_type_id":"4","last_reported":1714414147,"current_range_meters":30000,"station_id":"ce4bha92rcd13ifvqeg0","pricing_plan_id":"cebpf4jnsgd1na2vs0mg"},{"bike_id":"c7993405-1b8d-455c-acaf-c77fd68f7e76","system_id":"levelo_inurba_marseille","lat":43.302008,"lon":5.394694,"is_reserved":false,"is_disabled":false,"rental_uris":{"android":"levelo://app?vid=c7993405-1b8d-455c-acaf-c77fd68f7e76","ios":"levelo://app?vid=c7993405-1b8d-455c-acaf-c77fd68f7e76"},"vehicle_type_id":"4","last_reported":1714414147,"current_range_meters":19600,"station_id":"ce4bh0p2rcd13ifvqd70","pricing_plan_id":"cebpf4jnsgd1na2vs0mg"},{"bike_id":"7ca20631-1cfc-4a4b-beb7-623e93188943","system_id":"levelo_inurba_marseille","lat":43.302008,"lon":5.394694,"is_reserved":false,"is_disabled":false,"rental_uris":{"android":"levelo://app?vid=7ca20631-1cfc-4a4b-beb7-623e93188943","ios":"levelo://app?vid=7ca20631-1cfc-4a4b-beb7-623e93188943"},"vehicle_type_id":"4","last_reported":1714414147,"current_range_meters":22400,"station_id":"ce4bh0p2rcd13ifvqd70","pricing_plan_id":"cebpf4jnsgd1na2vs0mg"},{"bike_id":"ad6fd122-91fb-46a8-8c4a-ce963580ad0f","system_id":"levelo_inurba_marseille","lat":43.302008,"lon":5.394694,"is_reserved":false,"is_disabled":false,"rental_uris":{"android":"levelo://app?vid=ad6fd122-91fb-46a8-8c4a-ce963580ad0f","ios":"levelo://app?vid=ad6fd122-91fb-46a8-8c4a-ce963580ad0f"},"vehicle_type_id":"4","last_reported":1714414147,"current_range_meters":31200,"station_id":"ce4bh0p2rcd13ifvqd70","pricing_plan_id":"cebpf4jnsgd1na2vs0mg"},{"bike_id":"2378e922-c27d-440f-a268-f82bbb1c9a80","system_id":"levelo_inurba_marseille","lat":43.290624,"lon":5.359245,"is_reserved":false,"is_disabled":false,"rental_uris":{"android":"levelo://app?vid=2378e922-c27d-440f-a268-f82bbb1c9a80","ios":"levelo://app?vid=2378e922-c27d-440f-a268-f82bbb1c9a80"},"vehicle_type_id":"4","last_reported":1714414147,"current_range_meters":10800,"station_id":"ce4bha92rcd13ifvqeg0","pricing_plan_id":"cebpf4jnsgd1na2vs0mg"},{"bike_id":"d3118795-6dd5-4162-be29-8ff1cd2512a2","system_id":"levelo_inurba_marseille","lat":43.290631,"lon":5.359244,"is_reserved":false,"is_disabled":false,"rental_uris":{"android":"levelo://app?vid=d3118795-6dd5-4162-be29-8ff1cd2512a2","ios":"levelo://app?vid=d3118795-6dd5-4162-be29-8ff1cd2512a2"},"vehicle_type_id":"4","last_reported":1714414147,"current_range_meters":28000,"station_id":"ce4bha92rcd13ifvqeg0","pricing_plan_id":"cebpf4jnsgd1na2vs0mg"},{"bike_id":"73f33cd7-9530-4a49-b79c-248a443eb5cd","system_id":"levelo_inurba_marseille","lat":43.293245,"lon":5.38376,"is_reserved":false,"is_disabled":false,"rental_uris":{"android":"levelo://app?vid=73f33cd7-9530-4a49-b79c-248a443eb5cd","ios":"levelo://app?vid=73f33cd7-9530-4a49-b79c-248a443eb5cd"},"vehicle_type_id":"4","last_reported":1714414147,"current_range_meters":800,"station_id":"ce4bh692rcd13ifvqea0","pricing_plan_id":"cebpf4jnsgd1na2vs0mg"},{"bike_id":"08f3d5ab-75b1-4389-b082-b255df16b629","system_id":"levelo_inurba_marseille","lat":43.290631,"lon":5.359244,"is_reserved":false,"is_disabled":false,"rental_uris":{"android":"levelo://app?vid=08f3d5ab-75b1-4389-b082-b255df16b629","ios":"levelo://app?vid=08f3d5ab-75b1-4389-b082-b255df16b629"},"vehicle_type_id":"4","last_reported":1714414147,"current_range_meters":28800,"station_id":"ce4bha92rcd13ifvqeg0","pricing_plan_id":"cebpf4jnsgd1na2vs0mg"},{"bike_id":"7386a8ad-85ac-4c80-b2eb-fe77b8e86d31","system_id":"levelo_inurba_marseille","lat":43.29437,"lon":5.386378,"is_reserved":false,"is_disabled":false,"rental_uris":{"android":"levelo://app?vid=7386a8ad-85ac-4c80-b2eb-fe77b8e86d31","ios":"levelo://app?vid=7386a8ad-85ac-4c80-b2eb-fe77b8e86d31"},"vehicle_type_id":"4","last_reported":1714414147,"current_range_meters":4800,"station_id":"ce4bh2h2rcd13ifvqdh0","pricing_plan_id":"cebpf4jnsgd1na2vs0mg"},{"bike_id":"69d6dce0-a1b3-430a-9086-8c29241109d2","system_id":"levelo_inurba_marseille","lat":43.29424,"lon":5.38615,"is_reserved":false,"is_disabled":false,"rental_uris":{"android":"levelo://app?vid=69d6dce0-a1b3-430a-9086-8c29241109d2","ios":"levelo://app?vid=69d6dce0-a1b3-430a-9086-8c29241109d2"},"vehicle_type_id":"4","last_reported":1714414147,"current_range_meters":7200,"station_id":"ce4bh2h2rcd13ifvqdh0","pricing_plan_id":"cebpf4jnsgd1na2vs0mg"},{"bike_id":"fe14d206-61ec-4583-a23a-02711fa9e527","system_id":"levelo_inurba_marseille","lat":43.29425,"lon":5.38621,"is_reserved":false,"is_disabled":false,"rental_uris":{"android":"levelo://app?vid=fe14d206-61ec-4583-a23a-02711fa9e527","ios":"levelo://app?vid=fe14d206-61ec-4583-a23a-02711fa9e527"},"vehicle_type_id":"4","last_reported":1714414147,"current_range_meters":0,"station_id":"ce4bh2h2rcd13ifvqdh0","pricing_plan_id":"cebpf4jnsgd1na2vs0mg"},{"bike_id":"d792dbfc-eb27-44eb-b68f-96e7bc1e5dab","system_id":"levelo_inurba_marseille","lat":43.289468,"lon":5.363719,"is_reserved":false,"is_disabled":false,"rental_uris":{"android":"levelo://app?vid=d792dbfc-eb27-44eb-b68f-96e7bc1e5dab","ios":"levelo://app?vid=d792dbfc-eb27-44eb-b68f-96e7bc1e5dab"},"vehicle_type_id":"4","last_reported":1714414147,"current_range_meters":0,"station_id":"ce4bhc92rcd13ifvqetg","pricing_plan_id":"cebpf4jnsgd1na2vs0mg"},{"bike_id":"b33aa869-6bcc-4157-b615-ee2bc9c7ec07","system_id":"levelo_inurba_marseille","lat":43.29424,"lon":5.38624,"is_reserved":false,"is_disabled":false,"rental_uris":{"android":"levelo://app?vid=b33aa869-6bcc-4157-b615-ee2bc9c7ec07","ios":"levelo://app?vid=b33aa869-6bcc-4157-b615-ee2bc9c7ec07"},"vehicle_type_id":"4","last_reported":1714414147,"current_range_meters":10800,"station_id":"ce4bh2h2rcd13ifvqdh0","pricing_plan_id":"cebpf4jnsgd1na2vs0mg"},