{"last_updated":1762953955,"ttl":60,"version":"2.2","data":{"bikes":[{"bike_id":"d7db12ce-11cc-4c98-8751-ac59baa5d7aa","system_id":"levelo_inurba_marseille","lat":43.337444,"lon":5.374475,"is_reserved":false,"is_disabled":false,"rental_uris":{"android":"levelo://app?vid=d7db12ce-11cc-4c98-8751-ac59baa5d7aa","ios":"levelo://app?vid=d7db12ce-11cc-4c98-8751-ac59baa5d7aa"},"vehicle_type_id":"4","last_reported":1762953955,"current_range_meters":0,"station_id":"","pricing_plan_id":"cebpf4jnsgd1na2vs0mg"},{"bike_id":"b4dc591c-2e75-4abb-abc1-710cf5731622","system_id":"levelo_inurba_marseille","lat":43.29099,"lon":5.38155,"is_reserved":false,"is_disabled":false,"rental_uris":{"android":"levelo://app?vid=b4dc591c-2e75-4abb-abc1-710cf5731622","ios":"levelo://app?vid=b4dc591c-2e75-4abb-abc1-710cf5731622"},"vehicle_type_id":"4","last_reported":1762953955,"current_range_meters":2800,"station_id":"ce4bh512rcd13ifvqe2g","pricing_plan_id":"cebpf4jnsgd1na2vs0mg"},{"bike_id":"a9ded955-5aa4-4d4e-ab97-eeb9660911ef","system_id":"levelo_inurba_marseille","lat":43.28984,"lon":5.37839,"is_reserved":false,"is_disabled":false,"rental_uris":{"android":"levelo://app?vid=a9ded955-5aa4-4d4e-ab97-eeb9660911ef","ios":"levelo://app?vid=a9ded955-5aa4-4d4e-ab97-eeb9660911ef"},"vehicle_type_id":"4","last_reported":1762953955,"current_range_meters":2800,"station_id":"ce4bh9p2rcd13ifvqed0","pricing_plan_id":"cebpf4jnsgd1na2vs0mg"},{"bike_id":"709c873c-21f6-4ac8-b343-c5d117970376","system_id":"levelo_inurba_marseille","lat":43.306451,"lon":5.401037,"is_reserved":false,"is_disabled":false,"rental_uris":{"android":"levelo://app?vid=709c873c-21f6-4ac8-b343-c5d117970376","ios":"levelo://app?vid=709c873c-21f6-4ac8-b343-c5d117970376"},"vehicle_type_id":"4","last_reported":1762953955,"current_range_meters":2800,"station_id":"ce4bh112rcd13ifvqda0","pricing_plan_id":"cebpf4jnsgd1na2vs0mg"},{"bike_id":"8b2d6797-63f3-48e3-9e2f-e6d7fb21a570","system_id":"levelo_inurba_marseille","lat":43.24067,"lon":5.3777,"is_reserved":false,"is_disabled":false,"rental_uris":{"android":"levelo://app?vid=8b2d6797-63f3-48e3-9e2f-e6d7fb21a570","ios":"levelo://app?vid=8b2d6797-63f3-48e3-9e2f-e6d7fb21a570"},"vehicle_type_id":"4","last_reported":1762953955,"current_range_meters":2800,"station_id":"ce4bhnp2rcd13ifvqgvg","pricing_plan_id":"cebpf4jnsgd1na2vs0mg"},{"bike_id":"f6549491-954c-496f-b73b-3486bd61d1e5","system_id":"levelo_inurba_marseille","lat":43.27318,"lon":5.39077,"is_reserved":false,"is_disabled":false,"rental_uris":{"android":"levelo://app?vid=f6549491-954c-496f-b73b-3486bd61d1e5","ios":"levelo://app?vid=f6549491-954c-496f-b73b-3486bd61d1e5"},"vehicle_type_id":"4","last_reported":1762953955,"current_range_meters":2800,"station_id":"ce4bhgp2rcd13ifvqfe0","pricing_plan_id":"cebpf4jnsgd1na2vs0mg"},{"bike_id":"d54e1bcc-b477-40d6-b639-f6295eb19f8c","system_id":"levelo_inurba_marseille","lat":43.298684,"lon":5.39727,"is_reserved":false,"is_disabled":false,"rental_uris":{"android":"levelo://app?vid=d54e1bcc-b477-40d6-b639-f6295eb19f8c","ios":"levelo://app?vid=d54e1bcc-b477-40d6-b639-f6295eb19f8c"},"vehicle_type_id":"4","last_reported":1762953955,"current_range_meters":3200,"station_id":"ce4bh0h2rcd13ifvqd50","pricing_plan_id":"cebpf4jnsgd1na2vs0mg"},{"bike_id":"b2be4fa2-44ee-40dc-acc7-1755c74f1c5d","system_id":"levelo_inurba_marseille","lat":43.297448,"lon":5.411131,"is_reserved":false,"is_disabled":false,"rental_uris":{"android":"levelo://app?vid=b2be4fa2-44ee-40dc-acc7-1755c74f1c5d","ios":"levelo://app?vid=b2be4fa2-44ee-40dc-acc7-1755c74f1c5d"},"vehicle_type_id":"4","last_reported":1762953955,"current_range_meters":3200,"station_id":"","pricing_plan_id":"cebpf4jnsgd1na2vs0mg"},{"bike_id":"210e7d48-c12d-44ce-bb0e-3e1ebd1fb6a3","system_id":"levelo_inurba_marseille","lat":43.24996,"lon":5.38933,"is_reserved":false,"is_disabled":false,"rental_uris":{"android":"levelo://app?vid=210e7d48-c12d-44ce-bb0e-3e1ebd1fb6a3","ios":"levelo://app?vid=210e7d48-c12d-44ce-bb0e-3e1ebd1fb6a3"},"vehicle_type_id":"4","last_reported":1762953955,"current_range_meters":3600,"station_id":"ce4bhgp2rcd13ifvqfd0","pricing_plan_id":"cebpf4jnsgd1na2vs0mg"},{"bike_id":"4e5ac8d6-c85d-4e9c-a1a0-22f46ab491fc","system_id":"levelo_inurba_marseille","lat":43.303054,"lon":5.392194,"is_reserved":false,"is_disabled":false,"rental_uris":{"android":"levelo://app?vid=4e5ac8d6-c85d-4e9c-a1a0-22f46ab491fc","ios":"levelo://app?vid=4e5ac8d6-c85d-4e9c-a1a0-22f46ab491fc"},"vehicle_type_id":"4","last_reported":1762953955,"current_range_meters":4000,"station_id":"ce4bgkh2rcd13ifvqbk0","pricing_plan_id":"cebpf4jnsgd1na2vs0mg"},{"bike_id":"a714915f-aff3-456a-ac83-82a945eab060","system_id":"levelo_inurba_marseille","lat":43.297598,"lon":5.427794,"is_reserved":false,"is_disabled":false,"rental_uris":{"android":"levelo://app?vid=a714915f-aff3-456a-ac83-82a945eab060","ios":"levelo://app?vid=a714915f-aff3-456a-ac83-82a945eab060"},"vehicle_type_id":"4","last_reported":1762953955,"current_range_meters":4000,"station_id":"st_d3md5207bmas73dh9klg","pricing_plan_id":"cebpf4jnsgd1na2vs0mg"},{"bike_id":"6e9dc9d0-ca21-40a7-a822-802a6194d26d","system_id":"levelo_inurba_marseille","lat":43.27662,"lon":5.38889,"is_reserved":false,"is_disabled":false,"rental_uris":{"android":"levelo://app?vid=6e9dc9d0-ca21-40a7-a822-802a6194d26d","ios":"levelo://app?vid=6e9dc9d0-ca21-40a7-a822-802a6194d26d"},"vehicle_type_id":"4","last_reported":1762953955,"current_range_meters":4000,"station_id":"ce4bhi12rcd13ifvqfo0","pricing_plan_id":"cebpf4jnsgd1na2vs0mg"},{"bike_id":"349b2ad9-adea-4dd9-9ac9-fffb121b5424","system_id":"levelo_inurba_marseille","lat":43.29892,"lon":5.37537,"is_reserved":false,"is_disabled":false,"rental_uris":{"android":"levelo://app?vid=349b2ad9-adea-4dd9-9ac9-fffb121b5424","ios":"levelo://app?vid=349b2ad9-adea-4dd9-9ac9-fffb121b5424"},"vehicle_type_id":"4","last_reported":1762953955,"current_range_meters":4400,"station_id":"","pricing_plan_id":"cebpf4jnsgd1na2vs0mg"},{"bike_id":"d52dd65b-e301-4e0a-b4c1-4e1df0630b48","system_id":"levelo_inurba_marseille","lat":43.25868,"lon":5.39897,"is_reserved":false,"is_disabled":false,"rental_uris":{"android":"levelo://app?vid=d52dd65b-e301-4e0a-b4c1-4e1df0630b48","ios":"levelo://app?vid=d52dd65b-e301-4e0a-b4c1-4e1df0630b48"},"vehicle_type_id":"4","last_reported":1762953955,"current_range_meters":4400,"station_id":"ce4bhl92rcd13ifvqghg","pricing_plan_id":"cebpf4jnsgd1na2vs0mg"},{"bike_id":"0655422c-ed00-4a14-8564-fa2884d487df","system_id":"levelo_inurba_marseille","lat":43.27619,"lon":5.36115,"is_reserved":false,"is_disabled":false,"rental_uris":{"android":"levelo://app?vid=0655422c-ed00-4a14-8564-fa2884d487df","ios":"levelo://app?vid=0655422c-ed00-4a14-8564-fa2884d487df"},"vehicle_type_id":"4","last_reported":1762953955,"current_range_meters":4400,"station_id":"ce4bgj92rcd13ifvqbe0","pricing_plan_id":"cebpf4jnsgd1na2vs0mg"},{"bike_id":"48c95a84-06f3-4bb3-9acc-81b49637fcb2","system_id":"levelo_inurba_marseille","lat":43.29359,"lon":5.37845,"is_reserved":false,"is_disabled":false,"rental_uris":{"android":"levelo://app?vid=48c95a84-06f3-4bb3-9acc-81b49637fcb2","ios":"levelo://app?vid=48c95a84-06f3-4bb3-9acc-81b49637fcb2"},"vehicle_type_id":"4","last_reported":1762953955,"current_range_meters":4800,"station_id":"ce4bgjh2rcd13ifvqbf0","pricing_plan_id":"cebpf4jnsgd1na2vs0mg"},{"bike_id":"1085c68f-5eeb-447d-919e-ba64689a5d3d","system_id":"levelo_inurba_marseille","lat":43.29709,"lon":5.36611,"is_reserved":false,"is_disabled":false,"rental_uris":{"android":"levelo://app?vid=1085c68f-5eeb-447d-919e-ba64689a5d3d","ios":"levelo://app?vid=1085c68f-5eeb-447d-919e-ba64689a5d3d"},"vehicle_type_id":"4","last_reported":1762953955,"current_range_meters":4800,"station_id":"ce4bgn12rcd13ifvqbt0","pricing_plan_id":"cebpf4jnsgd1na2vs0mg"},{"bike_id":"c620c9fc-398f-4dca-8fdd-2b652311235d","system_id":"levelo_inurba_marseille","lat":43.2119,"lon":5.35074,"is_reserved":false,"is_disabled":true,"rental_uris":{"android":"levelo://app?vid=c620c9fc-398f-4dca-8fdd-2b652311235d","ios":"levelo://app?vid=c620c9fc-398f-4dca-8fdd-2b652311235d"},"vehicle_type_id":"4","last_reported":1762953955,"current_range_meters":4800,"station_id":"st_cvj6sg6p6f1abm77japg","pricing_plan_id":"cebpf4jnsgd1na2vs0mg"},{"bike_id":"571e56d3-1595-4c04-800b-172fe524d7f6","system_id":"levelo_inurba_marseille","lat":43.25003,"lon":5.38927,"is_reserved":false,"is_disabled":false,"rental_uris":{"android":"levelo://app?vid=571e56d3-1595-4c04-800b-172fe524d7f6","ios":"levelo://app?vid=571e56d3-1595-4c04-800b-172fe524d7f6"},"vehicle_type_id":"4","last_reported":1762953955,"current_range_meters":4800,"station_id":"ce4bhgp2rcd13ifvqfd0","pricing_plan_id":"cebpf4jnsgd1na2vs0mg"},{"bike_id":"375d4787-7c30-41c9-90f9-ec9402419854","system_id":"levelo_inurba_marseille","lat":43.25574,"lon":5.38233,"is_reserved":false,"is_disabled":false,"rental_uris":{"android":"levelo://app?vid=375d4787-7c30-41c9-90f9-ec9402419854","ios":"levelo://app?vid=375d4787-7c30-41c9-90f9-ec9402419854"},"vehicle_type_id":"4","last_reported":1762953955,"current_range_meters":4800,"station_id":"ce4bhih2rcd13ifvqfs0","pricing_plan_id":"cebpf4jnsgd1na2vs0mg"},{"bike_id":"767c5881-e6bd-43c6-9d36-bebaf00ca485","system_id":"levelo_inurba_marseille","lat":43.21194,"lon":5.350762,"is_reserved":false,"is_disabled":false,"rental_uris":{"android":"levelo://app?vid=767c5881-e6bd-43c6-9d36-bebaf00ca485","ios":"levelo://app?vid=767c5881-e6bd-43c6-9d36-bebaf00ca485"},"vehicle_type_id":"4","last_reported":1762953955,"current_range_meters":5600,"station_id":"","pricing_plan_id":"cebpf4jnsgd1na2vs0mg"},{"bike_id":"dfe2d4de-083b-44cd-ae78-247c5431e8dc","system_id":"levelo_inurba_marseille","lat":43.29279,"lon":5.40118,"is_reserved":false,"is_disabled":false,"rental_uris":{"android":"levelo://app?vid=dfe2d4de-083b-44cd-ae78-247c5431e8dc","ios":"levelo://app?vid=dfe2d4de-083b-44cd-ae78-247c5431e8dc"},"vehicle_type_id":"4","last_reported":1762953955,"current_range_meters":5600,"station_id":"ce4bh312rcd13ifvqdk0","pricing_plan_id":"cebpf4jnsgd1na2vs0mg"},{"bike_id":"16352e7f-c034-4ef1-8a6e-b54abc767aa3","system_id":"levelo_inurba_marseille","lat":43.31182,"lon":5.38201,"is_reserved":false,"is_disabled":false,"rental_uris":{"android":"levelo://app?vid=16352e7f-c034-4ef1-8a6e-b54abc767aa3","ios":"levelo://app?vid=16352e7f-c034-4ef1-8a6e-b54abc767aa3"},"vehicle_type_id":"4","last_reported":1762953955,"current_range_meters":5600,"station_id":"","pricing_plan_id":"cebpf4jnsgd1na2vs0mg"},{"bike_id":"2fd8be53-e476-4744-bd05-a38b1d37e6b5","system_id":"levelo_inurba_marseille","lat":43.28592,"lon":5.37075,"is_reserved":false,"is_disabled":false,"rental_uris":{"android":"levelo://app?vid=2fd8be53-e476-4744-bd05-a38b1d37e6b5","ios":"levelo://app?vid=2fd8be53-e476-4744-bd05-a38b1d37e6b5"},"vehicle_type_id":"4","last_reported":1762953955,"current_range_meters":5600,"station_id":"ce4bht12rcd13ifvqi60","pricing_plan_id":"cebpf4jnsgd1na2vs0mg"},{"bike_id":"0c7d1149-3aef-4947-adc3-e2c5fbfa82eb","system_id":"levelo_inurba_marseille","lat":43.29608,"lon":5.406,"is_reserved":false,"is_disabled":false,"rental_uris":{"android":"levelo://app?vid=0c7d1149-3aef-4947-adc3-e2c5fbfa82eb","ios":"levelo://app?vid=0c7d1149-3aef-4947-adc3-e2c5fbfa82eb"},"vehicle_type_id":"4","last_reported":1762953955,"current_range_meters":5600,"station_id":"ce4bh0h2rcd13ifvqd60","pricing_plan_id":"cebpf4jnsgd1na2vs0mg"},{"bike_id":"3f2b2a02-6967-458e-9b3d-1f751b3c6d08","system_id":"levelo_inurba_marseille","lat":43.30538,"lon":5.36551,"is_reserved":false,"is_disabled":false,"rental_uris":{"android":"levelo://app?vid=3f2b2a02-6967-458e-9b3d-1f751b3c6d08","ios":"levelo://app?vid=3f2b2a02-6967-458e-9b3d-1f751b3c6d08"},"vehicle_type_id":"4","last_reported":1762953955,"current_range_meters":5600,"station_id":"ce4bgs12rcd13ifvqcag","pricing_plan_id":"cebpf4jnsgd1na2vs0mg"},{"bike_id":"f576a472-224e-40fe-a74a-63b1575dd917","system_id":"levelo_inurba_marseille","lat":43.24394,"lon":5.37065,"is_reserved":false,"is_disabled":false,"rental_uris":{"android":"levelo://app?vid=f576a472-224e-40fe-a74a-63b1575dd917","ios":"levelo://app?vid=f576a472-224e-40fe-a74a-63b1575dd917"},"vehicle_type_id":"4","last_reported":1762953955,"current_range_meters":6000,"station_id":"ce4bhhh2rcd13ifvqfk0","pricing_plan_id":"cebpf4jnsgd1na2vs0mg"},{"bike_id":"70aa4417-e36a-4185-bc65-59e51d0a39b9","system_id":"levelo_inurba_marseille","lat":43.299408,"lon":5.372171,"is_reserved":false,"is_disabled":false,"rental_uris":{"android":"levelo://app?vid=70aa4417-e36a-4185-bc65-59e51d0a39b9","ios":"levelo://app?vid=70aa4417-e36a-4185-bc65-59e51d0a39b9"},"vehicle_type_id":"4","last_reported":1762953955,"current_range_meters":6000,"station_id":"ce4bgr92rcd13ifvqc7g","pricing_plan_id":"cebpf4jnsgd1na2vs0mg"},{"bike_id":"fbd42439-d50e-411a-b22f-ba06b63b26e1","system_id":"levelo_inurba_marseille","lat":43.255085,"lon":5.38204,"is_reserved":false,"is_disabled":false,"rental_uris":{"android":"levelo://app?vid=fbd42439-d50e-411a-b22f-ba06b63b26e1","ios":"levelo://app?vid=fbd42439-d50e-411a-b22f-ba06b63b26e1"},"vehicle_type_id":"4","last_reported":1762953955,"current_range_meters":6000,"station_id":"ce4bho92rcd13ifvqh4g","pricing_plan_id":"cebpf4jnsgd1na2vs0mg"},{"bike_id":"d7026fc3-a346-49bd-8209-179291ba2736","system_id":"levelo_inurba_marseille","lat":43.298564,"lon":5.383954,"is_reserved":false,"is_disabled":false,"rental_uris":{"android":"levelo://app?vid=d7026fc3-a346-49bd-8209-179291ba2736","ios":"levelo://app?vid=d7026fc3-a346-49bd-8209-179291ba2736"},"vehicle_type_id":"4","last_reported":1762953955,"current_range_meters":6000,"station_id":"","pricing_plan_id":"cebpf4jnsgd1na2vs0mg"},{"bike_id":"589be681-6f6f-46cf-bc7b-069ad4f326eb","system_id":"levelo_inurba_marseille","lat":43.324752,"lon":5.365553,"is_reserved":false,"is_disabled":false,"rental_uris":{"android":"levelo://app?vid=589be681-6f6f-46cf-bc7b-069ad4f326eb","ios":"levelo://app?vid=589be681-6f6f-46cf-bc7b-069ad4f326eb"},"vehicle_type_id":"4","last_reported":1762953955,"current_range_meters":6400,"station_id":"ce4bhs12rcd13ifvqhvg","pricing_plan_id":"cebpf4jnsgd1na2vs0mg"},{"bike_id":"daf2c91c-6027-4dd1-91f9-50770a70c876","system_id":"levelo_inurba_marseille","lat":43.27993,"lon":5.41665,"is_reserved":false,"is_disabled":false,"rental_uris":{"android":"levelo://app?vid=daf2c91c-6027-4dd1-91f9-50770a70c876","ios":"levelo://app?vid=daf2c91c-6027-4dd1-91f9-50770a70c876"},"vehicle_type_id":"4","last_reported":1762953955,"current_range_meters":6400,"station_id":"ce4bho12rcd13ifvqh1g","pricing_plan_id":"cebpf4jnsgd1na2vs0mg"},{"bike_id":"8bc7ccc9-de8d-478c-811e-744d712fd3ec","system_id":"levelo_inurba_marseille","lat":43.27071,"lon":5.42281,"is_reserved":false,"is_disabled":false,"rental_uris":{"android":"levelo://app?vid=8bc7ccc9-de8d-478c-811e-744d712fd3ec","ios":"levelo://app?vid=8bc7ccc9-de8d-478c-811e-744d712fd3ec"},"vehicle_type_id":"4","last_reported":1762953955,"current_range_meters":6400,"station_id":"ce4bhk92rcd13ifvqgb0","pricing_plan_id":"cebpf4jnsgd1na2vs0mg"},{"bike_id":"e0467342-2ee8-4c36-aeb9-27d25d94ead5","system_id":"levelo_inurba_marseille","lat":43.28161,"lon":5.42634,"is_reserved":false,"is_disabled":true,"rental_uris":{"android":"levelo://app?vid=e0467342-2ee8-4c36-aeb9-27d25d94ead5","ios":"levelo://app?vid=e0467342-2ee8-4c36-aeb9-27d25d94ead5"},"vehicle_type_id":"4","last_reported":1762953955,"current_range_meters":6400,"station_id":"ce4bhnh2rcd13ifvqgug","pricing_plan_id":"cebpf4jnsgd1na2vs0mg"},{"bike_id":"6a5e76f6-56de-4a62-8f3b-a05f01f56411","system_id":"levelo_inurba_marseille","lat":43.211975,"lon":5.350733,"is_reserved":false,"is_disabled":false,"rental_uris":{"android":"levelo://app?vid=6a5e76f6-56de-4a62-8f3b-a05f01f56411","ios":"levelo://app?vid=6a5e76f6-56de-4a62-8f3b-a05f01f56411"},"vehicle_type_id":"4","last_reported":1762953955,"current_range_meters":6400,"station_id":"","pricing_plan_id":"cebpf4jnsgd1na2vs0mg"},{"bike_id":"f210c5d9-e6c9-4a47-a92c-7d32d99c058f","system_id":"levelo_inurba_marseille","lat":43.303512,"lon":5.39697,"is_reserved":false,"is_disabled":false,"rental_uris":{"android":"levelo://app?vid=f210c5d9-e6c9-4a47-a92c-7d32d99c058f","ios":"levelo://app?vid=f210c5d9-e6c9-4a47-a92c-7d32d99c058f"},"vehicle_type_id":"4","last_reported":1762953955,"current_range_meters":6800,"station_id":"","pricing_plan_id":"cebpf4jnsgd1na2vs0mg"},{"bike_id":"9aab732d-99d8-458a-aff5-1ef833353481","system_id":"levelo_inurba_marseille","lat":43.29836,"lon":5.37762,"is_reserved":false,"is_disabled":false,"rental_uris":{"android":"levelo://app?vid=9aab732d-99d8-458a-aff5-1ef833353481","ios":"levelo://app?vid=9aab732d-99d8-458a-aff5-1ef833353481"},"vehicle_type_id":"4","last_reported":1762953955,"current_range_meters":6800,"station_id":"","pricing_plan_id":"cebpf4jnsgd1na2vs0mg"},{"bike_id":"ec4bf1af-038a-4514-b1cb-eda85ffaaddf","system_id":"levelo_inurba_marseille","lat":43.30956,"lon":5.39064,"is_reserved":false,"is_disabled":false,"rental_uris":{"android":"levelo://app?vid=ec4bf1af-038a-4514-b1cb-eda85ffaaddf","ios":"levelo://app?vid=ec4bf1af-038a-4514-b1cb-eda85ffaaddf"},"vehicle_type_id":"4","last_reported":1762953955,"current_range_meters":6800,"station_id":"ce4bgup2rcd13ifvqco0","pricing_plan_id":"cebpf4jnsgd1na2vs0mg"},{"bike_id":"1bef32cb-7d1e-4303-a020-1532c28fd3d9","system_id":"levelo_inurba_marseille","lat":43.295489,"lon":5.422912,"is_reserved":false,"is_disabled":false,"rental_uris":{"android":"levelo://app?vid=1bef32cb-7d1e-4303-a020-1532c28fd3d9","ios":"levelo://app?vid=1bef32cb-7d1e-4303-a020-1532c28fd3d9"},"vehicle_type_id":"4","last_reported":1762953955,"current_range_meters":6800,"station_id":"ce4bhph2rcd13ifvqhdg","pricing_plan_id":"cebpf4jnsgd1na2vs0mg"},{"bike_id":"46fb0a8e-e279-4db3-ac54-104e6031c1dc","system_id":"levelo_inurba_marseille","lat":43.28039,"lon":5.36952,"is_reserved":false,"is_disabled":false,"rental_uris":{"android":"levelo://app?vid=46fb0a8e-e279-4db3-ac54-104e6031c1dc","ios":"levelo://app?vid=46fb0a8e-e279-4db3-ac54-104e6031c1dc"},"vehicle_type_id":"4","last_reported":1762953955,"current_range_meters":6800,"station_id":"ce4bha12rcd13ifvqef0","pricing_plan_id":"cebpf4jnsgd1na2vs0mg"},{"bike_id":"861892f2-0af0-40fe-b698-191d9906341b","system_id":"levelo_inurba_marseille","lat":43.30872,"lon":5.371898,"is_reserved":false,"is_disabled":true,"rental_uris":{"android":"levelo://app?vid=861892f2-0af0-40fe-b698-191d9906341b","ios":"levelo://app?vid=861892f2-0af0-40fe-b698-191d9906341b"},"vehicle_type_id":"4","last_reported":1762953955,"current_range_meters":7200,"station_id":"ce4bguh2rcd13ifvqckg","pricing_plan_id":"cebpf4jnsgd1na2vs0mg"},{"bike_id":"943e2702-3531-472b-90dc-8d25efe2b151","system_id":"levelo_inurba_marseille","lat":43.25559,"lon":5.38258,"is_reserved":false,"is_disabled":false,"rental_uris":{"android":"levelo://app?vid=943e2702-3531-472b-90dc-8d25efe2b151","ios":"levelo://app?vid=943e2702-3531-472b-90dc-8d25efe2b151"},"vehicle_type_id":"4","last_reported":1762953955,"current_range_meters":7200,"station_id":"ce4bhih2rcd13ifvqfs0","pricing_plan_id":"cebpf4jnsgd1na2vs0mg"},{"bike_id":"2f8a9bd5-2c7b-44b2-8ad4-92020b307726","system_id":"levelo_inurba_marseille","lat":43.29725,"lon":5.37695,"is_reserved":false,"is_disabled":false,"rental_uris":{"android":"levelo://app?vid=2f8a9bd5-2c7b-44b2-8ad4-92020b307726","ios":"levelo://app?vid=2f8a9bd5-2c7b-44b2-8ad4-92020b307726"},"vehicle_type_id":"4","last_reported":1762953955,"current_range_meters":7200,"station_id":"ce4bgkh2rcd13ifvqbl0","pricing_plan_id":"cebpf4jnsgd1na2vs0mg"},{"bike_id":"41a78d72-fc8e-4333-938a-c9033162eafa","system_id":"levelo_inurba_marseille","lat":43.291943,"lon":5.358829,"is_reserved":false,"is_disabled":false,"rental_uris":{"android":"levelo://app?vid=41a78d72-fc8e-4333-938a-c9033162eafa","ios":"levelo://app?vid=41a78d72-fc8e-4333-938a-c9033162eafa"},"vehicle_type_id":"4","last_reported":1762953955,"current_range_meters":7200,"station_id":"ce4bhb12rcd13ifvqel0","pricing_plan_id":"cebpf4jnsgd1na2vs0mg"},{"bike_id":"cdc5cd94-006c-4395-8266-367ea7555858","system_id":"levelo_inurba_marseille","lat":43.2988,"lon":5.38378,"is_reserved":false,"is_disabled":false,"rental_uris":{"android":"levelo://app?vid=cdc5cd94-006c-4395-8266-367ea7555858","ios":"levelo://app?vid=cdc5cd94-006c-4395-8266-367ea7555858"},"vehicle_type_id":"4","last_reported":1762953955,"current_range_meters":7200,"station_id":"ce4bgj92rcd13ifvqbd0","pricing_plan_id":"cebpf4jnsgd1na2vs0mg"},{"bike_id":"62a14efb-5f7a-4e0d-bbfa-d4a60d07f475","system_id":"levelo_inurba_marseille","lat":43.29765,"lon":5.37301,"is_reserved":false,"is_disabled":false,"rental_uris":{"android":"levelo://app?vid=62a14efb-5f7a-4e0d-bbfa-d4a60d07f475","ios":"levelo://app?vid=62a14efb-5f7a-4e0d-bbfa-d4a60d07f475"},"vehicle_type_id":"4","last_reported":1762953955,"current_range_meters":8000,"station_id":"","pricing_plan_id":"cebpf4jnsgd1na2vs0mg"},{"bike_id":"72f1a992-a650-4077-b7aa-6add019bc672","system_id":"levelo_inurba_marseille","lat":43.31756,"lon":5.39032,"is_reserved":false,"is_disabled":false,"rental_uris":{"android":"levelo://app?vid=72f1a992-a650-4077-b7aa-6add019bc672","ios":"levelo://app?vid=72f1a992-a650-4077-b7aa-6add019bc672"},"vehicle_type_id":"4","last_reported":1762953955,"current_range_meters":8000,"station_id":"ce4bhqp2rcd13ifvqhng","pricing_plan_id":"cebpf4jnsgd1na2vs0mg"},{"bike_id":"352e913e-a401-42df-ba38-8511a308c603","system_id":"levelo_inurba_marseille","lat":43.29574,"lon":5.39965,"is_reserved":false,"is_disabled":false,"rental_uris":{"android":"levelo://app?vid=352e913e-a401-42df-ba38-8511a308c603","ios":"levelo://app?vid=352e913e-a401-42df-ba38-8511a308c603"},"vehicle_type_id":"4","last_reported":1762953955,"current_range_meters":8000,"station_id":"ce4bh312rcd13ifvqdj0","pricing_plan_id":"cebpf4jnsgd1na2vs0mg"},{"bike_id":"e0ed7929-20a1-4d5c-ab67-3994c5a84870","system_id":"levelo_inurba_marseille","lat":43.252316,"lon":5.406327,"is_reserved":false,"is_disabled":false,"rental_uris":{"android":"levelo://app?vid=e0ed7929-20a1-4d5c-ab67-3994c5a84870","ios":"levelo://app?vid=e0ed7929-20a1-4d5c-ab67-3994c5a84870"},"vehicle_type_id":"4","last_reported":1762953955,"current_range_meters":8000,"station_id":"","pricing_plan_id":"cebpf4jnsgd1na2vs0mg"},{"bike_id":"020a5504-0ac7-4772-82ee-29ce00917790","system_id":"levelo_inurba_marseille","lat":43.2499,"lon":5.38939,"is_reserved":false,"is_disabled":false,"rental_uris":{"android":"levelo://app?vid=020a5504-0ac7-4772-82ee-29ce00917790","ios":"levelo://app?vid=020a5504-0ac7-4772-82ee-29ce00917790"},"vehicle_type_id":"4","last_reported":1762953955,"current_range_meters":8000,"station_id":"ce4bhgp2rcd13ifvqfd0","pricing_plan_id":"cebpf4jnsgd1na2vs0mg"},{"bike_id":"b1912dc6-562a-409a-b346-1626d61f3a69","system_id":"levelo_inurba_marseille","lat":43.25574,"lon":5.38238,"is_reserved":false,"is_disabled":true,"rental_uris":{"android":"levelo://app?vid=b1912dc6-562a-409a-b346-1626d61f3a69","ios":"levelo://app?vid=b1912dc6-562a-409a-b346-1626d61f3a69"},"vehicle_type_id":"4","last_reported":1762953955,"current_range_meters":8000,"station_id":"ce4bhih2rcd13ifvqfs0","pricing_plan_id":"cebpf4jnsgd1na2vs0mg"},{"bike_id":"b41e24d8-65c5-426b-bb45-4cabc1a8ec44","system_id":"levelo_inurba_marseille","lat":43.29618,"lon":5.37706,"is_reserved":false,"is_disabled":true,"rental_uris":{"android":"levelo://app?vid=b41e24d8-65c5-426b-bb45-4cabc1a8ec44","ios":"levelo://app?vid=b41e24d8-65c5-426b-bb45-4cabc1a8ec44"},"vehicle_type_id":"4","last_reported":1762953955,"current_range_meters":8400,"station_id":"ce4bgi92rcd13ifvqb90","pricing_plan_id":"cebpf4jnsgd1na2vs0mg"},{"bike_id":"c80c1c01-368c-46ce-95fa-baee6c258882","system_id":"levelo_inurba_marseille","lat":43.29896,"lon":5.43671,"is_reserved":false,"is_disabled":false,"rental_uris":{"android":"levelo://app?vid=c80c1c01-368c-46ce-95fa-baee6c258882","ios":"levelo://app?vid=c80c1c01-368c-46ce-95fa-baee6c258882"},"vehicle_type_id":"4","last_reported":1762953955,"current_range_meters":8400,"station_id":"ce4bhpp2rcd13ifvqhfg","pricing_plan_id":"cebpf4jnsgd1na2vs0mg"},{"bike_id":"7c4935b5-c8c2-49e8-8a6e-736fbac404dc","system_id":"levelo_inurba_marseille","lat":43.29282,"lon":5.36848,"is_reserved":false,"is_disabled":false,"rental_uris":{"android":"levelo://app?vid=7c4935b5-c8c2-49e8-8a6e-736fbac404dc","ios":"levelo://app?vid=7c4935b5-c8c2-49e8-8a6e-736fbac404dc"},"vehicle_type_id":"4","last_reported":1762953955,"current_range_meters":8400,"station_id":"ce4bhbp2rcd13ifvqesg","pricing_plan_id":"cebpf4jnsgd1na2vs0mg"},{"bike_id":"bb673b1f-1f54-493f-92ad-48c99ddd3b6a","system_id":"levelo_inurba_marseille","lat":43.2121,"lon":5.35074,"is_reserved":false,"is_disabled":false,"rental_uris":{"android":"levelo://app?vid=bb673b1f-1f54-493f-92ad-48c99ddd3b6a","ios":"levelo://app?vid=bb673b1f-1f54-493f-92ad-48c99ddd3b6a"},"vehicle_type_id":"4","last_reported":1762953955,"current_range_meters":8400,"station_id":"","pricing_plan_id":"cebpf4jnsgd1na2vs0mg"},{"bike_id":"6a2757b1-562e-473f-a7c0-b21f13eee8f8","system_id":"levelo_inurba_marseille","lat":43.29614,"lon":5.37795,"is_reserved":false,"is_disabled":false,"rental_uris":{"android":"levelo://app?vid=6a2757b1-562e-473f-a7c0-b21f13eee8f8","ios":"levelo://app?vid=6a2757b1-562e-473f-a7c0-b21f13eee8f8"},"vehicle_type_id":"4","last_reported":1762953955,"current_range_meters":8400,"station_id":"","pricing_plan_id":"cebpf4jnsgd1na2vs0mg"},{"bike_id":"b119a7cc-36bf-4020-9e18-2db8659dd504","system_id":"levelo_inurba_marseille","lat":43.29614,"lon":5.37802,"is_reserved":false,"is_disabled":false,"rental_uris":{"android":"levelo://app?vid=b119a7cc-36bf-4020-9e18-2db8659dd504","ios":"levelo://app?vid=b119a7cc-36bf-4020-9e18-2db8659dd504"},"vehicle_type_id":"4","last_reported":1762953955,"current_range_meters":8800,"station_id":"","pricing_plan_id":"cebpf4jnsgd1na2vs0mg"},{"bike_id":"3768b28d-2a89-437b-9067-1b49c83350a8","system_id":"levelo_inurba_marseille","lat":43.29782,"lon":5.37087,"is_reserved":false,"is_disabled":false,"rental_uris":{"android":"levelo://app?vid=3768b28d-2a89-437b-9067-1b49c83350a8","ios":"levelo://app?vid=3768b28d-2a89-437b-9067-1b49c83350a8"},"vehicle_type_id":"4","last_reported":1762953955,"current_range_meters":8800,"station_id":"ce4bgop2rcd13ifvqc1g","pricing_plan_id":"cebpf4jnsgd1na2vs0mg"},{"bike_id":"bb876394-8105-4de4-a1e8-77f82eee2e26","system_id":"levelo_inurba_marseille","lat":43.21747,"lon":5.34604,"is_reserved":false,"is_disabled":false,"rental_uris":{"android":"levelo://app?vid=bb876394-8105-4de4-a1e8-77f82eee2e26","ios":"levelo://app?vid=bb876394-8105-4de4-a1e8-77f82eee2e26"},"vehicle_type_id":"4","last_reported":1762953955,"current_range_meters":8800,"station_id":"st_cvj6r9ubvosntc0bgbag","pricing_plan_id":"cebpf4jnsgd1na2vs0mg"},{"bike_id":"42b323fb-b62c-4178-bf40-26f13ff4b577","system_id":"levelo_inurba_marseille","lat":43.2495,"lon":5.40496,"is_reserved":false,"is_disabled":false,"rental_uris":{"android":"levelo://app?vid=42b323fb-b62c-4178-bf40-26f13ff4b577","ios":"levelo://app?vid=42b323fb-b62c-4178-bf40-26f13ff4b577"},"vehicle_type_id":"4","last_reported":1762953955,"current_range_meters":8800,"station_id":"st_d2ngiaodas8pm72gd1h0","pricing_plan_id":"cebpf4jnsgd1na2vs0mg"},{"bike_id":"70bffdbe-3b81-49b7-8846-df5bf256346b","system_id":"levelo_inurba_marseille","lat":43.262105,"lon":5.379328,"is_reserved":false,"is_disabled":false,"rental_uris":{"android":"levelo://app?vid=70bffdbe-3b81-49b7-8846-df5bf256346b","ios":"levelo://app?vid=70bffdbe-3b81-49b7-8846-df5bf256346b"},"vehicle_type_id":"4","last_reported":1762953955,"current_range_meters":8800,"station_id":"","pricing_plan_id":"cebpf4jnsgd1na2vs0mg"},{"bike_id":"1a30bf3e-69de-4de5-8bbe-376e03f6db03","system_id":"levelo_inurba_marseille","lat":43.2866,"lon":5.36363,"is_reserved":false,"is_disabled":false,"rental_uris":{"android":"levelo://app?vid=1a30bf3e-69de-4de5-8bbe-376e03f6db03","ios":"levelo://app?vid=1a30bf3e-69de-4de5-8bbe-376e03f6db03"},"vehicle_type_id":"4","last_reported":1762953955,"current_range_meters":9200,"station_id":"ce4bhah2rcd13ifvqej0","pricing_plan_id":"cebpf4jnsgd1na2vs0mg"},{"bike_id":"fa5b70d2-c912-4f4e-8598-0515d0cf39fd","system_id":"levelo_inurba_marseille","lat":43.31223,"lon":5.36863,"is_reserved":false,"is_disabled":false,"rental_uris":{"android":"levelo://app?vid=fa5b70d2-c912-4f4e-8598-0515d0cf39fd","ios":"levelo://app?vid=fa5b70d2-c912-4f4e-8598-0515d0cf39fd"},"vehicle_type_id":"4","last_reported":1762953955,"current_range_meters":9200,"station_id":"ce4bgl92rcd13ifvqbq0","pricing_plan_id":"cebpf4jnsgd1na2vs0mg"},{"bike_id":"81d2a7ad-c42e-463d-8aa0-8a891e3a222c","system_id":"levelo_inurba_marseille","lat":43.27917,"lon":5.39582,"is_reserved":false,"is_disabled":false,"rental_uris":{"android":"levelo://app?vid=81d2a7ad-c42e-463d-8aa0-8a891e3a222c","ios":"levelo://app?vid=81d2a7ad-c42e-463d-8aa0-8a891e3a222c"},"vehicle_type_id":"4","last_reported":1762953955,"current_range_meters":9200,"station_id":"ce4bhf92rcd13ifvqf40","pricing_plan_id":"cebpf4jnsgd1na2vs0mg"},{"bike_id":"f2f1e21f-7a3e-4ef4-b353-395fba2d2f43","system_id":"levelo_inurba_marseille","lat":43.21193,"lon":5.35079,"is_reserved":false,"is_disabled":false,"rental_uris":{"android":"levelo://app?vid=f2f1e21f-7a3e-4ef4-b353-395fba2d2f43","ios":"levelo://app?vid=f2f1e21f-7a3e-4ef4-b353-395fba2d2f43"},"vehicle_type_id":"4","last_reported":1762953955,"current_range_meters":9200,"station_id":"","pricing_plan_id":"cebpf4jnsgd1na2vs0mg"},{"bike_id":"02e36396-47f9-4fc5-997f-602a2382d72c","system_id":"levelo_inurba_marseille","lat":43.305393,"lon":5.365516,"is_reserved":false,"is_disabled":false,"rental_uris":{"android":"levelo://app?vid=02e36396-47f9-4fc5-997f-602a2382d72c","ios":"levelo://app?vid=02e36396-47f9-4fc5-997f-602a2382d72c"},"vehicle_type_id":"4","last_reported":1762953955,"current_range_meters":9600,"station_id":"ce4bgs12rcd13ifvqcag","pricing_plan_id":"cebpf4jnsgd1na2vs0mg"},{"bike_id":"0d050f3d-e82f-49c6-8e93-2cd9d8370d52","system_id":"levelo_inurba_marseille","lat":43.30514,"lon":5.366598,"is_reserved":false,"is_disabled":false,"rental_uris":{"android":"levelo://app?vid=0d050f3d-e82f-49c6-8e93-2cd9d8370d52","ios":"levelo://app?vid=0d050f3d-e82f-49c6-8e93-2cd9d8370d52"},"vehicle_type_id":"4","last_reported":1762953955,"current_range_meters":9600,"station_id":"ce4bgs12rcd13ifvqcag","pricing_plan_id":"cebpf4jnsgd1na2vs0mg"},{"bike_id":"6f24d585-0d96-4486-ab48-af8f4a2240b5","system_id":"levelo_inurba_marseille","lat":43.29799,"lon":5.38091,"is_reserved":false,"is_disabled":false,"rental_uris":{"android":"levelo://app?vid=6f24d585-0d96-4486-ab48-af8f4a2240b5","ios":"levelo://app?vid=6f24d585-0d96-4486-ab48-af8f4a2240b5"},"vehicle_type_id":"4","last_reported":1762953955,"current_range_meters":9600,"station_id":"ce4bgip2rcd13ifvqbb0","pricing_plan_id":"cebpf4jnsgd1na2vs0mg"},{"bike_id":"f6134463-5782-4e59-875e-fa5ebcfbb229","system_id":"levelo_inurba_marseille","lat":43.28468,"lon":5.38446,"is_reserved":false,"is_disabled":true,"rental_uris":{"android":"levelo://app?vid=f6134463-5782-4e59-875e-fa5ebcfbb229","ios":"levelo://app?vid=f6134463-5782-4e59-875e-fa5ebcfbb229"},"vehicle_type_id":"4","last_reported":1762953955,"current_range_meters":9600,"station_id":"ce4bh512rcd13ifvqe3g","pricing_plan_id":"cebpf4jnsgd1na2vs0mg"},{"bike_id":"84aade2c-4b39-4bce-814f-cfa3d6ed46f7","system_id":"levelo_inurba_marseille","lat":43.284818,"lon":5.483887,"is_reserved":false,"is_disabled":false,"rental_uris":{"android":"levelo://app?vid=84aade2c-4b39-4bce-814f-cfa3d6ed46f7","ios":"levelo://app?vid=84aade2c-4b39-4bce-814f-cfa3d6ed46f7"},"vehicle_type_id":"4","last_reported":1762953955,"current_range_meters":9600,"station_id":"st_d3svhcjqgbts73a3dn0g","pricing_plan_id":"cebpf4jnsgd1na2vs0mg"},{"bike_id":"034b1862-4f62-4737-bb98-48c41effb027","system_id":"levelo_inurba_marseille","lat":43.25928,"lon":5.40901,"is_reserved":false,"is_disabled":false,"rental_uris":{"android":"levelo://app?vid=034b1862-4f62-4737-bb98-48c41effb027","ios":"levelo://app?vid=034b1862-4f62-4737-bb98-48c41effb027"},"vehicle_type_id":"4","last_reported":1762953955,"current_range_meters":10000,"station_id":"ce4bhm92rcd13ifvqglg","pricing_plan_id":"cebpf4jnsgd1na2vs0mg"},{"bike_id":"c47023ab-2905-4a00-af93-ffd0b768cdc9","system_id":"levelo_inurba_marseille","lat":43.28851,"lon":5.42514,"is_reserved":false,"is_disabled":false,"rental_uris":{"android":"levelo://app?vid=c47023ab-2905-4a00-af93-ffd0b768cdc9","ios":"levelo://app?vid=c47023ab-2905-4a00-af93-ffd0b768cdc9"},"vehicle_type_id":"4","last_reported":1762953955,"current_range_meters":10000,"station_id":"st_d3b462108ojc7389ooeg","pricing_plan_id":"cebpf4jnsgd1na2vs0mg"},{"bike_id":"4d169f04-c775-4257-8a95-14ff4916ea58","system_id":"levelo_inurba_marseille","lat":43.30131,"lon":5.39857,"is_reserved":false,"is_disabled":false,"rental_uris":{"android":"levelo://app?vid=4d169f04-c775-4257-8a95-14ff4916ea58","ios":"levelo://app?vid=4d169f04-c775-4257-8a95-14ff4916ea58"},"vehicle_type_id":"4","last_reported":1762953955,"current_range_meters":10000,"station_id":"ce4bh0h2rcd13ifvqd40","pricing_plan_id":"cebpf4jnsgd1na2vs0mg"},{"bike_id":"89f0910d-8724-46e5-8620-6ac60363bb91","system_id":"levelo_inurba_marseille","lat":43.315015,"lon":5.373113,"is_reserved":false,"is_disabled":false,"rental_uris":{"android":"levelo://app?vid=89f0910d-8724-46e5-8620-6ac60363bb91","ios":"levelo://app?vid=89f0910d-8724-46e5-8620-6ac60363bb91"},"vehicle_type_id":"4","last_reported":1762953955,"current_range_meters":10000,"station_id":"ce4bgt12rcd13ifvqcd0","pricing_plan_id":"cebpf4jnsgd1na2vs0mg"},{"bike_id":"393ebba5-f26f-4f5b-ba37-0d7b5bd9041d","system_id":"levelo_inurba_marseille","lat":43.21739,"lon":5.34606,"is_reserved":false,"is_disabled":false,"rental_uris":{"android":"levelo://app?vid=393ebba5-f26f-4f5b-ba37-0d7b5bd9041d","ios":"levelo://app?vid=393ebba5-f26f-4f5b-ba37-0d7b5bd9041d"},"vehicle_type_id":"4","last_reported":1762953955,"current_range_meters":10000,"station_id":"","pricing_plan_id":"cebpf4jnsgd1na2vs0mg"},{"bike_id":"3e1ca024-47a3-4c95-a8c5-bf2bb21cd6c0","system_id":"levelo_inurba_marseille","lat":43.24649,"lon":5.38891,"is_reserved":false,"is_disabled":false,"rental_uris":{"android":"levelo://app?vid=3e1ca024-47a3-4c95-a8c5-bf2bb21cd6c0","ios":"levelo://app?vid=3e1ca024-47a3-4c95-a8c5-bf2bb21cd6c0"},"vehicle_type_id":"4","last_reported":1762953955,"current_range_meters":10000,"station_id":"ce4bhg12rcd13ifvqf60","pricing_plan_id":"cebpf4jnsgd1na2vs0mg"},{"bike_id":"b512eca9-cac6-4efd-8495-2fc9db31ff23","system_id":"levelo_inurba_marseille","lat":43.2862,"lon":5.35107,"is_reserved":false,"is_disabled":false,"rental_uris":{"android":"levelo://app?vid=b512eca9-cac6-4efd-8495-2fc9db31ff23","ios":"levelo://app?vid=b512eca9-cac6-4efd-8495-2fc9db31ff23"},"vehicle_type_id":"4","last_reported":1762953955,"current_range_meters":10800,"station_id":"ce4bhch2rcd13ifvqeug","pricing_plan_id":"cebpf4jnsgd1na2vs0mg"},{"bike_id":"c82c3049-e00a-408c-875f-86b8d6dff7fb","system_id":"levelo_inurba_marseille","lat":43.308869,"lon":5.396506,"is_reserved":false,"is_disabled":false,"rental_uris":{"android":"levelo://app?vid=c82c3049-e00a-408c-875f-86b8d6dff7fb","ios":"levelo://app?vid=c82c3049-e00a-408c-875f-86b8d6dff7fb"},"vehicle_type_id":"4","last_reported":1762953955,"current_range_meters":10800,"station_id":"ce4bh012rcd13ifvqcv0","pricing_plan_id":"cebpf4jnsgd1na2vs0mg"},{"bike_id":"5da00fab-184f-4ad2-bb67-1bbfbe94cb21","system_id":"levelo_inurba_marseille","lat":43.30326,"lon":5.40433,"is_reserved":false,"is_disabled":false,"rental_uris":{"android":"levelo://app?vid=5da00fab-184f-4ad2-bb67-1bbfbe94cb21","ios":"levelo://app?vid=5da00fab-184f-4ad2-bb67-1bbfbe94cb21"},"vehicle_type_id":"4","last_reported":1762953955,"current_range_meters":10800,"station_id":"ce4bh012rcd13ifvqd10","pricing_plan_id":"cebpf4jnsgd1na2vs0mg"},{"bike_id":"268c0f06-a6a6-4316-a447-fa9a5c248bab","system_id":"levelo_inurba_marseille","lat":43.29939,"lon":5.3656,"is_reserved":false,"is_disabled":false,"rental_uris":{"android":"levelo://app?vid=268c0f06-a6a6-4316-a447-fa9a5c248bab","ios":"levelo://app?vid=268c0f06-a6a6-4316-a447-fa9a5c248bab"},"vehicle_type_id":"4","last_reported":1762953955,"current_range_meters":10800,"station_id":"ce4bgm92rcd13ifvqbr0","pricing_plan_id":"cebpf4jnsgd1na2vs0mg"},{"bike_id":"b05d836a-8dbe-42fd-8c67-b3266ddb1d86","system_id":"levelo_inurba_marseille","lat":43.28374,"lon":5.38635,"is_reserved":false,"is_disabled":false,"rental_uris":{"android":"levelo://app?vid=b05d836a-8dbe-42fd-8c67-b3266ddb1d86","ios":"levelo://app?vid=b05d836a-8dbe-42fd-8c67-b3266ddb1d86"},"vehicle_type_id":"4","last_reported":1762953955,"current_range_meters":10800,"station_id":"ce4bh492rcd13ifvqdvg","pricing_plan_id":"cebpf4jnsgd1na2vs0mg"},{"bike_id":"50b661f0-112f-4780-95bd-167a8c61a238","system_id":"levelo_inurba_marseille","lat":43.21192,"lon":5.3509,"is_reserved":false,"is_disabled":true,"rental_uris":{"android":"levelo://app?vid=50b661f0-112f-4780-95bd-167a8c61a238","ios":"levelo://app?vid=50b661f0-112f-4780-95bd-167a8c61a238"},"vehicle_type_id":"4","last_reported":1762953955,"current_range_meters":10800,"station_id":"st_cvj6sg6p6f1abm77japg","pricing_plan_id":"cebpf4jnsgd1na2vs0mg"},{"bike_id":"18afe671-ebde-4e8b-b73c-4d7f687fa6e5","system_id":"levelo_inurba_marseille","lat":43.301403,"lon":5.374257,"is_reserved":false,"is_disabled":false,"rental_uris":{"android":"levelo://app?vid=18afe671-ebde-4e8b-b73c-4d7f687fa6e5","ios":"levelo://app?vid=18afe671-ebde-4e8b-b73c-4d7f687fa6e5"},"vehicle_type_id":"4","last_reported":1762953955,"current_range_meters":11200,"station_id":"ce4bgs92rcd13ifvqcc0","pricing_plan_id":"cebpf4jnsgd1na2vs0mg"},{"bike_id":"76647ca2-7b67-413c-b97c-5f22f5808d46","system_id":"levelo_inurba_marseille","lat":43.29975,"lon":5.37181,"is_reserved":false,"is_disabled":false,"rental_uris":{"android":"levelo://app?vid=76647ca2-7b67-413c-b97c-5f22f5808d46","ios":"levelo://app?vid=76647ca2-7b67-413c-b97c-5f22f5808d46"},"vehicle_type_id":"4","last_reported":1762953955,"current_range_meters":11200,"station_id":"ce4bgr92rcd13ifvqc7g","pricing_plan_id":"cebpf4jnsgd1na2vs0mg"},{"bike_id":"306d1340-c6ed-4a54-9325-24f0c57c278f","system_id":"levelo_inurba_marseille","lat":43.31485,"lon":5.37313,"is_reserved":false,"is_disabled":false,"rental_uris":{"android":"levelo://app?vid=306d1340-c6ed-4a54-9325-24f0c57c278f","ios":"levelo://app?vid=306d1340-c6ed-4a54-9325-24f0c57c278f"},"vehicle_type_id":"4","last_reported":1762953955,"current_range_meters":11200,"station_id":"ce4bgt12rcd13ifvqcd0","pricing_plan_id":"cebpf4jnsgd1na2vs0mg"},{"bike_id":"acfa5aa2-9e4a-46e1-bc3d-a40e7063d85c","system_id":"levelo_inurba_marseille","lat":43.265684,"lon":5.390146,"is_reserved":false,"is_disabled":false,"rental_uris":{"android":"levelo://app?vid=acfa5aa2-9e4a-46e1-bc3d-a40e7063d85c","ios":"levelo://app?vid=acfa5aa2-9e4a-46e1-bc3d-a40e7063d85c"},"vehicle_type_id":"4","last_reported":1762953955,"current_range_meters":11200,"station_id":"ce4bhh92rcd13ifvqfj0","pricing_plan_id":"cebpf4jnsgd1na2vs0mg"},{"bike_id":"56eef425-c8cb-4530-9d40-eed0def84266","system_id":"levelo_inurba_marseille","lat":43.27613,"lon":5.36102,"is_reserved":false,"is_disabled":false,"rental_uris":{"android":"levelo://app?vid=56eef425-c8cb-4530-9d40-eed0def84266","ios":"levelo://app?vid=56eef425-c8cb-4530-9d40-eed0def84266"},"vehicle_type_id":"4","last_reported":1762953955,"current_range_meters":11200,"station_id":"ce4bgj92rcd13ifvqbe0","pricing_plan_id":"cebpf4jnsgd1na2vs0mg"},{"bike_id":"cf0065d9-2cb9-4baa-8eca-06b34d120183","system_id":"levelo_inurba_marseille","lat":43.29523,"lon":5.3854,"is_reserved":false,"is_disabled":false,"rental_uris":{"android":"levelo://app?vid=cf0065d9-2cb9-4baa-8eca-06b34d120183","ios":"levelo://app?vid=cf0065d9-2cb9-4baa-8eca-06b34d120183"},"vehicle_type_id":"4","last_reported":1762953955,"current_range_meters":11200,"station_id":"ce4bgih2rcd13ifvqba0","pricing_plan_id":"cebpf4jnsgd1na2vs0mg"},{"bike_id":"93691148-d580-4c99-a1f7-c22d822c6fdb","system_id":"levelo_inurba_marseille","lat":43.21177,"lon":5.35069,"is_reserved":false,"is_disabled":false,"rental_uris":{"android":"levelo://app?vid=93691148-d580-4c99-a1f7-c22d822c6fdb","ios":"levelo://app?vid=93691148-d580-4c99-a1f7-c22d822c6fdb"},"vehicle_type_id":"4","last_reported":1762953955,"current_range_meters":11200,"station_id":"st_cvj6sg6p6f1abm77japg","pricing_plan_id":"cebpf4jnsgd1na2vs0mg"},{"bike_id":"c10eb9b5-6806-4c51-8f5e-a42379c3efb5","system_id":"levelo_inurba_marseille","lat":43.25106,"lon":5.40338,"is_reserved":false,"is_disabled":false,"rental_uris":{"android":"levelo://app?vid=c10eb9b5-6806-4c51-8f5e-a42379c3efb5","ios":"levelo://app?vid=c10eb9b5-6806-4c51-8f5e-a42379c3efb5"},"vehicle_type_id":"4","last_reported":1762953955,"current_range_meters":11600,"station_id":"ce4bhlh2rcd13ifvqgig","pricing_plan_id":"cebpf4jnsgd1na2vs0mg"},{"bike_id":"01e8cce2-ff84-43ff-914a-c0c695f60ca4","system_id":"levelo_inurba_marseille","lat":43.294285,"lon":5.380355,"is_reserved":false,"is_disabled":false,"rental_uris":{"android":"levelo://app?vid=01e8cce2-ff84-43ff-914a-c0c695f60ca4","ios":"levelo://app?vid=01e8cce2-ff84-43ff-914a-c0c695f60ca4"},"vehicle_type_id":"4","last_reported":1762953955,"current_range_meters":11600,"station_id":"","pricing_plan_id":"cebpf4jnsgd1na2vs0mg"},{"bike_id":"6911db79-d566-428b-8cb1-1532d67c2ceb","system_id":"levelo_inurba_marseille","lat":43.25928,"lon":5.40913,"is_reserved":false,"is_disabled":false,"rental_uris":{"android":"levelo://app?vid=6911db79-d566-428b-8cb1-1532d67c2ceb","ios":"levelo://app?vid=6911db79-d566-428b-8cb1-1532d67c2ceb"},"vehicle_type_id":"4","last_reported":1762953955,"current_range_meters":11600,"station_id":"ce4bhm92rcd13ifvqglg","pricing_plan_id":"cebpf4jnsgd1na2vs0mg"},{"bike_id":"371b9673-a726-40ac-84d1-e98a112cff37","system_id":"levelo_inurba_marseille","lat":43.293729,"lon":5.392269,"is_reserved":false,"is_disabled":false,"rental_uris":{"android":"levelo://app?vid=371b9673-a726-40ac-84d1-e98a112cff37","ios":"levelo://app?vid=371b9673-a726-40ac-84d1-e98a112cff37"},"vehicle_type_id":"4","last_reported":1762953955,"current_range_meters":11600,"station_id":"ce4bh192rcd13ifvqdd0","pricing_plan_id":"cebpf4jnsgd1na2vs0mg"},{"bike_id":"b1460ca1-7289-4f1f-b10e-10e520aecc27","system_id":"levelo_inurba_marseille","lat":43.27351,"lon":5.4242,"is_reserved":false,"is_disabled":false,"rental_uris":{"android":"levelo://app?vid=b1460ca1-7289-4f1f-b10e-10e520aecc27","ios":"levelo://app?vid=b1460ca1-7289-4f1f-b10e-10e520aecc27"},"vehicle_type_id":"4","last_reported":1762953955,"current_range_meters":11600,"station_id":"","pricing_plan_id":"cebpf4jnsgd1na2vs0mg"},{"bike_id":"97c0b406-1b04-427f-9154-d8a361d03814","system_id":"levelo_inurba_marseille","lat":43.29973,"lon":5.37183,"is_reserved":false,"is_disabled":false,"rental_uris":{"android":"levelo://app?vid=97c0b406-1b04-427f-9154-d8a361d03814","ios":"levelo://app?vid=97c0b406-1b04-427f-9154-d8a361d03814"},"vehicle_type_id":"4","last_reported":1762953955,"current_range_meters":11600,"station_id":"ce4bgr92rcd13ifvqc7g","pricing_plan_id":"cebpf4jnsgd1na2vs0mg"},{"bike_id":"d3a60880-e763-4dbe-b086-bf6e31cc12a0","system_id":"levelo_inurba_marseille","lat":43.28925,"lon":5.38405,"is_reserved":false,"is_disabled":false,"rental_uris":{"android":"levelo://app?vid=d3a60880-e763-4dbe-b086-bf6e31cc12a0","ios":"levelo://app?vid=d3a60880-e763-4dbe-b086-bf6e31cc12a0"},"vehicle_type_id":"4","last_reported":1762953955,"current_range_meters":11600,"station_id":"ce4bh612rcd13ifvqe6g","pricing_plan_id":"cebpf4jnsgd1na2vs0mg"},{"bike_id":"26fd49f8-7b14-48da-831c-e9b25680731e","system_id":"levelo_inurba_marseille","lat":43.33761,"lon":5.37458,"is_reserved":false,"is_disabled":false,"rental_uris":{"android":"levelo://app?vid=26fd49f8-7b14-48da-831c-e9b25680731e","ios":"levelo://app?vid=26fd49f8-7b14-48da-831c-e9b25680731e"},"vehicle_type_id":"4","last_reported":1762953955,"current_range_meters":11600,"station_id":"","pricing_plan_id":"cebpf4jnsgd1na2vs0mg"},{"bike_id":"9fc2a6c6-9ce0-459a-a525-7d84f35f1949","system_id":"levelo_inurba_marseille","lat":43.289368,"lon":5.387468,"is_reserved":false,"is_disabled":false,"rental_uris":{"android":"levelo://app?vid=9fc2a6c6-9ce0-459a-a525-7d84f35f1949","ios":"levelo://app?vid=9fc2a6c6-9ce0-459a-a525-7d84f35f1949"},"vehicle_type_id":"4","last_reported":1762953955,"current_range_meters":11600,"station_id":"ce4bh4p2rcd13ifvqe0g","pricing_plan_id":"cebpf4jnsgd1na2vs0mg"},{"bike_id":"a0c41a69-8787-4b8a-b5b6-7a0a1131dbb4","system_id":"levelo_inurba_marseille","lat":43.28037,"lon":5.36952,"is_reserved":false,"is_disabled":false,"rental_uris":{"android":"levelo://app?vid=a0c41a69-8787-4b8a-b5b6-7a0a1131dbb4","ios":"levelo://app?vid=a0c41a69-8787-4b8a-b5b6-7a0a1131dbb4"},"vehicle_type_id":"4","last_reported":1762953955,"current_range_meters":12000,"station_id":"ce4bha12rcd13ifvqef0","pricing_plan_id":"cebpf4jnsgd1na2vs0mg"},{"bike_id":"f09b69fd-4220-4b51-8365-9a85828617f1","system_id":"levelo_inurba_marseille","lat":43.330268,"lon":5.390397,"is_reserved":false,"is_disabled":false,"rental_uris":{"android":"levelo://app?vid=f09b69fd-4220-4b51-8365-9a85828617f1","ios":"levelo://app?vid=f09b69fd-4220-4b51-8365-9a85828617f1"},"vehicle_type_id":"4","last_reported":1762953955,"current_range_meters":12000,"station_id":"ce4bhr92rcd13ifvqhrg","pricing_plan_id":"cebpf4jnsgd1na2vs0mg"},{"bike_id":"d7971bd0-efd8-4170-ab00-6fabad286b99","system_id":"levelo_inurba_marseille","lat":43.25087,"lon":5.39524,"is_reserved":false,"is_disabled":false,"rental_uris":{"android":"levelo://app?vid=d7971bd0-efd8-4170-ab00-6fabad286b99","ios":"levelo://app?vid=d7971bd0-efd8-4170-ab00-6fabad286b99"},"vehicle_type_id":"4","last_reported":1762953955,"current_range_meters":12000,"station_id":"ce4bhm12rcd13ifvqgkg","pricing_plan_id":"cebpf4jnsgd1na2vs0mg"},{"bike_id":"210a50c1-0309-4c7d-98bc-914f6c8e6df6","system_id":"levelo_inurba_marseille","lat":43.30276,"lon":5.37704,"is_reserved":false,"is_disabled":false,"rental_uris":{"android":"levelo://app?vid=210a50c1-0309-4c7d-98bc-914f6c8e6df6","ios":"levelo://app?vid=210a50c1-0309-4c7d-98bc-914f6c8e6df6"},"vehicle_type_id":"4","last_reported":1762953955,"current_range_meters":12000,"station_id":"ce4bguh2rcd13ifvqcj0","pricing_plan_id":"cebpf4jnsgd1na2vs0mg"},{"bike_id":"46b57cd4-5516-467f-ae41-b47a035d3e41","system_id":"levelo_inurba_marseille","lat":43.246063,"lon":5.430899,"is_reserved":false,"is_disabled":false,"rental_uris":{"android":"levelo://app?vid=46b57cd4-5516-467f-ae41-b47a035d3e41","ios":"levelo://app?vid=46b57cd4-5516-467f-ae41-b47a035d3e41"},"vehicle_type_id":"4","last_reported":1762953955,"current_range_meters":12000,"station_id":"ce4bh9p2rcd13ifvqed0","pricing_plan_id":"cebpf4jnsgd1na2vs0mg"},{"bike_id":"97150dc4-71e5-4187-8a3a-2188c13f6fe1","system_id":"levelo_inurba_marseille","lat":43.237798,"lon":5.366355,"is_reserved":false,"is_disabled":false,"rental_uris":{"android":"levelo://app?vid=97150dc4-71e5-4187-8a3a-2188c13f6fe1","ios":"levelo://app?vid=97150dc4-71e5-4187-8a3a-2188c13f6fe1"},"vehicle_type_id":"4","last_reported":1762953955,"current_range_meters":12000,"station_id":"st_d3nk18o9ro0c73en2l3g","pricing_plan_id":"cebpf4jnsgd1na2vs0mg"},{"bike_id":"138acbc8-a44a-45ec-9d4e-f41258a8778e","system_id":"levelo_inurba_marseille","lat":43.29808,"lon":5.4407,"is_reserved":false,"is_disabled":false,"rental_uris":{"android":"levelo://app?vid=138acbc8-a44a-45ec-9d4e-f41258a8778e","ios":"levelo://app?vid=138acbc8-a44a-45ec-9d4e-f41258a8778e"},"vehicle_type_id":"4","last_reported":1762953955,"current_range_meters":12000,"station_id":"st_d3jp68qikq2c7381ktn0","pricing_plan_id":"cebpf4jnsgd1na2vs0mg"},{"bike_id":"087ebd05-7afe-4a0d-ad31-5e271e7bdf1b","system_id":"levelo_inurba_marseille","lat":43.30543,"lon":5.38051,"is_reserved":false,"is_disabled":false,"rental_uris":{"android":"levelo://app?vid=087ebd05-7afe-4a0d-ad31-5e271e7bdf1b","ios":"levelo://app?vid=087ebd05-7afe-4a0d-ad31-5e271e7bdf1b"},"vehicle_type_id":"4","last_reported":1762953955,"current_range_meters":12400,"station_id":"","pricing_plan_id":"cebpf4jnsgd1na2vs0mg"},{"bike_id":"65062346-4963-425f-99a4-b5bf35095455","system_id":"levelo_inurba_marseille","lat":43.308079,"lon":5.381337,"is_reserved":false,"is_disabled":false,"rental_uris":{"android":"levelo://app?vid=65062346-4963-425f-99a4-b5bf35095455","ios":"levelo://app?vid=65062346-4963-425f-99a4-b5bf35095455"},"vehicle_type_id":"4","last_reported":1762953955,"current_range_meters":12400,"station_id":"ce4bgt12rcd13ifvqce0","pricing_plan_id":"cebpf4jnsgd1na2vs0mg"},{"bike_id":"6993ad6f-0211-4c7f-a570-b4aff6df0c55","system_id":"levelo_inurba_marseille","lat":43.286991,"lon":5.373785,"is_reserved":false,"is_disabled":false,"rental_uris":{"android":"levelo://app?vid=6993ad6f-0211-4c7f-a570-b4aff6df0c55","ios":"levelo://app?vid=6993ad6f-0211-4c7f-a570-b4aff6df0c55"},"vehicle_type_id":"4","last_reported":1762953955,"current_range_meters":12400,"station_id":"ce4bh3p2rcd13ifvqdq0","pricing_plan_id":"cebpf4jnsgd1na2vs0mg"},{"bike_id":"5804ac99-3bd4-4091-bff1-7487e9285e0c","system_id":"levelo_inurba_marseille","lat":43.29193,"lon":5.3759,"is_reserved":false,"is_disabled":false,"rental_uris":{"android":"levelo://app?vid=5804ac99-3bd4-4091-bff1-7487e9285e0c","ios":"levelo://app?vid=5804ac99-3bd4-4091-bff1-7487e9285e0c"},"vehicle_type_id":"4","last_reported":1762953955,"current_range_meters":12400,"station_id":"","pricing_plan_id":"cebpf4jnsgd1na2vs0mg"},{"bike_id":"2e6696f0-17c6-40f9-8344-d7d1772eac9f","system_id":"levelo_inurba_marseille","lat":43.28111,"lon":5.378302,"is_reserved":false,"is_disabled":false,"rental_uris":{"android":"levelo://app?vid=2e6696f0-17c6-40f9-8344-d7d1772eac9f","ios":"levelo://app?vid=2e6696f0-17c6-40f9-8344-d7d1772eac9f"},"vehicle_type_id":"4","last_reported":1762953955,"current_range_meters":12400,"station_id":"ce4bha12rcd13ifvqee0","pricing_plan_id":"cebpf4jnsgd1na2vs0mg"},{"bike_id":"c48e899a-7539-4fa1-a7c7-2a363709b5ea","system_id":"levelo_inurba_marseille","lat":43.29576,"lon":5.37509,"is_reserved":false,"is_disabled":true,"rental_uris":{"android":"levelo://app?vid=c48e899a-7539-4fa1-a7c7-2a363709b5ea","ios":"levelo://app?vid=c48e899a-7539-4fa1-a7c7-2a363709b5ea"},"vehicle_type_id":"4","last_reported":1762953955,"current_range_meters":12800,"station_id":"ce4bgh92rcd13ifvqb50","pricing_plan_id":"cebpf4jnsgd1na2vs0mg"},{"bike_id":"ce8d6303-da34-4d14-a464-40994f9e2f21","system_id":"levelo_inurba_marseille","lat":43.21197,"lon":5.35075,"is_reserved":false,"is_disabled":true,"rental_uris":{"android":"levelo://app?vid=ce8d6303-da34-4d14-a464-40994f9e2f21","ios":"levelo://app?vid=ce8d6303-da34-4d14-a464-40994f9e2f21"},"vehicle_type_id":"4","last_reported":1762953955,"current_range_meters":12800,"station_id":"st_cvj6sg6p6f1abm77japg","pricing_plan_id":"cebpf4jnsgd1na2vs0mg"},{"bike_id":"8b027115-1a9e-4312-923f-dbf5aec10ee4","system_id":"levelo_inurba_marseille","lat":43.30229,"lon":5.365094,"is_reserved":false,"is_disabled":false,"rental_uris":{"android":"levelo://app?vid=8b027115-1a9e-4312-923f-dbf5aec10ee4","ios":"levelo://app?vid=8b027115-1a9e-4312-923f-dbf5aec10ee4"},"vehicle_type_id":"4","last_reported":1762953955,"current_range_meters":12800,"station_id":"","pricing_plan_id":"cebpf4jnsgd1na2vs0mg"},{"bike_id":"f457ed90-3667-4cf7-83a3-fcddbaae72ed","system_id":"levelo_inurba_marseille","lat":43.25932,"lon":5.40914,"is_reserved":false,"is_disabled":false,"rental_uris":{"android":"levelo://app?vid=f457ed90-3667-4cf7-83a3-fcddbaae72ed","ios":"levelo://app?vid=f457ed90-3667-4cf7-83a3-fcddbaae72ed"},"vehicle_type_id":"4","last_reported":1762953955,"current_range_meters":12800,"station_id":"ce4bhm92rcd13ifvqglg","pricing_plan_id":"cebpf4jnsgd1na2vs0mg"},{"bike_id":"0ad2cfba-f5bd-421b-8f78-57b370b88c29","system_id":"levelo_inurba_marseille","lat":43.231586,"lon":5.437019,"is_reserved":false,"is_disabled":false,"rental_uris":{"android":"levelo://app?vid=0ad2cfba-f5bd-421b-8f78-57b370b88c29","ios":"levelo://app?vid=0ad2cfba-f5bd-421b-8f78-57b370b88c29"},"vehicle_type_id":"4","last_reported":1762953955,"current_range_meters":13600,"station_id":"ce4bhmp2rcd13ifvqgog","pricing_plan_id":"cebpf4jnsgd1na2vs0mg"},{"bike_id":"f3475892-1b89-40aa-8ed5-ea4d6d665578","system_id":"levelo_inurba_marseille","lat":43.27992,"lon":5.39996,"is_reserved":false,"is_disabled":false,"rental_uris":{"android":"levelo://app?vid=f3475892-1b89-40aa-8ed5-ea4d6d665578","ios":"levelo://app?vid=f3475892-1b89-40aa-8ed5-ea4d6d665578"},"vehicle_type_id":"4","last_reported":1762953955,"current_range_meters":13600,"station_id":"ce4bho92rcd13ifvqh4g","pricing_plan_id":"cebpf4jnsgd1na2vs0mg"},{"bike_id":"72af7301-17a8-43a4-84c3-7077a9f4a252","system_id":"levelo_inurba_marseille","lat":43.265646,"lon":5.403277,"is_reserved":false,"is_disabled":false,"rental_uris":{"android":"levelo://app?vid=72af7301-17a8-43a4-84c3-7077a9f4a252","ios":"levelo://app?vid=72af7301-17a8-43a4-84c3-7077a9f4a252"},"vehicle_type_id":"4","last_reported":1762953955,"current_range_meters":13600,"station_id":"ce4bhmp2rcd13ifvqgng","pricing_plan_id":"cebpf4jnsgd1na2vs0mg"},{"bike_id":"841cb1e3-d7ff-4e82-a83c-eaf5e87abdbe","system_id":"levelo_inurba_marseille","lat":43.255818,"lon":5.382308,"is_reserved":false,"is_disabled":false,"rental_uris":{"android":"levelo://app?vid=841cb1e3-d7ff-4e82-a83c-eaf5e87abdbe","ios":"levelo://app?vid=841cb1e3-d7ff-4e82-a83c-eaf5e87abdbe"},"vehicle_type_id":"4","last_reported":1762953955,"current_range_meters":13600,"station_id":"ce4bhih2rcd13ifvqfs0","pricing_plan_id":"cebpf4jnsgd1na2vs0mg"},{"bike_id":"ac5c1aaa-7279-410b-aedc-75443761e201","system_id":"levelo_inurba_marseille","lat":43.28608,"lon":5.37065,"is_reserved":false,"is_disabled":false,"rental_uris":{"android":"levelo://app?vid=ac5c1aaa-7279-410b-aedc-75443761e201","ios":"levelo://app?vid=ac5c1aaa-7279-410b-aedc-75443761e201"},"vehicle_type_id":"4","last_reported":1762953955,"current_range_meters":13600,"station_id":"ce4bht12rcd13ifvqi60","pricing_plan_id":"cebpf4jnsgd1na2vs0mg"},{"bike_id":"665dd648-39fc-471a-9ff8-da7af6cb6638","system_id":"levelo_inurba_marseille","lat":43.26816,"lon":5.402675,"is_reserved":false,"is_disabled":false,"rental_uris":{"android":"levelo://app?vid=665dd648-39fc-471a-9ff8-da7af6cb6638","ios":"levelo://app?vid=665dd648-39fc-471a-9ff8-da7af6cb6638"},"vehicle_type_id":"4","last_reported":1762953955,"current_range_meters":13600,"station_id":"ce501612rcd8frsf0b60","pricing_plan_id":"cebpf4jnsgd1na2vs0mg"},{"bike_id":"23cf5617-2a8e-4b86-b9b4-9b049dde7593","system_id":"levelo_inurba_marseille","lat":43.323631,"lon":5.367642,"is_reserved":false,"is_disabled":false,"rental_uris":{"android":"levelo://app?vid=23cf5617-2a8e-4b86-b9b4-9b049dde7593","ios":"levelo://app?vid=23cf5617-2a8e-4b86-b9b4-9b049dde7593"},"vehicle_type_id":"4","last_reported":1762953955,"current_range_meters":14000,"station_id":"ce4bhsh2rcd13ifvqi2g","pricing_plan_id":"cebpf4jnsgd1na2vs0mg"},{"bike_id":"5e6e0c2c-5aff-425c-b9f5-69ee0b364303","system_id":"levelo_inurba_marseille","lat":43.23195,"lon":5.35558,"is_reserved":false,"is_disabled":false,"rental_uris":{"android":"levelo://app?vid=5e6e0c2c-5aff-425c-b9f5-69ee0b364303","ios":"levelo://app?vid=5e6e0c2c-5aff-425c-b9f5-69ee0b364303"},"vehicle_type_id":"4","last_reported":1762953955,"current_range_meters":14000,"station_id":"ce4bhu92rcd13ifvqi70","pricing_plan_id":"cebpf4jnsgd1na2vs0mg"},{"bike_id":"572ab46c-3796-47cf-8479-cabb4c228181","system_id":"levelo_inurba_marseille","lat":43.29581,"lon":5.36747,"is_reserved":false,"is_disabled":false,"rental_uris":{"android":"levelo://app?vid=572ab46c-3796-47cf-8479-cabb4c228181","ios":"levelo://app?vid=572ab46c-3796-47cf-8479-cabb4c228181"},"vehicle_type_id":"4","last_reported":1762953955,"current_range_meters":14000,"station_id":"ce4bgph2rcd13ifvqc2g","pricing_plan_id":"cebpf4jnsgd1na2vs0mg"},{"bike_id":"f0413c71-e0c3-427b-98cb-cdf950c219e3","system_id":"levelo_inurba_marseille","lat":43.310131,"lon":5.400591,"is_reserved":false,"is_disabled":false,"rental_uris":{"android":"levelo://app?vid=f0413c71-e0c3-427b-98cb-cdf950c219e3","ios":"levelo://app?vid=f0413c71-e0c3-427b-98cb-cdf950c219e3"},"vehicle_type_id":"4","last_reported":1762953955,"current_range_meters":14000,"station_id":"","pricing_plan_id":"cebpf4jnsgd1na2vs0mg"},{"bike_id":"e13b78db-2231-48a0-b9e0-a153f32a43f4","system_id":"levelo_inurba_marseille","lat":43.23059,"lon":5.35492,"is_reserved":false,"is_disabled":false,"rental_uris":{"android":"levelo://app?vid=e13b78db-2231-48a0-b9e0-a153f32a43f4","ios":"levelo://app?vid=e13b78db-2231-48a0-b9e0-a153f32a43f4"},"vehicle_type_id":"4","last_reported":1762953955,"current_range_meters":14000,"station_id":"cpo3342slgdg3j2ifvpg","pricing_plan_id":"cebpf4jnsgd1na2vs0mg"},{"bike_id":"9cdfde93-2a48-4f51-9356-45d652fec7bd","system_id":"levelo_inurba_marseille","lat":43.2963,"lon":5.37715,"is_reserved":false,"is_disabled":false,"rental_uris":{"android":"levelo://app?vid=9cdfde93-2a48-4f51-9356-45d652fec7bd","ios":"levelo://app?vid=9cdfde93-2a48-4f51-9356-45d652fec7bd"},"vehicle_type_id":"4","last_reported":1762953955,"current_range_meters":14000,"station_id":"ce4bgi92rcd13ifvqb90","pricing_plan_id":"cebpf4jnsgd1na2vs0mg"},{"bike_id":"0ab86089-b031-4d3c-825e-338bf8f85e46","system_id":"levelo_inurba_marseille","lat":43.29912,"lon":5.36598,"is_reserved":false,"is_disabled":false,"rental_uris":{"android":"levelo://app?vid=0ab86089-b031-4d3c-825e-338bf8f85e46","ios":"levelo://app?vid=0ab86089-b031-4d3c-825e-338bf8f85e46"},"vehicle_type_id":"4","last_reported":1762953955,"current_range_meters":14000,"station_id":"ce4bgm92rcd13ifvqbr0","pricing_plan_id":"cebpf4jnsgd1na2vs0mg"},{"bike_id":"937bf3a3-8cb4-46a7-8b17-b0fa50222388","system_id":"levelo_inurba_marseille","lat":43.23964,"lon":5.3663,"is_reserved":false,"is_disabled":false,"rental_uris":{"android":"levelo://app?vid=937bf3a3-8cb4-46a7-8b17-b0fa50222388","ios":"levelo://app?vid=937bf3a3-8cb4-46a7-8b17-b0fa50222388"},"vehicle_type_id":"4","last_reported":1762953955,"current_range_meters":14000,"station_id":"ce4bhi12rcd13ifvqfp0","pricing_plan_id":"cebpf4jnsgd1na2vs0mg"},{"bike_id":"76627f9b-dcce-4b56-bd3a-bfc8f42b28e1","system_id":"levelo_inurba_marseille","lat":43.29524,"lon":5.38547,"is_reserved":false,"is_disabled":false,"rental_uris":{"android":"levelo://app?vid=76627f9b-dcce-4b56-bd3a-bfc8f42b28e1","ios":"levelo://app?vid=76627f9b-dcce-4b56-bd3a-bfc8f42b28e1"},"vehicle_type_id":"4","last_reported":1762953955,"current_range_meters":14400,"station_id":"ce4bgih2rcd13ifvqba0","pricing_plan_id":"cebpf4jnsgd1na2vs0mg"},{"bike_id":"e3df63a1-f3d2-4d82-8bf6-df212c4e8b69","system_id":"levelo_inurba_marseille","lat":43.28481,"lon":5.48404,"is_reserved":false,"is_disabled":false,"rental_uris":{"android":"levelo://app?vid=e3df63a1-f3d2-4d82-8bf6-df212c4e8b69","ios":"levelo://app?vid=e3df63a1-f3d2-4d82-8bf6-df212c4e8b69"},"vehicle_type_id":"4","last_reported":1762953955,"current_range_meters":14400,"station_id":"st_d3svhcjqgbts73a3dn0g","pricing_plan_id":"cebpf4jnsgd1na2vs0mg"},{"bike_id":"d1562a83-9286-4173-9603-a08c676d773a","system_id":"levelo_inurba_marseille","lat":43.21193,"lon":5.35081,"is_reserved":false,"is_disabled":false,"rental_uris":{"android":"levelo://app?vid=d1562a83-9286-4173-9603-a08c676d773a","ios":"levelo://app?vid=d1562a83-9286-4173-9603-a08c676d773a"},"vehicle_type_id":"4","last_reported":1762953955,"current_range_meters":14400,"station_id":"st_cvj6sg6p6f1abm77japg","pricing_plan_id":"cebpf4jnsgd1na2vs0mg"},{"bike_id":"f19a854d-96e9-4cf0-92aa-d357813dc143","system_id":"levelo_inurba_marseille","lat":43.284762,"lon":5.384242,"is_reserved":false,"is_disabled":true,"rental_uris":{"android":"levelo://app?vid=f19a854d-96e9-4cf0-92aa-d357813dc143","ios":"levelo://app?vid=f19a854d-96e9-4cf0-92aa-d357813dc143"},"vehicle_type_id":"4","last_reported":1762953955,"current_range_meters":14400,"station_id":"ce4bh512rcd13ifvqe3g","pricing_plan_id":"cebpf4jnsgd1na2vs0mg"},{"bike_id":"0528378f-1b50-41df-b328-6686306ee922","system_id":"levelo_inurba_marseille","lat":43.216307,"lon":5.344438,"is_reserved":false,"is_disabled":false,"rental_uris":{"android":"levelo://app?vid=0528378f-1b50-41df-b328-6686306ee922","ios":"levelo://app?vid=0528378f-1b50-41df-b328-6686306ee922"},"vehicle_type_id":"4","last_reported":1762953955,"current_range_meters":14400,"station_id":"","pricing_plan_id":"cebpf4jnsgd1na2vs0mg"},{"bike_id":"2de93c3a-1224-492b-a30b-cf3654286c4d","system_id":"levelo_inurba_marseille","lat":43.33593,"lon":5.41036,"is_reserved":false,"is_disabled":false,"rental_uris":{"android":"levelo://app?vid=2de93c3a-1224-492b-a30b-cf3654286c4d","ios":"levelo://app?vid=2de93c3a-1224-492b-a30b-cf3654286c4d"},"vehicle_type_id":"4","last_reported":1762953955,"current_range_meters":14400,"station_id":"ce4bhqh2rcd13ifvqhmg","pricing_plan_id":"cebpf4jnsgd1na2vs0mg"},{"bike_id":"3e9427b7-a28e-43eb-b57c-0cd637ed4284","system_id":"levelo_inurba_marseille","lat":43.23143,"lon":5.43721,"is_reserved":false,"is_disabled":false,"rental_uris":{"android":"levelo://app?vid=3e9427b7-a28e-43eb-b57c-0cd637ed4284","ios":"levelo://app?vid=3e9427b7-a28e-43eb-b57c-0cd637ed4284"},"vehicle_type_id":"4","last_reported":1762953955,"current_range_meters":14400,"station_id":"ce4bhmp2rcd13ifvqgog","pricing_plan_id":"cebpf4jnsgd1na2vs0mg"},{"bike_id":"7cd3fc91-8b4e-4cc9-a97a-8aec9cd4160c","system_id":"levelo_inurba_marseille","lat":43.298775,"lon":5.372044,"is_reserved":false,"is_disabled":true,"rental_uris":{"android":"levelo://app?vid=7cd3fc91-8b4e-4cc9-a97a-8aec9cd4160c","ios":"levelo://app?vid=7cd3fc91-8b4e-4cc9-a97a-8aec9cd4160c"},"vehicle_type_id":"4","last_reported":1762953955,"current_range_meters":14800,"station_id":"","pricing_plan_id":"cebpf4jnsgd1na2vs0mg"},{"bike_id":"2f34f274-c8fc-492e-838a-720f2d384a9c","system_id":"levelo_inurba_marseille","lat":43.29985,"lon":5.37184,"is_reserved":false,"is_disabled":false,"rental_uris":{"android":"levelo://app?vid=2f34f274-c8fc-492e-838a-720f2d384a9c","ios":"levelo://app?vid=2f34f274-c8fc-492e-838a-720f2d384a9c"},"vehicle_type_id":"4","last_reported":1762953955,"current_range_meters":14800,"station_id":"ce4bgr92rcd13ifvqc7g","pricing_plan_id":"cebpf4jnsgd1na2vs0mg"},{"bike_id":"e1053ce3-1cba-4603-9f30-2eb8af710cc0","system_id":"levelo_inurba_marseille","lat":43.31225,"lon":5.36858,"is_reserved":false,"is_disabled":false,"rental_uris":{"android":"levelo://app?vid=e1053ce3-1cba-4603-9f30-2eb8af710cc0","ios":"levelo://app?vid=e1053ce3-1cba-4603-9f30-2eb8af710cc0"},"vehicle_type_id":"4","last_reported":1762953955,"current_range_meters":14800,"station_id":"ce4bgl92rcd13ifvqbq0","pricing_plan_id":"cebpf4jnsgd1na2vs0mg"},{"bike_id":"7405fff1-54cb-4441-8d3b-98a0b2f0eb43","system_id":"levelo_inurba_marseille","lat":43.273281,"lon":5.390523,"is_reserved":false,"is_disabled":false,"rental_uris":{"android":"levelo://app?vid=7405fff1-54cb-4441-8d3b-98a0b2f0eb43","ios":"levelo://app?vid=7405fff1-54cb-4441-8d3b-98a0b2f0eb43"},"vehicle_type_id":"4","last_reported":1762953955,"current_range_meters":14800,"station_id":"","pricing_plan_id":"cebpf4jnsgd1na2vs0mg"},{"bike_id":"a24d1ed3-7d2a-4935-9058-4a4ebef3dc61","system_id":"levelo_inurba_marseille","lat":43.26545,"lon":5.37322,"is_reserved":false,"is_disabled":false,"rental_uris":{"android":"levelo://app?vid=a24d1ed3-7d2a-4935-9058-4a4ebef3dc61","ios":"levelo://app?vid=a24d1ed3-7d2a-4935-9058-4a4ebef3dc61"},"vehicle_type_id":"4","last_reported":1762953955,"current_range_meters":14800,"station_id":"ce4bhg12rcd13ifvqf70","pricing_plan_id":"cebpf4jnsgd1na2vs0mg"},{"bike_id":"3eab648b-b5a8-4b04-889b-8e3fd9d2a3de","system_id":"levelo_inurba_marseille","lat":43.28159,"lon":5.426453,"is_reserved":false,"is_disabled":false,"rental_uris":{"android":"levelo://app?vid=3eab648b-b5a8-4b04-889b-8e3fd9d2a3de","ios":"levelo://app?vid=3eab648b-b5a8-4b04-889b-8e3fd9d2a3de"},"vehicle_type_id":"4","last_reported":1762953955,"current_range_meters":14800,"station_id":"ce4bhnh2rcd13ifvqgug","pricing_plan_id":"cebpf4jnsgd1na2vs0mg"},{"bike_id":"01571923-980e-446a-ba2d-4d18a11dfcdd","system_id":"levelo_inurba_marseille","lat":43.247893,"lon":5.374739,"is_reserved":false,"is_disabled":false,"rental_uris":{"android":"levelo://app?vid=01571923-980e-446a-ba2d-4d18a11dfcdd","ios":"levelo://app?vid=01571923-980e-446a-ba2d-4d18a11dfcdd"},"vehicle_type_id":"4","last_reported":1762953955,"current_range_meters":15200,"station_id":"","pricing_plan_id":"cebpf4jnsgd1na2vs0mg"},{"bike_id":"c32a49ee-76d4-48ba-b397-49e60fa82e4b","system_id":"levelo_inurba_marseille","lat":43.31702,"lon":5.40453,"is_reserved":false,"is_disabled":false,"rental_uris":{"android":"levelo://app?vid=c32a49ee-76d4-48ba-b397-49e60fa82e4b","ios":"levelo://app?vid=c32a49ee-76d4-48ba-b397-49e60fa82e4b"},"vehicle_type_id":"4","last_reported":1762953955,"current_range_meters":15200,"station_id":"ce4bh012rcd13ifvqd00","pricing_plan_id":"cebpf4jnsgd1na2vs0mg"},{"bike_id":"800217f6-4b91-4e1e-8b71-9866a079579d","system_id":"levelo_inurba_marseille","lat":43.23787,"lon":5.36635,"is_reserved":false,"is_disabled":false,"rental_uris":{"android":"levelo://app?vid=800217f6-4b91-4e1e-8b71-9866a079579d","ios":"levelo://app?vid=800217f6-4b91-4e1e-8b71-9866a079579d"},"vehicle_type_id":"4","last_reported":1762953955,"current_range_meters":15200,"station_id":"st_d3nk18o9ro0c73en2l3g","pricing_plan_id":"cebpf4jnsgd1na2vs0mg"},{"bike_id":"c01ee74c-0907-4ca7-82d0-a92efd488ad9","system_id":"levelo_inurba_marseille","lat":43.22561,"lon":5.41638,"is_reserved":false,"is_disabled":false,"rental_uris":{"android":"levelo://app?vid=c01ee74c-0907-4ca7-82d0-a92efd488ad9","ios":"levelo://app?vid=c01ee74c-0907-4ca7-82d0-a92efd488ad9"},"vehicle_type_id":"4","last_reported":1762953955,"current_range_meters":15200,"station_id":"st_d2o4gvlbi1j2169b742g","pricing_plan_id":"cebpf4jnsgd1na2vs0mg"},{"bike_id":"9a8ec229-2a02-411c-921b-0d94ee2289e6","system_id":"levelo_inurba_marseille","lat":43.30516,"lon":5.36747,"is_reserved":false,"is_disabled":false,"rental_uris":{"android":"levelo://app?vid=9a8ec229-2a02-411c-921b-0d94ee2289e6","ios":"levelo://app?vid=9a8ec229-2a02-411c-921b-0d94ee2289e6"},"vehicle_type_id":"4","last_reported":1762953955,"current_range_meters":15200,"station_id":"ce4bgrp2rcd13ifvqc9g","pricing_plan_id":"cebpf4jnsgd1na2vs0mg"},{"bike_id":"c9a41f20-861a-4d32-91b1-292791b535f8","system_id":"levelo_inurba_marseille","lat":43.3057,"lon":5.36561,"is_reserved":false,"is_disabled":false,"rental_uris":{"android":"levelo://app?vid=c9a41f20-861a-4d32-91b1-292791b535f8","ios":"levelo://app?vid=c9a41f20-861a-4d32-91b1-292791b535f8"},"vehicle_type_id":"4","last_reported":1762953955,"current_range_meters":16000,"station_id":"ce4bgs12rcd13ifvqcag","pricing_plan_id":"cebpf4jnsgd1na2vs0mg"},{"bike_id":"6dc8b84f-81c9-44ce-ba2d-d57b9ad31bcd","system_id":"levelo_inurba_marseille","lat":43.29932,"lon":5.3654,"is_reserved":false,"is_disabled":false,"rental_uris":{"android":"levelo://app?vid=6dc8b84f-81c9-44ce-ba2d-d57b9ad31bcd","ios":"levelo://app?vid=6dc8b84f-81c9-44ce-ba2d-d57b9ad31bcd"},"vehicle_type_id":"4","last_reported":1762953955,"current_range_meters":16000,"station_id":"ce4bgm92rcd13ifvqbr0","pricing_plan_id":"cebpf4jnsgd1na2vs0mg"},{"bike_id":"c4d99a60-56bc-4f6e-96c8-b59c44660d79","system_id":"levelo_inurba_marseille","lat":43.24652,"lon":5.38906,"is_reserved":false,"is_disabled":false,"rental_uris":{"android":"levelo://app?vid=c4d99a60-56bc-4f6e-96c8-b59c44660d79","ios":"levelo://app?vid=c4d99a60-56bc-4f6e-96c8-b59c44660d79"},"vehicle_type_id":"4","last_reported":1762953955,"current_range_meters":16000,"station_id":"ce4bhg12rcd13ifvqf60","pricing_plan_id":"cebpf4jnsgd1na2vs0mg"},{"bike_id":"fd3bc958-4321-401c-a774-6c4276dba134","system_id":"levelo_inurba_marseille","lat":43.24993,"lon":5.38942,"is_reserved":false,"is_disabled":false,"rental_uris":{"android":"levelo://app?vid=fd3bc958-4321-401c-a774-6c4276dba134","ios":"levelo://app?vid=fd3bc958-4321-401c-a774-6c4276dba134"},"vehicle_type_id":"4","last_reported":1762953955,"current_range_meters":16000,"station_id":"ce4bhgp2rcd13ifvqfd0","pricing_plan_id":"cebpf4jnsgd1na2vs0mg"},{"bike_id":"1b0b7981-696f-4ec5-932c-764cd2899c70","system_id":"levelo_inurba_marseille","lat":43.28477,"lon":5.48396,"is_reserved":false,"is_disabled":false,"rental_uris":{"android":"levelo://app?vid=1b0b7981-696f-4ec5-932c-764cd2899c70","ios":"levelo://app?vid=1b0b7981-696f-4ec5-932c-764cd2899c70"},"vehicle_type_id":"4","last_reported":1762953955,"current_range_meters":16000,"station_id":"","pricing_plan_id":"cebpf4jnsgd1na2vs0mg"},{"bike_id":"9f77fce6-b576-455d-a43d-b1e175676c28","system_id":"levelo_inurba_marseille","lat":43.33773,"lon":5.37473,"is_reserved":false,"is_disabled":false,"rental_uris":{"android":"levelo://app?vid=9f77fce6-b576-455d-a43d-b1e175676c28","ios":"levelo://app?vid=9f77fce6-b576-455d-a43d-b1e175676c28"},"vehicle_type_id":"4","last_reported":1762953955,"current_range_meters":16000,"station_id":"","pricing_plan_id":"cebpf4jnsgd1na2vs0mg"},{"bike_id":"3210e757-4d1e-4efd-83c1-043a34b9a756","system_id":"levelo_inurba_marseille","lat":43.24176,"lon":5.39735,"is_reserved":false,"is_disabled":false,"rental_uris":{"android":"levelo://app?vid=3210e757-4d1e-4efd-83c1-043a34b9a756","ios":"levelo://app?vid=3210e757-4d1e-4efd-83c1-043a34b9a756"},"vehicle_type_id":"4","last_reported":1762953955,"current_range_meters":16000,"station_id":"ce4bhn12rcd13ifvqgpg","pricing_plan_id":"cebpf4jnsgd1na2vs0mg"},{"bike_id":"2a2ec83a-2b84-4bf4-b19a-cd864bece9fd","system_id":"levelo_inurba_marseille","lat":43.24645,"lon":5.43137,"is_reserved":false,"is_disabled":false,"rental_uris":{"android":"levelo://app?vid=2a2ec83a-2b84-4bf4-b19a-cd864bece9fd","ios":"levelo://app?vid=2a2ec83a-2b84-4bf4-b19a-cd864bece9fd"},"vehicle_type_id":"4","last_reported":1762953955,"current_range_meters":16000,"station_id":"st_d2m6c4gdas8pm72e190g","pricing_plan_id":"cebpf4jnsgd1na2vs0mg"},{"bike_id":"a26712ac-c4dc-4d7c-9767-877ec57b4780","system_id":"levelo_inurba_marseille","lat":43.28483,"lon":5.48394,"is_reserved":false,"is_disabled":false,"rental_uris":{"android":"levelo://app?vid=a26712ac-c4dc-4d7c-9767-877ec57b4780","ios":"levelo://app?vid=a26712ac-c4dc-4d7c-9767-877ec57b4780"},"vehicle_type_id":"4","last_reported":1762953955,"current_range_meters":16400,"station_id":"st_d3svhcjqgbts73a3dn0g","pricing_plan_id":"cebpf4jnsgd1na2vs0mg"},{"bike_id":"52d4b8ef-bd3b-4594-9933-6de587b7e338","system_id":"levelo_inurba_marseille","lat":43.22939,"lon":5.35482,"is_reserved":false,"is_disabled":false,"rental_uris":{"android":"levelo://app?vid=52d4b8ef-bd3b-4594-9933-6de587b7e338","ios":"levelo://app?vid=52d4b8ef-bd3b-4594-9933-6de587b7e338"},"vehicle_type_id":"4","last_reported":1762953955,"current_range_meters":16400,"station_id":"","pricing_plan_id":"cebpf4jnsgd1na2vs0mg"},{"bike_id":"5f4af480-3175-4691-b7b0-2fb7d215707c","system_id":"levelo_inurba_marseille","lat":43.292801,"lon":5.368508,"is_reserved":false,"is_disabled":false,"rental_uris":{"android":"levelo://app?vid=5f4af480-3175-4691-b7b0-2fb7d215707c","ios":"levelo://app?vid=5f4af480-3175-4691-b7b0-2fb7d215707c"},"vehicle_type_id":"4","last_reported":1762953955,"current_range_meters":16400,"station_id":"","pricing_plan_id":"cebpf4jnsgd1na2vs0mg"},{"bike_id":"0c5ff86f-4864-4d7a-9062-ca4c903079a8","system_id":"levelo_inurba_marseille","lat":43.29269,"lon":5.3685,"is_reserved":false,"is_disabled":false,"rental_uris":{"android":"levelo://app?vid=0c5ff86f-4864-4d7a-9062-ca4c903079a8","ios":"levelo://app?vid=0c5ff86f-4864-4d7a-9062-ca4c903079a8"},"vehicle_type_id":"4","last_reported":1762953955,"current_range_meters":16800,"station_id":"ce4bhbp2rcd13ifvqesg","pricing_plan_id":"cebpf4jnsgd1na2vs0mg"},{"bike_id":"a76ed384-8adb-4855-8ea9-608b64e9d92b","system_id":"levelo_inurba_marseille","lat":43.32286,"lon":5.36991,"is_reserved":false,"is_disabled":false,"rental_uris":{"android":"levelo://app?vid=a76ed384-8adb-4855-8ea9-608b64e9d92b","ios":"levelo://app?vid=a76ed384-8adb-4855-8ea9-608b64e9d92b"},"vehicle_type_id":"4","last_reported":1762953955,"current_range_meters":16800,"station_id":"","pricing_plan_id":"cebpf4jnsgd1na2vs0mg"},{"bike_id":"ef3787f7-4815-49ad-b8f4-4132eb78b8f9","system_id":"levelo_inurba_marseille","lat":43.305374,"lon":5.36537,"is_reserved":false,"is_disabled":false,"rental_uris":{"android":"levelo://app?vid=ef3787f7-4815-49ad-b8f4-4132eb78b8f9","ios":"levelo://app?vid=ef3787f7-4815-49ad-b8f4-4132eb78b8f9"},"vehicle_type_id":"4","last_reported":1762953955,"current_range_meters":17200,"station_id":"ce4bgs12rcd13ifvqcag","pricing_plan_id":"cebpf4jnsgd1na2vs0mg"},{"bike_id":"8369aa72-98f1-43e6-a29f-5802aaa9979e","system_id":"levelo_inurba_marseille","lat":43.28036,"lon":5.36948,"is_reserved":false,"is_disabled":false,"rental_uris":{"android":"levelo://app?vid=8369aa72-98f1-43e6-a29f-5802aaa9979e","ios":"levelo://app?vid=8369aa72-98f1-43e6-a29f-5802aaa9979e"},"vehicle_type_id":"4","last_reported":1762953955,"current_range_meters":17200,"station_id":"ce4bha12rcd13ifvqef0","pricing_plan_id":"cebpf4jnsgd1na2vs0mg"},{"bike_id":"63f48172-b098-4c29-8e4e-a412a60568dc","system_id":"levelo_inurba_marseille","lat":43.32536,"lon":5.41455,"is_reserved":false,"is_disabled":false,"rental_uris":{"android":"levelo://app?vid=63f48172-b098-4c29-8e4e-a412a60568dc","ios":"levelo://app?vid=63f48172-b098-4c29-8e4e-a412a60568dc"},"vehicle_type_id":"4","last_reported":1762953955,"current_range_meters":17200,"station_id":"ce4bhq12rcd13ifvqhhg","pricing_plan_id":"cebpf4jnsgd1na2vs0mg"},{"bike_id":"23f9c78c-ca0a-48be-8a9d-156c748920c2","system_id":"levelo_inurba_marseille","lat":43.27922,"lon":5.4103,"is_reserved":false,"is_disabled":false,"rental_uris":{"android":"levelo://app?vid=23f9c78c-ca0a-48be-8a9d-156c748920c2","ios":"levelo://app?vid=23f9c78c-ca0a-48be-8a9d-156c748920c2"},"vehicle_type_id":"4","last_reported":1762953955,"current_range_meters":17200,"station_id":"ce4bhnp2rcd13ifvqh0g","pricing_plan_id":"cebpf4jnsgd1na2vs0mg"},{"bike_id":"3ebfd771-15f9-440d-a339-6b112e22528e","system_id":"levelo_inurba_marseille","lat":43.31688,"lon":5.43683,"is_reserved":false,"is_disabled":false,"rental_uris":{"android":"levelo://app?vid=3ebfd771-15f9-440d-a339-6b112e22528e","ios":"levelo://app?vid=3ebfd771-15f9-440d-a339-6b112e22528e"},"vehicle_type_id":"4","last_reported":1762953955,"current_range_meters":17200,"station_id":"ce4bhp92rcd13ifvqhcg","pricing_plan_id":"cebpf4jnsgd1na2vs0mg"},{"bike_id":"98d9ed27-1c51-4232-bb05-142a9e7f98db","system_id":"levelo_inurba_marseille","lat":43.31069,"lon":5.38344,"is_reserved":false,"is_disabled":true,"rental_uris":{"android":"levelo://app?vid=98d9ed27-1c51-4232-bb05-142a9e7f98db","ios":"levelo://app?vid=98d9ed27-1c51-4232-bb05-142a9e7f98db"},"vehicle_type_id":"4","last_reported":1762953955,"current_range_meters":17200,"station_id":"ce4bgv92rcd13ifvqcr0","pricing_plan_id":"cebpf4jnsgd1na2vs0mg"},{"bike_id":"7c1fb98d-3688-454d-b542-b5ecc52bd3e9","system_id":"levelo_inurba_marseille","lat":43.29719,"lon":5.368484,"is_reserved":false,"is_disabled":false,"rental_uris":{"android":"levelo://app?vid=7c1fb98d-3688-454d-b542-b5ecc52bd3e9","ios":"levelo://app?vid=7c1fb98d-3688-454d-b542-b5ecc52bd3e9"},"vehicle_type_id":"4","last_reported":1762953955,"current_range_meters":17200,"station_id":"ce4bgn12rcd13ifvqbt0","pricing_plan_id":"cebpf4jnsgd1na2vs0mg"},{"bike_id":"6f9ce1af-df1f-4887-a14a-4ad607eeed20","system_id":"levelo_inurba_marseille","lat":43.33027,"lon":5.39038,"is_reserved":false,"is_disabled":false,"rental_uris":{"android":"levelo://app?vid=6f9ce1af-df1f-4887-a14a-4ad607eeed20","ios":"levelo://app?vid=6f9ce1af-df1f-4887-a14a-4ad607eeed20"},"vehicle_type_id":"4","last_reported":1762953955,"current_range_meters":17200,"station_id":"ce4bhr92rcd13ifvqhrg","pricing_plan_id":"cebpf4jnsgd1na2vs0mg"},{"bike_id":"b973542d-88ff-4253-9b4e-a75517007190","system_id":"levelo_inurba_marseille","lat":43.29686,"lon":5.37583,"is_reserved":false,"is_disabled":false,"rental_uris":{"android":"levelo://app?vid=b973542d-88ff-4253-9b4e-a75517007190","ios":"levelo://app?vid=b973542d-88ff-4253-9b4e-a75517007190"},"vehicle_type_id":"4","last_reported":1762953955,"current_range_meters":17200,"station_id":"","pricing_plan_id":"cebpf4jnsgd1na2vs0mg"},{"bike_id":"e0940536-8e97-445f-9fc3-1d0cc2c2fe80","system_id":"levelo_inurba_marseille","lat":43.337444,"lon":5.374475,"is_reserved":false,"is_disabled":false,"rental_uris":{"android":"levelo://app?vid=e0940536-8e97-445f-9fc3-1d0cc2c2fe80","ios":"levelo://app?vid=e0940536-8e97-445f-9fc3-1d0cc2c2fe80"},"vehicle_type_id":"4","last_reported":1762953955,"current_range_meters":17200,"station_id":"","pricing_plan_id":"cebpf4jnsgd1na2vs0mg"},{"bike_id":"702c9c35-d255-4669-a076-c93b47e35494","system_id":"levelo_inurba_marseille","lat":43.32522,"lon":5.41505,"is_reserved":false,"is_disabled":false,"rental_uris":{"android":"levelo://app?vid=702c9c35-d255-4669-a076-c93b47e35494","ios":"levelo://app?vid=702c9c35-d255-4669-a076-c93b47e35494"},"vehicle_type_id":"4","last_reported":1762953955,"current_range_meters":17600,"station_id":"","pricing_plan_id":"cebpf4jnsgd1na2vs0mg"},{"bike_id":"225316d1-feb8-4645-8ab2-c0ab8da6ef2a","system_id":"levelo_inurba_marseille","lat":43.25127,"lon":5.40305,"is_reserved":false,"is_disabled":false,"rental_uris":{"android":"levelo://app?vid=225316d1-feb8-4645-8ab2-c0ab8da6ef2a","ios":"levelo://app?vid=225316d1-feb8-4645-8ab2-c0ab8da6ef2a"},"vehicle_type_id":"4","last_reported":1762953955,"current_range_meters":17600,"station_id":"ce4bhlh2rcd13ifvqgig","pricing_plan_id":"cebpf4jnsgd1na2vs0mg"},{"bike_id":"dfbb618d-40ac-4f2f-a22f-91225168e334","system_id":"levelo_inurba_marseille","lat":43.27211,"lon":5.39182,"is_reserved":false,"is_disabled":false,"rental_uris":{"android":"levelo://app?vid=dfbb618d-40ac-4f2f-a22f-91225168e334","ios":"levelo://app?vid=dfbb618d-40ac-4f2f-a22f-91225168e334"},"vehicle_type_id":"4","last_reported":1762953955,"current_range_meters":17600,"station_id":"ce4bhhp2rcd13ifvqfm0","pricing_plan_id":"cebpf4jnsgd1na2vs0mg"},{"bike_id":"5e31c7d8-3f5b-43e0-9a64-04fd6cacf51c","system_id":"levelo_inurba_marseille","lat":43.30917,"lon":5.36849,"is_reserved":false,"is_disabled":false,"rental_uris":{"android":"levelo://app?vid=5e31c7d8-3f5b-43e0-9a64-04fd6cacf51c","ios":"levelo://app?vid=5e31c7d8-3f5b-43e0-9a64-04fd6cacf51c"},"vehicle_type_id":"4","last_reported":1762953955,"current_range_meters":17600,"station_id":"ce4bgn92rcd13ifvqbvg","pricing_plan_id":"cebpf4jnsgd1na2vs0mg"},{"bike_id":"9f257429-210e-4187-b310-fa3b4c5c3978","system_id":"levelo_inurba_marseille","lat":43.27339,"lon":5.40142,"is_reserved":false,"is_disabled":false,"rental_uris":{"android":"levelo://app?vid=9f257429-210e-4187-b310-fa3b4c5c3978","ios":"levelo://app?vid=9f257429-210e-4187-b310-fa3b4c5c3978"},"vehicle_type_id":"4","last_reported":1762953955,"current_range_meters":17600,"station_id":"","pricing_plan_id":"cebpf4jnsgd1na2vs0mg"},{"bike_id":"4f27c235-11df-4df2-bfdf-8938c3d9c6ba","system_id":"levelo_inurba_marseille","lat":43.33779,"lon":5.37411,"is_reserved":false,"is_disabled":false,"rental_uris":{"android":"levelo://app?vid=4f27c235-11df-4df2-bfdf-8938c3d9c6ba","ios":"levelo://app?vid=4f27c235-11df-4df2-bfdf-8938c3d9c6ba"},"vehicle_type_id":"4","last_reported":1762953955,"current_range_meters":17600,"station_id":"","pricing_plan_id":"cebpf4jnsgd1na2vs0mg"},{"bike_id":"2380415b-651d-4cb4-9936-c30499ae6b46","system_id":"levelo_inurba_marseille","lat":43.217448,"lon":5.346074,"is_reserved":false,"is_disabled":true,"rental_uris":{"android":"levelo://app?vid=2380415b-651d-4cb4-9936-c30499ae6b46","ios":"levelo://app?vid=2380415b-651d-4cb4-9936-c30499ae6b46"},"vehicle_type_id":"4","last_reported":1762953955,"current_range_meters":17600,"station_id":"","pricing_plan_id":"cebpf4jnsgd1na2vs0mg"},{"bike_id":"494aa525-79c1-49ea-a7e2-3bfdc07aecb4","system_id":"levelo_inurba_marseille","lat":43.296288,"lon":5.37717,"is_reserved":false,"is_disabled":true,"rental_uris":{"android":"levelo://app?vid=494aa525-79c1-49ea-a7e2-3bfdc07aecb4","ios":"levelo://app?vid=494aa525-79c1-49ea-a7e2-3bfdc07aecb4"},"vehicle_type_id":"4","last_reported":1762953955,"current_range_meters":18000,"station_id":"","pricing_plan_id":"cebpf4jnsgd1na2vs0mg"},{"bike_id":"f8e6e762-325b-438f-b1fa-404b7b624a44","system_id":"levelo_inurba_marseille","lat":43.25724,"lon":5.4111,"is_reserved":false,"is_disabled":false,"rental_uris":{"android":"levelo://app?vid=f8e6e762-325b-438f-b1fa-404b7b624a44","ios":"levelo://app?vid=f8e6e762-325b-438f-b1fa-404b7b624a44"},"vehicle_type_id":"4","last_reported":1762953955,"current_range_meters":18000,"station_id":"ce4bhkp2rcd13ifvqgd0","pricing_plan_id":"cebpf4jnsgd1na2vs0mg"},{"bike_id":"335419ae-8ab5-48f4-9bb9-19f82dc3e5ea","system_id":"levelo_inurba_marseille","lat":43.25725,"lon":5.4109,"is_reserved":false,"is_disabled":false,"rental_uris":{"android":"levelo://app?vid=335419ae-8ab5-48f4-9bb9-19f82dc3e5ea","ios":"levelo://app?vid=335419ae-8ab5-48f4-9bb9-19f82dc3e5ea"},"vehicle_type_id":"4","last_reported":1762953955,"current_range_meters":18000,"station_id":"ce4bhkp2rcd13ifvqgd0","pricing_plan_id":"cebpf4jnsgd1na2vs0mg"},{"bike_id":"30fd4443-2c85-4fdf-b109-5a698791a372","system_id":"levelo_inurba_marseille","lat":43.30328,"lon":5.40436,"is_reserved":false,"is_disabled":false,"rental_uris":{"android":"levelo://app?vid=30fd4443-2c85-4fdf-b109-5a698791a372","ios":"levelo://app?vid=30fd4443-2c85-4fdf-b109-5a698791a372"},"vehicle_type_id":"4","last_reported":1762953955,"current_range_meters":18000,"station_id":"ce4bh012rcd13ifvqd10","pricing_plan_id":"cebpf4jnsgd1na2vs0mg"},{"bike_id":"4cfb2773-9b2c-4693-8c00-8ce3a2a20e36","system_id":"levelo_inurba_marseille","lat":43.25508,"lon":5.37651,"is_reserved":false,"is_disabled":false,"rental_uris":{"android":"levelo://app?vid=4cfb2773-9b2c-4693-8c00-8ce3a2a20e36","ios":"levelo://app?vid=4cfb2773-9b2c-4693-8c00-8ce3a2a20e36"},"vehicle_type_id":"4","last_reported":1762953955,"current_range_meters":18000,"station_id":"ce4bhh12rcd13ifvqff0","pricing_plan_id":"cebpf4jnsgd1na2vs0mg"},{"bike_id":"a68809aa-d0e6-461c-a5e6-8fdb1f2108c8","system_id":"levelo_inurba_marseille","lat":43.282985,"lon":5.350419,"is_reserved":false,"is_disabled":false,"rental_uris":{"android":"levelo://app?vid=a68809aa-d0e6-461c-a5e6-8fdb1f2108c8","ios":"levelo://app?vid=a68809aa-d0e6-461c-a5e6-8fdb1f2108c8"},"vehicle_type_id":"4","last_reported":1762953955,"current_range_meters":18000,"station_id":"ce4bhbp2rcd13ifvqerg","pricing_plan_id":"cebpf4jnsgd1na2vs0mg"},{"bike_id":"e690290b-b188-4bf4-9457-b92ed6970cb4","system_id":"levelo_inurba_marseille","lat":43.21197,"lon":5.35078,"is_reserved":false,"is_disabled":true,"rental_uris":{"android":"levelo://app?vid=e690290b-b188-4bf4-9457-b92ed6970cb4","ios":"levelo://app?vid=e690290b-b188-4bf4-9457-b92ed6970cb4"},"vehicle_type_id":"4","last_reported":1762953955,"current_range_meters":18000,"station_id":"st_cvj6sg6p6f1abm77japg","pricing_plan_id":"cebpf4jnsgd1na2vs0mg"},{"bike_id":"c83b5c1b-edab-4bfb-a2f2-d3468c55c2ba","system_id":"levelo_inurba_marseille","lat":43.29155,"lon":5.44873,"is_reserved":false,"is_disabled":false,"rental_uris":{"android":"levelo://app?vid=c83b5c1b-edab-4bfb-a2f2-d3468c55c2ba","ios":"levelo://app?vid=c83b5c1b-edab-4bfb-a2f2-d3468c55c2ba"},"vehicle_type_id":"4","last_reported":1762953955,"current_range_meters":18800,"station_id":"","pricing_plan_id":"cebpf4jnsgd1na2vs0mg"},{"bike_id":"8fd55e53-be61-44d2-b076-f7df406ab515","system_id":"levelo_inurba_marseille","lat":43.305407,"lon":5.365541,"is_reserved":false,"is_disabled":false,"rental_uris":{"android":"levelo://app?vid=8fd55e53-be61-44d2-b076-f7df406ab515","ios":"levelo://app?vid=8fd55e53-be61-44d2-b076-f7df406ab515"},"vehicle_type_id":"4","last_reported":1762953955,"current_range_meters":18800,"station_id":"ce4bgs12rcd13ifvqcag","pricing_plan_id":"cebpf4jnsgd1na2vs0mg"},{"bike_id":"5a2b6212-eaad-47ce-a04a-87e849ad77f5","system_id":"levelo_inurba_marseille","lat":43.304187,"lon":5.412857,"is_reserved":false,"is_disabled":false,"rental_uris":{"android":"levelo://app?vid=5a2b6212-eaad-47ce-a04a-87e849ad77f5","ios":"levelo://app?vid=5a2b6212-eaad-47ce-a04a-87e849ad77f5"},"vehicle_type_id":"4","last_reported":1762953955,"current_range_meters":18800,"station_id":"ce4bhop2rcd13ifvqh8g","pricing_plan_id":"cebpf4jnsgd1na2vs0mg"},{"bike_id":"61b80720-d288-4705-ab56-23936db6efc6","system_id":"levelo_inurba_marseille","lat":43.29258,"lon":5.40909,"is_reserved":false,"is_disabled":false,"rental_uris":{"android":"levelo://app?vid=61b80720-d288-4705-ab56-23936db6efc6","ios":"levelo://app?vid=61b80720-d288-4705-ab56-23936db6efc6"},"vehicle_type_id":"4","last_reported":1762953955,"current_range_meters":18800,"station_id":"ce4bgr92rcd13ifvqc7g","pricing_plan_id":"cebpf4jnsgd1na2vs0mg"},{"bike_id":"21305870-e2f8-4c1e-9524-0c8018904895","system_id":"levelo_inurba_marseille","lat":43.299163,"lon":5.374751,"is_reserved":false,"is_disabled":false,"rental_uris":{"android":"levelo://app?vid=21305870-e2f8-4c1e-9524-0c8018904895","ios":"levelo://app?vid=21305870-e2f8-4c1e-9524-0c8018904895"},"vehicle_type_id":"4","last_reported":1762953955,"current_range_meters":18800,"station_id":"ce4bgjh2rcd13ifvqbg0","pricing_plan_id":"cebpf4jnsgd1na2vs0mg"},{"bike_id":"b568d2c3-d20b-47ec-9444-65b9d0adcc4c","system_id":"levelo_inurba_marseille","lat":43.312583,"lon":5.368508,"is_reserved":false,"is_disabled":false,"rental_uris":{"android":"levelo://app?vid=b568d2c3-d20b-47ec-9444-65b9d0adcc4c","ios":"levelo://app?vid=b568d2c3-d20b-47ec-9444-65b9d0adcc4c"},"vehicle_type_id":"4","last_reported":1762953955,"current_range_meters":18800,"station_id":"ce4bgl92rcd13ifvqbq0","pricing_plan_id":"cebpf4jnsgd1na2vs0mg"},{"bike_id":"e2a7d982-d002-4482-859a-1dcfe7b5c54a","system_id":"levelo_inurba_marseille","lat":43.27938,"lon":5.41036,"is_reserved":false,"is_disabled":false,"rental_uris":{"android":"levelo://app?vid=e2a7d982-d002-4482-859a-1dcfe7b5c54a","ios":"levelo://app?vid=e2a7d982-d002-4482-859a-1dcfe7b5c54a"},"vehicle_type_id":"4","last_reported":1762953955,"current_range_meters":18800,"station_id":"ce4bhnp2rcd13ifvqh0g","pricing_plan_id":"cebpf4jnsgd1na2vs0mg"},{"bike_id":"7a8cfcb1-ff5b-4ed9-a5b2-15c23a7e249b","system_id":"levelo_inurba_marseille","lat":43.30952,"lon":5.39055,"is_reserved":false,"is_disabled":false,"rental_uris":{"android":"levelo://app?vid=7a8cfcb1-ff5b-4ed9-a5b2-15c23a7e249b","ios":"levelo://app?vid=7a8cfcb1-ff5b-4ed9-a5b2-15c23a7e249b"},"vehicle_type_id":"4","last_reported":1762953955,"current_range_meters":18800,"station_id":"ce4bgup2rcd13ifvqco0","pricing_plan_id":"cebpf4jnsgd1na2vs0mg"},{"bike_id":"a0b16e07-7067-4bb6-927d-a5ecdd96094a","system_id":"levelo_inurba_marseille","lat":43.30536,"lon":5.36541,"is_reserved":false,"is_disabled":false,"rental_uris":{"android":"levelo://app?vid=a0b16e07-7067-4bb6-927d-a5ecdd96094a","ios":"levelo://app?vid=a0b16e07-7067-4bb6-927d-a5ecdd96094a"},"vehicle_type_id":"4","last_reported":1762953955,"current_range_meters":18800,"station_id":"ce4bgs12rcd13ifvqcag","pricing_plan_id":"cebpf4jnsgd1na2vs0mg"},{"bike_id":"3f3db3e0-8786-462c-9790-1156703a5fd2","system_id":"levelo_inurba_marseille","lat":43.22908,"lon":5.35395,"is_reserved":false,"is_disabled":false,"rental_uris":{"android":"levelo://app?vid=3f3db3e0-8786-462c-9790-1156703a5fd2","ios":"levelo://app?vid=3f3db3e0-8786-462c-9790-1156703a5fd2"},"vehicle_type_id":"4","last_reported":1762953955,"current_range_meters":18800,"station_id":"cpo3532slgdg3j2ikp40","pricing_plan_id":"cebpf4jnsgd1na2vs0mg"},{"bike_id":"b812f21d-a620-4060-be95-c3bf54ffcdb3","system_id":"levelo_inurba_marseille","lat":43.323739,"lon":5.414795,"is_reserved":false,"is_disabled":false,"rental_uris":{"android":"levelo://app?vid=b812f21d-a620-4060-be95-c3bf54ffcdb3","ios":"levelo://app?vid=b812f21d-a620-4060-be95-c3bf54ffcdb3"},"vehicle_type_id":"4","last_reported":1762953955,"current_range_meters":18800,"station_id":"ce4bhq12rcd13ifvqhhg","pricing_plan_id":"cebpf4jnsgd1na2vs0mg"},{"bike_id":"48812cf1-d406-4ddc-ac37-09889e751308","system_id":"levelo_inurba_marseille","lat":43.32102,"lon":5.36799,"is_reserved":false,"is_disabled":false,"rental_uris":{"android":"levelo://app?vid=48812cf1-d406-4ddc-ac37-09889e751308","ios":"levelo://app?vid=48812cf1-d406-4ddc-ac37-09889e751308"},"vehicle_type_id":"4","last_reported":1762953955,"current_range_meters":18800,"station_id":"ce4bhrh2rcd13ifvqhug","pricing_plan_id":"cebpf4jnsgd1na2vs0mg"},{"bike_id":"5baf5c97-0f2e-4921-baa4-5b466d912321","system_id":"levelo_inurba_marseille","lat":43.23152,"lon":5.4371,"is_reserved":false,"is_disabled":false,"rental_uris":{"android":"levelo://app?vid=5baf5c97-0f2e-4921-baa4-5b466d912321","ios":"levelo://app?vid=5baf5c97-0f2e-4921-baa4-5b466d912321"},"vehicle_type_id":"4","last_reported":1762953955,"current_range_meters":18800,"station_id":"ce4bhmp2rcd13ifvqgog","pricing_plan_id":"cebpf4jnsgd1na2vs0mg"},{"bike_id":"1826021c-78d5-4bf7-9950-ab922f7cd7e0","system_id":"levelo_inurba_marseille","lat":43.3234,"lon":5.36736,"is_reserved":false,"is_disabled":false,"rental_uris":{"android":"levelo://app?vid=1826021c-78d5-4bf7-9950-ab922f7cd7e0","ios":"levelo://app?vid=1826021c-78d5-4bf7-9950-ab922f7cd7e0"},"vehicle_type_id":"4","last_reported":1762953955,"current_range_meters":19200,"station_id":"ce4bhsh2rcd13ifvqi2g","pricing_plan_id":"cebpf4jnsgd1na2vs0mg"},{"bike_id":"8fb42f02-18ff-415d-aad4-9898ce515f3f","system_id":"levelo_inurba_marseille","lat":43.23154,"lon":5.4372,"is_reserved":false,"is_disabled":false,"rental_uris":{"android":"levelo://app?vid=8fb42f02-18ff-415d-aad4-9898ce515f3f","ios":"levelo://app?vid=8fb42f02-18ff-415d-aad4-9898ce515f3f"},"vehicle_type_id":"4","last_reported":1762953955,"current_range_meters":19200,"station_id":"ce4bhmp2rcd13ifvqgog","pricing_plan_id":"cebpf4jnsgd1na2vs0mg"},{"bike_id":"33112738-bd15-41d4-aae1-465688929b4c","system_id":"levelo_inurba_marseille","lat":43.30687,"lon":5.39548,"is_reserved":false,"is_disabled":false,"rental_uris":{"android":"levelo://app?vid=33112738-bd15-41d4-aae1-465688929b4c","ios":"levelo://app?vid=33112738-bd15-41d4-aae1-465688929b4c"},"vehicle_type_id":"4","last_reported":1762953955,"current_range_meters":19200,"station_id":"","pricing_plan_id":"cebpf4jnsgd1na2vs0mg"},{"bike_id":"30b41e82-9b75-44bc-b241-bf93939ebc74","system_id":"levelo_inurba_marseille","lat":43.28851,"lon":5.42525,"is_reserved":false,"is_disabled":false,"rental_uris":{"android":"levelo://app?vid=30b41e82-9b75-44bc-b241-bf93939ebc74","ios":"levelo://app?vid=30b41e82-9b75-44bc-b241-bf93939ebc74"},"vehicle_type_id":"4","last_reported":1762953955,"current_range_meters":19200,"station_id":"st_d3b462108ojc7389ooeg","pricing_plan_id":"cebpf4jnsgd1na2vs0mg"},{"bike_id":"d2a70951-ec60-4026-bd54-ab9535dc265a","system_id":"levelo_inurba_marseille","lat":43.238691,"lon":5.436672,"is_reserved":false,"is_disabled":false,"rental_uris":{"android":"levelo://app?vid=d2a70951-ec60-4026-bd54-ab9535dc265a","ios":"levelo://app?vid=d2a70951-ec60-4026-bd54-ab9535dc265a"},"vehicle_type_id":"4","last_reported":1762953955,"current_range_meters":19200,"station_id":"ce4bhmp2rcd13ifvqgog","pricing_plan_id":"cebpf4jnsgd1na2vs0mg"},{"bike_id":"2996db98-0e13-44d9-8a5e-417832519060","system_id":"levelo_inurba_marseille","lat":43.29554,"lon":5.42297,"is_reserved":false,"is_disabled":false,"rental_uris":{"android":"levelo://app?vid=2996db98-0e13-44d9-8a5e-417832519060","ios":"levelo://app?vid=2996db98-0e13-44d9-8a5e-417832519060"},"vehicle_type_id":"4","last_reported":1762953955,"current_range_meters":19200,"station_id":"ce4bhph2rcd13ifvqhdg","pricing_plan_id":"cebpf4jnsgd1na2vs0mg"},{"bike_id":"cf6686ed-c17a-4d45-b863-c67a21a2fe80","system_id":"levelo_inurba_marseille","lat":43.29871,"lon":5.39727,"is_reserved":false,"is_disabled":false,"rental_uris":{"android":"levelo://app?vid=cf6686ed-c17a-4d45-b863-c67a21a2fe80","ios":"levelo://app?vid=cf6686ed-c17a-4d45-b863-c67a21a2fe80"},"vehicle_type_id":"4","last_reported":1762953955,"current_range_meters":19200,"station_id":"ce4bh0h2rcd13ifvqd50","pricing_plan_id":"cebpf4jnsgd1na2vs0mg"},{"bike_id":"4930e871-eeac-40ca-b4ee-36ddc8ee3366","system_id":"levelo_inurba_marseille","lat":43.23193,"lon":5.35569,"is_reserved":false,"is_disabled":false,"rental_uris":{"android":"levelo://app?vid=4930e871-eeac-40ca-b4ee-36ddc8ee3366","ios":"levelo://app?vid=4930e871-eeac-40ca-b4ee-36ddc8ee3366"},"vehicle_type_id":"4","last_reported":1762953955,"current_range_meters":19200,"station_id":"ce4bhu92rcd13ifvqi70","pricing_plan_id":"cebpf4jnsgd1na2vs0mg"},{"bike_id":"7a1ef263-c216-402e-bafc-92d8214c104a","system_id":"levelo_inurba_marseille","lat":43.337444,"lon":5.374475,"is_reserved":false,"is_disabled":false,"rental_uris":{"android":"levelo://app?vid=7a1ef263-c216-402e-bafc-92d8214c104a","ios":"levelo://app?vid=7a1ef263-c216-402e-bafc-92d8214c104a"},"vehicle_type_id":"4","last_reported":1762953955,"current_range_meters":19600,"station_id":"","pricing_plan_id":"cebpf4jnsgd1na2vs0mg"},{"bike_id":"ab17ac4f-a279-4845-bb73-3855c94bea23","system_id":"levelo_inurba_marseille","lat":43.3052,"lon":5.36538,"is_reserved":false,"is_disabled":false,"rental_uris":{"android":"levelo://app?vid=ab17ac4f-a279-4845-bb73-3855c94bea23","ios":"levelo://app?vid=ab17ac4f-a279-4845-bb73-3855c94bea23"},"vehicle_type_id":"4","last_reported":1762953955,"current_range_meters":19600,"station_id":"","pricing_plan_id":"cebpf4jnsgd1na2vs0mg"},{"bike_id":"af54c478-9567-441c-8802-eb3d7c9ad5d5","system_id":"levelo_inurba_marseille","lat":43.30015,"lon":5.38893,"is_reserved":false,"is_disabled":false,"rental_uris":{"android":"levelo://app?vid=af54c478-9567-441c-8802-eb3d7c9ad5d5","ios":"levelo://app?vid=af54c478-9567-441c-8802-eb3d7c9ad5d5"},"vehicle_type_id":"4","last_reported":1762953955,"current_range_meters":19600,"station_id":"","pricing_plan_id":"cebpf4jnsgd1na2vs0mg"},{"bike_id":"7cbbc2fb-70fd-4359-bcfa-13236dd902ab","system_id":"levelo_inurba_marseille","lat":43.27899,"lon":5.39576,"is_reserved":false,"is_disabled":false,"rental_uris":{"android":"levelo://app?vid=7cbbc2fb-70fd-4359-bcfa-13236dd902ab","ios":"levelo://app?vid=7cbbc2fb-70fd-4359-bcfa-13236dd902ab"},"vehicle_type_id":"4","last_reported":1762953955,"current_range_meters":19600,"station_id":"ce4bhf92rcd13ifvqf40","pricing_plan_id":"cebpf4jnsgd1na2vs0mg"},{"bike_id":"f9f36748-9764-48ce-be89-00c313effd75","system_id":"levelo_inurba_marseille","lat":43.33543,"lon":5.3745,"is_reserved":false,"is_disabled":false,"rental_uris":{"android":"levelo://app?vid=f9f36748-9764-48ce-be89-00c313effd75","ios":"levelo://app?vid=f9f36748-9764-48ce-be89-00c313effd75"},"vehicle_type_id":"4","last_reported":1762953955,"current_range_meters":19600,"station_id":"st_d46tts09ee8s73dlu43g","pricing_plan_id":"cebpf4jnsgd1na2vs0mg"},{"bike_id":"cc0f8ca4-ae33-432c-aefe-5c00c9e85faf","system_id":"levelo_inurba_marseille","lat":43.28835,"lon":5.42526,"is_reserved":false,"is_disabled":false,"rental_uris":{"android":"levelo://app?vid=cc0f8ca4-ae33-432c-aefe-5c00c9e85faf","ios":"levelo://app?vid=cc0f8ca4-ae33-432c-aefe-5c00c9e85faf"},"vehicle_type_id":"4","last_reported":1762953955,"current_range_meters":19600,"station_id":"st_d3b462108ojc7389ooeg","pricing_plan_id":"cebpf4jnsgd1na2vs0mg"},{"bike_id":"ef9e7cf4-24d7-4fca-9db9-935549bfd93c","system_id":"levelo_inurba_marseille","lat":43.26569,"lon":5.39022,"is_reserved":false,"is_disabled":false,"rental_uris":{"android":"levelo://app?vid=ef9e7cf4-24d7-4fca-9db9-935549bfd93c","ios":"levelo://app?vid=ef9e7cf4-24d7-4fca-9db9-935549bfd93c"},"vehicle_type_id":"4","last_reported":1762953955,"current_range_meters":19600,"station_id":"ce4bhe12rcd13ifvqf30","pricing_plan_id":"cebpf4jnsgd1na2vs0mg"},{"bike_id":"c342d66c-95f1-4d6a-9685-685c5cf9f9ff","system_id":"levelo_inurba_marseille","lat":43.308,"lon":5.37651,"is_reserved":false,"is_disabled":false,"rental_uris":{"android":"levelo://app?vid=c342d66c-95f1-4d6a-9685-685c5cf9f9ff","ios":"levelo://app?vid=c342d66c-95f1-4d6a-9685-685c5cf9f9ff"},"vehicle_type_id":"4","last_reported":1762953955,"current_range_meters":19600,"station_id":"ce4bgv92rcd13ifvqcq0","pricing_plan_id":"cebpf4jnsgd1na2vs0mg"},{"bike_id":"06eb574a-64cf-47d8-af69-ac973ce42a77","system_id":"levelo_inurba_marseille","lat":43.255796,"lon":5.382294,"is_reserved":false,"is_disabled":false,"rental_uris":{"android":"levelo://app?vid=06eb574a-64cf-47d8-af69-ac973ce42a77","ios":"levelo://app?vid=06eb574a-64cf-47d8-af69-ac973ce42a77"},"vehicle_type_id":"4","last_reported":1762953955,"current_range_meters":20000,"station_id":"ce4bhih2rcd13ifvqfs0","pricing_plan_id":"cebpf4jnsgd1na2vs0mg"},{"bike_id":"6aa60207-7ac1-4b67-aa96-f56754f93274","system_id":"levelo_inurba_marseille","lat":43.30323,"lon":5.40434,"is_reserved":false,"is_disabled":false,"rental_uris":{"android":"levelo://app?vid=6aa60207-7ac1-4b67-aa96-f56754f93274","ios":"levelo://app?vid=6aa60207-7ac1-4b67-aa96-f56754f93274"},"vehicle_type_id":"4","last_reported":1762953955,"current_range_meters":20000,"station_id":"ce4bh012rcd13ifvqd10","pricing_plan_id":"cebpf4jnsgd1na2vs0mg"},{"bike_id":"391c3d89-50ac-43cb-8a56-a96ab0bc2aa5","system_id":"levelo_inurba_marseille","lat":43.25586,"lon":5.38233,"is_reserved":false,"is_disabled":false,"rental_uris":{"android":"levelo://app?vid=391c3d89-50ac-43cb-8a56-a96ab0bc2aa5","ios":"levelo://app?vid=391c3d89-50ac-43cb-8a56-a96ab0bc2aa5"},"vehicle_type_id":"4","last_reported":1762953955,"current_range_meters":20000,"station_id":"ce4bhih2rcd13ifvqfs0","pricing_plan_id":"cebpf4jnsgd1na2vs0mg"},{"bike_id":"58df451c-99cd-4037-8018-68777efeedbc","system_id":"levelo_inurba_marseille","lat":43.25338,"lon":5.42171,"is_reserved":false,"is_disabled":false,"rental_uris":{"android":"levelo://app?vid=58df451c-99cd-4037-8018-68777efeedbc","ios":"levelo://app?vid=58df451c-99cd-4037-8018-68777efeedbc"},"vehicle_type_id":"4","last_reported":1762953955,"current_range_meters":20000,"station_id":"st_d2m65c5bi1j21697t3ng","pricing_plan_id":"cebpf4jnsgd1na2vs0mg"},{"bike_id":"3d9ecbd2-3a7b-49f6-9333-c9b065aa9e25","system_id":"levelo_inurba_marseille","lat":43.25719,"lon":5.4112,"is_reserved":false,"is_disabled":false,"rental_uris":{"android":"levelo://app?vid=3d9ecbd2-3a7b-49f6-9333-c9b065aa9e25","ios":"levelo://app?vid=3d9ecbd2-3a7b-49f6-9333-c9b065aa9e25"},"vehicle_type_id":"4","last_reported":1762953955,"current_range_meters":20000,"station_id":"ce4bhkp2rcd13ifvqgd0","pricing_plan_id":"cebpf4jnsgd1na2vs0mg"},{"bike_id":"f8968d3e-c041-47a2-8042-2f68a93b6c80","system_id":"levelo_inurba_marseille","lat":43.27536,"lon":5.4245,"is_reserved":false,"is_disabled":false,"rental_uris":{"android":"levelo://app?vid=f8968d3e-c041-47a2-8042-2f68a93b6c80","ios":"levelo://app?vid=f8968d3e-c041-47a2-8042-2f68a93b6c80"},"vehicle_type_id":"4","last_reported":1762953955,"current_range_meters":20000,"station_id":"ce4bhn92rcd13ifvqgrg","pricing_plan_id":"cebpf4jnsgd1na2vs0mg"},{"bike_id":"1cd94639-ec8b-4901-a526-c1b3a8882626","system_id":"levelo_inurba_marseille","lat":43.217348,"lon":5.346222,"is_reserved":false,"is_disabled":false,"rental_uris":{"android":"levelo://app?vid=1cd94639-ec8b-4901-a526-c1b3a8882626","ios":"levelo://app?vid=1cd94639-ec8b-4901-a526-c1b3a8882626"},"vehicle_type_id":"4","last_reported":1762953955,"current_range_meters":20400,"station_id":"","pricing_plan_id":"cebpf4jnsgd1na2vs0mg"},{"bike_id":"463a2222-cf92-4007-943d-15872b32f98e","system_id":"levelo_inurba_marseille","lat":43.265684,"lon":5.39003,"is_reserved":false,"is_disabled":true,"rental_uris":{"android":"levelo://app?vid=463a2222-cf92-4007-943d-15872b32f98e","ios":"levelo://app?vid=463a2222-cf92-4007-943d-15872b32f98e"},"vehicle_type_id":"4","last_reported":1762953955,"current_range_meters":20400,"station_id":"ce4bhe12rcd13ifvqf30","pricing_plan_id":"cebpf4jnsgd1na2vs0mg"},