{"last_updated":1750467280,"ttl":60,"version":"2.2","data":{"bikes":[{"bike_id":"3da29fb8-fc97-44c6-b9ac-31dd456b2fd4","system_id":"levelo_inurba_marseille","lat":43.33771,"lon":5.37424,"is_reserved":false,"is_disabled":true,"rental_uris":{"android":"levelo://app?vid=3da29fb8-fc97-44c6-b9ac-31dd456b2fd4","ios":"levelo://app?vid=3da29fb8-fc97-44c6-b9ac-31dd456b2fd4"},"vehicle_type_id":"4","last_reported":1750467280,"current_range_meters":0,"station_id":"","pricing_plan_id":"cebpf4jnsgd1na2vs0mg"},{"bike_id":"01861ad8-a8d7-4be6-816e-651927c87584","system_id":"levelo_inurba_marseille","lat":43.33751,"lon":5.37456,"is_reserved":false,"is_disabled":true,"rental_uris":{"android":"levelo://app?vid=01861ad8-a8d7-4be6-816e-651927c87584","ios":"levelo://app?vid=01861ad8-a8d7-4be6-816e-651927c87584"},"vehicle_type_id":"4","last_reported":1750467280,"current_range_meters":0,"station_id":"","pricing_plan_id":"cebpf4jnsgd1na2vs0mg"},{"bike_id":"7bcccf35-e344-4f00-9a7f-199c76d3c58d","system_id":"levelo_inurba_marseille","lat":43.29157,"lon":5.41601,"is_reserved":false,"is_disabled":true,"rental_uris":{"android":"levelo://app?vid=7bcccf35-e344-4f00-9a7f-199c76d3c58d","ios":"levelo://app?vid=7bcccf35-e344-4f00-9a7f-199c76d3c58d"},"vehicle_type_id":"4","last_reported":1750467280,"current_range_meters":0,"station_id":"","pricing_plan_id":"cebpf4jnsgd1na2vs0mg"},{"bike_id":"d2bd57c8-6b64-48db-ad24-5398eb3fd9d6","system_id":"levelo_inurba_marseille","lat":43.337444,"lon":5.374475,"is_reserved":false,"is_disabled":true,"rental_uris":{"android":"levelo://app?vid=d2bd57c8-6b64-48db-ad24-5398eb3fd9d6","ios":"levelo://app?vid=d2bd57c8-6b64-48db-ad24-5398eb3fd9d6"},"vehicle_type_id":"4","last_reported":1750467280,"current_range_meters":0,"station_id":"","pricing_plan_id":"cebpf4jnsgd1na2vs0mg"},{"bike_id":"62a493c7-4534-4419-ad43-0582de34a72a","system_id":"levelo_inurba_marseille","lat":43.21366,"lon":5.355183,"is_reserved":false,"is_disabled":true,"rental_uris":{"android":"levelo://app?vid=62a493c7-4534-4419-ad43-0582de34a72a","ios":"levelo://app?vid=62a493c7-4534-4419-ad43-0582de34a72a"},"vehicle_type_id":"4","last_reported":1750467280,"current_range_meters":0,"station_id":"","pricing_plan_id":"cebpf4jnsgd1na2vs0mg"},{"bike_id":"4f20a735-990e-458e-8274-767846ac14cd","system_id":"levelo_inurba_marseille","lat":43.29648,"lon":5.38163,"is_reserved":false,"is_disabled":true,"rental_uris":{"android":"levelo://app?vid=4f20a735-990e-458e-8274-767846ac14cd","ios":"levelo://app?vid=4f20a735-990e-458e-8274-767846ac14cd"},"vehicle_type_id":"4","last_reported":1750467280,"current_range_meters":0,"station_id":"","pricing_plan_id":"cebpf4jnsgd1na2vs0mg"},{"bike_id":"d6609b4f-333b-43c1-9ebe-8726f5e76e88","system_id":"levelo_inurba_marseille","lat":43.337444,"lon":5.374475,"is_reserved":false,"is_disabled":true,"rental_uris":{"android":"levelo://app?vid=d6609b4f-333b-43c1-9ebe-8726f5e76e88","ios":"levelo://app?vid=d6609b4f-333b-43c1-9ebe-8726f5e76e88"},"vehicle_type_id":"4","last_reported":1750467280,"current_range_meters":0,"station_id":"","pricing_plan_id":"cebpf4jnsgd1na2vs0mg"},{"bike_id":"11e13553-c475-421d-a348-bac5f0dccdd0","system_id":"levelo_inurba_marseille","lat":43.27303,"lon":5.39946,"is_reserved":false,"is_disabled":true,"rental_uris":{"android":"levelo://app?vid=11e13553-c475-421d-a348-bac5f0dccdd0","ios":"levelo://app?vid=11e13553-c475-421d-a348-bac5f0dccdd0"},"vehicle_type_id":"4","last_reported":1750467280,"current_range_meters":0,"station_id":"","pricing_plan_id":"cebpf4jnsgd1na2vs0mg"},{"bike_id":"fcedc89b-1cc4-4524-ac4b-bd319006832b","system_id":"levelo_inurba_marseille","lat":43.29189,"lon":5.3931,"is_reserved":false,"is_disabled":true,"rental_uris":{"android":"levelo://app?vid=fcedc89b-1cc4-4524-ac4b-bd319006832b","ios":"levelo://app?vid=fcedc89b-1cc4-4524-ac4b-bd319006832b"},"vehicle_type_id":"4","last_reported":1750467280,"current_range_meters":0,"station_id":"ce4bh192rcd13ifvqdd0","pricing_plan_id":"cebpf4jnsgd1na2vs0mg"},{"bike_id":"d6dd6fac-cfbb-4020-9c8b-b6e0d49a1c79","system_id":"levelo_inurba_marseille","lat":43.28484,"lon":5.38421,"is_reserved":false,"is_disabled":true,"rental_uris":{"android":"levelo://app?vid=d6dd6fac-cfbb-4020-9c8b-b6e0d49a1c79","ios":"levelo://app?vid=d6dd6fac-cfbb-4020-9c8b-b6e0d49a1c79"},"vehicle_type_id":"4","last_reported":1750467280,"current_range_meters":0,"station_id":"ce4bh512rcd13ifvqe3g","pricing_plan_id":"cebpf4jnsgd1na2vs0mg"},{"bike_id":"eb18a406-af9f-4376-b513-fb87e8a2ccf7","system_id":"levelo_inurba_marseille","lat":43.26559,"lon":5.37304,"is_reserved":false,"is_disabled":true,"rental_uris":{"android":"levelo://app?vid=eb18a406-af9f-4376-b513-fb87e8a2ccf7","ios":"levelo://app?vid=eb18a406-af9f-4376-b513-fb87e8a2ccf7"},"vehicle_type_id":"4","last_reported":1750467280,"current_range_meters":0,"station_id":"ce4bhg12rcd13ifvqf70","pricing_plan_id":"cebpf4jnsgd1na2vs0mg"},{"bike_id":"07fd7e05-aa02-4733-aada-73d77471aa99","system_id":"levelo_inurba_marseille","lat":43.27967,"lon":5.38735,"is_reserved":false,"is_disabled":true,"rental_uris":{"android":"levelo://app?vid=07fd7e05-aa02-4733-aada-73d77471aa99","ios":"levelo://app?vid=07fd7e05-aa02-4733-aada-73d77471aa99"},"vehicle_type_id":"4","last_reported":1750467280,"current_range_meters":0,"station_id":"ce4bhg12rcd13ifvqf80","pricing_plan_id":"cebpf4jnsgd1na2vs0mg"},{"bike_id":"52678e4e-28a1-4c32-be5c-efb1b341ce06","system_id":"levelo_inurba_marseille","lat":43.25109,"lon":5.40323,"is_reserved":false,"is_disabled":true,"rental_uris":{"android":"levelo://app?vid=52678e4e-28a1-4c32-be5c-efb1b341ce06","ios":"levelo://app?vid=52678e4e-28a1-4c32-be5c-efb1b341ce06"},"vehicle_type_id":"4","last_reported":1750467280,"current_range_meters":0,"station_id":"ce4bhlh2rcd13ifvqgig","pricing_plan_id":"cebpf4jnsgd1na2vs0mg"},{"bike_id":"2be082ca-4467-48fd-b65c-3c02b405800f","system_id":"levelo_inurba_marseille","lat":43.23154,"lon":5.43708,"is_reserved":false,"is_disabled":true,"rental_uris":{"android":"levelo://app?vid=2be082ca-4467-48fd-b65c-3c02b405800f","ios":"levelo://app?vid=2be082ca-4467-48fd-b65c-3c02b405800f"},"vehicle_type_id":"4","last_reported":1750467280,"current_range_meters":0,"station_id":"ce4bhmp2rcd13ifvqgog","pricing_plan_id":"cebpf4jnsgd1na2vs0mg"},{"bike_id":"24466bb8-ea46-418f-a473-cce465177766","system_id":"levelo_inurba_marseille","lat":43.217461,"lon":5.346021,"is_reserved":false,"is_disabled":true,"rental_uris":{"android":"levelo://app?vid=24466bb8-ea46-418f-a473-cce465177766","ios":"levelo://app?vid=24466bb8-ea46-418f-a473-cce465177766"},"vehicle_type_id":"4","last_reported":1750467280,"current_range_meters":0,"station_id":"st_cvj6r9ubvosntc0bgbag","pricing_plan_id":"cebpf4jnsgd1na2vs0mg"},{"bike_id":"7fe421a8-3694-4f75-afd4-4ab4e721a940","system_id":"levelo_inurba_marseille","lat":43.28703,"lon":5.37402,"is_reserved":false,"is_disabled":true,"rental_uris":{"android":"levelo://app?vid=7fe421a8-3694-4f75-afd4-4ab4e721a940","ios":"levelo://app?vid=7fe421a8-3694-4f75-afd4-4ab4e721a940"},"vehicle_type_id":"4","last_reported":1750467280,"current_range_meters":1200,"station_id":"ce4bh3p2rcd13ifvqdq0","pricing_plan_id":"cebpf4jnsgd1na2vs0mg"},{"bike_id":"f6d13259-8db0-40b4-95b5-0066107be7e6","system_id":"levelo_inurba_marseille","lat":43.26021,"lon":5.37561,"is_reserved":false,"is_disabled":true,"rental_uris":{"android":"levelo://app?vid=f6d13259-8db0-40b4-95b5-0066107be7e6","ios":"levelo://app?vid=f6d13259-8db0-40b4-95b5-0066107be7e6"},"vehicle_type_id":"4","last_reported":1750467280,"current_range_meters":1600,"station_id":"ce4bhgh2rcd13ifvqfa0","pricing_plan_id":"cebpf4jnsgd1na2vs0mg"},{"bike_id":"3e0a6624-7976-4157-a34e-42836d617a0a","system_id":"levelo_inurba_marseille","lat":43.28472,"lon":5.38424,"is_reserved":false,"is_disabled":true,"rental_uris":{"android":"levelo://app?vid=3e0a6624-7976-4157-a34e-42836d617a0a","ios":"levelo://app?vid=3e0a6624-7976-4157-a34e-42836d617a0a"},"vehicle_type_id":"4","last_reported":1750467280,"current_range_meters":2000,"station_id":"ce4bh512rcd13ifvqe3g","pricing_plan_id":"cebpf4jnsgd1na2vs0mg"},{"bike_id":"ca73f168-ee05-491d-a76f-73d485021080","system_id":"levelo_inurba_marseille","lat":43.27912,"lon":5.39585,"is_reserved":false,"is_disabled":false,"rental_uris":{"android":"levelo://app?vid=ca73f168-ee05-491d-a76f-73d485021080","ios":"levelo://app?vid=ca73f168-ee05-491d-a76f-73d485021080"},"vehicle_type_id":"4","last_reported":1750467280,"current_range_meters":2800,"station_id":"ce4bhf92rcd13ifvqf40","pricing_plan_id":"cebpf4jnsgd1na2vs0mg"},{"bike_id":"9b074671-a4aa-4cb1-949c-2efccc0b8d43","system_id":"levelo_inurba_marseille","lat":43.279096,"lon":5.39592,"is_reserved":false,"is_disabled":false,"rental_uris":{"android":"levelo://app?vid=9b074671-a4aa-4cb1-949c-2efccc0b8d43","ios":"levelo://app?vid=9b074671-a4aa-4cb1-949c-2efccc0b8d43"},"vehicle_type_id":"4","last_reported":1750467280,"current_range_meters":3200,"station_id":"ce4bhf92rcd13ifvqf40","pricing_plan_id":"cebpf4jnsgd1na2vs0mg"},{"bike_id":"c7f6fffa-849b-4523-81b3-97ccef9b41c0","system_id":"levelo_inurba_marseille","lat":43.30784,"lon":5.38169,"is_reserved":false,"is_disabled":false,"rental_uris":{"android":"levelo://app?vid=c7f6fffa-849b-4523-81b3-97ccef9b41c0","ios":"levelo://app?vid=c7f6fffa-849b-4523-81b3-97ccef9b41c0"},"vehicle_type_id":"4","last_reported":1750467280,"current_range_meters":3600,"station_id":"ce4bgt12rcd13ifvqce0","pricing_plan_id":"cebpf4jnsgd1na2vs0mg"},{"bike_id":"358097b0-7d7d-481e-b0e1-5117800afaab","system_id":"levelo_inurba_marseille","lat":43.26795,"lon":5.39414,"is_reserved":false,"is_disabled":false,"rental_uris":{"android":"levelo://app?vid=358097b0-7d7d-481e-b0e1-5117800afaab","ios":"levelo://app?vid=358097b0-7d7d-481e-b0e1-5117800afaab"},"vehicle_type_id":"4","last_reported":1750467280,"current_range_meters":3600,"station_id":"ce4bhh12rcd13ifvqfg0","pricing_plan_id":"cebpf4jnsgd1na2vs0mg"},{"bike_id":"08363e6c-1de7-4402-b85d-45ea962891c6","system_id":"levelo_inurba_marseille","lat":43.25828,"lon":5.39397,"is_reserved":false,"is_disabled":false,"rental_uris":{"android":"levelo://app?vid=08363e6c-1de7-4402-b85d-45ea962891c6","ios":"levelo://app?vid=08363e6c-1de7-4402-b85d-45ea962891c6"},"vehicle_type_id":"4","last_reported":1750467280,"current_range_meters":3600,"station_id":"ce4bhip2rcd13ifvqft0","pricing_plan_id":"cebpf4jnsgd1na2vs0mg"},{"bike_id":"39203339-2437-4778-9e52-2ae773407bf9","system_id":"levelo_inurba_marseille","lat":43.31254,"lon":5.36832,"is_reserved":false,"is_disabled":false,"rental_uris":{"android":"levelo://app?vid=39203339-2437-4778-9e52-2ae773407bf9","ios":"levelo://app?vid=39203339-2437-4778-9e52-2ae773407bf9"},"vehicle_type_id":"4","last_reported":1750467280,"current_range_meters":4400,"station_id":"ce4bgl92rcd13ifvqbq0","pricing_plan_id":"cebpf4jnsgd1na2vs0mg"},{"bike_id":"8514f075-d29c-448f-a4e7-4a2a8e978e56","system_id":"levelo_inurba_marseille","lat":43.29186,"lon":5.39327,"is_reserved":false,"is_disabled":false,"rental_uris":{"android":"levelo://app?vid=8514f075-d29c-448f-a4e7-4a2a8e978e56","ios":"levelo://app?vid=8514f075-d29c-448f-a4e7-4a2a8e978e56"},"vehicle_type_id":"4","last_reported":1750467280,"current_range_meters":4800,"station_id":"ce4bh192rcd13ifvqdd0","pricing_plan_id":"cebpf4jnsgd1na2vs0mg"},{"bike_id":"0b4caeaf-5696-4a90-bc91-8a90ae92e4e6","system_id":"levelo_inurba_marseille","lat":43.28889,"lon":5.4595,"is_reserved":false,"is_disabled":false,"rental_uris":{"android":"levelo://app?vid=0b4caeaf-5696-4a90-bc91-8a90ae92e4e6","ios":"levelo://app?vid=0b4caeaf-5696-4a90-bc91-8a90ae92e4e6"},"vehicle_type_id":"4","last_reported":1750467280,"current_range_meters":5600,"station_id":"","pricing_plan_id":"cebpf4jnsgd1na2vs0mg"},{"bike_id":"3d9b0e2f-fd9d-433a-9469-26b505908e59","system_id":"levelo_inurba_marseille","lat":43.337282,"lon":5.391869,"is_reserved":false,"is_disabled":false,"rental_uris":{"android":"levelo://app?vid=3d9b0e2f-fd9d-433a-9469-26b505908e59","ios":"levelo://app?vid=3d9b0e2f-fd9d-433a-9469-26b505908e59"},"vehicle_type_id":"4","last_reported":1750467280,"current_range_meters":5600,"station_id":"ce4bhr92rcd13ifvqhsg","pricing_plan_id":"cebpf4jnsgd1na2vs0mg"},{"bike_id":"e8b2899a-4211-4f31-b803-6ec5b4d26202","system_id":"levelo_inurba_marseille","lat":43.27583,"lon":5.397,"is_reserved":false,"is_disabled":false,"rental_uris":{"android":"levelo://app?vid=e8b2899a-4211-4f31-b803-6ec5b4d26202","ios":"levelo://app?vid=e8b2899a-4211-4f31-b803-6ec5b4d26202"},"vehicle_type_id":"4","last_reported":1750467280,"current_range_meters":6000,"station_id":"","pricing_plan_id":"cebpf4jnsgd1na2vs0mg"},{"bike_id":"7ecb002c-7385-4958-99d3-5a96ede27ff3","system_id":"levelo_inurba_marseille","lat":43.30929,"lon":5.40143,"is_reserved":false,"is_disabled":false,"rental_uris":{"android":"levelo://app?vid=7ecb002c-7385-4958-99d3-5a96ede27ff3","ios":"levelo://app?vid=7ecb002c-7385-4958-99d3-5a96ede27ff3"},"vehicle_type_id":"4","last_reported":1750467280,"current_range_meters":6000,"station_id":"ce4bgvp2rcd13ifvqct0","pricing_plan_id":"cebpf4jnsgd1na2vs0mg"},{"bike_id":"dd45b830-666c-4c76-b06e-9938bffa2cad","system_id":"levelo_inurba_marseille","lat":43.31972,"lon":5.37547,"is_reserved":false,"is_disabled":false,"rental_uris":{"android":"levelo://app?vid=dd45b830-666c-4c76-b06e-9938bffa2cad","ios":"levelo://app?vid=dd45b830-666c-4c76-b06e-9938bffa2cad"},"vehicle_type_id":"4","last_reported":1750467280,"current_range_meters":6400,"station_id":"","pricing_plan_id":"cebpf4jnsgd1na2vs0mg"},{"bike_id":"f025e0b0-8595-426c-b214-cb9b74c5fcfd","system_id":"levelo_inurba_marseille","lat":43.32198,"lon":5.40575,"is_reserved":false,"is_disabled":false,"rental_uris":{"android":"levelo://app?vid=f025e0b0-8595-426c-b214-cb9b74c5fcfd","ios":"levelo://app?vid=f025e0b0-8595-426c-b214-cb9b74c5fcfd"},"vehicle_type_id":"4","last_reported":1750467280,"current_range_meters":6400,"station_id":"","pricing_plan_id":"cebpf4jnsgd1na2vs0mg"},{"bike_id":"19869743-625e-4f81-a906-f5124851219a","system_id":"levelo_inurba_marseille","lat":43.292552,"lon":5.409235,"is_reserved":false,"is_disabled":false,"rental_uris":{"android":"levelo://app?vid=19869743-625e-4f81-a906-f5124851219a","ios":"levelo://app?vid=19869743-625e-4f81-a906-f5124851219a"},"vehicle_type_id":"4","last_reported":1750467280,"current_range_meters":6400,"station_id":"ce4bh3p2rcd13ifvqdp0","pricing_plan_id":"cebpf4jnsgd1na2vs0mg"},{"bike_id":"73521383-be10-4e11-87d9-5858a5a26f0a","system_id":"levelo_inurba_marseille","lat":43.337444,"lon":5.374475,"is_reserved":false,"is_disabled":false,"rental_uris":{"android":"levelo://app?vid=73521383-be10-4e11-87d9-5858a5a26f0a","ios":"levelo://app?vid=73521383-be10-4e11-87d9-5858a5a26f0a"},"vehicle_type_id":"4","last_reported":1750467280,"current_range_meters":6800,"station_id":"","pricing_plan_id":"cebpf4jnsgd1na2vs0mg"},{"bike_id":"df735c88-ae0a-4f8e-9723-d29eb27d80b9","system_id":"levelo_inurba_marseille","lat":43.29927,"lon":5.37619,"is_reserved":false,"is_disabled":false,"rental_uris":{"android":"levelo://app?vid=df735c88-ae0a-4f8e-9723-d29eb27d80b9","ios":"levelo://app?vid=df735c88-ae0a-4f8e-9723-d29eb27d80b9"},"vehicle_type_id":"4","last_reported":1750467280,"current_range_meters":6800,"station_id":"","pricing_plan_id":"cebpf4jnsgd1na2vs0mg"},{"bike_id":"520756c6-d1d2-4ec0-9d09-0f4fe99fff58","system_id":"levelo_inurba_marseille","lat":43.29913,"lon":5.37482,"is_reserved":false,"is_disabled":false,"rental_uris":{"android":"levelo://app?vid=520756c6-d1d2-4ec0-9d09-0f4fe99fff58","ios":"levelo://app?vid=520756c6-d1d2-4ec0-9d09-0f4fe99fff58"},"vehicle_type_id":"4","last_reported":1750467280,"current_range_meters":6800,"station_id":"ce4bgjh2rcd13ifvqbg0","pricing_plan_id":"cebpf4jnsgd1na2vs0mg"},{"bike_id":"0ae0a5e2-4172-42fc-b67e-dcb70ad4d289","system_id":"levelo_inurba_marseille","lat":43.26731,"lon":5.42219,"is_reserved":false,"is_disabled":false,"rental_uris":{"android":"levelo://app?vid=0ae0a5e2-4172-42fc-b67e-dcb70ad4d289","ios":"levelo://app?vid=0ae0a5e2-4172-42fc-b67e-dcb70ad4d289"},"vehicle_type_id":"4","last_reported":1750467280,"current_range_meters":7200,"station_id":"","pricing_plan_id":"cebpf4jnsgd1na2vs0mg"},{"bike_id":"e3190518-bcc2-47a7-bb62-bcde5a07a296","system_id":"levelo_inurba_marseille","lat":43.30644,"lon":5.4008,"is_reserved":false,"is_disabled":false,"rental_uris":{"android":"levelo://app?vid=e3190518-bcc2-47a7-bb62-bcde5a07a296","ios":"levelo://app?vid=e3190518-bcc2-47a7-bb62-bcde5a07a296"},"vehicle_type_id":"4","last_reported":1750467280,"current_range_meters":7200,"station_id":"ce4bh112rcd13ifvqda0","pricing_plan_id":"cebpf4jnsgd1na2vs0mg"},{"bike_id":"8b7e4aee-3f42-426c-aca9-0452ca2745f6","system_id":"levelo_inurba_marseille","lat":43.29258,"lon":5.40907,"is_reserved":false,"is_disabled":false,"rental_uris":{"android":"levelo://app?vid=8b7e4aee-3f42-426c-aca9-0452ca2745f6","ios":"levelo://app?vid=8b7e4aee-3f42-426c-aca9-0452ca2745f6"},"vehicle_type_id":"4","last_reported":1750467280,"current_range_meters":7200,"station_id":"ce4bh192rcd13ifvqdc0","pricing_plan_id":"cebpf4jnsgd1na2vs0mg"},{"bike_id":"19606c09-c77c-4c80-a073-4a30a1bab36f","system_id":"levelo_inurba_marseille","lat":43.30526,"lon":5.36715,"is_reserved":false,"is_disabled":false,"rental_uris":{"android":"levelo://app?vid=19606c09-c77c-4c80-a073-4a30a1bab36f","ios":"levelo://app?vid=19606c09-c77c-4c80-a073-4a30a1bab36f"},"vehicle_type_id":"4","last_reported":1750467280,"current_range_meters":8000,"station_id":"ce4bgrp2rcd13ifvqc9g","pricing_plan_id":"cebpf4jnsgd1na2vs0mg"},{"bike_id":"cd1075f2-a8f9-4e06-96a1-9f1d52e8840f","system_id":"levelo_inurba_marseille","lat":43.30648,"lon":5.40075,"is_reserved":false,"is_disabled":false,"rental_uris":{"android":"levelo://app?vid=cd1075f2-a8f9-4e06-96a1-9f1d52e8840f","ios":"levelo://app?vid=cd1075f2-a8f9-4e06-96a1-9f1d52e8840f"},"vehicle_type_id":"4","last_reported":1750467280,"current_range_meters":8000,"station_id":"ce4bh112rcd13ifvqda0","pricing_plan_id":"cebpf4jnsgd1na2vs0mg"},{"bike_id":"2a419920-c7ac-4f64-bafa-a543962eece2","system_id":"levelo_inurba_marseille","lat":43.28313,"lon":5.38084,"is_reserved":false,"is_disabled":false,"rental_uris":{"android":"levelo://app?vid=2a419920-c7ac-4f64-bafa-a543962eece2","ios":"levelo://app?vid=2a419920-c7ac-4f64-bafa-a543962eece2"},"vehicle_type_id":"4","last_reported":1750467280,"current_range_meters":8000,"station_id":"ce4bh412rcd13ifvqdr0","pricing_plan_id":"cebpf4jnsgd1na2vs0mg"},{"bike_id":"db7f7512-c361-460d-984a-c7320754ec1a","system_id":"levelo_inurba_marseille","lat":43.30804,"lon":5.43532,"is_reserved":false,"is_disabled":false,"rental_uris":{"android":"levelo://app?vid=db7f7512-c361-460d-984a-c7320754ec1a","ios":"levelo://app?vid=db7f7512-c361-460d-984a-c7320754ec1a"},"vehicle_type_id":"4","last_reported":1750467280,"current_range_meters":8000,"station_id":"ce4bhph2rcd13ifvqheg","pricing_plan_id":"cebpf4jnsgd1na2vs0mg"},{"bike_id":"f2169430-8ab5-4f68-846f-87f05b34d076","system_id":"levelo_inurba_marseille","lat":43.21164,"lon":5.35125,"is_reserved":false,"is_disabled":false,"rental_uris":{"android":"levelo://app?vid=f2169430-8ab5-4f68-846f-87f05b34d076","ios":"levelo://app?vid=f2169430-8ab5-4f68-846f-87f05b34d076"},"vehicle_type_id":"4","last_reported":1750467280,"current_range_meters":8000,"station_id":"st_cvj6sg6p6f1abm77japg","pricing_plan_id":"cebpf4jnsgd1na2vs0mg"},{"bike_id":"89fb9871-bc7b-4fc3-a3a5-ef7f58713fa0","system_id":"levelo_inurba_marseille","lat":43.25437,"lon":5.37583,"is_reserved":false,"is_disabled":false,"rental_uris":{"android":"levelo://app?vid=89fb9871-bc7b-4fc3-a3a5-ef7f58713fa0","ios":"levelo://app?vid=89fb9871-bc7b-4fc3-a3a5-ef7f58713fa0"},"vehicle_type_id":"4","last_reported":1750467280,"current_range_meters":8400,"station_id":"","pricing_plan_id":"cebpf4jnsgd1na2vs0mg"},{"bike_id":"6c27666e-ee00-4768-b673-c88129e82192","system_id":"levelo_inurba_marseille","lat":43.29222,"lon":5.39623,"is_reserved":false,"is_disabled":false,"rental_uris":{"android":"levelo://app?vid=6c27666e-ee00-4768-b673-c88129e82192","ios":"levelo://app?vid=6c27666e-ee00-4768-b673-c88129e82192"},"vehicle_type_id":"4","last_reported":1750467280,"current_range_meters":8400,"station_id":"","pricing_plan_id":"cebpf4jnsgd1na2vs0mg"},{"bike_id":"470d5d38-9de3-4ee0-b8c2-7e3409e3e55a","system_id":"levelo_inurba_marseille","lat":43.29646,"lon":5.39376,"is_reserved":false,"is_disabled":false,"rental_uris":{"android":"levelo://app?vid=470d5d38-9de3-4ee0-b8c2-7e3409e3e55a","ios":"levelo://app?vid=470d5d38-9de3-4ee0-b8c2-7e3409e3e55a"},"vehicle_type_id":"4","last_reported":1750467280,"current_range_meters":8400,"station_id":"","pricing_plan_id":"cebpf4jnsgd1na2vs0mg"},{"bike_id":"053d9423-2593-4104-9843-c4c0f7970812","system_id":"levelo_inurba_marseille","lat":43.30868,"lon":5.3966,"is_reserved":false,"is_disabled":false,"rental_uris":{"android":"levelo://app?vid=053d9423-2593-4104-9843-c4c0f7970812","ios":"levelo://app?vid=053d9423-2593-4104-9843-c4c0f7970812"},"vehicle_type_id":"4","last_reported":1750467280,"current_range_meters":8400,"station_id":"ce4bh012rcd13ifvqcv0","pricing_plan_id":"cebpf4jnsgd1na2vs0mg"},{"bike_id":"73f1f1e8-7736-496d-96c5-f7df0fd8027d","system_id":"levelo_inurba_marseille","lat":43.25111,"lon":5.39401,"is_reserved":false,"is_disabled":false,"rental_uris":{"android":"levelo://app?vid=73f1f1e8-7736-496d-96c5-f7df0fd8027d","ios":"levelo://app?vid=73f1f1e8-7736-496d-96c5-f7df0fd8027d"},"vehicle_type_id":"4","last_reported":1750467280,"current_range_meters":8400,"station_id":"ce4bhm12rcd13ifvqgkg","pricing_plan_id":"cebpf4jnsgd1na2vs0mg"},{"bike_id":"1c84f58c-db3c-4a5f-b454-e7b93720c9a2","system_id":"levelo_inurba_marseille","lat":43.31489,"lon":5.3731,"is_reserved":false,"is_disabled":false,"rental_uris":{"android":"levelo://app?vid=1c84f58c-db3c-4a5f-b454-e7b93720c9a2","ios":"levelo://app?vid=1c84f58c-db3c-4a5f-b454-e7b93720c9a2"},"vehicle_type_id":"4","last_reported":1750467280,"current_range_meters":8800,"station_id":"ce4bgt12rcd13ifvqcd0","pricing_plan_id":"cebpf4jnsgd1na2vs0mg"},{"bike_id":"975116b0-90b2-43e3-9d57-c3ce65909368","system_id":"levelo_inurba_marseille","lat":43.31372,"lon":5.38503,"is_reserved":false,"is_disabled":false,"rental_uris":{"android":"levelo://app?vid=975116b0-90b2-43e3-9d57-c3ce65909368","ios":"levelo://app?vid=975116b0-90b2-43e3-9d57-c3ce65909368"},"vehicle_type_id":"4","last_reported":1750467280,"current_range_meters":8800,"station_id":"ce4bgt92rcd13ifvqcf0","pricing_plan_id":"cebpf4jnsgd1na2vs0mg"},{"bike_id":"fe4f642a-2c8e-4a43-b47d-5a5067b48c79","system_id":"levelo_inurba_marseille","lat":43.31325,"lon":5.39707,"is_reserved":false,"is_disabled":false,"rental_uris":{"android":"levelo://app?vid=fe4f642a-2c8e-4a43-b47d-5a5067b48c79","ios":"levelo://app?vid=fe4f642a-2c8e-4a43-b47d-5a5067b48c79"},"vehicle_type_id":"4","last_reported":1750467280,"current_range_meters":8800,"station_id":"ce4bgvp2rcd13ifvqcu0","pricing_plan_id":"cebpf4jnsgd1na2vs0mg"},{"bike_id":"4afeb602-18f5-4993-8035-52329a74f949","system_id":"levelo_inurba_marseille","lat":43.30283,"lon":5.3962,"is_reserved":false,"is_disabled":false,"rental_uris":{"android":"levelo://app?vid=4afeb602-18f5-4993-8035-52329a74f949","ios":"levelo://app?vid=4afeb602-18f5-4993-8035-52329a74f949"},"vehicle_type_id":"4","last_reported":1750467280,"current_range_meters":8800,"station_id":"ce4bh0h2rcd13ifvqd40","pricing_plan_id":"cebpf4jnsgd1na2vs0mg"},{"bike_id":"43320ea7-0bdb-472c-956d-1a4fda4c85ea","system_id":"levelo_inurba_marseille","lat":43.2782,"lon":5.40728,"is_reserved":false,"is_disabled":false,"rental_uris":{"android":"levelo://app?vid=43320ea7-0bdb-472c-956d-1a4fda4c85ea","ios":"levelo://app?vid=43320ea7-0bdb-472c-956d-1a4fda4c85ea"},"vehicle_type_id":"4","last_reported":1750467280,"current_range_meters":8800,"station_id":"ce4bhnh2rcd13ifvqgtg","pricing_plan_id":"cebpf4jnsgd1na2vs0mg"},{"bike_id":"178fea52-5c46-4383-9a8d-cae388a2eff0","system_id":"levelo_inurba_marseille","lat":43.32105,"lon":5.36768,"is_reserved":false,"is_disabled":false,"rental_uris":{"android":"levelo://app?vid=178fea52-5c46-4383-9a8d-cae388a2eff0","ios":"levelo://app?vid=178fea52-5c46-4383-9a8d-cae388a2eff0"},"vehicle_type_id":"4","last_reported":1750467280,"current_range_meters":8800,"station_id":"ce4bhrh2rcd13ifvqhug","pricing_plan_id":"cebpf4jnsgd1na2vs0mg"},{"bike_id":"619f8849-9932-49a9-b204-3ca7c8ba25c6","system_id":"levelo_inurba_marseille","lat":43.28596,"lon":5.37093,"is_reserved":false,"is_disabled":false,"rental_uris":{"android":"levelo://app?vid=619f8849-9932-49a9-b204-3ca7c8ba25c6","ios":"levelo://app?vid=619f8849-9932-49a9-b204-3ca7c8ba25c6"},"vehicle_type_id":"4","last_reported":1750467280,"current_range_meters":8800,"station_id":"ce4bht12rcd13ifvqi60","pricing_plan_id":"cebpf4jnsgd1na2vs0mg"},{"bike_id":"ab62e70c-8e03-4014-9b05-6868aeaa9588","system_id":"levelo_inurba_marseille","lat":43.29905,"lon":5.38148,"is_reserved":false,"is_disabled":false,"rental_uris":{"android":"levelo://app?vid=ab62e70c-8e03-4014-9b05-6868aeaa9588","ios":"levelo://app?vid=ab62e70c-8e03-4014-9b05-6868aeaa9588"},"vehicle_type_id":"4","last_reported":1750467280,"current_range_meters":9200,"station_id":"ce4bgj12rcd13ifvqbc0","pricing_plan_id":"cebpf4jnsgd1na2vs0mg"},{"bike_id":"999a7404-c492-4383-88c2-daf8b2db2f26","system_id":"levelo_inurba_marseille","lat":43.29281,"lon":5.40101,"is_reserved":false,"is_disabled":false,"rental_uris":{"android":"levelo://app?vid=999a7404-c492-4383-88c2-daf8b2db2f26","ios":"levelo://app?vid=999a7404-c492-4383-88c2-daf8b2db2f26"},"vehicle_type_id":"4","last_reported":1750467280,"current_range_meters":9200,"station_id":"ce4bh312rcd13ifvqdk0","pricing_plan_id":"cebpf4jnsgd1na2vs0mg"},{"bike_id":"2d9cd306-f0e6-4b47-9011-26d7fa79b2a5","system_id":"levelo_inurba_marseille","lat":43.25002,"lon":5.38933,"is_reserved":false,"is_disabled":false,"rental_uris":{"android":"levelo://app?vid=2d9cd306-f0e6-4b47-9011-26d7fa79b2a5","ios":"levelo://app?vid=2d9cd306-f0e6-4b47-9011-26d7fa79b2a5"},"vehicle_type_id":"4","last_reported":1750467280,"current_range_meters":9200,"station_id":"ce4bhgp2rcd13ifvqfd0","pricing_plan_id":"cebpf4jnsgd1na2vs0mg"},{"bike_id":"f30123e7-96d3-442d-9d01-6c98dc61e7c8","system_id":"levelo_inurba_marseille","lat":43.29819,"lon":5.3683,"is_reserved":false,"is_disabled":false,"rental_uris":{"android":"levelo://app?vid=f30123e7-96d3-442d-9d01-6c98dc61e7c8","ios":"levelo://app?vid=f30123e7-96d3-442d-9d01-6c98dc61e7c8"},"vehicle_type_id":"4","last_reported":1750467280,"current_range_meters":9600,"station_id":"","pricing_plan_id":"cebpf4jnsgd1na2vs0mg"},{"bike_id":"70f96398-20f9-4222-8ad4-b7b30835af43","system_id":"levelo_inurba_marseille","lat":43.31059,"lon":5.38353,"is_reserved":false,"is_disabled":false,"rental_uris":{"android":"levelo://app?vid=70f96398-20f9-4222-8ad4-b7b30835af43","ios":"levelo://app?vid=70f96398-20f9-4222-8ad4-b7b30835af43"},"vehicle_type_id":"4","last_reported":1750467280,"current_range_meters":9600,"station_id":"ce4bgv92rcd13ifvqcr0","pricing_plan_id":"cebpf4jnsgd1na2vs0mg"},{"bike_id":"ac32accf-04a5-4b15-a8f3-27905ad5dec5","system_id":"levelo_inurba_marseille","lat":43.316887,"lon":5.404805,"is_reserved":false,"is_disabled":false,"rental_uris":{"android":"levelo://app?vid=ac32accf-04a5-4b15-a8f3-27905ad5dec5","ios":"levelo://app?vid=ac32accf-04a5-4b15-a8f3-27905ad5dec5"},"vehicle_type_id":"4","last_reported":1750467280,"current_range_meters":9600,"station_id":"ce4bh012rcd13ifvqd00","pricing_plan_id":"cebpf4jnsgd1na2vs0mg"},{"bike_id":"ff5ca1bf-c1d0-43ba-8f5f-ea4a70bf2799","system_id":"levelo_inurba_marseille","lat":43.3031,"lon":5.40451,"is_reserved":false,"is_disabled":false,"rental_uris":{"android":"levelo://app?vid=ff5ca1bf-c1d0-43ba-8f5f-ea4a70bf2799","ios":"levelo://app?vid=ff5ca1bf-c1d0-43ba-8f5f-ea4a70bf2799"},"vehicle_type_id":"4","last_reported":1750467280,"current_range_meters":9600,"station_id":"ce4bh012rcd13ifvqd10","pricing_plan_id":"cebpf4jnsgd1na2vs0mg"},{"bike_id":"07eb6289-d073-4169-9982-9b8fd3fb8787","system_id":"levelo_inurba_marseille","lat":43.28567,"lon":5.39502,"is_reserved":false,"is_disabled":false,"rental_uris":{"android":"levelo://app?vid=07eb6289-d073-4169-9982-9b8fd3fb8787","ios":"levelo://app?vid=07eb6289-d073-4169-9982-9b8fd3fb8787"},"vehicle_type_id":"4","last_reported":1750467280,"current_range_meters":9600,"station_id":"ce4bh292rcd13ifvqdg0","pricing_plan_id":"cebpf4jnsgd1na2vs0mg"},{"bike_id":"76414feb-64d0-4265-9f2f-779afb7531ea","system_id":"levelo_inurba_marseille","lat":43.27913,"lon":5.39598,"is_reserved":false,"is_disabled":false,"rental_uris":{"android":"levelo://app?vid=76414feb-64d0-4265-9f2f-779afb7531ea","ios":"levelo://app?vid=76414feb-64d0-4265-9f2f-779afb7531ea"},"vehicle_type_id":"4","last_reported":1750467280,"current_range_meters":9600,"station_id":"ce4bhf92rcd13ifvqf40","pricing_plan_id":"cebpf4jnsgd1na2vs0mg"},{"bike_id":"b50ed994-fd88-4dd1-8846-dc2bf2666662","system_id":"levelo_inurba_marseille","lat":43.30558,"lon":5.40098,"is_reserved":false,"is_disabled":false,"rental_uris":{"android":"levelo://app?vid=b50ed994-fd88-4dd1-8846-dc2bf2666662","ios":"levelo://app?vid=b50ed994-fd88-4dd1-8846-dc2bf2666662"},"vehicle_type_id":"4","last_reported":1750467280,"current_range_meters":10000,"station_id":"","pricing_plan_id":"cebpf4jnsgd1na2vs0mg"},{"bike_id":"302ad177-ce8a-4427-bd21-f28bee886d67","system_id":"levelo_inurba_marseille","lat":43.31219,"lon":5.3685,"is_reserved":false,"is_disabled":false,"rental_uris":{"android":"levelo://app?vid=302ad177-ce8a-4427-bd21-f28bee886d67","ios":"levelo://app?vid=302ad177-ce8a-4427-bd21-f28bee886d67"},"vehicle_type_id":"4","last_reported":1750467280,"current_range_meters":10000,"station_id":"ce4bgl92rcd13ifvqbq0","pricing_plan_id":"cebpf4jnsgd1na2vs0mg"},{"bike_id":"48eb39bc-9dab-46fc-9c06-34b0e32cd0b3","system_id":"levelo_inurba_marseille","lat":43.31701,"lon":5.40422,"is_reserved":false,"is_disabled":false,"rental_uris":{"android":"levelo://app?vid=48eb39bc-9dab-46fc-9c06-34b0e32cd0b3","ios":"levelo://app?vid=48eb39bc-9dab-46fc-9c06-34b0e32cd0b3"},"vehicle_type_id":"4","last_reported":1750467280,"current_range_meters":10000,"station_id":"ce4bh012rcd13ifvqd00","pricing_plan_id":"cebpf4jnsgd1na2vs0mg"},{"bike_id":"a0f4885b-e467-4afb-b708-8c36a467e802","system_id":"levelo_inurba_marseille","lat":43.29058,"lon":5.39973,"is_reserved":false,"is_disabled":false,"rental_uris":{"android":"levelo://app?vid=a0f4885b-e467-4afb-b708-8c36a467e802","ios":"levelo://app?vid=a0f4885b-e467-4afb-b708-8c36a467e802"},"vehicle_type_id":"4","last_reported":1750467280,"current_range_meters":10000,"station_id":"ce4bh392rcd13ifvqdm0","pricing_plan_id":"cebpf4jnsgd1na2vs0mg"},{"bike_id":"b1655f92-76e5-4637-8a25-29738495fdaa","system_id":"levelo_inurba_marseille","lat":43.25111,"lon":5.40324,"is_reserved":false,"is_disabled":false,"rental_uris":{"android":"levelo://app?vid=b1655f92-76e5-4637-8a25-29738495fdaa","ios":"levelo://app?vid=b1655f92-76e5-4637-8a25-29738495fdaa"},"vehicle_type_id":"4","last_reported":1750467280,"current_range_meters":10000,"station_id":"ce4bhlh2rcd13ifvqgig","pricing_plan_id":"cebpf4jnsgd1na2vs0mg"},{"bike_id":"0d21e280-9436-46d1-9c44-e5e965241a4d","system_id":"levelo_inurba_marseille","lat":43.28704,"lon":5.3998,"is_reserved":false,"is_disabled":false,"rental_uris":{"android":"levelo://app?vid=0d21e280-9436-46d1-9c44-e5e965241a4d","ios":"levelo://app?vid=0d21e280-9436-46d1-9c44-e5e965241a4d"},"vehicle_type_id":"4","last_reported":1750467280,"current_range_meters":10000,"station_id":"ce4bho92rcd13ifvqh3g","pricing_plan_id":"cebpf4jnsgd1na2vs0mg"},{"bike_id":"2930bf7b-2372-4ddb-a96e-39fc10a37e17","system_id":"levelo_inurba_marseille","lat":43.32266,"lon":5.40785,"is_reserved":false,"is_disabled":false,"rental_uris":{"android":"levelo://app?vid=2930bf7b-2372-4ddb-a96e-39fc10a37e17","ios":"levelo://app?vid=2930bf7b-2372-4ddb-a96e-39fc10a37e17"},"vehicle_type_id":"4","last_reported":1750467280,"current_range_meters":10800,"station_id":"","pricing_plan_id":"cebpf4jnsgd1na2vs0mg"},{"bike_id":"199c2831-e081-4bc0-9b94-19503817091d","system_id":"levelo_inurba_marseille","lat":43.24899,"lon":5.40673,"is_reserved":false,"is_disabled":false,"rental_uris":{"android":"levelo://app?vid=199c2831-e081-4bc0-9b94-19503817091d","ios":"levelo://app?vid=199c2831-e081-4bc0-9b94-19503817091d"},"vehicle_type_id":"4","last_reported":1750467280,"current_range_meters":10800,"station_id":"","pricing_plan_id":"cebpf4jnsgd1na2vs0mg"},{"bike_id":"2a0e16d5-55d2-4c16-a4c9-b0b86c57f985","system_id":"levelo_inurba_marseille","lat":43.30145,"lon":5.38071,"is_reserved":false,"is_disabled":false,"rental_uris":{"android":"levelo://app?vid=2a0e16d5-55d2-4c16-a4c9-b0b86c57f985","ios":"levelo://app?vid=2a0e16d5-55d2-4c16-a4c9-b0b86c57f985"},"vehicle_type_id":"4","last_reported":1750467280,"current_range_meters":10800,"station_id":"ce4bgjp2rcd13ifvqbh0","pricing_plan_id":"cebpf4jnsgd1na2vs0mg"},{"bike_id":"2148217b-d8a5-4a4c-bd43-e70d855d7cd0","system_id":"levelo_inurba_marseille","lat":43.30258,"lon":5.40044,"is_reserved":false,"is_disabled":false,"rental_uris":{"android":"levelo://app?vid=2148217b-d8a5-4a4c-bd43-e70d855d7cd0","ios":"levelo://app?vid=2148217b-d8a5-4a4c-bd43-e70d855d7cd0"},"vehicle_type_id":"4","last_reported":1750467280,"current_range_meters":10800,"station_id":"ce4bgvh2rcd13ifvqcs0","pricing_plan_id":"cebpf4jnsgd1na2vs0mg"},{"bike_id":"b6b25b81-c613-4ef7-a518-825b8ab86a27","system_id":"levelo_inurba_marseille","lat":43.309321,"lon":5.401414,"is_reserved":false,"is_disabled":false,"rental_uris":{"android":"levelo://app?vid=b6b25b81-c613-4ef7-a518-825b8ab86a27","ios":"levelo://app?vid=b6b25b81-c613-4ef7-a518-825b8ab86a27"},"vehicle_type_id":"4","last_reported":1750467280,"current_range_meters":10800,"station_id":"ce4bgvp2rcd13ifvqct0","pricing_plan_id":"cebpf4jnsgd1na2vs0mg"},{"bike_id":"a572deeb-2a98-49f6-b4c6-2d1a08996e3e","system_id":"levelo_inurba_marseille","lat":43.30416,"lon":5.39761,"is_reserved":false,"is_disabled":false,"rental_uris":{"android":"levelo://app?vid=a572deeb-2a98-49f6-b4c6-2d1a08996e3e","ios":"levelo://app?vid=a572deeb-2a98-49f6-b4c6-2d1a08996e3e"},"vehicle_type_id":"4","last_reported":1750467280,"current_range_meters":10800,"station_id":"ce4bh092rcd13ifvqd20","pricing_plan_id":"cebpf4jnsgd1na2vs0mg"},{"bike_id":"f225b8a0-6675-4549-9dba-71916fea48a5","system_id":"levelo_inurba_marseille","lat":43.27904,"lon":5.37996,"is_reserved":false,"is_disabled":false,"rental_uris":{"android":"levelo://app?vid=f225b8a0-6675-4549-9dba-71916fea48a5","ios":"levelo://app?vid=f225b8a0-6675-4549-9dba-71916fea48a5"},"vehicle_type_id":"4","last_reported":1750467280,"current_range_meters":10800,"station_id":"ce4bhf92rcd13ifvqf50","pricing_plan_id":"cebpf4jnsgd1na2vs0mg"},{"bike_id":"a91667c8-9d9b-4267-80b6-c6c85a0895dc","system_id":"levelo_inurba_marseille","lat":43.32335,"lon":5.40634,"is_reserved":false,"is_disabled":false,"rental_uris":{"android":"levelo://app?vid=a91667c8-9d9b-4267-80b6-c6c85a0895dc","ios":"levelo://app?vid=a91667c8-9d9b-4267-80b6-c6c85a0895dc"},"vehicle_type_id":"4","last_reported":1750467280,"current_range_meters":10800,"station_id":"ce4bhq92rcd13ifvqhjg","pricing_plan_id":"cebpf4jnsgd1na2vs0mg"},{"bike_id":"8300812b-c3f4-4460-a462-0c10590e5460","system_id":"levelo_inurba_marseille","lat":43.32878,"lon":5.405358,"is_reserved":false,"is_disabled":false,"rental_uris":{"android":"levelo://app?vid=8300812b-c3f4-4460-a462-0c10590e5460","ios":"levelo://app?vid=8300812b-c3f4-4460-a462-0c10590e5460"},"vehicle_type_id":"4","last_reported":1750467280,"current_range_meters":11200,"station_id":"","pricing_plan_id":"cebpf4jnsgd1na2vs0mg"},{"bike_id":"780f0284-4f55-4f95-87fb-ecdf939e9a53","system_id":"levelo_inurba_marseille","lat":43.31322,"lon":5.39717,"is_reserved":false,"is_disabled":false,"rental_uris":{"android":"levelo://app?vid=780f0284-4f55-4f95-87fb-ecdf939e9a53","ios":"levelo://app?vid=780f0284-4f55-4f95-87fb-ecdf939e9a53"},"vehicle_type_id":"4","last_reported":1750467280,"current_range_meters":11200,"station_id":"ce4bgvp2rcd13ifvqcu0","pricing_plan_id":"cebpf4jnsgd1na2vs0mg"},{"bike_id":"05f69300-23b4-44be-a7e1-398a0efe81a4","system_id":"levelo_inurba_marseille","lat":43.31679,"lon":5.40471,"is_reserved":false,"is_disabled":false,"rental_uris":{"android":"levelo://app?vid=05f69300-23b4-44be-a7e1-398a0efe81a4","ios":"levelo://app?vid=05f69300-23b4-44be-a7e1-398a0efe81a4"},"vehicle_type_id":"4","last_reported":1750467280,"current_range_meters":11600,"station_id":"ce4bh012rcd13ifvqd00","pricing_plan_id":"cebpf4jnsgd1na2vs0mg"},{"bike_id":"9bdb5dde-fb06-4398-9d65-0bda3e8ffb3c","system_id":"levelo_inurba_marseille","lat":43.29549,"lon":5.39977,"is_reserved":false,"is_disabled":false,"rental_uris":{"android":"levelo://app?vid=9bdb5dde-fb06-4398-9d65-0bda3e8ffb3c","ios":"levelo://app?vid=9bdb5dde-fb06-4398-9d65-0bda3e8ffb3c"},"vehicle_type_id":"4","last_reported":1750467280,"current_range_meters":11600,"station_id":"ce4bh312rcd13ifvqdj0","pricing_plan_id":"cebpf4jnsgd1na2vs0mg"},{"bike_id":"1e11989f-e475-4397-9a45-bd9147224a5e","system_id":"levelo_inurba_marseille","lat":43.24413,"lon":5.37112,"is_reserved":false,"is_disabled":false,"rental_uris":{"android":"levelo://app?vid=1e11989f-e475-4397-9a45-bd9147224a5e","ios":"levelo://app?vid=1e11989f-e475-4397-9a45-bd9147224a5e"},"vehicle_type_id":"4","last_reported":1750467280,"current_range_meters":11600,"station_id":"ce4bhhh2rcd13ifvqfk0","pricing_plan_id":"cebpf4jnsgd1na2vs0mg"},{"bike_id":"90748853-6508-4d08-81cc-52ebf2429f56","system_id":"levelo_inurba_marseille","lat":43.27839,"lon":5.39211,"is_reserved":false,"is_disabled":false,"rental_uris":{"android":"levelo://app?vid=90748853-6508-4d08-81cc-52ebf2429f56","ios":"levelo://app?vid=90748853-6508-4d08-81cc-52ebf2429f56"},"vehicle_type_id":"4","last_reported":1750467280,"current_range_meters":12000,"station_id":"ce4bhjp2rcd13ifvqga0","pricing_plan_id":"cebpf4jnsgd1na2vs0mg"},{"bike_id":"2d5a3e48-a733-40bd-b5f1-655136adbbbd","system_id":"levelo_inurba_marseille","lat":43.23192,"lon":5.35558,"is_reserved":false,"is_disabled":false,"rental_uris":{"android":"levelo://app?vid=2d5a3e48-a733-40bd-b5f1-655136adbbbd","ios":"levelo://app?vid=2d5a3e48-a733-40bd-b5f1-655136adbbbd"},"vehicle_type_id":"4","last_reported":1750467280,"current_range_meters":12000,"station_id":"ce4bhu92rcd13ifvqi70","pricing_plan_id":"cebpf4jnsgd1na2vs0mg"},{"bike_id":"95948f8c-ed1b-4579-a2fd-8de9a76479dd","system_id":"levelo_inurba_marseille","lat":43.29887,"lon":5.39719,"is_reserved":false,"is_disabled":false,"rental_uris":{"android":"levelo://app?vid=95948f8c-ed1b-4579-a2fd-8de9a76479dd","ios":"levelo://app?vid=95948f8c-ed1b-4579-a2fd-8de9a76479dd"},"vehicle_type_id":"4","last_reported":1750467280,"current_range_meters":12400,"station_id":"ce4bh0h2rcd13ifvqd50","pricing_plan_id":"cebpf4jnsgd1na2vs0mg"},{"bike_id":"590ce847-90f3-4300-a614-ca45c173d99e","system_id":"levelo_inurba_marseille","lat":43.33742,"lon":5.3919,"is_reserved":false,"is_disabled":false,"rental_uris":{"android":"levelo://app?vid=590ce847-90f3-4300-a614-ca45c173d99e","ios":"levelo://app?vid=590ce847-90f3-4300-a614-ca45c173d99e"},"vehicle_type_id":"4","last_reported":1750467280,"current_range_meters":12400,"station_id":"ce4bhr92rcd13ifvqhsg","pricing_plan_id":"cebpf4jnsgd1na2vs0mg"},{"bike_id":"8fd94bfe-b0a3-4509-a3c9-0f6e3f8eed78","system_id":"levelo_inurba_marseille","lat":43.24163,"lon":5.36399,"is_reserved":false,"is_disabled":false,"rental_uris":{"android":"levelo://app?vid=8fd94bfe-b0a3-4509-a3c9-0f6e3f8eed78","ios":"levelo://app?vid=8fd94bfe-b0a3-4509-a3c9-0f6e3f8eed78"},"vehicle_type_id":"4","last_reported":1750467280,"current_range_meters":12400,"station_id":"cpo36qri1sfpv3e86is0","pricing_plan_id":"cebpf4jnsgd1na2vs0mg"},{"bike_id":"35d78290-40ba-4920-ac67-027dbac42037","system_id":"levelo_inurba_marseille","lat":43.32365,"lon":5.38884,"is_reserved":false,"is_disabled":false,"rental_uris":{"android":"levelo://app?vid=35d78290-40ba-4920-ac67-027dbac42037","ios":"levelo://app?vid=35d78290-40ba-4920-ac67-027dbac42037"},"vehicle_type_id":"4","last_reported":1750467280,"current_range_meters":12800,"station_id":"ce4bhqp2rcd13ifvqhog","pricing_plan_id":"cebpf4jnsgd1na2vs0mg"},{"bike_id":"dc540ba2-fb63-45eb-b83a-1826fb3d30b7","system_id":"levelo_inurba_marseille","lat":43.24606,"lon":5.39273,"is_reserved":false,"is_disabled":false,"rental_uris":{"android":"levelo://app?vid=dc540ba2-fb63-45eb-b83a-1826fb3d30b7","ios":"levelo://app?vid=dc540ba2-fb63-45eb-b83a-1826fb3d30b7"},"vehicle_type_id":"4","last_reported":1750467280,"current_range_meters":13600,"station_id":"","pricing_plan_id":"cebpf4jnsgd1na2vs0mg"},{"bike_id":"bd27fe72-6fbc-453f-8b77-bee10ab3b13c","system_id":"levelo_inurba_marseille","lat":43.29527,"lon":5.42351,"is_reserved":false,"is_disabled":false,"rental_uris":{"android":"levelo://app?vid=bd27fe72-6fbc-453f-8b77-bee10ab3b13c","ios":"levelo://app?vid=bd27fe72-6fbc-453f-8b77-bee10ab3b13c"},"vehicle_type_id":"4","last_reported":1750467280,"current_range_meters":13600,"station_id":"","pricing_plan_id":"cebpf4jnsgd1na2vs0mg"},{"bike_id":"517a107e-9cd9-4539-be7a-5ca6b67916f7","system_id":"levelo_inurba_marseille","lat":43.30638,"lon":5.40072,"is_reserved":false,"is_disabled":false,"rental_uris":{"android":"levelo://app?vid=517a107e-9cd9-4539-be7a-5ca6b67916f7","ios":"levelo://app?vid=517a107e-9cd9-4539-be7a-5ca6b67916f7"},"vehicle_type_id":"4","last_reported":1750467280,"current_range_meters":13600,"station_id":"ce4bh112rcd13ifvqda0","pricing_plan_id":"cebpf4jnsgd1na2vs0mg"},{"bike_id":"959f0c62-9761-4a35-9c23-557e23ca2679","system_id":"levelo_inurba_marseille","lat":43.24669,"lon":5.38155,"is_reserved":false,"is_disabled":false,"rental_uris":{"android":"levelo://app?vid=959f0c62-9761-4a35-9c23-557e23ca2679","ios":"levelo://app?vid=959f0c62-9761-4a35-9c23-557e23ca2679"},"vehicle_type_id":"4","last_reported":1750467280,"current_range_meters":13600,"station_id":"ce4bhih2rcd13ifvqfr0","pricing_plan_id":"cebpf4jnsgd1na2vs0mg"},{"bike_id":"3fa5aa17-b27e-4bfa-8422-021bfaabc943","system_id":"levelo_inurba_marseille","lat":43.27987,"lon":5.41662,"is_reserved":false,"is_disabled":false,"rental_uris":{"android":"levelo://app?vid=3fa5aa17-b27e-4bfa-8422-021bfaabc943","ios":"levelo://app?vid=3fa5aa17-b27e-4bfa-8422-021bfaabc943"},"vehicle_type_id":"4","last_reported":1750467280,"current_range_meters":13600,"station_id":"ce4bho12rcd13ifvqh1g","pricing_plan_id":"cebpf4jnsgd1na2vs0mg"},{"bike_id":"6e9937c4-04c1-4e15-9850-59f72de8a1df","system_id":"levelo_inurba_marseille","lat":43.231891,"lon":5.355581,"is_reserved":false,"is_disabled":false,"rental_uris":{"android":"levelo://app?vid=6e9937c4-04c1-4e15-9850-59f72de8a1df","ios":"levelo://app?vid=6e9937c4-04c1-4e15-9850-59f72de8a1df"},"vehicle_type_id":"4","last_reported":1750467280,"current_range_meters":13600,"station_id":"ce4bhu92rcd13ifvqi70","pricing_plan_id":"cebpf4jnsgd1na2vs0mg"},{"bike_id":"8ef11a45-504d-45b0-a2b5-97fef9594218","system_id":"levelo_inurba_marseille","lat":43.29547,"lon":5.38143,"is_reserved":false,"is_disabled":false,"rental_uris":{"android":"levelo://app?vid=8ef11a45-504d-45b0-a2b5-97fef9594218","ios":"levelo://app?vid=8ef11a45-504d-45b0-a2b5-97fef9594218"},"vehicle_type_id":"4","last_reported":1750467280,"current_range_meters":14000,"station_id":"","pricing_plan_id":"cebpf4jnsgd1na2vs0mg"},{"bike_id":"52ab91e9-e7c4-49a7-9797-684d48e6f296","system_id":"levelo_inurba_marseille","lat":43.30794,"lon":5.38156,"is_reserved":false,"is_disabled":false,"rental_uris":{"android":"levelo://app?vid=52ab91e9-e7c4-49a7-9797-684d48e6f296","ios":"levelo://app?vid=52ab91e9-e7c4-49a7-9797-684d48e6f296"},"vehicle_type_id":"4","last_reported":1750467280,"current_range_meters":14000,"station_id":"ce4bgt12rcd13ifvqce0","pricing_plan_id":"cebpf4jnsgd1na2vs0mg"},{"bike_id":"d40af265-11b5-43a6-9bb6-f910f57901ba","system_id":"levelo_inurba_marseille","lat":43.32961,"lon":5.38104,"is_reserved":false,"is_disabled":false,"rental_uris":{"android":"levelo://app?vid=d40af265-11b5-43a6-9bb6-f910f57901ba","ios":"levelo://app?vid=d40af265-11b5-43a6-9bb6-f910f57901ba"},"vehicle_type_id":"4","last_reported":1750467280,"current_range_meters":14400,"station_id":"","pricing_plan_id":"cebpf4jnsgd1na2vs0mg"},{"bike_id":"14076d1d-d348-4e94-81d5-188572c3e933","system_id":"levelo_inurba_marseille","lat":43.3032,"lon":5.40444,"is_reserved":false,"is_disabled":false,"rental_uris":{"android":"levelo://app?vid=14076d1d-d348-4e94-81d5-188572c3e933","ios":"levelo://app?vid=14076d1d-d348-4e94-81d5-188572c3e933"},"vehicle_type_id":"4","last_reported":1750467280,"current_range_meters":14400,"station_id":"ce4bh012rcd13ifvqd10","pricing_plan_id":"cebpf4jnsgd1na2vs0mg"},{"bike_id":"1af8cc20-b4be-40a0-952b-b9221d26e0d7","system_id":"levelo_inurba_marseille","lat":43.28733,"lon":5.37944,"is_reserved":false,"is_disabled":false,"rental_uris":{"android":"levelo://app?vid=1af8cc20-b4be-40a0-952b-b9221d26e0d7","ios":"levelo://app?vid=1af8cc20-b4be-40a0-952b-b9221d26e0d7"},"vehicle_type_id":"4","last_reported":1750467280,"current_range_meters":14400,"station_id":"ce4bh9p2rcd13ifvqec0","pricing_plan_id":"cebpf4jnsgd1na2vs0mg"},{"bike_id":"24c3f3cb-ddcf-46f0-9b3f-14585b768a2d","system_id":"levelo_inurba_marseille","lat":43.23129,"lon":5.43741,"is_reserved":false,"is_disabled":false,"rental_uris":{"android":"levelo://app?vid=24c3f3cb-ddcf-46f0-9b3f-14585b768a2d","ios":"levelo://app?vid=24c3f3cb-ddcf-46f0-9b3f-14585b768a2d"},"vehicle_type_id":"4","last_reported":1750467280,"current_range_meters":14400,"station_id":"ce4bhmp2rcd13ifvqgog","pricing_plan_id":"cebpf4jnsgd1na2vs0mg"},{"bike_id":"38196149-7617-4b67-9964-2f02df53a795","system_id":"levelo_inurba_marseille","lat":43.287,"lon":5.39992,"is_reserved":false,"is_disabled":false,"rental_uris":{"android":"levelo://app?vid=38196149-7617-4b67-9964-2f02df53a795","ios":"levelo://app?vid=38196149-7617-4b67-9964-2f02df53a795"},"vehicle_type_id":"4","last_reported":1750467280,"current_range_meters":14800,"station_id":"ce4bho92rcd13ifvqh3g","pricing_plan_id":"cebpf4jnsgd1na2vs0mg"},{"bike_id":"a22aa312-0025-4f42-88e2-b1e95e79340f","system_id":"levelo_inurba_marseille","lat":43.31548,"lon":5.38347,"is_reserved":false,"is_disabled":false,"rental_uris":{"android":"levelo://app?vid=a22aa312-0025-4f42-88e2-b1e95e79340f","ios":"levelo://app?vid=a22aa312-0025-4f42-88e2-b1e95e79340f"},"vehicle_type_id":"4","last_reported":1750467280,"current_range_meters":15200,"station_id":"","pricing_plan_id":"cebpf4jnsgd1na2vs0mg"},{"bike_id":"156717d9-5d82-4226-a389-e52555e7069b","system_id":"levelo_inurba_marseille","lat":43.29339,"lon":5.3709,"is_reserved":false,"is_disabled":false,"rental_uris":{"android":"levelo://app?vid=156717d9-5d82-4226-a389-e52555e7069b","ios":"levelo://app?vid=156717d9-5d82-4226-a389-e52555e7069b"},"vehicle_type_id":"4","last_reported":1750467280,"current_range_meters":15200,"station_id":"","pricing_plan_id":"cebpf4jnsgd1na2vs0mg"},{"bike_id":"0e787eba-3ea8-4f2d-a8c6-3722a2bfee4b","system_id":"levelo_inurba_marseille","lat":43.31165,"lon":5.38717,"is_reserved":false,"is_disabled":false,"rental_uris":{"android":"levelo://app?vid=0e787eba-3ea8-4f2d-a8c6-3722a2bfee4b","ios":"levelo://app?vid=0e787eba-3ea8-4f2d-a8c6-3722a2bfee4b"},"vehicle_type_id":"4","last_reported":1750467280,"current_range_meters":15200,"station_id":"ce4bgv12rcd13ifvqcp0","pricing_plan_id":"cebpf4jnsgd1na2vs0mg"},{"bike_id":"c5d80bab-5e87-4c1c-a69f-62d26f69ac1d","system_id":"levelo_inurba_marseille","lat":43.31693,"lon":5.40454,"is_reserved":false,"is_disabled":false,"rental_uris":{"android":"levelo://app?vid=c5d80bab-5e87-4c1c-a69f-62d26f69ac1d","ios":"levelo://app?vid=c5d80bab-5e87-4c1c-a69f-62d26f69ac1d"},"vehicle_type_id":"4","last_reported":1750467280,"current_range_meters":15200,"station_id":"ce4bh012rcd13ifvqd00","pricing_plan_id":"cebpf4jnsgd1na2vs0mg"},{"bike_id":"a1ab2b8f-1224-4280-aa0d-17d65ca5d8b8","system_id":"levelo_inurba_marseille","lat":43.30797,"lon":5.43526,"is_reserved":false,"is_disabled":false,"rental_uris":{"android":"levelo://app?vid=a1ab2b8f-1224-4280-aa0d-17d65ca5d8b8","ios":"levelo://app?vid=a1ab2b8f-1224-4280-aa0d-17d65ca5d8b8"},"vehicle_type_id":"4","last_reported":1750467280,"current_range_meters":15200,"station_id":"ce4bhph2rcd13ifvqheg","pricing_plan_id":"cebpf4jnsgd1na2vs0mg"},{"bike_id":"e89db88b-1c2c-475c-a56d-e9d66d636fb2","system_id":"levelo_inurba_marseille","lat":43.231892,"lon":5.355527,"is_reserved":false,"is_disabled":false,"rental_uris":{"android":"levelo://app?vid=e89db88b-1c2c-475c-a56d-e9d66d636fb2","ios":"levelo://app?vid=e89db88b-1c2c-475c-a56d-e9d66d636fb2"},"vehicle_type_id":"4","last_reported":1750467280,"current_range_meters":15200,"station_id":"ce4bhu92rcd13ifvqi70","pricing_plan_id":"cebpf4jnsgd1na2vs0mg"},{"bike_id":"4643bc90-1bac-4c4b-98b1-e2d500830573","system_id":"levelo_inurba_marseille","lat":43.31361,"lon":5.37668,"is_reserved":false,"is_disabled":false,"rental_uris":{"android":"levelo://app?vid=4643bc90-1bac-4c4b-98b1-e2d500830573","ios":"levelo://app?vid=4643bc90-1bac-4c4b-98b1-e2d500830573"},"vehicle_type_id":"4","last_reported":1750467280,"current_range_meters":16000,"station_id":"","pricing_plan_id":"cebpf4jnsgd1na2vs0mg"},{"bike_id":"90c109b5-5cee-495e-8f11-f318c0f086b6","system_id":"levelo_inurba_marseille","lat":43.32489,"lon":5.43452,"is_reserved":false,"is_disabled":false,"rental_uris":{"android":"levelo://app?vid=90c109b5-5cee-495e-8f11-f318c0f086b6","ios":"levelo://app?vid=90c109b5-5cee-495e-8f11-f318c0f086b6"},"vehicle_type_id":"4","last_reported":1750467280,"current_range_meters":16000,"station_id":"","pricing_plan_id":"cebpf4jnsgd1na2vs0mg"},{"bike_id":"1ec9e17c-fc83-4e3e-a4e4-6a0fc0c7e792","system_id":"levelo_inurba_marseille","lat":43.29881,"lon":5.3978,"is_reserved":false,"is_disabled":false,"rental_uris":{"android":"levelo://app?vid=1ec9e17c-fc83-4e3e-a4e4-6a0fc0c7e792","ios":"levelo://app?vid=1ec9e17c-fc83-4e3e-a4e4-6a0fc0c7e792"},"vehicle_type_id":"4","last_reported":1750467280,"current_range_meters":16000,"station_id":"ce4bh0h2rcd13ifvqd50","pricing_plan_id":"cebpf4jnsgd1na2vs0mg"},{"bike_id":"19267c63-bfb8-4e4b-a2b6-3c766dbbe094","system_id":"levelo_inurba_marseille","lat":43.29237,"lon":5.409115,"is_reserved":false,"is_disabled":false,"rental_uris":{"android":"levelo://app?vid=19267c63-bfb8-4e4b-a2b6-3c766dbbe094","ios":"levelo://app?vid=19267c63-bfb8-4e4b-a2b6-3c766dbbe094"},"vehicle_type_id":"4","last_reported":1750467280,"current_range_meters":16000,"station_id":"ce4bh192rcd13ifvqdc0","pricing_plan_id":"cebpf4jnsgd1na2vs0mg"},{"bike_id":"ced8ee67-58dc-40f7-a011-ace4bcd3b542","system_id":"levelo_inurba_marseille","lat":43.29038,"lon":5.40004,"is_reserved":false,"is_disabled":false,"rental_uris":{"android":"levelo://app?vid=ced8ee67-58dc-40f7-a011-ace4bcd3b542","ios":"levelo://app?vid=ced8ee67-58dc-40f7-a011-ace4bcd3b542"},"vehicle_type_id":"4","last_reported":1750467280,"current_range_meters":16000,"station_id":"ce4bh392rcd13ifvqdm0","pricing_plan_id":"cebpf4jnsgd1na2vs0mg"},{"bike_id":"5a01a987-f989-4da6-b035-8c3000259e08","system_id":"levelo_inurba_marseille","lat":43.27912,"lon":5.39595,"is_reserved":false,"is_disabled":false,"rental_uris":{"android":"levelo://app?vid=5a01a987-f989-4da6-b035-8c3000259e08","ios":"levelo://app?vid=5a01a987-f989-4da6-b035-8c3000259e08"},"vehicle_type_id":"4","last_reported":1750467280,"current_range_meters":16000,"station_id":"ce4bhf92rcd13ifvqf40","pricing_plan_id":"cebpf4jnsgd1na2vs0mg"},{"bike_id":"204afd8f-d13a-468d-a59c-e2db9671fff1","system_id":"levelo_inurba_marseille","lat":43.24404,"lon":5.371278,"is_reserved":false,"is_disabled":false,"rental_uris":{"android":"levelo://app?vid=204afd8f-d13a-468d-a59c-e2db9671fff1","ios":"levelo://app?vid=204afd8f-d13a-468d-a59c-e2db9671fff1"},"vehicle_type_id":"4","last_reported":1750467280,"current_range_meters":16000,"station_id":"ce4bhhh2rcd13ifvqfk0","pricing_plan_id":"cebpf4jnsgd1na2vs0mg"},{"bike_id":"01c0ac0f-b40f-4f7c-a9fe-4fc3ed3169fe","system_id":"levelo_inurba_marseille","lat":43.25975,"lon":5.37533,"is_reserved":false,"is_disabled":false,"rental_uris":{"android":"levelo://app?vid=01c0ac0f-b40f-4f7c-a9fe-4fc3ed3169fe","ios":"levelo://app?vid=01c0ac0f-b40f-4f7c-a9fe-4fc3ed3169fe"},"vehicle_type_id":"4","last_reported":1750467280,"current_range_meters":16400,"station_id":"","pricing_plan_id":"cebpf4jnsgd1na2vs0mg"},{"bike_id":"1c272c36-18f6-4190-9c08-86bb866dec17","system_id":"levelo_inurba_marseille","lat":43.30919,"lon":5.4014,"is_reserved":false,"is_disabled":false,"rental_uris":{"android":"levelo://app?vid=1c272c36-18f6-4190-9c08-86bb866dec17","ios":"levelo://app?vid=1c272c36-18f6-4190-9c08-86bb866dec17"},"vehicle_type_id":"4","last_reported":1750467280,"current_range_meters":16400,"station_id":"ce4bgvp2rcd13ifvqct0","pricing_plan_id":"cebpf4jnsgd1na2vs0mg"},{"bike_id":"5c19dc00-677d-4a6e-8b75-75f25d696ae2","system_id":"levelo_inurba_marseille","lat":43.30871,"lon":5.39636,"is_reserved":false,"is_disabled":false,"rental_uris":{"android":"levelo://app?vid=5c19dc00-677d-4a6e-8b75-75f25d696ae2","ios":"levelo://app?vid=5c19dc00-677d-4a6e-8b75-75f25d696ae2"},"vehicle_type_id":"4","last_reported":1750467280,"current_range_meters":16400,"station_id":"ce4bh012rcd13ifvqcv0","pricing_plan_id":"cebpf4jnsgd1na2vs0mg"},{"bike_id":"6bf13b0b-3a27-4fc2-a62b-901ea48c335b","system_id":"levelo_inurba_marseille","lat":43.286966,"lon":5.387613,"is_reserved":false,"is_disabled":false,"rental_uris":{"android":"levelo://app?vid=6bf13b0b-3a27-4fc2-a62b-901ea48c335b","ios":"levelo://app?vid=6bf13b0b-3a27-4fc2-a62b-901ea48c335b"},"vehicle_type_id":"4","last_reported":1750467280,"current_range_meters":16400,"station_id":"ce4bh492rcd13ifvqdug","pricing_plan_id":"cebpf4jnsgd1na2vs0mg"},{"bike_id":"ba496306-0dfc-4d42-9bbf-ef090e9f1430","system_id":"levelo_inurba_marseille","lat":43.24649,"lon":5.38901,"is_reserved":false,"is_disabled":false,"rental_uris":{"android":"levelo://app?vid=ba496306-0dfc-4d42-9bbf-ef090e9f1430","ios":"levelo://app?vid=ba496306-0dfc-4d42-9bbf-ef090e9f1430"},"vehicle_type_id":"4","last_reported":1750467280,"current_range_meters":16400,"station_id":"ce4bhg12rcd13ifvqf60","pricing_plan_id":"cebpf4jnsgd1na2vs0mg"},{"bike_id":"ffbb0c22-3f4e-4cdb-a0e5-79e3b9f3e1a2","system_id":"levelo_inurba_marseille","lat":43.33769,"lon":5.3743,"is_reserved":false,"is_disabled":false,"rental_uris":{"android":"levelo://app?vid=ffbb0c22-3f4e-4cdb-a0e5-79e3b9f3e1a2","ios":"levelo://app?vid=ffbb0c22-3f4e-4cdb-a0e5-79e3b9f3e1a2"},"vehicle_type_id":"4","last_reported":1750467280,"current_range_meters":16800,"station_id":"","pricing_plan_id":"cebpf4jnsgd1na2vs0mg"},{"bike_id":"4c384ed3-b46d-4294-aa02-9b90e7b64f8b","system_id":"levelo_inurba_marseille","lat":43.28478,"lon":5.38418,"is_reserved":false,"is_disabled":false,"rental_uris":{"android":"levelo://app?vid=4c384ed3-b46d-4294-aa02-9b90e7b64f8b","ios":"levelo://app?vid=4c384ed3-b46d-4294-aa02-9b90e7b64f8b"},"vehicle_type_id":"4","last_reported":1750467280,"current_range_meters":16800,"station_id":"ce4bh512rcd13ifvqe3g","pricing_plan_id":"cebpf4jnsgd1na2vs0mg"},{"bike_id":"94fc4f87-fe85-4b4f-90e1-6300fa34348b","system_id":"levelo_inurba_marseille","lat":43.23189,"lon":5.39966,"is_reserved":false,"is_disabled":false,"rental_uris":{"android":"levelo://app?vid=94fc4f87-fe85-4b4f-90e1-6300fa34348b","ios":"levelo://app?vid=94fc4f87-fe85-4b4f-90e1-6300fa34348b"},"vehicle_type_id":"4","last_reported":1750467280,"current_range_meters":16800,"station_id":"ce4bhn12rcd13ifvqgqg","pricing_plan_id":"cebpf4jnsgd1na2vs0mg"},{"bike_id":"11f22ee7-da0e-4293-a0e0-53a0b181325a","system_id":"levelo_inurba_marseille","lat":43.23178,"lon":5.3555,"is_reserved":false,"is_disabled":false,"rental_uris":{"android":"levelo://app?vid=11f22ee7-da0e-4293-a0e0-53a0b181325a","ios":"levelo://app?vid=11f22ee7-da0e-4293-a0e0-53a0b181325a"},"vehicle_type_id":"4","last_reported":1750467280,"current_range_meters":16800,"station_id":"ce4bhu92rcd13ifvqi70","pricing_plan_id":"cebpf4jnsgd1na2vs0mg"},{"bike_id":"9436b3f7-e71d-4814-81fe-95d1af5df695","system_id":"levelo_inurba_marseille","lat":43.21189,"lon":5.35073,"is_reserved":false,"is_disabled":false,"rental_uris":{"android":"levelo://app?vid=9436b3f7-e71d-4814-81fe-95d1af5df695","ios":"levelo://app?vid=9436b3f7-e71d-4814-81fe-95d1af5df695"},"vehicle_type_id":"4","last_reported":1750467280,"current_range_meters":16800,"station_id":"st_cvj6sg6p6f1abm77japg","pricing_plan_id":"cebpf4jnsgd1na2vs0mg"},{"bike_id":"55458a1c-1be7-4c30-b88c-bcd56204ba90","system_id":"levelo_inurba_marseille","lat":43.29898,"lon":5.37471,"is_reserved":false,"is_disabled":false,"rental_uris":{"android":"levelo://app?vid=55458a1c-1be7-4c30-b88c-bcd56204ba90","ios":"levelo://app?vid=55458a1c-1be7-4c30-b88c-bcd56204ba90"},"vehicle_type_id":"4","last_reported":1750467280,"current_range_meters":17200,"station_id":"ce4bgjh2rcd13ifvqbg0","pricing_plan_id":"cebpf4jnsgd1na2vs0mg"},{"bike_id":"399f1953-2bea-49fa-99d4-dce45aabeeb9","system_id":"levelo_inurba_marseille","lat":43.31664,"lon":5.40479,"is_reserved":false,"is_disabled":false,"rental_uris":{"android":"levelo://app?vid=399f1953-2bea-49fa-99d4-dce45aabeeb9","ios":"levelo://app?vid=399f1953-2bea-49fa-99d4-dce45aabeeb9"},"vehicle_type_id":"4","last_reported":1750467280,"current_range_meters":17200,"station_id":"ce4bh012rcd13ifvqd00","pricing_plan_id":"cebpf4jnsgd1na2vs0mg"},{"bike_id":"9fa48000-6b1c-429d-9bf0-c3940e6ff0d5","system_id":"levelo_inurba_marseille","lat":43.2957,"lon":5.39972,"is_reserved":false,"is_disabled":false,"rental_uris":{"android":"levelo://app?vid=9fa48000-6b1c-429d-9bf0-c3940e6ff0d5","ios":"levelo://app?vid=9fa48000-6b1c-429d-9bf0-c3940e6ff0d5"},"vehicle_type_id":"4","last_reported":1750467280,"current_range_meters":17200,"station_id":"ce4bh312rcd13ifvqdj0","pricing_plan_id":"cebpf4jnsgd1na2vs0mg"},{"bike_id":"7d45e67a-cac7-4963-a76e-6ebad2f31b2c","system_id":"levelo_inurba_marseille","lat":43.2802,"lon":5.36942,"is_reserved":false,"is_disabled":false,"rental_uris":{"android":"levelo://app?vid=7d45e67a-cac7-4963-a76e-6ebad2f31b2c","ios":"levelo://app?vid=7d45e67a-cac7-4963-a76e-6ebad2f31b2c"},"vehicle_type_id":"4","last_reported":1750467280,"current_range_meters":17200,"station_id":"ce4bha12rcd13ifvqef0","pricing_plan_id":"cebpf4jnsgd1na2vs0mg"},{"bike_id":"2cec0bc7-dead-4af8-95ca-e858e0d59839","system_id":"levelo_inurba_marseille","lat":43.289316,"lon":5.366398,"is_reserved":false,"is_disabled":false,"rental_uris":{"android":"levelo://app?vid=2cec0bc7-dead-4af8-95ca-e858e0d59839","ios":"levelo://app?vid=2cec0bc7-dead-4af8-95ca-e858e0d59839"},"vehicle_type_id":"4","last_reported":1750467280,"current_range_meters":17200,"station_id":"ce4bhap2rcd13ifvqek0","pricing_plan_id":"cebpf4jnsgd1na2vs0mg"},{"bike_id":"6646f1cb-9c8e-49c5-beb9-43cec8edb267","system_id":"levelo_inurba_marseille","lat":43.26793,"lon":5.39411,"is_reserved":false,"is_disabled":false,"rental_uris":{"android":"levelo://app?vid=6646f1cb-9c8e-49c5-beb9-43cec8edb267","ios":"levelo://app?vid=6646f1cb-9c8e-49c5-beb9-43cec8edb267"},"vehicle_type_id":"4","last_reported":1750467280,"current_range_meters":17200,"station_id":"ce4bhh12rcd13ifvqfg0","pricing_plan_id":"cebpf4jnsgd1na2vs0mg"},{"bike_id":"0b23f5cc-2064-4240-95d7-a566178f44f6","system_id":"levelo_inurba_marseille","lat":43.27058,"lon":5.40265,"is_reserved":false,"is_disabled":false,"rental_uris":{"android":"levelo://app?vid=0b23f5cc-2064-4240-95d7-a566178f44f6","ios":"levelo://app?vid=0b23f5cc-2064-4240-95d7-a566178f44f6"},"vehicle_type_id":"4","last_reported":1750467280,"current_range_meters":17200,"station_id":"ce4bhk92rcd13ifvqgc0","pricing_plan_id":"cebpf4jnsgd1na2vs0mg"},{"bike_id":"3d2d6044-6185-4c45-8ef2-14dfc8377c45","system_id":"levelo_inurba_marseille","lat":43.321088,"lon":5.367771,"is_reserved":false,"is_disabled":false,"rental_uris":{"android":"levelo://app?vid=3d2d6044-6185-4c45-8ef2-14dfc8377c45","ios":"levelo://app?vid=3d2d6044-6185-4c45-8ef2-14dfc8377c45"},"vehicle_type_id":"4","last_reported":1750467280,"current_range_meters":17200,"station_id":"ce4bhrh2rcd13ifvqhug","pricing_plan_id":"cebpf4jnsgd1na2vs0mg"},{"bike_id":"498fcd46-6a89-4e3e-b712-1b44839b5562","system_id":"levelo_inurba_marseille","lat":43.3203,"lon":5.40817,"is_reserved":false,"is_disabled":false,"rental_uris":{"android":"levelo://app?vid=498fcd46-6a89-4e3e-b712-1b44839b5562","ios":"levelo://app?vid=498fcd46-6a89-4e3e-b712-1b44839b5562"},"vehicle_type_id":"4","last_reported":1750467280,"current_range_meters":17600,"station_id":"","pricing_plan_id":"cebpf4jnsgd1na2vs0mg"},{"bike_id":"037bb55c-581c-4b44-b072-28cff3505ef8","system_id":"levelo_inurba_marseille","lat":43.29032,"lon":5.39973,"is_reserved":false,"is_disabled":false,"rental_uris":{"android":"levelo://app?vid=037bb55c-581c-4b44-b072-28cff3505ef8","ios":"levelo://app?vid=037bb55c-581c-4b44-b072-28cff3505ef8"},"vehicle_type_id":"4","last_reported":1750467280,"current_range_meters":17600,"station_id":"ce4bh392rcd13ifvqdm0","pricing_plan_id":"cebpf4jnsgd1na2vs0mg"},{"bike_id":"de81c6ec-4833-461b-9110-80bf77e4c8f4","system_id":"levelo_inurba_marseille","lat":43.28398,"lon":5.37539,"is_reserved":false,"is_disabled":false,"rental_uris":{"android":"levelo://app?vid=de81c6ec-4833-461b-9110-80bf77e4c8f4","ios":"levelo://app?vid=de81c6ec-4833-461b-9110-80bf77e4c8f4"},"vehicle_type_id":"4","last_reported":1750467280,"current_range_meters":17600,"station_id":"ce4bh412rcd13ifvqds0","pricing_plan_id":"cebpf4jnsgd1na2vs0mg"},{"bike_id":"8beb5d6f-e0f1-4557-9a8b-b272eec7bc9e","system_id":"levelo_inurba_marseille","lat":43.27184,"lon":5.39198,"is_reserved":false,"is_disabled":false,"rental_uris":{"android":"levelo://app?vid=8beb5d6f-e0f1-4557-9a8b-b272eec7bc9e","ios":"levelo://app?vid=8beb5d6f-e0f1-4557-9a8b-b272eec7bc9e"},"vehicle_type_id":"4","last_reported":1750467280,"current_range_meters":17600,"station_id":"ce4bhhp2rcd13ifvqfm0","pricing_plan_id":"cebpf4jnsgd1na2vs0mg"},{"bike_id":"9fe7422a-7e0c-45dc-804e-d6475625cc7d","system_id":"levelo_inurba_marseille","lat":43.26187,"lon":5.40373,"is_reserved":false,"is_disabled":false,"rental_uris":{"android":"levelo://app?vid=9fe7422a-7e0c-45dc-804e-d6475625cc7d","ios":"levelo://app?vid=9fe7422a-7e0c-45dc-804e-d6475625cc7d"},"vehicle_type_id":"4","last_reported":1750467280,"current_range_meters":17600,"station_id":"ce4bhmh2rcd13ifvqgmg","pricing_plan_id":"cebpf4jnsgd1na2vs0mg"},{"bike_id":"3daaf100-5a3a-49a9-99f7-957c6e612c6b","system_id":"levelo_inurba_marseille","lat":43.2319,"lon":5.39979,"is_reserved":false,"is_disabled":false,"rental_uris":{"android":"levelo://app?vid=3daaf100-5a3a-49a9-99f7-957c6e612c6b","ios":"levelo://app?vid=3daaf100-5a3a-49a9-99f7-957c6e612c6b"},"vehicle_type_id":"4","last_reported":1750467280,"current_range_meters":17600,"station_id":"ce4bhn12rcd13ifvqgqg","pricing_plan_id":"cebpf4jnsgd1na2vs0mg"},{"bike_id":"13291069-7e3d-48af-89fa-0e899c13c898","system_id":"levelo_inurba_marseille","lat":43.23192,"lon":5.35558,"is_reserved":false,"is_disabled":false,"rental_uris":{"android":"levelo://app?vid=13291069-7e3d-48af-89fa-0e899c13c898","ios":"levelo://app?vid=13291069-7e3d-48af-89fa-0e899c13c898"},"vehicle_type_id":"4","last_reported":1750467280,"current_range_meters":17600,"station_id":"ce4bhu92rcd13ifvqi70","pricing_plan_id":"cebpf4jnsgd1na2vs0mg"},{"bike_id":"d0d48e8d-9e6c-43f1-b84c-7bf2266fb626","system_id":"levelo_inurba_marseille","lat":43.23187,"lon":5.35524,"is_reserved":false,"is_disabled":false,"rental_uris":{"android":"levelo://app?vid=d0d48e8d-9e6c-43f1-b84c-7bf2266fb626","ios":"levelo://app?vid=d0d48e8d-9e6c-43f1-b84c-7bf2266fb626"},"vehicle_type_id":"4","last_reported":1750467280,"current_range_meters":17600,"station_id":"ce4bhu92rcd13ifvqi70","pricing_plan_id":"cebpf4jnsgd1na2vs0mg"},{"bike_id":"36db57a7-8739-4660-a73c-c3370e2d458e","system_id":"levelo_inurba_marseille","lat":43.23191,"lon":5.35547,"is_reserved":false,"is_disabled":false,"rental_uris":{"android":"levelo://app?vid=36db57a7-8739-4660-a73c-c3370e2d458e","ios":"levelo://app?vid=36db57a7-8739-4660-a73c-c3370e2d458e"},"vehicle_type_id":"4","last_reported":1750467280,"current_range_meters":17600,"station_id":"ce4bhu92rcd13ifvqi70","pricing_plan_id":"cebpf4jnsgd1na2vs0mg"},{"bike_id":"280aedab-328f-4555-abae-9ef1b83c26cf","system_id":"levelo_inurba_marseille","lat":43.2681,"lon":5.40261,"is_reserved":false,"is_disabled":false,"rental_uris":{"android":"levelo://app?vid=280aedab-328f-4555-abae-9ef1b83c26cf","ios":"levelo://app?vid=280aedab-328f-4555-abae-9ef1b83c26cf"},"vehicle_type_id":"4","last_reported":1750467280,"current_range_meters":17600,"station_id":"ce501612rcd8frsf0b60","pricing_plan_id":"cebpf4jnsgd1na2vs0mg"},{"bike_id":"38b4578b-d322-4ae7-86ef-2a7e9839b4fd","system_id":"levelo_inurba_marseille","lat":43.21181,"lon":5.35075,"is_reserved":false,"is_disabled":false,"rental_uris":{"android":"levelo://app?vid=38b4578b-d322-4ae7-86ef-2a7e9839b4fd","ios":"levelo://app?vid=38b4578b-d322-4ae7-86ef-2a7e9839b4fd"},"vehicle_type_id":"4","last_reported":1750467280,"current_range_meters":17600,"station_id":"st_cvj6sg6p6f1abm77japg","pricing_plan_id":"cebpf4jnsgd1na2vs0mg"},{"bike_id":"4652fcd3-8fa3-4f43-ac1d-f66153d7f3b7","system_id":"levelo_inurba_marseille","lat":43.282,"lon":5.40358,"is_reserved":false,"is_disabled":false,"rental_uris":{"android":"levelo://app?vid=4652fcd3-8fa3-4f43-ac1d-f66153d7f3b7","ios":"levelo://app?vid=4652fcd3-8fa3-4f43-ac1d-f66153d7f3b7"},"vehicle_type_id":"4","last_reported":1750467280,"current_range_meters":18000,"station_id":"","pricing_plan_id":"cebpf4jnsgd1na2vs0mg"},{"bike_id":"f6069a5d-a2bc-44cc-bc6f-f26f79591d92","system_id":"levelo_inurba_marseille","lat":43.30784,"lon":5.3737,"is_reserved":false,"is_disabled":false,"rental_uris":{"android":"levelo://app?vid=f6069a5d-a2bc-44cc-bc6f-f26f79591d92","ios":"levelo://app?vid=f6069a5d-a2bc-44cc-bc6f-f26f79591d92"},"vehicle_type_id":"4","last_reported":1750467280,"current_range_meters":18000,"station_id":"","pricing_plan_id":"cebpf4jnsgd1na2vs0mg"},{"bike_id":"a03a949d-876f-42db-9564-0aeae678fff4","system_id":"levelo_inurba_marseille","lat":43.294273,"lon":5.444952,"is_reserved":false,"is_disabled":false,"rental_uris":{"android":"levelo://app?vid=a03a949d-876f-42db-9564-0aeae678fff4","ios":"levelo://app?vid=a03a949d-876f-42db-9564-0aeae678fff4"},"vehicle_type_id":"4","last_reported":1750467280,"current_range_meters":18000,"station_id":"","pricing_plan_id":"cebpf4jnsgd1na2vs0mg"},{"bike_id":"9df98526-c54c-4c60-b66f-873109118f34","system_id":"levelo_inurba_marseille","lat":43.29503,"lon":5.38651,"is_reserved":false,"is_disabled":false,"rental_uris":{"android":"levelo://app?vid=9df98526-c54c-4c60-b66f-873109118f34","ios":"levelo://app?vid=9df98526-c54c-4c60-b66f-873109118f34"},"vehicle_type_id":"4","last_reported":1750467280,"current_range_meters":18000,"station_id":"","pricing_plan_id":"cebpf4jnsgd1na2vs0mg"},{"bike_id":"56faa6ab-2f83-450c-9e58-434be7d2d9fc","system_id":"levelo_inurba_marseille","lat":43.3111,"lon":5.37761,"is_reserved":false,"is_disabled":false,"rental_uris":{"android":"levelo://app?vid=56faa6ab-2f83-450c-9e58-434be7d2d9fc","ios":"levelo://app?vid=56faa6ab-2f83-450c-9e58-434be7d2d9fc"},"vehicle_type_id":"4","last_reported":1750467280,"current_range_meters":18000,"station_id":"ce4bgt92rcd13ifvqcg0","pricing_plan_id":"cebpf4jnsgd1na2vs0mg"},{"bike_id":"80d0ab62-644b-4203-8f13-cadd17ad1e74","system_id":"levelo_inurba_marseille","lat":43.30957,"lon":5.40196,"is_reserved":false,"is_disabled":false,"rental_uris":{"android":"levelo://app?vid=80d0ab62-644b-4203-8f13-cadd17ad1e74","ios":"levelo://app?vid=80d0ab62-644b-4203-8f13-cadd17ad1e74"},"vehicle_type_id":"4","last_reported":1750467280,"current_range_meters":18000,"station_id":"ce4bgvp2rcd13ifvqct0","pricing_plan_id":"cebpf4jnsgd1na2vs0mg"},{"bike_id":"1289328c-2166-4054-b0b7-db1bcb46ecea","system_id":"levelo_inurba_marseille","lat":43.29903,"lon":5.39752,"is_reserved":false,"is_disabled":false,"rental_uris":{"android":"levelo://app?vid=1289328c-2166-4054-b0b7-db1bcb46ecea","ios":"levelo://app?vid=1289328c-2166-4054-b0b7-db1bcb46ecea"},"vehicle_type_id":"4","last_reported":1750467280,"current_range_meters":18000,"station_id":"ce4bh0h2rcd13ifvqd50","pricing_plan_id":"cebpf4jnsgd1na2vs0mg"},{"bike_id":"f8c862df-419e-420f-ad3a-f648577b7340","system_id":"levelo_inurba_marseille","lat":43.28703,"lon":5.37398,"is_reserved":false,"is_disabled":false,"rental_uris":{"android":"levelo://app?vid=f8c862df-419e-420f-ad3a-f648577b7340","ios":"levelo://app?vid=f8c862df-419e-420f-ad3a-f648577b7340"},"vehicle_type_id":"4","last_reported":1750467280,"current_range_meters":18000,"station_id":"ce4bh3p2rcd13ifvqdq0","pricing_plan_id":"cebpf4jnsgd1na2vs0mg"},{"bike_id":"e15655ac-1682-42d9-ab93-40bd93e9dfd7","system_id":"levelo_inurba_marseille","lat":43.28117,"lon":5.37877,"is_reserved":false,"is_disabled":false,"rental_uris":{"android":"levelo://app?vid=e15655ac-1682-42d9-ab93-40bd93e9dfd7","ios":"levelo://app?vid=e15655ac-1682-42d9-ab93-40bd93e9dfd7"},"vehicle_type_id":"4","last_reported":1750467280,"current_range_meters":18000,"station_id":"ce4bha12rcd13ifvqee0","pricing_plan_id":"cebpf4jnsgd1na2vs0mg"},{"bike_id":"443dbbb8-21ad-4e53-a14c-6539edcbd9fd","system_id":"levelo_inurba_marseille","lat":43.28,"lon":5.41645,"is_reserved":false,"is_disabled":false,"rental_uris":{"android":"levelo://app?vid=443dbbb8-21ad-4e53-a14c-6539edcbd9fd","ios":"levelo://app?vid=443dbbb8-21ad-4e53-a14c-6539edcbd9fd"},"vehicle_type_id":"4","last_reported":1750467280,"current_range_meters":18000,"station_id":"ce4bho12rcd13ifvqh1g","pricing_plan_id":"cebpf4jnsgd1na2vs0mg"},{"bike_id":"f76facff-c6d4-452a-a325-56cd08a5b0f1","system_id":"levelo_inurba_marseille","lat":43.30799,"lon":5.43524,"is_reserved":false,"is_disabled":false,"rental_uris":{"android":"levelo://app?vid=f76facff-c6d4-452a-a325-56cd08a5b0f1","ios":"levelo://app?vid=f76facff-c6d4-452a-a325-56cd08a5b0f1"},"vehicle_type_id":"4","last_reported":1750467280,"current_range_meters":18000,"station_id":"ce4bhph2rcd13ifvqheg","pricing_plan_id":"cebpf4jnsgd1na2vs0mg"},{"bike_id":"51924496-d375-43d1-9f3c-2086be022a83","system_id":"levelo_inurba_marseille","lat":43.2599,"lon":5.38647,"is_reserved":false,"is_disabled":false,"rental_uris":{"android":"levelo://app?vid=51924496-d375-43d1-9f3c-2086be022a83","ios":"levelo://app?vid=51924496-d375-43d1-9f3c-2086be022a83"},"vehicle_type_id":"4","last_reported":1750467280,"current_range_meters":18800,"station_id":"","pricing_plan_id":"cebpf4jnsgd1na2vs0mg"},{"bike_id":"1b45921b-2375-4f5e-9fc0-95f00e334491","system_id":"levelo_inurba_marseille","lat":43.31326,"lon":5.39692,"is_reserved":false,"is_disabled":false,"rental_uris":{"android":"levelo://app?vid=1b45921b-2375-4f5e-9fc0-95f00e334491","ios":"levelo://app?vid=1b45921b-2375-4f5e-9fc0-95f00e334491"},"vehicle_type_id":"4","last_reported":1750467280,"current_range_meters":18800,"station_id":"ce4bgvp2rcd13ifvqcu0","pricing_plan_id":"cebpf4jnsgd1na2vs0mg"},{"bike_id":"c1b9133a-17e5-4bf8-bd9b-3c83269e599d","system_id":"levelo_inurba_marseille","lat":43.2856,"lon":5.39492,"is_reserved":false,"is_disabled":false,"rental_uris":{"android":"levelo://app?vid=c1b9133a-17e5-4bf8-bd9b-3c83269e599d","ios":"levelo://app?vid=c1b9133a-17e5-4bf8-bd9b-3c83269e599d"},"vehicle_type_id":"4","last_reported":1750467280,"current_range_meters":18800,"station_id":"ce4bh292rcd13ifvqdg0","pricing_plan_id":"cebpf4jnsgd1na2vs0mg"},{"bike_id":"acf4c5ba-491d-4c2c-b805-de116280a2fc","system_id":"levelo_inurba_marseille","lat":43.29277,"lon":5.40116,"is_reserved":false,"is_disabled":false,"rental_uris":{"android":"levelo://app?vid=acf4c5ba-491d-4c2c-b805-de116280a2fc","ios":"levelo://app?vid=acf4c5ba-491d-4c2c-b805-de116280a2fc"},"vehicle_type_id":"4","last_reported":1750467280,"current_range_meters":18800,"station_id":"ce4bh312rcd13ifvqdk0","pricing_plan_id":"cebpf4jnsgd1na2vs0mg"},{"bike_id":"23e8f71e-246f-4809-912f-3c0a7551fe7b","system_id":"levelo_inurba_marseille","lat":43.23193,"lon":5.39973,"is_reserved":false,"is_disabled":false,"rental_uris":{"android":"levelo://app?vid=23e8f71e-246f-4809-912f-3c0a7551fe7b","ios":"levelo://app?vid=23e8f71e-246f-4809-912f-3c0a7551fe7b"},"vehicle_type_id":"4","last_reported":1750467280,"current_range_meters":18800,"station_id":"ce4bhn12rcd13ifvqgqg","pricing_plan_id":"cebpf4jnsgd1na2vs0mg"},{"bike_id":"1c6eee43-889f-4cff-bc8c-307447a31830","system_id":"levelo_inurba_marseille","lat":43.30801,"lon":5.43525,"is_reserved":false,"is_disabled":false,"rental_uris":{"android":"levelo://app?vid=1c6eee43-889f-4cff-bc8c-307447a31830","ios":"levelo://app?vid=1c6eee43-889f-4cff-bc8c-307447a31830"},"vehicle_type_id":"4","last_reported":1750467280,"current_range_meters":18800,"station_id":"ce4bhph2rcd13ifvqheg","pricing_plan_id":"cebpf4jnsgd1na2vs0mg"},{"bike_id":"b5223d4d-4319-49c8-a89e-49fc64e254be","system_id":"levelo_inurba_marseille","lat":43.268026,"lon":5.402657,"is_reserved":false,"is_disabled":false,"rental_uris":{"android":"levelo://app?vid=b5223d4d-4319-49c8-a89e-49fc64e254be","ios":"levelo://app?vid=b5223d4d-4319-49c8-a89e-49fc64e254be"},"vehicle_type_id":"4","last_reported":1750467280,"current_range_meters":18800,"station_id":"ce501612rcd8frsf0b60","pricing_plan_id":"cebpf4jnsgd1na2vs0mg"},{"bike_id":"04b016b0-78f2-4a40-9df3-2f41fff75a5c","system_id":"levelo_inurba_marseille","lat":43.212,"lon":5.3508,"is_reserved":false,"is_disabled":false,"rental_uris":{"android":"levelo://app?vid=04b016b0-78f2-4a40-9df3-2f41fff75a5c","ios":"levelo://app?vid=04b016b0-78f2-4a40-9df3-2f41fff75a5c"},"vehicle_type_id":"4","last_reported":1750467280,"current_range_meters":18800,"station_id":"st_cvj6sg6p6f1abm77japg","pricing_plan_id":"cebpf4jnsgd1na2vs0mg"},{"bike_id":"a966ddd2-fafd-45a6-865d-233116c7ab8f","system_id":"levelo_inurba_marseille","lat":43.30426,"lon":5.39751,"is_reserved":false,"is_disabled":false,"rental_uris":{"android":"levelo://app?vid=a966ddd2-fafd-45a6-865d-233116c7ab8f","ios":"levelo://app?vid=a966ddd2-fafd-45a6-865d-233116c7ab8f"},"vehicle_type_id":"4","last_reported":1750467280,"current_range_meters":19200,"station_id":"ce4bh092rcd13ifvqd20","pricing_plan_id":"cebpf4jnsgd1na2vs0mg"},{"bike_id":"e1923973-da41-4df0-b8a8-20981ae5e691","system_id":"levelo_inurba_marseille","lat":43.29031,"lon":5.4002,"is_reserved":false,"is_disabled":false,"rental_uris":{"android":"levelo://app?vid=e1923973-da41-4df0-b8a8-20981ae5e691","ios":"levelo://app?vid=e1923973-da41-4df0-b8a8-20981ae5e691"},"vehicle_type_id":"4","last_reported":1750467280,"current_range_meters":19200,"station_id":"ce4bh392rcd13ifvqdm0","pricing_plan_id":"cebpf4jnsgd1na2vs0mg"},{"bike_id":"62f440b4-a22d-4dbf-bfaf-303396024791","system_id":"levelo_inurba_marseille","lat":43.29435,"lon":5.39735,"is_reserved":false,"is_disabled":false,"rental_uris":{"android":"levelo://app?vid=62f440b4-a22d-4dbf-bfaf-303396024791","ios":"levelo://app?vid=62f440b4-a22d-4dbf-bfaf-303396024791"},"vehicle_type_id":"4","last_reported":1750467280,"current_range_meters":19200,"station_id":"ce4bh3h2rcd13ifvqdo0","pricing_plan_id":"cebpf4jnsgd1na2vs0mg"},{"bike_id":"37320e13-0a94-4964-94c3-a05e1a398188","system_id":"levelo_inurba_marseille","lat":43.26552,"lon":5.39042,"is_reserved":false,"is_disabled":false,"rental_uris":{"android":"levelo://app?vid=37320e13-0a94-4964-94c3-a05e1a398188","ios":"levelo://app?vid=37320e13-0a94-4964-94c3-a05e1a398188"},"vehicle_type_id":"4","last_reported":1750467280,"current_range_meters":19200,"station_id":"ce4bhe12rcd13ifvqf30","pricing_plan_id":"cebpf4jnsgd1na2vs0mg"},{"bike_id":"dfd756b8-fa15-44c7-aa7b-77d2639df926","system_id":"levelo_inurba_marseille","lat":43.262158,"lon":5.404617,"is_reserved":false,"is_disabled":false,"rental_uris":{"android":"levelo://app?vid=dfd756b8-fa15-44c7-aa7b-77d2639df926","ios":"levelo://app?vid=dfd756b8-fa15-44c7-aa7b-77d2639df926"},"vehicle_type_id":"4","last_reported":1750467280,"current_range_meters":19200,"station_id":"ce4bhmh2rcd13ifvqgmg","pricing_plan_id":"cebpf4jnsgd1na2vs0mg"},{"bike_id":"4d80d21e-3dc9-4004-a3c0-eb7b371a8ccf","system_id":"levelo_inurba_marseille","lat":43.33008,"lon":5.3943,"is_reserved":false,"is_disabled":false,"rental_uris":{"android":"levelo://app?vid=4d80d21e-3dc9-4004-a3c0-eb7b371a8ccf","ios":"levelo://app?vid=4d80d21e-3dc9-4004-a3c0-eb7b371a8ccf"},"vehicle_type_id":"4","last_reported":1750467280,"current_range_meters":19600,"station_id":"","pricing_plan_id":"cebpf4jnsgd1na2vs0mg"},{"bike_id":"91d988b7-666c-44b2-b2e1-aca873c9037e","system_id":"levelo_inurba_marseille","lat":43.29952,"lon":5.39894,"is_reserved":false,"is_disabled":false,"rental_uris":{"android":"levelo://app?vid=91d988b7-666c-44b2-b2e1-aca873c9037e","ios":"levelo://app?vid=91d988b7-666c-44b2-b2e1-aca873c9037e"},"vehicle_type_id":"4","last_reported":1750467280,"current_range_meters":19600,"station_id":"","pricing_plan_id":"cebpf4jnsgd1na2vs0mg"},{"bike_id":"ec9d61c2-22af-4b34-b9fd-a95c6e127868","system_id":"levelo_inurba_marseille","lat":43.30876,"lon":5.39655,"is_reserved":false,"is_disabled":false,"rental_uris":{"android":"levelo://app?vid=ec9d61c2-22af-4b34-b9fd-a95c6e127868","ios":"levelo://app?vid=ec9d61c2-22af-4b34-b9fd-a95c6e127868"},"vehicle_type_id":"4","last_reported":1750467280,"current_range_meters":19600,"station_id":"ce4bh012rcd13ifvqcv0","pricing_plan_id":"cebpf4jnsgd1na2vs0mg"},{"bike_id":"3f96d9ac-28f7-4105-9f09-aeef49233bf6","system_id":"levelo_inurba_marseille","lat":43.30311,"lon":5.40447,"is_reserved":false,"is_disabled":false,"rental_uris":{"android":"levelo://app?vid=3f96d9ac-28f7-4105-9f09-aeef49233bf6","ios":"levelo://app?vid=3f96d9ac-28f7-4105-9f09-aeef49233bf6"},"vehicle_type_id":"4","last_reported":1750467280,"current_range_meters":19600,"station_id":"ce4bh012rcd13ifvqd10","pricing_plan_id":"cebpf4jnsgd1na2vs0mg"},{"bike_id":"6625198b-3206-46fa-9da1-4ee7b5d31b8a","system_id":"levelo_inurba_marseille","lat":43.29521,"lon":5.39411,"is_reserved":false,"is_disabled":false,"rental_uris":{"android":"levelo://app?vid=6625198b-3206-46fa-9da1-4ee7b5d31b8a","ios":"levelo://app?vid=6625198b-3206-46fa-9da1-4ee7b5d31b8a"},"vehicle_type_id":"4","last_reported":1750467280,"current_range_meters":19600,"station_id":"ce4bh292rcd13ifvqdf0","pricing_plan_id":"cebpf4jnsgd1na2vs0mg"},{"bike_id":"2330c612-e6ed-405e-bdda-110c79180096","system_id":"levelo_inurba_marseille","lat":43.24792,"lon":5.38168,"is_reserved":false,"is_disabled":false,"rental_uris":{"android":"levelo://app?vid=2330c612-e6ed-405e-bdda-110c79180096","ios":"levelo://app?vid=2330c612-e6ed-405e-bdda-110c79180096"},"vehicle_type_id":"4","last_reported":1750467280,"current_range_meters":19600,"station_id":"ce4bhih2rcd13ifvqfr0","pricing_plan_id":"cebpf4jnsgd1na2vs0mg"},{"bike_id":"2039e555-685e-48bf-9349-6321e35344c8","system_id":"levelo_inurba_marseille","lat":43.2871,"lon":5.39987,"is_reserved":false,"is_disabled":false,"rental_uris":{"android":"levelo://app?vid=2039e555-685e-48bf-9349-6321e35344c8","ios":"levelo://app?vid=2039e555-685e-48bf-9349-6321e35344c8"},"vehicle_type_id":"4","last_reported":1750467280,"current_range_meters":19600,"station_id":"ce4bho92rcd13ifvqh3g","pricing_plan_id":"cebpf4jnsgd1na2vs0mg"},{"bike_id":"6ef0b2fb-0821-4741-91db-0382a62bb925","system_id":"levelo_inurba_marseille","lat":43.28696,"lon":5.39992,"is_reserved":false,"is_disabled":false,"rental_uris":{"android":"levelo://app?vid=6ef0b2fb-0821-4741-91db-0382a62bb925","ios":"levelo://app?vid=6ef0b2fb-0821-4741-91db-0382a62bb925"},"vehicle_type_id":"4","last_reported":1750467280,"current_range_meters":19600,"station_id":"ce4bho92rcd13ifvqh3g","pricing_plan_id":"cebpf4jnsgd1na2vs0mg"},{"bike_id":"dc1db63d-5468-44d8-958f-b819dd58751d","system_id":"levelo_inurba_marseille","lat":43.32351,"lon":5.40618,"is_reserved":false,"is_disabled":false,"rental_uris":{"android":"levelo://app?vid=dc1db63d-5468-44d8-958f-b819dd58751d","ios":"levelo://app?vid=dc1db63d-5468-44d8-958f-b819dd58751d"},"vehicle_type_id":"4","last_reported":1750467280,"current_range_meters":19600,"station_id":"ce4bhq92rcd13ifvqhjg","pricing_plan_id":"cebpf4jnsgd1na2vs0mg"},{"bike_id":"712c7e11-703d-4c74-8b53-2d72b51d6c5b","system_id":"levelo_inurba_marseille","lat":43.31087,"lon":5.37771,"is_reserved":false,"is_disabled":false,"rental_uris":{"android":"levelo://app?vid=712c7e11-703d-4c74-8b53-2d72b51d6c5b","ios":"levelo://app?vid=712c7e11-703d-4c74-8b53-2d72b51d6c5b"},"vehicle_type_id":"4","last_reported":1750467280,"current_range_meters":20000,"station_id":"ce4bgt92rcd13ifvqcg0","pricing_plan_id":"cebpf4jnsgd1na2vs0mg"},{"bike_id":"590974a0-3fed-433f-b52c-6ac44472dd14","system_id":"levelo_inurba_marseille","lat":43.31715,"lon":5.40458,"is_reserved":false,"is_disabled":false,"rental_uris":{"android":"levelo://app?vid=590974a0-3fed-433f-b52c-6ac44472dd14","ios":"levelo://app?vid=590974a0-3fed-433f-b52c-6ac44472dd14"},"vehicle_type_id":"4","last_reported":1750467280,"current_range_meters":20000,"station_id":"ce4bh012rcd13ifvqd00","pricing_plan_id":"cebpf4jnsgd1na2vs0mg"},{"bike_id":"f8df2956-f236-4a57-bc5d-1884300c4377","system_id":"levelo_inurba_marseille","lat":43.31273,"lon":5.4017,"is_reserved":false,"is_disabled":false,"rental_uris":{"android":"levelo://app?vid=f8df2956-f236-4a57-bc5d-1884300c4377","ios":"levelo://app?vid=f8df2956-f236-4a57-bc5d-1884300c4377"},"vehicle_type_id":"4","last_reported":1750467280,"current_range_meters":20000,"station_id":"ce4bh092rcd13ifvqd30","pricing_plan_id":"cebpf4jnsgd1na2vs0mg"},{"bike_id":"55b0a1e6-ecab-4d37-aef2-b2afd7dbbed7","system_id":"levelo_inurba_marseille","lat":43.30157,"lon":5.39895,"is_reserved":false,"is_disabled":false,"rental_uris":{"android":"levelo://app?vid=55b0a1e6-ecab-4d37-aef2-b2afd7dbbed7","ios":"levelo://app?vid=55b0a1e6-ecab-4d37-aef2-b2afd7dbbed7"},"vehicle_type_id":"4","last_reported":1750467280,"current_range_meters":20000,"station_id":"ce4bh0h2rcd13ifvqd40","pricing_plan_id":"cebpf4jnsgd1na2vs0mg"},{"bike_id":"ff578b53-b155-4078-a576-dbf6e4891c7a","system_id":"levelo_inurba_marseille","lat":43.29891,"lon":5.39743,"is_reserved":false,"is_disabled":false,"rental_uris":{"android":"levelo://app?vid=ff578b53-b155-4078-a576-dbf6e4891c7a","ios":"levelo://app?vid=ff578b53-b155-4078-a576-dbf6e4891c7a"},"vehicle_type_id":"4","last_reported":1750467280,"current_range_meters":20000,"station_id":"ce4bh0h2rcd13ifvqd50","pricing_plan_id":"cebpf4jnsgd1na2vs0mg"},{"bike_id":"c8b308e1-bd18-4c17-92e7-f5918af66970","system_id":"levelo_inurba_marseille","lat":43.3065,"lon":5.40089,"is_reserved":false,"is_disabled":false,"rental_uris":{"android":"levelo://app?vid=c8b308e1-bd18-4c17-92e7-f5918af66970","ios":"levelo://app?vid=c8b308e1-bd18-4c17-92e7-f5918af66970"},"vehicle_type_id":"4","last_reported":1750467280,"current_range_meters":20000,"station_id":"ce4bh112rcd13ifvqda0","pricing_plan_id":"cebpf4jnsgd1na2vs0mg"},{"bike_id":"50db237d-da14-49fe-9ddd-a9ce47cdf5bb","system_id":"levelo_inurba_marseille","lat":43.306534,"lon":5.400876,"is_reserved":false,"is_disabled":false,"rental_uris":{"android":"levelo://app?vid=50db237d-da14-49fe-9ddd-a9ce47cdf5bb","ios":"levelo://app?vid=50db237d-da14-49fe-9ddd-a9ce47cdf5bb"},"vehicle_type_id":"4","last_reported":1750467280,"current_range_meters":20000,"station_id":"ce4bh112rcd13ifvqda0","pricing_plan_id":"cebpf4jnsgd1na2vs0mg"},{"bike_id":"ef63bf4d-6c01-4a74-86e9-35921c48f925","system_id":"levelo_inurba_marseille","lat":43.30653,"lon":5.40085,"is_reserved":false,"is_disabled":false,"rental_uris":{"android":"levelo://app?vid=ef63bf4d-6c01-4a74-86e9-35921c48f925","ios":"levelo://app?vid=ef63bf4d-6c01-4a74-86e9-35921c48f925"},"vehicle_type_id":"4","last_reported":1750467280,"current_range_meters":20000,"station_id":"ce4bh112rcd13ifvqda0","pricing_plan_id":"cebpf4jnsgd1na2vs0mg"},{"bike_id":"4d4df371-4a07-4078-b66c-0646e04ad4bf","system_id":"levelo_inurba_marseille","lat":43.29884,"lon":5.4366,"is_reserved":false,"is_disabled":false,"rental_uris":{"android":"levelo://app?vid=4d4df371-4a07-4078-b66c-0646e04ad4bf","ios":"levelo://app?vid=4d4df371-4a07-4078-b66c-0646e04ad4bf"},"vehicle_type_id":"4","last_reported":1750467280,"current_range_meters":20000,"station_id":"ce4bhpp2rcd13ifvqhfg","pricing_plan_id":"cebpf4jnsgd1na2vs0mg"},{"bike_id":"44f91d9d-a072-4666-b130-0587846c0cfd","system_id":"levelo_inurba_marseille","lat":43.31885,"lon":5.40741,"is_reserved":false,"is_disabled":false,"rental_uris":{"android":"levelo://app?vid=44f91d9d-a072-4666-b130-0587846c0cfd","ios":"levelo://app?vid=44f91d9d-a072-4666-b130-0587846c0cfd"},"vehicle_type_id":"4","last_reported":1750467280,"current_range_meters":20000,"station_id":"ce4bhq12rcd13ifvqhig","pricing_plan_id":"cebpf4jnsgd1na2vs0mg"},{"bike_id":"69cce48e-a008-499a-b0b9-8690a608e760","system_id":"levelo_inurba_marseille","lat":43.29914,"lon":5.37485,"is_reserved":false,"is_disabled":false,"rental_uris":{"android":"levelo://app?vid=69cce48e-a008-499a-b0b9-8690a608e760","ios":"levelo://app?vid=69cce48e-a008-499a-b0b9-8690a608e760"},"vehicle_type_id":"4","last_reported":1750467280,"current_range_meters":20400,"station_id":"ce4bgjh2rcd13ifvqbg0","pricing_plan_id":"cebpf4jnsgd1na2vs0mg"},{"bike_id":"04ee8092-af10-41ed-81db-f72403d43288","system_id":"levelo_inurba_marseille","lat":43.308856,"lon":5.396543,"is_reserved":false,"is_disabled":false,"rental_uris":{"android":"levelo://app?vid=04ee8092-af10-41ed-81db-f72403d43288","ios":"levelo://app?vid=04ee8092-af10-41ed-81db-f72403d43288"},"vehicle_type_id":"4","last_reported":1750467280,"current_range_meters":20400,"station_id":"ce4bh012rcd13ifvqcv0","pricing_plan_id":"cebpf4jnsgd1na2vs0mg"},{"bike_id":"701b6245-aa68-47c0-9034-23daef2e3c08","system_id":"levelo_inurba_marseille","lat":43.28411,"lon":5.37517,"is_reserved":false,"is_disabled":false,"rental_uris":{"android":"levelo://app?vid=701b6245-aa68-47c0-9034-23daef2e3c08","ios":"levelo://app?vid=701b6245-aa68-47c0-9034-23daef2e3c08"},"vehicle_type_id":"4","last_reported":1750467280,"current_range_meters":20400,"station_id":"ce4bh412rcd13ifvqds0","pricing_plan_id":"cebpf4jnsgd1na2vs0mg"},{"bike_id":"0330452c-e02a-42f9-9561-2497fced0629","system_id":"levelo_inurba_marseille","lat":43.284755,"lon":5.384181,"is_reserved":false,"is_disabled":false,"rental_uris":{"android":"levelo://app?vid=0330452c-e02a-42f9-9561-2497fced0629","ios":"levelo://app?vid=0330452c-e02a-42f9-9561-2497fced0629"},"vehicle_type_id":"4","last_reported":1750467280,"current_range_meters":20400,"station_id":"ce4bh512rcd13ifvqe3g","pricing_plan_id":"cebpf4jnsgd1na2vs0mg"},{"bike_id":"21f0cbc0-bd0a-4074-bd47-7a59fa1b500e","system_id":"levelo_inurba_marseille","lat":43.25578,"lon":5.38229,"is_reserved":false,"is_disabled":false,"rental_uris":{"android":"levelo://app?vid=21f0cbc0-bd0a-4074-bd47-7a59fa1b500e","ios":"levelo://app?vid=21f0cbc0-bd0a-4074-bd47-7a59fa1b500e"},"vehicle_type_id":"4","last_reported":1750467280,"current_range_meters":20400,"station_id":"ce4bhih2rcd13ifvqfs0","pricing_plan_id":"cebpf4jnsgd1na2vs0mg"},{"bike_id":"fe686156-bf86-4e13-9573-6f0f3ee81efc","system_id":"levelo_inurba_marseille","lat":43.27943,"lon":5.41037,"is_reserved":false,"is_disabled":false,"rental_uris":{"android":"levelo://app?vid=fe686156-bf86-4e13-9573-6f0f3ee81efc","ios":"levelo://app?vid=fe686156-bf86-4e13-9573-6f0f3ee81efc"},"vehicle_type_id":"4","last_reported":1750467280,"current_range_meters":20400,"station_id":"ce4bhnp2rcd13ifvqh0g","pricing_plan_id":"cebpf4jnsgd1na2vs0mg"},{"bike_id":"c7a8b653-0ff6-4a79-9663-a017d10ac616","system_id":"levelo_inurba_marseille","lat":43.2912,"lon":5.40094,"is_reserved":false,"is_disabled":false,"rental_uris":{"android":"levelo://app?vid=c7a8b653-0ff6-4a79-9663-a017d10ac616","ios":"levelo://app?vid=c7a8b653-0ff6-4a79-9663-a017d10ac616"},"vehicle_type_id":"4","last_reported":1750467280,"current_range_meters":20800,"station_id":"","pricing_plan_id":"cebpf4jnsgd1na2vs0mg"},{"bike_id":"b3c8d293-2d0f-47f3-8ecd-bb8a4e71d54a","system_id":"levelo_inurba_marseille","lat":43.30427,"lon":5.39757,"is_reserved":false,"is_disabled":false,"rental_uris":{"android":"levelo://app?vid=b3c8d293-2d0f-47f3-8ecd-bb8a4e71d54a","ios":"levelo://app?vid=b3c8d293-2d0f-47f3-8ecd-bb8a4e71d54a"},"vehicle_type_id":"4","last_reported":1750467280,"current_range_meters":20800,"station_id":"ce4bh092rcd13ifvqd20","pricing_plan_id":"cebpf4jnsgd1na2vs0mg"},{"bike_id":"31215f53-8c77-4f5f-8e93-f3668dfaff65","system_id":"levelo_inurba_marseille","lat":43.281533,"lon":5.391714,"is_reserved":false,"is_disabled":false,"rental_uris":{"android":"levelo://app?vid=31215f53-8c77-4f5f-8e93-f3668dfaff65","ios":"levelo://app?vid=31215f53-8c77-4f5f-8e93-f3668dfaff65"},"vehicle_type_id":"4","last_reported":1750467280,"current_range_meters":20800,"station_id":"ce4bh612rcd13ifvqe6g","pricing_plan_id":"cebpf4jnsgd1na2vs0mg"},{"bike_id":"0a38d517-0b9c-46e9-96e3-ba0564b6c198","system_id":"levelo_inurba_marseille","lat":43.27916,"lon":5.39581,"is_reserved":false,"is_disabled":false,"rental_uris":{"android":"levelo://app?vid=0a38d517-0b9c-46e9-96e3-ba0564b6c198","ios":"levelo://app?vid=0a38d517-0b9c-46e9-96e3-ba0564b6c198"},"vehicle_type_id":"4","last_reported":1750467280,"current_range_meters":20800,"station_id":"ce4bhf92rcd13ifvqf40","pricing_plan_id":"cebpf4jnsgd1na2vs0mg"},{"bike_id":"e77808e6-212b-4e0d-ba1b-2ad3fe81da73","system_id":"levelo_inurba_marseille","lat":43.25111,"lon":5.40351,"is_reserved":false,"is_disabled":false,"rental_uris":{"android":"levelo://app?vid=e77808e6-212b-4e0d-ba1b-2ad3fe81da73","ios":"levelo://app?vid=e77808e6-212b-4e0d-ba1b-2ad3fe81da73"},"vehicle_type_id":"4","last_reported":1750467280,"current_range_meters":20800,"station_id":"ce4bhlh2rcd13ifvqgig","pricing_plan_id":"cebpf4jnsgd1na2vs0mg"},{"bike_id":"5e372528-2077-476b-a84f-f2201c11536d","system_id":"levelo_inurba_marseille","lat":43.28149,"lon":5.42643,"is_reserved":false,"is_disabled":false,"rental_uris":{"android":"levelo://app?vid=5e372528-2077-476b-a84f-f2201c11536d","ios":"levelo://app?vid=5e372528-2077-476b-a84f-f2201c11536d"},"vehicle_type_id":"4","last_reported":1750467280,"current_range_meters":20800,"station_id":"ce4bhnh2rcd13ifvqgug","pricing_plan_id":"cebpf4jnsgd1na2vs0mg"},{"bike_id":"50cfdf5b-23e3-44ca-ac48-fe6fbf32a367","system_id":"levelo_inurba_marseille","lat":43.26798,"lon":5.40268,"is_reserved":false,"is_disabled":false,"rental_uris":{"android":"levelo://app?vid=50cfdf5b-23e3-44ca-ac48-fe6fbf32a367","ios":"levelo://app?vid=50cfdf5b-23e3-44ca-ac48-fe6fbf32a367"},"vehicle_type_id":"4","last_reported":1750467280,"current_range_meters":20800,"station_id":"ce501612rcd8frsf0b60","pricing_plan_id":"cebpf4jnsgd1na2vs0mg"},{"bike_id":"a6d1e93a-3edd-4277-bd21-09aaf4a3e320","system_id":"levelo_inurba_marseille","lat":43.312265,"lon":5.368618,"is_reserved":false,"is_disabled":false,"rental_uris":{"android":"levelo://app?vid=a6d1e93a-3edd-4277-bd21-09aaf4a3e320","ios":"levelo://app?vid=a6d1e93a-3edd-4277-bd21-09aaf4a3e320"},"vehicle_type_id":"4","last_reported":1750467280,"current_range_meters":21600,"station_id":"ce4bgl92rcd13ifvqbq0","pricing_plan_id":"cebpf4jnsgd1na2vs0mg"},{"bike_id":"84f07344-a8f2-410e-8d0f-9d00081d19fb","system_id":"levelo_inurba_marseille","lat":43.31321,"lon":5.39708,"is_reserved":false,"is_disabled":false,"rental_uris":{"android":"levelo://app?vid=84f07344-a8f2-410e-8d0f-9d00081d19fb","ios":"levelo://app?vid=84f07344-a8f2-410e-8d0f-9d00081d19fb"},"vehicle_type_id":"4","last_reported":1750467280,"current_range_meters":21600,"station_id":"ce4bgvp2rcd13ifvqcu0","pricing_plan_id":"cebpf4jnsgd1na2vs0mg"},{"bike_id":"ff324c36-9ead-46f0-9336-ca1a07f2162b","system_id":"levelo_inurba_marseille","lat":43.29803,"lon":5.404,"is_reserved":false,"is_disabled":false,"rental_uris":{"android":"levelo://app?vid=ff324c36-9ead-46f0-9336-ca1a07f2162b","ios":"levelo://app?vid=ff324c36-9ead-46f0-9336-ca1a07f2162b"},"vehicle_type_id":"4","last_reported":1750467280,"current_range_meters":21600,"station_id":"ce4bh112rcd13ifvqd90","pricing_plan_id":"cebpf4jnsgd1na2vs0mg"},{"bike_id":"ec8b02da-2217-4463-ac58-b1a702c014a3","system_id":"levelo_inurba_marseille","lat":43.29277,"lon":5.40124,"is_reserved":false,"is_disabled":false,"rental_uris":{"android":"levelo://app?vid=ec8b02da-2217-4463-ac58-b1a702c014a3","ios":"levelo://app?vid=ec8b02da-2217-4463-ac58-b1a702c014a3"},"vehicle_type_id":"4","last_reported":1750467280,"current_range_meters":21600,"station_id":"ce4bh312rcd13ifvqdk0","pricing_plan_id":"cebpf4jnsgd1na2vs0mg"},{"bike_id":"89006e17-3a33-46d7-a57b-67f07f8af45a","system_id":"levelo_inurba_marseille","lat":43.251159,"lon":5.403438,"is_reserved":false,"is_disabled":false,"rental_uris":{"android":"levelo://app?vid=89006e17-3a33-46d7-a57b-67f07f8af45a","ios":"levelo://app?vid=89006e17-3a33-46d7-a57b-67f07f8af45a"},"vehicle_type_id":"4","last_reported":1750467280,"current_range_meters":21600,"station_id":"ce4bhlh2rcd13ifvqgig","pricing_plan_id":"cebpf4jnsgd1na2vs0mg"},{"bike_id":"37967699-9626-41b5-a5f9-8419eeae5de5","system_id":"levelo_inurba_marseille","lat":43.24167,"lon":5.39743,"is_reserved":false,"is_disabled":false,"rental_uris":{"android":"levelo://app?vid=37967699-9626-41b5-a5f9-8419eeae5de5","ios":"levelo://app?vid=37967699-9626-41b5-a5f9-8419eeae5de5"},"vehicle_type_id":"4","last_reported":1750467280,"current_range_meters":21600,"station_id":"ce4bhn12rcd13ifvqgpg","pricing_plan_id":"cebpf4jnsgd1na2vs0mg"},{"bike_id":"b954ad20-8866-4808-9736-0e481591598c","system_id":"levelo_inurba_marseille","lat":43.32604,"lon":5.37759,"is_reserved":false,"is_disabled":false,"rental_uris":{"android":"levelo://app?vid=b954ad20-8866-4808-9736-0e481591598c","ios":"levelo://app?vid=b954ad20-8866-4808-9736-0e481591598c"},"vehicle_type_id":"4","last_reported":1750467280,"current_range_meters":22000,"station_id":"","pricing_plan_id":"cebpf4jnsgd1na2vs0mg"},{"bike_id":"0f26a4e9-365c-4421-a342-e2a9bf974245","system_id":"levelo_inurba_marseille","lat":43.30623,"lon":5.39312,"is_reserved":false,"is_disabled":false,"rental_uris":{"android":"levelo://app?vid=0f26a4e9-365c-4421-a342-e2a9bf974245","ios":"levelo://app?vid=0f26a4e9-365c-4421-a342-e2a9bf974245"},"vehicle_type_id":"4","last_reported":1750467280,"current_range_meters":22000,"station_id":"","pricing_plan_id":"cebpf4jnsgd1na2vs0mg"},{"bike_id":"3bd03502-e412-40f0-b54a-cba39ee7d041","system_id":"levelo_inurba_marseille","lat":43.31506,"lon":5.37361,"is_reserved":false,"is_disabled":false,"rental_uris":{"android":"levelo://app?vid=3bd03502-e412-40f0-b54a-cba39ee7d041","ios":"levelo://app?vid=3bd03502-e412-40f0-b54a-cba39ee7d041"},"vehicle_type_id":"4","last_reported":1750467280,"current_range_meters":22000,"station_id":"ce4bgt12rcd13ifvqcd0","pricing_plan_id":"cebpf4jnsgd1na2vs0mg"},{"bike_id":"884c984d-3d73-455d-bd78-d5e51dbeb22c","system_id":"levelo_inurba_marseille","lat":43.30884,"lon":5.39635,"is_reserved":false,"is_disabled":false,"rental_uris":{"android":"levelo://app?vid=884c984d-3d73-455d-bd78-d5e51dbeb22c","ios":"levelo://app?vid=884c984d-3d73-455d-bd78-d5e51dbeb22c"},"vehicle_type_id":"4","last_reported":1750467280,"current_range_meters":22000,"station_id":"ce4bh012rcd13ifvqcv0","pricing_plan_id":"cebpf4jnsgd1na2vs0mg"},{"bike_id":"dfaa7d00-26d3-42c0-b284-90b77329ffe3","system_id":"levelo_inurba_marseille","lat":43.28358,"lon":5.38113,"is_reserved":false,"is_disabled":false,"rental_uris":{"android":"levelo://app?vid=dfaa7d00-26d3-42c0-b284-90b77329ffe3","ios":"levelo://app?vid=dfaa7d00-26d3-42c0-b284-90b77329ffe3"},"vehicle_type_id":"4","last_reported":1750467280,"current_range_meters":22000,"station_id":"ce4bh412rcd13ifvqdr0","pricing_plan_id":"cebpf4jnsgd1na2vs0mg"},{"bike_id":"dffddf18-be33-41ea-9bac-3a3e9915697e","system_id":"levelo_inurba_marseille","lat":43.29273,"lon":5.36845,"is_reserved":false,"is_disabled":false,"rental_uris":{"android":"levelo://app?vid=dffddf18-be33-41ea-9bac-3a3e9915697e","ios":"levelo://app?vid=dffddf18-be33-41ea-9bac-3a3e9915697e"},"vehicle_type_id":"4","last_reported":1750467280,"current_range_meters":22000,"station_id":"ce4bhbp2rcd13ifvqesg","pricing_plan_id":"cebpf4jnsgd1na2vs0mg"},{"bike_id":"d5d4ea08-5286-42f6-8cc4-138a5180b07c","system_id":"levelo_inurba_marseille","lat":43.25008,"lon":5.38915,"is_reserved":false,"is_disabled":false,"rental_uris":{"android":"levelo://app?vid=d5d4ea08-5286-42f6-8cc4-138a5180b07c","ios":"levelo://app?vid=d5d4ea08-5286-42f6-8cc4-138a5180b07c"},"vehicle_type_id":"4","last_reported":1750467280,"current_range_meters":22000,"station_id":"ce4bhgp2rcd13ifvqfd0","pricing_plan_id":"cebpf4jnsgd1na2vs0mg"},{"bike_id":"b0c00ba5-b658-4a59-b337-7e7196ad104a","system_id":"levelo_inurba_marseille","lat":43.27815,"lon":5.39213,"is_reserved":false,"is_disabled":false,"rental_uris":{"android":"levelo://app?vid=b0c00ba5-b658-4a59-b337-7e7196ad104a","ios":"levelo://app?vid=b0c00ba5-b658-4a59-b337-7e7196ad104a"},"vehicle_type_id":"4","last_reported":1750467280,"current_range_meters":22000,"station_id":"ce4bhjp2rcd13ifvqga0","pricing_plan_id":"cebpf4jnsgd1na2vs0mg"},{"bike_id":"d5cc24c0-37bd-4edd-b829-e40c1b3f5263","system_id":"levelo_inurba_marseille","lat":43.32475,"lon":5.36615,"is_reserved":false,"is_disabled":false,"rental_uris":{"android":"levelo://app?vid=d5cc24c0-37bd-4edd-b829-e40c1b3f5263","ios":"levelo://app?vid=d5cc24c0-37bd-4edd-b829-e40c1b3f5263"},"vehicle_type_id":"4","last_reported":1750467280,"current_range_meters":22000,"station_id":"ce4bhs12rcd13ifvqhvg","pricing_plan_id":"cebpf4jnsgd1na2vs0mg"},{"bike_id":"c1bfe059-dc8b-4a59-9d74-d550781388b9","system_id":"levelo_inurba_marseille","lat":43.295313,"lon":5.385461,"is_reserved":false,"is_disabled":false,"rental_uris":{"android":"levelo://app?vid=c1bfe059-dc8b-4a59-9d74-d550781388b9","ios":"levelo://app?vid=c1bfe059-dc8b-4a59-9d74-d550781388b9"},"vehicle_type_id":"4","last_reported":1750467280,"current_range_meters":22400,"station_id":"","pricing_plan_id":"cebpf4jnsgd1na2vs0mg"},{"bike_id":"642df1c4-fe20-480b-820e-70df76caedbe","system_id":"levelo_inurba_marseille","lat":43.28462,"lon":5.35897,"is_reserved":false,"is_disabled":false,"rental_uris":{"android":"levelo://app?vid=642df1c4-fe20-480b-820e-70df76caedbe","ios":"levelo://app?vid=642df1c4-fe20-480b-820e-70df76caedbe"},"vehicle_type_id":"4","last_reported":1750467280,"current_range_meters":22400,"station_id":"ce4bhah2rcd13ifvqei0","pricing_plan_id":"cebpf4jnsgd1na2vs0mg"},{"bike_id":"70f0eff7-9915-4618-ad23-8d5a80fe021c","system_id":"levelo_inurba_marseille","lat":43.28434,"lon":5.39202,"is_reserved":false,"is_disabled":false,"rental_uris":{"android":"levelo://app?vid=70f0eff7-9915-4618-ad23-8d5a80fe021c","ios":"levelo://app?vid=70f0eff7-9915-4618-ad23-8d5a80fe021c"},"vehicle_type_id":"4","last_reported":1750467280,"current_range_meters":22400,"station_id":"ce4bhoh2rcd13ifvqh5g","pricing_plan_id":"cebpf4jnsgd1na2vs0mg"},{"bike_id":"31fa87ff-6673-428c-8a66-564afd7b6673","system_id":"levelo_inurba_marseille","lat":43.29559,"lon":5.42265,"is_reserved":false,"is_disabled":false,"rental_uris":{"android":"levelo://app?vid=31fa87ff-6673-428c-8a66-564afd7b6673","ios":"levelo://app?vid=31fa87ff-6673-428c-8a66-564afd7b6673"},"vehicle_type_id":"4","last_reported":1750467280,"current_range_meters":22400,"station_id":"ce4bhph2rcd13ifvqhdg","pricing_plan_id":"cebpf4jnsgd1na2vs0mg"},{"bike_id":"bc08236b-aee3-4667-894b-10390ffa0988","system_id":"levelo_inurba_marseille","lat":43.2306,"lon":5.35494,"is_reserved":false,"is_disabled":false,"rental_uris":{"android":"levelo://app?vid=bc08236b-aee3-4667-894b-10390ffa0988","ios":"levelo://app?vid=bc08236b-aee3-4667-894b-10390ffa0988"},"vehicle_type_id":"4","last_reported":1750467280,"current_range_meters":22400,"station_id":"cpo3342slgdg3j2ifvpg","pricing_plan_id":"cebpf4jnsgd1na2vs0mg"},{"bike_id":"670efea9-18d7-43b7-89b1-b8cfb2eea45d","system_id":"levelo_inurba_marseille","lat":43.3065,"lon":5.40093,"is_reserved":false,"is_disabled":false,"rental_uris":{"android":"levelo://app?vid=670efea9-18d7-43b7-89b1-b8cfb2eea45d","ios":"levelo://app?vid=670efea9-18d7-43b7-89b1-b8cfb2eea45d"},