{"last_updated":1701497332,"ttl":30,"version":"2.2","data":{"bikes":[{"bike_id":"a8435106-7329-4bca-9363-04322549ee76","system_id":"levelo_inurba_marseille","lat":43.313391,"lon":5.36706,"is_reserved":false,"is_disabled":false,"rental_uris":{"android":"levelo://app?vid=a8435106-7329-4bca-9363-04322549ee76","ios":"levelo://app?vid=a8435106-7329-4bca-9363-04322549ee76"},"vehicle_type_id":"4","last_reported":1701497333,"current_range_meters":26400,"station_id":"ce4bgr92rcd13ifvqc6g","pricing_plan_id":"free"},{"bike_id":"3faeddc5-b754-4947-b65f-d2950b3c1d4a","system_id":"levelo_inurba_marseille","lat":43.309076,"lon":5.368465,"is_reserved":false,"is_disabled":false,"rental_uris":{"android":"levelo://app?vid=3faeddc5-b754-4947-b65f-d2950b3c1d4a","ios":"levelo://app?vid=3faeddc5-b754-4947-b65f-d2950b3c1d4a"},"vehicle_type_id":"4","last_reported":1701497333,"current_range_meters":31200,"station_id":"ce4bgn92rcd13ifvqbvg","pricing_plan_id":"free"},{"bike_id":"a7f967ad-bda2-4b45-9442-6fce25948491","system_id":"levelo_inurba_marseille","lat":43.314811,"lon":5.373103,"is_reserved":false,"is_disabled":false,"rental_uris":{"android":"levelo://app?vid=a7f967ad-bda2-4b45-9442-6fce25948491","ios":"levelo://app?vid=a7f967ad-bda2-4b45-9442-6fce25948491"},"vehicle_type_id":"4","last_reported":1701497333,"current_range_meters":30000,"station_id":"ce4bgt12rcd13ifvqcd0","pricing_plan_id":"free"},{"bike_id":"726f707e-382f-4ee3-9de7-dae3fa14ae03","system_id":"levelo_inurba_marseille","lat":43.314953,"lon":5.37305,"is_reserved":false,"is_disabled":false,"rental_uris":{"android":"levelo://app?vid=726f707e-382f-4ee3-9de7-dae3fa14ae03","ios":"levelo://app?vid=726f707e-382f-4ee3-9de7-dae3fa14ae03"},"vehicle_type_id":"4","last_reported":1701497333,"current_range_meters":0,"station_id":"ce4bgt12rcd13ifvqcd0","pricing_plan_id":"free"},{"bike_id":"c250ceb4-17f5-435d-bf4d-635ba059999f","system_id":"levelo_inurba_marseille","lat":43.309039,"lon":5.371797,"is_reserved":false,"is_disabled":false,"rental_uris":{"android":"levelo://app?vid=c250ceb4-17f5-435d-bf4d-635ba059999f","ios":"levelo://app?vid=c250ceb4-17f5-435d-bf4d-635ba059999f"},"vehicle_type_id":"4","last_reported":1701497333,"current_range_meters":30000,"station_id":"ce4bguh2rcd13ifvqckg","pricing_plan_id":"free"},{"bike_id":"69fbcc51-fc4f-4eab-a13a-6e69098befda","system_id":"levelo_inurba_marseille","lat":43.309039,"lon":5.371797,"is_reserved":false,"is_disabled":false,"rental_uris":{"android":"levelo://app?vid=69fbcc51-fc4f-4eab-a13a-6e69098befda","ios":"levelo://app?vid=69fbcc51-fc4f-4eab-a13a-6e69098befda"},"vehicle_type_id":"4","last_reported":1701497333,"current_range_meters":23200,"station_id":"ce4bguh2rcd13ifvqckg","pricing_plan_id":"free"},{"bike_id":"0d4921e3-7600-46d1-a148-f34bad6adf33","system_id":"levelo_inurba_marseille","lat":43.305368,"lon":5.367343,"is_reserved":false,"is_disabled":false,"rental_uris":{"android":"levelo://app?vid=0d4921e3-7600-46d1-a148-f34bad6adf33","ios":"levelo://app?vid=0d4921e3-7600-46d1-a148-f34bad6adf33"},"vehicle_type_id":"4","last_reported":1701497333,"current_range_meters":21200,"station_id":"ce4bgrp2rcd13ifvqc9g","pricing_plan_id":"free"},{"bike_id":"d8d534ef-b643-4355-abb6-1175c712746f","system_id":"levelo_inurba_marseille","lat":43.305368,"lon":5.367343,"is_reserved":false,"is_disabled":false,"rental_uris":{"android":"levelo://app?vid=d8d534ef-b643-4355-abb6-1175c712746f","ios":"levelo://app?vid=d8d534ef-b643-4355-abb6-1175c712746f"},"vehicle_type_id":"4","last_reported":1701497333,"current_range_meters":25200,"station_id":"ce4bgrp2rcd13ifvqc9g","pricing_plan_id":"free"},{"bike_id":"fc0e95bf-c0d1-4eae-8f8e-8d09ab8159b9","system_id":"levelo_inurba_marseille","lat":43.305368,"lon":5.367343,"is_reserved":false,"is_disabled":false,"rental_uris":{"android":"levelo://app?vid=fc0e95bf-c0d1-4eae-8f8e-8d09ab8159b9","ios":"levelo://app?vid=fc0e95bf-c0d1-4eae-8f8e-8d09ab8159b9"},"vehicle_type_id":"4","last_reported":1701497333,"current_range_meters":21200,"station_id":"ce4bgrp2rcd13ifvqc9g","pricing_plan_id":"free"},{"bike_id":"e31c24d3-0de4-4253-a73e-0414e4602e69","system_id":"levelo_inurba_marseille","lat":43.305368,"lon":5.367343,"is_reserved":false,"is_disabled":false,"rental_uris":{"android":"levelo://app?vid=e31c24d3-0de4-4253-a73e-0414e4602e69","ios":"levelo://app?vid=e31c24d3-0de4-4253-a73e-0414e4602e69"},"vehicle_type_id":"4","last_reported":1701497333,"current_range_meters":31200,"station_id":"ce4bgrp2rcd13ifvqc9g","pricing_plan_id":"free"},{"bike_id":"c1bd4f6e-955d-4703-9bdd-b0770e0bc1a3","system_id":"levelo_inurba_marseille","lat":43.305989,"lon":5.37225,"is_reserved":false,"is_disabled":false,"rental_uris":{"android":"levelo://app?vid=c1bd4f6e-955d-4703-9bdd-b0770e0bc1a3","ios":"levelo://app?vid=c1bd4f6e-955d-4703-9bdd-b0770e0bc1a3"},"vehicle_type_id":"4","last_reported":1701497333,"current_range_meters":30800,"station_id":"ce4bgqh2rcd13ifvqc4g","pricing_plan_id":"free"},{"bike_id":"472d2878-6175-4fa6-ab1c-5606dff29b5d","system_id":"levelo_inurba_marseille","lat":43.305989,"lon":5.37225,"is_reserved":false,"is_disabled":false,"rental_uris":{"android":"levelo://app?vid=472d2878-6175-4fa6-ab1c-5606dff29b5d","ios":"levelo://app?vid=472d2878-6175-4fa6-ab1c-5606dff29b5d"},"vehicle_type_id":"4","last_reported":1701497333,"current_range_meters":28800,"station_id":"ce4bgqh2rcd13ifvqc4g","pricing_plan_id":"free"},{"bike_id":"23b85a18-04ed-4af9-aad4-f57844ec2d09","system_id":"levelo_inurba_marseille","lat":43.305989,"lon":5.37225,"is_reserved":false,"is_disabled":false,"rental_uris":{"android":"levelo://app?vid=23b85a18-04ed-4af9-aad4-f57844ec2d09","ios":"levelo://app?vid=23b85a18-04ed-4af9-aad4-f57844ec2d09"},"vehicle_type_id":"4","last_reported":1701497333,"current_range_meters":28800,"station_id":"ce4bgqh2rcd13ifvqc4g","pricing_plan_id":"free"},{"bike_id":"7bdbcfe9-924e-49e5-849f-fb7276f261aa","system_id":"levelo_inurba_marseille","lat":43.310543,"lon":5.377402,"is_reserved":false,"is_disabled":false,"rental_uris":{"android":"levelo://app?vid=7bdbcfe9-924e-49e5-849f-fb7276f261aa","ios":"levelo://app?vid=7bdbcfe9-924e-49e5-849f-fb7276f261aa"},"vehicle_type_id":"4","last_reported":1701497333,"current_range_meters":7600,"station_id":"","pricing_plan_id":"free"},{"bike_id":"47ebed04-b752-4831-b66b-ac01f76cc640","system_id":"levelo_inurba_marseille","lat":43.31112,"lon":5.37763,"is_reserved":false,"is_disabled":false,"rental_uris":{"android":"levelo://app?vid=47ebed04-b752-4831-b66b-ac01f76cc640","ios":"levelo://app?vid=47ebed04-b752-4831-b66b-ac01f76cc640"},"vehicle_type_id":"4","last_reported":1701497333,"current_range_meters":17200,"station_id":"ce4bgt92rcd13ifvqcg0","pricing_plan_id":"free"},{"bike_id":"b6756954-57f2-4f72-8684-210644fc26c2","system_id":"levelo_inurba_marseille","lat":43.31114,"lon":5.3777,"is_reserved":false,"is_disabled":false,"rental_uris":{"android":"levelo://app?vid=b6756954-57f2-4f72-8684-210644fc26c2","ios":"levelo://app?vid=b6756954-57f2-4f72-8684-210644fc26c2"},"vehicle_type_id":"4","last_reported":1701497333,"current_range_meters":2400,"station_id":"ce4bgt92rcd13ifvqcg0","pricing_plan_id":"free"},{"bike_id":"0db8f7ea-57ca-4c71-aa38-b1046508f9ef","system_id":"levelo_inurba_marseille","lat":43.311093,"lon":5.37774,"is_reserved":false,"is_disabled":false,"rental_uris":{"android":"levelo://app?vid=0db8f7ea-57ca-4c71-aa38-b1046508f9ef","ios":"levelo://app?vid=0db8f7ea-57ca-4c71-aa38-b1046508f9ef"},"vehicle_type_id":"4","last_reported":1701497333,"current_range_meters":22800,"station_id":"ce4bgt92rcd13ifvqcg0","pricing_plan_id":"free"},{"bike_id":"cfd3bb51-5657-4943-be4a-4ca2f802bb01","system_id":"levelo_inurba_marseille","lat":43.308149,"lon":5.376655,"is_reserved":false,"is_disabled":false,"rental_uris":{"android":"levelo://app?vid=cfd3bb51-5657-4943-be4a-4ca2f802bb01","ios":"levelo://app?vid=cfd3bb51-5657-4943-be4a-4ca2f802bb01"},"vehicle_type_id":"4","last_reported":1701497333,"current_range_meters":12000,"station_id":"ce4bgv92rcd13ifvqcq0","pricing_plan_id":"free"},{"bike_id":"f427a2c3-6e4a-446b-ae2f-9be8aa7f4122","system_id":"levelo_inurba_marseille","lat":43.31719,"lon":5.376813,"is_reserved":false,"is_disabled":false,"rental_uris":{"android":"levelo://app?vid=f427a2c3-6e4a-446b-ae2f-9be8aa7f4122","ios":"levelo://app?vid=f427a2c3-6e4a-446b-ae2f-9be8aa7f4122"},"vehicle_type_id":"4","last_reported":1701497333,"current_range_meters":0,"station_id":"","pricing_plan_id":"free"},{"bike_id":"ab1a45bc-5c86-4dc9-86c5-b3cdd9eb5b1a","system_id":"levelo_inurba_marseille","lat":43.32046,"lon":5.37174,"is_reserved":false,"is_disabled":false,"rental_uris":{"android":"levelo://app?vid=ab1a45bc-5c86-4dc9-86c5-b3cdd9eb5b1a","ios":"levelo://app?vid=ab1a45bc-5c86-4dc9-86c5-b3cdd9eb5b1a"},"vehicle_type_id":"4","last_reported":1701497333,"current_range_meters":0,"station_id":"","pricing_plan_id":"free"},{"bike_id":"e913f328-1e31-4c22-bd87-f809ea246de4","system_id":"levelo_inurba_marseille","lat":43.317168,"lon":5.376883,"is_reserved":false,"is_disabled":false,"rental_uris":{"android":"levelo://app?vid=e913f328-1e31-4c22-bd87-f809ea246de4","ios":"levelo://app?vid=e913f328-1e31-4c22-bd87-f809ea246de4"},"vehicle_type_id":"4","last_reported":1701497333,"current_range_meters":1600,"station_id":"","pricing_plan_id":"free"},{"bike_id":"016cf6d8-febc-4a39-b584-d99d4927b6d7","system_id":"levelo_inurba_marseille","lat":43.307945,"lon":5.376487,"is_reserved":false,"is_disabled":false,"rental_uris":{"android":"levelo://app?vid=016cf6d8-febc-4a39-b584-d99d4927b6d7","ios":"levelo://app?vid=016cf6d8-febc-4a39-b584-d99d4927b6d7"},"vehicle_type_id":"4","last_reported":1701497333,"current_range_meters":28000,"station_id":"ce4bgv92rcd13ifvqcq0","pricing_plan_id":"free"},{"bike_id":"6347e083-648a-4823-9e56-6c63431da41b","system_id":"levelo_inurba_marseille","lat":43.307945,"lon":5.376487,"is_reserved":false,"is_disabled":false,"rental_uris":{"android":"levelo://app?vid=6347e083-648a-4823-9e56-6c63431da41b","ios":"levelo://app?vid=6347e083-648a-4823-9e56-6c63431da41b"},"vehicle_type_id":"4","last_reported":1701497333,"current_range_meters":25600,"station_id":"ce4bgv92rcd13ifvqcq0","pricing_plan_id":"free"},{"bike_id":"b5b924cc-90b5-44be-a54f-a03b9368df8f","system_id":"levelo_inurba_marseille","lat":43.307945,"lon":5.376487,"is_reserved":false,"is_disabled":false,"rental_uris":{"android":"levelo://app?vid=b5b924cc-90b5-44be-a54f-a03b9368df8f","ios":"levelo://app?vid=b5b924cc-90b5-44be-a54f-a03b9368df8f"},"vehicle_type_id":"4","last_reported":1701497333,"current_range_meters":25200,"station_id":"ce4bgv92rcd13ifvqcq0","pricing_plan_id":"free"},{"bike_id":"3cf1b362-621e-4d10-ad89-2014ac3baf3b","system_id":"levelo_inurba_marseille","lat":43.317075,"lon":5.377367,"is_reserved":false,"is_disabled":false,"rental_uris":{"android":"levelo://app?vid=3cf1b362-621e-4d10-ad89-2014ac3baf3b","ios":"levelo://app?vid=3cf1b362-621e-4d10-ad89-2014ac3baf3b"},"vehicle_type_id":"4","last_reported":1701497333,"current_range_meters":27600,"station_id":"ce4bgth2rcd13ifvqch0","pricing_plan_id":"free"},{"bike_id":"fb6fd937-527b-4585-9058-0dfdc6436ac8","system_id":"levelo_inurba_marseille","lat":43.31351,"lon":5.37909,"is_reserved":false,"is_disabled":false,"rental_uris":{"android":"levelo://app?vid=fb6fd937-527b-4585-9058-0dfdc6436ac8","ios":"levelo://app?vid=fb6fd937-527b-4585-9058-0dfdc6436ac8"},"vehicle_type_id":"4","last_reported":1701497333,"current_range_meters":22800,"station_id":"","pricing_plan_id":"free"},{"bike_id":"92d8af04-b91c-4fe9-87f2-3d7cc202feb7","system_id":"levelo_inurba_marseille","lat":43.317075,"lon":5.377367,"is_reserved":false,"is_disabled":false,"rental_uris":{"android":"levelo://app?vid=92d8af04-b91c-4fe9-87f2-3d7cc202feb7","ios":"levelo://app?vid=92d8af04-b91c-4fe9-87f2-3d7cc202feb7"},"vehicle_type_id":"4","last_reported":1701497333,"current_range_meters":24800,"station_id":"ce4bgth2rcd13ifvqch0","pricing_plan_id":"free"},{"bike_id":"593babd9-c3d2-4b6a-af9f-be560bf08fbf","system_id":"levelo_inurba_marseille","lat":43.308639,"lon":5.378965,"is_reserved":false,"is_disabled":false,"rental_uris":{"android":"levelo://app?vid=593babd9-c3d2-4b6a-af9f-be560bf08fbf","ios":"levelo://app?vid=593babd9-c3d2-4b6a-af9f-be560bf08fbf"},"vehicle_type_id":"4","last_reported":1701497333,"current_range_meters":4000,"station_id":"","pricing_plan_id":"free"},{"bike_id":"732fadbb-cc07-41db-89d0-c9ed38729031","system_id":"levelo_inurba_marseille","lat":43.303046,"lon":5.368981,"is_reserved":false,"is_disabled":false,"rental_uris":{"android":"levelo://app?vid=732fadbb-cc07-41db-89d0-c9ed38729031","ios":"levelo://app?vid=732fadbb-cc07-41db-89d0-c9ed38729031"},"vehicle_type_id":"4","last_reported":1701497333,"current_range_meters":22400,"station_id":"ce4bgqh2rcd13ifvqc5g","pricing_plan_id":"free"},{"bike_id":"194ff67d-738d-48c1-a517-c6d5095fe7b4","system_id":"levelo_inurba_marseille","lat":43.315294,"lon":5.380422,"is_reserved":false,"is_disabled":false,"rental_uris":{"android":"levelo://app?vid=194ff67d-738d-48c1-a517-c6d5095fe7b4","ios":"levelo://app?vid=194ff67d-738d-48c1-a517-c6d5095fe7b4"},"vehicle_type_id":"4","last_reported":1701497333,"current_range_meters":17600,"station_id":"ce4bhsp2rcd13ifvqi50","pricing_plan_id":"free"},{"bike_id":"d868d1f7-cc8a-42b7-b8da-70a080feb404","system_id":"levelo_inurba_marseille","lat":43.301939,"lon":5.366286,"is_reserved":false,"is_disabled":false,"rental_uris":{"android":"levelo://app?vid=d868d1f7-cc8a-42b7-b8da-70a080feb404","ios":"levelo://app?vid=d868d1f7-cc8a-42b7-b8da-70a080feb404"},"vehicle_type_id":"4","last_reported":1701497333,"current_range_meters":28400,"station_id":"ce4bgrh2rcd13ifvqc8g","pricing_plan_id":"free"},{"bike_id":"b2f0af68-5b9f-4fe9-abc8-dee4734637cb","system_id":"levelo_inurba_marseille","lat":43.304606,"lon":5.379026,"is_reserved":false,"is_disabled":false,"rental_uris":{"android":"levelo://app?vid=b2f0af68-5b9f-4fe9-abc8-dee4734637cb","ios":"levelo://app?vid=b2f0af68-5b9f-4fe9-abc8-dee4734637cb"},"vehicle_type_id":"4","last_reported":1701497333,"current_range_meters":30400,"station_id":"ce4bgup2rcd13ifvqcn0","pricing_plan_id":"free"},{"bike_id":"d3808db5-19ec-4618-939a-996e24161832","system_id":"levelo_inurba_marseille","lat":43.30458,"lon":5.37901,"is_reserved":false,"is_disabled":false,"rental_uris":{"android":"levelo://app?vid=d3808db5-19ec-4618-939a-996e24161832","ios":"levelo://app?vid=d3808db5-19ec-4618-939a-996e24161832"},"vehicle_type_id":"4","last_reported":1701497333,"current_range_meters":29600,"station_id":"ce4bgup2rcd13ifvqcn0","pricing_plan_id":"free"},{"bike_id":"6415b81d-b82e-4dc9-bb9b-ff91707c2e9a","system_id":"levelo_inurba_marseille","lat":43.304606,"lon":5.379026,"is_reserved":false,"is_disabled":false,"rental_uris":{"android":"levelo://app?vid=6415b81d-b82e-4dc9-bb9b-ff91707c2e9a","ios":"levelo://app?vid=6415b81d-b82e-4dc9-bb9b-ff91707c2e9a"},"vehicle_type_id":"4","last_reported":1701497333,"current_range_meters":20800,"station_id":"ce4bgup2rcd13ifvqcn0","pricing_plan_id":"free"},{"bike_id":"37909269-d6aa-4be8-8729-69ab4ad4383d","system_id":"levelo_inurba_marseille","lat":43.304606,"lon":5.379026,"is_reserved":false,"is_disabled":false,"rental_uris":{"android":"levelo://app?vid=37909269-d6aa-4be8-8729-69ab4ad4383d","ios":"levelo://app?vid=37909269-d6aa-4be8-8729-69ab4ad4383d"},"vehicle_type_id":"4","last_reported":1701497333,"current_range_meters":1600,"station_id":"ce4bgup2rcd13ifvqcn0","pricing_plan_id":"free"},{"bike_id":"6c0095e5-a092-47ca-a0e6-d87953fd4acb","system_id":"levelo_inurba_marseille","lat":43.304606,"lon":5.379026,"is_reserved":false,"is_disabled":false,"rental_uris":{"android":"levelo://app?vid=6c0095e5-a092-47ca-a0e6-d87953fd4acb","ios":"levelo://app?vid=6c0095e5-a092-47ca-a0e6-d87953fd4acb"},"vehicle_type_id":"4","last_reported":1701497333,"current_range_meters":11600,"station_id":"ce4bgup2rcd13ifvqcn0","pricing_plan_id":"free"},{"bike_id":"e56c4c03-d6ac-416d-8380-bbaf7fb49559","system_id":"levelo_inurba_marseille","lat":43.324747,"lon":5.36565,"is_reserved":false,"is_disabled":false,"rental_uris":{"android":"levelo://app?vid=e56c4c03-d6ac-416d-8380-bbaf7fb49559","ios":"levelo://app?vid=e56c4c03-d6ac-416d-8380-bbaf7fb49559"},"vehicle_type_id":"4","last_reported":1701497333,"current_range_meters":3600,"station_id":"ce4bhs12rcd13ifvqhvg","pricing_plan_id":"free"},{"bike_id":"dfdc09f5-6d6c-4fca-877a-e1fd42b2b69b","system_id":"levelo_inurba_marseille","lat":43.304606,"lon":5.379026,"is_reserved":false,"is_disabled":false,"rental_uris":{"android":"levelo://app?vid=dfdc09f5-6d6c-4fca-877a-e1fd42b2b69b","ios":"levelo://app?vid=dfdc09f5-6d6c-4fca-877a-e1fd42b2b69b"},"vehicle_type_id":"4","last_reported":1701497333,"current_range_meters":18000,"station_id":"ce4bgup2rcd13ifvqcn0","pricing_plan_id":"free"},{"bike_id":"a6475a8a-11b3-4af0-85f3-fd2cabbfdd22","system_id":"levelo_inurba_marseille","lat":43.32477,"lon":5.36561,"is_reserved":false,"is_disabled":false,"rental_uris":{"android":"levelo://app?vid=a6475a8a-11b3-4af0-85f3-fd2cabbfdd22","ios":"levelo://app?vid=a6475a8a-11b3-4af0-85f3-fd2cabbfdd22"},"vehicle_type_id":"4","last_reported":1701497333,"current_range_meters":19600,"station_id":"ce4bhs12rcd13ifvqhvg","pricing_plan_id":"free"},{"bike_id":"12e46c86-a00b-4037-b5f1-6a4e3adac05c","system_id":"levelo_inurba_marseille","lat":43.304606,"lon":5.379026,"is_reserved":false,"is_disabled":false,"rental_uris":{"android":"levelo://app?vid=12e46c86-a00b-4037-b5f1-6a4e3adac05c","ios":"levelo://app?vid=12e46c86-a00b-4037-b5f1-6a4e3adac05c"},"vehicle_type_id":"4","last_reported":1701497333,"current_range_meters":24000,"station_id":"ce4bgup2rcd13ifvqcn0","pricing_plan_id":"free"},{"bike_id":"19dcde97-826d-4c77-b8cf-d90ba7f775b0","system_id":"levelo_inurba_marseille","lat":43.324771,"lon":5.36557,"is_reserved":false,"is_disabled":false,"rental_uris":{"android":"levelo://app?vid=19dcde97-826d-4c77-b8cf-d90ba7f775b0","ios":"levelo://app?vid=19dcde97-826d-4c77-b8cf-d90ba7f775b0"},"vehicle_type_id":"4","last_reported":1701497333,"current_range_meters":15200,"station_id":"ce4bhs12rcd13ifvqhvg","pricing_plan_id":"free"},{"bike_id":"21d8034d-1372-4453-ada0-a932b497716c","system_id":"levelo_inurba_marseille","lat":43.324811,"lon":5.365643,"is_reserved":false,"is_disabled":false,"rental_uris":{"android":"levelo://app?vid=21d8034d-1372-4453-ada0-a932b497716c","ios":"levelo://app?vid=21d8034d-1372-4453-ada0-a932b497716c"},"vehicle_type_id":"4","last_reported":1701497333,"current_range_meters":22800,"station_id":"ce4bhs12rcd13ifvqhvg","pricing_plan_id":"free"},{"bike_id":"c8487d0e-259a-47b3-acde-475d6b8cf58e","system_id":"levelo_inurba_marseille","lat":43.302784,"lon":5.377158,"is_reserved":false,"is_disabled":false,"rental_uris":{"android":"levelo://app?vid=c8487d0e-259a-47b3-acde-475d6b8cf58e","ios":"levelo://app?vid=c8487d0e-259a-47b3-acde-475d6b8cf58e"},"vehicle_type_id":"4","last_reported":1701497333,"current_range_meters":23200,"station_id":"ce4bguh2rcd13ifvqcj0","pricing_plan_id":"free"},{"bike_id":"2275aca5-3158-4c2c-8022-ca5d2714bc86","system_id":"levelo_inurba_marseille","lat":43.319997,"lon":5.381594,"is_reserved":false,"is_disabled":false,"rental_uris":{"android":"levelo://app?vid=2275aca5-3158-4c2c-8022-ca5d2714bc86","ios":"levelo://app?vid=2275aca5-3158-4c2c-8022-ca5d2714bc86"},"vehicle_type_id":"4","last_reported":1701497333,"current_range_meters":16400,"station_id":"ce4bhr12rcd13ifvqhpg","pricing_plan_id":"free"},{"bike_id":"3240a428-be7b-4ff5-97ee-35180b1dbf71","system_id":"levelo_inurba_marseille","lat":43.313571,"lon":5.384829,"is_reserved":false,"is_disabled":false,"rental_uris":{"android":"levelo://app?vid=3240a428-be7b-4ff5-97ee-35180b1dbf71","ios":"levelo://app?vid=3240a428-be7b-4ff5-97ee-35180b1dbf71"},"vehicle_type_id":"4","last_reported":1701497333,"current_range_meters":31200,"station_id":"ce4bgt92rcd13ifvqcf0","pricing_plan_id":"free"},{"bike_id":"79bb6607-cc78-4995-9caf-aebfa08ae6a3","system_id":"levelo_inurba_marseille","lat":43.313571,"lon":5.384829,"is_reserved":false,"is_disabled":false,"rental_uris":{"android":"levelo://app?vid=79bb6607-cc78-4995-9caf-aebfa08ae6a3","ios":"levelo://app?vid=79bb6607-cc78-4995-9caf-aebfa08ae6a3"},"vehicle_type_id":"4","last_reported":1701497333,"current_range_meters":30800,"station_id":"ce4bgt92rcd13ifvqcf0","pricing_plan_id":"free"},{"bike_id":"9fdb7f97-586d-42d2-befd-15216ba2e422","system_id":"levelo_inurba_marseille","lat":43.31183,"lon":5.38523,"is_reserved":false,"is_disabled":false,"rental_uris":{"android":"levelo://app?vid=9fdb7f97-586d-42d2-befd-15216ba2e422","ios":"levelo://app?vid=9fdb7f97-586d-42d2-befd-15216ba2e422"},"vehicle_type_id":"4","last_reported":1701497333,"current_range_meters":2400,"station_id":"","pricing_plan_id":"free"},{"bike_id":"748d12ab-8e09-4ecd-b2d2-cbe0ea9624f6","system_id":"levelo_inurba_marseille","lat":43.298505,"lon":5.367569,"is_reserved":false,"is_disabled":false,"rental_uris":{"android":"levelo://app?vid=748d12ab-8e09-4ecd-b2d2-cbe0ea9624f6","ios":"levelo://app?vid=748d12ab-8e09-4ecd-b2d2-cbe0ea9624f6"},"vehicle_type_id":"4","last_reported":1701497333,"current_range_meters":7600,"station_id":"","pricing_plan_id":"free"},{"bike_id":"4a4eb50c-75bb-4e6b-9faa-8e5527e44948","system_id":"levelo_inurba_marseille","lat":43.311606,"lon":5.386883,"is_reserved":false,"is_disabled":false,"rental_uris":{"android":"levelo://app?vid=4a4eb50c-75bb-4e6b-9faa-8e5527e44948","ios":"levelo://app?vid=4a4eb50c-75bb-4e6b-9faa-8e5527e44948"},"vehicle_type_id":"4","last_reported":1701497333,"current_range_meters":5200,"station_id":"ce4bgv12rcd13ifvqcp0","pricing_plan_id":"free"},{"bike_id":"fb861d31-3608-471e-bcf7-f64a2c81bd8a","system_id":"levelo_inurba_marseille","lat":43.297794,"lon":5.370888,"is_reserved":false,"is_disabled":false,"rental_uris":{"android":"levelo://app?vid=fb861d31-3608-471e-bcf7-f64a2c81bd8a","ios":"levelo://app?vid=fb861d31-3608-471e-bcf7-f64a2c81bd8a"},"vehicle_type_id":"4","last_reported":1701497333,"current_range_meters":30000,"station_id":"ce4bgop2rcd13ifvqc1g","pricing_plan_id":"free"},{"bike_id":"8b448fe8-eefb-4ea1-8528-34e6e9e0ae0c","system_id":"levelo_inurba_marseille","lat":43.297774,"lon":5.370875,"is_reserved":false,"is_disabled":false,"rental_uris":{"android":"levelo://app?vid=8b448fe8-eefb-4ea1-8528-34e6e9e0ae0c","ios":"levelo://app?vid=8b448fe8-eefb-4ea1-8528-34e6e9e0ae0c"},"vehicle_type_id":"4","last_reported":1701497333,"current_range_meters":30800,"station_id":"ce4bgop2rcd13ifvqc1g","pricing_plan_id":"free"},{"bike_id":"863e68e6-f678-4404-9035-1f0c001016cb","system_id":"levelo_inurba_marseille","lat":43.328084,"lon":5.366813,"is_reserved":false,"is_disabled":false,"rental_uris":{"android":"levelo://app?vid=863e68e6-f678-4404-9035-1f0c001016cb","ios":"levelo://app?vid=863e68e6-f678-4404-9035-1f0c001016cb"},"vehicle_type_id":"4","last_reported":1701497333,"current_range_meters":18400,"station_id":"ce4bhs92rcd13ifvqi0g","pricing_plan_id":"free"},{"bike_id":"65073be3-64d5-4947-9113-fd11101b78dd","system_id":"levelo_inurba_marseille","lat":43.322872,"lon":5.382756,"is_reserved":false,"is_disabled":false,"rental_uris":{"android":"levelo://app?vid=65073be3-64d5-4947-9113-fd11101b78dd","ios":"levelo://app?vid=65073be3-64d5-4947-9113-fd11101b78dd"},"vehicle_type_id":"4","last_reported":1701497333,"current_range_meters":10000,"station_id":"ce4bhr12rcd13ifvqhqg","pricing_plan_id":"free"},{"bike_id":"3c6eacad-63e8-42f7-9988-09cf64b64dd8","system_id":"levelo_inurba_marseille","lat":43.3283,"lon":5.36679,"is_reserved":false,"is_disabled":false,"rental_uris":{"android":"levelo://app?vid=3c6eacad-63e8-42f7-9988-09cf64b64dd8","ios":"levelo://app?vid=3c6eacad-63e8-42f7-9988-09cf64b64dd8"},"vehicle_type_id":"4","last_reported":1701497333,"current_range_meters":9600,"station_id":"ce4bhs92rcd13ifvqi0g","pricing_plan_id":"free"},{"bike_id":"c0284961-478e-4ccd-b43e-321d6e4c5580","system_id":"levelo_inurba_marseille","lat":43.328371,"lon":5.366909,"is_reserved":false,"is_disabled":false,"rental_uris":{"android":"levelo://app?vid=c0284961-478e-4ccd-b43e-321d6e4c5580","ios":"levelo://app?vid=c0284961-478e-4ccd-b43e-321d6e4c5580"},"vehicle_type_id":"4","last_reported":1701497333,"current_range_meters":4400,"station_id":"ce4bhs92rcd13ifvqi0g","pricing_plan_id":"free"},{"bike_id":"8dfb8556-c118-4aa5-9d02-f1f29333e064","system_id":"levelo_inurba_marseille","lat":43.2968,"lon":5.37291,"is_reserved":false,"is_disabled":false,"rental_uris":{"android":"levelo://app?vid=8dfb8556-c118-4aa5-9d02-f1f29333e064","ios":"levelo://app?vid=8dfb8556-c118-4aa5-9d02-f1f29333e064"},"vehicle_type_id":"4","last_reported":1701497333,"current_range_meters":24000,"station_id":"ce4bgk12rcd13ifvqbj0","pricing_plan_id":"free"},{"bike_id":"eaa0e7e7-2390-47fa-909b-7b240952cbef","system_id":"levelo_inurba_marseille","lat":43.316535,"lon":5.389238,"is_reserved":false,"is_disabled":false,"rental_uris":{"android":"levelo://app?vid=eaa0e7e7-2390-47fa-909b-7b240952cbef","ios":"levelo://app?vid=eaa0e7e7-2390-47fa-909b-7b240952cbef"},"vehicle_type_id":"4","last_reported":1701497333,"current_range_meters":18400,"station_id":"","pricing_plan_id":"free"},{"bike_id":"030a3a88-a1f7-48c4-b822-068e625025d9","system_id":"levelo_inurba_marseille","lat":43.29573,"lon":5.367355,"is_reserved":false,"is_disabled":false,"rental_uris":{"android":"levelo://app?vid=030a3a88-a1f7-48c4-b822-068e625025d9","ios":"levelo://app?vid=030a3a88-a1f7-48c4-b822-068e625025d9"},"vehicle_type_id":"4","last_reported":1701497333,"current_range_meters":27200,"station_id":"ce4bgph2rcd13ifvqc2g","pricing_plan_id":"free"},{"bike_id":"c9a793b6-383f-4ac4-bb57-1a38a504f0fb","system_id":"levelo_inurba_marseille","lat":43.317557,"lon":5.390173,"is_reserved":false,"is_disabled":false,"rental_uris":{"android":"levelo://app?vid=c9a793b6-383f-4ac4-bb57-1a38a504f0fb","ios":"levelo://app?vid=c9a793b6-383f-4ac4-bb57-1a38a504f0fb"},"vehicle_type_id":"4","last_reported":1701497333,"current_range_meters":31200,"station_id":"ce4bhqp2rcd13ifvqhng","pricing_plan_id":"free"},{"bike_id":"e5f26c5e-2074-4536-953e-a3eb912ac3be","system_id":"levelo_inurba_marseille","lat":43.317557,"lon":5.390173,"is_reserved":false,"is_disabled":false,"rental_uris":{"android":"levelo://app?vid=e5f26c5e-2074-4536-953e-a3eb912ac3be","ios":"levelo://app?vid=e5f26c5e-2074-4536-953e-a3eb912ac3be"},"vehicle_type_id":"4","last_reported":1701497333,"current_range_meters":7200,"station_id":"ce4bhqp2rcd13ifvqhng","pricing_plan_id":"free"},{"bike_id":"2c2521aa-8edf-4b77-bdf5-6333fb5cc401","system_id":"levelo_inurba_marseille","lat":43.304278,"lon":5.388868,"is_reserved":false,"is_disabled":false,"rental_uris":{"android":"levelo://app?vid=2c2521aa-8edf-4b77-bdf5-6333fb5cc401","ios":"levelo://app?vid=2c2521aa-8edf-4b77-bdf5-6333fb5cc401"},"vehicle_type_id":"4","last_reported":1701497333,"current_range_meters":25200,"station_id":"ce4bgk12rcd13ifvqbi0","pricing_plan_id":"free"},{"bike_id":"13ca97e5-82b5-4e06-8d78-e9793b7e594e","system_id":"levelo_inurba_marseille","lat":43.297142,"lon":5.379705,"is_reserved":false,"is_disabled":false,"rental_uris":{"android":"levelo://app?vid=13ca97e5-82b5-4e06-8d78-e9793b7e594e","ios":"levelo://app?vid=13ca97e5-82b5-4e06-8d78-e9793b7e594e"},"vehicle_type_id":"4","last_reported":1701497333,"current_range_meters":20400,"station_id":"","pricing_plan_id":"free"},{"bike_id":"c1f4fee7-e80e-44b4-a02e-aa95dcd6cb17","system_id":"levelo_inurba_marseille","lat":43.296263,"lon":5.377094,"is_reserved":false,"is_disabled":false,"rental_uris":{"android":"levelo://app?vid=c1f4fee7-e80e-44b4-a02e-aa95dcd6cb17","ios":"levelo://app?vid=c1f4fee7-e80e-44b4-a02e-aa95dcd6cb17"},"vehicle_type_id":"4","last_reported":1701497333,"current_range_meters":30000,"station_id":"ce4bgi92rcd13ifvqb90","pricing_plan_id":"free"},{"bike_id":"e8c19fa2-18c4-40b4-ae4b-468faa9b7446","system_id":"levelo_inurba_marseille","lat":43.293009,"lon":5.374584,"is_reserved":false,"is_disabled":false,"rental_uris":{"android":"levelo://app?vid=e8c19fa2-18c4-40b4-ae4b-468faa9b7446","ios":"levelo://app?vid=e8c19fa2-18c4-40b4-ae4b-468faa9b7446"},"vehicle_type_id":"4","last_reported":1701497333,"current_range_meters":31200,"station_id":"ce4bgi12rcd13ifvqb70","pricing_plan_id":"free"},{"bike_id":"cfc3fd56-22fa-4e34-b9db-266db13c8e52","system_id":"levelo_inurba_marseille","lat":43.293009,"lon":5.374584,"is_reserved":false,"is_disabled":false,"rental_uris":{"android":"levelo://app?vid=cfc3fd56-22fa-4e34-b9db-266db13c8e52","ios":"levelo://app?vid=cfc3fd56-22fa-4e34-b9db-266db13c8e52"},"vehicle_type_id":"4","last_reported":1701497333,"current_range_meters":28800,"station_id":"ce4bgi12rcd13ifvqb70","pricing_plan_id":"free"},{"bike_id":"1a01cd71-bffe-4fab-8d40-71f2a9c3bb4d","system_id":"levelo_inurba_marseille","lat":43.293009,"lon":5.374584,"is_reserved":false,"is_disabled":false,"rental_uris":{"android":"levelo://app?vid=1a01cd71-bffe-4fab-8d40-71f2a9c3bb4d","ios":"levelo://app?vid=1a01cd71-bffe-4fab-8d40-71f2a9c3bb4d"},"vehicle_type_id":"4","last_reported":1701497333,"current_range_meters":29600,"station_id":"ce4bgi12rcd13ifvqb70","pricing_plan_id":"free"},{"bike_id":"eb024d90-a556-4742-8439-aabe2b258658","system_id":"levelo_inurba_marseille","lat":43.293009,"lon":5.374584,"is_reserved":false,"is_disabled":false,"rental_uris":{"android":"levelo://app?vid=eb024d90-a556-4742-8439-aabe2b258658","ios":"levelo://app?vid=eb024d90-a556-4742-8439-aabe2b258658"},"vehicle_type_id":"4","last_reported":1701497333,"current_range_meters":14400,"station_id":"ce4bgi12rcd13ifvqb70","pricing_plan_id":"free"},{"bike_id":"f939bfc7-4311-4734-8cd9-ae1dcf854936","system_id":"levelo_inurba_marseille","lat":43.292311,"lon":5.360731,"is_reserved":false,"is_disabled":false,"rental_uris":{"android":"levelo://app?vid=f939bfc7-4311-4734-8cd9-ae1dcf854936","ios":"levelo://app?vid=f939bfc7-4311-4734-8cd9-ae1dcf854936"},"vehicle_type_id":"4","last_reported":1701497333,"current_range_meters":28400,"station_id":"ce4bhbh2rcd13ifvqeqg","pricing_plan_id":"free"},{"bike_id":"6d12ca8e-ff25-4bb6-8ff4-254e2b663862","system_id":"levelo_inurba_marseille","lat":43.309038,"lon":5.396546,"is_reserved":false,"is_disabled":false,"rental_uris":{"android":"levelo://app?vid=6d12ca8e-ff25-4bb6-8ff4-254e2b663862","ios":"levelo://app?vid=6d12ca8e-ff25-4bb6-8ff4-254e2b663862"},"vehicle_type_id":"4","last_reported":1701497333,"current_range_meters":22400,"station_id":"ce4bh012rcd13ifvqcv0","pricing_plan_id":"free"},{"bike_id":"52391c10-12e8-476c-b36d-42eec3feee02","system_id":"levelo_inurba_marseille","lat":43.309038,"lon":5.396546,"is_reserved":false,"is_disabled":false,"rental_uris":{"android":"levelo://app?vid=52391c10-12e8-476c-b36d-42eec3feee02","ios":"levelo://app?vid=52391c10-12e8-476c-b36d-42eec3feee02"},"vehicle_type_id":"4","last_reported":1701497333,"current_range_meters":31200,"station_id":"ce4bh012rcd13ifvqcv0","pricing_plan_id":"free"},{"bike_id":"2c9333a9-f303-4528-a874-91f7d904521d","system_id":"levelo_inurba_marseille","lat":43.30876,"lon":5.39646,"is_reserved":false,"is_disabled":false,"rental_uris":{"android":"levelo://app?vid=2c9333a9-f303-4528-a874-91f7d904521d","ios":"levelo://app?vid=2c9333a9-f303-4528-a874-91f7d904521d"},"vehicle_type_id":"4","last_reported":1701497333,"current_range_meters":30000,"station_id":"ce4bh012rcd13ifvqcv0","pricing_plan_id":"free"},{"bike_id":"3e4b3588-c60f-43d7-b7ca-c2354c610af9","system_id":"levelo_inurba_marseille","lat":43.309038,"lon":5.396546,"is_reserved":false,"is_disabled":false,"rental_uris":{"android":"levelo://app?vid=3e4b3588-c60f-43d7-b7ca-c2354c610af9","ios":"levelo://app?vid=3e4b3588-c60f-43d7-b7ca-c2354c610af9"},"vehicle_type_id":"4","last_reported":1701497333,"current_range_meters":6000,"station_id":"ce4bh012rcd13ifvqcv0","pricing_plan_id":"free"},{"bike_id":"f9c4ef53-a1cb-47bf-87da-7f7c34cdd376","system_id":"levelo_inurba_marseille","lat":43.284538,"lon":5.358657,"is_reserved":false,"is_disabled":false,"rental_uris":{"android":"levelo://app?vid=f9c4ef53-a1cb-47bf-87da-7f7c34cdd376","ios":"levelo://app?vid=f9c4ef53-a1cb-47bf-87da-7f7c34cdd376"},"vehicle_type_id":"4","last_reported":1701497333,"current_range_meters":26400,"station_id":"ce4bhah2rcd13ifvqei0","pricing_plan_id":"free"},{"bike_id":"f37bc797-bdd3-46de-90bc-dea02f51c25e","system_id":"levelo_inurba_marseille","lat":43.289184,"lon":5.366408,"is_reserved":false,"is_disabled":false,"rental_uris":{"android":"levelo://app?vid=f37bc797-bdd3-46de-90bc-dea02f51c25e","ios":"levelo://app?vid=f37bc797-bdd3-46de-90bc-dea02f51c25e"},"vehicle_type_id":"4","last_reported":1701497333,"current_range_meters":16800,"station_id":"ce4bhap2rcd13ifvqek0","pricing_plan_id":"free"},{"bike_id":"c58b39fe-f050-44d5-bbe7-4abcb7249795","system_id":"levelo_inurba_marseille","lat":43.291541,"lon":5.380542,"is_reserved":false,"is_disabled":false,"rental_uris":{"android":"levelo://app?vid=c58b39fe-f050-44d5-bbe7-4abcb7249795","ios":"levelo://app?vid=c58b39fe-f050-44d5-bbe7-4abcb7249795"},"vehicle_type_id":"4","last_reported":1701497333,"current_range_meters":15600,"station_id":"ce4bhn92rcd13ifvqgrg","pricing_plan_id":"free"},{"bike_id":"81963fc4-9d95-4178-a9e8-50759b842944","system_id":"levelo_inurba_marseille","lat":43.289468,"lon":5.363719,"is_reserved":false,"is_disabled":false,"rental_uris":{"android":"levelo://app?vid=81963fc4-9d95-4178-a9e8-50759b842944","ios":"levelo://app?vid=81963fc4-9d95-4178-a9e8-50759b842944"},"vehicle_type_id":"4","last_reported":1701497333,"current_range_meters":26000,"station_id":"ce4bhc92rcd13ifvqetg","pricing_plan_id":"free"},{"bike_id":"bf3cee1d-8a2a-47e9-a897-c2da82588e7d","system_id":"levelo_inurba_marseille","lat":43.295169,"lon":5.390426,"is_reserved":false,"is_disabled":false,"rental_uris":{"android":"levelo://app?vid=bf3cee1d-8a2a-47e9-a897-c2da82588e7d","ios":"levelo://app?vid=bf3cee1d-8a2a-47e9-a897-c2da82588e7d"},"vehicle_type_id":"4","last_reported":1701497333,"current_range_meters":24400,"station_id":"ce4bh3p2rcd13ifvqdp0","pricing_plan_id":"free"},{"bike_id":"8b79c08f-74c2-4cca-9ead-e914df01402f","system_id":"levelo_inurba_marseille","lat":43.295169,"lon":5.390426,"is_reserved":false,"is_disabled":false,"rental_uris":{"android":"levelo://app?vid=8b79c08f-74c2-4cca-9ead-e914df01402f","ios":"levelo://app?vid=8b79c08f-74c2-4cca-9ead-e914df01402f"},"vehicle_type_id":"4","last_reported":1701497333,"current_range_meters":26400,"station_id":"ce4bh3p2rcd13ifvqdp0","pricing_plan_id":"free"},{"bike_id":"65ac5f69-fce7-47ef-9056-4949b0e0591e","system_id":"levelo_inurba_marseille","lat":43.309371,"lon":5.401449,"is_reserved":false,"is_disabled":false,"rental_uris":{"android":"levelo://app?vid=65ac5f69-fce7-47ef-9056-4949b0e0591e","ios":"levelo://app?vid=65ac5f69-fce7-47ef-9056-4949b0e0591e"},"vehicle_type_id":"4","last_reported":1701497333,"current_range_meters":25600,"station_id":"ce4bgvp2rcd13ifvqct0","pricing_plan_id":"free"},{"bike_id":"80618ee1-03c3-4bb0-a196-dbf28e6a3c30","system_id":"levelo_inurba_marseille","lat":43.309371,"lon":5.401449,"is_reserved":false,"is_disabled":false,"rental_uris":{"android":"levelo://app?vid=80618ee1-03c3-4bb0-a196-dbf28e6a3c30","ios":"levelo://app?vid=80618ee1-03c3-4bb0-a196-dbf28e6a3c30"},"vehicle_type_id":"4","last_reported":1701497333,"current_range_meters":28400,"station_id":"ce4bgvp2rcd13ifvqct0","pricing_plan_id":"free"},{"bike_id":"dd06d97c-c441-4bca-9e32-15fd0ebed003","system_id":"levelo_inurba_marseille","lat":43.309371,"lon":5.401449,"is_reserved":false,"is_disabled":false,"rental_uris":{"android":"levelo://app?vid=dd06d97c-c441-4bca-9e32-15fd0ebed003","ios":"levelo://app?vid=dd06d97c-c441-4bca-9e32-15fd0ebed003"},"vehicle_type_id":"4","last_reported":1701497333,"current_range_meters":6800,"station_id":"ce4bgvp2rcd13ifvqct0","pricing_plan_id":"free"},{"bike_id":"c55048a9-aae6-4c35-919f-ecfe5cd1bef9","system_id":"levelo_inurba_marseille","lat":43.30642,"lon":5.401031,"is_reserved":false,"is_disabled":false,"rental_uris":{"android":"levelo://app?vid=c55048a9-aae6-4c35-919f-ecfe5cd1bef9","ios":"levelo://app?vid=c55048a9-aae6-4c35-919f-ecfe5cd1bef9"},"vehicle_type_id":"4","last_reported":1701497333,"current_range_meters":30400,"station_id":"ce4bh112rcd13ifvqda0","pricing_plan_id":"free"},{"bike_id":"23409db8-90bd-4192-968b-f8b46f618419","system_id":"levelo_inurba_marseille","lat":43.306412,"lon":5.401035,"is_reserved":false,"is_disabled":false,"rental_uris":{"android":"levelo://app?vid=23409db8-90bd-4192-968b-f8b46f618419","ios":"levelo://app?vid=23409db8-90bd-4192-968b-f8b46f618419"},"vehicle_type_id":"4","last_reported":1701497333,"current_range_meters":27600,"station_id":"ce4bh112rcd13ifvqda0","pricing_plan_id":"free"},{"bike_id":"d0f2a996-f26a-4c4e-b1db-5bcccdd6146d","system_id":"levelo_inurba_marseille","lat":43.33769,"lon":5.37428,"is_reserved":false,"is_disabled":false,"rental_uris":{"android":"levelo://app?vid=d0f2a996-f26a-4c4e-b1db-5bcccdd6146d","ios":"levelo://app?vid=d0f2a996-f26a-4c4e-b1db-5bcccdd6146d"},"vehicle_type_id":"4","last_reported":1701497333,"current_range_meters":8400,"station_id":"","pricing_plan_id":"free"},{"bike_id":"f0921399-6f79-4b04-826c-73cf4cedc066","system_id":"levelo_inurba_marseille","lat":43.30642,"lon":5.401031,"is_reserved":false,"is_disabled":false,"rental_uris":{"android":"levelo://app?vid=f0921399-6f79-4b04-826c-73cf4cedc066","ios":"levelo://app?vid=f0921399-6f79-4b04-826c-73cf4cedc066"},"vehicle_type_id":"4","last_reported":1701497333,"current_range_meters":29600,"station_id":"ce4bh112rcd13ifvqda0","pricing_plan_id":"free"},{"bike_id":"89f22f9b-d1e4-4ed6-8a17-a5cd9f7d4e64","system_id":"levelo_inurba_marseille","lat":43.301117,"lon":5.398795,"is_reserved":false,"is_disabled":false,"rental_uris":{"android":"levelo://app?vid=89f22f9b-d1e4-4ed6-8a17-a5cd9f7d4e64","ios":"levelo://app?vid=89f22f9b-d1e4-4ed6-8a17-a5cd9f7d4e64"},"vehicle_type_id":"4","last_reported":1701497333,"current_range_meters":24800,"station_id":"ce4bh0h2rcd13ifvqd40","pricing_plan_id":"free"},{"bike_id":"e17c114d-ae2e-42d2-bd50-794f50d899eb","system_id":"levelo_inurba_marseille","lat":43.287266,"lon":5.360886,"is_reserved":false,"is_disabled":false,"rental_uris":{"android":"levelo://app?vid=e17c114d-ae2e-42d2-bd50-794f50d899eb","ios":"levelo://app?vid=e17c114d-ae2e-42d2-bd50-794f50d899eb"},"vehicle_type_id":"4","last_reported":1701497333,"current_range_meters":26400,"station_id":"cki0cbj6b192h4jlfktg","pricing_plan_id":"free"},{"bike_id":"099c6c60-4e4a-4c05-af8c-4aa68bd5d01a","system_id":"levelo_inurba_marseille","lat":43.295194,"lon":5.39397,"is_reserved":false,"is_disabled":false,"rental_uris":{"android":"levelo://app?vid=099c6c60-4e4a-4c05-af8c-4aa68bd5d01a","ios":"levelo://app?vid=099c6c60-4e4a-4c05-af8c-4aa68bd5d01a"},"vehicle_type_id":"4","last_reported":1701497333,"current_range_meters":27200,"station_id":"ce4bh292rcd13ifvqdf0","pricing_plan_id":"free"},{"bike_id":"84dcca8f-9a06-4dbd-bb3a-c7d38c195516","system_id":"levelo_inurba_marseille","lat":43.289307,"lon":5.38406,"is_reserved":false,"is_disabled":false,"rental_uris":{"android":"levelo://app?vid=84dcca8f-9a06-4dbd-bb3a-c7d38c195516","ios":"levelo://app?vid=84dcca8f-9a06-4dbd-bb3a-c7d38c195516"},"vehicle_type_id":"4","last_reported":1701497333,"current_range_meters":14000,"station_id":"ce4bh612rcd13ifvqe6g","pricing_plan_id":"free"},{"bike_id":"7c3800c3-e04f-4933-a9ae-f90a9e6124f9","system_id":"levelo_inurba_marseille","lat":43.290345,"lon":5.38646,"is_reserved":false,"is_disabled":false,"rental_uris":{"android":"levelo://app?vid=7c3800c3-e04f-4933-a9ae-f90a9e6124f9","ios":"levelo://app?vid=7c3800c3-e04f-4933-a9ae-f90a9e6124f9"},"vehicle_type_id":"4","last_reported":1701497333,"current_range_meters":28400,"station_id":"ce4bh4p2rcd13ifvqe0g","pricing_plan_id":"free"},{"bike_id":"40b013a4-8905-48ea-afb9-3ba70bd67899","system_id":"levelo_inurba_marseille","lat":43.28608,"lon":5.37071,"is_reserved":false,"is_disabled":false,"rental_uris":{"android":"levelo://app?vid=40b013a4-8905-48ea-afb9-3ba70bd67899","ios":"levelo://app?vid=40b013a4-8905-48ea-afb9-3ba70bd67899"},"vehicle_type_id":"4","last_reported":1701497333,"current_range_meters":5200,"station_id":"ce4bht12rcd13ifvqi60","pricing_plan_id":"free"},{"bike_id":"69d1a230-a3c0-4fb4-bb4e-2d8437eb6511","system_id":"levelo_inurba_marseille","lat":43.287184,"lon":5.37937,"is_reserved":false,"is_disabled":false,"rental_uris":{"android":"levelo://app?vid=69d1a230-a3c0-4fb4-bb4e-2d8437eb6511","ios":"levelo://app?vid=69d1a230-a3c0-4fb4-bb4e-2d8437eb6511"},"vehicle_type_id":"4","last_reported":1701497333,"current_range_meters":30400,"station_id":"ce4bh9p2rcd13ifvqec0","pricing_plan_id":"free"},{"bike_id":"c8796b17-8acc-4b0f-837f-4a982dbe834d","system_id":"levelo_inurba_marseille","lat":43.291994,"lon":5.392907,"is_reserved":false,"is_disabled":false,"rental_uris":{"android":"levelo://app?vid=c8796b17-8acc-4b0f-837f-4a982dbe834d","ios":"levelo://app?vid=c8796b17-8acc-4b0f-837f-4a982dbe834d"},"vehicle_type_id":"4","last_reported":1701497333,"current_range_meters":24000,"station_id":"ce4bh192rcd13ifvqdd0","pricing_plan_id":"free"},{"bike_id":"2803141d-cac6-43d0-b283-5cc0dd459f07","system_id":"levelo_inurba_marseille","lat":43.291994,"lon":5.392907,"is_reserved":false,"is_disabled":false,"rental_uris":{"android":"levelo://app?vid=2803141d-cac6-43d0-b283-5cc0dd459f07","ios":"levelo://app?vid=2803141d-cac6-43d0-b283-5cc0dd459f07"},"vehicle_type_id":"4","last_reported":1701497333,"current_range_meters":24800,"station_id":"ce4bh192rcd13ifvqdd0","pricing_plan_id":"free"},{"bike_id":"6876ca3c-4536-4659-b150-3e9e6d87cd51","system_id":"levelo_inurba_marseille","lat":43.284534,"lon":5.358662,"is_reserved":false,"is_disabled":false,"rental_uris":{"android":"levelo://app?vid=6876ca3c-4536-4659-b150-3e9e6d87cd51","ios":"levelo://app?vid=6876ca3c-4536-4659-b150-3e9e6d87cd51"},"vehicle_type_id":"4","last_reported":1701497333,"current_range_meters":31200,"station_id":"ce4bhah2rcd13ifvqei0","pricing_plan_id":"free"},{"bike_id":"5f7069c3-d3c3-45fb-9e62-764a4f1ae3f3","system_id":"levelo_inurba_marseille","lat":43.284538,"lon":5.358657,"is_reserved":false,"is_disabled":false,"rental_uris":{"android":"levelo://app?vid=5f7069c3-d3c3-45fb-9e62-764a4f1ae3f3","ios":"levelo://app?vid=5f7069c3-d3c3-45fb-9e62-764a4f1ae3f3"},"vehicle_type_id":"4","last_reported":1701497333,"current_range_meters":27200,"station_id":"ce4bhah2rcd13ifvqei0","pricing_plan_id":"free"},{"bike_id":"d602a3d1-e3f7-4a70-9183-9c49798f1d01","system_id":"levelo_inurba_marseille","lat":43.284538,"lon":5.358657,"is_reserved":false,"is_disabled":false,"rental_uris":{"android":"levelo://app?vid=d602a3d1-e3f7-4a70-9183-9c49798f1d01","ios":"levelo://app?vid=d602a3d1-e3f7-4a70-9183-9c49798f1d01"},"vehicle_type_id":"4","last_reported":1701497333,"current_range_meters":31200,"station_id":"ce4bhah2rcd13ifvqei0","pricing_plan_id":"free"},{"bike_id":"83fff12d-75ac-488f-9fff-e6d245974c11","system_id":"levelo_inurba_marseille","lat":43.28465,"lon":5.35877,"is_reserved":false,"is_disabled":false,"rental_uris":{"android":"levelo://app?vid=83fff12d-75ac-488f-9fff-e6d245974c11","ios":"levelo://app?vid=83fff12d-75ac-488f-9fff-e6d245974c11"},"vehicle_type_id":"4","last_reported":1701497333,"current_range_meters":14400,"station_id":"ce4bhah2rcd13ifvqei0","pricing_plan_id":"free"},{"bike_id":"17f3ee28-4a08-4b51-bb88-b24a1fdcee57","system_id":"levelo_inurba_marseille","lat":43.284538,"lon":5.358657,"is_reserved":false,"is_disabled":false,"rental_uris":{"android":"levelo://app?vid=17f3ee28-4a08-4b51-bb88-b24a1fdcee57","ios":"levelo://app?vid=17f3ee28-4a08-4b51-bb88-b24a1fdcee57"},"vehicle_type_id":"4","last_reported":1701497333,"current_range_meters":31200,"station_id":"ce4bhah2rcd13ifvqei0","pricing_plan_id":"free"},{"bike_id":"76e026e9-f498-405a-a861-33107ad8ad7a","system_id":"levelo_inurba_marseille","lat":43.284621,"lon":5.3588,"is_reserved":false,"is_disabled":false,"rental_uris":{"android":"levelo://app?vid=76e026e9-f498-405a-a861-33107ad8ad7a","ios":"levelo://app?vid=76e026e9-f498-405a-a861-33107ad8ad7a"},"vehicle_type_id":"4","last_reported":1701497333,"current_range_meters":9600,"station_id":"ce4bhah2rcd13ifvqei0","pricing_plan_id":"free"},{"bike_id":"a18ecf0e-fc7b-48d9-97d6-5da25d796a5e","system_id":"levelo_inurba_marseille","lat":43.284609,"lon":5.358836,"is_reserved":false,"is_disabled":false,"rental_uris":{"android":"levelo://app?vid=a18ecf0e-fc7b-48d9-97d6-5da25d796a5e","ios":"levelo://app?vid=a18ecf0e-fc7b-48d9-97d6-5da25d796a5e"},"vehicle_type_id":"4","last_reported":1701497333,"current_range_meters":9600,"station_id":"ce4bhah2rcd13ifvqei0","pricing_plan_id":"free"},{"bike_id":"189622c6-31d0-4222-82db-9ef7fb206284","system_id":"levelo_inurba_marseille","lat":43.284534,"lon":5.358662,"is_reserved":false,"is_disabled":false,"rental_uris":{"android":"levelo://app?vid=189622c6-31d0-4222-82db-9ef7fb206284","ios":"levelo://app?vid=189622c6-31d0-4222-82db-9ef7fb206284"},"vehicle_type_id":"4","last_reported":1701497333,"current_range_meters":2800,"station_id":"ce4bhah2rcd13ifvqei0","pricing_plan_id":"free"},{"bike_id":"c8124233-8250-4dcc-97e2-8fce9e8a5b7f","system_id":"levelo_inurba_marseille","lat":43.284534,"lon":5.358662,"is_reserved":false,"is_disabled":false,"rental_uris":{"android":"levelo://app?vid=c8124233-8250-4dcc-97e2-8fce9e8a5b7f","ios":"levelo://app?vid=c8124233-8250-4dcc-97e2-8fce9e8a5b7f"},"vehicle_type_id":"4","last_reported":1701497333,"current_range_meters":21200,"station_id":"ce4bhah2rcd13ifvqei0","pricing_plan_id":"free"},{"bike_id":"62720c14-5e46-4d7a-8274-80646bf8be6b","system_id":"levelo_inurba_marseille","lat":43.284572,"lon":5.35884,"is_reserved":false,"is_disabled":false,"rental_uris":{"android":"levelo://app?vid=62720c14-5e46-4d7a-8274-80646bf8be6b","ios":"levelo://app?vid=62720c14-5e46-4d7a-8274-80646bf8be6b"},"vehicle_type_id":"4","last_reported":1701497333,"current_range_meters":6400,"station_id":"ce4bhah2rcd13ifvqei0","pricing_plan_id":"free"},{"bike_id":"91cdfe8f-a065-4369-84a1-b5ae3ac7d4f4","system_id":"levelo_inurba_marseille","lat":43.283998,"lon":5.375062,"is_reserved":false,"is_disabled":false,"rental_uris":{"android":"levelo://app?vid=91cdfe8f-a065-4369-84a1-b5ae3ac7d4f4","ios":"levelo://app?vid=91cdfe8f-a065-4369-84a1-b5ae3ac7d4f4"},"vehicle_type_id":"4","last_reported":1701497333,"current_range_meters":24800,"station_id":"ce4bh412rcd13ifvqds0","pricing_plan_id":"free"},{"bike_id":"62a61d2f-995a-4d61-8f72-e25fc5a954f8","system_id":"levelo_inurba_marseille","lat":43.295713,"lon":5.399639,"is_reserved":false,"is_disabled":false,"rental_uris":{"android":"levelo://app?vid=62a61d2f-995a-4d61-8f72-e25fc5a954f8","ios":"levelo://app?vid=62a61d2f-995a-4d61-8f72-e25fc5a954f8"},"vehicle_type_id":"4","last_reported":1701497333,"current_range_meters":29600,"station_id":"ce4bh312rcd13ifvqdj0","pricing_plan_id":"free"},{"bike_id":"d54dea1d-c550-4175-b71d-356f89cf71f9","system_id":"levelo_inurba_marseille","lat":43.319179,"lon":5.407725,"is_reserved":false,"is_disabled":false,"rental_uris":{"android":"levelo://app?vid=d54dea1d-c550-4175-b71d-356f89cf71f9","ios":"levelo://app?vid=d54dea1d-c550-4175-b71d-356f89cf71f9"},"vehicle_type_id":"4","last_reported":1701497333,"current_range_meters":29600,"station_id":"ce4bhq12rcd13ifvqhig","pricing_plan_id":"free"},{"bike_id":"0d5d7ab8-9ae7-432f-9189-bf46aad59761","system_id":"levelo_inurba_marseille","lat":43.319179,"lon":5.407725,"is_reserved":false,"is_disabled":false,"rental_uris":{"android":"levelo://app?vid=0d5d7ab8-9ae7-432f-9189-bf46aad59761","ios":"levelo://app?vid=0d5d7ab8-9ae7-432f-9189-bf46aad59761"},"vehicle_type_id":"4","last_reported":1701497333,"current_range_meters":31200,"station_id":"ce4bhq12rcd13ifvqhig","pricing_plan_id":"free"},{"bike_id":"7f458fab-3a0c-4609-8310-733ff5bbba57","system_id":"levelo_inurba_marseille","lat":43.33717,"lon":5.391857,"is_reserved":false,"is_disabled":false,"rental_uris":{"android":"levelo://app?vid=7f458fab-3a0c-4609-8310-733ff5bbba57","ios":"levelo://app?vid=7f458fab-3a0c-4609-8310-733ff5bbba57"},"vehicle_type_id":"4","last_reported":1701497333,"current_range_meters":30800,"station_id":"ce4bhr92rcd13ifvqhsg","pricing_plan_id":"free"},{"bike_id":"f99fc4d8-709b-4cee-a32c-2cdd6f1e8b1e","system_id":"levelo_inurba_marseille","lat":43.337168,"lon":5.391825,"is_reserved":false,"is_disabled":false,"rental_uris":{"android":"levelo://app?vid=f99fc4d8-709b-4cee-a32c-2cdd6f1e8b1e","ios":"levelo://app?vid=f99fc4d8-709b-4cee-a32c-2cdd6f1e8b1e"},"vehicle_type_id":"4","last_reported":1701497333,"current_range_meters":26400,"station_id":"ce4bhr92rcd13ifvqhsg","pricing_plan_id":"free"},{"bike_id":"4714f7cd-5ff4-41d0-870b-3e9261538b58","system_id":"levelo_inurba_marseille","lat":43.323464,"lon":5.406297,"is_reserved":false,"is_disabled":false,"rental_uris":{"android":"levelo://app?vid=4714f7cd-5ff4-41d0-870b-3e9261538b58","ios":"levelo://app?vid=4714f7cd-5ff4-41d0-870b-3e9261538b58"},"vehicle_type_id":"4","last_reported":1701497333,"current_range_meters":28000,"station_id":"ce4bhq92rcd13ifvqhjg","pricing_plan_id":"free"},{"bike_id":"4092b413-a8f0-49fd-8cc3-69bf3f509a40","system_id":"levelo_inurba_marseille","lat":43.323375,"lon":5.40628,"is_reserved":false,"is_disabled":false,"rental_uris":{"android":"levelo://app?vid=4092b413-a8f0-49fd-8cc3-69bf3f509a40","ios":"levelo://app?vid=4092b413-a8f0-49fd-8cc3-69bf3f509a40"},"vehicle_type_id":"4","last_reported":1701497333,"current_range_meters":11600,"station_id":"ce4bhq92rcd13ifvqhjg","pricing_plan_id":"free"},{"bike_id":"1533b5af-79f1-4dbe-883a-97401c2d5e9c","system_id":"levelo_inurba_marseille","lat":43.284793,"lon":5.384113,"is_reserved":false,"is_disabled":false,"rental_uris":{"android":"levelo://app?vid=1533b5af-79f1-4dbe-883a-97401c2d5e9c","ios":"levelo://app?vid=1533b5af-79f1-4dbe-883a-97401c2d5e9c"},"vehicle_type_id":"4","last_reported":1701497333,"current_range_meters":28000,"station_id":"ce4bh512rcd13ifvqe3g","pricing_plan_id":"free"},{"bike_id":"84662e5e-3bb5-4049-8bc9-79bd5b649eff","system_id":"levelo_inurba_marseille","lat":43.289363,"lon":5.396322,"is_reserved":false,"is_disabled":false,"rental_uris":{"android":"levelo://app?vid=84662e5e-3bb5-4049-8bc9-79bd5b649eff","ios":"levelo://app?vid=84662e5e-3bb5-4049-8bc9-79bd5b649eff"},"vehicle_type_id":"4","last_reported":1701497333,"current_range_meters":29600,"station_id":"ce4bh3h2rcd13ifvqdn0","pricing_plan_id":"free"},{"bike_id":"9228b679-a081-4c22-835c-fa72278ded5d","system_id":"levelo_inurba_marseille","lat":43.282744,"lon":5.350533,"is_reserved":false,"is_disabled":false,"rental_uris":{"android":"levelo://app?vid=9228b679-a081-4c22-835c-fa72278ded5d","ios":"levelo://app?vid=9228b679-a081-4c22-835c-fa72278ded5d"},"vehicle_type_id":"4","last_reported":1701497333,"current_range_meters":31200,"station_id":"ce4bhbp2rcd13ifvqerg","pricing_plan_id":"free"},{"bike_id":"da9c69a8-f034-4bc4-bd6f-19169039de2b","system_id":"levelo_inurba_marseille","lat":43.280382,"lon":5.369291,"is_reserved":false,"is_disabled":false,"rental_uris":{"android":"levelo://app?vid=da9c69a8-f034-4bc4-bd6f-19169039de2b","ios":"levelo://app?vid=da9c69a8-f034-4bc4-bd6f-19169039de2b"},"vehicle_type_id":"4","last_reported":1701497333,"current_range_meters":27200,"station_id":"ce4bha12rcd13ifvqef0","pricing_plan_id":"free"},{"bike_id":"1243777c-b77e-47a9-b250-2f7163566a8e","system_id":"levelo_inurba_marseille","lat":43.280382,"lon":5.369291,"is_reserved":false,"is_disabled":false,"rental_uris":{"android":"levelo://app?vid=1243777c-b77e-47a9-b250-2f7163566a8e","ios":"levelo://app?vid=1243777c-b77e-47a9-b250-2f7163566a8e"},"vehicle_type_id":"4","last_reported":1701497333,"current_range_meters":30400,"station_id":"ce4bha12rcd13ifvqef0","pricing_plan_id":"free"},{"bike_id":"384e313f-492c-4d83-a1a6-c31122558ed0","system_id":"levelo_inurba_marseille","lat":43.280382,"lon":5.369291,"is_reserved":false,"is_disabled":false,"rental_uris":{"android":"levelo://app?vid=384e313f-492c-4d83-a1a6-c31122558ed0","ios":"levelo://app?vid=384e313f-492c-4d83-a1a6-c31122558ed0"},"vehicle_type_id":"4","last_reported":1701497333,"current_range_meters":30000,"station_id":"ce4bha12rcd13ifvqef0","pricing_plan_id":"free"},{"bike_id":"4d537adc-f0ff-4dae-8548-3af217d690f0","system_id":"levelo_inurba_marseille","lat":43.2905,"lon":5.39957,"is_reserved":false,"is_disabled":false,"rental_uris":{"android":"levelo://app?vid=4d537adc-f0ff-4dae-8548-3af217d690f0","ios":"levelo://app?vid=4d537adc-f0ff-4dae-8548-3af217d690f0"},"vehicle_type_id":"4","last_reported":1701497333,"current_range_meters":23600,"station_id":"ce4bh392rcd13ifvqdm0","pricing_plan_id":"free"},{"bike_id":"7b627c65-1d10-46e0-bfe6-5e3d770571a1","system_id":"levelo_inurba_marseille","lat":43.29043,"lon":5.39951,"is_reserved":false,"is_disabled":false,"rental_uris":{"android":"levelo://app?vid=7b627c65-1d10-46e0-bfe6-5e3d770571a1","ios":"levelo://app?vid=7b627c65-1d10-46e0-bfe6-5e3d770571a1"},"vehicle_type_id":"4","last_reported":1701497333,"current_range_meters":28400,"station_id":"ce4bh392rcd13ifvqdm0","pricing_plan_id":"free"},{"bike_id":"4efbe882-a394-444b-b940-c98897ea4e8b","system_id":"levelo_inurba_marseille","lat":43.290439,"lon":5.399585,"is_reserved":false,"is_disabled":false,"rental_uris":{"android":"levelo://app?vid=4efbe882-a394-444b-b940-c98897ea4e8b","ios":"levelo://app?vid=4efbe882-a394-444b-b940-c98897ea4e8b"},"vehicle_type_id":"4","last_reported":1701497333,"current_range_meters":26400,"station_id":"ce4bh392rcd13ifvqdm0","pricing_plan_id":"free"},{"bike_id":"5e9cb994-11b1-4ffd-a0ac-b2cf63026ef2","system_id":"levelo_inurba_marseille","lat":43.290339,"lon":5.399639,"is_reserved":false,"is_disabled":false,"rental_uris":{"android":"levelo://app?vid=5e9cb994-11b1-4ffd-a0ac-b2cf63026ef2","ios":"levelo://app?vid=5e9cb994-11b1-4ffd-a0ac-b2cf63026ef2"},"vehicle_type_id":"4","last_reported":1701497333,"current_range_meters":28400,"station_id":"ce4bh392rcd13ifvqdm0","pricing_plan_id":"free"},{"bike_id":"20d6d6ec-905a-4d49-9fb9-0a23edeb10a7","system_id":"levelo_inurba_marseille","lat":43.290354,"lon":5.399798,"is_reserved":false,"is_disabled":false,"rental_uris":{"android":"levelo://app?vid=20d6d6ec-905a-4d49-9fb9-0a23edeb10a7","ios":"levelo://app?vid=20d6d6ec-905a-4d49-9fb9-0a23edeb10a7"},"vehicle_type_id":"4","last_reported":1701497333,"current_range_meters":30000,"station_id":"ce4bh392rcd13ifvqdm0","pricing_plan_id":"free"},{"bike_id":"0a35d642-f071-4392-8646-da8c032536ab","system_id":"levelo_inurba_marseille","lat":43.290328,"lon":5.399778,"is_reserved":false,"is_disabled":false,"rental_uris":{"android":"levelo://app?vid=0a35d642-f071-4392-8646-da8c032536ab","ios":"levelo://app?vid=0a35d642-f071-4392-8646-da8c032536ab"},"vehicle_type_id":"4","last_reported":1701497333,"current_range_meters":28000,"station_id":"ce4bh392rcd13ifvqdm0","pricing_plan_id":"free"},{"bike_id":"c81d63d5-2efd-4b1d-9e0e-316ba3180473","system_id":"levelo_inurba_marseille","lat":43.296263,"lon":5.40601,"is_reserved":false,"is_disabled":false,"rental_uris":{"android":"levelo://app?vid=c81d63d5-2efd-4b1d-9e0e-316ba3180473","ios":"levelo://app?vid=c81d63d5-2efd-4b1d-9e0e-316ba3180473"},"vehicle_type_id":"4","last_reported":1701497333,"current_range_meters":19200,"station_id":"ce4bh0h2rcd13ifvqd60","pricing_plan_id":"free"},{"bike_id":"12ec2591-874b-47c6-883a-102e820606ff","system_id":"levelo_inurba_marseille","lat":43.296263,"lon":5.40601,"is_reserved":false,"is_disabled":false,"rental_uris":{"android":"levelo://app?vid=12ec2591-874b-47c6-883a-102e820606ff","ios":"levelo://app?vid=12ec2591-874b-47c6-883a-102e820606ff"},"vehicle_type_id":"4","last_reported":1701497333,"current_range_meters":28800,"station_id":"ce4bh0h2rcd13ifvqd60","pricing_plan_id":"free"},{"bike_id":"1ab859f5-8dac-45ce-aea3-5f8243b88f25","system_id":"levelo_inurba_marseille","lat":43.296263,"lon":5.40601,"is_reserved":false,"is_disabled":false,"rental_uris":{"android":"levelo://app?vid=1ab859f5-8dac-45ce-aea3-5f8243b88f25","ios":"levelo://app?vid=1ab859f5-8dac-45ce-aea3-5f8243b88f25"},"vehicle_type_id":"4","last_reported":1701497333,"current_range_meters":30000,"station_id":"ce4bh0h2rcd13ifvqd60","pricing_plan_id":"free"},{"bike_id":"6306cf92-f06d-48c3-ac28-f9f349cb0b22","system_id":"levelo_inurba_marseille","lat":43.284462,"lon":5.392121,"is_reserved":false,"is_disabled":false,"rental_uris":{"android":"levelo://app?vid=6306cf92-f06d-48c3-ac28-f9f349cb0b22","ios":"levelo://app?vid=6306cf92-f06d-48c3-ac28-f9f349cb0b22"},"vehicle_type_id":"4","last_reported":1701497333,"current_range_meters":29600,"station_id":"ce4bhoh2rcd13ifvqh5g","pricing_plan_id":"free"},{"bike_id":"c57c917a-e675-4cd3-bc55-1a4b865cab21","system_id":"levelo_inurba_marseille","lat":43.285742,"lon":5.395004,"is_reserved":false,"is_disabled":false,"rental_uris":{"android":"levelo://app?vid=c57c917a-e675-4cd3-bc55-1a4b865cab21","ios":"levelo://app?vid=c57c917a-e675-4cd3-bc55-1a4b865cab21"},"vehicle_type_id":"4","last_reported":1701497333,"current_range_meters":31200,"station_id":"ce4bh292rcd13ifvqdg0","pricing_plan_id":"free"},{"bike_id":"2c7b4f8a-24ea-48ac-a7da-1875d5ba77d0","system_id":"levelo_inurba_marseille","lat":43.304188,"lon":5.412904,"is_reserved":false,"is_disabled":false,"rental_uris":{"android":"levelo://app?vid=2c7b4f8a-24ea-48ac-a7da-1875d5ba77d0","ios":"levelo://app?vid=2c7b4f8a-24ea-48ac-a7da-1875d5ba77d0"},"vehicle_type_id":"4","last_reported":1701497333,"current_range_meters":30400,"station_id":"ce4bhop2rcd13ifvqh8g","pricing_plan_id":"free"},{"bike_id":"44b01b27-bfd5-491f-9e75-6434d7fa44f1","system_id":"levelo_inurba_marseille","lat":43.2872,"lon":5.399954,"is_reserved":false,"is_disabled":false,"rental_uris":{"android":"levelo://app?vid=44b01b27-bfd5-491f-9e75-6434d7fa44f1","ios":"levelo://app?vid=44b01b27-bfd5-491f-9e75-6434d7fa44f1"},"vehicle_type_id":"4","last_reported":1701497333,"current_range_meters":24800,"station_id":"ce4bho92rcd13ifvqh3g","pricing_plan_id":"free"},{"bike_id":"1c6c8a78-3bfe-4c87-a7c4-ff82bdccea9a","system_id":"levelo_inurba_marseille","lat":43.28702,"lon":5.399775,"is_reserved":false,"is_disabled":false,"rental_uris":{"android":"levelo://app?vid=1c6c8a78-3bfe-4c87-a7c4-ff82bdccea9a","ios":"levelo://app?vid=1c6c8a78-3bfe-4c87-a7c4-ff82bdccea9a"},"vehicle_type_id":"4","last_reported":1701497333,"current_range_meters":22800,"station_id":"ce4bho92rcd13ifvqh3g","pricing_plan_id":"free"},{"bike_id":"c4cd0b9d-0c41-4d84-aa06-fab71e60a157","system_id":"levelo_inurba_marseille","lat":43.287154,"lon":5.399979,"is_reserved":false,"is_disabled":false,"rental_uris":{"android":"levelo://app?vid=c4cd0b9d-0c41-4d84-aa06-fab71e60a157","ios":"levelo://app?vid=c4cd0b9d-0c41-4d84-aa06-fab71e60a157"},"vehicle_type_id":"4","last_reported":1701497333,"current_range_meters":30800,"station_id":"ce4bho92rcd13ifvqh3g","pricing_plan_id":"free"},{"bike_id":"2a48ec58-a18d-49d2-9fda-72b787fa06c4","system_id":"levelo_inurba_marseille","lat":43.28698,"lon":5.3998,"is_reserved":false,"is_disabled":false,"rental_uris":{"android":"levelo://app?vid=2a48ec58-a18d-49d2-9fda-72b787fa06c4","ios":"levelo://app?vid=2a48ec58-a18d-49d2-9fda-72b787fa06c4"},"vehicle_type_id":"4","last_reported":1701497333,"current_range_meters":0,"station_id":"","pricing_plan_id":"free"},{"bike_id":"84670559-fe6e-4f57-871f-b282b2f07ee5","system_id":"levelo_inurba_marseille","lat":43.286545,"lon":5.400391,"is_reserved":false,"is_disabled":false,"rental_uris":{"android":"levelo://app?vid=84670559-fe6e-4f57-871f-b282b2f07ee5","ios":"levelo://app?vid=84670559-fe6e-4f57-871f-b282b2f07ee5"},"vehicle_type_id":"4","last_reported":1701497333,"current_range_meters":7200,"station_id":"","pricing_plan_id":"free"},{"bike_id":"1e32e512-d079-4c6c-9906-c887f1597982","system_id":"levelo_inurba_marseille","lat":43.279742,"lon":5.38744,"is_reserved":false,"is_disabled":false,"rental_uris":{"android":"levelo://app?vid=1e32e512-d079-4c6c-9906-c887f1597982","ios":"levelo://app?vid=1e32e512-d079-4c6c-9906-c887f1597982"},"vehicle_type_id":"4","last_reported":1701497333,"current_range_meters":28800,"station_id":"ce4bhg12rcd13ifvqf80","pricing_plan_id":"free"},{"bike_id":"000bef4e-f935-4631-bc7c-a32aeda7a6c4","system_id":"levelo_inurba_marseille","lat":43.292571,"lon":5.409107,"is_reserved":false,"is_disabled":false,"rental_uris":{"android":"levelo://app?vid=000bef4e-f935-4631-bc7c-a32aeda7a6c4","ios":"levelo://app?vid=000bef4e-f935-4631-bc7c-a32aeda7a6c4"},"vehicle_type_id":"4","last_reported":1701497333,"current_range_meters":25200,"station_id":"ce4bh192rcd13ifvqdc0","pricing_plan_id":"free"},{"bike_id":"8d658da3-deb2-4333-853f-5caa4f21164e","system_id":"levelo_inurba_marseille","lat":43.292571,"lon":5.409107,"is_reserved":false,"is_disabled":false,"rental_uris":{"android":"levelo://app?vid=8d658da3-deb2-4333-853f-5caa4f21164e","ios":"levelo://app?vid=8d658da3-deb2-4333-853f-5caa4f21164e"},"vehicle_type_id":"4","last_reported":1701497333,"current_range_meters":15200,"station_id":"ce4bh192rcd13ifvqdc0","pricing_plan_id":"free"},{"bike_id":"81c3d2e1-d711-4403-8a56-f859e0dd931b","system_id":"levelo_inurba_marseille","lat":43.292647,"lon":5.409162,"is_reserved":false,"is_disabled":false,"rental_uris":{"android":"levelo://app?vid=81c3d2e1-d711-4403-8a56-f859e0dd931b","ios":"levelo://app?vid=81c3d2e1-d711-4403-8a56-f859e0dd931b"},"vehicle_type_id":"4","last_reported":1701497333,"current_range_meters":21200,"station_id":"","pricing_plan_id":"free"},{"bike_id":"9c68f388-ff8b-4344-aa1a-87a5b91b0bae","system_id":"levelo_inurba_marseille","lat":43.292571,"lon":5.409107,"is_reserved":false,"is_disabled":false,"rental_uris":{"android":"levelo://app?vid=9c68f388-ff8b-4344-aa1a-87a5b91b0bae","ios":"levelo://app?vid=9c68f388-ff8b-4344-aa1a-87a5b91b0bae"},"vehicle_type_id":"4","last_reported":1701497333,"current_range_meters":18800,"station_id":"ce4bh192rcd13ifvqdc0","pricing_plan_id":"free"},{"bike_id":"4c8779d0-2b36-4f36-9c49-4aa72a0c8831","system_id":"levelo_inurba_marseille","lat":43.292571,"lon":5.409107,"is_reserved":false,"is_disabled":false,"rental_uris":{"android":"levelo://app?vid=4c8779d0-2b36-4f36-9c49-4aa72a0c8831","ios":"levelo://app?vid=4c8779d0-2b36-4f36-9c49-4aa72a0c8831"},"vehicle_type_id":"4","last_reported":1701497333,"current_range_meters":21200,"station_id":"ce4bh192rcd13ifvqdc0","pricing_plan_id":"free"},{"bike_id":"662d7ac0-b60c-4589-b775-59c466096683","system_id":"levelo_inurba_marseille","lat":43.325233,"lon":5.414318,"is_reserved":false,"is_disabled":false,"rental_uris":{"android":"levelo://app?vid=662d7ac0-b60c-4589-b775-59c466096683","ios":"levelo://app?vid=662d7ac0-b60c-4589-b775-59c466096683"},"vehicle_type_id":"4","last_reported":1701497333,"current_range_meters":31200,"station_id":"ce4bhq12rcd13ifvqhhg","pricing_plan_id":"free"},{"bike_id":"50f7840e-a9cf-4f40-b946-216ee75649a2","system_id":"levelo_inurba_marseille","lat":43.27611,"lon":5.36108,"is_reserved":false,"is_disabled":false,"rental_uris":{"android":"levelo://app?vid=50f7840e-a9cf-4f40-b946-216ee75649a2","ios":"levelo://app?vid=50f7840e-a9cf-4f40-b946-216ee75649a2"},"vehicle_type_id":"4","last_reported":1701497333,"current_range_meters":3600,"station_id":"ce4bgj92rcd13ifvqbe0","pricing_plan_id":"free"},{"bike_id":"0e213d99-3509-4b22-8ea3-187711179b82","system_id":"levelo_inurba_marseille","lat":43.325233,"lon":5.414318,"is_reserved":false,"is_disabled":false,"rental_uris":{"android":"levelo://app?vid=0e213d99-3509-4b22-8ea3-187711179b82","ios":"levelo://app?vid=0e213d99-3509-4b22-8ea3-187711179b82"},"vehicle_type_id":"4","last_reported":1701497333,"current_range_meters":14800,"station_id":"ce4bhq12rcd13ifvqhhg","pricing_plan_id":"free"},{"bike_id":"bcdb50df-13be-4393-adc8-1a79a4e56c43","system_id":"levelo_inurba_marseille","lat":43.28617,"lon":5.404053,"is_reserved":false,"is_disabled":false,"rental_uris":{"android":"levelo://app?vid=bcdb50df-13be-4393-adc8-1a79a4e56c43","ios":"levelo://app?vid=bcdb50df-13be-4393-adc8-1a79a4e56c43"},"vehicle_type_id":"4","last_reported":1701497333,"current_range_meters":800,"station_id":"","pricing_plan_id":"free"},{"bike_id":"f80edf8c-d1c6-4bcf-accf-1373e7b052e3","system_id":"levelo_inurba_marseille","lat":43.280784,"lon":5.396622,"is_reserved":false,"is_disabled":false,"rental_uris":{"android":"levelo://app?vid=f80edf8c-d1c6-4bcf-accf-1373e7b052e3","ios":"levelo://app?vid=f80edf8c-d1c6-4bcf-accf-1373e7b052e3"},"vehicle_type_id":"4","last_reported":1701497333,"current_range_meters":26400,"station_id":"ce4bho12rcd13ifvqh2g","pricing_plan_id":"free"},{"bike_id":"86e7d7d4-9cc6-4c07-8b8c-a501053e5584","system_id":"levelo_inurba_marseille","lat":43.303837,"lon":5.418724,"is_reserved":false,"is_disabled":false,"rental_uris":{"android":"levelo://app?vid=86e7d7d4-9cc6-4c07-8b8c-a501053e5584","ios":"levelo://app?vid=86e7d7d4-9cc6-4c07-8b8c-a501053e5584"},"vehicle_type_id":"4","last_reported":1701497333,"current_range_meters":14800,"station_id":"ce4bhop2rcd13ifvqh7g","pricing_plan_id":"free"},{"bike_id":"dad9420d-36bf-47cb-8906-3c62e7ceb4b7","system_id":"levelo_inurba_marseille","lat":43.303587,"lon":5.41887,"is_reserved":false,"is_disabled":false,"rental_uris":{"android":"levelo://app?vid=dad9420d-36bf-47cb-8906-3c62e7ceb4b7","ios":"levelo://app?vid=dad9420d-36bf-47cb-8906-3c62e7ceb4b7"},"vehicle_type_id":"4","last_reported":1701497333,"current_range_meters":17600,"station_id":"ce4bhop2rcd13ifvqh7g","pricing_plan_id":"free"},{"bike_id":"5da339e7-eb74-4c1b-a2e1-5131047582df","system_id":"levelo_inurba_marseille","lat":43.275625,"lon":5.384392,"is_reserved":false,"is_disabled":false,"rental_uris":{"android":"levelo://app?vid=5da339e7-eb74-4c1b-a2e1-5131047582df","ios":"levelo://app?vid=5da339e7-eb74-4c1b-a2e1-5131047582df"},"vehicle_type_id":"4","last_reported":1701497333,"current_range_meters":26800,"station_id":"ce4bhh92rcd13ifvqfi0","pricing_plan_id":"free"},{"bike_id":"1604b073-44b6-46d2-b360-c780a2e6c3c5","system_id":"levelo_inurba_marseille","lat":43.275625,"lon":5.384392,"is_reserved":false,"is_disabled":false,"rental_uris":{"android":"levelo://app?vid=1604b073-44b6-46d2-b360-c780a2e6c3c5","ios":"levelo://app?vid=1604b073-44b6-46d2-b360-c780a2e6c3c5"},"vehicle_type_id":"4","last_reported":1701497333,"current_range_meters":16000,"station_id":"ce4bhh92rcd13ifvqfi0","pricing_plan_id":"free"},{"bike_id":"975d9307-3328-456b-998b-a9c7d3275461","system_id":"levelo_inurba_marseille","lat":43.336148,"lon":5.410349,"is_reserved":false,"is_disabled":false,"rental_uris":{"android":"levelo://app?vid=975d9307-3328-456b-998b-a9c7d3275461","ios":"levelo://app?vid=975d9307-3328-456b-998b-a9c7d3275461"},"vehicle_type_id":"4","last_reported":1701497333,"current_range_meters":26800,"station_id":"ce4bhqh2rcd13ifvqhmg","pricing_plan_id":"free"},{"bike_id":"fc529af3-6020-4b1f-b6e4-1a769a4d8510","system_id":"levelo_inurba_marseille","lat":43.336134,"lon":5.410341,"is_reserved":false,"is_disabled":false,"rental_uris":{"android":"levelo://app?vid=fc529af3-6020-4b1f-b6e4-1a769a4d8510","ios":"levelo://app?vid=fc529af3-6020-4b1f-b6e4-1a769a4d8510"},"vehicle_type_id":"4","last_reported":1701497333,"current_range_meters":28000,"station_id":"ce4bhqh2rcd13ifvqhmg","pricing_plan_id":"free"},{"bike_id":"0256d9f5-c275-485b-a67b-c6d8e2bee501","system_id":"levelo_inurba_marseille","lat":43.317121,"lon":5.423936,"is_reserved":false,"is_disabled":false,"rental_uris":{"android":"levelo://app?vid=0256d9f5-c275-485b-a67b-c6d8e2bee501","ios":"levelo://app?vid=0256d9f5-c275-485b-a67b-c6d8e2bee501"},"vehicle_type_id":"4","last_reported":1701497333,"current_range_meters":28800,"station_id":"ce4bhp92rcd13ifvqhbg","pricing_plan_id":"free"},{"bike_id":"4aa97cd1-6a39-4439-81f1-99ae1420ed06","system_id":"levelo_inurba_marseille","lat":43.310785,"lon":5.424305,"is_reserved":false,"is_disabled":false,"rental_uris":{"android":"levelo://app?vid=4aa97cd1-6a39-4439-81f1-99ae1420ed06","ios":"levelo://app?vid=4aa97cd1-6a39-4439-81f1-99ae1420ed06"},"vehicle_type_id":"4","last_reported":1701497333,"current_range_meters":28800,"station_id":"ce4bhp92rcd13ifvqhag","pricing_plan_id":"free"},{"bike_id":"894f6494-585b-4b1b-a39f-39b137cf17d0","system_id":"levelo_inurba_marseille","lat":43.310785,"lon":5.424305,"is_reserved":false,"is_disabled":false,"rental_uris":{"android":"levelo://app?vid=894f6494-585b-4b1b-a39f-39b137cf17d0","ios":"levelo://app?vid=894f6494-585b-4b1b-a39f-39b137cf17d0"},"vehicle_type_id":"4","last_reported":1701497333,"current_range_meters":10800,"station_id":"ce4bhp92rcd13ifvqhag","pricing_plan_id":"free"},{"bike_id":"9edcabe8-94c8-40df-bf5c-819e838b7050","system_id":"levelo_inurba_marseille","lat":43.340804,"lon":5.410219,"is_reserved":false,"is_disabled":false,"rental_uris":{"android":"levelo://app?vid=9edcabe8-94c8-40df-bf5c-819e838b7050","ios":"levelo://app?vid=9edcabe8-94c8-40df-bf5c-819e838b7050"},"vehicle_type_id":"4","last_reported":1701497333,"current_range_meters":16000,"station_id":"ce4bhqh2rcd13ifvqhlg","pricing_plan_id":"free"},{"bike_id":"ec8cda27-8133-4ca8-abd6-6a978c40f976","system_id":"levelo_inurba_marseille","lat":43.340804,"lon":5.410219,"is_reserved":false,"is_disabled":false,"rental_uris":{"android":"levelo://app?vid=ec8cda27-8133-4ca8-abd6-6a978c40f976","ios":"levelo://app?vid=ec8cda27-8133-4ca8-abd6-6a978c40f976"},"vehicle_type_id":"4","last_reported":1701497333,"current_range_meters":31200,"station_id":"ce4bhqh2rcd13ifvqhlg","pricing_plan_id":"free"},{"bike_id":"209aad89-6ad1-4be7-b24f-a81813d47839","system_id":"levelo_inurba_marseille","lat":43.340804,"lon":5.410219,"is_reserved":false,"is_disabled":false,"rental_uris":{"android":"levelo://app?vid=209aad89-6ad1-4be7-b24f-a81813d47839","ios":"levelo://app?vid=209aad89-6ad1-4be7-b24f-a81813d47839"},"vehicle_type_id":"4","last_reported":1701497333,"current_range_meters":9200,"station_id":"ce4bhqh2rcd13ifvqhlg","pricing_plan_id":"free"},{"bike_id":"7729778a-d587-4a31-9e2a-fc6f9d799c22","system_id":"levelo_inurba_marseille","lat":43.340804,"lon":5.410219,"is_reserved":false,"is_disabled":false,"rental_uris":{"android":"levelo://app?vid=7729778a-d587-4a31-9e2a-fc6f9d799c22","ios":"levelo://app?vid=7729778a-d587-4a31-9e2a-fc6f9d799c22"},"vehicle_type_id":"4","last_reported":1701497333,"current_range_meters":30000,"station_id":"ce4bhqh2rcd13ifvqhlg","pricing_plan_id":"free"},{"bike_id":"77ea5544-221c-41d5-9d0d-96a805abb3d4","system_id":"levelo_inurba_marseille","lat":43.274103,"lon":5.394016,"is_reserved":false,"is_disabled":false,"rental_uris":{"android":"levelo://app?vid=77ea5544-221c-41d5-9d0d-96a805abb3d4","ios":"levelo://app?vid=77ea5544-221c-41d5-9d0d-96a805abb3d4"},"vehicle_type_id":"4","last_reported":1701497333,"current_range_meters":31200,"station_id":"ce4bhdp2rcd13ifvqf20","pricing_plan_id":"free"},{"bike_id":"5cb2a0c4-ebfe-4138-ac4b-a91d569f0c9d","system_id":"levelo_inurba_marseille","lat":43.273125,"lon":5.390731,"is_reserved":false,"is_disabled":false,"rental_uris":{"android":"levelo://app?vid=5cb2a0c4-ebfe-4138-ac4b-a91d569f0c9d","ios":"levelo://app?vid=5cb2a0c4-ebfe-4138-ac4b-a91d569f0c9d"},"vehicle_type_id":"4","last_reported":1701497333,"current_range_meters":29600,"station_id":"ce4bhgp2rcd13ifvqfe0","pricing_plan_id":"free"},{"bike_id":"a3527c32-1fa7-4ebe-9b65-a997c7b104de","system_id":"levelo_inurba_marseille","lat":43.30413,"lon":5.42536,"is_reserved":false,"is_disabled":false,"rental_uris":{"android":"levelo://app?vid=a3527c32-1fa7-4ebe-9b65-a997c7b104de","ios":"levelo://app?vid=a3527c32-1fa7-4ebe-9b65-a997c7b104de"},"vehicle_type_id":"4","last_reported":1701497333,"current_range_meters":15600,"station_id":"ce4bhoh2rcd13ifvqh6g","pricing_plan_id":"free"},{"bike_id":"7ed57e64-d5e4-414f-8eb1-b422e851258b","system_id":"levelo_inurba_marseille","lat":43.295523,"lon":5.422926,"is_reserved":false,"is_disabled":false,"rental_uris":{"android":"levelo://app?vid=7ed57e64-d5e4-414f-8eb1-b422e851258b","ios":"levelo://app?vid=7ed57e64-d5e4-414f-8eb1-b422e851258b"},"vehicle_type_id":"4","last_reported":1701497333,"current_range_meters":25200,"station_id":"ce4bhph2rcd13ifvqhdg","pricing_plan_id":"free"},{"bike_id":"18de3078-a9f7-4e1b-aefc-cab167f80af1","system_id":"levelo_inurba_marseille","lat":43.272124,"lon":5.391768,"is_reserved":false,"is_disabled":false,"rental_uris":{"android":"levelo://app?vid=18de3078-a9f7-4e1b-aefc-cab167f80af1","ios":"levelo://app?vid=18de3078-a9f7-4e1b-aefc-cab167f80af1"},"vehicle_type_id":"4","last_reported":1701497333,"current_range_meters":29200,"station_id":"ce4bhhp2rcd13ifvqfm0","pricing_plan_id":"free"},{"bike_id":"d783046e-c430-4080-a3fa-5cedff0852f8","system_id":"levelo_inurba_marseille","lat":43.278128,"lon":5.407195,"is_reserved":false,"is_disabled":false,"rental_uris":{"android":"levelo://app?vid=d783046e-c430-4080-a3fa-5cedff0852f8","ios":"levelo://app?vid=d783046e-c430-4080-a3fa-5cedff0852f8"},"vehicle_type_id":"4","last_reported":1701497333,"current_range_meters":31200,"station_id":"ce4bhnh2rcd13ifvqgtg","pricing_plan_id":"free"},{"bike_id":"bbafafb5-23e6-4098-bc32-f4debdfee428","system_id":"levelo_inurba_marseille","lat":43.278128,"lon":5.407195,"is_reserved":false,"is_disabled":false,"rental_uris":{"android":"levelo://app?vid=bbafafb5-23e6-4098-bc32-f4debdfee428","ios":"levelo://app?vid=bbafafb5-23e6-4098-bc32-f4debdfee428"},"vehicle_type_id":"4","last_reported":1701497333,"current_range_meters":26800,"station_id":"ce4bhnh2rcd13ifvqgtg","pricing_plan_id":"free"},{"bike_id":"bb88f6d9-70cc-4908-9af4-1ccee985e522","system_id":"levelo_inurba_marseille","lat":43.278128,"lon":5.407195,"is_reserved":false,"is_disabled":false,"rental_uris":{"android":"levelo://app?vid=bb88f6d9-70cc-4908-9af4-1ccee985e522","ios":"levelo://app?vid=bb88f6d9-70cc-4908-9af4-1ccee985e522"},"vehicle_type_id":"4","last_reported":1701497333,"current_range_meters":26400,"station_id":"ce4bhnh2rcd13ifvqgtg","pricing_plan_id":"free"},{"bike_id":"58e74047-65e4-4d03-8882-ac70be0a0d9b","system_id":"levelo_inurba_marseille","lat":43.269467,"lon":5.386439,"is_reserved":false,"is_disabled":false,"rental_uris":{"android":"levelo://app?vid=58e74047-65e4-4d03-8882-ac70be0a0d9b","ios":"levelo://app?vid=58e74047-65e4-4d03-8882-ac70be0a0d9b"},"vehicle_type_id":"4","last_reported":1701497333,"current_range_meters":26800,"station_id":"ce4bhh92rcd13ifvqfh0","pricing_plan_id":"free"},{"bike_id":"bda00024-93cf-4224-9e5e-f465c3caf882","system_id":"levelo_inurba_marseille","lat":43.27942,"lon":5.41045,"is_reserved":false,"is_disabled":false,"rental_uris":{"android":"levelo://app?vid=bda00024-93cf-4224-9e5e-f465c3caf882","ios":"levelo://app?vid=bda00024-93cf-4224-9e5e-f465c3caf882"},"vehicle_type_id":"4","last_reported":1701497333,"current_range_meters":4800,"station_id":"ce4bhnp2rcd13ifvqh0g","pricing_plan_id":"free"},{"bike_id":"43088efb-217b-4e64-8c5d-be3c1718bfaf","system_id":"levelo_inurba_marseille","lat":43.269319,"lon":5.389397,"is_reserved":false,"is_disabled":false,"rental_uris":{"android":"levelo://app?vid=43088efb-217b-4e64-8c5d-be3c1718bfaf","ios":"levelo://app?vid=43088efb-217b-4e64-8c5d-be3c1718bfaf"},"vehicle_type_id":"4","last_reported":1701497333,"current_range_meters":27600,"station_id":"ce4bhhh2rcd13ifvqfl0","pricing_plan_id":"free"},{"bike_id":"57d7111f-fb23-4ada-af85-b112245d6401","system_id":"levelo_inurba_marseille","lat":43.269319,"lon":5.389397,"is_reserved":false,"is_disabled":false,"rental_uris":{"android":"levelo://app?vid=57d7111f-fb23-4ada-af85-b112245d6401","ios":"levelo://app?vid=57d7111f-fb23-4ada-af85-b112245d6401"},"vehicle_type_id":"4","last_reported":1701497333,"current_range_meters":31200,"station_id":"ce4bhhh2rcd13ifvqfl0","pricing_plan_id":"free"},{"bike_id":"91a89a70-956d-4b11-ad16-92a508d57b49","system_id":"levelo_inurba_marseille","lat":43.27996,"lon":5.416624,"is_reserved":false,"is_disabled":false,"rental_uris":{"android":"levelo://app?vid=91a89a70-956d-4b11-ad16-92a508d57b49","ios":"levelo://app?vid=91a89a70-956d-4b11-ad16-92a508d57b49"},"vehicle_type_id":"4","last_reported":1701497333,"current_range_meters":18400,"station_id":"ce4bho12rcd13ifvqh1g","pricing_plan_id":"free"},{"bike_id":"a2d420dd-14be-462d-a1c6-cb06f97f2ed5","system_id":"levelo_inurba_marseille","lat":43.27996,"lon":5.416624,"is_reserved":false,"is_disabled":false,"rental_uris":{"android":"levelo://app?vid=a2d420dd-14be-462d-a1c6-cb06f97f2ed5","ios":"levelo://app?vid=a2d420dd-14be-462d-a1c6-cb06f97f2ed5"},"vehicle_type_id":"4","last_reported":1701497333,"current_range_meters":31200,"station_id":"ce4bho12rcd13ifvqh1g","pricing_plan_id":"free"},{"bike_id":"8a5a972f-0927-4808-b102-cafd69087f2d","system_id":"levelo_inurba_marseille","lat":43.279886,"lon":5.416651,"is_reserved":false,"is_disabled":false,"rental_uris":{"android":"levelo://app?vid=8a5a972f-0927-4808-b102-cafd69087f2d","ios":"levelo://app?vid=8a5a972f-0927-4808-b102-cafd69087f2d"},"vehicle_type_id":"4","last_reported":1701497333,"current_range_meters":13200,"station_id":"ce4bho12rcd13ifvqh1g","pricing_plan_id":"free"},{"bike_id":"7cfdf2ff-0940-4534-b80b-7f11f3966d04","system_id":"levelo_inurba_marseille","lat":43.265714,"lon":5.372891,"is_reserved":false,"is_disabled":false,"rental_uris":{"android":"levelo://app?vid=7cfdf2ff-0940-4534-b80b-7f11f3966d04","ios":"levelo://app?vid=7cfdf2ff-0940-4534-b80b-7f11f3966d04"},"vehicle_type_id":"4","last_reported":1701497333,"current_range_meters":24400,"station_id":"ce4bhg12rcd13ifvqf70","pricing_plan_id":"free"},{"bike_id":"759812df-0eb6-40a6-ad6a-406c9a951569","system_id":"levelo_inurba_marseille","lat":43.267966,"lon":5.393976,"is_reserved":false,"is_disabled":false,"rental_uris":{"android":"levelo://app?vid=759812df-0eb6-40a6-ad6a-406c9a951569","ios":"levelo://app?vid=759812df-0eb6-40a6-ad6a-406c9a951569"},"vehicle_type_id":"4","last_reported":1701497333,"current_range_meters":28000,"station_id":"ce4bhh12rcd13ifvqfg0","pricing_plan_id":"free"},{"bike_id":"90afca6f-e8f9-4fca-a84e-a9e37ac4635b","system_id":"levelo_inurba_marseille","lat":43.26585,"lon":5.39001,"is_reserved":false,"is_disabled":false,"rental_uris":{"android":"levelo://app?vid=90afca6f-e8f9-4fca-a84e-a9e37ac4635b","ios":"levelo://app?vid=90afca6f-e8f9-4fca-a84e-a9e37ac4635b"},"vehicle_type_id":"4","last_reported":1701497333,"current_range_meters":26000,"station_id":"ce4bhe12rcd13ifvqf30","pricing_plan_id":"free"},{"bike_id":"55b33a5c-1177-4dd9-b3a0-e993463bd4e2","system_id":"levelo_inurba_marseille","lat":43.308051,"lon":5.43527,"is_reserved":false,"is_disabled":false,"rental_uris":{"android":"levelo://app?vid=55b33a5c-1177-4dd9-b3a0-e993463bd4e2","ios":"levelo://app?vid=55b33a5c-1177-4dd9-b3a0-e993463bd4e2"},"vehicle_type_id":"4","last_reported":1701497333,"current_range_meters":30000,"station_id":"ce4bhph2rcd13ifvqheg","pricing_plan_id":"free"},{"bike_id":"cf20c175-6988-4473-8c7d-b67449351266","system_id":"levelo_inurba_marseille","lat":43.317104,"lon":5.436818,"is_reserved":false,"is_disabled":false,"rental_uris":{"android":"levelo://app?vid=cf20c175-6988-4473-8c7d-b67449351266","ios":"levelo://app?vid=cf20c175-6988-4473-8c7d-b67449351266"},"vehicle_type_id":"4","last_reported":1701497333,"current_range_meters":28800,"station_id":"ce4bhp92rcd13ifvqhcg","pricing_plan_id":"free"},{"bike_id":"c71160fc-c7b7-4c0b-8b7c-da5014dcb825","system_id":"levelo_inurba_marseille","lat":43.317104,"lon":5.436818,"is_reserved":false,"is_disabled":false,"rental_uris":{"android":"levelo://app?vid=c71160fc-c7b7-4c0b-8b7c-da5014dcb825","ios":"levelo://app?vid=c71160fc-c7b7-4c0b-8b7c-da5014dcb825"},"vehicle_type_id":"4","last_reported":1701497333,"current_range_meters":31200,"station_id":"ce4bhp92rcd13ifvqhcg","pricing_plan_id":"free"},{"bike_id":"f9cac9a5-67a1-4158-a2a6-203ab176f26c","system_id":"levelo_inurba_marseille","lat":43.271388,"lon":5.409269,"is_reserved":false,"is_disabled":false,"rental_uris":{"android":"levelo://app?vid=f9cac9a5-67a1-4158-a2a6-203ab176f26c","ios":"levelo://app?vid=f9cac9a5-67a1-4158-a2a6-203ab176f26c"},"vehicle_type_id":"4","last_reported":1701497333,"current_range_meters":31200,"station_id":"ce4bhl12rcd13ifvqgf0","pricing_plan_id":"free"},{"bike_id":"e023fcae-9e32-401b-a85c-78f48248b0bc","system_id":"levelo_inurba_marseille","lat":43.271368,"lon":5.40928,"is_reserved":false,"is_disabled":false,"rental_uris":{"android":"levelo://app?vid=e023fcae-9e32-401b-a85c-78f48248b0bc","ios":"levelo://app?vid=e023fcae-9e32-401b-a85c-78f48248b0bc"},"vehicle_type_id":"4","last_reported":1701497333,"current_range_meters":31200,"station_id":"ce4bhl12rcd13ifvqgf0","pricing_plan_id":"free"},{"bike_id":"62f6648c-6f6e-407f-b8b6-e2d8c5cf7299","system_id":"levelo_inurba_marseille","lat":43.271368,"lon":5.40928,"is_reserved":false,"is_disabled":false,"rental_uris":{"android":"levelo://app?vid=62f6648c-6f6e-407f-b8b6-e2d8c5cf7299","ios":"levelo://app?vid=62f6648c-6f6e-407f-b8b6-e2d8c5cf7299"},"vehicle_type_id":"4","last_reported":1701497333,"current_range_meters":7600,"station_id":"ce4bhl12rcd13ifvqgf0","pricing_plan_id":"free"},{"bike_id":"2ba9db67-bc08-4181-91bc-5b87bbc9227d","system_id":"levelo_inurba_marseille","lat":43.26202,"lon":5.379299,"is_reserved":false,"is_disabled":false,"rental_uris":{"android":"levelo://app?vid=2ba9db67-bc08-4181-91bc-5b87bbc9227d","ios":"levelo://app?vid=2ba9db67-bc08-4181-91bc-5b87bbc9227d"},"vehicle_type_id":"4","last_reported":1701497333,"current_range_meters":28000,"station_id":"ce4bhjp2rcd13ifvqg90","pricing_plan_id":"free"},{"bike_id":"755eb63e-5a2f-4860-9b00-08b82981fdb5","system_id":"levelo_inurba_marseille","lat":43.271368,"lon":5.40928,"is_reserved":false,"is_disabled":false,"rental_uris":{"android":"levelo://app?vid=755eb63e-5a2f-4860-9b00-08b82981fdb5","ios":"levelo://app?vid=755eb63e-5a2f-4860-9b00-08b82981fdb5"},"vehicle_type_id":"4","last_reported":1701497333,"current_range_meters":22800,"station_id":"ce4bhl12rcd13ifvqgf0","pricing_plan_id":"free"},{"bike_id":"be554e14-baf6-4d39-bbf3-064c681b17e0","system_id":"levelo_inurba_marseille","lat":43.267959,"lon":5.402687,"is_reserved":false,"is_disabled":false,"rental_uris":{"android":"levelo://app?vid=be554e14-baf6-4d39-bbf3-064c681b17e0","ios":"levelo://app?vid=be554e14-baf6-4d39-bbf3-064c681b17e0"},"vehicle_type_id":"4","last_reported":1701497333,"current_range_meters":28800,"station_id":"ce501612rcd8frsf0b60","pricing_plan_id":"free"},{"bike_id":"a265f57d-2203-4406-8278-bc194922c399","system_id":"levelo_inurba_marseille","lat":43.281551,"lon":5.426363,"is_reserved":false,"is_disabled":false,"rental_uris":{"android":"levelo://app?vid=a265f57d-2203-4406-8278-bc194922c399","ios":"levelo://app?vid=a265f57d-2203-4406-8278-bc194922c399"},"vehicle_type_id":"4","last_reported":1701497333,"current_range_meters":29200,"station_id":"ce4bhnh2rcd13ifvqgug","pricing_plan_id":"free"},{"bike_id":"b802834e-51f4-41a4-96cb-c31681473515","system_id":"levelo_inurba_marseille","lat":43.281511,"lon":5.42645,"is_reserved":false,"is_disabled":false,"rental_uris":{"android":"levelo://app?vid=b802834e-51f4-41a4-96cb-c31681473515","ios":"levelo://app?vid=b802834e-51f4-41a4-96cb-c31681473515"},"vehicle_type_id":"4","last_reported":1701497333,"current_range_meters":30400,"station_id":"ce4bhnh2rcd13ifvqgug","pricing_plan_id":"free"},{"bike_id":"ec886ae1-741d-43da-acce-0b8b52a6f8b1","system_id":"levelo_inurba_marseille","lat":43.28154,"lon":5.42648,"is_reserved":false,"is_disabled":false,"rental_uris":{"android":"levelo://app?vid=ec886ae1-741d-43da-acce-0b8b52a6f8b1","ios":"levelo://app?vid=ec886ae1-741d-43da-acce-0b8b52a6f8b1"},"vehicle_type_id":"4","last_reported":1701497333,"current_range_meters":4800,"station_id":"ce4bhnh2rcd13ifvqgug","pricing_plan_id":"free"},{"bike_id":"3de40b48-7293-4590-b1e4-a9c54e991d0a","system_id":"levelo_inurba_marseille","lat":43.281537,"lon":5.42648,"is_reserved":false,"is_disabled":false,"rental_uris":{"android":"levelo://app?vid=3de40b48-7293-4590-b1e4-a9c54e991d0a","ios":"levelo://app?vid=3de40b48-7293-4590-b1e4-a9c54e991d0a"},"vehicle_type_id":"4","last_reported":1701497333,"current_range_meters":16400,"station_id":"ce4bhnh2rcd13ifvqgug","pricing_plan_id":"free"},{"bike_id":"3532a786-7312-4db1-88be-2e5e8a274941","system_id":"levelo_inurba_marseille","lat":43.281527,"lon":5.426484,"is_reserved":false,"is_disabled":false,"rental_uris":{"android":"levelo://app?vid=3532a786-7312-4db1-88be-2e5e8a274941","ios":"levelo://app?vid=3532a786-7312-4db1-88be-2e5e8a274941"},"vehicle_type_id":"4","last_reported":1701497333,"current_range_meters":24800,"station_id":"ce4bhnh2rcd13ifvqgug","pricing_plan_id":"free"},{"bike_id":"aa32d31c-2cc3-4bda-a3f0-5b3d1a2f9ae5","system_id":"levelo_inurba_marseille","lat":43.28148,"lon":5.42644,"is_reserved":false,"is_disabled":false,"rental_uris":{"android":"levelo://app?vid=aa32d31c-2cc3-4bda-a3f0-5b3d1a2f9ae5","ios":"levelo://app?vid=aa32d31c-2cc3-4bda-a3f0-5b3d1a2f9ae5"},"vehicle_type_id":"4","last_reported":1701497333,"current_range_meters":5200,"station_id":"ce4bhnh2rcd13ifvqgug","pricing_plan_id":"free"},{"bike_id":"81f4f34a-8d36-4c09-961e-e42c57ef3483","system_id":"levelo_inurba_marseille","lat":43.281473,"lon":5.426452,"is_reserved":false,"is_disabled":false,"rental_uris":{"android":"levelo://app?vid=81f4f34a-8d36-4c09-961e-e42c57ef3483","ios":"levelo://app?vid=81f4f34a-8d36-4c09-961e-e42c57ef3483"},"vehicle_type_id":"4","last_reported":1701497333,"current_range_meters":800,"station_id":"ce4bhnh2rcd13ifvqgug","pricing_plan_id":"free"},{"bike_id":"d3df04f1-aa36-401c-b9f0-16ea3bba87de","system_id":"levelo_inurba_marseille","lat":43.281547,"lon":5.426529,"is_reserved":false,"is_disabled":false,"rental_uris":{"android":"levelo://app?vid=d3df04f1-aa36-401c-b9f0-16ea3bba87de","ios":"levelo://app?vid=d3df04f1-aa36-401c-b9f0-16ea3bba87de"},"vehicle_type_id":"4","last_reported":1701497333,"current_range_meters":14400,"station_id":"ce4bhnh2rcd13ifvqgug","pricing_plan_id":"free"},{"bike_id":"134ca5b8-0967-4a97-a0ab-58c282331702","system_id":"levelo_inurba_marseille","lat":43.2607,"lon":5.393983,"is_reserved":false,"is_disabled":false,"rental_uris":{"android":"levelo://app?vid=134ca5b8-0967-4a97-a0ab-58c282331702","ios":"levelo://app?vid=134ca5b8-0967-4a97-a0ab-58c282331702"},"vehicle_type_id":"4","last_reported":1701497333,"current_range_meters":23200,"station_id":"ce4bhh92rcd13ifvqfj0","pricing_plan_id":"free"},{"bike_id":"994caf70-8e1f-40de-af4c-a7ce43a6b2d4","system_id":"levelo_inurba_marseille","lat":43.275028,"lon":5.424534,"is_reserved":false,"is_disabled":false,"rental_uris":{"android":"levelo://app?vid=994caf70-8e1f-40de-af4c-a7ce43a6b2d4","ios":"levelo://app?vid=994caf70-8e1f-40de-af4c-a7ce43a6b2d4"},"vehicle_type_id":"4","last_reported":1701497333,"current_range_meters":29200,"station_id":"ce4bhn92rcd13ifvqgrg","pricing_plan_id":"free"},{"bike_id":"ff9ba92e-f8fb-4a62-b39c-7d6deea29a74","system_id":"levelo_inurba_marseille","lat":43.25578,"lon":5.38236,"is_reserved":false,"is_disabled":false,"rental_uris":{"android":"levelo://app?vid=ff9ba92e-f8fb-4a62-b39c-7d6deea29a74","ios":"levelo://app?vid=ff9ba92e-f8fb-4a62-b39c-7d6deea29a74"},"vehicle_type_id":"4","last_reported":1701497333,"current_range_meters":8400,"station_id":"ce4bhih2rcd13ifvqfs0","pricing_plan_id":"free"},{"bike_id":"bcbaa63e-900e-4166-8d83-d6f28426bdc8","system_id":"levelo_inurba_marseille","lat":43.255738,"lon":5.382432,"is_reserved":false,"is_disabled":false,"rental_uris":{"android":"levelo://app?vid=bcbaa63e-900e-4166-8d83-d6f28426bdc8","ios":"levelo://app?vid=bcbaa63e-900e-4166-8d83-d6f28426bdc8"},"vehicle_type_id":"4","last_reported":1701497333,"current_range_meters":19600,"station_id":"ce4bhih2rcd13ifvqfs0","pricing_plan_id":"free"},{"bike_id":"b50e7963-680b-40e1-ab37-36504f3646f3","system_id":"levelo_inurba_marseille","lat":43.258224,"lon":5.394369,"is_reserved":false,"is_disabled":false,"rental_uris":{"android":"levelo://app?vid=b50e7963-680b-40e1-ab37-36504f3646f3","ios":"levelo://app?vid=b50e7963-680b-40e1-ab37-36504f3646f3"},"vehicle_type_id":"4","last_reported":1701497333,"current_range_meters":28400,"station_id":"ce4bhip2rcd13ifvqft0","pricing_plan_id":"free"},{"bike_id":"5f957d95-e4f6-4778-bd7f-a7990ab59efd","system_id":"levelo_inurba_marseille","lat":43.254947,"lon":5.376454,"is_reserved":false,"is_disabled":false,"rental_uris":{"android":"levelo://app?vid=5f957d95-e4f6-4778-bd7f-a7990ab59efd","ios":"levelo://app?vid=5f957d95-e4f6-4778-bd7f-a7990ab59efd"},"vehicle_type_id":"4","last_reported":1701497333,"current_range_meters":31600,"station_id":"ce4bhh12rcd13ifvqff0","pricing_plan_id":"free"},{"bike_id":"86c1bbfb-43d0-485a-8564-32eb4d98fae5","system_id":"levelo_inurba_marseille","lat":43.254947,"lon":5.376454,"is_reserved":false,"is_disabled":false,"rental_uris":{"android":"levelo://app?vid=86c1bbfb-43d0-485a-8564-32eb4d98fae5","ios":"levelo://app?vid=86c1bbfb-43d0-485a-8564-32eb4d98fae5"},"vehicle_type_id":"4","last_reported":1701497333,"current_range_meters":25200,"station_id":"ce4bhh12rcd13ifvqff0","pricing_plan_id":"free"},{"bike_id":"6b55de0b-bf22-4d3b-bb7b-9bfacee3cb65","system_id":"levelo_inurba_marseille","lat":43.270721,"lon":5.422764,"is_reserved":false,"is_disabled":false,"rental_uris":{"android":"levelo://app?vid=6b55de0b-bf22-4d3b-bb7b-9bfacee3cb65","ios":"levelo://app?vid=6b55de0b-bf22-4d3b-bb7b-9bfacee3cb65"},"vehicle_type_id":"4","last_reported":1701497333,"current_range_meters":31200,"station_id":"ce4bhk92rcd13ifvqgb0","pricing_plan_id":"free"},{"bike_id":"56de3f0e-b18c-485a-8c58-e4c4956ba711","system_id":"levelo_inurba_marseille","lat":43.270721,"lon":5.422764,"is_reserved":false,"is_disabled":false,"rental_uris":{"android":"levelo://app?vid=56de3f0e-b18c-485a-8c58-e4c4956ba711","ios":"levelo://app?vid=56de3f0e-b18c-485a-8c58-e4c4956ba711"},"vehicle_type_id":"4","last_reported":1701497333,"current_range_meters":31200,"station_id":"ce4bhk92rcd13ifvqgb0","pricing_plan_id":"free"},{"bike_id":"13d41cfa-759c-4a72-a18b-0525b390fe5c","system_id":"levelo_inurba_marseille","lat":43.270721,"lon":5.422764,"is_reserved":false,"is_disabled":false,"rental_uris":{"android":"levelo://app?vid=13d41cfa-759c-4a72-a18b-0525b390fe5c","ios":"levelo://app?vid=13d41cfa-759c-4a72-a18b-0525b390fe5c"},"vehicle_type_id":"4","last_reported":1701497333,"current_range_meters":30000,"station_id":"ce4bhk92rcd13ifvqgb0","pricing_plan_id":"free"},{"bike_id":"292a6f9a-7610-4701-bedc-5c382c13353c","system_id":"levelo_inurba_marseille","lat":43.270689,"lon":5.422831,"is_reserved":false,"is_disabled":false,"rental_uris":{"android":"levelo://app?vid=292a6f9a-7610-4701-bedc-5c382c13353c","ios":"levelo://app?vid=292a6f9a-7610-4701-bedc-5c382c13353c"},"vehicle_type_id":"4","last_reported":1701497333,"current_range_meters":18400,"station_id":"ce4bhk92rcd13ifvqgb0","pricing_plan_id":"free"},{"bike_id":"e9983c04-8ba2-4199-91ff-f23b5efe00a0","system_id":"levelo_inurba_marseille","lat":43.258658,"lon":5.398935,"is_reserved":false,"is_disabled":false,"rental_uris":{"android":"levelo://app?vid=e9983c04-8ba2-4199-91ff-f23b5efe00a0","ios":"levelo://app?vid=e9983c04-8ba2-4199-91ff-f23b5efe00a0"},"vehicle_type_id":"4","last_reported":1701497333,"current_range_meters":29200,"station_id":"ce4bhl92rcd13ifvqghg","pricing_plan_id":"free"},{"bike_id":"acce3b6b-c95f-46c6-b4b6-edf03f7be051","system_id":"levelo_inurba_marseille","lat":43.258658,"lon":5.398935,"is_reserved":false,"is_disabled":false,"rental_uris":{"android":"levelo://app?vid=acce3b6b-c95f-46c6-b4b6-edf03f7be051","ios":"levelo://app?vid=acce3b6b-c95f-46c6-b4b6-edf03f7be051"},"vehicle_type_id":"4","last_reported":1701497333,"current_range_meters":30400,"station_id":"ce4bhl92rcd13ifvqghg","pricing_plan_id":"free"},{"bike_id":"68fbda5d-5144-450e-a41d-17c7fc221bd0","system_id":"levelo_inurba_marseille","lat":43.258658,"lon":5.398935,"is_reserved":false,"is_disabled":false,"rental_uris":{"android":"levelo://app?vid=68fbda5d-5144-450e-a41d-17c7fc221bd0","ios":"levelo://app?vid=68fbda5d-5144-450e-a41d-17c7fc221bd0"},"vehicle_type_id":"4","last_reported":1701497333,"current_range_meters":31200,"station_id":"ce4bhl92rcd13ifvqghg","pricing_plan_id":"free"},{"bike_id":"d66c0fdb-df4a-47e6-92d7-19705d3322ce","system_id":"levelo_inurba_marseille","lat":43.258658,"lon":5.398935,"is_reserved":false,"is_disabled":false,"rental_uris":{"android":"levelo://app?vid=d66c0fdb-df4a-47e6-92d7-19705d3322ce","ios":"levelo://app?vid=d66c0fdb-df4a-47e6-92d7-19705d3322ce"},"vehicle_type_id":"4","last_reported":1701497333,"current_range_meters":31200,"station_id":"ce4bhl92rcd13ifvqghg","pricing_plan_id":"free"},{"bike_id":"f88fd433-05bf-4de3-9f93-62a16ba6307d","system_id":"levelo_inurba_marseille","lat":43.259009,"lon":5.40929,"is_reserved":false,"is_disabled":false,"rental_uris":{"android":"levelo://app?vid=f88fd433-05bf-4de3-9f93-62a16ba6307d","ios":"levelo://app?vid=f88fd433-05bf-4de3-9f93-62a16ba6307d"},"vehicle_type_id":"4","last_reported":1701497333,"current_range_meters":14400,"station_id":"ce4bhm92rcd13ifvqglg","pricing_plan_id":"free"},{"bike_id":"8260938c-99a0-41e0-9eca-ebe62e09f8e6","system_id":"levelo_inurba_marseille","lat":43.259013,"lon":5.409301,"is_reserved":false,"is_disabled":false,"rental_uris":{"android":"levelo://app?vid=8260938c-99a0-41e0-9eca-ebe62e09f8e6","ios":"levelo://app?vid=8260938c-99a0-41e0-9eca-ebe62e09f8e6"},"vehicle_type_id":"4","last_reported":1701497333,"current_range_meters":21200,"station_id":"ce4bhm92rcd13ifvqglg","pricing_plan_id":"free"},{"bike_id":"99ee76bf-253b-45b6-98c6-870f3c2c3282","system_id":"levelo_inurba_marseille","lat":43.257079,"lon":5.411051,"is_reserved":false,"is_disabled":false,"rental_uris":{"android":"levelo://app?vid=99ee76bf-253b-45b6-98c6-870f3c2c3282","ios":"levelo://app?vid=99ee76bf-253b-45b6-98c6-870f3c2c3282"},"vehicle_type_id":"4","last_reported":1701497333,"current_range_meters":19200,"station_id":"ce4bhkp2rcd13ifvqgd0","pricing_plan_id":"free"},{"bike_id":"f779deaf-feb2-4b7c-b8af-6bb335c0327a","system_id":"levelo_inurba_marseille","lat":43.250009,"lon":5.389195,"is_reserved":false,"is_disabled":false,"rental_uris":{"android":"levelo://app?vid=f779deaf-feb2-4b7c-b8af-6bb335c0327a","ios":"levelo://app?vid=f779deaf-feb2-4b7c-b8af-6bb335c0327a"},"vehicle_type_id":"4","last_reported":1701497333,"current_range_meters":12000,"station_id":"ce4bhgp2rcd13ifvqfd0","pricing_plan_id":"free"},{"bike_id":"4ac6d9fe-c346-4df3-8dff-a415974401dd","system_id":"levelo_inurba_marseille","lat":43.2479,"lon":5.374457,"is_reserved":false,"is_disabled":false,"rental_uris":{"android":"levelo://app?vid=4ac6d9fe-c346-4df3-8dff-a415974401dd","ios":"levelo://app?vid=4ac6d9fe-c346-4df3-8dff-a415974401dd"},"vehicle_type_id":"4","last_reported":1701497333,"current_range_meters":28400,"station_id":"ce4bhgh2rcd13ifvqfb0","pricing_plan_id":"free"},{"bike_id":"b614a7f5-a107-479f-bb18-c4352b855065","system_id":"levelo_inurba_marseille","lat":43.25092,"lon":5.39525,"is_reserved":false,"is_disabled":false,"rental_uris":{"android":"levelo://app?vid=b614a7f5-a107-479f-bb18-c4352b855065","ios":"levelo://app?vid=b614a7f5-a107-479f-bb18-c4352b855065"},"vehicle_type_id":"4","last_reported":1701497333,"current_range_meters":20800,"station_id":"ce4bhm12rcd13ifvqgkg","pricing_plan_id":"free"},{"bike_id":"7b86737e-88b6-402e-953d-d66f821e4367","system_id":"levelo_inurba_marseille","lat":43.250966,"lon":5.395186,"is_reserved":false,"is_disabled":false,"rental_uris":{"android":"levelo://app?vid=7b86737e-88b6-402e-953d-d66f821e4367","ios":"levelo://app?vid=7b86737e-88b6-402e-953d-d66f821e4367"},"vehicle_type_id":"4","last_reported":1701497333,"current_range_meters":29600,"station_id":"ce4bhm12rcd13ifvqgkg","pricing_plan_id":"free"},{"bike_id":"1d4676a2-3cde-486f-aa8e-7590ad29ddb5","system_id":"levelo_inurba_marseille","lat":43.25102,"lon":5.403214,"is_reserved":false,"is_disabled":false,"rental_uris":{"android":"levelo://app?vid=1d4676a2-3cde-486f-aa8e-7590ad29ddb5","ios":"levelo://app?vid=1d4676a2-3cde-486f-aa8e-7590ad29ddb5"},"vehicle_type_id":"4","last_reported":1701497333,"current_range_meters":31200,"station_id":"ce4bhlh2rcd13ifvqgig","pricing_plan_id":"free"},{"bike_id":"ca0d6629-0db5-4c04-8bbe-c5fc4a45fa0e","system_id":"levelo_inurba_marseille","lat":43.25102,"lon":5.403214,"is_reserved":false,"is_disabled":false,"rental_uris":{"android":"levelo://app?vid=ca0d6629-0db5-4c04-8bbe-c5fc4a45fa0e","ios":"levelo://app?vid=ca0d6629-0db5-4c04-8bbe-c5fc4a45fa0e"},"vehicle_type_id":"4","last_reported":1701497333,"current_range_meters":16800,"station_id":"ce4bhlh2rcd13ifvqgig","pricing_plan_id":"free"},{"bike_id":"fc5bbe81-0aa5-476b-aa30-f25c82b188da","system_id":"levelo_inurba_marseille","lat":43.25102,"lon":5.403214,"is_reserved":false,"is_disabled":false,"rental_uris":{"android":"levelo://app?vid=fc5bbe81-0aa5-476b-aa30-f25c82b188da","ios":"levelo://app?vid=fc5bbe81-0aa5-476b-aa30-f25c82b188da"},"vehicle_type_id":"4","last_reported":1701497333,"current_range_meters":31200,"station_id":"ce4bhlh2rcd13ifvqgig","pricing_plan_id":"free"},{"bike_id":"0c00f1f7-91b0-4c50-948b-6ce70c0f8465","system_id":"levelo_inurba_marseille","lat":43.243884,"lon":5.370736,"is_reserved":false,"is_disabled":false,"rental_uris":{"android":"levelo://app?vid=0c00f1f7-91b0-4c50-948b-6ce70c0f8465","ios":"levelo://app?vid=0c00f1f7-91b0-4c50-948b-6ce70c0f8465"},"vehicle_type_id":"4","last_reported":1701497333,"current_range_meters":26400,"station_id":"ce4bhhh2rcd13ifvqfk0","pricing_plan_id":"free"},{"bike_id":"cb526548-1657-4495-b7bd-81df4edfeae0","system_id":"levelo_inurba_marseille","lat":43.243884,"lon":5.370736,"is_reserved":false,"is_disabled":false,"rental_uris":{"android":"levelo://app?vid=cb526548-1657-4495-b7bd-81df4edfeae0","ios":"levelo://app?vid=cb526548-1657-4495-b7bd-81df4edfeae0"},"vehicle_type_id":"4","last_reported":1701497333,"current_range_meters":29200,"station_id":"ce4bhhh2rcd13ifvqfk0","pricing_plan_id":"free"},{"bike_id":"3070e000-efaa-47b7-82a7-255205c43215","system_id":"levelo_inurba_marseille","lat":43.245581,"lon":5.395069,"is_reserved":false,"is_disabled":false,"rental_uris":{"android":"levelo://app?vid=3070e000-efaa-47b7-82a7-255205c43215","ios":"levelo://app?vid=3070e000-efaa-47b7-82a7-255205c43215"},"vehicle_type_id":"4","last_reported":1701497333,"current_range_meters":14400,"station_id":"ce4bhlp2rcd13ifvqgjg","pricing_plan_id":"free"},{"bike_id":"ce3539e6-0a8a-466e-93ab-dcbaadf21596","system_id":"levelo_inurba_marseille","lat":43.245581,"lon":5.395069,"is_reserved":false,"is_disabled":false,"rental_uris":{"android":"levelo://app?vid=ce3539e6-0a8a-466e-93ab-dcbaadf21596","ios":"levelo://app?vid=ce3539e6-0a8a-466e-93ab-dcbaadf21596"},"vehicle_type_id":"4","last_reported":1701497333,"current_range_meters":29200,"station_id":"ce4bhlp2rcd13ifvqgjg","pricing_plan_id":"free"},{"bike_id":"270a09c5-ec76-4940-aaa6-fb1bb475614a","system_id":"levelo_inurba_marseille","lat":43.245581,"lon":5.395069,"is_reserved":false,"is_disabled":false,"rental_uris":{"android":"levelo://app?vid=270a09c5-ec76-4940-aaa6-fb1bb475614a","ios":"levelo://app?vid=270a09c5-ec76-4940-aaa6-fb1bb475614a"},"vehicle_type_id":"4","last_reported":1701497333,"current_range_meters":28400,"station_id":"ce4bhlp2rcd13ifvqgjg","pricing_plan_id":"free"},{"bike_id":"d6ded3b3-8da7-4bde-b403-e858555135c2","system_id":"levelo_inurba_marseille","lat":43.24078,"lon":5.37757,"is_reserved":false,"is_disabled":false,"rental_uris":{"android":"levelo://app?vid=d6ded3b3-8da7-4bde-b403-e858555135c2","ios":"levelo://app?vid=d6ded3b3-8da7-4bde-b403-e858555135c2"},"vehicle_type_id":"4","last_reported":1701497333,"current_range_meters":17200,"station_id":"ce4bhnp2rcd13ifvqgvg","pricing_plan_id":"free"},{"bike_id":"3c5e02b2-ef01-4779-a37d-46310c45b2ee","system_id":"levelo_inurba_marseille","lat":43.240623,"lon":5.377642,"is_reserved":false,"is_disabled":false,"rental_uris":{"android":"levelo://app?vid=3c5e02b2-ef01-4779-a37d-46310c45b2ee","ios":"levelo://app?vid=3c5e02b2-ef01-4779-a37d-46310c45b2ee"},"vehicle_type_id":"4","last_reported":1701497333,"current_range_meters":26400,"station_id":"ce4bhnp2rcd13ifvqgvg","pricing_plan_id":"free"},